{"last_updated":1752491421,"ttl":60,"version":"2.2","data":{"bikes":[{"bike_id":"feb1ed1d-b0db-45cc-9e1b-7311a8d72058","system_id":"levelo_inurba_marseille","lat":43.33747,"lon":5.37463,"is_reserved":false,"is_disabled":false,"rental_uris":{"android":"levelo://app?vid=feb1ed1d-b0db-45cc-9e1b-7311a8d72058","ios":"levelo://app?vid=feb1ed1d-b0db-45cc-9e1b-7311a8d72058"},"vehicle_type_id":"1","last_reported":1752491421,"current_range_meters":38400,"station_id":"","pricing_plan_id":"cebpf4jnsgd1na2vs0mg"},{"bike_id":"4dc5c691-d01a-4eb6-b605-adb507565b56","system_id":"levelo_inurba_marseille","lat":43.23183,"lon":5.39987,"is_reserved":false,"is_disabled":false,"rental_uris":{"android":"levelo://app?vid=4dc5c691-d01a-4eb6-b605-adb507565b56","ios":"levelo://app?vid=4dc5c691-d01a-4eb6-b605-adb507565b56"},"vehicle_type_id":"4","last_reported":1752491421,"current_range_meters":2000,"station_id":"ce4bhn12rcd13ifvqgqg","pricing_plan_id":"cebpf4jnsgd1na2vs0mg"},{"bike_id":"76cb5981-05a6-486e-bf8d-05e37f481d47","system_id":"levelo_inurba_marseille","lat":43.216869,"lon":5.346113,"is_reserved":false,"is_disabled":false,"rental_uris":{"android":"levelo://app?vid=76cb5981-05a6-486e-bf8d-05e37f481d47","ios":"levelo://app?vid=76cb5981-05a6-486e-bf8d-05e37f481d47"},"vehicle_type_id":"4","last_reported":1752491421,"current_range_meters":2800,"station_id":"st_cvj6r9ubvosntc0bgbag","pricing_plan_id":"cebpf4jnsgd1na2vs0mg"},{"bike_id":"d073222e-f89a-47c9-9860-8fe401c0c65c","system_id":"levelo_inurba_marseille","lat":43.30646,"lon":5.40095,"is_reserved":false,"is_disabled":false,"rental_uris":{"android":"levelo://app?vid=d073222e-f89a-47c9-9860-8fe401c0c65c","ios":"levelo://app?vid=d073222e-f89a-47c9-9860-8fe401c0c65c"},"vehicle_type_id":"4","last_reported":1752491421,"current_range_meters":3200,"station_id":"ce4bh112rcd13ifvqda0","pricing_plan_id":"cebpf4jnsgd1na2vs0mg"},{"bike_id":"3d7c83a1-d94c-4aab-95a9-8a04bec43d63","system_id":"levelo_inurba_marseille","lat":43.32371,"lon":5.36771,"is_reserved":false,"is_disabled":false,"rental_uris":{"android":"levelo://app?vid=3d7c83a1-d94c-4aab-95a9-8a04bec43d63","ios":"levelo://app?vid=3d7c83a1-d94c-4aab-95a9-8a04bec43d63"},"vehicle_type_id":"4","last_reported":1752491421,"current_range_meters":3600,"station_id":"ce4bhsh2rcd13ifvqi2g","pricing_plan_id":"cebpf4jnsgd1na2vs0mg"},{"bike_id":"dbba3321-20c7-4989-a7b5-ea9ab2c4b3e8","system_id":"levelo_inurba_marseille","lat":43.261935,"lon":5.374477,"is_reserved":false,"is_disabled":true,"rental_uris":{"android":"levelo://app?vid=dbba3321-20c7-4989-a7b5-ea9ab2c4b3e8","ios":"levelo://app?vid=dbba3321-20c7-4989-a7b5-ea9ab2c4b3e8"},"vehicle_type_id":"4","last_reported":1752491421,"current_range_meters":3600,"station_id":"ce4bhgp2rcd13ifvqfc0","pricing_plan_id":"cebpf4jnsgd1na2vs0mg"},{"bike_id":"acb120b1-8119-4e6e-92fd-c5b80102b786","system_id":"levelo_inurba_marseille","lat":43.28612,"lon":5.37056,"is_reserved":false,"is_disabled":false,"rental_uris":{"android":"levelo://app?vid=acb120b1-8119-4e6e-92fd-c5b80102b786","ios":"levelo://app?vid=acb120b1-8119-4e6e-92fd-c5b80102b786"},"vehicle_type_id":"4","last_reported":1752491421,"current_range_meters":3600,"station_id":"ce4bht12rcd13ifvqi60","pricing_plan_id":"cebpf4jnsgd1na2vs0mg"},{"bike_id":"fa72078f-7c1e-4b4b-9840-1b0354463b0a","system_id":"levelo_inurba_marseille","lat":43.240723,"lon":5.377611,"is_reserved":false,"is_disabled":false,"rental_uris":{"android":"levelo://app?vid=fa72078f-7c1e-4b4b-9840-1b0354463b0a","ios":"levelo://app?vid=fa72078f-7c1e-4b4b-9840-1b0354463b0a"},"vehicle_type_id":"4","last_reported":1752491421,"current_range_meters":4400,"station_id":"ce4bhnp2rcd13ifvqgvg","pricing_plan_id":"cebpf4jnsgd1na2vs0mg"},{"bike_id":"53334b10-bf73-4927-affc-431d2447f1ce","system_id":"levelo_inurba_marseille","lat":43.24653,"lon":5.38892,"is_reserved":false,"is_disabled":false,"rental_uris":{"android":"levelo://app?vid=53334b10-bf73-4927-affc-431d2447f1ce","ios":"levelo://app?vid=53334b10-bf73-4927-affc-431d2447f1ce"},"vehicle_type_id":"4","last_reported":1752491421,"current_range_meters":4400,"station_id":"ce4bhg12rcd13ifvqf60","pricing_plan_id":"cebpf4jnsgd1na2vs0mg"},{"bike_id":"5f275370-3dd6-4d69-b53f-63d75fb36e13","system_id":"levelo_inurba_marseille","lat":43.24394,"lon":5.37053,"is_reserved":false,"is_disabled":false,"rental_uris":{"android":"levelo://app?vid=5f275370-3dd6-4d69-b53f-63d75fb36e13","ios":"levelo://app?vid=5f275370-3dd6-4d69-b53f-63d75fb36e13"},"vehicle_type_id":"4","last_reported":1752491421,"current_range_meters":4800,"station_id":"ce4bhhh2rcd13ifvqfk0","pricing_plan_id":"cebpf4jnsgd1na2vs0mg"},{"bike_id":"fc6ae252-d478-49bb-a357-ad5af9d3fd28","system_id":"levelo_inurba_marseille","lat":43.28579,"lon":5.37023,"is_reserved":false,"is_disabled":false,"rental_uris":{"android":"levelo://app?vid=fc6ae252-d478-49bb-a357-ad5af9d3fd28","ios":"levelo://app?vid=fc6ae252-d478-49bb-a357-ad5af9d3fd28"},"vehicle_type_id":"4","last_reported":1752491421,"current_range_meters":4800,"station_id":"ce4bht12rcd13ifvqi60","pricing_plan_id":"cebpf4jnsgd1na2vs0mg"},{"bike_id":"e905217c-abda-468b-92f5-fd38a8ede7d5","system_id":"levelo_inurba_marseille","lat":43.21523,"lon":5.34786,"is_reserved":false,"is_disabled":false,"rental_uris":{"android":"levelo://app?vid=e905217c-abda-468b-92f5-fd38a8ede7d5","ios":"levelo://app?vid=e905217c-abda-468b-92f5-fd38a8ede7d5"},"vehicle_type_id":"4","last_reported":1752491421,"current_range_meters":6000,"station_id":"","pricing_plan_id":"cebpf4jnsgd1na2vs0mg"},{"bike_id":"376b8624-32e7-40af-8f80-f5dad4de2416","system_id":"levelo_inurba_marseille","lat":43.305444,"lon":5.365521,"is_reserved":false,"is_disabled":false,"rental_uris":{"android":"levelo://app?vid=376b8624-32e7-40af-8f80-f5dad4de2416","ios":"levelo://app?vid=376b8624-32e7-40af-8f80-f5dad4de2416"},"vehicle_type_id":"4","last_reported":1752491421,"current_range_meters":6400,"station_id":"ce4bgs12rcd13ifvqcag","pricing_plan_id":"cebpf4jnsgd1na2vs0mg"},{"bike_id":"470d1e9d-8c05-40b8-a6b2-039f183b9f6a","system_id":"levelo_inurba_marseille","lat":43.231951,"lon":5.355553,"is_reserved":false,"is_disabled":true,"rental_uris":{"android":"levelo://app?vid=470d1e9d-8c05-40b8-a6b2-039f183b9f6a","ios":"levelo://app?vid=470d1e9d-8c05-40b8-a6b2-039f183b9f6a"},"vehicle_type_id":"4","last_reported":1752491421,"current_range_meters":6000,"station_id":"ce4bhu92rcd13ifvqi70","pricing_plan_id":"cebpf4jnsgd1na2vs0mg"},{"bike_id":"44dd919c-32df-4fe9-8b1c-c9988fb68d5b","system_id":"levelo_inurba_marseille","lat":43.26939,"lon":5.40295,"is_reserved":false,"is_disabled":true,"rental_uris":{"android":"levelo://app?vid=44dd919c-32df-4fe9-8b1c-c9988fb68d5b","ios":"levelo://app?vid=44dd919c-32df-4fe9-8b1c-c9988fb68d5b"},"vehicle_type_id":"4","last_reported":1752491421,"current_range_meters":6400,"station_id":"cjm6bp8fraef2m0cb0m0","pricing_plan_id":"cebpf4jnsgd1na2vs0mg"},{"bike_id":"99202e83-2375-41bb-812b-e811ff73eea0","system_id":"levelo_inurba_marseille","lat":43.2481,"lon":5.37461,"is_reserved":false,"is_disabled":true,"rental_uris":{"android":"levelo://app?vid=99202e83-2375-41bb-812b-e811ff73eea0","ios":"levelo://app?vid=99202e83-2375-41bb-812b-e811ff73eea0"},"vehicle_type_id":"4","last_reported":1752491421,"current_range_meters":6800,"station_id":"ce4bhgh2rcd13ifvqfb0","pricing_plan_id":"cebpf4jnsgd1na2vs0mg"},{"bike_id":"11af1e07-4816-43b4-80e8-3adeeb453464","system_id":"levelo_inurba_marseille","lat":43.2842,"lon":5.3499,"is_reserved":false,"is_disabled":false,"rental_uris":{"android":"levelo://app?vid=11af1e07-4816-43b4-80e8-3adeeb453464","ios":"levelo://app?vid=11af1e07-4816-43b4-80e8-3adeeb453464"},"vehicle_type_id":"4","last_reported":1752491421,"current_range_meters":4400,"station_id":"ce4bhbh2rcd13ifvqepg","pricing_plan_id":"cebpf4jnsgd1na2vs0mg"},{"bike_id":"5d522e77-ec27-4fd6-a510-ea7d6f16223a","system_id":"levelo_inurba_marseille","lat":43.276005,"lon":5.37092,"is_reserved":false,"is_disabled":false,"rental_uris":{"android":"levelo://app?vid=5d522e77-ec27-4fd6-a510-ea7d6f16223a","ios":"levelo://app?vid=5d522e77-ec27-4fd6-a510-ea7d6f16223a"},"vehicle_type_id":"4","last_reported":1752491421,"current_range_meters":7200,"station_id":"","pricing_plan_id":"cebpf4jnsgd1na2vs0mg"},{"bike_id":"4e7dd207-9b01-42f6-978a-6445c46f609a","system_id":"levelo_inurba_marseille","lat":43.27843,"lon":5.39219,"is_reserved":false,"is_disabled":false,"rental_uris":{"android":"levelo://app?vid=4e7dd207-9b01-42f6-978a-6445c46f609a","ios":"levelo://app?vid=4e7dd207-9b01-42f6-978a-6445c46f609a"},"vehicle_type_id":"4","last_reported":1752491421,"current_range_meters":6800,"station_id":"ce4bhjp2rcd13ifvqga0","pricing_plan_id":"cebpf4jnsgd1na2vs0mg"},{"bike_id":"b3b54736-d65b-469c-a093-76f62ddef36b","system_id":"levelo_inurba_marseille","lat":43.23177,"lon":5.3999,"is_reserved":false,"is_disabled":false,"rental_uris":{"android":"levelo://app?vid=b3b54736-d65b-469c-a093-76f62ddef36b","ios":"levelo://app?vid=b3b54736-d65b-469c-a093-76f62ddef36b"},"vehicle_type_id":"4","last_reported":1752491421,"current_range_meters":6800,"station_id":"ce4bhn12rcd13ifvqgqg","pricing_plan_id":"cebpf4jnsgd1na2vs0mg"},{"bike_id":"9a8b0931-f754-41b1-83c6-b9eee7982ee0","system_id":"levelo_inurba_marseille","lat":43.30362,"lon":5.41883,"is_reserved":false,"is_disabled":false,"rental_uris":{"android":"levelo://app?vid=9a8b0931-f754-41b1-83c6-b9eee7982ee0","ios":"levelo://app?vid=9a8b0931-f754-41b1-83c6-b9eee7982ee0"},"vehicle_type_id":"4","last_reported":1752491421,"current_range_meters":8400,"station_id":"ce4bhop2rcd13ifvqh7g","pricing_plan_id":"cebpf4jnsgd1na2vs0mg"},{"bike_id":"2f8285dc-198f-4f72-83f8-b741aefd0914","system_id":"levelo_inurba_marseille","lat":43.23184,"lon":5.39988,"is_reserved":false,"is_disabled":false,"rental_uris":{"android":"levelo://app?vid=2f8285dc-198f-4f72-83f8-b741aefd0914","ios":"levelo://app?vid=2f8285dc-198f-4f72-83f8-b741aefd0914"},"vehicle_type_id":"4","last_reported":1752491421,"current_range_meters":8800,"station_id":"ce4bhn12rcd13ifvqgqg","pricing_plan_id":"cebpf4jnsgd1na2vs0mg"},{"bike_id":"f23760ff-ab61-4853-aa67-28aac93822c1","system_id":"levelo_inurba_marseille","lat":43.337444,"lon":5.374475,"is_reserved":false,"is_disabled":false,"rental_uris":{"android":"levelo://app?vid=f23760ff-ab61-4853-aa67-28aac93822c1","ios":"levelo://app?vid=f23760ff-ab61-4853-aa67-28aac93822c1"},"vehicle_type_id":"4","last_reported":1752491421,"current_range_meters":8800,"station_id":"","pricing_plan_id":"cebpf4jnsgd1na2vs0mg"},{"bike_id":"126ff017-c31c-45d8-aa7b-7a6abb6596a3","system_id":"levelo_inurba_marseille","lat":43.28273,"lon":5.35088,"is_reserved":false,"is_disabled":false,"rental_uris":{"android":"levelo://app?vid=126ff017-c31c-45d8-aa7b-7a6abb6596a3","ios":"levelo://app?vid=126ff017-c31c-45d8-aa7b-7a6abb6596a3"},"vehicle_type_id":"4","last_reported":1752491421,"current_range_meters":9200,"station_id":"ce4bhbp2rcd13ifvqerg","pricing_plan_id":"cebpf4jnsgd1na2vs0mg"},{"bike_id":"7bb6743e-cd8c-4b57-b01b-ee37c3845066","system_id":"levelo_inurba_marseille","lat":43.25281,"lon":5.37578,"is_reserved":false,"is_disabled":false,"rental_uris":{"android":"levelo://app?vid=7bb6743e-cd8c-4b57-b01b-ee37c3845066","ios":"levelo://app?vid=7bb6743e-cd8c-4b57-b01b-ee37c3845066"},"vehicle_type_id":"4","last_reported":1752491421,"current_range_meters":9200,"station_id":"","pricing_plan_id":"cebpf4jnsgd1na2vs0mg"},{"bike_id":"47134c2d-e710-44e0-ac88-47c95558fdb3","system_id":"levelo_inurba_marseille","lat":43.30311,"lon":5.36914,"is_reserved":false,"is_disabled":false,"rental_uris":{"android":"levelo://app?vid=47134c2d-e710-44e0-ac88-47c95558fdb3","ios":"levelo://app?vid=47134c2d-e710-44e0-ac88-47c95558fdb3"},"vehicle_type_id":"4","last_reported":1752491421,"current_range_meters":9600,"station_id":"ce4bgqh2rcd13ifvqc5g","pricing_plan_id":"cebpf4jnsgd1na2vs0mg"},{"bike_id":"8334db23-b413-4dfd-94b9-b18896580a6e","system_id":"levelo_inurba_marseille","lat":43.29546,"lon":5.39417,"is_reserved":false,"is_disabled":false,"rental_uris":{"android":"levelo://app?vid=8334db23-b413-4dfd-94b9-b18896580a6e","ios":"levelo://app?vid=8334db23-b413-4dfd-94b9-b18896580a6e"},"vehicle_type_id":"4","last_reported":1752491421,"current_range_meters":9600,"station_id":"ce4bh292rcd13ifvqdf0","pricing_plan_id":"cebpf4jnsgd1na2vs0mg"},{"bike_id":"048779bb-bf90-495b-8e97-59e73a734cad","system_id":"levelo_inurba_marseille","lat":43.30179,"lon":5.3662,"is_reserved":false,"is_disabled":false,"rental_uris":{"android":"levelo://app?vid=048779bb-bf90-495b-8e97-59e73a734cad","ios":"levelo://app?vid=048779bb-bf90-495b-8e97-59e73a734cad"},"vehicle_type_id":"4","last_reported":1752491421,"current_range_meters":9600,"station_id":"ce4bgrh2rcd13ifvqc8g","pricing_plan_id":"cebpf4jnsgd1na2vs0mg"},{"bike_id":"48c2633c-102b-4499-a680-ade19bcfd16b","system_id":"levelo_inurba_marseille","lat":43.28617,"lon":5.35103,"is_reserved":false,"is_disabled":false,"rental_uris":{"android":"levelo://app?vid=48c2633c-102b-4499-a680-ade19bcfd16b","ios":"levelo://app?vid=48c2633c-102b-4499-a680-ade19bcfd16b"},"vehicle_type_id":"4","last_reported":1752491421,"current_range_meters":9600,"station_id":"ce4bhch2rcd13ifvqeug","pricing_plan_id":"cebpf4jnsgd1na2vs0mg"},{"bike_id":"0eadb807-73f6-424a-bcd7-3b07bd18ff50","system_id":"levelo_inurba_marseille","lat":43.321113,"lon":5.367795,"is_reserved":false,"is_disabled":false,"rental_uris":{"android":"levelo://app?vid=0eadb807-73f6-424a-bcd7-3b07bd18ff50","ios":"levelo://app?vid=0eadb807-73f6-424a-bcd7-3b07bd18ff50"},"vehicle_type_id":"4","last_reported":1752491421,"current_range_meters":9600,"station_id":"ce4bhrh2rcd13ifvqhug","pricing_plan_id":"cebpf4jnsgd1na2vs0mg"},{"bike_id":"2d20d04c-847b-4085-a58f-d98f887283c8","system_id":"levelo_inurba_marseille","lat":43.29701,"lon":5.37321,"is_reserved":false,"is_disabled":false,"rental_uris":{"android":"levelo://app?vid=2d20d04c-847b-4085-a58f-d98f887283c8","ios":"levelo://app?vid=2d20d04c-847b-4085-a58f-d98f887283c8"},"vehicle_type_id":"4","last_reported":1752491421,"current_range_meters":10000,"station_id":"ce4bgk12rcd13ifvqbj0","pricing_plan_id":"cebpf4jnsgd1na2vs0mg"},{"bike_id":"79d3f049-f14d-418f-b76e-15771d44433b","system_id":"levelo_inurba_marseille","lat":43.25818,"lon":5.39428,"is_reserved":false,"is_disabled":false,"rental_uris":{"android":"levelo://app?vid=79d3f049-f14d-418f-b76e-15771d44433b","ios":"levelo://app?vid=79d3f049-f14d-418f-b76e-15771d44433b"},"vehicle_type_id":"4","last_reported":1752491421,"current_range_meters":9600,"station_id":"ce4bhip2rcd13ifvqft0","pricing_plan_id":"cebpf4jnsgd1na2vs0mg"},{"bike_id":"81e47940-b2bf-47a3-9cdb-182b0c149bae","system_id":"levelo_inurba_marseille","lat":43.28618,"lon":5.35104,"is_reserved":false,"is_disabled":false,"rental_uris":{"android":"levelo://app?vid=81e47940-b2bf-47a3-9cdb-182b0c149bae","ios":"levelo://app?vid=81e47940-b2bf-47a3-9cdb-182b0c149bae"},"vehicle_type_id":"4","last_reported":1752491421,"current_range_meters":11200,"station_id":"ce4bhch2rcd13ifvqeug","pricing_plan_id":"cebpf4jnsgd1na2vs0mg"},{"bike_id":"b5b77231-ce74-4323-ab93-54a94492e0ef","system_id":"levelo_inurba_marseille","lat":43.30645,"lon":5.40085,"is_reserved":false,"is_disabled":false,"rental_uris":{"android":"levelo://app?vid=b5b77231-ce74-4323-ab93-54a94492e0ef","ios":"levelo://app?vid=b5b77231-ce74-4323-ab93-54a94492e0ef"},"vehicle_type_id":"4","last_reported":1752491421,"current_range_meters":10800,"station_id":"ce4bh112rcd13ifvqda0","pricing_plan_id":"cebpf4jnsgd1na2vs0mg"},{"bike_id":"2ef51ee8-5dba-4636-b65b-077dc6d0a7e6","system_id":"levelo_inurba_marseille","lat":43.29543,"lon":5.4227,"is_reserved":false,"is_disabled":false,"rental_uris":{"android":"levelo://app?vid=2ef51ee8-5dba-4636-b65b-077dc6d0a7e6","ios":"levelo://app?vid=2ef51ee8-5dba-4636-b65b-077dc6d0a7e6"},"vehicle_type_id":"4","last_reported":1752491421,"current_range_meters":10800,"station_id":"ce4bhph2rcd13ifvqhdg","pricing_plan_id":"cebpf4jnsgd1na2vs0mg"},{"bike_id":"a44f68aa-b920-4eb6-845e-df1183944a6b","system_id":"levelo_inurba_marseille","lat":43.28573,"lon":5.35085,"is_reserved":false,"is_disabled":false,"rental_uris":{"android":"levelo://app?vid=a44f68aa-b920-4eb6-845e-df1183944a6b","ios":"levelo://app?vid=a44f68aa-b920-4eb6-845e-df1183944a6b"},"vehicle_type_id":"4","last_reported":1752491421,"current_range_meters":10800,"station_id":"","pricing_plan_id":"cebpf4jnsgd1na2vs0mg"},{"bike_id":"e3b686d1-f0b1-4887-9c05-4bc370c43021","system_id":"levelo_inurba_marseille","lat":43.2719,"lon":5.4099,"is_reserved":false,"is_disabled":true,"rental_uris":{"android":"levelo://app?vid=e3b686d1-f0b1-4887-9c05-4bc370c43021","ios":"levelo://app?vid=e3b686d1-f0b1-4887-9c05-4bc370c43021"},"vehicle_type_id":"4","last_reported":1752491421,"current_range_meters":10800,"station_id":"ce4bhl12rcd13ifvqgf0","pricing_plan_id":"cebpf4jnsgd1na2vs0mg"},{"bike_id":"3add91de-70c6-4b47-8614-c24c006724bb","system_id":"levelo_inurba_marseille","lat":43.21738,"lon":5.34613,"is_reserved":false,"is_disabled":false,"rental_uris":{"android":"levelo://app?vid=3add91de-70c6-4b47-8614-c24c006724bb","ios":"levelo://app?vid=3add91de-70c6-4b47-8614-c24c006724bb"},"vehicle_type_id":"4","last_reported":1752491421,"current_range_meters":10800,"station_id":"st_cvj6r9ubvosntc0bgbag","pricing_plan_id":"cebpf4jnsgd1na2vs0mg"},{"bike_id":"a3c928d4-98be-4e1e-adc8-a1c1556e7c79","system_id":"levelo_inurba_marseille","lat":43.29562,"lon":5.42254,"is_reserved":false,"is_disabled":false,"rental_uris":{"android":"levelo://app?vid=a3c928d4-98be-4e1e-adc8-a1c1556e7c79","ios":"levelo://app?vid=a3c928d4-98be-4e1e-adc8-a1c1556e7c79"},"vehicle_type_id":"4","last_reported":1752491421,"current_range_meters":10800,"station_id":"ce4bhph2rcd13ifvqhdg","pricing_plan_id":"cebpf4jnsgd1na2vs0mg"},{"bike_id":"39abc085-528f-46e4-8b55-09e56b4675e8","system_id":"levelo_inurba_marseille","lat":43.28409,"lon":5.35,"is_reserved":false,"is_disabled":false,"rental_uris":{"android":"levelo://app?vid=39abc085-528f-46e4-8b55-09e56b4675e8","ios":"levelo://app?vid=39abc085-528f-46e4-8b55-09e56b4675e8"},"vehicle_type_id":"4","last_reported":1752491421,"current_range_meters":10800,"station_id":"ce4bhbh2rcd13ifvqepg","pricing_plan_id":"cebpf4jnsgd1na2vs0mg"},{"bike_id":"40eae0dd-8ff8-49a9-8544-89ce60bf852a","system_id":"levelo_inurba_marseille","lat":43.3065,"lon":5.40098,"is_reserved":false,"is_disabled":false,"rental_uris":{"android":"levelo://app?vid=40eae0dd-8ff8-49a9-8544-89ce60bf852a","ios":"levelo://app?vid=40eae0dd-8ff8-49a9-8544-89ce60bf852a"},"vehicle_type_id":"4","last_reported":1752491421,"current_range_meters":10800,"station_id":"ce4bh112rcd13ifvqda0","pricing_plan_id":"cebpf4jnsgd1na2vs0mg"},{"bike_id":"64de358b-3dbc-4b25-8f3c-f881b12c1b64","system_id":"levelo_inurba_marseille","lat":43.27811,"lon":5.4071,"is_reserved":false,"is_disabled":false,"rental_uris":{"android":"levelo://app?vid=64de358b-3dbc-4b25-8f3c-f881b12c1b64","ios":"levelo://app?vid=64de358b-3dbc-4b25-8f3c-f881b12c1b64"},"vehicle_type_id":"4","last_reported":1752491421,"current_range_meters":11200,"station_id":"ce4bhnh2rcd13ifvqgtg","pricing_plan_id":"cebpf4jnsgd1na2vs0mg"},{"bike_id":"8f2cb0f3-92c5-4c8a-95ce-b0407c8d7429","system_id":"levelo_inurba_marseille","lat":43.29802,"lon":5.38107,"is_reserved":false,"is_disabled":false,"rental_uris":{"android":"levelo://app?vid=8f2cb0f3-92c5-4c8a-95ce-b0407c8d7429","ios":"levelo://app?vid=8f2cb0f3-92c5-4c8a-95ce-b0407c8d7429"},"vehicle_type_id":"4","last_reported":1752491421,"current_range_meters":11200,"station_id":"ce4bgip2rcd13ifvqbb0","pricing_plan_id":"cebpf4jnsgd1na2vs0mg"},{"bike_id":"7d8c67ad-3e66-42f9-8c6e-098cca666cf3","system_id":"levelo_inurba_marseille","lat":43.32354,"lon":5.36756,"is_reserved":false,"is_disabled":false,"rental_uris":{"android":"levelo://app?vid=7d8c67ad-3e66-42f9-8c6e-098cca666cf3","ios":"levelo://app?vid=7d8c67ad-3e66-42f9-8c6e-098cca666cf3"},"vehicle_type_id":"4","last_reported":1752491421,"current_range_meters":11200,"station_id":"ce4bhsh2rcd13ifvqi2g","pricing_plan_id":"cebpf4jnsgd1na2vs0mg"},{"bike_id":"f2277502-3ead-496a-898d-e537ccdc12a6","system_id":"levelo_inurba_marseille","lat":43.30536,"lon":5.36551,"is_reserved":false,"is_disabled":false,"rental_uris":{"android":"levelo://app?vid=f2277502-3ead-496a-898d-e537ccdc12a6","ios":"levelo://app?vid=f2277502-3ead-496a-898d-e537ccdc12a6"},"vehicle_type_id":"4","last_reported":1752491421,"current_range_meters":11600,"station_id":"ce4bgs12rcd13ifvqcag","pricing_plan_id":"cebpf4jnsgd1na2vs0mg"},{"bike_id":"457bf7b2-5c35-41c2-88d1-1ccad8eab0fb","system_id":"levelo_inurba_marseille","lat":43.21749,"lon":5.346,"is_reserved":false,"is_disabled":false,"rental_uris":{"android":"levelo://app?vid=457bf7b2-5c35-41c2-88d1-1ccad8eab0fb","ios":"levelo://app?vid=457bf7b2-5c35-41c2-88d1-1ccad8eab0fb"},"vehicle_type_id":"4","last_reported":1752491421,"current_range_meters":11600,"station_id":"st_cvj6r9ubvosntc0bgbag","pricing_plan_id":"cebpf4jnsgd1na2vs0mg"},{"bike_id":"58375fde-ca97-4dab-be52-59caf98323d3","system_id":"levelo_inurba_marseille","lat":43.26539,"lon":5.37339,"is_reserved":false,"is_disabled":true,"rental_uris":{"android":"levelo://app?vid=58375fde-ca97-4dab-be52-59caf98323d3","ios":"levelo://app?vid=58375fde-ca97-4dab-be52-59caf98323d3"},"vehicle_type_id":"4","last_reported":1752491421,"current_range_meters":11600,"station_id":"","pricing_plan_id":"cebpf4jnsgd1na2vs0mg"},{"bike_id":"51520a5f-5e56-49ed-8bba-55b57603f75e","system_id":"levelo_inurba_marseille","lat":43.28437,"lon":5.34998,"is_reserved":false,"is_disabled":false,"rental_uris":{"android":"levelo://app?vid=51520a5f-5e56-49ed-8bba-55b57603f75e","ios":"levelo://app?vid=51520a5f-5e56-49ed-8bba-55b57603f75e"},"vehicle_type_id":"4","last_reported":1752491421,"current_range_meters":11600,"station_id":"ce4bhbh2rcd13ifvqepg","pricing_plan_id":"cebpf4jnsgd1na2vs0mg"},{"bike_id":"9d31d9a3-9360-47cc-9360-3d8ed75b64a4","system_id":"levelo_inurba_marseille","lat":43.32919,"lon":5.36696,"is_reserved":false,"is_disabled":false,"rental_uris":{"android":"levelo://app?vid=9d31d9a3-9360-47cc-9360-3d8ed75b64a4","ios":"levelo://app?vid=9d31d9a3-9360-47cc-9360-3d8ed75b64a4"},"vehicle_type_id":"4","last_reported":1752491421,"current_range_meters":11600,"station_id":"","pricing_plan_id":"cebpf4jnsgd1na2vs0mg"},{"bike_id":"1700fcd6-30ad-4b74-a158-50e5dcb60b9b","system_id":"levelo_inurba_marseille","lat":43.28941,"lon":5.36662,"is_reserved":false,"is_disabled":true,"rental_uris":{"android":"levelo://app?vid=1700fcd6-30ad-4b74-a158-50e5dcb60b9b","ios":"levelo://app?vid=1700fcd6-30ad-4b74-a158-50e5dcb60b9b"},"vehicle_type_id":"4","last_reported":1752491421,"current_range_meters":11600,"station_id":"ce4bhap2rcd13ifvqek0","pricing_plan_id":"cebpf4jnsgd1na2vs0mg"},{"bike_id":"229d6e13-43b9-4317-8a41-141f7c9cde5f","system_id":"levelo_inurba_marseille","lat":43.30604,"lon":5.3723,"is_reserved":false,"is_disabled":false,"rental_uris":{"android":"levelo://app?vid=229d6e13-43b9-4317-8a41-141f7c9cde5f","ios":"levelo://app?vid=229d6e13-43b9-4317-8a41-141f7c9cde5f"},"vehicle_type_id":"4","last_reported":1752491421,"current_range_meters":12000,"station_id":"ce4bgqh2rcd13ifvqc4g","pricing_plan_id":"cebpf4jnsgd1na2vs0mg"},{"bike_id":"41f72606-935e-4a5b-9080-4b01306faa26","system_id":"levelo_inurba_marseille","lat":43.28458,"lon":5.35889,"is_reserved":false,"is_disabled":false,"rental_uris":{"android":"levelo://app?vid=41f72606-935e-4a5b-9080-4b01306faa26","ios":"levelo://app?vid=41f72606-935e-4a5b-9080-4b01306faa26"},"vehicle_type_id":"4","last_reported":1752491421,"current_range_meters":12000,"station_id":"ce4bhah2rcd13ifvqei0","pricing_plan_id":"cebpf4jnsgd1na2vs0mg"},{"bike_id":"18ab4823-2e78-460b-bd77-d9be58d810f7","system_id":"levelo_inurba_marseille","lat":43.29296,"lon":5.37167,"is_reserved":false,"is_disabled":false,"rental_uris":{"android":"levelo://app?vid=18ab4823-2e78-460b-bd77-d9be58d810f7","ios":"levelo://app?vid=18ab4823-2e78-460b-bd77-d9be58d810f7"},"vehicle_type_id":"4","last_reported":1752491421,"current_range_meters":12000,"station_id":"ce4bgh92rcd13ifvqb40","pricing_plan_id":"cebpf4jnsgd1na2vs0mg"},{"bike_id":"ff7aa45c-0d3f-4caa-9191-18ba98829473","system_id":"levelo_inurba_marseille","lat":43.21746,"lon":5.34605,"is_reserved":false,"is_disabled":false,"rental_uris":{"android":"levelo://app?vid=ff7aa45c-0d3f-4caa-9191-18ba98829473","ios":"levelo://app?vid=ff7aa45c-0d3f-4caa-9191-18ba98829473"},"vehicle_type_id":"4","last_reported":1752491421,"current_range_meters":12000,"station_id":"st_cvj6r9ubvosntc0bgbag","pricing_plan_id":"cebpf4jnsgd1na2vs0mg"},{"bike_id":"53a7c5a0-bf42-4a71-a975-ed65973eff06","system_id":"levelo_inurba_marseille","lat":43.302396,"lon":5.401208,"is_reserved":false,"is_disabled":false,"rental_uris":{"android":"levelo://app?vid=53a7c5a0-bf42-4a71-a975-ed65973eff06","ios":"levelo://app?vid=53a7c5a0-bf42-4a71-a975-ed65973eff06"},"vehicle_type_id":"4","last_reported":1752491421,"current_range_meters":12000,"station_id":"","pricing_plan_id":"cebpf4jnsgd1na2vs0mg"},{"bike_id":"b2464811-ed1c-444d-b5b2-f0f5cb56794f","system_id":"levelo_inurba_marseille","lat":43.287043,"lon":5.351973,"is_reserved":false,"is_disabled":true,"rental_uris":{"android":"levelo://app?vid=b2464811-ed1c-444d-b5b2-f0f5cb56794f","ios":"levelo://app?vid=b2464811-ed1c-444d-b5b2-f0f5cb56794f"},"vehicle_type_id":"4","last_reported":1752491421,"current_range_meters":12400,"station_id":"","pricing_plan_id":"cebpf4jnsgd1na2vs0mg"},{"bike_id":"3610476e-b3b7-4d9b-aa25-26d38eb715aa","system_id":"levelo_inurba_marseille","lat":43.3043,"lon":5.39746,"is_reserved":false,"is_disabled":false,"rental_uris":{"android":"levelo://app?vid=3610476e-b3b7-4d9b-aa25-26d38eb715aa","ios":"levelo://app?vid=3610476e-b3b7-4d9b-aa25-26d38eb715aa"},"vehicle_type_id":"4","last_reported":1752491421,"current_range_meters":12000,"station_id":"ce4bh092rcd13ifvqd20","pricing_plan_id":"cebpf4jnsgd1na2vs0mg"},{"bike_id":"d376d275-88a6-4a1d-bb9c-c2c0fe77436f","system_id":"levelo_inurba_marseille","lat":43.24821,"lon":5.375237,"is_reserved":false,"is_disabled":false,"rental_uris":{"android":"levelo://app?vid=d376d275-88a6-4a1d-bb9c-c2c0fe77436f","ios":"levelo://app?vid=d376d275-88a6-4a1d-bb9c-c2c0fe77436f"},"vehicle_type_id":"4","last_reported":1752491421,"current_range_meters":12000,"station_id":"ce4bhhh2rcd13ifvqfk0","pricing_plan_id":"cebpf4jnsgd1na2vs0mg"},{"bike_id":"0251b30f-bc0e-4c3f-8b15-cdb49d926d4a","system_id":"levelo_inurba_marseille","lat":43.29037,"lon":5.38133,"is_reserved":false,"is_disabled":false,"rental_uris":{"android":"levelo://app?vid=0251b30f-bc0e-4c3f-8b15-cdb49d926d4a","ios":"levelo://app?vid=0251b30f-bc0e-4c3f-8b15-cdb49d926d4a"},"vehicle_type_id":"4","last_reported":1752491421,"current_range_meters":12800,"station_id":"ce4bh4p2rcd13ifvqe1g","pricing_plan_id":"cebpf4jnsgd1na2vs0mg"},{"bike_id":"e73f893a-3cd8-4eb2-a0b7-b50fded5490a","system_id":"levelo_inurba_marseille","lat":43.28258,"lon":5.35075,"is_reserved":false,"is_disabled":false,"rental_uris":{"android":"levelo://app?vid=e73f893a-3cd8-4eb2-a0b7-b50fded5490a","ios":"levelo://app?vid=e73f893a-3cd8-4eb2-a0b7-b50fded5490a"},"vehicle_type_id":"4","last_reported":1752491421,"current_range_meters":12800,"station_id":"ce4bhbp2rcd13ifvqerg","pricing_plan_id":"cebpf4jnsgd1na2vs0mg"},{"bike_id":"002e6944-aa53-41b5-94a1-97e8a1b31e28","system_id":"levelo_inurba_marseille","lat":43.31518,"lon":5.37308,"is_reserved":false,"is_disabled":false,"rental_uris":{"android":"levelo://app?vid=002e6944-aa53-41b5-94a1-97e8a1b31e28","ios":"levelo://app?vid=002e6944-aa53-41b5-94a1-97e8a1b31e28"},"vehicle_type_id":"4","last_reported":1752491421,"current_range_meters":12800,"station_id":"ce4bgt12rcd13ifvqcd0","pricing_plan_id":"cebpf4jnsgd1na2vs0mg"},{"bike_id":"350baf57-19b6-4304-9c57-75c381c047e9","system_id":"levelo_inurba_marseille","lat":43.3032,"lon":5.369054,"is_reserved":false,"is_disabled":false,"rental_uris":{"android":"levelo://app?vid=350baf57-19b6-4304-9c57-75c381c047e9","ios":"levelo://app?vid=350baf57-19b6-4304-9c57-75c381c047e9"},"vehicle_type_id":"4","last_reported":1752491421,"current_range_meters":13600,"station_id":"ce4bgqh2rcd13ifvqc5g","pricing_plan_id":"cebpf4jnsgd1na2vs0mg"},{"bike_id":"42c5b973-aaee-479e-8573-bddef517138d","system_id":"levelo_inurba_marseille","lat":43.241638,"lon":5.363963,"is_reserved":false,"is_disabled":false,"rental_uris":{"android":"levelo://app?vid=42c5b973-aaee-479e-8573-bddef517138d","ios":"levelo://app?vid=42c5b973-aaee-479e-8573-bddef517138d"},"vehicle_type_id":"4","last_reported":1752491421,"current_range_meters":13600,"station_id":"ce4bgg92rcd13ifvqb30","pricing_plan_id":"cebpf4jnsgd1na2vs0mg"},{"bike_id":"2ec427da-b403-4a7e-86be-3f48ba535d18","system_id":"levelo_inurba_marseille","lat":43.21189,"lon":5.35121,"is_reserved":false,"is_disabled":false,"rental_uris":{"android":"levelo://app?vid=2ec427da-b403-4a7e-86be-3f48ba535d18","ios":"levelo://app?vid=2ec427da-b403-4a7e-86be-3f48ba535d18"},"vehicle_type_id":"4","last_reported":1752491421,"current_range_meters":14000,"station_id":"st_cvj6sg6p6f1abm77japg","pricing_plan_id":"cebpf4jnsgd1na2vs0mg"},{"bike_id":"b107c055-5f63-480f-b84d-22f0bf4c9c9e","system_id":"levelo_inurba_marseille","lat":43.28457,"lon":5.35887,"is_reserved":false,"is_disabled":false,"rental_uris":{"android":"levelo://app?vid=b107c055-5f63-480f-b84d-22f0bf4c9c9e","ios":"levelo://app?vid=b107c055-5f63-480f-b84d-22f0bf4c9c9e"},"vehicle_type_id":"4","last_reported":1752491421,"current_range_meters":14000,"station_id":"ce4bhah2rcd13ifvqei0","pricing_plan_id":"cebpf4jnsgd1na2vs0mg"},{"bike_id":"8da730ab-838f-4883-9b86-fff02362f8e4","system_id":"levelo_inurba_marseille","lat":43.29272,"lon":5.408746,"is_reserved":false,"is_disabled":false,"rental_uris":{"android":"levelo://app?vid=8da730ab-838f-4883-9b86-fff02362f8e4","ios":"levelo://app?vid=8da730ab-838f-4883-9b86-fff02362f8e4"},"vehicle_type_id":"4","last_reported":1752491421,"current_range_meters":14000,"station_id":"ce4bh192rcd13ifvqdc0","pricing_plan_id":"cebpf4jnsgd1na2vs0mg"},{"bike_id":"29815488-d451-4277-aaa8-a84a20aa093a","system_id":"levelo_inurba_marseille","lat":43.273514,"lon":5.362534,"is_reserved":false,"is_disabled":false,"rental_uris":{"android":"levelo://app?vid=29815488-d451-4277-aaa8-a84a20aa093a","ios":"levelo://app?vid=29815488-d451-4277-aaa8-a84a20aa093a"},"vehicle_type_id":"4","last_reported":1752491421,"current_range_meters":14000,"station_id":"ce4bhbh2rcd13ifvqeo0","pricing_plan_id":"cebpf4jnsgd1na2vs0mg"},{"bike_id":"8a01e88a-8371-4085-9838-47ae11897cd3","system_id":"levelo_inurba_marseille","lat":43.28172,"lon":5.42684,"is_reserved":false,"is_disabled":true,"rental_uris":{"android":"levelo://app?vid=8a01e88a-8371-4085-9838-47ae11897cd3","ios":"levelo://app?vid=8a01e88a-8371-4085-9838-47ae11897cd3"},"vehicle_type_id":"4","last_reported":1752491421,"current_range_meters":14000,"station_id":"ce4bhnh2rcd13ifvqgug","pricing_plan_id":"cebpf4jnsgd1na2vs0mg"},{"bike_id":"c8c4de1a-846f-4f5b-aace-9fb14bf7ad52","system_id":"levelo_inurba_marseille","lat":43.21189,"lon":5.3508,"is_reserved":false,"is_disabled":false,"rental_uris":{"android":"levelo://app?vid=c8c4de1a-846f-4f5b-aace-9fb14bf7ad52","ios":"levelo://app?vid=c8c4de1a-846f-4f5b-aace-9fb14bf7ad52"},"vehicle_type_id":"4","last_reported":1752491421,"current_range_meters":14000,"station_id":"st_cvj6sg6p6f1abm77japg","pricing_plan_id":"cebpf4jnsgd1na2vs0mg"},{"bike_id":"6300a409-fdbe-4037-877d-8a459e084e47","system_id":"levelo_inurba_marseille","lat":43.27375,"lon":5.3626,"is_reserved":false,"is_disabled":false,"rental_uris":{"android":"levelo://app?vid=6300a409-fdbe-4037-877d-8a459e084e47","ios":"levelo://app?vid=6300a409-fdbe-4037-877d-8a459e084e47"},"vehicle_type_id":"4","last_reported":1752491421,"current_range_meters":14000,"station_id":"ce4bhbh2rcd13ifvqeo0","pricing_plan_id":"cebpf4jnsgd1na2vs0mg"},{"bike_id":"c9ff2100-8b0a-498d-a646-f7288590f021","system_id":"levelo_inurba_marseille","lat":43.31191,"lon":5.39398,"is_reserved":false,"is_disabled":false,"rental_uris":{"android":"levelo://app?vid=c9ff2100-8b0a-498d-a646-f7288590f021","ios":"levelo://app?vid=c9ff2100-8b0a-498d-a646-f7288590f021"},"vehicle_type_id":"4","last_reported":1752491421,"current_range_meters":14000,"station_id":"","pricing_plan_id":"cebpf4jnsgd1na2vs0mg"},{"bike_id":"0ea36542-da58-4bbc-941d-2b4766af2d7e","system_id":"levelo_inurba_marseille","lat":43.295203,"lon":5.394041,"is_reserved":false,"is_disabled":false,"rental_uris":{"android":"levelo://app?vid=0ea36542-da58-4bbc-941d-2b4766af2d7e","ios":"levelo://app?vid=0ea36542-da58-4bbc-941d-2b4766af2d7e"},"vehicle_type_id":"4","last_reported":1752491421,"current_range_meters":13600,"station_id":"ce4bh292rcd13ifvqdf0","pricing_plan_id":"cebpf4jnsgd1na2vs0mg"},{"bike_id":"83a097fd-9d2c-4f5f-bc86-6265602d9c6a","system_id":"levelo_inurba_marseille","lat":43.2828,"lon":5.35083,"is_reserved":false,"is_disabled":false,"rental_uris":{"android":"levelo://app?vid=83a097fd-9d2c-4f5f-bc86-6265602d9c6a","ios":"levelo://app?vid=83a097fd-9d2c-4f5f-bc86-6265602d9c6a"},"vehicle_type_id":"4","last_reported":1752491421,"current_range_meters":14400,"station_id":"ce4bhbp2rcd13ifvqerg","pricing_plan_id":"cebpf4jnsgd1na2vs0mg"},{"bike_id":"f5a47db5-6fb2-46bd-a2de-efa4ad13bf60","system_id":"levelo_inurba_marseille","lat":43.21202,"lon":5.35077,"is_reserved":false,"is_disabled":false,"rental_uris":{"android":"levelo://app?vid=f5a47db5-6fb2-46bd-a2de-efa4ad13bf60","ios":"levelo://app?vid=f5a47db5-6fb2-46bd-a2de-efa4ad13bf60"},"vehicle_type_id":"4","last_reported":1752491421,"current_range_meters":14400,"station_id":"st_cvj6sg6p6f1abm77japg","pricing_plan_id":"cebpf4jnsgd1na2vs0mg"},{"bike_id":"1aedaa42-1f03-48cc-8e38-d983e72f730b","system_id":"levelo_inurba_marseille","lat":43.27081,"lon":5.422825,"is_reserved":false,"is_disabled":false,"rental_uris":{"android":"levelo://app?vid=1aedaa42-1f03-48cc-8e38-d983e72f730b","ios":"levelo://app?vid=1aedaa42-1f03-48cc-8e38-d983e72f730b"},"vehicle_type_id":"4","last_reported":1752491421,"current_range_meters":14400,"station_id":"ce4bhk92rcd13ifvqgb0","pricing_plan_id":"cebpf4jnsgd1na2vs0mg"},{"bike_id":"8181edf6-5d64-4388-a7c2-c1fcf2d703ad","system_id":"levelo_inurba_marseille","lat":43.29789,"lon":5.404,"is_reserved":false,"is_disabled":false,"rental_uris":{"android":"levelo://app?vid=8181edf6-5d64-4388-a7c2-c1fcf2d703ad","ios":"levelo://app?vid=8181edf6-5d64-4388-a7c2-c1fcf2d703ad"},"vehicle_type_id":"4","last_reported":1752491421,"current_range_meters":14000,"station_id":"ce4bh112rcd13ifvqd90","pricing_plan_id":"cebpf4jnsgd1na2vs0mg"},{"bike_id":"b6771d12-4d0b-4004-8d85-15a22b02cf35","system_id":"levelo_inurba_marseille","lat":43.25575,"lon":5.382273,"is_reserved":false,"is_disabled":false,"rental_uris":{"android":"levelo://app?vid=b6771d12-4d0b-4004-8d85-15a22b02cf35","ios":"levelo://app?vid=b6771d12-4d0b-4004-8d85-15a22b02cf35"},"vehicle_type_id":"4","last_reported":1752491421,"current_range_meters":14400,"station_id":"ce4bhih2rcd13ifvqfs0","pricing_plan_id":"cebpf4jnsgd1na2vs0mg"},{"bike_id":"088e6b1d-8a81-47e0-9ad0-36233ed399c0","system_id":"levelo_inurba_marseille","lat":43.279211,"lon":5.395715,"is_reserved":false,"is_disabled":true,"rental_uris":{"android":"levelo://app?vid=088e6b1d-8a81-47e0-9ad0-36233ed399c0","ios":"levelo://app?vid=088e6b1d-8a81-47e0-9ad0-36233ed399c0"},"vehicle_type_id":"4","last_reported":1752491421,"current_range_meters":14400,"station_id":"ce4bhf92rcd13ifvqf40","pricing_plan_id":"cebpf4jnsgd1na2vs0mg"},{"bike_id":"a4d07f45-19f9-4df9-9728-be6623530a64","system_id":"levelo_inurba_marseille","lat":43.23717,"lon":5.38863,"is_reserved":false,"is_disabled":false,"rental_uris":{"android":"levelo://app?vid=a4d07f45-19f9-4df9-9728-be6623530a64","ios":"levelo://app?vid=a4d07f45-19f9-4df9-9728-be6623530a64"},"vehicle_type_id":"4","last_reported":1752491421,"current_range_meters":14800,"station_id":"","pricing_plan_id":"cebpf4jnsgd1na2vs0mg"},{"bike_id":"e91ced2f-2041-4b38-8446-0d5d97adec95","system_id":"levelo_inurba_marseille","lat":43.2558,"lon":5.38245,"is_reserved":false,"is_disabled":true,"rental_uris":{"android":"levelo://app?vid=e91ced2f-2041-4b38-8446-0d5d97adec95","ios":"levelo://app?vid=e91ced2f-2041-4b38-8446-0d5d97adec95"},"vehicle_type_id":"4","last_reported":1752491421,"current_range_meters":14800,"station_id":"ce4bhih2rcd13ifvqfs0","pricing_plan_id":"cebpf4jnsgd1na2vs0mg"},{"bike_id":"3cdf7207-d77b-4ad1-a2f8-9575fb02e238","system_id":"levelo_inurba_marseille","lat":43.21746,"lon":5.34602,"is_reserved":false,"is_disabled":false,"rental_uris":{"android":"levelo://app?vid=3cdf7207-d77b-4ad1-a2f8-9575fb02e238","ios":"levelo://app?vid=3cdf7207-d77b-4ad1-a2f8-9575fb02e238"},"vehicle_type_id":"4","last_reported":1752491421,"current_range_meters":14800,"station_id":"st_cvj6r9ubvosntc0bgbag","pricing_plan_id":"cebpf4jnsgd1na2vs0mg"},{"bike_id":"8b283417-507a-4b83-9b5d-db91ae163a2b","system_id":"levelo_inurba_marseille","lat":43.23967,"lon":5.36631,"is_reserved":false,"is_disabled":false,"rental_uris":{"android":"levelo://app?vid=8b283417-507a-4b83-9b5d-db91ae163a2b","ios":"levelo://app?vid=8b283417-507a-4b83-9b5d-db91ae163a2b"},"vehicle_type_id":"4","last_reported":1752491421,"current_range_meters":14800,"station_id":"ce4bhi12rcd13ifvqfp0","pricing_plan_id":"cebpf4jnsgd1na2vs0mg"},{"bike_id":"4c15aebe-18ab-4353-a234-87063157bf88","system_id":"levelo_inurba_marseille","lat":43.24156,"lon":5.39735,"is_reserved":false,"is_disabled":false,"rental_uris":{"android":"levelo://app?vid=4c15aebe-18ab-4353-a234-87063157bf88","ios":"levelo://app?vid=4c15aebe-18ab-4353-a234-87063157bf88"},"vehicle_type_id":"4","last_reported":1752491421,"current_range_meters":15200,"station_id":"ce4bhn12rcd13ifvqgpg","pricing_plan_id":"cebpf4jnsgd1na2vs0mg"},{"bike_id":"697d5fc4-b988-4a4e-8323-c1ce5ed61a61","system_id":"levelo_inurba_marseille","lat":43.211888,"lon":5.350716,"is_reserved":false,"is_disabled":false,"rental_uris":{"android":"levelo://app?vid=697d5fc4-b988-4a4e-8323-c1ce5ed61a61","ios":"levelo://app?vid=697d5fc4-b988-4a4e-8323-c1ce5ed61a61"},"vehicle_type_id":"4","last_reported":1752491421,"current_range_meters":16000,"station_id":"st_cvj6sg6p6f1abm77japg","pricing_plan_id":"cebpf4jnsgd1na2vs0mg"},{"bike_id":"12d48e4d-a291-49bb-ab45-967804b53d7b","system_id":"levelo_inurba_marseille","lat":43.27617,"lon":5.36126,"is_reserved":false,"is_disabled":true,"rental_uris":{"android":"levelo://app?vid=12d48e4d-a291-49bb-ab45-967804b53d7b","ios":"levelo://app?vid=12d48e4d-a291-49bb-ab45-967804b53d7b"},"vehicle_type_id":"4","last_reported":1752491421,"current_range_meters":16000,"station_id":"ce4bgj92rcd13ifvqbe0","pricing_plan_id":"cebpf4jnsgd1na2vs0mg"},{"bike_id":"e1442ff3-c767-4bb3-901d-e5f60873ad13","system_id":"levelo_inurba_marseille","lat":43.231872,"lon":5.399868,"is_reserved":false,"is_disabled":false,"rental_uris":{"android":"levelo://app?vid=e1442ff3-c767-4bb3-901d-e5f60873ad13","ios":"levelo://app?vid=e1442ff3-c767-4bb3-901d-e5f60873ad13"},"vehicle_type_id":"4","last_reported":1752491421,"current_range_meters":16000,"station_id":"ce4bhn12rcd13ifvqgqg","pricing_plan_id":"cebpf4jnsgd1na2vs0mg"},{"bike_id":"e1928b01-bff5-4cea-b60c-f8d9223daef3","system_id":"levelo_inurba_marseille","lat":43.27085,"lon":5.42299,"is_reserved":false,"is_disabled":false,"rental_uris":{"android":"levelo://app?vid=e1928b01-bff5-4cea-b60c-f8d9223daef3","ios":"levelo://app?vid=e1928b01-bff5-4cea-b60c-f8d9223daef3"},"vehicle_type_id":"4","last_reported":1752491421,"current_range_meters":16000,"station_id":"ce4bhk92rcd13ifvqgb0","pricing_plan_id":"cebpf4jnsgd1na2vs0mg"},{"bike_id":"2c81c752-b139-48bc-a4ee-7fa7f8526278","system_id":"levelo_inurba_marseille","lat":43.21754,"lon":5.34602,"is_reserved":false,"is_disabled":true,"rental_uris":{"android":"levelo://app?vid=2c81c752-b139-48bc-a4ee-7fa7f8526278","ios":"levelo://app?vid=2c81c752-b139-48bc-a4ee-7fa7f8526278"},"vehicle_type_id":"4","last_reported":1752491421,"current_range_meters":16000,"station_id":"st_cvj6r9ubvosntc0bgbag","pricing_plan_id":"cebpf4jnsgd1na2vs0mg"},{"bike_id":"6ac174d4-75c5-4a9c-9699-97cd631c6e65","system_id":"levelo_inurba_marseille","lat":43.25467,"lon":5.39931,"is_reserved":false,"is_disabled":false,"rental_uris":{"android":"levelo://app?vid=6ac174d4-75c5-4a9c-9699-97cd631c6e65","ios":"levelo://app?vid=6ac174d4-75c5-4a9c-9699-97cd631c6e65"},"vehicle_type_id":"4","last_reported":1752491421,"current_range_meters":16000,"station_id":"","pricing_plan_id":"cebpf4jnsgd1na2vs0mg"},{"bike_id":"9f71d33f-eba0-4497-80fb-9484934b8735","system_id":"levelo_inurba_marseille","lat":43.27957,"lon":5.38749,"is_reserved":false,"is_disabled":false,"rental_uris":{"android":"levelo://app?vid=9f71d33f-eba0-4497-80fb-9484934b8735","ios":"levelo://app?vid=9f71d33f-eba0-4497-80fb-9484934b8735"},"vehicle_type_id":"4","last_reported":1752491421,"current_range_meters":16000,"station_id":"ce4bhg12rcd13ifvqf80","pricing_plan_id":"cebpf4jnsgd1na2vs0mg"},{"bike_id":"08dbf31c-b540-4ca6-b57d-3481ea73d97b","system_id":"levelo_inurba_marseille","lat":43.22071,"lon":5.34648,"is_reserved":false,"is_disabled":false,"rental_uris":{"android":"levelo://app?vid=08dbf31c-b540-4ca6-b57d-3481ea73d97b","ios":"levelo://app?vid=08dbf31c-b540-4ca6-b57d-3481ea73d97b"},"vehicle_type_id":"4","last_reported":1752491421,"current_range_meters":16000,"station_id":"","pricing_plan_id":"cebpf4jnsgd1na2vs0mg"},{"bike_id":"23a0fc67-4c39-4b74-8a86-2903d79b1606","system_id":"levelo_inurba_marseille","lat":43.23189,"lon":5.35555,"is_reserved":false,"is_disabled":false,"rental_uris":{"android":"levelo://app?vid=23a0fc67-4c39-4b74-8a86-2903d79b1606","ios":"levelo://app?vid=23a0fc67-4c39-4b74-8a86-2903d79b1606"},"vehicle_type_id":"4","last_reported":1752491421,"current_range_meters":16000,"station_id":"ce4bhu92rcd13ifvqi70","pricing_plan_id":"cebpf4jnsgd1na2vs0mg"},{"bike_id":"f9634a47-3a0a-4b03-805a-6e0cbdf28a58","system_id":"levelo_inurba_marseille","lat":43.23182,"lon":5.3999,"is_reserved":false,"is_disabled":false,"rental_uris":{"android":"levelo://app?vid=f9634a47-3a0a-4b03-805a-6e0cbdf28a58","ios":"levelo://app?vid=f9634a47-3a0a-4b03-805a-6e0cbdf28a58"},"vehicle_type_id":"4","last_reported":1752491421,"current_range_meters":16400,"station_id":"ce4bhn12rcd13ifvqgqg","pricing_plan_id":"cebpf4jnsgd1na2vs0mg"},{"bike_id":"44e90a0d-e459-4fb6-9ccd-8df9b0287084","system_id":"levelo_inurba_marseille","lat":43.29302,"lon":5.37166,"is_reserved":false,"is_disabled":false,"rental_uris":{"android":"levelo://app?vid=44e90a0d-e459-4fb6-9ccd-8df9b0287084","ios":"levelo://app?vid=44e90a0d-e459-4fb6-9ccd-8df9b0287084"},"vehicle_type_id":"4","last_reported":1752491421,"current_range_meters":16400,"station_id":"ce4bgh92rcd13ifvqb40","pricing_plan_id":"cebpf4jnsgd1na2vs0mg"},{"bike_id":"907de66b-0687-4157-9fea-c7ee46b15db2","system_id":"levelo_inurba_marseille","lat":43.24804,"lon":5.37452,"is_reserved":false,"is_disabled":false,"rental_uris":{"android":"levelo://app?vid=907de66b-0687-4157-9fea-c7ee46b15db2","ios":"levelo://app?vid=907de66b-0687-4157-9fea-c7ee46b15db2"},"vehicle_type_id":"4","last_reported":1752491421,"current_range_meters":16000,"station_id":"ce4bhgh2rcd13ifvqfb0","pricing_plan_id":"cebpf4jnsgd1na2vs0mg"},{"bike_id":"aa260077-cb0d-43c9-8e67-329c1b69779f","system_id":"levelo_inurba_marseille","lat":43.211934,"lon":5.350661,"is_reserved":false,"is_disabled":false,"rental_uris":{"android":"levelo://app?vid=aa260077-cb0d-43c9-8e67-329c1b69779f","ios":"levelo://app?vid=aa260077-cb0d-43c9-8e67-329c1b69779f"},"vehicle_type_id":"4","last_reported":1752491421,"current_range_meters":16400,"station_id":"st_cvj6sg6p6f1abm77japg","pricing_plan_id":"cebpf4jnsgd1na2vs0mg"},{"bike_id":"fba1102b-295e-42b4-b71b-13e27e6a6d8a","system_id":"levelo_inurba_marseille","lat":43.290175,"lon":5.355977,"is_reserved":false,"is_disabled":false,"rental_uris":{"android":"levelo://app?vid=fba1102b-295e-42b4-b71b-13e27e6a6d8a","ios":"levelo://app?vid=fba1102b-295e-42b4-b71b-13e27e6a6d8a"},"vehicle_type_id":"4","last_reported":1752491421,"current_range_meters":16400,"station_id":"ce4bhb92rcd13ifvqen0","pricing_plan_id":"cebpf4jnsgd1na2vs0mg"},{"bike_id":"ed74f810-226b-4edb-a7d8-2c9a86d071a4","system_id":"levelo_inurba_marseille","lat":43.21192,"lon":5.35072,"is_reserved":false,"is_disabled":false,"rental_uris":{"android":"levelo://app?vid=ed74f810-226b-4edb-a7d8-2c9a86d071a4","ios":"levelo://app?vid=ed74f810-226b-4edb-a7d8-2c9a86d071a4"},"vehicle_type_id":"4","last_reported":1752491421,"current_range_meters":16400,"station_id":"st_cvj6sg6p6f1abm77japg","pricing_plan_id":"cebpf4jnsgd1na2vs0mg"},{"bike_id":"00fc1402-4dd5-4160-81c9-e4ee05f4960b","system_id":"levelo_inurba_marseille","lat":43.22508,"lon":5.34776,"is_reserved":false,"is_disabled":false,"rental_uris":{"android":"levelo://app?vid=00fc1402-4dd5-4160-81c9-e4ee05f4960b","ios":"levelo://app?vid=00fc1402-4dd5-4160-81c9-e4ee05f4960b"},"vehicle_type_id":"4","last_reported":1752491421,"current_range_meters":16400,"station_id":"st_cvj5dfep6f1abm77gieg","pricing_plan_id":"cebpf4jnsgd1na2vs0mg"},{"bike_id":"4c68a4e8-1762-4d65-8098-26a5fa1a6fa8","system_id":"levelo_inurba_marseille","lat":43.28616,"lon":5.351,"is_reserved":false,"is_disabled":false,"rental_uris":{"android":"levelo://app?vid=4c68a4e8-1762-4d65-8098-26a5fa1a6fa8","ios":"levelo://app?vid=4c68a4e8-1762-4d65-8098-26a5fa1a6fa8"},"vehicle_type_id":"4","last_reported":1752491421,"current_range_meters":16400,"station_id":"ce4bhch2rcd13ifvqeug","pricing_plan_id":"cebpf4jnsgd1na2vs0mg"},{"bike_id":"aadec9b8-803d-4b60-b623-b9c41bfc8025","system_id":"levelo_inurba_marseille","lat":43.27377,"lon":5.36253,"is_reserved":false,"is_disabled":false,"rental_uris":{"android":"levelo://app?vid=aadec9b8-803d-4b60-b623-b9c41bfc8025","ios":"levelo://app?vid=aadec9b8-803d-4b60-b623-b9c41bfc8025"},"vehicle_type_id":"4","last_reported":1752491421,"current_range_meters":16400,"station_id":"ce4bhbh2rcd13ifvqeo0","pricing_plan_id":"cebpf4jnsgd1na2vs0mg"},{"bike_id":"328fdc6d-b36f-4007-94a0-c32a63e1fcc0","system_id":"levelo_inurba_marseille","lat":43.28417,"lon":5.34996,"is_reserved":false,"is_disabled":false,"rental_uris":{"android":"levelo://app?vid=328fdc6d-b36f-4007-94a0-c32a63e1fcc0","ios":"levelo://app?vid=328fdc6d-b36f-4007-94a0-c32a63e1fcc0"},"vehicle_type_id":"4","last_reported":1752491421,"current_range_meters":16800,"station_id":"ce4bhbh2rcd13ifvqepg","pricing_plan_id":"cebpf4jnsgd1na2vs0mg"},{"bike_id":"b65b0006-1cd3-4d0d-9c1d-64f83b4f515a","system_id":"levelo_inurba_marseille","lat":43.27054,"lon":5.40265,"is_reserved":false,"is_disabled":false,"rental_uris":{"android":"levelo://app?vid=b65b0006-1cd3-4d0d-9c1d-64f83b4f515a","ios":"levelo://app?vid=b65b0006-1cd3-4d0d-9c1d-64f83b4f515a"},"vehicle_type_id":"4","last_reported":1752491421,"current_range_meters":16800,"station_id":"ce4bhk92rcd13ifvqgc0","pricing_plan_id":"cebpf4jnsgd1na2vs0mg"},{"bike_id":"86ff6ad5-0612-4a71-a375-5d5132f5b609","system_id":"levelo_inurba_marseille","lat":43.29551,"lon":5.42281,"is_reserved":false,"is_disabled":false,"rental_uris":{"android":"levelo://app?vid=86ff6ad5-0612-4a71-a375-5d5132f5b609","ios":"levelo://app?vid=86ff6ad5-0612-4a71-a375-5d5132f5b609"},"vehicle_type_id":"4","last_reported":1752491421,"current_range_meters":16800,"station_id":"ce4bhph2rcd13ifvqhdg","pricing_plan_id":"cebpf4jnsgd1na2vs0mg"},{"bike_id":"0be8b6ff-89df-4994-876a-5f9632d04ae6","system_id":"levelo_inurba_marseille","lat":43.25104,"lon":5.40327,"is_reserved":false,"is_disabled":false,"rental_uris":{"android":"levelo://app?vid=0be8b6ff-89df-4994-876a-5f9632d04ae6","ios":"levelo://app?vid=0be8b6ff-89df-4994-876a-5f9632d04ae6"},"vehicle_type_id":"4","last_reported":1752491421,"current_range_meters":16800,"station_id":"ce4bhlh2rcd13ifvqgig","pricing_plan_id":"cebpf4jnsgd1na2vs0mg"},{"bike_id":"ff273063-b26e-410d-a8db-735ccf894b50","system_id":"levelo_inurba_marseille","lat":43.240867,"lon":5.377606,"is_reserved":false,"is_disabled":false,"rental_uris":{"android":"levelo://app?vid=ff273063-b26e-410d-a8db-735ccf894b50","ios":"levelo://app?vid=ff273063-b26e-410d-a8db-735ccf894b50"},"vehicle_type_id":"4","last_reported":1752491421,"current_range_meters":16800,"station_id":"ce4bhnp2rcd13ifvqgvg","pricing_plan_id":"cebpf4jnsgd1na2vs0mg"},{"bike_id":"2c5a0a8d-b80f-43a1-91ae-93c8cb7cac46","system_id":"levelo_inurba_marseille","lat":43.290249,"lon":5.381227,"is_reserved":false,"is_disabled":false,"rental_uris":{"android":"levelo://app?vid=2c5a0a8d-b80f-43a1-91ae-93c8cb7cac46","ios":"levelo://app?vid=2c5a0a8d-b80f-43a1-91ae-93c8cb7cac46"},"vehicle_type_id":"4","last_reported":1752491421,"current_range_meters":16800,"station_id":"","pricing_plan_id":"cebpf4jnsgd1na2vs0mg"},{"bike_id":"ce7e0f9d-fa84-4dc1-9d84-21a2c2d40a27","system_id":"levelo_inurba_marseille","lat":43.2407,"lon":5.37758,"is_reserved":false,"is_disabled":false,"rental_uris":{"android":"levelo://app?vid=ce7e0f9d-fa84-4dc1-9d84-21a2c2d40a27","ios":"levelo://app?vid=ce7e0f9d-fa84-4dc1-9d84-21a2c2d40a27"},"vehicle_type_id":"4","last_reported":1752491421,"current_range_meters":16800,"station_id":"ce4bhnp2rcd13ifvqgvg","pricing_plan_id":"cebpf4jnsgd1na2vs0mg"},{"bike_id":"c2857b8a-2544-48ae-936c-90bab1dd6ab6","system_id":"levelo_inurba_marseille","lat":43.21207,"lon":5.35094,"is_reserved":false,"is_disabled":false,"rental_uris":{"android":"levelo://app?vid=c2857b8a-2544-48ae-936c-90bab1dd6ab6","ios":"levelo://app?vid=c2857b8a-2544-48ae-936c-90bab1dd6ab6"},"vehicle_type_id":"4","last_reported":1752491421,"current_range_meters":16800,"station_id":"st_cvj6sg6p6f1abm77japg","pricing_plan_id":"cebpf4jnsgd1na2vs0mg"},{"bike_id":"1eb30bbc-25a0-4a0b-b6cc-68f11abcb23c","system_id":"levelo_inurba_marseille","lat":43.28609,"lon":5.37078,"is_reserved":false,"is_disabled":false,"rental_uris":{"android":"levelo://app?vid=1eb30bbc-25a0-4a0b-b6cc-68f11abcb23c","ios":"levelo://app?vid=1eb30bbc-25a0-4a0b-b6cc-68f11abcb23c"},"vehicle_type_id":"4","last_reported":1752491421,"current_range_meters":16800,"station_id":"ce4bht12rcd13ifvqi60","pricing_plan_id":"cebpf4jnsgd1na2vs0mg"},{"bike_id":"44e10618-e1b8-4569-bc24-980853c4bf04","system_id":"levelo_inurba_marseille","lat":43.22933,"lon":5.35379,"is_reserved":false,"is_disabled":true,"rental_uris":{"android":"levelo://app?vid=44e10618-e1b8-4569-bc24-980853c4bf04","ios":"levelo://app?vid=44e10618-e1b8-4569-bc24-980853c4bf04"},"vehicle_type_id":"4","last_reported":1752491421,"current_range_meters":17200,"station_id":"cpo3532slgdg3j2ikp40","pricing_plan_id":"cebpf4jnsgd1na2vs0mg"},{"bike_id":"3945caf1-a3ed-4500-a05f-e4d3291f48da","system_id":"levelo_inurba_marseille","lat":43.28273,"lon":5.35071,"is_reserved":false,"is_disabled":false,"rental_uris":{"android":"levelo://app?vid=3945caf1-a3ed-4500-a05f-e4d3291f48da","ios":"levelo://app?vid=3945caf1-a3ed-4500-a05f-e4d3291f48da"},"vehicle_type_id":"4","last_reported":1752491421,"current_range_meters":17200,"station_id":"ce4bhbp2rcd13ifvqerg","pricing_plan_id":"cebpf4jnsgd1na2vs0mg"},{"bike_id":"d0f90c24-dd03-411b-9731-55305f76b7c8","system_id":"levelo_inurba_marseille","lat":43.211931,"lon":5.350759,"is_reserved":false,"is_disabled":false,"rental_uris":{"android":"levelo://app?vid=d0f90c24-dd03-411b-9731-55305f76b7c8","ios":"levelo://app?vid=d0f90c24-dd03-411b-9731-55305f76b7c8"},"vehicle_type_id":"4","last_reported":1752491421,"current_range_meters":17200,"station_id":"st_cvj6sg6p6f1abm77japg","pricing_plan_id":"cebpf4jnsgd1na2vs0mg"},{"bike_id":"ccec6346-c1d9-4d69-8e92-a95c4cab290e","system_id":"levelo_inurba_marseille","lat":43.2952,"lon":5.39395,"is_reserved":false,"is_disabled":false,"rental_uris":{"android":"levelo://app?vid=ccec6346-c1d9-4d69-8e92-a95c4cab290e","ios":"levelo://app?vid=ccec6346-c1d9-4d69-8e92-a95c4cab290e"},"vehicle_type_id":"4","last_reported":1752491421,"current_range_meters":17200,"station_id":"ce4bh292rcd13ifvqdf0","pricing_plan_id":"cebpf4jnsgd1na2vs0mg"},{"bike_id":"e0b88937-0cb8-4374-8110-357b6a1974b9","system_id":"levelo_inurba_marseille","lat":43.24071,"lon":5.37759,"is_reserved":false,"is_disabled":false,"rental_uris":{"android":"levelo://app?vid=e0b88937-0cb8-4374-8110-357b6a1974b9","ios":"levelo://app?vid=e0b88937-0cb8-4374-8110-357b6a1974b9"},"vehicle_type_id":"4","last_reported":1752491421,"current_range_meters":17200,"station_id":"ce4bhnp2rcd13ifvqgvg","pricing_plan_id":"cebpf4jnsgd1na2vs0mg"},{"bike_id":"2db5854b-845f-432b-bb1e-ea3702c080dc","system_id":"levelo_inurba_marseille","lat":43.27563,"lon":5.38414,"is_reserved":false,"is_disabled":false,"rental_uris":{"android":"levelo://app?vid=2db5854b-845f-432b-bb1e-ea3702c080dc","ios":"levelo://app?vid=2db5854b-845f-432b-bb1e-ea3702c080dc"},"vehicle_type_id":"4","last_reported":1752491421,"current_range_meters":16800,"station_id":"ce4bhh92rcd13ifvqfi0","pricing_plan_id":"cebpf4jnsgd1na2vs0mg"},{"bike_id":"ce4d14d7-9e5a-40df-9fcf-5fd8b2e9178f","system_id":"levelo_inurba_marseille","lat":43.257164,"lon":5.411051,"is_reserved":false,"is_disabled":false,"rental_uris":{"android":"levelo://app?vid=ce4d14d7-9e5a-40df-9fcf-5fd8b2e9178f","ios":"levelo://app?vid=ce4d14d7-9e5a-40df-9fcf-5fd8b2e9178f"},"vehicle_type_id":"4","last_reported":1752491421,"current_range_meters":17600,"station_id":"ce4bhkp2rcd13ifvqgd0","pricing_plan_id":"cebpf4jnsgd1na2vs0mg"},{"bike_id":"20504418-026c-430d-9ad8-87e034aab6ab","system_id":"levelo_inurba_marseille","lat":43.30882,"lon":5.39665,"is_reserved":false,"is_disabled":false,"rental_uris":{"android":"levelo://app?vid=20504418-026c-430d-9ad8-87e034aab6ab","ios":"levelo://app?vid=20504418-026c-430d-9ad8-87e034aab6ab"},"vehicle_type_id":"4","last_reported":1752491421,"current_range_meters":17200,"station_id":"ce4bh012rcd13ifvqcv0","pricing_plan_id":"cebpf4jnsgd1na2vs0mg"},{"bike_id":"5084babc-9e40-4691-99c4-778b7e48f00b","system_id":"levelo_inurba_marseille","lat":43.23966,"lon":5.36625,"is_reserved":false,"is_disabled":false,"rental_uris":{"android":"levelo://app?vid=5084babc-9e40-4691-99c4-778b7e48f00b","ios":"levelo://app?vid=5084babc-9e40-4691-99c4-778b7e48f00b"},"vehicle_type_id":"4","last_reported":1752491421,"current_range_meters":17600,"station_id":"ce4bhi12rcd13ifvqfp0","pricing_plan_id":"cebpf4jnsgd1na2vs0mg"},{"bike_id":"fc63a067-9cf2-4c58-bfdd-3270ab1898f2","system_id":"levelo_inurba_marseille","lat":43.22938,"lon":5.35388,"is_reserved":false,"is_disabled":false,"rental_uris":{"android":"levelo://app?vid=fc63a067-9cf2-4c58-bfdd-3270ab1898f2","ios":"levelo://app?vid=fc63a067-9cf2-4c58-bfdd-3270ab1898f2"},"vehicle_type_id":"4","last_reported":1752491421,"current_range_meters":17600,"station_id":"cpo3532slgdg3j2ikp40","pricing_plan_id":"cebpf4jnsgd1na2vs0mg"},{"bike_id":"11aabcef-c556-4dfa-bcbf-ca5f49988a59","system_id":"levelo_inurba_marseille","lat":43.24665,"lon":5.38167,"is_reserved":false,"is_disabled":false,"rental_uris":{"android":"levelo://app?vid=11aabcef-c556-4dfa-bcbf-ca5f49988a59","ios":"levelo://app?vid=11aabcef-c556-4dfa-bcbf-ca5f49988a59"},"vehicle_type_id":"4","last_reported":1752491421,"current_range_meters":17600,"station_id":"ce4bhih2rcd13ifvqfr0","pricing_plan_id":"cebpf4jnsgd1na2vs0mg"},{"bike_id":"307c1319-6b70-4b17-b378-cada1c6eba55","system_id":"levelo_inurba_marseille","lat":43.27172,"lon":5.40998,"is_reserved":false,"is_disabled":false,"rental_uris":{"android":"levelo://app?vid=307c1319-6b70-4b17-b378-cada1c6eba55","ios":"levelo://app?vid=307c1319-6b70-4b17-b378-cada1c6eba55"},"vehicle_type_id":"4","last_reported":1752491421,"current_range_meters":17200,"station_id":"ce4bhl12rcd13ifvqgf0","pricing_plan_id":"cebpf4jnsgd1na2vs0mg"},{"bike_id":"658a43dc-581c-4b43-9828-6106ad73685a","system_id":"levelo_inurba_marseille","lat":43.241596,"lon":5.396646,"is_reserved":false,"is_disabled":false,"rental_uris":{"android":"levelo://app?vid=658a43dc-581c-4b43-9828-6106ad73685a","ios":"levelo://app?vid=658a43dc-581c-4b43-9828-6106ad73685a"},"vehicle_type_id":"4","last_reported":1752491421,"current_range_meters":17600,"station_id":"ce4bhn12rcd13ifvqgpg","pricing_plan_id":"cebpf4jnsgd1na2vs0mg"},{"bike_id":"f10941ce-d19a-4475-b0ba-1c38d332727e","system_id":"levelo_inurba_marseille","lat":43.3213,"lon":5.38742,"is_reserved":false,"is_disabled":false,"rental_uris":{"android":"levelo://app?vid=f10941ce-d19a-4475-b0ba-1c38d332727e","ios":"levelo://app?vid=f10941ce-d19a-4475-b0ba-1c38d332727e"},"vehicle_type_id":"4","last_reported":1752491421,"current_range_meters":17600,"station_id":"","pricing_plan_id":"cebpf4jnsgd1na2vs0mg"},{"bike_id":"9dd9d2f5-ce3a-42e7-941c-e717adf322cc","system_id":"levelo_inurba_marseille","lat":43.2901,"lon":5.35607,"is_reserved":false,"is_disabled":false,"rental_uris":{"android":"levelo://app?vid=9dd9d2f5-ce3a-42e7-941c-e717adf322cc","ios":"levelo://app?vid=9dd9d2f5-ce3a-42e7-941c-e717adf322cc"},"vehicle_type_id":"4","last_reported":1752491421,"current_range_meters":17600,"station_id":"ce4bhb92rcd13ifvqen0","pricing_plan_id":"cebpf4jnsgd1na2vs0mg"},{"bike_id":"48a72147-d63a-4fad-9403-9184689656c8","system_id":"levelo_inurba_marseille","lat":43.243951,"lon":5.370709,"is_reserved":false,"is_disabled":true,"rental_uris":{"android":"levelo://app?vid=48a72147-d63a-4fad-9403-9184689656c8","ios":"levelo://app?vid=48a72147-d63a-4fad-9403-9184689656c8"},"vehicle_type_id":"4","last_reported":1752491421,"current_range_meters":17600,"station_id":"ce4bhhh2rcd13ifvqfk0","pricing_plan_id":"cebpf4jnsgd1na2vs0mg"},{"bike_id":"22060ed4-4224-4eb8-b34f-7fe6bdc84783","system_id":"levelo_inurba_marseille","lat":43.31485,"lon":5.37302,"is_reserved":false,"is_disabled":false,"rental_uris":{"android":"levelo://app?vid=22060ed4-4224-4eb8-b34f-7fe6bdc84783","ios":"levelo://app?vid=22060ed4-4224-4eb8-b34f-7fe6bdc84783"},"vehicle_type_id":"4","last_reported":1752491421,"current_range_meters":17600,"station_id":"ce4bgt12rcd13ifvqcd0","pricing_plan_id":"cebpf4jnsgd1na2vs0mg"},{"bike_id":"0755cb70-08ea-4ee0-9fc0-1b832c502a85","system_id":"levelo_inurba_marseille","lat":43.21745,"lon":5.34598,"is_reserved":false,"is_disabled":false,"rental_uris":{"android":"levelo://app?vid=0755cb70-08ea-4ee0-9fc0-1b832c502a85","ios":"levelo://app?vid=0755cb70-08ea-4ee0-9fc0-1b832c502a85"},"vehicle_type_id":"4","last_reported":1752491421,"current_range_meters":17600,"station_id":"st_cvj6r9ubvosntc0bgbag","pricing_plan_id":"cebpf4jnsgd1na2vs0mg"},{"bike_id":"da0740e8-1437-4e50-83c5-60584653714f","system_id":"levelo_inurba_marseille","lat":43.28428,"lon":5.3501,"is_reserved":false,"is_disabled":false,"rental_uris":{"android":"levelo://app?vid=da0740e8-1437-4e50-83c5-60584653714f","ios":"levelo://app?vid=da0740e8-1437-4e50-83c5-60584653714f"},"vehicle_type_id":"4","last_reported":1752491421,"current_range_meters":17600,"station_id":"ce4bhbh2rcd13ifvqepg","pricing_plan_id":"cebpf4jnsgd1na2vs0mg"},{"bike_id":"f6618e0c-2b00-4ee7-8d7c-c845eca6b5fb","system_id":"levelo_inurba_marseille","lat":43.31533,"lon":5.38043,"is_reserved":false,"is_disabled":false,"rental_uris":{"android":"levelo://app?vid=f6618e0c-2b00-4ee7-8d7c-c845eca6b5fb","ios":"levelo://app?vid=f6618e0c-2b00-4ee7-8d7c-c845eca6b5fb"},"vehicle_type_id":"4","last_reported":1752491421,"current_range_meters":18000,"station_id":"ce4bhsp2rcd13ifvqi50","pricing_plan_id":"cebpf4jnsgd1na2vs0mg"},{"bike_id":"52cb12ce-7568-4969-9d5b-e929fc857857","system_id":"levelo_inurba_marseille","lat":43.29083,"lon":5.38036,"is_reserved":false,"is_disabled":false,"rental_uris":{"android":"levelo://app?vid=52cb12ce-7568-4969-9d5b-e929fc857857","ios":"levelo://app?vid=52cb12ce-7568-4969-9d5b-e929fc857857"},"vehicle_type_id":"4","last_reported":1752491421,"current_range_meters":18000,"station_id":"","pricing_plan_id":"cebpf4jnsgd1na2vs0mg"},{"bike_id":"abd54454-eac9-4f10-9247-3e0bb034a891","system_id":"levelo_inurba_marseille","lat":43.28259,"lon":5.3507,"is_reserved":false,"is_disabled":false,"rental_uris":{"android":"levelo://app?vid=abd54454-eac9-4f10-9247-3e0bb034a891","ios":"levelo://app?vid=abd54454-eac9-4f10-9247-3e0bb034a891"},"vehicle_type_id":"4","last_reported":1752491421,"current_range_meters":18000,"station_id":"ce4bhbp2rcd13ifvqerg","pricing_plan_id":"cebpf4jnsgd1na2vs0mg"},{"bike_id":"6c6d4d9a-6141-481c-9c1a-8e61054bdc43","system_id":"levelo_inurba_marseille","lat":43.247764,"lon":5.418246,"is_reserved":false,"is_disabled":false,"rental_uris":{"android":"levelo://app?vid=6c6d4d9a-6141-481c-9c1a-8e61054bdc43","ios":"levelo://app?vid=6c6d4d9a-6141-481c-9c1a-8e61054bdc43"},"vehicle_type_id":"4","last_reported":1752491421,"current_range_meters":18000,"station_id":"","pricing_plan_id":"cebpf4jnsgd1na2vs0mg"},{"bike_id":"662702a8-9b3f-475a-9393-64e433d069f6","system_id":"levelo_inurba_marseille","lat":43.2693,"lon":5.38915,"is_reserved":false,"is_disabled":false,"rental_uris":{"android":"levelo://app?vid=662702a8-9b3f-475a-9393-64e433d069f6","ios":"levelo://app?vid=662702a8-9b3f-475a-9393-64e433d069f6"},"vehicle_type_id":"4","last_reported":1752491421,"current_range_meters":17600,"station_id":"ce4bhhh2rcd13ifvqfl0","pricing_plan_id":"cebpf4jnsgd1na2vs0mg"},{"bike_id":"5c604cee-8163-4508-b1f3-ec8c5d644770","system_id":"levelo_inurba_marseille","lat":43.23159,"lon":5.35525,"is_reserved":false,"is_disabled":false,"rental_uris":{"android":"levelo://app?vid=5c604cee-8163-4508-b1f3-ec8c5d644770","ios":"levelo://app?vid=5c604cee-8163-4508-b1f3-ec8c5d644770"},"vehicle_type_id":"4","last_reported":1752491421,"current_range_meters":18000,"station_id":"ce4bhu92rcd13ifvqi70","pricing_plan_id":"cebpf4jnsgd1na2vs0mg"},{"bike_id":"c3eb31c9-e106-4cd2-bb91-f2d0ee3e7a6f","system_id":"levelo_inurba_marseille","lat":43.24021,"lon":5.36253,"is_reserved":false,"is_disabled":false,"rental_uris":{"android":"levelo://app?vid=c3eb31c9-e106-4cd2-bb91-f2d0ee3e7a6f","ios":"levelo://app?vid=c3eb31c9-e106-4cd2-bb91-f2d0ee3e7a6f"},"vehicle_type_id":"4","last_reported":1752491421,"current_range_meters":18000,"station_id":"","pricing_plan_id":"cebpf4jnsgd1na2vs0mg"},{"bike_id":"08e67338-a2ff-42fc-a939-92ad435f118e","system_id":"levelo_inurba_marseille","lat":43.27674,"lon":5.35714,"is_reserved":false,"is_disabled":false,"rental_uris":{"android":"levelo://app?vid=08e67338-a2ff-42fc-a939-92ad435f118e","ios":"levelo://app?vid=08e67338-a2ff-42fc-a939-92ad435f118e"},"vehicle_type_id":"4","last_reported":1752491421,"current_range_meters":18000,"station_id":"","pricing_plan_id":"cebpf4jnsgd1na2vs0mg"},{"bike_id":"66864f67-3cb2-4ea7-8b4a-a765547b0b6c","system_id":"levelo_inurba_marseille","lat":43.2961,"lon":5.37722,"is_reserved":false,"is_disabled":false,"rental_uris":{"android":"levelo://app?vid=66864f67-3cb2-4ea7-8b4a-a765547b0b6c","ios":"levelo://app?vid=66864f67-3cb2-4ea7-8b4a-a765547b0b6c"},"vehicle_type_id":"4","last_reported":1752491421,"current_range_meters":18000,"station_id":"ce4bgi92rcd13ifvqb90","pricing_plan_id":"cebpf4jnsgd1na2vs0mg"},{"bike_id":"ea78a43d-df4c-40ad-b137-41ae637930cd","system_id":"levelo_inurba_marseille","lat":43.25856,"lon":5.39901,"is_reserved":false,"is_disabled":false,"rental_uris":{"android":"levelo://app?vid=ea78a43d-df4c-40ad-b137-41ae637930cd","ios":"levelo://app?vid=ea78a43d-df4c-40ad-b137-41ae637930cd"},"vehicle_type_id":"4","last_reported":1752491421,"current_range_meters":18800,"station_id":"ce4bhl92rcd13ifvqghg","pricing_plan_id":"cebpf4jnsgd1na2vs0mg"},{"bike_id":"9ec7ded0-07a0-4052-88cd-c68cfaa8fdd7","system_id":"levelo_inurba_marseille","lat":43.21744,"lon":5.34595,"is_reserved":false,"is_disabled":false,"rental_uris":{"android":"levelo://app?vid=9ec7ded0-07a0-4052-88cd-c68cfaa8fdd7","ios":"levelo://app?vid=9ec7ded0-07a0-4052-88cd-c68cfaa8fdd7"},"vehicle_type_id":"4","last_reported":1752491421,"current_range_meters":18800,"station_id":"st_cvj6r9ubvosntc0bgbag","pricing_plan_id":"cebpf4jnsgd1na2vs0mg"},{"bike_id":"0f6e2d1e-1402-4217-bd46-d4dccc77d350","system_id":"levelo_inurba_marseille","lat":43.29301,"lon":5.36591,"is_reserved":false,"is_disabled":false,"rental_uris":{"android":"levelo://app?vid=0f6e2d1e-1402-4217-bd46-d4dccc77d350","ios":"levelo://app?vid=0f6e2d1e-1402-4217-bd46-d4dccc77d350"},"vehicle_type_id":"4","last_reported":1752491421,"current_range_meters":18800,"station_id":"","pricing_plan_id":"cebpf4jnsgd1na2vs0mg"},{"bike_id":"809cd1a0-273a-4750-a3a1-d92e5c31ef13","system_id":"levelo_inurba_marseille","lat":43.26568,"lon":5.39015,"is_reserved":false,"is_disabled":false,"rental_uris":{"android":"levelo://app?vid=809cd1a0-273a-4750-a3a1-d92e5c31ef13","ios":"levelo://app?vid=809cd1a0-273a-4750-a3a1-d92e5c31ef13"},"vehicle_type_id":"4","last_reported":1752491421,"current_range_meters":18800,"station_id":"ce4bhe12rcd13ifvqf30","pricing_plan_id":"cebpf4jnsgd1na2vs0mg"},{"bike_id":"335b90fd-5354-485a-818d-68afd4055e7e","system_id":"levelo_inurba_marseille","lat":43.24795,"lon":5.37456,"is_reserved":false,"is_disabled":false,"rental_uris":{"android":"levelo://app?vid=335b90fd-5354-485a-818d-68afd4055e7e","ios":"levelo://app?vid=335b90fd-5354-485a-818d-68afd4055e7e"},"vehicle_type_id":"4","last_reported":1752491421,"current_range_meters":18800,"station_id":"ce4bhgh2rcd13ifvqfb0","pricing_plan_id":"cebpf4jnsgd1na2vs0mg"},{"bike_id":"b211c38b-8c37-4f04-b2fa-0f21bedeb117","system_id":"levelo_inurba_marseille","lat":43.28155,"lon":5.42641,"is_reserved":false,"is_disabled":false,"rental_uris":{"android":"levelo://app?vid=b211c38b-8c37-4f04-b2fa-0f21bedeb117","ios":"levelo://app?vid=b211c38b-8c37-4f04-b2fa-0f21bedeb117"},"vehicle_type_id":"4","last_reported":1752491421,"current_range_meters":18800,"station_id":"ce4bhnh2rcd13ifvqgug","pricing_plan_id":"cebpf4jnsgd1na2vs0mg"},{"bike_id":"1369b595-28ae-428f-87de-294b55c70787","system_id":"levelo_inurba_marseille","lat":43.28413,"lon":5.34983,"is_reserved":false,"is_disabled":false,"rental_uris":{"android":"levelo://app?vid=1369b595-28ae-428f-87de-294b55c70787","ios":"levelo://app?vid=1369b595-28ae-428f-87de-294b55c70787"},"vehicle_type_id":"4","last_reported":1752491421,"current_range_meters":18800,"station_id":"ce4bhbh2rcd13ifvqepg","pricing_plan_id":"cebpf4jnsgd1na2vs0mg"},{"bike_id":"d7345bd6-482c-45c1-a31f-8da9edb02a99","system_id":"levelo_inurba_marseille","lat":43.31534,"lon":5.380345,"is_reserved":false,"is_disabled":false,"rental_uris":{"android":"levelo://app?vid=d7345bd6-482c-45c1-a31f-8da9edb02a99","ios":"levelo://app?vid=d7345bd6-482c-45c1-a31f-8da9edb02a99"},"vehicle_type_id":"4","last_reported":1752491421,"current_range_meters":18800,"station_id":"ce4bhsp2rcd13ifvqi50","pricing_plan_id":"cebpf4jnsgd1na2vs0mg"},{"bike_id":"002126f6-737b-4641-9e75-1e3a41731156","system_id":"levelo_inurba_marseille","lat":43.21756,"lon":5.34602,"is_reserved":false,"is_disabled":false,"rental_uris":{"android":"levelo://app?vid=002126f6-737b-4641-9e75-1e3a41731156","ios":"levelo://app?vid=002126f6-737b-4641-9e75-1e3a41731156"},"vehicle_type_id":"4","last_reported":1752491421,"current_range_meters":18800,"station_id":"st_cvj6r9ubvosntc0bgbag","pricing_plan_id":"cebpf4jnsgd1na2vs0mg"},{"bike_id":"6d759733-8785-4e8a-bb14-bad01a7758f4","system_id":"levelo_inurba_marseille","lat":43.25709,"lon":5.41105,"is_reserved":false,"is_disabled":false,"rental_uris":{"android":"levelo://app?vid=6d759733-8785-4e8a-bb14-bad01a7758f4","ios":"levelo://app?vid=6d759733-8785-4e8a-bb14-bad01a7758f4"},"vehicle_type_id":"4","last_reported":1752491421,"current_range_meters":19200,"station_id":"ce4bhkp2rcd13ifvqgd0","pricing_plan_id":"cebpf4jnsgd1na2vs0mg"},{"bike_id":"01beb3f2-c54f-4f68-af15-b28ae7c75196","system_id":"levelo_inurba_marseille","lat":43.30137,"lon":5.39891,"is_reserved":false,"is_disabled":true,"rental_uris":{"android":"levelo://app?vid=01beb3f2-c54f-4f68-af15-b28ae7c75196","ios":"levelo://app?vid=01beb3f2-c54f-4f68-af15-b28ae7c75196"},"vehicle_type_id":"4","last_reported":1752491421,"current_range_meters":19200,"station_id":"ce4bh0h2rcd13ifvqd40","pricing_plan_id":"cebpf4jnsgd1na2vs0mg"},{"bike_id":"5228b6e7-dc82-4dc0-88ab-674a493adc71","system_id":"levelo_inurba_marseille","lat":43.27971,"lon":5.38735,"is_reserved":false,"is_disabled":false,"rental_uris":{"android":"levelo://app?vid=5228b6e7-dc82-4dc0-88ab-674a493adc71","ios":"levelo://app?vid=5228b6e7-dc82-4dc0-88ab-674a493adc71"},"vehicle_type_id":"4","last_reported":1752491421,"current_range_meters":19200,"station_id":"ce4bhg12rcd13ifvqf80","pricing_plan_id":"cebpf4jnsgd1na2vs0mg"},{"bike_id":"2ab7d655-face-469d-b1de-b3156f48f484","system_id":"levelo_inurba_marseille","lat":43.27986,"lon":5.41672,"is_reserved":false,"is_disabled":false,"rental_uris":{"android":"levelo://app?vid=2ab7d655-face-469d-b1de-b3156f48f484","ios":"levelo://app?vid=2ab7d655-face-469d-b1de-b3156f48f484"},"vehicle_type_id":"4","last_reported":1752491421,"current_range_meters":19200,"station_id":"ce4bho12rcd13ifvqh1g","pricing_plan_id":"cebpf4jnsgd1na2vs0mg"},{"bike_id":"7bce7a34-5113-458d-9330-3d00164f4612","system_id":"levelo_inurba_marseille","lat":43.21188,"lon":5.35073,"is_reserved":false,"is_disabled":false,"rental_uris":{"android":"levelo://app?vid=7bce7a34-5113-458d-9330-3d00164f4612","ios":"levelo://app?vid=7bce7a34-5113-458d-9330-3d00164f4612"},"vehicle_type_id":"4","last_reported":1752491421,"current_range_meters":19200,"station_id":"st_cvj6sg6p6f1abm77japg","pricing_plan_id":"cebpf4jnsgd1na2vs0mg"},{"bike_id":"a1f0c7e1-0bdc-4118-b503-84f5f7fdb140","system_id":"levelo_inurba_marseille","lat":43.28618,"lon":5.35105,"is_reserved":false,"is_disabled":false,"rental_uris":{"android":"levelo://app?vid=a1f0c7e1-0bdc-4118-b503-84f5f7fdb140","ios":"levelo://app?vid=a1f0c7e1-0bdc-4118-b503-84f5f7fdb140"},"vehicle_type_id":"4","last_reported":1752491421,"current_range_meters":19200,"station_id":"ce4bhch2rcd13ifvqeug","pricing_plan_id":"cebpf4jnsgd1na2vs0mg"},{"bike_id":"d7159adf-94a3-498c-948b-458c9b026277","system_id":"levelo_inurba_marseille","lat":43.22501,"lon":5.34774,"is_reserved":false,"is_disabled":false,"rental_uris":{"android":"levelo://app?vid=d7159adf-94a3-498c-948b-458c9b026277","ios":"levelo://app?vid=d7159adf-94a3-498c-948b-458c9b026277"},"vehicle_type_id":"4","last_reported":1752491421,"current_range_meters":19200,"station_id":"","pricing_plan_id":"cebpf4jnsgd1na2vs0mg"},{"bike_id":"1aaa7e29-8268-4a68-b982-06e4cb580b86","system_id":"levelo_inurba_marseille","lat":43.3361,"lon":5.40984,"is_reserved":false,"is_disabled":false,"rental_uris":{"android":"levelo://app?vid=1aaa7e29-8268-4a68-b982-06e4cb580b86","ios":"levelo://app?vid=1aaa7e29-8268-4a68-b982-06e4cb580b86"},"vehicle_type_id":"4","last_reported":1752491421,"current_range_meters":19200,"station_id":"ce4bhqh2rcd13ifvqhmg","pricing_plan_id":"cebpf4jnsgd1na2vs0mg"},{"bike_id":"de3c7479-ad03-448f-a78e-88898eddd51a","system_id":"levelo_inurba_marseille","lat":43.32955,"lon":5.39746,"is_reserved":false,"is_disabled":false,"rental_uris":{"android":"levelo://app?vid=de3c7479-ad03-448f-a78e-88898eddd51a","ios":"levelo://app?vid=de3c7479-ad03-448f-a78e-88898eddd51a"},"vehicle_type_id":"4","last_reported":1752491421,"current_range_meters":19600,"station_id":"","pricing_plan_id":"cebpf4jnsgd1na2vs0mg"},{"bike_id":"263f6f53-1897-411c-8ea7-f127f93436c4","system_id":"levelo_inurba_marseille","lat":43.21748,"lon":5.34601,"is_reserved":false,"is_disabled":false,"rental_uris":{"android":"levelo://app?vid=263f6f53-1897-411c-8ea7-f127f93436c4","ios":"levelo://app?vid=263f6f53-1897-411c-8ea7-f127f93436c4"},"vehicle_type_id":"4","last_reported":1752491421,"current_range_meters":19600,"station_id":"st_cvj6r9ubvosntc0bgbag","pricing_plan_id":"cebpf4jnsgd1na2vs0mg"},{"bike_id":"6900fe57-622f-4642-a274-aea459cf0901","system_id":"levelo_inurba_marseille","lat":43.30152,"lon":5.37426,"is_reserved":false,"is_disabled":false,"rental_uris":{"android":"levelo://app?vid=6900fe57-622f-4642-a274-aea459cf0901","ios":"levelo://app?vid=6900fe57-622f-4642-a274-aea459cf0901"},"vehicle_type_id":"4","last_reported":1752491421,"current_range_meters":19600,"station_id":"ce4bgs92rcd13ifvqcc0","pricing_plan_id":"cebpf4jnsgd1na2vs0mg"},{"bike_id":"1183f04e-1652-4010-95ef-20fde98197f8","system_id":"levelo_inurba_marseille","lat":43.250818,"lon":5.395293,"is_reserved":false,"is_disabled":false,"rental_uris":{"android":"levelo://app?vid=1183f04e-1652-4010-95ef-20fde98197f8","ios":"levelo://app?vid=1183f04e-1652-4010-95ef-20fde98197f8"},"vehicle_type_id":"4","last_reported":1752491421,"current_range_meters":19600,"station_id":"ce4bhm12rcd13ifvqgkg","pricing_plan_id":"cebpf4jnsgd1na2vs0mg"},{"bike_id":"b7e18bfc-4bc1-4c1e-afb9-01e90ed35340","system_id":"levelo_inurba_marseille","lat":43.28265,"lon":5.35079,"is_reserved":false,"is_disabled":false,"rental_uris":{"android":"levelo://app?vid=b7e18bfc-4bc1-4c1e-afb9-01e90ed35340","ios":"levelo://app?vid=b7e18bfc-4bc1-4c1e-afb9-01e90ed35340"},"vehicle_type_id":"4","last_reported":1752491421,"current_range_meters":19600,"station_id":"ce4bhbp2rcd13ifvqerg","pricing_plan_id":"cebpf4jnsgd1na2vs0mg"},{"bike_id":"c721e394-5d5d-4900-9e11-2bd1a6cf3eea","system_id":"levelo_inurba_marseille","lat":43.251095,"lon":5.403218,"is_reserved":false,"is_disabled":false,"rental_uris":{"android":"levelo://app?vid=c721e394-5d5d-4900-9e11-2bd1a6cf3eea","ios":"levelo://app?vid=c721e394-5d5d-4900-9e11-2bd1a6cf3eea"},"vehicle_type_id":"4","last_reported":1752491421,"current_range_meters":19600,"station_id":"ce4bhlh2rcd13ifvqgig","pricing_plan_id":"cebpf4jnsgd1na2vs0mg"},{"bike_id":"78548ad0-695d-4c47-bb84-464f013b3788","system_id":"levelo_inurba_marseille","lat":43.29211,"lon":5.36072,"is_reserved":false,"is_disabled":false,"rental_uris":{"android":"levelo://app?vid=78548ad0-695d-4c47-bb84-464f013b3788","ios":"levelo://app?vid=78548ad0-695d-4c47-bb84-464f013b3788"},"vehicle_type_id":"4","last_reported":1752491421,"current_range_meters":19600,"station_id":"ce4bhbh2rcd13ifvqeqg","pricing_plan_id":"cebpf4jnsgd1na2vs0mg"},{"bike_id":"0196692f-9dd4-4f43-ab4a-8a90a506eba0","system_id":"levelo_inurba_marseille","lat":43.292634,"lon":5.384339,"is_reserved":false,"is_disabled":false,"rental_uris":{"android":"levelo://app?vid=0196692f-9dd4-4f43-ab4a-8a90a506eba0","ios":"levelo://app?vid=0196692f-9dd4-4f43-ab4a-8a90a506eba0"},"vehicle_type_id":"4","last_reported":1752491421,"current_range_meters":19600,"station_id":"","pricing_plan_id":"cebpf4jnsgd1na2vs0mg"},{"bike_id":"b6d21ae6-cd0a-41f0-8ea5-6d51267f4b48","system_id":"levelo_inurba_marseille","lat":43.32368,"lon":5.38881,"is_reserved":false,"is_disabled":false,"rental_uris":{"android":"levelo://app?vid=b6d21ae6-cd0a-41f0-8ea5-6d51267f4b48","ios":"levelo://app?vid=b6d21ae6-cd0a-41f0-8ea5-6d51267f4b48"},"vehicle_type_id":"4","last_reported":1752491421,"current_range_meters":19600,"station_id":"ce4bhqp2rcd13ifvqhog","pricing_plan_id":"cebpf4jnsgd1na2vs0mg"},{"bike_id":"62936865-b560-4edf-91f6-dc3cbff51cec","system_id":"levelo_inurba_marseille","lat":43.272426,"lon":5.36263,"is_reserved":false,"is_disabled":false,"rental_uris":{"android":"levelo://app?vid=62936865-b560-4edf-91f6-dc3cbff51cec","ios":"levelo://app?vid=62936865-b560-4edf-91f6-dc3cbff51cec"},"vehicle_type_id":"4","last_reported":1752491421,"current_range_meters":19600,"station_id":"","pricing_plan_id":"cebpf4jnsgd1na2vs0mg"},{"bike_id":"9c39830b-ce85-4249-8871-2a47f21d4c8a","system_id":"levelo_inurba_marseille","lat":43.314783,"lon":5.373034,"is_reserved":false,"is_disabled":false,"rental_uris":{"android":"levelo://app?vid=9c39830b-ce85-4249-8871-2a47f21d4c8a","ios":"levelo://app?vid=9c39830b-ce85-4249-8871-2a47f21d4c8a"},"vehicle_type_id":"4","last_reported":1752491421,"current_range_meters":19600,"station_id":"ce4bgt12rcd13ifvqcd0","pricing_plan_id":"cebpf4jnsgd1na2vs0mg"},{"bike_id":"09a93a64-fbb1-49a9-be1f-f86a34310e71","system_id":"levelo_inurba_marseille","lat":43.21199,"lon":5.35107,"is_reserved":false,"is_disabled":false,"rental_uris":{"android":"levelo://app?vid=09a93a64-fbb1-49a9-be1f-f86a34310e71","ios":"levelo://app?vid=09a93a64-fbb1-49a9-be1f-f86a34310e71"},"vehicle_type_id":"4","last_reported":1752491421,"current_range_meters":19600,"station_id":"st_cvj6sg6p6f1abm77japg","pricing_plan_id":"cebpf4jnsgd1na2vs0mg"},{"bike_id":"ad5eb277-50fe-4683-8834-d753b852b58a","system_id":"levelo_inurba_marseille","lat":43.295938,"lon":5.380326,"is_reserved":false,"is_disabled":false,"rental_uris":{"android":"levelo://app?vid=ad5eb277-50fe-4683-8834-d753b852b58a","ios":"levelo://app?vid=ad5eb277-50fe-4683-8834-d753b852b58a"},"vehicle_type_id":"4","last_reported":1752491421,"current_range_meters":20000,"station_id":"","pricing_plan_id":"cebpf4jnsgd1na2vs0mg"},{"bike_id":"5914e238-bfa8-4d13-95a4-232065d57ab0","system_id":"levelo_inurba_marseille","lat":43.280011,"lon":5.400138,"is_reserved":false,"is_disabled":false,"rental_uris":{"android":"levelo://app?vid=5914e238-bfa8-4d13-95a4-232065d57ab0","ios":"levelo://app?vid=5914e238-bfa8-4d13-95a4-232065d57ab0"},"vehicle_type_id":"4","last_reported":1752491421,"current_range_meters":20000,"station_id":"ce4bho92rcd13ifvqh4g","pricing_plan_id":"cebpf4jnsgd1na2vs0mg"},{"bike_id":"47aa1c94-32db-4d4c-9523-fe4d6c986358","system_id":"levelo_inurba_marseille","lat":43.27362,"lon":5.36246,"is_reserved":false,"is_disabled":false,"rental_uris":{"android":"levelo://app?vid=47aa1c94-32db-4d4c-9523-fe4d6c986358","ios":"levelo://app?vid=47aa1c94-32db-4d4c-9523-fe4d6c986358"},"vehicle_type_id":"4","last_reported":1752491421,"current_range_meters":20000,"station_id":"ce4bhbh2rcd13ifvqeo0","pricing_plan_id":"cebpf4jnsgd1na2vs0mg"},{"bike_id":"903197e4-3da2-471b-9537-d88bae7e31c4","system_id":"levelo_inurba_marseille","lat":43.26493,"lon":5.39545,"is_reserved":false,"is_disabled":true,"rental_uris":{"android":"levelo://app?vid=903197e4-3da2-471b-9537-d88bae7e31c4","ios":"levelo://app?vid=903197e4-3da2-471b-9537-d88bae7e31c4"},"vehicle_type_id":"4","last_reported":1752491421,"current_range_meters":20000,"station_id":"ce4bhi12rcd13ifvqfq0","pricing_plan_id":"cebpf4jnsgd1na2vs0mg"},{"bike_id":"9d4f5aa0-982b-4c8d-9fd0-6e3f7c02627f","system_id":"levelo_inurba_marseille","lat":43.30193,"lon":5.36605,"is_reserved":false,"is_disabled":false,"rental_uris":{"android":"levelo://app?vid=9d4f5aa0-982b-4c8d-9fd0-6e3f7c02627f","ios":"levelo://app?vid=9d4f5aa0-982b-4c8d-9fd0-6e3f7c02627f"},"vehicle_type_id":"4","last_reported":1752491421,"current_range_meters":20000,"station_id":"ce4bgrh2rcd13ifvqc8g","pricing_plan_id":"cebpf4jnsgd1na2vs0mg"},{"bike_id":"de5e4790-edcb-4408-827a-be7f9258ff0f","system_id":"levelo_inurba_marseille","lat":43.27377,"lon":5.36269,"is_reserved":false,"is_disabled":false,"rental_uris":{"android":"levelo://app?vid=de5e4790-edcb-4408-827a-be7f9258ff0f","ios":"levelo://app?vid=de5e4790-edcb-4408-827a-be7f9258ff0f"},"vehicle_type_id":"4","last_reported":1752491421,"current_range_meters":20000,"station_id":"ce4bhbh2rcd13ifvqeo0","pricing_plan_id":"cebpf4jnsgd1na2vs0mg"},{"bike_id":"ee11e135-a631-4992-aaef-34fdb8783748","system_id":"levelo_inurba_marseille","lat":43.33778,"lon":5.37425,"is_reserved":false,"is_disabled":false,"rental_uris":{"android":"levelo://app?vid=ee11e135-a631-4992-aaef-34fdb8783748","ios":"levelo://app?vid=ee11e135-a631-4992-aaef-34fdb8783748"},"vehicle_type_id":"4","last_reported":1752491421,"current_range_meters":20000,"station_id":"","pricing_plan_id":"cebpf4jnsgd1na2vs0mg"},{"bike_id":"03cf3160-c1c1-4699-9732-5c4266c88892","system_id":"levelo_inurba_marseille","lat":43.30195,"lon":5.36621,"is_reserved":false,"is_disabled":false,"rental_uris":{"android":"levelo://app?vid=03cf3160-c1c1-4699-9732-5c4266c88892","ios":"levelo://app?vid=03cf3160-c1c1-4699-9732-5c4266c88892"},"vehicle_type_id":"4","last_reported":1752491421,"current_range_meters":20000,"station_id":"ce4bgrh2rcd13ifvqc8g","pricing_plan_id":"cebpf4jnsgd1na2vs0mg"},{"bike_id":"d4a35763-cd68-4119-93e5-ee92dbacf514","system_id":"levelo_inurba_marseille","lat":43.31702,"lon":5.40467,"is_reserved":false,"is_disabled":false,"rental_uris":{"android":"levelo://app?vid=d4a35763-cd68-4119-93e5-ee92dbacf514","ios":"levelo://app?vid=d4a35763-cd68-4119-93e5-ee92dbacf514"},"vehicle_type_id":"4","last_reported":1752491421,"current_range_meters":20000,"station_id":"ce4bh012rcd13ifvqd00","pricing_plan_id":"cebpf4jnsgd1na2vs0mg"},{"bike_id":"74b145b4-5ddd-48db-a2ec-c61b6b5cb914","system_id":"levelo_inurba_marseille","lat":43.21745,"lon":5.34599,"is_reserved":false,"is_disabled":false,"rental_uris":{"android":"levelo://app?vid=74b145b4-5ddd-48db-a2ec-c61b6b5cb914","ios":"levelo://app?vid=74b145b4-5ddd-48db-a2ec-c61b6b5cb914"},"vehicle_type_id":"4","last_reported":1752491421,"current_range_meters":20000,"station_id":"st_cvj6r9ubvosntc0bgbag","pricing_plan_id":"cebpf4jnsgd1na2vs0mg"},{"bike_id":"28a0d5c9-af70-4194-8b1e-e42c84fb2c50","system_id":"levelo_inurba_marseille","lat":43.292624,"lon":5.40916,"is_reserved":false,"is_disabled":false,"rental_uris":{"android":"levelo://app?vid=28a0d5c9-af70-4194-8b1e-e42c84fb2c50","ios":"levelo://app?vid=28a0d5c9-af70-4194-8b1e-e42c84fb2c50"},"vehicle_type_id":"4","last_reported":1752491421,"current_range_meters":20000,"station_id":"","pricing_plan_id":"cebpf4jnsgd1na2vs0mg"},{"bike_id":"f511cc3c-69bf-4dcb-8a21-f0bb5ab16fd5","system_id":"levelo_inurba_marseille","lat":43.29442,"lon":5.39758,"is_reserved":false,"is_disabled":false,"rental_uris":{"android":"levelo://app?vid=f511cc3c-69bf-4dcb-8a21-f0bb5ab16fd5","ios":"levelo://app?vid=f511cc3c-69bf-4dcb-8a21-f0bb5ab16fd5"},"vehicle_type_id":"4","last_reported":1752491421,"current_range_meters":19600,"station_id":"ce4bh3h2rcd13ifvqdo0","pricing_plan_id":"cebpf4jnsgd1na2vs0mg"},{"bike_id":"ed3a226b-4ec7-465a-b998-9c1369112c1f","system_id":"levelo_inurba_marseille","lat":43.23153,"lon":5.43729,"is_reserved":false,"is_disabled":false,"rental_uris":{"android":"levelo://app?vid=ed3a226b-4ec7-465a-b998-9c1369112c1f","ios":"levelo://app?vid=ed3a226b-4ec7-465a-b998-9c1369112c1f"},"vehicle_type_id":"4","last_reported":1752491421,"current_range_meters":20000,"station_id":"ce4bhmp2rcd13ifvqgog","pricing_plan_id":"cebpf4jnsgd1na2vs0mg"},{"bike_id":"50c04b20-c2e0-4ba6-8dd4-7e7472f32f1f","system_id":"levelo_inurba_marseille","lat":43.29793,"lon":5.38084,"is_reserved":false,"is_disabled":false,"rental_uris":{"android":"levelo://app?vid=50c04b20-c2e0-4ba6-8dd4-7e7472f32f1f","ios":"levelo://app?vid=50c04b20-c2e0-4ba6-8dd4-7e7472f32f1f"},"vehicle_type_id":"4","last_reported":1752491421,"current_range_meters":20400,"station_id":"ce4bgip2rcd13ifvqbb0","pricing_plan_id":"cebpf4jnsgd1na2vs0mg"},{"bike_id":"4852acc5-0cd4-4ac5-bd4c-3f245414b4fd","system_id":"levelo_inurba_marseille","lat":43.21218,"lon":5.35135,"is_reserved":false,"is_disabled":false,"rental_uris":{"android":"levelo://app?vid=4852acc5-0cd4-4ac5-bd4c-3f245414b4fd","ios":"levelo://app?vid=4852acc5-0cd4-4ac5-bd4c-3f245414b4fd"},"vehicle_type_id":"4","last_reported":1752491421,"current_range_meters":20400,"station_id":"","pricing_plan_id":"cebpf4jnsgd1na2vs0mg"},{"bike_id":"30807472-8cbe-46f0-912a-3ab15a5f44f5","system_id":"levelo_inurba_marseille","lat":43.31894,"lon":5.40741,"is_reserved":false,"is_disabled":false,"rental_uris":{"android":"levelo://app?vid=30807472-8cbe-46f0-912a-3ab15a5f44f5","ios":"levelo://app?vid=30807472-8cbe-46f0-912a-3ab15a5f44f5"},"vehicle_type_id":"4","last_reported":1752491421,"current_range_meters":20400,"station_id":"ce4bhq12rcd13ifvqhig","pricing_plan_id":"cebpf4jnsgd1na2vs0mg"},{"bike_id":"8c28ea67-d650-4ad1-8b83-103cd4a2dcfc","system_id":"levelo_inurba_marseille","lat":43.26935,"lon":5.40258,"is_reserved":false,"is_disabled":false,"rental_uris":{"android":"levelo://app?vid=8c28ea67-d650-4ad1-8b83-103cd4a2dcfc","ios":"levelo://app?vid=8c28ea67-d650-4ad1-8b83-103cd4a2dcfc"},"vehicle_type_id":"4","last_reported":1752491421,"current_range_meters":20400,"station_id":"cjm6bp8fraef2m0cb0m0","pricing_plan_id":"cebpf4jnsgd1na2vs0mg"},{"bike_id":"7344a727-b91f-481e-b08a-0f3465e83901","system_id":"levelo_inurba_marseille","lat":43.2767,"lon":5.41701,"is_reserved":false,"is_disabled":false,"rental_uris":{"android":"levelo://app?vid=7344a727-b91f-481e-b08a-0f3465e83901","ios":"levelo://app?vid=7344a727-b91f-481e-b08a-0f3465e83901"},"vehicle_type_id":"4","last_reported":1752491421,"current_range_meters":20400,"station_id":"","pricing_plan_id":"cebpf4jnsgd1na2vs0mg"},{"bike_id":"1bb94a45-2d66-4303-bbdf-fbc7b900debb","system_id":"levelo_inurba_marseille","lat":43.30906,"lon":5.36839,"is_reserved":false,"is_disabled":false,"rental_uris":{"android":"levelo://app?vid=1bb94a45-2d66-4303-bbdf-fbc7b900debb","ios":"levelo://app?vid=1bb94a45-2d66-4303-bbdf-fbc7b900debb"},"vehicle_type_id":"4","last_reported":1752491421,"current_range_meters":20400,"station_id":"ce4bgn92rcd13ifvqbvg","pricing_plan_id":"cebpf4jnsgd1na2vs0mg"},{"bike_id":"489e603b-6303-4c5a-a3da-d47c39cd6b15","system_id":"levelo_inurba_marseille","lat":43.21752,"lon":5.34611,"is_reserved":false,"is_disabled":false,"rental_uris":{"android":"levelo://app?vid=489e603b-6303-4c5a-a3da-d47c39cd6b15","ios":"levelo://app?vid=489e603b-6303-4c5a-a3da-d47c39cd6b15"},"vehicle_type_id":"4","last_reported":1752491421,"current_range_meters":20400,"station_id":"st_cvj6r9ubvosntc0bgbag","pricing_plan_id":"cebpf4jnsgd1na2vs0mg"},{"bike_id":"9b2b5386-b305-4023-82f1-4784f259e253","system_id":"levelo_inurba_marseille","lat":43.28623,"lon":5.35109,"is_reserved":false,"is_disabled":false,"rental_uris":{"android":"levelo://app?vid=9b2b5386-b305-4023-82f1-4784f259e253","ios":"levelo://app?vid=9b2b5386-b305-4023-82f1-4784f259e253"},"vehicle_type_id":"4","last_reported":1752491421,"current_range_meters":20400,"station_id":"ce4bhch2rcd13ifvqeug","pricing_plan_id":"cebpf4jnsgd1na2vs0mg"},{"bike_id":"f8b13442-2676-494a-b07f-7265a4ddd2d3","system_id":"levelo_inurba_marseille","lat":43.30184,"lon":5.36602,"is_reserved":false,"is_disabled":false,"rental_uris":{"android":"levelo://app?vid=f8b13442-2676-494a-b07f-7265a4ddd2d3","ios":"levelo://app?vid=f8b13442-2676-494a-b07f-7265a4ddd2d3"},"vehicle_type_id":"4","last_reported":1752491421,"current_range_meters":20400,"station_id":"ce4bgrh2rcd13ifvqc8g","pricing_plan_id":"cebpf4jnsgd1na2vs0mg"},{"bike_id":"70e99ac6-c5f8-4a24-b517-2afb9240895c","system_id":"levelo_inurba_marseille","lat":43.24162,"lon":5.39677,"is_reserved":false,"is_disabled":false,"rental_uris":{"android":"levelo://app?vid=70e99ac6-c5f8-4a24-b517-2afb9240895c","ios":"levelo://app?vid=70e99ac6-c5f8-4a24-b517-2afb9240895c"},"vehicle_type_id":"4","last_reported":1752491421,"current_range_meters":20400,"station_id":"ce4bhn12rcd13ifvqgpg","pricing_plan_id":"cebpf4jnsgd1na2vs0mg"},{"bike_id":"77cf3f78-1a2b-4c70-bf5f-3659c51dd623","system_id":"levelo_inurba_marseille","lat":43.27059,"lon":5.40279,"is_reserved":false,"is_disabled":false,"rental_uris":{"android":"levelo://app?vid=77cf3f78-1a2b-4c70-bf5f-3659c51dd623","ios":"levelo://app?vid=77cf3f78-1a2b-4c70-bf5f-3659c51dd623"},"vehicle_type_id":"4","last_reported":1752491421,"current_range_meters":20400,"station_id":"ce4bhk92rcd13ifvqgc0","pricing_plan_id":"cebpf4jnsgd1na2vs0mg"},{"bike_id":"7891b1fa-c169-42f9-9c94-dc831e7c152e","system_id":"levelo_inurba_marseille","lat":43.29304,"lon":5.37159,"is_reserved":false,"is_disabled":false,"rental_uris":{"android":"levelo://app?vid=7891b1fa-c169-42f9-9c94-dc831e7c152e","ios":"levelo://app?vid=7891b1fa-c169-42f9-9c94-dc831e7c152e"},"vehicle_type_id":"4","last_reported":1752491421,"current_range_meters":20800,"station_id":"ce4bgh92rcd13ifvqb40","pricing_plan_id":"cebpf4jnsgd1na2vs0mg"},{"bike_id":"658f50e6-1337-4390-a6cd-952305396a2b","system_id":"levelo_inurba_marseille","lat":43.28418,"lon":5.34959,"is_reserved":false,"is_disabled":false,"rental_uris":{"android":"levelo://app?vid=658f50e6-1337-4390-a6cd-952305396a2b","ios":"levelo://app?vid=658f50e6-1337-4390-a6cd-952305396a2b"},"vehicle_type_id":"4","last_reported":1752491421,"current_range_meters":20800,"station_id":"ce4bhbh2rcd13ifvqepg","pricing_plan_id":"cebpf4jnsgd1na2vs0mg"},{"bike_id":"6d0e128f-457e-4106-8115-fe411e380888","system_id":"levelo_inurba_marseille","lat":43.29903,"lon":5.43653,"is_reserved":false,"is_disabled":false,"rental_uris":{"android":"levelo://app?vid=6d0e128f-457e-4106-8115-fe411e380888","ios":"levelo://app?vid=6d0e128f-457e-4106-8115-fe411e380888"},"vehicle_type_id":"4","last_reported":1752491421,"current_range_meters":20800,"station_id":"ce4bhpp2rcd13ifvqhfg","pricing_plan_id":"cebpf4jnsgd1na2vs0mg"},{"bike_id":"18c1f988-2144-4ca0-9922-2654b2d9091d","system_id":"levelo_inurba_marseille","lat":43.29695,"lon":5.36656,"is_reserved":false,"is_disabled":false,"rental_uris":{"android":"levelo://app?vid=18c1f988-2144-4ca0-9922-2654b2d9091d","ios":"levelo://app?vid=18c1f988-2144-4ca0-9922-2654b2d9091d"},"vehicle_type_id":"4","last_reported":1752491421,"current_range_meters":20800,"station_id":"ce4bgn12rcd13ifvqbt0","pricing_plan_id":"cebpf4jnsgd1na2vs0mg"},{"bike_id":"8d5ce25f-d12f-4826-9e51-72d41cab5d9b","system_id":"levelo_inurba_marseille","lat":43.29319,"lon":5.37437,"is_reserved":false,"is_disabled":false,"rental_uris":{"android":"levelo://app?vid=8d5ce25f-d12f-4826-9e51-72d41cab5d9b","ios":"levelo://app?vid=8d5ce25f-d12f-4826-9e51-72d41cab5d9b"},"vehicle_type_id":"4","last_reported":1752491421,"current_range_meters":20800,"station_id":"ce4bgi12rcd13ifvqb70","pricing_plan_id":"cebpf4jnsgd1na2vs0mg"},{"bike_id":"b899f22e-5828-4407-bcf7-8129df4150d0","system_id":"levelo_inurba_marseille","lat":43.315371,"lon":5.380252,"is_reserved":false,"is_disabled":false,"rental_uris":{"android":"levelo://app?vid=b899f22e-5828-4407-bcf7-8129df4150d0","ios":"levelo://app?vid=b899f22e-5828-4407-bcf7-8129df4150d0"},"vehicle_type_id":"4","last_reported":1752491421,"current_range_meters":20800,"station_id":"ce4bhsp2rcd13ifvqi50","pricing_plan_id":"cebpf4jnsgd1na2vs0mg"},{"bike_id":"8fc15437-905b-4a26-a508-d32c4625959c","system_id":"levelo_inurba_marseille","lat":43.27985,"lon":5.41672,"is_reserved":false,"is_disabled":false,"rental_uris":{"android":"levelo://app?vid=8fc15437-905b-4a26-a508-d32c4625959c","ios":"levelo://app?vid=8fc15437-905b-4a26-a508-d32c4625959c"},"vehicle_type_id":"4","last_reported":1752491421,"current_range_meters":20800,"station_id":"ce4bho12rcd13ifvqh1g","pricing_plan_id":"cebpf4jnsgd1na2vs0mg"},{"bike_id":"553697d0-2c29-488e-9b00-46e604fe98c9","system_id":"levelo_inurba_marseille","lat":43.273768,"lon":5.362548,"is_reserved":false,"is_disabled":false,"rental_uris":{"android":"levelo://app?vid=553697d0-2c29-488e-9b00-46e604fe98c9","ios":"levelo://app?vid=553697d0-2c29-488e-9b00-46e604fe98c9"},"vehicle_type_id":"4","last_reported":1752491421,"current_range_meters":20800,"station_id":"ce4bhbh2rcd13ifvqeo0","pricing_plan_id":"cebpf4jnsgd1na2vs0mg"},{"bike_id":"0d59d516-5bd5-444b-9c9f-3425b328b901","system_id":"levelo_inurba_marseille","lat":43.32352,"lon":5.36735,"is_reserved":false,"is_disabled":false,"rental_uris":{"android":"levelo://app?vid=0d59d516-5bd5-444b-9c9f-3425b328b901","ios":"levelo://app?vid=0d59d516-5bd5-444b-9c9f-3425b328b901"},"vehicle_type_id":"4","last_reported":1752491421,"current_range_meters":21600,"station_id":"ce4bhsh2rcd13ifvqi2g","pricing_plan_id":"cebpf4jnsgd1na2vs0mg"},{"bike_id":"9acc9a93-612a-45e9-ad2c-6e81e8832947","system_id":"levelo_inurba_marseille","lat":43.21744,"lon":5.34605,"is_reserved":false,"is_disabled":false,"rental_uris":{"android":"levelo://app?vid=9acc9a93-612a-45e9-ad2c-6e81e8832947","ios":"levelo://app?vid=9acc9a93-612a-45e9-ad2c-6e81e8832947"},"vehicle_type_id":"4","last_reported":1752491421,"current_range_meters":21600,"station_id":"","pricing_plan_id":"cebpf4jnsgd1na2vs0mg"},{"bike_id":"af41fca1-10c3-4faf-b565-9f35ca862cea","system_id":"levelo_inurba_marseille","lat":43.3414,"lon":5.40898,"is_reserved":false,"is_disabled":false,"rental_uris":{"android":"levelo://app?vid=af41fca1-10c3-4faf-b565-9f35ca862cea","ios":"levelo://app?vid=af41fca1-10c3-4faf-b565-9f35ca862cea"},"vehicle_type_id":"4","last_reported":1752491421,"current_range_meters":20800,"station_id":"ce4bhqh2rcd13ifvqhlg","pricing_plan_id":"cebpf4jnsgd1na2vs0mg"},{"bike_id":"5073347b-21ab-4195-b231-99a722e7cb85","system_id":"levelo_inurba_marseille","lat":43.30186,"lon":5.36608,"is_reserved":false,"is_disabled":false,"rental_uris":{"android":"levelo://app?vid=5073347b-21ab-4195-b231-99a722e7cb85","ios":"levelo://app?vid=5073347b-21ab-4195-b231-99a722e7cb85"},"vehicle_type_id":"4","last_reported":1752491421,"current_range_meters":22000,"station_id":"ce4bgrh2rcd13ifvqc8g","pricing_plan_id":"cebpf4jnsgd1na2vs0mg"},{"bike_id":"2fca21f6-9a63-4f4d-84be-ed4e6b8f5783","system_id":"levelo_inurba_marseille","lat":43.26559,"lon":5.3901,"is_reserved":false,"is_disabled":false,"rental_uris":{"android":"levelo://app?vid=2fca21f6-9a63-4f4d-84be-ed4e6b8f5783","ios":"levelo://app?vid=2fca21f6-9a63-4f4d-84be-ed4e6b8f5783"},"vehicle_type_id":"4","last_reported":1752491421,"current_range_meters":22000,"station_id":"ce4bhe12rcd13ifvqf30","pricing_plan_id":"cebpf4jnsgd1na2vs0mg"},{"bike_id":"7c9dd713-4a18-42e3-96d2-69c4b14de4e4","system_id":"levelo_inurba_marseille","lat":43.29675,"lon":5.37638,"is_reserved":false,"is_disabled":false,"rental_uris":{"android":"levelo://app?vid=7c9dd713-4a18-42e3-96d2-69c4b14de4e4","ios":"levelo://app?vid=7c9dd713-4a18-42e3-96d2-69c4b14de4e4"},"vehicle_type_id":"4","last_reported":1752491421,"current_range_meters":22000,"station_id":"","pricing_plan_id":"cebpf4jnsgd1na2vs0mg"},{"bike_id":"856954fd-ca99-471f-ad04-c06a98968acc","system_id":"levelo_inurba_marseille","lat":43.28416,"lon":5.3498,"is_reserved":false,"is_disabled":false,"rental_uris":{"android":"levelo://app?vid=856954fd-ca99-471f-ad04-c06a98968acc","ios":"levelo://app?vid=856954fd-ca99-471f-ad04-c06a98968acc"},"vehicle_type_id":"4","last_reported":1752491421,"current_range_meters":22000,"station_id":"ce4bhbh2rcd13ifvqepg","pricing_plan_id":"cebpf4jnsgd1na2vs0mg"},{"bike_id":"c599d0e6-4f14-4281-a1fd-b8b1bb66057b","system_id":"levelo_inurba_marseille","lat":43.31947,"lon":5.36942,"is_reserved":false,"is_disabled":false,"rental_uris":{"android":"levelo://app?vid=c599d0e6-4f14-4281-a1fd-b8b1bb66057b","ios":"levelo://app?vid=c599d0e6-4f14-4281-a1fd-b8b1bb66057b"},"vehicle_type_id":"4","last_reported":1752491421,"current_range_meters":22400,"station_id":"","pricing_plan_id":"cebpf4jnsgd1na2vs0mg"},{"bike_id":"3f0ba4de-2f24-4947-8b12-a9618b659c71","system_id":"levelo_inurba_marseille","lat":43.30636,"lon":5.40079,"is_reserved":false,"is_disabled":false,"rental_uris":{"android":"levelo://app?vid=3f0ba4de-2f24-4947-8b12-a9618b659c71","ios":"levelo://app?vid=3f0ba4de-2f24-4947-8b12-a9618b659c71"},"vehicle_type_id":"4","last_reported":1752491421,"current_range_meters":22000,"station_id":"ce4bh112rcd13ifvqda0","pricing_plan_id":"cebpf4jnsgd1na2vs0mg"},{"bike_id":"c245a919-90f5-45fe-a078-0b7e2092f17b","system_id":"levelo_inurba_marseille","lat":43.23182,"lon":5.39988,"is_reserved":false,"is_disabled":false,"rental_uris":{"android":"levelo://app?vid=c245a919-90f5-45fe-a078-0b7e2092f17b","ios":"levelo://app?vid=c245a919-90f5-45fe-a078-0b7e2092f17b"},"vehicle_type_id":"4","last_reported":1752491421,"current_range_meters":22400,"station_id":"ce4bhn12rcd13ifvqgqg","pricing_plan_id":"cebpf4jnsgd1na2vs0mg"},{"bike_id":"86c67b7d-2543-41c1-9be9-7026f729fdc6","system_id":"levelo_inurba_marseille","lat":43.31721,"lon":5.42429,"is_reserved":false,"is_disabled":false,"rental_uris":{"android":"levelo://app?vid=86c67b7d-2543-41c1-9be9-7026f729fdc6","ios":"levelo://app?vid=86c67b7d-2543-41c1-9be9-7026f729fdc6"},"vehicle_type_id":"4","last_reported":1752491421,"current_range_meters":22400,"station_id":"ce4bhp92rcd13ifvqhbg","pricing_plan_id":"cebpf4jnsgd1na2vs0mg"},{"bike_id":"e875ba05-0311-438b-a1ff-af174969b660","system_id":"levelo_inurba_marseille","lat":43.27967,"lon":5.41052,"is_reserved":false,"is_disabled":true,"rental_uris":{"android":"levelo://app?vid=e875ba05-0311-438b-a1ff-af174969b660","ios":"levelo://app?vid=e875ba05-0311-438b-a1ff-af174969b660"},"vehicle_type_id":"4","last_reported":1752491421,"current_range_meters":22400,"station_id":"ce4bhnp2rcd13ifvqh0g","pricing_plan_id":"cebpf4jnsgd1na2vs0mg"},{"bike_id":"fa5683f7-17f8-43cb-8cf9-13e28d22ea66","system_id":"levelo_inurba_marseille","lat":43.31516,"lon":5.37299,"is_reserved":false,"is_disabled":false,"rental_uris":{"android":"levelo://app?vid=fa5683f7-17f8-43cb-8cf9-13e28d22ea66","ios":"levelo://app?vid=fa5683f7-17f8-43cb-8cf9-13e28d22ea66"},"vehicle_type_id":"4","last_reported":1752491421,"current_range_meters":22400,"station_id":"ce4bgt12rcd13ifvqcd0","pricing_plan_id":"cebpf4jnsgd1na2vs0mg"},{"bike_id":"f8e08a0b-9785-41dc-861f-64465e1a97db","system_id":"levelo_inurba_marseille","lat":43.28425,"lon":5.37519,"is_reserved":false,"is_disabled":false,"rental_uris":{"android":"levelo://app?vid=f8e08a0b-9785-41dc-861f-64465e1a97db","ios":"levelo://app?vid=f8e08a0b-9785-41dc-861f-64465e1a97db"},"vehicle_type_id":"4","last_reported":1752491421,"current_range_meters":22400,"station_id":"ce4bh412rcd13ifvqds0","pricing_plan_id":"cebpf4jnsgd1na2vs0mg"},{"bike_id":"9846ab09-e95d-46c3-9a2e-75071891ddd3","system_id":"levelo_inurba_marseille","lat":43.24393,"lon":5.37086,"is_reserved":false,"is_disabled":false,"rental_uris":{"android":"levelo://app?vid=9846ab09-e95d-46c3-9a2e-75071891ddd3","ios":"levelo://app?vid=9846ab09-e95d-46c3-9a2e-75071891ddd3"},"vehicle_type_id":"4","last_reported":1752491421,"current_range_meters":22800,"station_id":"ce4bhhh2rcd13ifvqfk0","pricing_plan_id":"cebpf4jnsgd1na2vs0mg"},{"bike_id":"74edda43-f1a1-4391-b975-b49a77c3c145","system_id":"levelo_inurba_marseille","lat":43.28261,"lon":5.35059,"is_reserved":false,"is_disabled":false,"rental_uris":{"android":"levelo://app?vid=74edda43-f1a1-4391-b975-b49a77c3c145","ios":"levelo://app?vid=74edda43-f1a1-4391-b975-b49a77c3c145"},"vehicle_type_id":"4","last_reported":1752491421,"current_range_meters":22800,"station_id":"ce4bhbp2rcd13ifvqerg","pricing_plan_id":"cebpf4jnsgd1na2vs0mg"},{"bike_id":"a6b193f4-c771-4dc2-ab74-ba5d9a795556","system_id":"levelo_inurba_marseille","lat":43.29221,"lon":5.3619,"is_reserved":false,"is_disabled":false,"rental_uris":{"android":"levelo://app?vid=a6b193f4-c771-4dc2-ab74-ba5d9a795556","ios":"levelo://app?vid=a6b193f4-c771-4dc2-ab74-ba5d9a795556"},"vehicle_type_id":"4","last_reported":1752491421,"current_range_meters":22400,"station_id":"ce4bhb92rcd13ifvqen0","pricing_plan_id":"cebpf4jnsgd1na2vs0mg"},{"bike_id":"302be6f3-fe72-47e9-8613-923f1bed52f6","system_id":"levelo_inurba_marseille","lat":43.29305,"lon":5.37179,"is_reserved":false,"is_disabled":false,"rental_uris":{"android":"levelo://app?vid=302be6f3-fe72-47e9-8613-923f1bed52f6","ios":"levelo://app?vid=302be6f3-fe72-47e9-8613-923f1bed52f6"},"vehicle_type_id":"4","last_reported":1752491421,"current_range_meters":22800,"station_id":"ce4bgh92rcd13ifvqb40","pricing_plan_id":"cebpf4jnsgd1na2vs0mg"},{"bike_id":"4996935f-7751-445b-b56b-2f7d8aee605e","system_id":"levelo_inurba_marseille","lat":43.27367,"lon":5.36253,"is_reserved":false,"is_disabled":false,"rental_uris":{"android":"levelo://app?vid=4996935f-7751-445b-b56b-2f7d8aee605e","ios":"levelo://app?vid=4996935f-7751-445b-b56b-2f7d8aee605e"},"vehicle_type_id":"4","last_reported":1752491421,"current_range_meters":22800,"station_id":"ce4bhbh2rcd13ifvqeo0","pricing_plan_id":"cebpf4jnsgd1na2vs0mg"},{"bike_id":"91a36b70-0ea4-4857-8a38-e0203bdf2e26","system_id":"levelo_inurba_marseille","lat":43.29528,"lon":5.38551,"is_reserved":false,"is_disabled":false,"rental_uris":{"android":"levelo://app?vid=91a36b70-0ea4-4857-8a38-e0203bdf2e26","ios":"levelo://app?vid=91a36b70-0ea4-4857-8a38-e0203bdf2e26"},"vehicle_type_id":"4","last_reported":1752491421,"current_range_meters":22800,"station_id":"ce4bgih2rcd13ifvqba0","pricing_plan_id":"cebpf4jnsgd1na2vs0mg"},{"bike_id":"aa4cf2cc-843e-4326-8d29-0c6489a8d701","system_id":"levelo_inurba_marseille","lat":43.29848,"lon":5.36437,"is_reserved":false,"is_disabled":false,"rental_uris":{"android":"levelo://app?vid=aa4cf2cc-843e-4326-8d29-0c6489a8d701","ios":"levelo://app?vid=aa4cf2cc-843e-4326-8d29-0c6489a8d701"},