{"last_updated":1690159283,"ttl":30,"version":"2.2","data":{"bikes":[{"bike_id":"cb8ec9cc-ad71-4b3a-ac08-a0d6bd9d15eb","system_id":"levelo_inurba_marseille","lat":43.3135,"lon":5.36712,"is_reserved":false,"is_disabled":false,"rental_uris":{"android":"levelo://app?vid=cb8ec9cc-ad71-4b3a-ac08-a0d6bd9d15eb","ios":"levelo://app?vid=cb8ec9cc-ad71-4b3a-ac08-a0d6bd9d15eb"},"vehicle_type_id":"4","last_reported":1690159284,"current_range_meters":25600,"station_id":"ce4bgr92rcd13ifvqc6g","pricing_plan_id":"free"},{"bike_id":"981fc3a7-9380-4691-bffa-185cb9216076","system_id":"levelo_inurba_marseille","lat":43.31351,"lon":5.36722,"is_reserved":false,"is_disabled":false,"rental_uris":{"android":"levelo://app?vid=981fc3a7-9380-4691-bffa-185cb9216076","ios":"levelo://app?vid=981fc3a7-9380-4691-bffa-185cb9216076"},"vehicle_type_id":"4","last_reported":1690159284,"current_range_meters":28000,"station_id":"ce4bgr92rcd13ifvqc6g","pricing_plan_id":"free"},{"bike_id":"cc8c60f0-aa84-42b5-a961-0c6e5412b9c4","system_id":"levelo_inurba_marseille","lat":43.312239,"lon":5.368562,"is_reserved":false,"is_disabled":false,"rental_uris":{"android":"levelo://app?vid=cc8c60f0-aa84-42b5-a961-0c6e5412b9c4","ios":"levelo://app?vid=cc8c60f0-aa84-42b5-a961-0c6e5412b9c4"},"vehicle_type_id":"4","last_reported":1690159284,"current_range_meters":31200,"station_id":"ce4bgl92rcd13ifvqbq0","pricing_plan_id":"free"},{"bike_id":"5fcce5fc-b473-4476-893b-06d75b1706a2","system_id":"levelo_inurba_marseille","lat":43.30911,"lon":5.36853,"is_reserved":false,"is_disabled":false,"rental_uris":{"android":"levelo://app?vid=5fcce5fc-b473-4476-893b-06d75b1706a2","ios":"levelo://app?vid=5fcce5fc-b473-4476-893b-06d75b1706a2"},"vehicle_type_id":"4","last_reported":1690159284,"current_range_meters":18400,"station_id":"ce4bgn92rcd13ifvqbvg","pricing_plan_id":"free"},{"bike_id":"5124f9cc-a205-4815-906e-3fb00fa81f0d","system_id":"levelo_inurba_marseille","lat":43.309039,"lon":5.371797,"is_reserved":false,"is_disabled":false,"rental_uris":{"android":"levelo://app?vid=5124f9cc-a205-4815-906e-3fb00fa81f0d","ios":"levelo://app?vid=5124f9cc-a205-4815-906e-3fb00fa81f0d"},"vehicle_type_id":"4","last_reported":1690159284,"current_range_meters":20000,"station_id":"ce4bguh2rcd13ifvqckg","pricing_plan_id":"free"},{"bike_id":"3eb84449-286e-4233-a6b4-ec405f7470cf","system_id":"levelo_inurba_marseille","lat":43.309039,"lon":5.371797,"is_reserved":false,"is_disabled":false,"rental_uris":{"android":"levelo://app?vid=3eb84449-286e-4233-a6b4-ec405f7470cf","ios":"levelo://app?vid=3eb84449-286e-4233-a6b4-ec405f7470cf"},"vehicle_type_id":"4","last_reported":1690159284,"current_range_meters":22400,"station_id":"ce4bguh2rcd13ifvqckg","pricing_plan_id":"free"},{"bike_id":"bebe9d3b-1cba-4e76-8712-fd9585688151","system_id":"levelo_inurba_marseille","lat":43.309039,"lon":5.371797,"is_reserved":false,"is_disabled":false,"rental_uris":{"android":"levelo://app?vid=bebe9d3b-1cba-4e76-8712-fd9585688151","ios":"levelo://app?vid=bebe9d3b-1cba-4e76-8712-fd9585688151"},"vehicle_type_id":"4","last_reported":1690159284,"current_range_meters":30000,"station_id":"ce4bguh2rcd13ifvqckg","pricing_plan_id":"free"},{"bike_id":"9ebfdadf-eebb-4934-973d-55963c25c762","system_id":"levelo_inurba_marseille","lat":43.30703,"lon":5.37216,"is_reserved":false,"is_disabled":false,"rental_uris":{"android":"levelo://app?vid=9ebfdadf-eebb-4934-973d-55963c25c762","ios":"levelo://app?vid=9ebfdadf-eebb-4934-973d-55963c25c762"},"vehicle_type_id":"4","last_reported":1690159284,"current_range_meters":30000,"station_id":"","pricing_plan_id":"free"},{"bike_id":"d49dec56-b253-4826-8448-c9cb34b08a51","system_id":"levelo_inurba_marseille","lat":43.306027,"lon":5.372203,"is_reserved":false,"is_disabled":false,"rental_uris":{"android":"levelo://app?vid=d49dec56-b253-4826-8448-c9cb34b08a51","ios":"levelo://app?vid=d49dec56-b253-4826-8448-c9cb34b08a51"},"vehicle_type_id":"4","last_reported":1690159284,"current_range_meters":4800,"station_id":"","pricing_plan_id":"free"},{"bike_id":"ff7195b6-9850-4b75-bbc0-71118a9af530","system_id":"levelo_inurba_marseille","lat":43.305989,"lon":5.37225,"is_reserved":false,"is_disabled":false,"rental_uris":{"android":"levelo://app?vid=ff7195b6-9850-4b75-bbc0-71118a9af530","ios":"levelo://app?vid=ff7195b6-9850-4b75-bbc0-71118a9af530"},"vehicle_type_id":"4","last_reported":1690159284,"current_range_meters":26800,"station_id":"ce4bgqh2rcd13ifvqc4g","pricing_plan_id":"free"},{"bike_id":"4483b753-45dc-473c-973c-9142bf61947c","system_id":"levelo_inurba_marseille","lat":43.30602,"lon":5.37226,"is_reserved":false,"is_disabled":false,"rental_uris":{"android":"levelo://app?vid=4483b753-45dc-473c-973c-9142bf61947c","ios":"levelo://app?vid=4483b753-45dc-473c-973c-9142bf61947c"},"vehicle_type_id":"4","last_reported":1690159284,"current_range_meters":30000,"station_id":"ce4bgqh2rcd13ifvqc4g","pricing_plan_id":"free"},{"bike_id":"a4265968-4e25-40c1-8021-1e84c9a764c9","system_id":"levelo_inurba_marseille","lat":43.30597,"lon":5.37217,"is_reserved":false,"is_disabled":false,"rental_uris":{"android":"levelo://app?vid=a4265968-4e25-40c1-8021-1e84c9a764c9","ios":"levelo://app?vid=a4265968-4e25-40c1-8021-1e84c9a764c9"},"vehicle_type_id":"4","last_reported":1690159284,"current_range_meters":31200,"station_id":"ce4bgqh2rcd13ifvqc4g","pricing_plan_id":"free"},{"bike_id":"a4d6273e-ae51-4625-8eef-ebe1646cc1a4","system_id":"levelo_inurba_marseille","lat":43.30606,"lon":5.37241,"is_reserved":false,"is_disabled":false,"rental_uris":{"android":"levelo://app?vid=a4d6273e-ae51-4625-8eef-ebe1646cc1a4","ios":"levelo://app?vid=a4d6273e-ae51-4625-8eef-ebe1646cc1a4"},"vehicle_type_id":"4","last_reported":1690159284,"current_range_meters":31200,"station_id":"ce4bgqh2rcd13ifvqc4g","pricing_plan_id":"free"},{"bike_id":"39719818-83bc-4c1b-8e5f-e2a3d01c8ed6","system_id":"levelo_inurba_marseille","lat":43.305989,"lon":5.37225,"is_reserved":false,"is_disabled":false,"rental_uris":{"android":"levelo://app?vid=39719818-83bc-4c1b-8e5f-e2a3d01c8ed6","ios":"levelo://app?vid=39719818-83bc-4c1b-8e5f-e2a3d01c8ed6"},"vehicle_type_id":"4","last_reported":1690159284,"current_range_meters":16800,"station_id":"ce4bgqh2rcd13ifvqc4g","pricing_plan_id":"free"},{"bike_id":"e7fe891d-99cd-4561-8ab4-60a687552fb2","system_id":"levelo_inurba_marseille","lat":43.305989,"lon":5.37225,"is_reserved":false,"is_disabled":false,"rental_uris":{"android":"levelo://app?vid=e7fe891d-99cd-4561-8ab4-60a687552fb2","ios":"levelo://app?vid=e7fe891d-99cd-4561-8ab4-60a687552fb2"},"vehicle_type_id":"4","last_reported":1690159284,"current_range_meters":31200,"station_id":"ce4bgqh2rcd13ifvqc4g","pricing_plan_id":"free"},{"bike_id":"50284462-5bcd-48d0-9419-244f2d0b4173","system_id":"levelo_inurba_marseille","lat":43.311125,"lon":5.377624,"is_reserved":false,"is_disabled":false,"rental_uris":{"android":"levelo://app?vid=50284462-5bcd-48d0-9419-244f2d0b4173","ios":"levelo://app?vid=50284462-5bcd-48d0-9419-244f2d0b4173"},"vehicle_type_id":"4","last_reported":1690159284,"current_range_meters":27600,"station_id":"ce4bgt92rcd13ifvqcg0","pricing_plan_id":"free"},{"bike_id":"ec5063bb-9437-47ec-8443-c55e3e516a17","system_id":"levelo_inurba_marseille","lat":43.31114,"lon":5.37767,"is_reserved":false,"is_disabled":false,"rental_uris":{"android":"levelo://app?vid=ec5063bb-9437-47ec-8443-c55e3e516a17","ios":"levelo://app?vid=ec5063bb-9437-47ec-8443-c55e3e516a17"},"vehicle_type_id":"4","last_reported":1690159284,"current_range_meters":24800,"station_id":"ce4bgt92rcd13ifvqcg0","pricing_plan_id":"free"},{"bike_id":"29886d5e-45ac-45ea-bd9b-1ea7172b69ba","system_id":"levelo_inurba_marseille","lat":43.311125,"lon":5.377624,"is_reserved":false,"is_disabled":false,"rental_uris":{"android":"levelo://app?vid=29886d5e-45ac-45ea-bd9b-1ea7172b69ba","ios":"levelo://app?vid=29886d5e-45ac-45ea-bd9b-1ea7172b69ba"},"vehicle_type_id":"4","last_reported":1690159284,"current_range_meters":29600,"station_id":"ce4bgt92rcd13ifvqcg0","pricing_plan_id":"free"},{"bike_id":"f5cdb2df-3a3d-45bb-b1dd-792000d23886","system_id":"levelo_inurba_marseille","lat":43.311125,"lon":5.377624,"is_reserved":false,"is_disabled":false,"rental_uris":{"android":"levelo://app?vid=f5cdb2df-3a3d-45bb-b1dd-792000d23886","ios":"levelo://app?vid=f5cdb2df-3a3d-45bb-b1dd-792000d23886"},"vehicle_type_id":"4","last_reported":1690159284,"current_range_meters":32000,"station_id":"ce4bgt92rcd13ifvqcg0","pricing_plan_id":"free"},{"bike_id":"55fe42dc-9bca-4d5b-ba0b-cb229fd126d6","system_id":"levelo_inurba_marseille","lat":43.30779,"lon":5.37655,"is_reserved":false,"is_disabled":false,"rental_uris":{"android":"levelo://app?vid=55fe42dc-9bca-4d5b-ba0b-cb229fd126d6","ios":"levelo://app?vid=55fe42dc-9bca-4d5b-ba0b-cb229fd126d6"},"vehicle_type_id":"4","last_reported":1690159284,"current_range_meters":1600,"station_id":"ce4bgv92rcd13ifvqcq0","pricing_plan_id":"free"},{"bike_id":"cb0a2ae1-90dc-4222-bf3a-eac4f7ad2892","system_id":"levelo_inurba_marseille","lat":43.317075,"lon":5.377367,"is_reserved":false,"is_disabled":false,"rental_uris":{"android":"levelo://app?vid=cb0a2ae1-90dc-4222-bf3a-eac4f7ad2892","ios":"levelo://app?vid=cb0a2ae1-90dc-4222-bf3a-eac4f7ad2892"},"vehicle_type_id":"4","last_reported":1690159284,"current_range_meters":26400,"station_id":"ce4bgth2rcd13ifvqch0","pricing_plan_id":"free"},{"bike_id":"7d207905-c9b8-4ee3-881b-cfbea4f4e2f3","system_id":"levelo_inurba_marseille","lat":43.31711,"lon":5.37743,"is_reserved":false,"is_disabled":false,"rental_uris":{"android":"levelo://app?vid=7d207905-c9b8-4ee3-881b-cfbea4f4e2f3","ios":"levelo://app?vid=7d207905-c9b8-4ee3-881b-cfbea4f4e2f3"},"vehicle_type_id":"4","last_reported":1690159284,"current_range_meters":3600,"station_id":"ce4bgth2rcd13ifvqch0","pricing_plan_id":"free"},{"bike_id":"f7ef6288-9a5a-4408-839f-be0ce6ae8b92","system_id":"levelo_inurba_marseille","lat":43.31713,"lon":5.37748,"is_reserved":false,"is_disabled":false,"rental_uris":{"android":"levelo://app?vid=f7ef6288-9a5a-4408-839f-be0ce6ae8b92","ios":"levelo://app?vid=f7ef6288-9a5a-4408-839f-be0ce6ae8b92"},"vehicle_type_id":"4","last_reported":1690159284,"current_range_meters":6000,"station_id":"ce4bgth2rcd13ifvqch0","pricing_plan_id":"free"},{"bike_id":"d6f6a1db-b48c-403c-a3b4-7a5399bd7f2e","system_id":"levelo_inurba_marseille","lat":43.317075,"lon":5.377367,"is_reserved":false,"is_disabled":false,"rental_uris":{"android":"levelo://app?vid=d6f6a1db-b48c-403c-a3b4-7a5399bd7f2e","ios":"levelo://app?vid=d6f6a1db-b48c-403c-a3b4-7a5399bd7f2e"},"vehicle_type_id":"4","last_reported":1690159284,"current_range_meters":24000,"station_id":"ce4bgth2rcd13ifvqch0","pricing_plan_id":"free"},{"bike_id":"a2e136f1-c728-4018-88c2-a46aa30aa3c2","system_id":"levelo_inurba_marseille","lat":43.303046,"lon":5.368981,"is_reserved":false,"is_disabled":false,"rental_uris":{"android":"levelo://app?vid=a2e136f1-c728-4018-88c2-a46aa30aa3c2","ios":"levelo://app?vid=a2e136f1-c728-4018-88c2-a46aa30aa3c2"},"vehicle_type_id":"4","last_reported":1690159284,"current_range_meters":13200,"station_id":"ce4bgqh2rcd13ifvqc5g","pricing_plan_id":"free"},{"bike_id":"c02be0fc-6a6a-4741-bbb9-68aeccb0978d","system_id":"levelo_inurba_marseille","lat":43.303046,"lon":5.368981,"is_reserved":false,"is_disabled":false,"rental_uris":{"android":"levelo://app?vid=c02be0fc-6a6a-4741-bbb9-68aeccb0978d","ios":"levelo://app?vid=c02be0fc-6a6a-4741-bbb9-68aeccb0978d"},"vehicle_type_id":"4","last_reported":1690159284,"current_range_meters":20400,"station_id":"ce4bgqh2rcd13ifvqc5g","pricing_plan_id":"free"},{"bike_id":"505e1a58-d053-4796-8bb0-977258137515","system_id":"levelo_inurba_marseille","lat":43.31528,"lon":5.38029,"is_reserved":false,"is_disabled":false,"rental_uris":{"android":"levelo://app?vid=505e1a58-d053-4796-8bb0-977258137515","ios":"levelo://app?vid=505e1a58-d053-4796-8bb0-977258137515"},"vehicle_type_id":"4","last_reported":1690159284,"current_range_meters":800,"station_id":"ce4bhsp2rcd13ifvqi50","pricing_plan_id":"free"},{"bike_id":"76636020-79ed-4e3a-8044-640345fd832a","system_id":"levelo_inurba_marseille","lat":43.315293,"lon":5.380349,"is_reserved":false,"is_disabled":false,"rental_uris":{"android":"levelo://app?vid=76636020-79ed-4e3a-8044-640345fd832a","ios":"levelo://app?vid=76636020-79ed-4e3a-8044-640345fd832a"},"vehicle_type_id":"4","last_reported":1690159284,"current_range_meters":30000,"station_id":"ce4bhsp2rcd13ifvqi50","pricing_plan_id":"free"},{"bike_id":"c05c5f2d-d7b9-4300-80f6-030f8a954e16","system_id":"levelo_inurba_marseille","lat":43.315293,"lon":5.380349,"is_reserved":false,"is_disabled":false,"rental_uris":{"android":"levelo://app?vid=c05c5f2d-d7b9-4300-80f6-030f8a954e16","ios":"levelo://app?vid=c05c5f2d-d7b9-4300-80f6-030f8a954e16"},"vehicle_type_id":"4","last_reported":1690159284,"current_range_meters":11200,"station_id":"ce4bhsp2rcd13ifvqi50","pricing_plan_id":"free"},{"bike_id":"58806c73-96f3-4e08-b1b2-9f86c629eda8","system_id":"levelo_inurba_marseille","lat":43.301939,"lon":5.366286,"is_reserved":false,"is_disabled":false,"rental_uris":{"android":"levelo://app?vid=58806c73-96f3-4e08-b1b2-9f86c629eda8","ios":"levelo://app?vid=58806c73-96f3-4e08-b1b2-9f86c629eda8"},"vehicle_type_id":"4","last_reported":1690159284,"current_range_meters":30000,"station_id":"ce4bgrh2rcd13ifvqc8g","pricing_plan_id":"free"},{"bike_id":"088dc4df-3d97-448b-b148-5d97fd59d5d4","system_id":"levelo_inurba_marseille","lat":43.301939,"lon":5.366286,"is_reserved":false,"is_disabled":false,"rental_uris":{"android":"levelo://app?vid=088dc4df-3d97-448b-b148-5d97fd59d5d4","ios":"levelo://app?vid=088dc4df-3d97-448b-b148-5d97fd59d5d4"},"vehicle_type_id":"4","last_reported":1690159284,"current_range_meters":28400,"station_id":"ce4bgrh2rcd13ifvqc8g","pricing_plan_id":"free"},{"bike_id":"01e792c0-77a5-49d7-b3b7-37860bce0fd7","system_id":"levelo_inurba_marseille","lat":43.30181,"lon":5.36616,"is_reserved":false,"is_disabled":false,"rental_uris":{"android":"levelo://app?vid=01e792c0-77a5-49d7-b3b7-37860bce0fd7","ios":"levelo://app?vid=01e792c0-77a5-49d7-b3b7-37860bce0fd7"},"vehicle_type_id":"4","last_reported":1690159284,"current_range_meters":4800,"station_id":"ce4bgrh2rcd13ifvqc8g","pricing_plan_id":"free"},{"bike_id":"6cd78f34-596c-4f22-b027-5b5bd2e8f656","system_id":"levelo_inurba_marseille","lat":43.301939,"lon":5.366286,"is_reserved":false,"is_disabled":false,"rental_uris":{"android":"levelo://app?vid=6cd78f34-596c-4f22-b027-5b5bd2e8f656","ios":"levelo://app?vid=6cd78f34-596c-4f22-b027-5b5bd2e8f656"},"vehicle_type_id":"4","last_reported":1690159284,"current_range_meters":11600,"station_id":"ce4bgrh2rcd13ifvqc8g","pricing_plan_id":"free"},{"bike_id":"b7bcea39-cdfb-4f73-9a3a-3812607768f0","system_id":"levelo_inurba_marseille","lat":43.30175,"lon":5.36733,"is_reserved":false,"is_disabled":false,"rental_uris":{"android":"levelo://app?vid=b7bcea39-cdfb-4f73-9a3a-3812607768f0","ios":"levelo://app?vid=b7bcea39-cdfb-4f73-9a3a-3812607768f0"},"vehicle_type_id":"4","last_reported":1690159284,"current_range_meters":23200,"station_id":"","pricing_plan_id":"free"},{"bike_id":"71364365-49b3-4cac-ba8d-26f0e9d59efa","system_id":"levelo_inurba_marseille","lat":43.308012,"lon":5.381511,"is_reserved":false,"is_disabled":false,"rental_uris":{"android":"levelo://app?vid=71364365-49b3-4cac-ba8d-26f0e9d59efa","ios":"levelo://app?vid=71364365-49b3-4cac-ba8d-26f0e9d59efa"},"vehicle_type_id":"4","last_reported":1690159284,"current_range_meters":4800,"station_id":"ce4bgt12rcd13ifvqce0","pricing_plan_id":"free"},{"bike_id":"840903b7-56f1-4933-a957-d678e84d0903","system_id":"levelo_inurba_marseille","lat":43.30811,"lon":5.38158,"is_reserved":false,"is_disabled":false,"rental_uris":{"android":"levelo://app?vid=840903b7-56f1-4933-a957-d678e84d0903","ios":"levelo://app?vid=840903b7-56f1-4933-a957-d678e84d0903"},"vehicle_type_id":"4","last_reported":1690159284,"current_range_meters":18800,"station_id":"ce4bgt12rcd13ifvqce0","pricing_plan_id":"free"},{"bike_id":"759c4b19-c74f-416d-90d4-a85e15538eeb","system_id":"levelo_inurba_marseille","lat":43.30799,"lon":5.38151,"is_reserved":false,"is_disabled":false,"rental_uris":{"android":"levelo://app?vid=759c4b19-c74f-416d-90d4-a85e15538eeb","ios":"levelo://app?vid=759c4b19-c74f-416d-90d4-a85e15538eeb"},"vehicle_type_id":"4","last_reported":1690159284,"current_range_meters":15200,"station_id":"ce4bgt12rcd13ifvqce0","pricing_plan_id":"free"},{"bike_id":"e7b5fece-4898-4843-b67b-0bd8f2b4d5d3","system_id":"levelo_inurba_marseille","lat":43.308012,"lon":5.381511,"is_reserved":false,"is_disabled":false,"rental_uris":{"android":"levelo://app?vid=e7b5fece-4898-4843-b67b-0bd8f2b4d5d3","ios":"levelo://app?vid=e7b5fece-4898-4843-b67b-0bd8f2b4d5d3"},"vehicle_type_id":"4","last_reported":1690159284,"current_range_meters":400,"station_id":"ce4bgt12rcd13ifvqce0","pricing_plan_id":"free"},{"bike_id":"3c0efa3e-f0eb-4e6a-ac6e-b57536aa5a07","system_id":"levelo_inurba_marseille","lat":43.30473,"lon":5.37952,"is_reserved":false,"is_disabled":false,"rental_uris":{"android":"levelo://app?vid=3c0efa3e-f0eb-4e6a-ac6e-b57536aa5a07","ios":"levelo://app?vid=3c0efa3e-f0eb-4e6a-ac6e-b57536aa5a07"},"vehicle_type_id":"4","last_reported":1690159284,"current_range_meters":13600,"station_id":"ce4bgup2rcd13ifvqcn0","pricing_plan_id":"free"},{"bike_id":"4ad2d25e-d62c-42f6-9a83-f307768a3749","system_id":"levelo_inurba_marseille","lat":43.30142,"lon":5.37419,"is_reserved":false,"is_disabled":false,"rental_uris":{"android":"levelo://app?vid=4ad2d25e-d62c-42f6-9a83-f307768a3749","ios":"levelo://app?vid=4ad2d25e-d62c-42f6-9a83-f307768a3749"},"vehicle_type_id":"4","last_reported":1690159284,"current_range_meters":17600,"station_id":"ce4bgs92rcd13ifvqcc0","pricing_plan_id":"free"},{"bike_id":"7c5a98de-414c-45bb-b321-d74966a5f783","system_id":"levelo_inurba_marseille","lat":43.30142,"lon":5.37421,"is_reserved":false,"is_disabled":false,"rental_uris":{"android":"levelo://app?vid=7c5a98de-414c-45bb-b321-d74966a5f783","ios":"levelo://app?vid=7c5a98de-414c-45bb-b321-d74966a5f783"},"vehicle_type_id":"4","last_reported":1690159284,"current_range_meters":17600,"station_id":"ce4bgs92rcd13ifvqcc0","pricing_plan_id":"free"},{"bike_id":"3f3b451d-a068-4127-b530-1e8bf54619ea","system_id":"levelo_inurba_marseille","lat":43.30141,"lon":5.37419,"is_reserved":false,"is_disabled":false,"rental_uris":{"android":"levelo://app?vid=3f3b451d-a068-4127-b530-1e8bf54619ea","ios":"levelo://app?vid=3f3b451d-a068-4127-b530-1e8bf54619ea"},"vehicle_type_id":"4","last_reported":1690159284,"current_range_meters":27200,"station_id":"ce4bgs92rcd13ifvqcc0","pricing_plan_id":"free"},{"bike_id":"eeb8ab04-9d84-4732-8ba1-2a214e475d17","system_id":"levelo_inurba_marseille","lat":43.319935,"lon":5.381699,"is_reserved":false,"is_disabled":false,"rental_uris":{"android":"levelo://app?vid=eeb8ab04-9d84-4732-8ba1-2a214e475d17","ios":"levelo://app?vid=eeb8ab04-9d84-4732-8ba1-2a214e475d17"},"vehicle_type_id":"4","last_reported":1690159284,"current_range_meters":28800,"station_id":"ce4bhr12rcd13ifvqhpg","pricing_plan_id":"free"},{"bike_id":"d103a905-154e-4149-9ad8-bd598fe0e157","system_id":"levelo_inurba_marseille","lat":43.313571,"lon":5.384829,"is_reserved":false,"is_disabled":false,"rental_uris":{"android":"levelo://app?vid=d103a905-154e-4149-9ad8-bd598fe0e157","ios":"levelo://app?vid=d103a905-154e-4149-9ad8-bd598fe0e157"},"vehicle_type_id":"4","last_reported":1690159284,"current_range_meters":27600,"station_id":"ce4bgt92rcd13ifvqcf0","pricing_plan_id":"free"},{"bike_id":"df2d972d-e91b-4e04-9203-4d5d81598007","system_id":"levelo_inurba_marseille","lat":43.31352,"lon":5.38497,"is_reserved":false,"is_disabled":false,"rental_uris":{"android":"levelo://app?vid=df2d972d-e91b-4e04-9203-4d5d81598007","ios":"levelo://app?vid=df2d972d-e91b-4e04-9203-4d5d81598007"},"vehicle_type_id":"4","last_reported":1690159284,"current_range_meters":30000,"station_id":"ce4bgt92rcd13ifvqcf0","pricing_plan_id":"free"},{"bike_id":"bff01e03-a915-4bbe-a264-7da3241a41ed","system_id":"levelo_inurba_marseille","lat":43.31353,"lon":5.38499,"is_reserved":false,"is_disabled":false,"rental_uris":{"android":"levelo://app?vid=bff01e03-a915-4bbe-a264-7da3241a41ed","ios":"levelo://app?vid=bff01e03-a915-4bbe-a264-7da3241a41ed"},"vehicle_type_id":"4","last_reported":1690159284,"current_range_meters":30000,"station_id":"ce4bgt92rcd13ifvqcf0","pricing_plan_id":"free"},{"bike_id":"8a9808f8-a8e6-4673-878f-19908add83b5","system_id":"levelo_inurba_marseille","lat":43.313571,"lon":5.384829,"is_reserved":false,"is_disabled":false,"rental_uris":{"android":"levelo://app?vid=8a9808f8-a8e6-4673-878f-19908add83b5","ios":"levelo://app?vid=8a9808f8-a8e6-4673-878f-19908add83b5"},"vehicle_type_id":"4","last_reported":1690159284,"current_range_meters":30400,"station_id":"ce4bgt92rcd13ifvqcf0","pricing_plan_id":"free"},{"bike_id":"c7218115-bd0d-4739-8f9c-f5a1fcb74d4a","system_id":"levelo_inurba_marseille","lat":43.30545,"lon":5.38423,"is_reserved":false,"is_disabled":false,"rental_uris":{"android":"levelo://app?vid=c7218115-bd0d-4739-8f9c-f5a1fcb74d4a","ios":"levelo://app?vid=c7218115-bd0d-4739-8f9c-f5a1fcb74d4a"},"vehicle_type_id":"4","last_reported":1690159284,"current_range_meters":22800,"station_id":"ce4bgg92rcd13ifvqb30","pricing_plan_id":"free"},{"bike_id":"5067f024-e6a9-450c-9e42-10198606936f","system_id":"levelo_inurba_marseille","lat":43.3055,"lon":5.38427,"is_reserved":false,"is_disabled":false,"rental_uris":{"android":"levelo://app?vid=5067f024-e6a9-450c-9e42-10198606936f","ios":"levelo://app?vid=5067f024-e6a9-450c-9e42-10198606936f"},"vehicle_type_id":"4","last_reported":1690159284,"current_range_meters":18800,"station_id":"","pricing_plan_id":"free"},{"bike_id":"f370f4ca-8232-487a-8817-018678224185","system_id":"levelo_inurba_marseille","lat":43.299243,"lon":5.374807,"is_reserved":false,"is_disabled":false,"rental_uris":{"android":"levelo://app?vid=f370f4ca-8232-487a-8817-018678224185","ios":"levelo://app?vid=f370f4ca-8232-487a-8817-018678224185"},"vehicle_type_id":"4","last_reported":1690159284,"current_range_meters":8400,"station_id":"ce4bgjh2rcd13ifvqbg0","pricing_plan_id":"free"},{"bike_id":"a23499a9-28a2-4946-b90a-f77484a35571","system_id":"levelo_inurba_marseille","lat":43.305364,"lon":5.384119,"is_reserved":false,"is_disabled":false,"rental_uris":{"android":"levelo://app?vid=a23499a9-28a2-4946-b90a-f77484a35571","ios":"levelo://app?vid=a23499a9-28a2-4946-b90a-f77484a35571"},"vehicle_type_id":"4","last_reported":1690159284,"current_range_meters":26800,"station_id":"ce4bgg92rcd13ifvqb30","pricing_plan_id":"free"},{"bike_id":"8d793ce4-127f-464b-943e-100ad6657e79","system_id":"levelo_inurba_marseille","lat":43.31168,"lon":5.38714,"is_reserved":false,"is_disabled":false,"rental_uris":{"android":"levelo://app?vid=8d793ce4-127f-464b-943e-100ad6657e79","ios":"levelo://app?vid=8d793ce4-127f-464b-943e-100ad6657e79"},"vehicle_type_id":"4","last_reported":1690159284,"current_range_meters":31200,"station_id":"ce4bgv12rcd13ifvqcp0","pricing_plan_id":"free"},{"bike_id":"447017ba-02a9-47cb-b664-d4fa6801195c","system_id":"levelo_inurba_marseille","lat":43.311722,"lon":5.387247,"is_reserved":false,"is_disabled":false,"rental_uris":{"android":"levelo://app?vid=447017ba-02a9-47cb-b664-d4fa6801195c","ios":"levelo://app?vid=447017ba-02a9-47cb-b664-d4fa6801195c"},"vehicle_type_id":"4","last_reported":1690159284,"current_range_meters":27600,"station_id":"ce4bgv12rcd13ifvqcp0","pricing_plan_id":"free"},{"bike_id":"4490838c-d719-480b-8557-e47e021613a7","system_id":"levelo_inurba_marseille","lat":43.311722,"lon":5.387247,"is_reserved":false,"is_disabled":false,"rental_uris":{"android":"levelo://app?vid=4490838c-d719-480b-8557-e47e021613a7","ios":"levelo://app?vid=4490838c-d719-480b-8557-e47e021613a7"},"vehicle_type_id":"4","last_reported":1690159284,"current_range_meters":28000,"station_id":"ce4bgv12rcd13ifvqcp0","pricing_plan_id":"free"},{"bike_id":"7214eab1-ad1d-4229-8004-e4e847d390b3","system_id":"levelo_inurba_marseille","lat":43.311722,"lon":5.387247,"is_reserved":false,"is_disabled":false,"rental_uris":{"android":"levelo://app?vid=7214eab1-ad1d-4229-8004-e4e847d390b3","ios":"levelo://app?vid=7214eab1-ad1d-4229-8004-e4e847d390b3"},"vehicle_type_id":"4","last_reported":1690159284,"current_range_meters":26400,"station_id":"ce4bgv12rcd13ifvqcp0","pricing_plan_id":"free"},{"bike_id":"8ef6cc9b-a368-44b7-9cfb-a49ebc70fb20","system_id":"levelo_inurba_marseille","lat":43.311722,"lon":5.387247,"is_reserved":false,"is_disabled":false,"rental_uris":{"android":"levelo://app?vid=8ef6cc9b-a368-44b7-9cfb-a49ebc70fb20","ios":"levelo://app?vid=8ef6cc9b-a368-44b7-9cfb-a49ebc70fb20"},"vehicle_type_id":"4","last_reported":1690159284,"current_range_meters":24800,"station_id":"ce4bgv12rcd13ifvqcp0","pricing_plan_id":"free"},{"bike_id":"34b47923-aeed-438a-881d-be79c810e984","system_id":"levelo_inurba_marseille","lat":43.311722,"lon":5.387247,"is_reserved":false,"is_disabled":false,"rental_uris":{"android":"levelo://app?vid=34b47923-aeed-438a-881d-be79c810e984","ios":"levelo://app?vid=34b47923-aeed-438a-881d-be79c810e984"},"vehicle_type_id":"4","last_reported":1690159284,"current_range_meters":31600,"station_id":"ce4bgv12rcd13ifvqcp0","pricing_plan_id":"free"},{"bike_id":"d4be7371-e26e-43c5-b865-2b53210f6750","system_id":"levelo_inurba_marseille","lat":43.311722,"lon":5.387247,"is_reserved":false,"is_disabled":false,"rental_uris":{"android":"levelo://app?vid=d4be7371-e26e-43c5-b865-2b53210f6750","ios":"levelo://app?vid=d4be7371-e26e-43c5-b865-2b53210f6750"},"vehicle_type_id":"4","last_reported":1690159284,"current_range_meters":22000,"station_id":"ce4bgv12rcd13ifvqcp0","pricing_plan_id":"free"},{"bike_id":"a72e597f-0294-4397-8883-77ea3914041d","system_id":"levelo_inurba_marseille","lat":43.297794,"lon":5.370888,"is_reserved":false,"is_disabled":false,"rental_uris":{"android":"levelo://app?vid=a72e597f-0294-4397-8883-77ea3914041d","ios":"levelo://app?vid=a72e597f-0294-4397-8883-77ea3914041d"},"vehicle_type_id":"4","last_reported":1690159284,"current_range_meters":6400,"station_id":"ce4bgop2rcd13ifvqc1g","pricing_plan_id":"free"},{"bike_id":"8b8dad1f-d9f7-47d2-b5af-f1a995acf551","system_id":"levelo_inurba_marseille","lat":43.29783,"lon":5.37095,"is_reserved":false,"is_disabled":false,"rental_uris":{"android":"levelo://app?vid=8b8dad1f-d9f7-47d2-b5af-f1a995acf551","ios":"levelo://app?vid=8b8dad1f-d9f7-47d2-b5af-f1a995acf551"},"vehicle_type_id":"4","last_reported":1690159284,"current_range_meters":6000,"station_id":"ce4bgop2rcd13ifvqc1g","pricing_plan_id":"free"},{"bike_id":"7c154cf1-be76-45ac-8f98-526cdbeb1a99","system_id":"levelo_inurba_marseille","lat":43.32288,"lon":5.38263,"is_reserved":false,"is_disabled":false,"rental_uris":{"android":"levelo://app?vid=7c154cf1-be76-45ac-8f98-526cdbeb1a99","ios":"levelo://app?vid=7c154cf1-be76-45ac-8f98-526cdbeb1a99"},"vehicle_type_id":"4","last_reported":1690159284,"current_range_meters":24800,"station_id":"ce4bhr12rcd13ifvqhqg","pricing_plan_id":"free"},{"bike_id":"78f253a6-db2d-47ef-bafb-4a15f979ff89","system_id":"levelo_inurba_marseille","lat":43.322924,"lon":5.382581,"is_reserved":false,"is_disabled":false,"rental_uris":{"android":"levelo://app?vid=78f253a6-db2d-47ef-bafb-4a15f979ff89","ios":"levelo://app?vid=78f253a6-db2d-47ef-bafb-4a15f979ff89"},"vehicle_type_id":"4","last_reported":1690159284,"current_range_meters":3200,"station_id":"","pricing_plan_id":"free"},{"bike_id":"ba0dbccf-e97a-43e5-9c99-2f16dfe6de7b","system_id":"levelo_inurba_marseille","lat":43.32827,"lon":5.36687,"is_reserved":false,"is_disabled":false,"rental_uris":{"android":"levelo://app?vid=ba0dbccf-e97a-43e5-9c99-2f16dfe6de7b","ios":"levelo://app?vid=ba0dbccf-e97a-43e5-9c99-2f16dfe6de7b"},"vehicle_type_id":"4","last_reported":1690159284,"current_range_meters":9600,"station_id":"ce4bhs92rcd13ifvqi0g","pricing_plan_id":"free"},{"bike_id":"3916e407-8c11-4a2b-8e00-1d25f7bfdca8","system_id":"levelo_inurba_marseille","lat":43.297163,"lon":5.365866,"is_reserved":false,"is_disabled":false,"rental_uris":{"android":"levelo://app?vid=3916e407-8c11-4a2b-8e00-1d25f7bfdca8","ios":"levelo://app?vid=3916e407-8c11-4a2b-8e00-1d25f7bfdca8"},"vehicle_type_id":"4","last_reported":1690159284,"current_range_meters":31200,"station_id":"ce4bgn12rcd13ifvqbt0","pricing_plan_id":"free"},{"bike_id":"731d842f-4d41-44fe-bc55-8f5df08e9257","system_id":"levelo_inurba_marseille","lat":43.297163,"lon":5.365866,"is_reserved":false,"is_disabled":false,"rental_uris":{"android":"levelo://app?vid=731d842f-4d41-44fe-bc55-8f5df08e9257","ios":"levelo://app?vid=731d842f-4d41-44fe-bc55-8f5df08e9257"},"vehicle_type_id":"4","last_reported":1690159284,"current_range_meters":20800,"station_id":"ce4bgn12rcd13ifvqbt0","pricing_plan_id":"free"},{"bike_id":"f963c0cc-010b-4bfe-b76b-bb2cc5b1d486","system_id":"levelo_inurba_marseille","lat":43.309589,"lon":5.390258,"is_reserved":false,"is_disabled":false,"rental_uris":{"android":"levelo://app?vid=f963c0cc-010b-4bfe-b76b-bb2cc5b1d486","ios":"levelo://app?vid=f963c0cc-010b-4bfe-b76b-bb2cc5b1d486"},"vehicle_type_id":"4","last_reported":1690159284,"current_range_meters":2800,"station_id":"ce4bgup2rcd13ifvqco0","pricing_plan_id":"free"},{"bike_id":"e4eef842-a5b3-4cc8-8760-139ef728155d","system_id":"levelo_inurba_marseille","lat":43.29907,"lon":5.38153,"is_reserved":false,"is_disabled":false,"rental_uris":{"android":"levelo://app?vid=e4eef842-a5b3-4cc8-8760-139ef728155d","ios":"levelo://app?vid=e4eef842-a5b3-4cc8-8760-139ef728155d"},"vehicle_type_id":"4","last_reported":1690159284,"current_range_meters":31200,"station_id":"ce4bgj12rcd13ifvqbc0","pricing_plan_id":"free"},{"bike_id":"23ddd471-6bfa-4b7c-9890-ee8336b1f0a0","system_id":"levelo_inurba_marseille","lat":43.317557,"lon":5.390173,"is_reserved":false,"is_disabled":false,"rental_uris":{"android":"levelo://app?vid=23ddd471-6bfa-4b7c-9890-ee8336b1f0a0","ios":"levelo://app?vid=23ddd471-6bfa-4b7c-9890-ee8336b1f0a0"},"vehicle_type_id":"4","last_reported":1690159284,"current_range_meters":31600,"station_id":"ce4bhqp2rcd13ifvqhng","pricing_plan_id":"free"},{"bike_id":"7f649759-edab-405a-adfc-c7971ac12fa5","system_id":"levelo_inurba_marseille","lat":43.304274,"lon":5.388873,"is_reserved":false,"is_disabled":false,"rental_uris":{"android":"levelo://app?vid=7f649759-edab-405a-adfc-c7971ac12fa5","ios":"levelo://app?vid=7f649759-edab-405a-adfc-c7971ac12fa5"},"vehicle_type_id":"4","last_reported":1690159284,"current_range_meters":3600,"station_id":"ce4bgk12rcd13ifvqbi0","pricing_plan_id":"free"},{"bike_id":"175285dc-b5d8-42c6-af5a-f990c3ed3c1a","system_id":"levelo_inurba_marseille","lat":43.304278,"lon":5.388868,"is_reserved":false,"is_disabled":false,"rental_uris":{"android":"levelo://app?vid=175285dc-b5d8-42c6-af5a-f990c3ed3c1a","ios":"levelo://app?vid=175285dc-b5d8-42c6-af5a-f990c3ed3c1a"},"vehicle_type_id":"4","last_reported":1690159284,"current_range_meters":0,"station_id":"ce4bgk12rcd13ifvqbi0","pricing_plan_id":"free"},{"bike_id":"da2be9c0-1cb2-4809-87e4-449408a86df2","system_id":"levelo_inurba_marseille","lat":43.304274,"lon":5.388873,"is_reserved":false,"is_disabled":false,"rental_uris":{"android":"levelo://app?vid=da2be9c0-1cb2-4809-87e4-449408a86df2","ios":"levelo://app?vid=da2be9c0-1cb2-4809-87e4-449408a86df2"},"vehicle_type_id":"4","last_reported":1690159284,"current_range_meters":12800,"station_id":"ce4bgk12rcd13ifvqbi0","pricing_plan_id":"free"},{"bike_id":"60b13903-925d-4987-8c9d-8d93601c68fc","system_id":"levelo_inurba_marseille","lat":43.304278,"lon":5.388868,"is_reserved":false,"is_disabled":false,"rental_uris":{"android":"levelo://app?vid=60b13903-925d-4987-8c9d-8d93601c68fc","ios":"levelo://app?vid=60b13903-925d-4987-8c9d-8d93601c68fc"},"vehicle_type_id":"4","last_reported":1690159284,"current_range_meters":4400,"station_id":"ce4bgk12rcd13ifvqbi0","pricing_plan_id":"free"},{"bike_id":"d37917a6-79f8-461a-a8d8-0c448c938cf5","system_id":"levelo_inurba_marseille","lat":43.304274,"lon":5.388873,"is_reserved":false,"is_disabled":false,"rental_uris":{"android":"levelo://app?vid=d37917a6-79f8-461a-a8d8-0c448c938cf5","ios":"levelo://app?vid=d37917a6-79f8-461a-a8d8-0c448c938cf5"},"vehicle_type_id":"4","last_reported":1690159284,"current_range_meters":25200,"station_id":"ce4bgk12rcd13ifvqbi0","pricing_plan_id":"free"},{"bike_id":"81e9db5a-c3ff-482b-98c8-f66bf4f56615","system_id":"levelo_inurba_marseille","lat":43.32367,"lon":5.388836,"is_reserved":false,"is_disabled":false,"rental_uris":{"android":"levelo://app?vid=81e9db5a-c3ff-482b-98c8-f66bf4f56615","ios":"levelo://app?vid=81e9db5a-c3ff-482b-98c8-f66bf4f56615"},"vehicle_type_id":"4","last_reported":1690159284,"current_range_meters":12000,"station_id":"ce4bhqp2rcd13ifvqhog","pricing_plan_id":"free"},{"bike_id":"f071330d-8e7d-441a-b0bf-26c5ea10e5d8","system_id":"levelo_inurba_marseille","lat":43.32363,"lon":5.38887,"is_reserved":false,"is_disabled":false,"rental_uris":{"android":"levelo://app?vid=f071330d-8e7d-441a-b0bf-26c5ea10e5d8","ios":"levelo://app?vid=f071330d-8e7d-441a-b0bf-26c5ea10e5d8"},"vehicle_type_id":"4","last_reported":1690159284,"current_range_meters":14800,"station_id":"ce4bhqp2rcd13ifvqhog","pricing_plan_id":"free"},{"bike_id":"664312f5-4eca-4a36-b8f5-0513b4a394d3","system_id":"levelo_inurba_marseille","lat":43.32366,"lon":5.38885,"is_reserved":false,"is_disabled":false,"rental_uris":{"android":"levelo://app?vid=664312f5-4eca-4a36-b8f5-0513b4a394d3","ios":"levelo://app?vid=664312f5-4eca-4a36-b8f5-0513b4a394d3"},"vehicle_type_id":"4","last_reported":1690159284,"current_range_meters":5200,"station_id":"ce4bhqp2rcd13ifvqhog","pricing_plan_id":"free"},{"bike_id":"d7b075d8-37c9-4ce8-ac38-715162183509","system_id":"levelo_inurba_marseille","lat":43.29304,"lon":5.37451,"is_reserved":false,"is_disabled":false,"rental_uris":{"android":"levelo://app?vid=d7b075d8-37c9-4ce8-ac38-715162183509","ios":"levelo://app?vid=d7b075d8-37c9-4ce8-ac38-715162183509"},"vehicle_type_id":"4","last_reported":1690159284,"current_range_meters":3600,"station_id":"ce4bgi12rcd13ifvqb70","pricing_plan_id":"free"},{"bike_id":"0f255ba0-7a08-441e-ab0c-08d69b6bb289","system_id":"levelo_inurba_marseille","lat":43.305994,"lon":5.393687,"is_reserved":false,"is_disabled":false,"rental_uris":{"android":"levelo://app?vid=0f255ba0-7a08-441e-ab0c-08d69b6bb289","ios":"levelo://app?vid=0f255ba0-7a08-441e-ab0c-08d69b6bb289"},"vehicle_type_id":"4","last_reported":1690159284,"current_range_meters":16000,"station_id":"ce4bh0p2rcd13ifvqd80","pricing_plan_id":"free"},{"bike_id":"54d7387c-dadd-4700-907d-2e94250d2a8c","system_id":"levelo_inurba_marseille","lat":43.305994,"lon":5.393687,"is_reserved":false,"is_disabled":false,"rental_uris":{"android":"levelo://app?vid=54d7387c-dadd-4700-907d-2e94250d2a8c","ios":"levelo://app?vid=54d7387c-dadd-4700-907d-2e94250d2a8c"},"vehicle_type_id":"4","last_reported":1690159284,"current_range_meters":27600,"station_id":"ce4bh0p2rcd13ifvqd80","pricing_plan_id":"free"},{"bike_id":"42f103b6-c106-46de-adce-2e883ef071ab","system_id":"levelo_inurba_marseille","lat":43.305994,"lon":5.393687,"is_reserved":false,"is_disabled":false,"rental_uris":{"android":"levelo://app?vid=42f103b6-c106-46de-adce-2e883ef071ab","ios":"levelo://app?vid=42f103b6-c106-46de-adce-2e883ef071ab"},"vehicle_type_id":"4","last_reported":1690159284,"current_range_meters":31200,"station_id":"ce4bh0p2rcd13ifvqd80","pricing_plan_id":"free"},{"bike_id":"a4b29549-e1c4-4a22-a239-34fb596b1717","system_id":"levelo_inurba_marseille","lat":43.30596,"lon":5.39366,"is_reserved":false,"is_disabled":false,"rental_uris":{"android":"levelo://app?vid=a4b29549-e1c4-4a22-a239-34fb596b1717","ios":"levelo://app?vid=a4b29549-e1c4-4a22-a239-34fb596b1717"},"vehicle_type_id":"4","last_reported":1690159284,"current_range_meters":22800,"station_id":"ce4bh0p2rcd13ifvqd80","pricing_plan_id":"free"},{"bike_id":"b1231622-6f78-497b-8763-4c744f730d49","system_id":"levelo_inurba_marseille","lat":43.30307,"lon":5.39202,"is_reserved":false,"is_disabled":false,"rental_uris":{"android":"levelo://app?vid=b1231622-6f78-497b-8763-4c744f730d49","ios":"levelo://app?vid=b1231622-6f78-497b-8763-4c744f730d49"},"vehicle_type_id":"4","last_reported":1690159284,"current_range_meters":6400,"station_id":"ce4bgkh2rcd13ifvqbk0","pricing_plan_id":"free"},{"bike_id":"3c3e5a98-e370-4325-b45c-c0e748ab2d0d","system_id":"levelo_inurba_marseille","lat":43.30305,"lon":5.39211,"is_reserved":false,"is_disabled":false,"rental_uris":{"android":"levelo://app?vid=3c3e5a98-e370-4325-b45c-c0e748ab2d0d","ios":"levelo://app?vid=3c3e5a98-e370-4325-b45c-c0e748ab2d0d"},"vehicle_type_id":"4","last_reported":1690159284,"current_range_meters":12800,"station_id":"ce4bgkh2rcd13ifvqbk0","pricing_plan_id":"free"},{"bike_id":"e7efea91-6be1-43a0-ad76-66247d3f77f4","system_id":"levelo_inurba_marseille","lat":43.29372,"lon":5.37862,"is_reserved":false,"is_disabled":false,"rental_uris":{"android":"levelo://app?vid=e7efea91-6be1-43a0-ad76-66247d3f77f4","ios":"levelo://app?vid=e7efea91-6be1-43a0-ad76-66247d3f77f4"},"vehicle_type_id":"4","last_reported":1690159284,"current_range_meters":27600,"station_id":"ce4bgjh2rcd13ifvqbf0","pricing_plan_id":"free"},{"bike_id":"084bb503-4307-43c0-b400-03fe5fcb6dd6","system_id":"levelo_inurba_marseille","lat":43.302992,"lon":5.392136,"is_reserved":false,"is_disabled":false,"rental_uris":{"android":"levelo://app?vid=084bb503-4307-43c0-b400-03fe5fcb6dd6","ios":"levelo://app?vid=084bb503-4307-43c0-b400-03fe5fcb6dd6"},"vehicle_type_id":"4","last_reported":1690159284,"current_range_meters":26000,"station_id":"ce4bgkh2rcd13ifvqbk0","pricing_plan_id":"free"},{"bike_id":"0c063eb9-cb69-406a-b52a-5e9464c85093","system_id":"levelo_inurba_marseille","lat":43.29874,"lon":5.38907,"is_reserved":false,"is_disabled":false,"rental_uris":{"android":"levelo://app?vid=0c063eb9-cb69-406a-b52a-5e9464c85093","ios":"levelo://app?vid=0c063eb9-cb69-406a-b52a-5e9464c85093"},"vehicle_type_id":"4","last_reported":1690159284,"current_range_meters":12400,"station_id":"ce4bh392rcd13ifvqdl0","pricing_plan_id":"free"},{"bike_id":"937387ac-5c8d-4da1-91e0-c270942c972c","system_id":"levelo_inurba_marseille","lat":43.298764,"lon":5.388973,"is_reserved":false,"is_disabled":false,"rental_uris":{"android":"levelo://app?vid=937387ac-5c8d-4da1-91e0-c270942c972c","ios":"levelo://app?vid=937387ac-5c8d-4da1-91e0-c270942c972c"},"vehicle_type_id":"4","last_reported":1690159284,"current_range_meters":28800,"station_id":"ce4bh392rcd13ifvqdl0","pricing_plan_id":"free"},{"bike_id":"b877d3f8-6b56-43e4-b4a7-888b0e7ad59e","system_id":"levelo_inurba_marseille","lat":43.29875,"lon":5.38911,"is_reserved":false,"is_disabled":false,"rental_uris":{"android":"levelo://app?vid=b877d3f8-6b56-43e4-b4a7-888b0e7ad59e","ios":"levelo://app?vid=b877d3f8-6b56-43e4-b4a7-888b0e7ad59e"},"vehicle_type_id":"4","last_reported":1690159284,"current_range_meters":6400,"station_id":"ce4bh392rcd13ifvqdl0","pricing_plan_id":"free"},{"bike_id":"67a1ed80-ef59-4692-a7a0-9f8b012c620b","system_id":"levelo_inurba_marseille","lat":43.2987,"lon":5.38915,"is_reserved":false,"is_disabled":false,"rental_uris":{"android":"levelo://app?vid=67a1ed80-ef59-4692-a7a0-9f8b012c620b","ios":"levelo://app?vid=67a1ed80-ef59-4692-a7a0-9f8b012c620b"},"vehicle_type_id":"4","last_reported":1690159284,"current_range_meters":18400,"station_id":"ce4bh392rcd13ifvqdl0","pricing_plan_id":"free"},{"bike_id":"ca43f814-5461-47ff-aa2e-395b4bb7d23c","system_id":"levelo_inurba_marseille","lat":43.30884,"lon":5.3963,"is_reserved":false,"is_disabled":false,"rental_uris":{"android":"levelo://app?vid=ca43f814-5461-47ff-aa2e-395b4bb7d23c","ios":"levelo://app?vid=ca43f814-5461-47ff-aa2e-395b4bb7d23c"},"vehicle_type_id":"4","last_reported":1690159284,"current_range_meters":31200,"station_id":"ce4bh012rcd13ifvqcv0","pricing_plan_id":"free"},{"bike_id":"5b1d5aff-5330-4629-b998-7d40265fcab3","system_id":"levelo_inurba_marseille","lat":43.30883,"lon":5.39636,"is_reserved":false,"is_disabled":false,"rental_uris":{"android":"levelo://app?vid=5b1d5aff-5330-4629-b998-7d40265fcab3","ios":"levelo://app?vid=5b1d5aff-5330-4629-b998-7d40265fcab3"},"vehicle_type_id":"4","last_reported":1690159284,"current_range_meters":12000,"station_id":"ce4bh012rcd13ifvqcv0","pricing_plan_id":"free"},{"bike_id":"874560e9-f90b-4f76-8a13-7a1fd346a8a2","system_id":"levelo_inurba_marseille","lat":43.309038,"lon":5.396546,"is_reserved":false,"is_disabled":false,"rental_uris":{"android":"levelo://app?vid=874560e9-f90b-4f76-8a13-7a1fd346a8a2","ios":"levelo://app?vid=874560e9-f90b-4f76-8a13-7a1fd346a8a2"},"vehicle_type_id":"4","last_reported":1690159284,"current_range_meters":16800,"station_id":"ce4bh012rcd13ifvqcv0","pricing_plan_id":"free"},{"bike_id":"cba6b209-2297-41cc-9e61-6a43edab1f68","system_id":"levelo_inurba_marseille","lat":43.313291,"lon":5.396838,"is_reserved":false,"is_disabled":false,"rental_uris":{"android":"levelo://app?vid=cba6b209-2297-41cc-9e61-6a43edab1f68","ios":"levelo://app?vid=cba6b209-2297-41cc-9e61-6a43edab1f68"},"vehicle_type_id":"4","last_reported":1690159284,"current_range_meters":22800,"station_id":"ce4bgvp2rcd13ifvqcu0","pricing_plan_id":"free"},{"bike_id":"da1f72e9-31bd-4eba-a86c-a30f2437ed88","system_id":"levelo_inurba_marseille","lat":43.31326,"lon":5.39695,"is_reserved":false,"is_disabled":false,"rental_uris":{"android":"levelo://app?vid=da1f72e9-31bd-4eba-a86c-a30f2437ed88","ios":"levelo://app?vid=da1f72e9-31bd-4eba-a86c-a30f2437ed88"},"vehicle_type_id":"4","last_reported":1690159284,"current_range_meters":20400,"station_id":"ce4bgvp2rcd13ifvqcu0","pricing_plan_id":"free"},{"bike_id":"f60b032b-9856-4c26-a012-0647e86400b9","system_id":"levelo_inurba_marseille","lat":43.309038,"lon":5.396546,"is_reserved":false,"is_disabled":false,"rental_uris":{"android":"levelo://app?vid=f60b032b-9856-4c26-a012-0647e86400b9","ios":"levelo://app?vid=f60b032b-9856-4c26-a012-0647e86400b9"},"vehicle_type_id":"4","last_reported":1690159284,"current_range_meters":12800,"station_id":"ce4bh012rcd13ifvqcv0","pricing_plan_id":"free"},{"bike_id":"5d8c2e02-8e11-4f9c-b64b-b203cf17801a","system_id":"levelo_inurba_marseille","lat":43.313291,"lon":5.396838,"is_reserved":false,"is_disabled":false,"rental_uris":{"android":"levelo://app?vid=5d8c2e02-8e11-4f9c-b64b-b203cf17801a","ios":"levelo://app?vid=5d8c2e02-8e11-4f9c-b64b-b203cf17801a"},"vehicle_type_id":"4","last_reported":1690159284,"current_range_meters":6400,"station_id":"ce4bgvp2rcd13ifvqcu0","pricing_plan_id":"free"},{"bike_id":"748a07d4-d514-476d-92d3-2222192ef834","system_id":"levelo_inurba_marseille","lat":43.309038,"lon":5.396546,"is_reserved":false,"is_disabled":false,"rental_uris":{"android":"levelo://app?vid=748a07d4-d514-476d-92d3-2222192ef834","ios":"levelo://app?vid=748a07d4-d514-476d-92d3-2222192ef834"},"vehicle_type_id":"4","last_reported":1690159284,"current_range_meters":31200,"station_id":"ce4bh012rcd13ifvqcv0","pricing_plan_id":"free"},{"bike_id":"6f81f759-0370-404a-aaca-96a104a2ee26","system_id":"levelo_inurba_marseille","lat":43.30883,"lon":5.39652,"is_reserved":false,"is_disabled":false,"rental_uris":{"android":"levelo://app?vid=6f81f759-0370-404a-aaca-96a104a2ee26","ios":"levelo://app?vid=6f81f759-0370-404a-aaca-96a104a2ee26"},"vehicle_type_id":"4","last_reported":1690159284,"current_range_meters":20400,"station_id":"ce4bh012rcd13ifvqcv0","pricing_plan_id":"free"},{"bike_id":"99fa8027-62bc-4119-a4e5-e2b987f51b09","system_id":"levelo_inurba_marseille","lat":43.30882,"lon":5.39652,"is_reserved":false,"is_disabled":false,"rental_uris":{"android":"levelo://app?vid=99fa8027-62bc-4119-a4e5-e2b987f51b09","ios":"levelo://app?vid=99fa8027-62bc-4119-a4e5-e2b987f51b09"},"vehicle_type_id":"4","last_reported":1690159284,"current_range_meters":4400,"station_id":"ce4bh012rcd13ifvqcv0","pricing_plan_id":"free"},{"bike_id":"1b967427-f579-44cc-b7d7-57367dce5f81","system_id":"levelo_inurba_marseille","lat":43.30875,"lon":5.39652,"is_reserved":false,"is_disabled":false,"rental_uris":{"android":"levelo://app?vid=1b967427-f579-44cc-b7d7-57367dce5f81","ios":"levelo://app?vid=1b967427-f579-44cc-b7d7-57367dce5f81"},"vehicle_type_id":"4","last_reported":1690159284,"current_range_meters":22400,"station_id":"ce4bh012rcd13ifvqcv0","pricing_plan_id":"free"},{"bike_id":"a8270653-0755-4dbc-b941-88a6e7b47ce9","system_id":"levelo_inurba_marseille","lat":43.30885,"lon":5.39657,"is_reserved":false,"is_disabled":false,"rental_uris":{"android":"levelo://app?vid=a8270653-0755-4dbc-b941-88a6e7b47ce9","ios":"levelo://app?vid=a8270653-0755-4dbc-b941-88a6e7b47ce9"},"vehicle_type_id":"4","last_reported":1690159284,"current_range_meters":4000,"station_id":"ce4bh012rcd13ifvqcv0","pricing_plan_id":"free"},{"bike_id":"9b94b402-576f-4f51-8cd3-11570723deb0","system_id":"levelo_inurba_marseille","lat":43.29529,"lon":5.385581,"is_reserved":false,"is_disabled":false,"rental_uris":{"android":"levelo://app?vid=9b94b402-576f-4f51-8cd3-11570723deb0","ios":"levelo://app?vid=9b94b402-576f-4f51-8cd3-11570723deb0"},"vehicle_type_id":"4","last_reported":1690159284,"current_range_meters":6400,"station_id":"ce4bgih2rcd13ifvqba0","pricing_plan_id":"free"},{"bike_id":"4fec375a-af2a-423c-b3f5-7af6e7dbaa0d","system_id":"levelo_inurba_marseille","lat":43.29528,"lon":5.38538,"is_reserved":false,"is_disabled":false,"rental_uris":{"android":"levelo://app?vid=4fec375a-af2a-423c-b3f5-7af6e7dbaa0d","ios":"levelo://app?vid=4fec375a-af2a-423c-b3f5-7af6e7dbaa0d"},"vehicle_type_id":"4","last_reported":1690159284,"current_range_meters":32000,"station_id":"ce4bgih2rcd13ifvqba0","pricing_plan_id":"free"},{"bike_id":"ab03e548-b34c-4885-b2a7-2aed5a65ad6a","system_id":"levelo_inurba_marseille","lat":43.29529,"lon":5.38545,"is_reserved":false,"is_disabled":false,"rental_uris":{"android":"levelo://app?vid=ab03e548-b34c-4885-b2a7-2aed5a65ad6a","ios":"levelo://app?vid=ab03e548-b34c-4885-b2a7-2aed5a65ad6a"},"vehicle_type_id":"4","last_reported":1690159284,"current_range_meters":26800,"station_id":"ce4bgih2rcd13ifvqba0","pricing_plan_id":"free"},{"bike_id":"8b3ea427-60da-4b3c-bfe6-414bc619faa9","system_id":"levelo_inurba_marseille","lat":43.29529,"lon":5.385581,"is_reserved":false,"is_disabled":false,"rental_uris":{"android":"levelo://app?vid=8b3ea427-60da-4b3c-bfe6-414bc619faa9","ios":"levelo://app?vid=8b3ea427-60da-4b3c-bfe6-414bc619faa9"},"vehicle_type_id":"4","last_reported":1690159284,"current_range_meters":1600,"station_id":"ce4bgih2rcd13ifvqba0","pricing_plan_id":"free"},{"bike_id":"e58f78ee-9588-41e5-b480-b263763c7655","system_id":"levelo_inurba_marseille","lat":43.29058,"lon":5.37159,"is_reserved":false,"is_disabled":false,"rental_uris":{"android":"levelo://app?vid=e58f78ee-9588-41e5-b480-b263763c7655","ios":"levelo://app?vid=e58f78ee-9588-41e5-b480-b263763c7655"},"vehicle_type_id":"4","last_reported":1690159284,"current_range_meters":10000,"station_id":"ce4bh5p2rcd13ifvqe4g","pricing_plan_id":"free"},{"bike_id":"a675b239-94b2-4d2d-a7a7-c8a45437d385","system_id":"levelo_inurba_marseille","lat":43.291,"lon":5.35909,"is_reserved":false,"is_disabled":false,"rental_uris":{"android":"levelo://app?vid=a675b239-94b2-4d2d-a7a7-c8a45437d385","ios":"levelo://app?vid=a675b239-94b2-4d2d-a7a7-c8a45437d385"},"vehicle_type_id":"4","last_reported":1690159284,"current_range_meters":19600,"station_id":"ce4bha92rcd13ifvqeg0","pricing_plan_id":"free"},{"bike_id":"11daf0ac-e605-4992-a2af-f5b41857e7b6","system_id":"levelo_inurba_marseille","lat":43.3022,"lon":5.39471,"is_reserved":false,"is_disabled":false,"rental_uris":{"android":"levelo://app?vid=11daf0ac-e605-4992-a2af-f5b41857e7b6","ios":"levelo://app?vid=11daf0ac-e605-4992-a2af-f5b41857e7b6"},"vehicle_type_id":"4","last_reported":1690159284,"current_range_meters":31200,"station_id":"ce4bh0p2rcd13ifvqd70","pricing_plan_id":"free"},{"bike_id":"ba063115-5f23-44d8-8e33-8710fee25a45","system_id":"levelo_inurba_marseille","lat":43.30209,"lon":5.39465,"is_reserved":false,"is_disabled":false,"rental_uris":{"android":"levelo://app?vid=ba063115-5f23-44d8-8e33-8710fee25a45","ios":"levelo://app?vid=ba063115-5f23-44d8-8e33-8710fee25a45"},"vehicle_type_id":"4","last_reported":1690159284,"current_range_meters":20000,"station_id":"ce4bh0p2rcd13ifvqd70","pricing_plan_id":"free"},{"bike_id":"a746595e-0bb5-459d-983b-b7a896095911","system_id":"levelo_inurba_marseille","lat":43.30217,"lon":5.39476,"is_reserved":false,"is_disabled":false,"rental_uris":{"android":"levelo://app?vid=a746595e-0bb5-459d-983b-b7a896095911","ios":"levelo://app?vid=a746595e-0bb5-459d-983b-b7a896095911"},"vehicle_type_id":"4","last_reported":1690159284,"current_range_meters":11600,"station_id":"ce4bh0p2rcd13ifvqd70","pricing_plan_id":"free"},{"bike_id":"9d5d1de6-4405-4fc8-a83a-600db4332148","system_id":"levelo_inurba_marseille","lat":43.30208,"lon":5.39474,"is_reserved":false,"is_disabled":false,"rental_uris":{"android":"levelo://app?vid=9d5d1de6-4405-4fc8-a83a-600db4332148","ios":"levelo://app?vid=9d5d1de6-4405-4fc8-a83a-600db4332148"},"vehicle_type_id":"4","last_reported":1690159284,"current_range_meters":18800,"station_id":"ce4bh0p2rcd13ifvqd70","pricing_plan_id":"free"},{"bike_id":"3a55056e-1410-4fe6-9977-f3c9a5671a3e","system_id":"levelo_inurba_marseille","lat":43.30202,"lon":5.39478,"is_reserved":false,"is_disabled":false,"rental_uris":{"android":"levelo://app?vid=3a55056e-1410-4fe6-9977-f3c9a5671a3e","ios":"levelo://app?vid=3a55056e-1410-4fe6-9977-f3c9a5671a3e"},"vehicle_type_id":"4","last_reported":1690159284,"current_range_meters":8800,"station_id":"ce4bh0p2rcd13ifvqd70","pricing_plan_id":"free"},{"bike_id":"e31d4381-0e8d-406f-8e07-c18b5f2a8b03","system_id":"levelo_inurba_marseille","lat":43.28939,"lon":5.36637,"is_reserved":false,"is_disabled":false,"rental_uris":{"android":"levelo://app?vid=e31d4381-0e8d-406f-8e07-c18b5f2a8b03","ios":"levelo://app?vid=e31d4381-0e8d-406f-8e07-c18b5f2a8b03"},"vehicle_type_id":"4","last_reported":1690159284,"current_range_meters":12000,"station_id":"ce4bhap2rcd13ifvqek0","pricing_plan_id":"free"},{"bike_id":"20426408-44df-4f4b-a6ac-c7e5efc9b75f","system_id":"levelo_inurba_marseille","lat":43.28937,"lon":5.36633,"is_reserved":false,"is_disabled":false,"rental_uris":{"android":"levelo://app?vid=20426408-44df-4f4b-a6ac-c7e5efc9b75f","ios":"levelo://app?vid=20426408-44df-4f4b-a6ac-c7e5efc9b75f"},"vehicle_type_id":"4","last_reported":1690159284,"current_range_meters":22400,"station_id":"ce4bhap2rcd13ifvqek0","pricing_plan_id":"free"},{"bike_id":"42a0d3c8-5195-40b4-9922-c8ad71a3ed96","system_id":"levelo_inurba_marseille","lat":43.28936,"lon":5.36638,"is_reserved":false,"is_disabled":false,"rental_uris":{"android":"levelo://app?vid=42a0d3c8-5195-40b4-9922-c8ad71a3ed96","ios":"levelo://app?vid=42a0d3c8-5195-40b4-9922-c8ad71a3ed96"},"vehicle_type_id":"4","last_reported":1690159284,"current_range_meters":26000,"station_id":"ce4bhap2rcd13ifvqek0","pricing_plan_id":"free"},{"bike_id":"bddcf94f-e13b-40bd-be2d-484fa4531129","system_id":"levelo_inurba_marseille","lat":43.29411,"lon":5.38636,"is_reserved":false,"is_disabled":false,"rental_uris":{"android":"levelo://app?vid=bddcf94f-e13b-40bd-be2d-484fa4531129","ios":"levelo://app?vid=bddcf94f-e13b-40bd-be2d-484fa4531129"},"vehicle_type_id":"4","last_reported":1690159284,"current_range_meters":31200,"station_id":"ce4bh2h2rcd13ifvqdh0","pricing_plan_id":"free"},{"bike_id":"4a747bdb-1e51-44b9-8da4-c2e8a232c114","system_id":"levelo_inurba_marseille","lat":43.28933,"lon":5.36636,"is_reserved":false,"is_disabled":false,"rental_uris":{"android":"levelo://app?vid=4a747bdb-1e51-44b9-8da4-c2e8a232c114","ios":"levelo://app?vid=4a747bdb-1e51-44b9-8da4-c2e8a232c114"},"vehicle_type_id":"4","last_reported":1690159284,"current_range_meters":20400,"station_id":"ce4bhap2rcd13ifvqek0","pricing_plan_id":"free"},{"bike_id":"6ef76c29-30c4-46bd-b5b0-2f05ecc8fdd0","system_id":"levelo_inurba_marseille","lat":43.28932,"lon":5.36631,"is_reserved":false,"is_disabled":false,"rental_uris":{"android":"levelo://app?vid=6ef76c29-30c4-46bd-b5b0-2f05ecc8fdd0","ios":"levelo://app?vid=6ef76c29-30c4-46bd-b5b0-2f05ecc8fdd0"},"vehicle_type_id":"4","last_reported":1690159284,"current_range_meters":31200,"station_id":"ce4bhap2rcd13ifvqek0","pricing_plan_id":"free"},{"bike_id":"53251788-9877-48d0-8b18-88b7fb685449","system_id":"levelo_inurba_marseille","lat":43.28916,"lon":5.3664,"is_reserved":false,"is_disabled":false,"rental_uris":{"android":"levelo://app?vid=53251788-9877-48d0-8b18-88b7fb685449","ios":"levelo://app?vid=53251788-9877-48d0-8b18-88b7fb685449"},"vehicle_type_id":"4","last_reported":1690159284,"current_range_meters":30000,"station_id":"ce4bhah2rcd13ifvqei0","pricing_plan_id":"free"},{"bike_id":"4e4763ff-a970-4e29-bfb0-537aa2a827bf","system_id":"levelo_inurba_marseille","lat":43.29392,"lon":5.38675,"is_reserved":false,"is_disabled":false,"rental_uris":{"android":"levelo://app?vid=4e4763ff-a970-4e29-bfb0-537aa2a827bf","ios":"levelo://app?vid=4e4763ff-a970-4e29-bfb0-537aa2a827bf"},"vehicle_type_id":"4","last_reported":1690159284,"current_range_meters":4800,"station_id":"ce4bh2h2rcd13ifvqdh0","pricing_plan_id":"free"},{"bike_id":"25ffb012-65f2-433d-aa62-7366b554b289","system_id":"levelo_inurba_marseille","lat":43.29259,"lon":5.38429,"is_reserved":false,"is_disabled":false,"rental_uris":{"android":"levelo://app?vid=25ffb012-65f2-433d-aa62-7366b554b289","ios":"levelo://app?vid=25ffb012-65f2-433d-aa62-7366b554b289"},"vehicle_type_id":"4","last_reported":1690159284,"current_range_meters":7200,"station_id":"ce4bh692rcd13ifvqea0","pricing_plan_id":"free"},{"bike_id":"34b9ae82-3ee3-459a-a4f7-812e5230d4c6","system_id":"levelo_inurba_marseille","lat":43.30428,"lon":5.39751,"is_reserved":false,"is_disabled":false,"rental_uris":{"android":"levelo://app?vid=34b9ae82-3ee3-459a-a4f7-812e5230d4c6","ios":"levelo://app?vid=34b9ae82-3ee3-459a-a4f7-812e5230d4c6"},"vehicle_type_id":"4","last_reported":1690159284,"current_range_meters":20000,"station_id":"ce4bh092rcd13ifvqd20","pricing_plan_id":"free"},{"bike_id":"a9fb736b-b7d6-4654-b80c-9fba74f5c9bc","system_id":"levelo_inurba_marseille","lat":43.30419,"lon":5.39747,"is_reserved":false,"is_disabled":false,"rental_uris":{"android":"levelo://app?vid=a9fb736b-b7d6-4654-b80c-9fba74f5c9bc","ios":"levelo://app?vid=a9fb736b-b7d6-4654-b80c-9fba74f5c9bc"},"vehicle_type_id":"4","last_reported":1690159284,"current_range_meters":10800,"station_id":"ce4bh092rcd13ifvqd20","pricing_plan_id":"free"},{"bike_id":"57dee8e1-e55f-4c4d-94b2-328698d7ec29","system_id":"levelo_inurba_marseille","lat":43.304274,"lon":5.397513,"is_reserved":false,"is_disabled":false,"rental_uris":{"android":"levelo://app?vid=57dee8e1-e55f-4c4d-94b2-328698d7ec29","ios":"levelo://app?vid=57dee8e1-e55f-4c4d-94b2-328698d7ec29"},"vehicle_type_id":"4","last_reported":1690159284,"current_range_meters":29200,"station_id":"ce4bh092rcd13ifvqd20","pricing_plan_id":"free"},{"bike_id":"3071f5ba-a1a5-460a-ab44-2e93ae209327","system_id":"levelo_inurba_marseille","lat":43.30423,"lon":5.39758,"is_reserved":false,"is_disabled":false,"rental_uris":{"android":"levelo://app?vid=3071f5ba-a1a5-460a-ab44-2e93ae209327","ios":"levelo://app?vid=3071f5ba-a1a5-460a-ab44-2e93ae209327"},"vehicle_type_id":"4","last_reported":1690159284,"current_range_meters":19600,"station_id":"ce4bh092rcd13ifvqd20","pricing_plan_id":"free"},{"bike_id":"d91240f0-0057-48e6-a13b-ef8504da460f","system_id":"levelo_inurba_marseille","lat":43.304274,"lon":5.397513,"is_reserved":false,"is_disabled":false,"rental_uris":{"android":"levelo://app?vid=d91240f0-0057-48e6-a13b-ef8504da460f","ios":"levelo://app?vid=d91240f0-0057-48e6-a13b-ef8504da460f"},"vehicle_type_id":"4","last_reported":1690159284,"current_range_meters":16400,"station_id":"ce4bh092rcd13ifvqd20","pricing_plan_id":"free"},{"bike_id":"01dcebed-0f22-4b7a-b675-ee920474a21f","system_id":"levelo_inurba_marseille","lat":43.290995,"lon":5.381361,"is_reserved":false,"is_disabled":false,"rental_uris":{"android":"levelo://app?vid=01dcebed-0f22-4b7a-b675-ee920474a21f","ios":"levelo://app?vid=01dcebed-0f22-4b7a-b675-ee920474a21f"},"vehicle_type_id":"4","last_reported":1690159284,"current_range_meters":1200,"station_id":"ce4bh512rcd13ifvqe2g","pricing_plan_id":"free"},{"bike_id":"20610e19-c2d4-42a2-95b6-8cc141039623","system_id":"levelo_inurba_marseille","lat":43.33047,"lon":5.38916,"is_reserved":false,"is_disabled":false,"rental_uris":{"android":"levelo://app?vid=20610e19-c2d4-42a2-95b6-8cc141039623","ios":"levelo://app?vid=20610e19-c2d4-42a2-95b6-8cc141039623"},"vehicle_type_id":"4","last_reported":1690159284,"current_range_meters":14400,"station_id":"ce4bhr92rcd13ifvqhrg","pricing_plan_id":"free"},{"bike_id":"83ff2074-6033-49d0-b549-81f347235fbf","system_id":"levelo_inurba_marseille","lat":43.33049,"lon":5.38913,"is_reserved":false,"is_disabled":false,"rental_uris":{"android":"levelo://app?vid=83ff2074-6033-49d0-b549-81f347235fbf","ios":"levelo://app?vid=83ff2074-6033-49d0-b549-81f347235fbf"},"vehicle_type_id":"4","last_reported":1690159284,"current_range_meters":16000,"station_id":"ce4bhr92rcd13ifvqhrg","pricing_plan_id":"free"},{"bike_id":"0dc2abf2-befb-4a28-b945-49f2ad51625e","system_id":"levelo_inurba_marseille","lat":43.33044,"lon":5.38922,"is_reserved":false,"is_disabled":false,"rental_uris":{"android":"levelo://app?vid=0dc2abf2-befb-4a28-b945-49f2ad51625e","ios":"levelo://app?vid=0dc2abf2-befb-4a28-b945-49f2ad51625e"},"vehicle_type_id":"4","last_reported":1690159284,"current_range_meters":4000,"station_id":"ce4bhr92rcd13ifvqhrg","pricing_plan_id":"free"},{"bike_id":"8f69f85a-f4df-4a69-bf73-79c870ef073c","system_id":"levelo_inurba_marseille","lat":43.33045,"lon":5.38923,"is_reserved":false,"is_disabled":false,"rental_uris":{"android":"levelo://app?vid=8f69f85a-f4df-4a69-bf73-79c870ef073c","ios":"levelo://app?vid=8f69f85a-f4df-4a69-bf73-79c870ef073c"},"vehicle_type_id":"4","last_reported":1690159284,"current_range_meters":28400,"station_id":"ce4bhr92rcd13ifvqhrg","pricing_plan_id":"free"},{"bike_id":"edc8f8ac-75fc-4ca4-94c0-3aa8c57a18dc","system_id":"levelo_inurba_marseille","lat":43.2887,"lon":5.36658,"is_reserved":false,"is_disabled":false,"rental_uris":{"android":"levelo://app?vid=edc8f8ac-75fc-4ca4-94c0-3aa8c57a18dc","ios":"levelo://app?vid=edc8f8ac-75fc-4ca4-94c0-3aa8c57a18dc"},"vehicle_type_id":"4","last_reported":1690159284,"current_range_meters":28000,"station_id":"ce4bhah2rcd13ifvqei0","pricing_plan_id":"free"},{"bike_id":"95758f9f-1e5d-4367-a2e5-c5e60b59f4e0","system_id":"levelo_inurba_marseille","lat":43.29794,"lon":5.39334,"is_reserved":false,"is_disabled":false,"rental_uris":{"android":"levelo://app?vid=95758f9f-1e5d-4367-a2e5-c5e60b59f4e0","ios":"levelo://app?vid=95758f9f-1e5d-4367-a2e5-c5e60b59f4e0"},"vehicle_type_id":"4","last_reported":1690159284,"current_range_meters":4800,"station_id":"chh1huq6cuj3fo74tm60","pricing_plan_id":"free"},{"bike_id":"71f29281-47b0-4243-9b7c-2db334c1ea60","system_id":"levelo_inurba_marseille","lat":43.295169,"lon":5.390426,"is_reserved":false,"is_disabled":false,"rental_uris":{"android":"levelo://app?vid=71f29281-47b0-4243-9b7c-2db334c1ea60","ios":"levelo://app?vid=71f29281-47b0-4243-9b7c-2db334c1ea60"},"vehicle_type_id":"4","last_reported":1690159284,"current_range_meters":30400,"station_id":"ce4bh3p2rcd13ifvqdp0","pricing_plan_id":"free"},{"bike_id":"37e3afe9-dc2a-4310-b242-433982babd0d","system_id":"levelo_inurba_marseille","lat":43.29517,"lon":5.39027,"is_reserved":false,"is_disabled":false,"rental_uris":{"android":"levelo://app?vid=37e3afe9-dc2a-4310-b242-433982babd0d","ios":"levelo://app?vid=37e3afe9-dc2a-4310-b242-433982babd0d"},"vehicle_type_id":"4","last_reported":1690159284,"current_range_meters":30000,"station_id":"ce4bh3p2rcd13ifvqdp0","pricing_plan_id":"free"},{"bike_id":"ea14c29f-8db2-40d9-862e-69e52fe4d695","system_id":"levelo_inurba_marseille","lat":43.29526,"lon":5.39048,"is_reserved":false,"is_disabled":false,"rental_uris":{"android":"levelo://app?vid=ea14c29f-8db2-40d9-862e-69e52fe4d695","ios":"levelo://app?vid=ea14c29f-8db2-40d9-862e-69e52fe4d695"},"vehicle_type_id":"4","last_reported":1690159284,"current_range_meters":29600,"station_id":"ce4bh3p2rcd13ifvqdp0","pricing_plan_id":"free"},{"bike_id":"8fb01400-1799-43e9-a843-140216b26f34","system_id":"levelo_inurba_marseille","lat":43.29519,"lon":5.39041,"is_reserved":false,"is_disabled":false,"rental_uris":{"android":"levelo://app?vid=8fb01400-1799-43e9-a843-140216b26f34","ios":"levelo://app?vid=8fb01400-1799-43e9-a843-140216b26f34"},"vehicle_type_id":"4","last_reported":1690159284,"current_range_meters":26800,"station_id":"ce4bh3p2rcd13ifvqdp0","pricing_plan_id":"free"},{"bike_id":"5b7c1887-a411-40ff-bbe9-fea1a8bf59e9","system_id":"levelo_inurba_marseille","lat":43.29516,"lon":5.39042,"is_reserved":false,"is_disabled":false,"rental_uris":{"android":"levelo://app?vid=5b7c1887-a411-40ff-bbe9-fea1a8bf59e9","ios":"levelo://app?vid=5b7c1887-a411-40ff-bbe9-fea1a8bf59e9"},"vehicle_type_id":"4","last_reported":1690159284,"current_range_meters":31200,"station_id":"ce4bh3p2rcd13ifvqdp0","pricing_plan_id":"free"},{"bike_id":"3ccfb01a-25d4-47f3-b066-1b4a675d49ec","system_id":"levelo_inurba_marseille","lat":43.2952,"lon":5.3905,"is_reserved":false,"is_disabled":false,"rental_uris":{"android":"levelo://app?vid=3ccfb01a-25d4-47f3-b066-1b4a675d49ec","ios":"levelo://app?vid=3ccfb01a-25d4-47f3-b066-1b4a675d49ec"},"vehicle_type_id":"4","last_reported":1690159284,"current_range_meters":22800,"station_id":"ce4bh3p2rcd13ifvqdp0","pricing_plan_id":"free"},{"bike_id":"8d2ab192-b651-408e-a580-f0f3cfb296cd","system_id":"levelo_inurba_marseille","lat":43.29514,"lon":5.39043,"is_reserved":false,"is_disabled":false,"rental_uris":{"android":"levelo://app?vid=8d2ab192-b651-408e-a580-f0f3cfb296cd","ios":"levelo://app?vid=8d2ab192-b651-408e-a580-f0f3cfb296cd"},"vehicle_type_id":"4","last_reported":1690159284,"current_range_meters":31200,"station_id":"ce4bh3p2rcd13ifvqdp0","pricing_plan_id":"free"},{"bike_id":"94f40e5a-a6e3-41d4-82ea-f6133a43702e","system_id":"levelo_inurba_marseille","lat":43.29518,"lon":5.39051,"is_reserved":false,"is_disabled":false,"rental_uris":{"android":"levelo://app?vid=94f40e5a-a6e3-41d4-82ea-f6133a43702e","ios":"levelo://app?vid=94f40e5a-a6e3-41d4-82ea-f6133a43702e"},"vehicle_type_id":"4","last_reported":1690159284,"current_range_meters":18400,"station_id":"ce4bh3p2rcd13ifvqdp0","pricing_plan_id":"free"},{"bike_id":"396d51d9-e7bd-450d-b42a-e982a4ea3418","system_id":"levelo_inurba_marseille","lat":43.29513,"lon":5.39048,"is_reserved":false,"is_disabled":false,"rental_uris":{"android":"levelo://app?vid=396d51d9-e7bd-450d-b42a-e982a4ea3418","ios":"levelo://app?vid=396d51d9-e7bd-450d-b42a-e982a4ea3418"},"vehicle_type_id":"4","last_reported":1690159284,"current_range_meters":18400,"station_id":"ce4bh3p2rcd13ifvqdp0","pricing_plan_id":"free"},{"bike_id":"bbba1e83-0d97-48df-a458-0e6b89a2fe82","system_id":"levelo_inurba_marseille","lat":43.31027,"lon":5.4007,"is_reserved":false,"is_disabled":false,"rental_uris":{"android":"levelo://app?vid=bbba1e83-0d97-48df-a458-0e6b89a2fe82","ios":"levelo://app?vid=bbba1e83-0d97-48df-a458-0e6b89a2fe82"},"vehicle_type_id":"4","last_reported":1690159284,"current_range_meters":20800,"station_id":"ce4bh012rcd13ifvqd00","pricing_plan_id":"free"},{"bike_id":"a94e64af-3e4f-4306-9ce1-b0fd1051b055","system_id":"levelo_inurba_marseille","lat":43.29022,"lon":5.38134,"is_reserved":false,"is_disabled":false,"rental_uris":{"android":"levelo://app?vid=a94e64af-3e4f-4306-9ce1-b0fd1051b055","ios":"levelo://app?vid=a94e64af-3e4f-4306-9ce1-b0fd1051b055"},"vehicle_type_id":"4","last_reported":1690159284,"current_range_meters":31200,"station_id":"ce4bh4p2rcd13ifvqe1g","pricing_plan_id":"free"},{"bike_id":"691ef714-8d24-4695-9801-a68341b50c0e","system_id":"levelo_inurba_marseille","lat":43.2902,"lon":5.381283,"is_reserved":false,"is_disabled":false,"rental_uris":{"android":"levelo://app?vid=691ef714-8d24-4695-9801-a68341b50c0e","ios":"levelo://app?vid=691ef714-8d24-4695-9801-a68341b50c0e"},"vehicle_type_id":"4","last_reported":1690159284,"current_range_meters":28000,"station_id":"ce4bh4p2rcd13ifvqe1g","pricing_plan_id":"free"},{"bike_id":"770d0e8a-af91-43a1-98f3-5c799276c483","system_id":"levelo_inurba_marseille","lat":43.28861,"lon":5.35847,"is_reserved":false,"is_disabled":false,"rental_uris":{"android":"levelo://app?vid=770d0e8a-af91-43a1-98f3-5c799276c483","ios":"levelo://app?vid=770d0e8a-af91-43a1-98f3-5c799276c483"},"vehicle_type_id":"4","last_reported":1690159284,"current_range_meters":30800,"station_id":"ce4bhb12rcd13ifvqem0","pricing_plan_id":"free"},{"bike_id":"5609758f-4102-49b9-a0e0-86af3359b638","system_id":"levelo_inurba_marseille","lat":43.29014,"lon":5.38142,"is_reserved":false,"is_disabled":false,"rental_uris":{"android":"levelo://app?vid=5609758f-4102-49b9-a0e0-86af3359b638","ios":"levelo://app?vid=5609758f-4102-49b9-a0e0-86af3359b638"},"vehicle_type_id":"4","last_reported":1690159284,"current_range_meters":31200,"station_id":"ce4bh4p2rcd13ifvqe1g","pricing_plan_id":"free"},{"bike_id":"6dd758f0-01f5-481e-a73f-8968786ee332","system_id":"levelo_inurba_marseille","lat":43.2901,"lon":5.381269,"is_reserved":false,"is_disabled":false,"rental_uris":{"android":"levelo://app?vid=6dd758f0-01f5-481e-a73f-8968786ee332","ios":"levelo://app?vid=6dd758f0-01f5-481e-a73f-8968786ee332"},"vehicle_type_id":"4","last_reported":1690159284,"current_range_meters":4800,"station_id":"ce4bh4p2rcd13ifvqe1g","pricing_plan_id":"free"},{"bike_id":"e479c59b-5f9c-4dd7-8f7a-eda97c814633","system_id":"levelo_inurba_marseille","lat":43.29012,"lon":5.38152,"is_reserved":false,"is_disabled":false,"rental_uris":{"android":"levelo://app?vid=e479c59b-5f9c-4dd7-8f7a-eda97c814633","ios":"levelo://app?vid=e479c59b-5f9c-4dd7-8f7a-eda97c814633"},"vehicle_type_id":"4","last_reported":1690159284,"current_range_meters":18800,"station_id":"ce4bh4p2rcd13ifvqe1g","pricing_plan_id":"free"},{"bike_id":"9d2ba6b2-920c-47d5-9316-be74727ab0ec","system_id":"levelo_inurba_marseille","lat":43.312609,"lon":5.401662,"is_reserved":false,"is_disabled":false,"rental_uris":{"android":"levelo://app?vid=9d2ba6b2-920c-47d5-9316-be74727ab0ec","ios":"levelo://app?vid=9d2ba6b2-920c-47d5-9316-be74727ab0ec"},"vehicle_type_id":"4","last_reported":1690159284,"current_range_meters":0,"station_id":"ce4bh092rcd13ifvqd30","pricing_plan_id":"free"},{"bike_id":"16071cbf-b98a-4fba-b3ea-1dcd6aa9fe3c","system_id":"levelo_inurba_marseille","lat":43.309371,"lon":5.401449,"is_reserved":false,"is_disabled":false,"rental_uris":{"android":"levelo://app?vid=16071cbf-b98a-4fba-b3ea-1dcd6aa9fe3c","ios":"levelo://app?vid=16071cbf-b98a-4fba-b3ea-1dcd6aa9fe3c"},"vehicle_type_id":"4","last_reported":1690159284,"current_range_meters":2400,"station_id":"ce4bgvp2rcd13ifvqct0","pricing_plan_id":"free"},{"bike_id":"bbeb8e04-3620-4914-8b6f-e3393380b8f4","system_id":"levelo_inurba_marseille","lat":43.30642,"lon":5.401031,"is_reserved":false,"is_disabled":false,"rental_uris":{"android":"levelo://app?vid=bbeb8e04-3620-4914-8b6f-e3393380b8f4","ios":"levelo://app?vid=bbeb8e04-3620-4914-8b6f-e3393380b8f4"},"vehicle_type_id":"4","last_reported":1690159284,"current_range_meters":18800,"station_id":"ce4bh112rcd13ifvqda0","pricing_plan_id":"free"},{"bike_id":"cb71939c-36d7-497c-89eb-fdf6cc9dbae3","system_id":"levelo_inurba_marseille","lat":43.33751,"lon":5.3748,"is_reserved":false,"is_disabled":false,"rental_uris":{"android":"levelo://app?vid=cb71939c-36d7-497c-89eb-fdf6cc9dbae3","ios":"levelo://app?vid=cb71939c-36d7-497c-89eb-fdf6cc9dbae3"},"vehicle_type_id":"4","last_reported":1690159284,"current_range_meters":31200,"station_id":"","pricing_plan_id":"free"},{"bike_id":"4867b63f-1a06-4f1f-9012-e31ab4c904b7","system_id":"levelo_inurba_marseille","lat":43.30649,"lon":5.40081,"is_reserved":false,"is_disabled":false,"rental_uris":{"android":"levelo://app?vid=4867b63f-1a06-4f1f-9012-e31ab4c904b7","ios":"levelo://app?vid=4867b63f-1a06-4f1f-9012-e31ab4c904b7"},"vehicle_type_id":"4","last_reported":1690159284,"current_range_meters":1600,"station_id":"ce4bh112rcd13ifvqda0","pricing_plan_id":"free"},{"bike_id":"c0ef2fa4-2dde-45cc-98a4-ec837243d47c","system_id":"levelo_inurba_marseille","lat":43.33753,"lon":5.37479,"is_reserved":false,"is_disabled":false,"rental_uris":{"android":"levelo://app?vid=c0ef2fa4-2dde-45cc-98a4-ec837243d47c","ios":"levelo://app?vid=c0ef2fa4-2dde-45cc-98a4-ec837243d47c"},"vehicle_type_id":"4","last_reported":1690159284,"current_range_meters":30800,"station_id":"","pricing_plan_id":"free"},{"bike_id":"54520368-5c42-49f2-8107-0cb56039e4dd","system_id":"levelo_inurba_marseille","lat":43.30642,"lon":5.401031,"is_reserved":false,"is_disabled":false,"rental_uris":{"android":"levelo://app?vid=54520368-5c42-49f2-8107-0cb56039e4dd","ios":"levelo://app?vid=54520368-5c42-49f2-8107-0cb56039e4dd"},"vehicle_type_id":"4","last_reported":1690159284,"current_range_meters":29600,"station_id":"ce4bh112rcd13ifvqda0","pricing_plan_id":"free"},{"bike_id":"7fa1455a-d2b3-4f47-99f7-40cfb73d1b92","system_id":"levelo_inurba_marseille","lat":43.30651,"lon":5.40086,"is_reserved":false,"is_disabled":false,"rental_uris":{"android":"levelo://app?vid=7fa1455a-d2b3-4f47-99f7-40cfb73d1b92","ios":"levelo://app?vid=7fa1455a-d2b3-4f47-99f7-40cfb73d1b92"},"vehicle_type_id":"4","last_reported":1690159284,"current_range_meters":5200,"station_id":"ce4bh112rcd13ifvqda0","pricing_plan_id":"free"},{"bike_id":"0ca429df-7d5d-47a0-b350-13b523c72210","system_id":"levelo_inurba_marseille","lat":43.33756,"lon":5.37481,"is_reserved":false,"is_disabled":false,"rental_uris":{"android":"levelo://app?vid=0ca429df-7d5d-47a0-b350-13b523c72210","ios":"levelo://app?vid=0ca429df-7d5d-47a0-b350-13b523c72210"},"vehicle_type_id":"4","last_reported":1690159284,"current_range_meters":14400,"station_id":"","pricing_plan_id":"free"},{"bike_id":"430ccdb4-f2f6-44e0-b296-ea8d594a246b","system_id":"levelo_inurba_marseille","lat":43.30642,"lon":5.401031,"is_reserved":false,"is_disabled":false,"rental_uris":{"android":"levelo://app?vid=430ccdb4-f2f6-44e0-b296-ea8d594a246b","ios":"levelo://app?vid=430ccdb4-f2f6-44e0-b296-ea8d594a246b"},"vehicle_type_id":"4","last_reported":1690159284,"current_range_meters":23600,"station_id":"ce4bh112rcd13ifvqda0","pricing_plan_id":"free"},{"bike_id":"9c2893fa-caea-40da-a40c-e881e0a007d3","system_id":"levelo_inurba_marseille","lat":43.33758,"lon":5.37481,"is_reserved":false,"is_disabled":false,"rental_uris":{"android":"levelo://app?vid=9c2893fa-caea-40da-a40c-e881e0a007d3","ios":"levelo://app?vid=9c2893fa-caea-40da-a40c-e881e0a007d3"},"vehicle_type_id":"4","last_reported":1690159284,"current_range_meters":9600,"station_id":"","pricing_plan_id":"free"},{"bike_id":"81f6a433-3650-4484-bf0a-f3e3562c75ed","system_id":"levelo_inurba_marseille","lat":43.30642,"lon":5.401031,"is_reserved":false,"is_disabled":false,"rental_uris":{"android":"levelo://app?vid=81f6a433-3650-4484-bf0a-f3e3562c75ed","ios":"levelo://app?vid=81f6a433-3650-4484-bf0a-f3e3562c75ed"},"vehicle_type_id":"4","last_reported":1690159284,"current_range_meters":24400,"station_id":"ce4bh112rcd13ifvqda0","pricing_plan_id":"free"},{"bike_id":"8458abfa-04f9-468a-8130-d8a3ee06255a","system_id":"levelo_inurba_marseille","lat":43.33756,"lon":5.37507,"is_reserved":false,"is_disabled":false,"rental_uris":{"android":"levelo://app?vid=8458abfa-04f9-468a-8130-d8a3ee06255a","ios":"levelo://app?vid=8458abfa-04f9-468a-8130-d8a3ee06255a"},"vehicle_type_id":"4","last_reported":1690159284,"current_range_meters":25600,"station_id":"","pricing_plan_id":"free"},{"bike_id":"fb511930-d4e0-429d-9c00-32613454ee50","system_id":"levelo_inurba_marseille","lat":43.33761,"lon":5.37482,"is_reserved":false,"is_disabled":false,"rental_uris":{"android":"levelo://app?vid=fb511930-d4e0-429d-9c00-32613454ee50","ios":"levelo://app?vid=fb511930-d4e0-429d-9c00-32613454ee50"},"vehicle_type_id":"4","last_reported":1690159284,"current_range_meters":19600,"station_id":"","pricing_plan_id":"free"},{"bike_id":"f437dca4-380b-4e0b-af2e-9f662258a860","system_id":"levelo_inurba_marseille","lat":43.33762,"lon":5.37488,"is_reserved":false,"is_disabled":false,"rental_uris":{"android":"levelo://app?vid=f437dca4-380b-4e0b-af2e-9f662258a860","ios":"levelo://app?vid=f437dca4-380b-4e0b-af2e-9f662258a860"},"vehicle_type_id":"4","last_reported":1690159284,"current_range_meters":25200,"station_id":"","pricing_plan_id":"free"},{"bike_id":"327e19eb-45a3-43c0-99db-ffa02d32deb8","system_id":"levelo_inurba_marseille","lat":43.30155,"lon":5.39852,"is_reserved":false,"is_disabled":false,"rental_uris":{"android":"levelo://app?vid=327e19eb-45a3-43c0-99db-ffa02d32deb8","ios":"levelo://app?vid=327e19eb-45a3-43c0-99db-ffa02d32deb8"},"vehicle_type_id":"4","last_reported":1690159284,"current_range_meters":24800,"station_id":"","pricing_plan_id":"free"},{"bike_id":"bd66e17b-f432-4384-8c39-0e7f663dbfd6","system_id":"levelo_inurba_marseille","lat":43.33773,"lon":5.37437,"is_reserved":false,"is_disabled":false,"rental_uris":{"android":"levelo://app?vid=bd66e17b-f432-4384-8c39-0e7f663dbfd6","ios":"levelo://app?vid=bd66e17b-f432-4384-8c39-0e7f663dbfd6"},"vehicle_type_id":"4","last_reported":1690159284,"current_range_meters":25600,"station_id":"","pricing_plan_id":"free"},{"bike_id":"7a4e2158-a2c0-4b31-8fa4-9589d6ba153c","system_id":"levelo_inurba_marseille","lat":43.306483,"lon":5.401009,"is_reserved":false,"is_disabled":false,"rental_uris":{"android":"levelo://app?vid=7a4e2158-a2c0-4b31-8fa4-9589d6ba153c","ios":"levelo://app?vid=7a4e2158-a2c0-4b31-8fa4-9589d6ba153c"},"vehicle_type_id":"4","last_reported":1690159284,"current_range_meters":1200,"station_id":"ce4bh112rcd13ifvqda0","pricing_plan_id":"free"},{"bike_id":"7ed65473-9ede-4dd7-83fe-c9c668a8f26c","system_id":"levelo_inurba_marseille","lat":43.3065,"lon":5.40102,"is_reserved":false,"is_disabled":false,"rental_uris":{"android":"levelo://app?vid=7ed65473-9ede-4dd7-83fe-c9c668a8f26c","ios":"levelo://app?vid=7ed65473-9ede-4dd7-83fe-c9c668a8f26c"},"vehicle_type_id":"4","last_reported":1690159284,"current_range_meters":17200,"station_id":"ce4bh112rcd13ifvqda0","pricing_plan_id":"free"},{"bike_id":"77baf2f1-2208-4ab1-9b06-ca7e3059cf0f","system_id":"levelo_inurba_marseille","lat":43.3377,"lon":5.37467,"is_reserved":false,"is_disabled":false,"rental_uris":{"android":"levelo://app?vid=77baf2f1-2208-4ab1-9b06-ca7e3059cf0f","ios":"levelo://app?vid=77baf2f1-2208-4ab1-9b06-ca7e3059cf0f"},"vehicle_type_id":"4","last_reported":1690159284,"current_range_meters":31600,"station_id":"","pricing_plan_id":"free"},{"bike_id":"6a6afcb4-851d-4ec3-a74b-c514459b3100","system_id":"levelo_inurba_marseille","lat":43.279742,"lon":5.38744,"is_reserved":false,"is_disabled":false,"rental_uris":{"android":"levelo://app?vid=6a6afcb4-851d-4ec3-a74b-c514459b3100","ios":"levelo://app?vid=6a6afcb4-851d-4ec3-a74b-c514459b3100"},"vehicle_type_id":"4","last_reported":1690159284,"current_range_meters":30800,"station_id":"ce4bhg12rcd13ifvqf80","pricing_plan_id":"free"},{"bike_id":"3329023b-72aa-4672-ae0a-e2aa12a43a23","system_id":"levelo_inurba_marseille","lat":43.28718,"lon":5.37369,"is_reserved":false,"is_disabled":false,"rental_uris":{"android":"levelo://app?vid=3329023b-72aa-4672-ae0a-e2aa12a43a23","ios":"levelo://app?vid=3329023b-72aa-4672-ae0a-e2aa12a43a23"},"vehicle_type_id":"4","last_reported":1690159284,"current_range_meters":31600,"station_id":"ce4bh3p2rcd13ifvqdq0","pricing_plan_id":"free"},{"bike_id":"dd5e2c46-4692-48da-896b-e969ce7dc677","system_id":"levelo_inurba_marseille","lat":43.298681,"lon":5.397225,"is_reserved":false,"is_disabled":false,"rental_uris":{"android":"levelo://app?vid=dd5e2c46-4692-48da-896b-e969ce7dc677","ios":"levelo://app?vid=dd5e2c46-4692-48da-896b-e969ce7dc677"},"vehicle_type_id":"4","last_reported":1690159284,"current_range_meters":28800,"station_id":"ce4bh0h2rcd13ifvqd50","pricing_plan_id":"free"},{"bike_id":"cf4e8189-b057-40da-b578-b12a93cb5a50","system_id":"levelo_inurba_marseille","lat":43.298681,"lon":5.397225,"is_reserved":false,"is_disabled":false,"rental_uris":{"android":"levelo://app?vid=cf4e8189-b057-40da-b578-b12a93cb5a50","ios":"levelo://app?vid=cf4e8189-b057-40da-b578-b12a93cb5a50"},"vehicle_type_id":"4","last_reported":1690159284,"current_range_meters":30800,"station_id":"ce4bh0h2rcd13ifvqd50","pricing_plan_id":"free"},{"bike_id":"b9e340bd-54fe-4621-b537-b72c77d65559","system_id":"levelo_inurba_marseille","lat":43.29883,"lon":5.39735,"is_reserved":false,"is_disabled":false,"rental_uris":{"android":"levelo://app?vid=b9e340bd-54fe-4621-b537-b72c77d65559","ios":"levelo://app?vid=b9e340bd-54fe-4621-b537-b72c77d65559"},"vehicle_type_id":"4","last_reported":1690159284,"current_range_meters":5200,"station_id":"ce4bh0h2rcd13ifvqd50","pricing_plan_id":"free"},{"bike_id":"c2064afb-3043-442d-a90a-2077afafee1c","system_id":"levelo_inurba_marseille","lat":43.29863,"lon":5.3972,"is_reserved":false,"is_disabled":false,"rental_uris":{"android":"levelo://app?vid=c2064afb-3043-442d-a90a-2077afafee1c","ios":"levelo://app?vid=c2064afb-3043-442d-a90a-2077afafee1c"},"vehicle_type_id":"4","last_reported":1690159284,"current_range_meters":29600,"station_id":"ce4bh0h2rcd13ifvqd50","pricing_plan_id":"free"},{"bike_id":"80142bc6-428f-4242-a276-cc1f6dc6272c","system_id":"levelo_inurba_marseille","lat":43.29878,"lon":5.39735,"is_reserved":false,"is_disabled":false,"rental_uris":{"android":"levelo://app?vid=80142bc6-428f-4242-a276-cc1f6dc6272c","ios":"levelo://app?vid=80142bc6-428f-4242-a276-cc1f6dc6272c"},"vehicle_type_id":"4","last_reported":1690159284,"current_range_meters":28000,"station_id":"ce4bh0h2rcd13ifvqd50","pricing_plan_id":"free"},{"bike_id":"10026be1-c086-4b36-b285-0e2e8e4f2c13","system_id":"levelo_inurba_marseille","lat":43.28666,"lon":5.36356,"is_reserved":false,"is_disabled":false,"rental_uris":{"android":"levelo://app?vid=10026be1-c086-4b36-b285-0e2e8e4f2c13","ios":"levelo://app?vid=10026be1-c086-4b36-b285-0e2e8e4f2c13"},"vehicle_type_id":"4","last_reported":1690159284,"current_range_meters":22800,"station_id":"ce4bhah2rcd13ifvqej0","pricing_plan_id":"free"},{"bike_id":"1bff84b8-a014-49a6-9d1f-a77c4e4b4147","system_id":"levelo_inurba_marseille","lat":43.28703,"lon":5.37386,"is_reserved":false,"is_disabled":false,"rental_uris":{"android":"levelo://app?vid=1bff84b8-a014-49a6-9d1f-a77c4e4b4147","ios":"levelo://app?vid=1bff84b8-a014-49a6-9d1f-a77c4e4b4147"},"vehicle_type_id":"4","last_reported":1690159284,"current_range_meters":30000,"station_id":"ce4bh3p2rcd13ifvqdq0","pricing_plan_id":"free"},{"bike_id":"5ebb592e-0ac7-4f0f-8644-7b5b86b41477","system_id":"levelo_inurba_marseille","lat":43.298681,"lon":5.397225,"is_reserved":false,"is_disabled":false,"rental_uris":{"android":"levelo://app?vid=5ebb592e-0ac7-4f0f-8644-7b5b86b41477","ios":"levelo://app?vid=5ebb592e-0ac7-4f0f-8644-7b5b86b41477"},"vehicle_type_id":"4","last_reported":1690159284,"current_range_meters":31200,"station_id":"ce4bh0h2rcd13ifvqd50","pricing_plan_id":"free"},{"bike_id":"af1f6051-ece0-4a07-aca9-78928fd0b6b7","system_id":"levelo_inurba_marseille","lat":43.28665,"lon":5.3636,"is_reserved":false,"is_disabled":false,"rental_uris":{"android":"levelo://app?vid=af1f6051-ece0-4a07-aca9-78928fd0b6b7","ios":"levelo://app?vid=af1f6051-ece0-4a07-aca9-78928fd0b6b7"},"vehicle_type_id":"4","last_reported":1690159284,"current_range_meters":0,"station_id":"ce4bhah2rcd13ifvqej0","pricing_plan_id":"free"},{"bike_id":"afb59fb5-f9bb-4ab2-9432-41b917c813e2","system_id":"levelo_inurba_marseille","lat":43.286591,"lon":5.363346,"is_reserved":false,"is_disabled":false,"rental_uris":{"android":"levelo://app?vid=afb59fb5-f9bb-4ab2-9432-41b917c813e2","ios":"levelo://app?vid=afb59fb5-f9bb-4ab2-9432-41b917c813e2"},"vehicle_type_id":"4","last_reported":1690159284,"current_range_meters":2800,"station_id":"ce4bhah2rcd13ifvqej0","pricing_plan_id":"free"},{"bike_id":"040cd3ab-2135-422c-a40e-5a957a3935dd","system_id":"levelo_inurba_marseille","lat":43.286591,"lon":5.363346,"is_reserved":false,"is_disabled":false,"rental_uris":{"android":"levelo://app?vid=040cd3ab-2135-422c-a40e-5a957a3935dd","ios":"levelo://app?vid=040cd3ab-2135-422c-a40e-5a957a3935dd"},"vehicle_type_id":"4","last_reported":1690159284,"current_range_meters":17600,"station_id":"ce4bhah2rcd13ifvqej0","pricing_plan_id":"free"},{"bike_id":"54fdd39d-758c-4e25-8c33-c4a98d3d79e3","system_id":"levelo_inurba_marseille","lat":43.286593,"lon":5.363346,"is_reserved":false,"is_disabled":false,"rental_uris":{"android":"levelo://app?vid=54fdd39d-758c-4e25-8c33-c4a98d3d79e3","ios":"levelo://app?vid=54fdd39d-758c-4e25-8c33-c4a98d3d79e3"},"vehicle_type_id":"4","last_reported":1690159284,"current_range_meters":31200,"station_id":"ce4bhah2rcd13ifvqej0","pricing_plan_id":"free"},{"bike_id":"2ecd97ee-b54c-4301-816f-82241b66f38c","system_id":"levelo_inurba_marseille","lat":43.298681,"lon":5.397225,"is_reserved":false,"is_disabled":false,"rental_uris":{"android":"levelo://app?vid=2ecd97ee-b54c-4301-816f-82241b66f38c","ios":"levelo://app?vid=2ecd97ee-b54c-4301-816f-82241b66f38c"},"vehicle_type_id":"4","last_reported":1690159284,"current_range_meters":28400,"station_id":"ce4bh0h2rcd13ifvqd50","pricing_plan_id":"free"},{"bike_id":"a3df6102-8cfb-40f8-845c-0de6ec9b283f","system_id":"levelo_inurba_marseille","lat":43.286593,"lon":5.363346,"is_reserved":false,"is_disabled":false,"rental_uris":{"android":"levelo://app?vid=a3df6102-8cfb-40f8-845c-0de6ec9b283f","ios":"levelo://app?vid=a3df6102-8cfb-40f8-845c-0de6ec9b283f"},"vehicle_type_id":"4","last_reported":1690159284,"current_range_meters":27200,"station_id":"ce4bhah2rcd13ifvqej0","pricing_plan_id":"free"},{"bike_id":"16d95ea6-df51-41ce-9ac1-b08637ac0abb","system_id":"levelo_inurba_marseille","lat":43.286591,"lon":5.363346,"is_reserved":false,"is_disabled":false,"rental_uris":{"android":"levelo://app?vid=16d95ea6-df51-41ce-9ac1-b08637ac0abb","ios":"levelo://app?vid=16d95ea6-df51-41ce-9ac1-b08637ac0abb"},"vehicle_type_id":"4","last_reported":1690159284,"current_range_meters":8800,"station_id":"ce4bhah2rcd13ifvqej0","pricing_plan_id":"free"},{"bike_id":"a44fb390-7b2e-47f9-b992-32bc4d1542f9","system_id":"levelo_inurba_marseille","lat":43.28699,"lon":5.37395,"is_reserved":false,"is_disabled":false,"rental_uris":{"android":"levelo://app?vid=a44fb390-7b2e-47f9-b992-32bc4d1542f9","ios":"levelo://app?vid=a44fb390-7b2e-47f9-b992-32bc4d1542f9"},"vehicle_type_id":"4","last_reported":1690159284,"current_range_meters":24400,"station_id":"ce4bh3p2rcd13ifvqdq0","pricing_plan_id":"free"},{"bike_id":"c8084d20-8ef8-49bf-bf5b-a0a61fbdaa5e","system_id":"levelo_inurba_marseille","lat":43.29872,"lon":5.39743,"is_reserved":false,"is_disabled":false,"rental_uris":{"android":"levelo://app?vid=c8084d20-8ef8-49bf-bf5b-a0a61fbdaa5e","ios":"levelo://app?vid=c8084d20-8ef8-49bf-bf5b-a0a61fbdaa5e"},"vehicle_type_id":"4","last_reported":1690159284,"current_range_meters":23200,"station_id":"ce4bh0h2rcd13ifvqd50","pricing_plan_id":"free"},{"bike_id":"8b78a3e5-69cd-4678-b1bb-ecfe641e38d5","system_id":"levelo_inurba_marseille","lat":43.28697,"lon":5.37393,"is_reserved":false,"is_disabled":false,"rental_uris":{"android":"levelo://app?vid=8b78a3e5-69cd-4678-b1bb-ecfe641e38d5","ios":"levelo://app?vid=8b78a3e5-69cd-4678-b1bb-ecfe641e38d5"},"vehicle_type_id":"4","last_reported":1690159284,"current_range_meters":26800,"station_id":"ce4bh3p2rcd13ifvqdq0","pricing_plan_id":"free"},{"bike_id":"a5018485-e660-4992-87a8-2da1cb13cb31","system_id":"levelo_inurba_marseille","lat":43.29861,"lon":5.39737,"is_reserved":false,"is_disabled":false,"rental_uris":{"android":"levelo://app?vid=a5018485-e660-4992-87a8-2da1cb13cb31","ios":"levelo://app?vid=a5018485-e660-4992-87a8-2da1cb13cb31"},"vehicle_type_id":"4","last_reported":1690159284,"current_range_meters":31200,"station_id":"ce4bh0h2rcd13ifvqd50","pricing_plan_id":"free"},{"bike_id":"22812df6-8cf0-431d-8b0d-d47fdbb3b97e","system_id":"levelo_inurba_marseille","lat":43.28695,"lon":5.37392,"is_reserved":false,"is_disabled":false,"rental_uris":{"android":"levelo://app?vid=22812df6-8cf0-431d-8b0d-d47fdbb3b97e","ios":"levelo://app?vid=22812df6-8cf0-431d-8b0d-d47fdbb3b97e"},"vehicle_type_id":"4","last_reported":1690159284,"current_range_meters":31200,"station_id":"ce4bh3p2rcd13ifvqdq0","pricing_plan_id":"free"},{"bike_id":"30e74391-4b76-4e76-b6ba-5f66710e68fc","system_id":"levelo_inurba_marseille","lat":43.28656,"lon":5.36355,"is_reserved":false,"is_disabled":false,"rental_uris":{"android":"levelo://app?vid=30e74391-4b76-4e76-b6ba-5f66710e68fc","ios":"levelo://app?vid=30e74391-4b76-4e76-b6ba-5f66710e68fc"},"vehicle_type_id":"4","last_reported":1690159284,"current_range_meters":30800,"station_id":"ce4bhah2rcd13ifvqej0","pricing_plan_id":"free"},{"bike_id":"a890602d-3e3e-4b95-aee9-0b224adaf176","system_id":"levelo_inurba_marseille","lat":43.28695,"lon":5.37398,"is_reserved":false,"is_disabled":false,"rental_uris":{"android":"levelo://app?vid=a890602d-3e3e-4b95-aee9-0b224adaf176","ios":"levelo://app?vid=a890602d-3e3e-4b95-aee9-0b224adaf176"},"vehicle_type_id":"4","last_reported":1690159284,"current_range_meters":22000,"station_id":"ce4bh3p2rcd13ifvqdq0","pricing_plan_id":"free"},{"bike_id":"01352e18-e0ff-4f87-b5b0-eb9f523f006d","system_id":"levelo_inurba_marseille","lat":43.298681,"lon":5.397225,"is_reserved":false,"is_disabled":false,"rental_uris":{"android":"levelo://app?vid=01352e18-e0ff-4f87-b5b0-eb9f523f006d","ios":"levelo://app?vid=01352e18-e0ff-4f87-b5b0-eb9f523f006d"},"vehicle_type_id":"4","last_reported":1690159284,"current_range_meters":29200,"station_id":"ce4bh0h2rcd13ifvqd50","pricing_plan_id":"free"},{"bike_id":"1e4dd615-56d5-4946-98a0-650266563dc5","system_id":"levelo_inurba_marseille","lat":43.29525,"lon":5.39403,"is_reserved":false,"is_disabled":false,"rental_uris":{"android":"levelo://app?vid=1e4dd615-56d5-4946-98a0-650266563dc5","ios":"levelo://app?vid=1e4dd615-56d5-4946-98a0-650266563dc5"},"vehicle_type_id":"4","last_reported":1690159284,"current_range_meters":1600,"station_id":"ce4bh292rcd13ifvqdf0","pricing_plan_id":"free"},{"bike_id":"1ce01036-33ab-40b8-b9be-9a14905c93a1","system_id":"levelo_inurba_marseille","lat":43.29523,"lon":5.39411,"is_reserved":false,"is_disabled":false,"rental_uris":{"android":"levelo://app?vid=1ce01036-33ab-40b8-b9be-9a14905c93a1","ios":"levelo://app?vid=1ce01036-33ab-40b8-b9be-9a14905c93a1"},"vehicle_type_id":"4","last_reported":1690159284,"current_range_meters":31200,"station_id":"ce4bh292rcd13ifvqdf0","pricing_plan_id":"free"},{"bike_id":"7d652681-53ea-4121-95c9-86d2c43d5612","system_id":"levelo_inurba_marseille","lat":43.295196,"lon":5.39397,"is_reserved":false,"is_disabled":false,"rental_uris":{"android":"levelo://app?vid=7d652681-53ea-4121-95c9-86d2c43d5612","ios":"levelo://app?vid=7d652681-53ea-4121-95c9-86d2c43d5612"},"vehicle_type_id":"4","last_reported":1690159284,"current_range_meters":10000,"station_id":"ce4bh292rcd13ifvqdf0","pricing_plan_id":"free"},{"bike_id":"97a14e4b-5082-4328-b3b3-aa2312cf53a8","system_id":"levelo_inurba_marseille","lat":43.295194,"lon":5.39397,"is_reserved":false,"is_disabled":false,"rental_uris":{"android":"levelo://app?vid=97a14e4b-5082-4328-b3b3-aa2312cf53a8","ios":"levelo://app?vid=97a14e4b-5082-4328-b3b3-aa2312cf53a8"},"vehicle_type_id":"4","last_reported":1690159284,"current_range_meters":2800,"station_id":"ce4bh292rcd13ifvqdf0","pricing_plan_id":"free"},{"bike_id":"b470a8a8-0fb3-48ec-b010-c6e3347c0c86","system_id":"levelo_inurba_marseille","lat":43.29521,"lon":5.39414,"is_reserved":false,"is_disabled":false,"rental_uris":{"android":"levelo://app?vid=b470a8a8-0fb3-48ec-b010-c6e3347c0c86","ios":"levelo://app?vid=b470a8a8-0fb3-48ec-b010-c6e3347c0c86"},"vehicle_type_id":"4","last_reported":1690159284,"current_range_meters":14000,"station_id":"ce4bh292rcd13ifvqdf0","pricing_plan_id":"free"},{"bike_id":"01583811-9705-4a03-a7a7-dfb763230362","system_id":"levelo_inurba_marseille","lat":43.29513,"lon":5.39407,"is_reserved":false,"is_disabled":false,"rental_uris":{"android":"levelo://app?vid=01583811-9705-4a03-a7a7-dfb763230362","ios":"levelo://app?vid=01583811-9705-4a03-a7a7-dfb763230362"},"vehicle_type_id":"4","last_reported":1690159284,"current_range_meters":18800,"station_id":"ce4bh292rcd13ifvqdf0","pricing_plan_id":"free"},{"bike_id":"50adeb39-909b-40ac-a589-60d316933250","system_id":"levelo_inurba_marseille","lat":43.295194,"lon":5.39397,"is_reserved":false,"is_disabled":false,"rental_uris":{"android":"levelo://app?vid=50adeb39-909b-40ac-a589-60d316933250","ios":"levelo://app?vid=50adeb39-909b-40ac-a589-60d316933250"},"vehicle_type_id":"4","last_reported":1690159284,"current_range_meters":15200,"station_id":"ce4bh292rcd13ifvqdf0","pricing_plan_id":"free"},{"bike_id":"106e151b-2ad5-4f40-a238-6f6b98d3ed39","system_id":"levelo_inurba_marseille","lat":43.29521,"lon":5.39418,"is_reserved":false,"is_disabled":false,"rental_uris":{"android":"levelo://app?vid=106e151b-2ad5-4f40-a238-6f6b98d3ed39","ios":"levelo://app?vid=106e151b-2ad5-4f40-a238-6f6b98d3ed39"},"vehicle_type_id":"4","last_reported":1690159284,"current_range_meters":21600,"station_id":"ce4bh292rcd13ifvqdf0","pricing_plan_id":"free"},{"bike_id":"41360944-aff9-4b77-9435-c10c07035d90","system_id":"levelo_inurba_marseille","lat":43.29036,"lon":5.38649,"is_reserved":false,"is_disabled":false,"rental_uris":{"android":"levelo://app?vid=41360944-aff9-4b77-9435-c10c07035d90","ios":"levelo://app?vid=41360944-aff9-4b77-9435-c10c07035d90"},"vehicle_type_id":"4","last_reported":1690159284,"current_range_meters":31200,"station_id":"ce4bh4p2rcd13ifvqe0g","pricing_plan_id":"free"},{"bike_id":"1518e1ad-cfc8-4c07-a7f6-8526b9ccd420","system_id":"levelo_inurba_marseille","lat":43.298681,"lon":5.397225,"is_reserved":false,"is_disabled":false,"rental_uris":{"android":"levelo://app?vid=1518e1ad-cfc8-4c07-a7f6-8526b9ccd420","ios":"levelo://app?vid=1518e1ad-cfc8-4c07-a7f6-8526b9ccd420"},"vehicle_type_id":"4","last_reported":1690159284,"current_range_meters":31200,"station_id":"ce4bh0h2rcd13ifvqd50","pricing_plan_id":"free"},{"bike_id":"9b29ce20-43c5-4a73-8dd8-f3c4aeab3874","system_id":"levelo_inurba_marseille","lat":43.29029,"lon":5.3864,"is_reserved":false,"is_disabled":false,"rental_uris":{"android":"levelo://app?vid=9b29ce20-43c5-4a73-8dd8-f3c4aeab3874","ios":"levelo://app?vid=9b29ce20-43c5-4a73-8dd8-f3c4aeab3874"},"vehicle_type_id":"4","last_reported":1690159284,"current_range_meters":30000,"station_id":"ce4bh4p2rcd13ifvqe0g","pricing_plan_id":"free"},{"bike_id":"b9913462-2624-4bac-9750-4c037615c616","system_id":"levelo_inurba_marseille","lat":43.29031,"lon":5.38647,"is_reserved":false,"is_disabled":false,"rental_uris":{"android":"levelo://app?vid=b9913462-2624-4bac-9750-4c037615c616","ios":"levelo://app?vid=b9913462-2624-4bac-9750-4c037615c616"},"vehicle_type_id":"4","last_reported":1690159284,"current_range_meters":31200,"station_id":"ce4bh4p2rcd13ifvqe0g","pricing_plan_id":"free"},{"bike_id":"c00f8da0-52d3-402a-a232-2e488839b5a5","system_id":"levelo_inurba_marseille","lat":43.29035,"lon":5.38656,"is_reserved":false,"is_disabled":false,"rental_uris":{"android":"levelo://app?vid=c00f8da0-52d3-402a-a232-2e488839b5a5","ios":"levelo://app?vid=c00f8da0-52d3-402a-a232-2e488839b5a5"},"vehicle_type_id":"4","last_reported":1690159284,"current_range_meters":28400,"station_id":"ce4bh4p2rcd13ifvqe0g","pricing_plan_id":"free"},{"bike_id":"f7b64da0-c2be-4b34-87b2-5aadc359e970","system_id":"levelo_inurba_marseille","lat":43.29031,"lon":5.38652,"is_reserved":false,"is_disabled":false,"rental_uris":{"android":"levelo://app?vid=f7b64da0-c2be-4b34-87b2-5aadc359e970","ios":"levelo://app?vid=f7b64da0-c2be-4b34-87b2-5aadc359e970"},"vehicle_type_id":"4","last_reported":1690159284,"current_range_meters":31200,"station_id":"ce4bh4p2rcd13ifvqe0g","pricing_plan_id":"free"},{"bike_id":"9e54c921-7d93-459f-9f2e-84aa2e500209","system_id":"levelo_inurba_marseille","lat":43.30257,"lon":5.40068,"is_reserved":false,"is_disabled":false,"rental_uris":{"android":"levelo://app?vid=9e54c921-7d93-459f-9f2e-84aa2e500209","ios":"levelo://app?vid=9e54c921-7d93-459f-9f2e-84aa2e500209"},"vehicle_type_id":"4","last_reported":1690159284,"current_range_meters":31200,"station_id":"ce4bgvh2rcd13ifvqcs0","pricing_plan_id":"free"},{"bike_id":"72a9558c-bf27-4495-a510-f568b050d782","system_id":"levelo_inurba_marseille","lat":43.29026,"lon":5.38649,"is_reserved":false,"is_disabled":false,"rental_uris":{"android":"levelo://app?vid=72a9558c-bf27-4495-a510-f568b050d782","ios":"levelo://app?vid=72a9558c-bf27-4495-a510-f568b050d782"},"vehicle_type_id":"4","last_reported":1690159284,"current_range_meters":31200,"station_id":"ce4bh4p2rcd13ifvqe0g","pricing_plan_id":"free"},{"bike_id":"4e41e9b3-7cb1-41b5-a3e0-ccdce4d190ee","system_id":"levelo_inurba_marseille","lat":43.30259,"lon":5.40073,"is_reserved":false,"is_disabled":false,"rental_uris":{"android":"levelo://app?vid=4e41e9b3-7cb1-41b5-a3e0-ccdce4d190ee","ios":"levelo://app?vid=4e41e9b3-7cb1-41b5-a3e0-ccdce4d190ee"},"vehicle_type_id":"4","last_reported":1690159284,"current_range_meters":27600,"station_id":"ce4bgvh2rcd13ifvqcs0","pricing_plan_id":"free"},{"bike_id":"ec563eb1-045f-43b6-a601-c528374b90bc","system_id":"levelo_inurba_marseille","lat":43.302759,"lon":5.400793,"is_reserved":false,"is_disabled":false,"rental_uris":{"android":"levelo://app?vid=ec563eb1-045f-43b6-a601-c528374b90bc","ios":"levelo://app?vid=ec563eb1-045f-43b6-a601-c528374b90bc"},"vehicle_type_id":"4","last_reported":1690159284,"current_range_meters":24000,"station_id":"ce4bgvh2rcd13ifvqcs0","pricing_plan_id":"free"},{"bike_id":"bf68646c-b9b7-4b2e-88c2-b60996bb391f","system_id":"levelo_inurba_marseille","lat":43.302759,"lon":5.400793,"is_reserved":false,"is_disabled":false,"rental_uris":{"android":"levelo://app?vid=bf68646c-b9b7-4b2e-88c2-b60996bb391f","ios":"levelo://app?vid=bf68646c-b9b7-4b2e-88c2-b60996bb391f"},"vehicle_type_id":"4","last_reported":1690159284,"current_range_meters":19200,"station_id":"ce4bgvh2rcd13ifvqcs0","pricing_plan_id":"free"},{"bike_id":"add6dc9c-b2db-4e80-a1e4-a7ed3b29683b","system_id":"levelo_inurba_marseille","lat":43.30258,"lon":5.40077,"is_reserved":false,"is_disabled":false,"rental_uris":{"android":"levelo://app?vid=add6dc9c-b2db-4e80-a1e4-a7ed3b29683b","ios":"levelo://app?vid=add6dc9c-b2db-4e80-a1e4-a7ed3b29683b"},"vehicle_type_id":"4","last_reported":1690159284,"current_range_meters":22800,"station_id":"ce4bgvh2rcd13ifvqcs0","pricing_plan_id":"free"},{"bike_id":"eccfab34-1a30-41e5-ab12-1fb8a769fbfb","system_id":"levelo_inurba_marseille","lat":43.302759,"lon":5.400793,"is_reserved":false,"is_disabled":false,"rental_uris":{"android":"levelo://app?vid=eccfab34-1a30-41e5-ab12-1fb8a769fbfb","ios":"levelo://app?vid=eccfab34-1a30-41e5-ab12-1fb8a769fbfb"},"vehicle_type_id":"4","last_reported":1690159284,"current_range_meters":31200,"station_id":"ce4bgvh2rcd13ifvqcs0","pricing_plan_id":"free"},{"bike_id":"54ac2da6-295a-44f6-8e5d-5dc4395a1587","system_id":"levelo_inurba_marseille","lat":43.302759,"lon":5.400793,"is_reserved":false,"is_disabled":false,"rental_uris":{"android":"levelo://app?vid=54ac2da6-295a-44f6-8e5d-5dc4395a1587","ios":"levelo://app?vid=54ac2da6-295a-44f6-8e5d-5dc4395a1587"},"vehicle_type_id":"4","last_reported":1690159284,"current_range_meters":26400,"station_id":"ce4bgvh2rcd13ifvqcs0","pricing_plan_id":"free"},{"bike_id":"be9e6441-ddff-4403-b448-79a114b6b319","system_id":"levelo_inurba_marseille","lat":43.30252,"lon":5.40082,"is_reserved":false,"is_disabled":false,"rental_uris":{"android":"levelo://app?vid=be9e6441-ddff-4403-b448-79a114b6b319","ios":"levelo://app?vid=be9e6441-ddff-4403-b448-79a114b6b319"},"vehicle_type_id":"4","last_reported":1690159284,"current_range_meters":31200,"station_id":"ce4bgvh2rcd13ifvqcs0","pricing_plan_id":"free"},{"bike_id":"a26611e6-4243-4419-8a8f-02fe960da94e","system_id":"levelo_inurba_marseille","lat":43.302759,"lon":5.400793,"is_reserved":false,"is_disabled":false,"rental_uris":{"android":"levelo://app?vid=a26611e6-4243-4419-8a8f-02fe960da94e","ios":"levelo://app?vid=a26611e6-4243-4419-8a8f-02fe960da94e"},"vehicle_type_id":"4","last_reported":1690159284,"current_range_meters":20800,"station_id":"ce4bgvh2rcd13ifvqcs0","pricing_plan_id":"free"},{"bike_id":"a5288478-86c3-467f-b957-02c4ad767811","system_id":"levelo_inurba_marseille","lat":43.286039,"lon":5.370681,"is_reserved":false,"is_disabled":false,"rental_uris":{"android":"levelo://app?vid=a5288478-86c3-467f-b957-02c4ad767811","ios":"levelo://app?vid=a5288478-86c3-467f-b957-02c4ad767811"},"vehicle_type_id":"4","last_reported":1690159284,"current_range_meters":25200,"station_id":"ce4bht12rcd13ifvqi60","pricing_plan_id":"free"},{"bike_id":"8e0a888d-a9c3-4b43-98d6-1289583a2346","system_id":"levelo_inurba_marseille","lat":43.2861,"lon":5.37063,"is_reserved":false,"is_disabled":false,"rental_uris":{"android":"levelo://app?vid=8e0a888d-a9c3-4b43-98d6-1289583a2346","ios":"levelo://app?vid=8e0a888d-a9c3-4b43-98d6-1289583a2346"},"vehicle_type_id":"4","last_reported":1690159284,"current_range_meters":20800,"station_id":"ce4bht12rcd13ifvqi60","pricing_plan_id":"free"},{"bike_id":"d9575263-7ebd-4ecb-8aa2-aeed3552f664","system_id":"levelo_inurba_marseille","lat":43.2861,"lon":5.37065,"is_reserved":false,"is_disabled":false,"rental_uris":{"android":"levelo://app?vid=d9575263-7ebd-4ecb-8aa2-aeed3552f664","ios":"levelo://app?vid=d9575263-7ebd-4ecb-8aa2-aeed3552f664"},"vehicle_type_id":"4","last_reported":1690159284,"current_range_meters":31600,"station_id":"ce4bht12rcd13ifvqi60","pricing_plan_id":"free"},{"bike_id":"f8da0d23-6ebc-4c6d-b3f2-fd5a8665b78c","system_id":"levelo_inurba_marseille","lat":43.2872,"lon":5.37936,"is_reserved":false,"is_disabled":false,"rental_uris":{"android":"levelo://app?vid=f8da0d23-6ebc-4c6d-b3f2-fd5a8665b78c","ios":"levelo://app?vid=f8da0d23-6ebc-4c6d-b3f2-fd5a8665b78c"},"vehicle_type_id":"4","last_reported":1690159284,"current_range_meters":4800,"station_id":"ce4bh9p2rcd13ifvqec0","pricing_plan_id":"free"},{"bike_id":"838b337b-510b-4e57-bbaf-d7c2665f8fff","system_id":"levelo_inurba_marseille","lat":43.28719,"lon":5.37939,"is_reserved":false,"is_disabled":false,"rental_uris":{"android":"levelo://app?vid=838b337b-510b-4e57-bbaf-d7c2665f8fff","ios":"levelo://app?vid=838b337b-510b-4e57-bbaf-d7c2665f8fff"},"vehicle_type_id":"4","last_reported":1690159284,"current_range_meters":10400,"station_id":"ce4bh9p2rcd13ifvqec0","pricing_plan_id":"free"},{"bike_id":"32fe6a99-88ff-450b-afbc-210576a57166","system_id":"levelo_inurba_marseille","lat":43.28719,"lon":5.37941,"is_reserved":false,"is_disabled":false,"rental_uris":{"android":"levelo://app?vid=32fe6a99-88ff-450b-afbc-210576a57166","ios":"levelo://app?vid=32fe6a99-88ff-450b-afbc-210576a57166"},"vehicle_type_id":"4","last_reported":1690159284,"current_range_meters":3600,"station_id":"ce4bh9p2rcd13ifvqec0","pricing_plan_id":"free"},{"bike_id":"2e7ee303-1735-4a64-aeaa-09f1cc6a1089","system_id":"levelo_inurba_marseille","lat":43.287184,"lon":5.37937,"is_reserved":false,"is_disabled":false,"rental_uris":{"android":"levelo://app?vid=2e7ee303-1735-4a64-aeaa-09f1cc6a1089","ios":"levelo://app?vid=2e7ee303-1735-4a64-aeaa-09f1cc6a1089"},"vehicle_type_id":"4","last_reported":1690159284,"current_range_meters":31200,"station_id":"ce4bh9p2rcd13ifvqec0","pricing_plan_id":"free"},{"bike_id":"caf572d7-f72e-4bee-a82b-932b7a4727fa","system_id":"levelo_inurba_marseille","lat":43.287184,"lon":5.37937,"is_reserved":false,"is_disabled":false,"rental_uris":{"android":"levelo://app?vid=caf572d7-f72e-4bee-a82b-932b7a4727fa","ios":"levelo://app?vid=caf572d7-f72e-4bee-a82b-932b7a4727fa"},"vehicle_type_id":"4","last_reported":1690159284,"current_range_meters":21600,"station_id":"ce4bh9p2rcd13ifvqec0","pricing_plan_id":"free"},{"bike_id":"45fd554b-6b58-4eb1-9d83-b3d4b105c1b6","system_id":"levelo_inurba_marseille","lat":43.28712,"lon":5.37938,"is_reserved":false,"is_disabled":false,"rental_uris":{"android":"levelo://app?vid=45fd554b-6b58-4eb1-9d83-b3d4b105c1b6","ios":"levelo://app?vid=45fd554b-6b58-4eb1-9d83-b3d4b105c1b6"},"vehicle_type_id":"4","last_reported":1690159284,"current_range_meters":31200,"station_id":"ce4bh9p2rcd13ifvqec0","pricing_plan_id":"free"},