{"last_updated":1773876118,"ttl":60,"version":"2.2","data":{"bikes":[{"bike_id":"637368fe-b82c-4b92-9b6f-f88a7e6582af","system_id":"levelo_inurba_marseille","lat":43.302728,"lon":5.390397,"is_reserved":false,"is_disabled":false,"rental_uris":{"android":"levelo://app?vid=637368fe-b82c-4b92-9b6f-f88a7e6582af","ios":"levelo://app?vid=637368fe-b82c-4b92-9b6f-f88a7e6582af"},"vehicle_type_id":"4","last_reported":1773876119,"current_range_meters":2800,"station_id":"ce4bgkh2rcd13ifvqbk0","pricing_plan_id":"cebpf4jnsgd1na2vs0mg"},{"bike_id":"458f604b-e062-47bf-ac14-a001a31d10d8","system_id":"levelo_inurba_marseille","lat":43.28476,"lon":5.48389,"is_reserved":false,"is_disabled":false,"rental_uris":{"android":"levelo://app?vid=458f604b-e062-47bf-ac14-a001a31d10d8","ios":"levelo://app?vid=458f604b-e062-47bf-ac14-a001a31d10d8"},"vehicle_type_id":"4","last_reported":1773876119,"current_range_meters":2800,"station_id":"","pricing_plan_id":"cebpf4jnsgd1na2vs0mg"},{"bike_id":"818d39ad-1c67-4215-b747-ac27ddc8e8e8","system_id":"levelo_inurba_marseille","lat":43.23165,"lon":5.35454,"is_reserved":false,"is_disabled":false,"rental_uris":{"android":"levelo://app?vid=818d39ad-1c67-4215-b747-ac27ddc8e8e8","ios":"levelo://app?vid=818d39ad-1c67-4215-b747-ac27ddc8e8e8"},"vehicle_type_id":"4","last_reported":1773876119,"current_range_meters":2800,"station_id":"","pricing_plan_id":"cebpf4jnsgd1na2vs0mg"},{"bike_id":"01eaa32e-1702-4288-9ef4-adb775f51620","system_id":"levelo_inurba_marseille","lat":43.31234,"lon":5.41365,"is_reserved":false,"is_disabled":false,"rental_uris":{"android":"levelo://app?vid=01eaa32e-1702-4288-9ef4-adb775f51620","ios":"levelo://app?vid=01eaa32e-1702-4288-9ef4-adb775f51620"},"vehicle_type_id":"4","last_reported":1773876119,"current_range_meters":2800,"station_id":"","pricing_plan_id":"cebpf4jnsgd1na2vs0mg"},{"bike_id":"4eca5809-5573-477a-b5b4-ab8f5c84ba9d","system_id":"levelo_inurba_marseille","lat":43.2872,"lon":5.37398,"is_reserved":false,"is_disabled":false,"rental_uris":{"android":"levelo://app?vid=4eca5809-5573-477a-b5b4-ab8f5c84ba9d","ios":"levelo://app?vid=4eca5809-5573-477a-b5b4-ab8f5c84ba9d"},"vehicle_type_id":"4","last_reported":1773876119,"current_range_meters":2800,"station_id":"ce4bh3p2rcd13ifvqdq0","pricing_plan_id":"cebpf4jnsgd1na2vs0mg"},{"bike_id":"3371511c-01bf-483e-8a54-a77adf82ca04","system_id":"levelo_inurba_marseille","lat":43.29558,"lon":5.39025,"is_reserved":false,"is_disabled":false,"rental_uris":{"android":"levelo://app?vid=3371511c-01bf-483e-8a54-a77adf82ca04","ios":"levelo://app?vid=3371511c-01bf-483e-8a54-a77adf82ca04"},"vehicle_type_id":"4","last_reported":1773876119,"current_range_meters":2800,"station_id":"ce4bh3p2rcd13ifvqdp0","pricing_plan_id":"cebpf4jnsgd1na2vs0mg"},{"bike_id":"556c6b0c-dd9e-4f4f-8816-8e6b127f4ad6","system_id":"levelo_inurba_marseille","lat":43.30951,"lon":5.37894,"is_reserved":false,"is_disabled":false,"rental_uris":{"android":"levelo://app?vid=556c6b0c-dd9e-4f4f-8816-8e6b127f4ad6","ios":"levelo://app?vid=556c6b0c-dd9e-4f4f-8816-8e6b127f4ad6"},"vehicle_type_id":"4","last_reported":1773876119,"current_range_meters":2800,"station_id":"","pricing_plan_id":"cebpf4jnsgd1na2vs0mg"},{"bike_id":"53d5a6f2-d53f-487c-9fee-e56ff0f2a1a5","system_id":"levelo_inurba_marseille","lat":43.23383,"lon":5.41236,"is_reserved":false,"is_disabled":false,"rental_uris":{"android":"levelo://app?vid=53d5a6f2-d53f-487c-9fee-e56ff0f2a1a5","ios":"levelo://app?vid=53d5a6f2-d53f-487c-9fee-e56ff0f2a1a5"},"vehicle_type_id":"4","last_reported":1773876119,"current_range_meters":2800,"station_id":"","pricing_plan_id":"cebpf4jnsgd1na2vs0mg"},{"bike_id":"ff4d60f5-767c-4ae3-b27e-dfea0c87e749","system_id":"levelo_inurba_marseille","lat":43.22923,"lon":5.35433,"is_reserved":false,"is_disabled":false,"rental_uris":{"android":"levelo://app?vid=ff4d60f5-767c-4ae3-b27e-dfea0c87e749","ios":"levelo://app?vid=ff4d60f5-767c-4ae3-b27e-dfea0c87e749"},"vehicle_type_id":"4","last_reported":1773876119,"current_range_meters":2800,"station_id":"cpo3532slgdg3j2ikp40","pricing_plan_id":"cebpf4jnsgd1na2vs0mg"},{"bike_id":"c3fe919d-b06c-478d-8622-c3c9b118e615","system_id":"levelo_inurba_marseille","lat":43.31304,"lon":5.39732,"is_reserved":false,"is_disabled":false,"rental_uris":{"android":"levelo://app?vid=c3fe919d-b06c-478d-8622-c3c9b118e615","ios":"levelo://app?vid=c3fe919d-b06c-478d-8622-c3c9b118e615"},"vehicle_type_id":"4","last_reported":1773876119,"current_range_meters":3200,"station_id":"ce4bgvp2rcd13ifvqcu0","pricing_plan_id":"cebpf4jnsgd1na2vs0mg"},{"bike_id":"77f82e91-30b6-4c8c-a0ef-dfcf78d748db","system_id":"levelo_inurba_marseille","lat":43.28859,"lon":5.42528,"is_reserved":false,"is_disabled":false,"rental_uris":{"android":"levelo://app?vid=77f82e91-30b6-4c8c-a0ef-dfcf78d748db","ios":"levelo://app?vid=77f82e91-30b6-4c8c-a0ef-dfcf78d748db"},"vehicle_type_id":"4","last_reported":1773876119,"current_range_meters":3200,"station_id":"","pricing_plan_id":"cebpf4jnsgd1na2vs0mg"},{"bike_id":"d9f68a66-aa52-464b-923f-9c77324e6b43","system_id":"levelo_inurba_marseille","lat":43.27579,"lon":5.38414,"is_reserved":false,"is_disabled":false,"rental_uris":{"android":"levelo://app?vid=d9f68a66-aa52-464b-923f-9c77324e6b43","ios":"levelo://app?vid=d9f68a66-aa52-464b-923f-9c77324e6b43"},"vehicle_type_id":"4","last_reported":1773876119,"current_range_meters":3200,"station_id":"ce4bhh92rcd13ifvqfi0","pricing_plan_id":"cebpf4jnsgd1na2vs0mg"},{"bike_id":"50de3b6b-38f5-44ec-a80e-69668f01c515","system_id":"levelo_inurba_marseille","lat":43.29761,"lon":5.42811,"is_reserved":false,"is_disabled":false,"rental_uris":{"android":"levelo://app?vid=50de3b6b-38f5-44ec-a80e-69668f01c515","ios":"levelo://app?vid=50de3b6b-38f5-44ec-a80e-69668f01c515"},"vehicle_type_id":"4","last_reported":1773876119,"current_range_meters":3200,"station_id":"st_d3md5207bmas73dh9klg","pricing_plan_id":"cebpf4jnsgd1na2vs0mg"},{"bike_id":"d9d3c79f-84fe-4e44-831f-c2b99f31301b","system_id":"levelo_inurba_marseille","lat":43.28734,"lon":5.39982,"is_reserved":false,"is_disabled":false,"rental_uris":{"android":"levelo://app?vid=d9d3c79f-84fe-4e44-831f-c2b99f31301b","ios":"levelo://app?vid=d9d3c79f-84fe-4e44-831f-c2b99f31301b"},"vehicle_type_id":"4","last_reported":1773876119,"current_range_meters":3200,"station_id":"ce4bho92rcd13ifvqh3g","pricing_plan_id":"cebpf4jnsgd1na2vs0mg"},{"bike_id":"b2efec5f-ec0e-41f9-859c-9d6f1cd3e9ef","system_id":"levelo_inurba_marseille","lat":43.28672,"lon":5.36363,"is_reserved":false,"is_disabled":false,"rental_uris":{"android":"levelo://app?vid=b2efec5f-ec0e-41f9-859c-9d6f1cd3e9ef","ios":"levelo://app?vid=b2efec5f-ec0e-41f9-859c-9d6f1cd3e9ef"},"vehicle_type_id":"4","last_reported":1773876119,"current_range_meters":3200,"station_id":"ce4bhah2rcd13ifvqej0","pricing_plan_id":"cebpf4jnsgd1na2vs0mg"},{"bike_id":"d7e8d77f-bad8-482f-b62c-ab7a3f141468","system_id":"levelo_inurba_marseille","lat":43.28558,"lon":5.3952,"is_reserved":false,"is_disabled":false,"rental_uris":{"android":"levelo://app?vid=d7e8d77f-bad8-482f-b62c-ab7a3f141468","ios":"levelo://app?vid=d7e8d77f-bad8-482f-b62c-ab7a3f141468"},"vehicle_type_id":"4","last_reported":1773876119,"current_range_meters":3200,"station_id":"ce4bh292rcd13ifvqdg0","pricing_plan_id":"cebpf4jnsgd1na2vs0mg"},{"bike_id":"64e4942c-04ec-475a-8745-de522dcf5faa","system_id":"levelo_inurba_marseille","lat":43.22931,"lon":5.35371,"is_reserved":false,"is_disabled":false,"rental_uris":{"android":"levelo://app?vid=64e4942c-04ec-475a-8745-de522dcf5faa","ios":"levelo://app?vid=64e4942c-04ec-475a-8745-de522dcf5faa"},"vehicle_type_id":"4","last_reported":1773876119,"current_range_meters":3200,"station_id":"cpo3532slgdg3j2ikp40","pricing_plan_id":"cebpf4jnsgd1na2vs0mg"},{"bike_id":"96dac97a-0c76-4079-a74f-d3b50e0ff04c","system_id":"levelo_inurba_marseille","lat":43.21198,"lon":5.35068,"is_reserved":false,"is_disabled":false,"rental_uris":{"android":"levelo://app?vid=96dac97a-0c76-4079-a74f-d3b50e0ff04c","ios":"levelo://app?vid=96dac97a-0c76-4079-a74f-d3b50e0ff04c"},"vehicle_type_id":"4","last_reported":1773876119,"current_range_meters":3200,"station_id":"st_cvj6sg6p6f1abm77japg","pricing_plan_id":"cebpf4jnsgd1na2vs0mg"},{"bike_id":"2f3b50b6-2312-4e79-9227-15a6b6ea35f9","system_id":"levelo_inurba_marseille","lat":43.337444,"lon":5.374475,"is_reserved":false,"is_disabled":false,"rental_uris":{"android":"levelo://app?vid=2f3b50b6-2312-4e79-9227-15a6b6ea35f9","ios":"levelo://app?vid=2f3b50b6-2312-4e79-9227-15a6b6ea35f9"},"vehicle_type_id":"4","last_reported":1773876119,"current_range_meters":3200,"station_id":"ce4bht12rcd13ifvqi60","pricing_plan_id":"cebpf4jnsgd1na2vs0mg"},{"bike_id":"ba3a93e9-0ab6-4e6f-87e7-88a20529a0ea","system_id":"levelo_inurba_marseille","lat":43.31439,"lon":5.39287,"is_reserved":false,"is_disabled":false,"rental_uris":{"android":"levelo://app?vid=ba3a93e9-0ab6-4e6f-87e7-88a20529a0ea","ios":"levelo://app?vid=ba3a93e9-0ab6-4e6f-87e7-88a20529a0ea"},"vehicle_type_id":"4","last_reported":1773876119,"current_range_meters":3200,"station_id":"","pricing_plan_id":"cebpf4jnsgd1na2vs0mg"},{"bike_id":"962cf687-1766-4156-9249-f2a9c2642346","system_id":"levelo_inurba_marseille","lat":43.28463,"lon":5.359,"is_reserved":false,"is_disabled":false,"rental_uris":{"android":"levelo://app?vid=962cf687-1766-4156-9249-f2a9c2642346","ios":"levelo://app?vid=962cf687-1766-4156-9249-f2a9c2642346"},"vehicle_type_id":"4","last_reported":1773876119,"current_range_meters":3600,"station_id":"ce4bhah2rcd13ifvqei0","pricing_plan_id":"cebpf4jnsgd1na2vs0mg"},{"bike_id":"b703c509-0a53-4f14-907b-c60fb0017c10","system_id":"levelo_inurba_marseille","lat":43.31081,"lon":5.37181,"is_reserved":false,"is_disabled":false,"rental_uris":{"android":"levelo://app?vid=b703c509-0a53-4f14-907b-c60fb0017c10","ios":"levelo://app?vid=b703c509-0a53-4f14-907b-c60fb0017c10"},"vehicle_type_id":"4","last_reported":1773876119,"current_range_meters":3600,"station_id":"st_d4kl2rp97mjs73e7tdfg","pricing_plan_id":"cebpf4jnsgd1na2vs0mg"},{"bike_id":"953941a9-3563-489d-aba9-d6cd35a24b9e","system_id":"levelo_inurba_marseille","lat":43.29086,"lon":5.3815,"is_reserved":false,"is_disabled":false,"rental_uris":{"android":"levelo://app?vid=953941a9-3563-489d-aba9-d6cd35a24b9e","ios":"levelo://app?vid=953941a9-3563-489d-aba9-d6cd35a24b9e"},"vehicle_type_id":"4","last_reported":1773876119,"current_range_meters":3600,"station_id":"ce4bh512rcd13ifvqe2g","pricing_plan_id":"cebpf4jnsgd1na2vs0mg"},{"bike_id":"7e372e61-a4a4-4320-b78e-0115edf72ed5","system_id":"levelo_inurba_marseille","lat":43.24165,"lon":5.36407,"is_reserved":false,"is_disabled":true,"rental_uris":{"android":"levelo://app?vid=7e372e61-a4a4-4320-b78e-0115edf72ed5","ios":"levelo://app?vid=7e372e61-a4a4-4320-b78e-0115edf72ed5"},"vehicle_type_id":"4","last_reported":1773876119,"current_range_meters":3600,"station_id":"cpo36qri1sfpv3e86is0","pricing_plan_id":"cebpf4jnsgd1na2vs0mg"},{"bike_id":"f7cad0dd-4929-454b-8848-7575c69435e1","system_id":"levelo_inurba_marseille","lat":43.25861,"lon":5.3989,"is_reserved":false,"is_disabled":true,"rental_uris":{"android":"levelo://app?vid=f7cad0dd-4929-454b-8848-7575c69435e1","ios":"levelo://app?vid=f7cad0dd-4929-454b-8848-7575c69435e1"},"vehicle_type_id":"4","last_reported":1773876119,"current_range_meters":3600,"station_id":"ce4bhl92rcd13ifvqghg","pricing_plan_id":"cebpf4jnsgd1na2vs0mg"},{"bike_id":"efa56788-fd95-4d6e-84ce-b31b80bc3dea","system_id":"levelo_inurba_marseille","lat":43.29305,"lon":5.37429,"is_reserved":false,"is_disabled":true,"rental_uris":{"android":"levelo://app?vid=efa56788-fd95-4d6e-84ce-b31b80bc3dea","ios":"levelo://app?vid=efa56788-fd95-4d6e-84ce-b31b80bc3dea"},"vehicle_type_id":"4","last_reported":1773876119,"current_range_meters":3600,"station_id":"ce4bgi12rcd13ifvqb70","pricing_plan_id":"cebpf4jnsgd1na2vs0mg"},{"bike_id":"f098d9b7-2e86-49b7-b795-e3b7e2e73676","system_id":"levelo_inurba_marseille","lat":43.30104,"lon":5.37194,"is_reserved":false,"is_disabled":false,"rental_uris":{"android":"levelo://app?vid=f098d9b7-2e86-49b7-b795-e3b7e2e73676","ios":"levelo://app?vid=f098d9b7-2e86-49b7-b795-e3b7e2e73676"},"vehicle_type_id":"4","last_reported":1773876119,"current_range_meters":3600,"station_id":"","pricing_plan_id":"cebpf4jnsgd1na2vs0mg"},{"bike_id":"f852e62a-4ab8-41a5-be60-69600f906e2f","system_id":"levelo_inurba_marseille","lat":43.2838,"lon":5.38632,"is_reserved":false,"is_disabled":false,"rental_uris":{"android":"levelo://app?vid=f852e62a-4ab8-41a5-be60-69600f906e2f","ios":"levelo://app?vid=f852e62a-4ab8-41a5-be60-69600f906e2f"},"vehicle_type_id":"4","last_reported":1773876119,"current_range_meters":3600,"station_id":"ce4bh492rcd13ifvqdvg","pricing_plan_id":"cebpf4jnsgd1na2vs0mg"},{"bike_id":"2874775b-146e-45de-9a13-98bbe699d55d","system_id":"levelo_inurba_marseille","lat":43.24639,"lon":5.43148,"is_reserved":false,"is_disabled":true,"rental_uris":{"android":"levelo://app?vid=2874775b-146e-45de-9a13-98bbe699d55d","ios":"levelo://app?vid=2874775b-146e-45de-9a13-98bbe699d55d"},"vehicle_type_id":"4","last_reported":1773876119,"current_range_meters":3600,"station_id":"","pricing_plan_id":"cebpf4jnsgd1na2vs0mg"},{"bike_id":"40b4c9a9-7a66-4906-8741-41c41b4ee56b","system_id":"levelo_inurba_marseille","lat":43.27081,"lon":5.42281,"is_reserved":false,"is_disabled":true,"rental_uris":{"android":"levelo://app?vid=40b4c9a9-7a66-4906-8741-41c41b4ee56b","ios":"levelo://app?vid=40b4c9a9-7a66-4906-8741-41c41b4ee56b"},"vehicle_type_id":"4","last_reported":1773876119,"current_range_meters":3600,"station_id":"ce4bhk92rcd13ifvqgb0","pricing_plan_id":"cebpf4jnsgd1na2vs0mg"},{"bike_id":"8c19d337-dbc6-4420-a084-5525745c7eea","system_id":"levelo_inurba_marseille","lat":43.23388,"lon":5.41237,"is_reserved":false,"is_disabled":false,"rental_uris":{"android":"levelo://app?vid=8c19d337-dbc6-4420-a084-5525745c7eea","ios":"levelo://app?vid=8c19d337-dbc6-4420-a084-5525745c7eea"},"vehicle_type_id":"4","last_reported":1773876119,"current_range_meters":3600,"station_id":"","pricing_plan_id":"cebpf4jnsgd1na2vs0mg"},{"bike_id":"b9f2e5d5-d6ac-4c0d-86f2-4fe1a54ef3b3","system_id":"levelo_inurba_marseille","lat":43.32122,"lon":5.36776,"is_reserved":false,"is_disabled":false,"rental_uris":{"android":"levelo://app?vid=b9f2e5d5-d6ac-4c0d-86f2-4fe1a54ef3b3","ios":"levelo://app?vid=b9f2e5d5-d6ac-4c0d-86f2-4fe1a54ef3b3"},"vehicle_type_id":"4","last_reported":1773876119,"current_range_meters":3600,"station_id":"ce4bhrh2rcd13ifvqhug","pricing_plan_id":"cebpf4jnsgd1na2vs0mg"},{"bike_id":"d9d19852-eb2b-4b8b-8eff-a0137772eae4","system_id":"levelo_inurba_marseille","lat":43.28617,"lon":5.37042,"is_reserved":false,"is_disabled":false,"rental_uris":{"android":"levelo://app?vid=d9d19852-eb2b-4b8b-8eff-a0137772eae4","ios":"levelo://app?vid=d9d19852-eb2b-4b8b-8eff-a0137772eae4"},"vehicle_type_id":"4","last_reported":1773876119,"current_range_meters":3600,"station_id":"ce4bht12rcd13ifvqi60","pricing_plan_id":"cebpf4jnsgd1na2vs0mg"},{"bike_id":"5be24cdd-f4b7-4cda-a39a-e6fb0cb0cbd6","system_id":"levelo_inurba_marseille","lat":43.311717,"lon":5.387149,"is_reserved":false,"is_disabled":false,"rental_uris":{"android":"levelo://app?vid=5be24cdd-f4b7-4cda-a39a-e6fb0cb0cbd6","ios":"levelo://app?vid=5be24cdd-f4b7-4cda-a39a-e6fb0cb0cbd6"},"vehicle_type_id":"4","last_reported":1773876119,"current_range_meters":3600,"station_id":"ce4bgv12rcd13ifvqcp0","pricing_plan_id":"cebpf4jnsgd1na2vs0mg"},{"bike_id":"05fd0230-60dc-4569-9eab-e456bb9eec1a","system_id":"levelo_inurba_marseille","lat":43.30231,"lon":5.36628,"is_reserved":false,"is_disabled":false,"rental_uris":{"android":"levelo://app?vid=05fd0230-60dc-4569-9eab-e456bb9eec1a","ios":"levelo://app?vid=05fd0230-60dc-4569-9eab-e456bb9eec1a"},"vehicle_type_id":"4","last_reported":1773876119,"current_range_meters":4000,"station_id":"ce4bgrh2rcd13ifvqc8g","pricing_plan_id":"cebpf4jnsgd1na2vs0mg"},{"bike_id":"cb2c175e-fc1a-43c7-8316-e12b1c668a27","system_id":"levelo_inurba_marseille","lat":43.30539,"lon":5.36726,"is_reserved":false,"is_disabled":true,"rental_uris":{"android":"levelo://app?vid=cb2c175e-fc1a-43c7-8316-e12b1c668a27","ios":"levelo://app?vid=cb2c175e-fc1a-43c7-8316-e12b1c668a27"},"vehicle_type_id":"4","last_reported":1773876119,"current_range_meters":4000,"station_id":"ce4bgrp2rcd13ifvqc9g","pricing_plan_id":"cebpf4jnsgd1na2vs0mg"},{"bike_id":"a8ab54b1-7789-4df6-8176-c2a2b6ceda65","system_id":"levelo_inurba_marseille","lat":43.25342,"lon":5.4215,"is_reserved":false,"is_disabled":false,"rental_uris":{"android":"levelo://app?vid=a8ab54b1-7789-4df6-8176-c2a2b6ceda65","ios":"levelo://app?vid=a8ab54b1-7789-4df6-8176-c2a2b6ceda65"},"vehicle_type_id":"4","last_reported":1773876119,"current_range_meters":4000,"station_id":"st_d2m65c5bi1j21697t3ng","pricing_plan_id":"cebpf4jnsgd1na2vs0mg"},{"bike_id":"e19bbcec-af9d-483d-ac29-18df3b9c0ab9","system_id":"levelo_inurba_marseille","lat":43.28483,"lon":5.48383,"is_reserved":false,"is_disabled":false,"rental_uris":{"android":"levelo://app?vid=e19bbcec-af9d-483d-ac29-18df3b9c0ab9","ios":"levelo://app?vid=e19bbcec-af9d-483d-ac29-18df3b9c0ab9"},"vehicle_type_id":"4","last_reported":1773876119,"current_range_meters":4000,"station_id":"st_d3svhcjqgbts73a3dn0g","pricing_plan_id":"cebpf4jnsgd1na2vs0mg"},{"bike_id":"e1282d04-f7b7-4606-b775-ed192685a5f4","system_id":"levelo_inurba_marseille","lat":43.24202,"lon":5.39722,"is_reserved":false,"is_disabled":true,"rental_uris":{"android":"levelo://app?vid=e1282d04-f7b7-4606-b775-ed192685a5f4","ios":"levelo://app?vid=e1282d04-f7b7-4606-b775-ed192685a5f4"},"vehicle_type_id":"4","last_reported":1773876119,"current_range_meters":4000,"station_id":"ce4bhn12rcd13ifvqgpg","pricing_plan_id":"cebpf4jnsgd1na2vs0mg"},{"bike_id":"7c27bbc1-43c8-4af1-8a34-48b79713d044","system_id":"levelo_inurba_marseille","lat":43.21192,"lon":5.35087,"is_reserved":false,"is_disabled":false,"rental_uris":{"android":"levelo://app?vid=7c27bbc1-43c8-4af1-8a34-48b79713d044","ios":"levelo://app?vid=7c27bbc1-43c8-4af1-8a34-48b79713d044"},"vehicle_type_id":"4","last_reported":1773876119,"current_range_meters":4000,"station_id":"st_cvj6sg6p6f1abm77japg","pricing_plan_id":"cebpf4jnsgd1na2vs0mg"},{"bike_id":"f1157430-cc99-47be-b36c-b2ae02678b63","system_id":"levelo_inurba_marseille","lat":43.29802,"lon":5.40398,"is_reserved":false,"is_disabled":false,"rental_uris":{"android":"levelo://app?vid=f1157430-cc99-47be-b36c-b2ae02678b63","ios":"levelo://app?vid=f1157430-cc99-47be-b36c-b2ae02678b63"},"vehicle_type_id":"4","last_reported":1773876119,"current_range_meters":4000,"station_id":"ce4bh112rcd13ifvqd90","pricing_plan_id":"cebpf4jnsgd1na2vs0mg"},{"bike_id":"79ed368d-bb42-4990-9180-c743e278b183","system_id":"levelo_inurba_marseille","lat":43.29579,"lon":5.39962,"is_reserved":false,"is_disabled":false,"rental_uris":{"android":"levelo://app?vid=79ed368d-bb42-4990-9180-c743e278b183","ios":"levelo://app?vid=79ed368d-bb42-4990-9180-c743e278b183"},"vehicle_type_id":"4","last_reported":1773876119,"current_range_meters":4000,"station_id":"ce4bh312rcd13ifvqdj0","pricing_plan_id":"cebpf4jnsgd1na2vs0mg"},{"bike_id":"daa4d2c5-b151-4bf6-bf3d-4d2c43839aea","system_id":"levelo_inurba_marseille","lat":43.27574,"lon":5.38434,"is_reserved":false,"is_disabled":false,"rental_uris":{"android":"levelo://app?vid=daa4d2c5-b151-4bf6-bf3d-4d2c43839aea","ios":"levelo://app?vid=daa4d2c5-b151-4bf6-bf3d-4d2c43839aea"},"vehicle_type_id":"4","last_reported":1773876119,"current_range_meters":4000,"station_id":"ce4bhh92rcd13ifvqfi0","pricing_plan_id":"cebpf4jnsgd1na2vs0mg"},{"bike_id":"b6f89c1d-9d87-487c-842f-47d7637847b1","system_id":"levelo_inurba_marseille","lat":43.27572,"lon":5.38429,"is_reserved":false,"is_disabled":false,"rental_uris":{"android":"levelo://app?vid=b6f89c1d-9d87-487c-842f-47d7637847b1","ios":"levelo://app?vid=b6f89c1d-9d87-487c-842f-47d7637847b1"},"vehicle_type_id":"4","last_reported":1773876119,"current_range_meters":4000,"station_id":"ce4bhh92rcd13ifvqfi0","pricing_plan_id":"cebpf4jnsgd1na2vs0mg"},{"bike_id":"a2211e71-206f-4e87-a705-3139361a1dca","system_id":"levelo_inurba_marseille","lat":43.30799,"lon":5.38154,"is_reserved":false,"is_disabled":false,"rental_uris":{"android":"levelo://app?vid=a2211e71-206f-4e87-a705-3139361a1dca","ios":"levelo://app?vid=a2211e71-206f-4e87-a705-3139361a1dca"},"vehicle_type_id":"4","last_reported":1773876119,"current_range_meters":4000,"station_id":"ce4bgt12rcd13ifvqce0","pricing_plan_id":"cebpf4jnsgd1na2vs0mg"},{"bike_id":"998452df-0edc-4d34-89de-6fb63967106a","system_id":"levelo_inurba_marseille","lat":43.28725,"lon":5.36091,"is_reserved":false,"is_disabled":false,"rental_uris":{"android":"levelo://app?vid=998452df-0edc-4d34-89de-6fb63967106a","ios":"levelo://app?vid=998452df-0edc-4d34-89de-6fb63967106a"},"vehicle_type_id":"4","last_reported":1773876119,"current_range_meters":4000,"station_id":"cki0cbj6b192h4jlfktg","pricing_plan_id":"cebpf4jnsgd1na2vs0mg"},{"bike_id":"8695b302-cbfc-4867-9340-7774313ba4ee","system_id":"levelo_inurba_marseille","lat":43.28349,"lon":5.38105,"is_reserved":false,"is_disabled":false,"rental_uris":{"android":"levelo://app?vid=8695b302-cbfc-4867-9340-7774313ba4ee","ios":"levelo://app?vid=8695b302-cbfc-4867-9340-7774313ba4ee"},"vehicle_type_id":"4","last_reported":1773876119,"current_range_meters":4000,"station_id":"ce4bh412rcd13ifvqdr0","pricing_plan_id":"cebpf4jnsgd1na2vs0mg"},{"bike_id":"3feb4c73-6e63-47f9-927f-446525b49f72","system_id":"levelo_inurba_marseille","lat":43.31896,"lon":5.36817,"is_reserved":false,"is_disabled":false,"rental_uris":{"android":"levelo://app?vid=3feb4c73-6e63-47f9-927f-446525b49f72","ios":"levelo://app?vid=3feb4c73-6e63-47f9-927f-446525b49f72"},"vehicle_type_id":"4","last_reported":1773876119,"current_range_meters":4000,"station_id":"st_d6o2h0d0559c73evc1b0","pricing_plan_id":"cebpf4jnsgd1na2vs0mg"},{"bike_id":"34055039-8545-4d43-80d6-26e8f4a0761a","system_id":"levelo_inurba_marseille","lat":43.30106,"lon":5.39069,"is_reserved":false,"is_disabled":false,"rental_uris":{"android":"levelo://app?vid=34055039-8545-4d43-80d6-26e8f4a0761a","ios":"levelo://app?vid=34055039-8545-4d43-80d6-26e8f4a0761a"},"vehicle_type_id":"4","last_reported":1773876119,"current_range_meters":4000,"station_id":"ce4bh192rcd13ifvqdb0","pricing_plan_id":"cebpf4jnsgd1na2vs0mg"},{"bike_id":"56dcd5b8-7d88-4ae7-bf9a-0c90a40ff724","system_id":"levelo_inurba_marseille","lat":43.31185,"lon":5.38727,"is_reserved":false,"is_disabled":true,"rental_uris":{"android":"levelo://app?vid=56dcd5b8-7d88-4ae7-bf9a-0c90a40ff724","ios":"levelo://app?vid=56dcd5b8-7d88-4ae7-bf9a-0c90a40ff724"},"vehicle_type_id":"4","last_reported":1773876119,"current_range_meters":4000,"station_id":"ce4bgv12rcd13ifvqcp0","pricing_plan_id":"cebpf4jnsgd1na2vs0mg"},{"bike_id":"383333ab-900a-4d8e-9e5f-5f8443133843","system_id":"levelo_inurba_marseille","lat":43.23965,"lon":5.36627,"is_reserved":false,"is_disabled":true,"rental_uris":{"android":"levelo://app?vid=383333ab-900a-4d8e-9e5f-5f8443133843","ios":"levelo://app?vid=383333ab-900a-4d8e-9e5f-5f8443133843"},"vehicle_type_id":"4","last_reported":1773876119,"current_range_meters":4000,"station_id":"ce4bhi12rcd13ifvqfp0","pricing_plan_id":"cebpf4jnsgd1na2vs0mg"},{"bike_id":"98e4fa57-53d6-4669-a751-6af568919be7","system_id":"levelo_inurba_marseille","lat":43.29377,"lon":5.37845,"is_reserved":false,"is_disabled":false,"rental_uris":{"android":"levelo://app?vid=98e4fa57-53d6-4669-a751-6af568919be7","ios":"levelo://app?vid=98e4fa57-53d6-4669-a751-6af568919be7"},"vehicle_type_id":"4","last_reported":1773876119,"current_range_meters":4400,"station_id":"ce4bgjh2rcd13ifvqbf0","pricing_plan_id":"cebpf4jnsgd1na2vs0mg"},{"bike_id":"b372e9b7-cab4-4a52-a098-286e2f1a8b02","system_id":"levelo_inurba_marseille","lat":43.29937,"lon":5.36524,"is_reserved":false,"is_disabled":false,"rental_uris":{"android":"levelo://app?vid=b372e9b7-cab4-4a52-a098-286e2f1a8b02","ios":"levelo://app?vid=b372e9b7-cab4-4a52-a098-286e2f1a8b02"},"vehicle_type_id":"4","last_reported":1773876119,"current_range_meters":4400,"station_id":"ce4bgm92rcd13ifvqbr0","pricing_plan_id":"cebpf4jnsgd1na2vs0mg"},{"bike_id":"e563383a-8a89-4304-b11f-18268886193e","system_id":"levelo_inurba_marseille","lat":43.25561,"lon":5.38248,"is_reserved":false,"is_disabled":false,"rental_uris":{"android":"levelo://app?vid=e563383a-8a89-4304-b11f-18268886193e","ios":"levelo://app?vid=e563383a-8a89-4304-b11f-18268886193e"},"vehicle_type_id":"4","last_reported":1773876119,"current_range_meters":4400,"station_id":"ce4bhih2rcd13ifvqfs0","pricing_plan_id":"cebpf4jnsgd1na2vs0mg"},{"bike_id":"f1dd018f-8174-4811-99c3-8cac1a8de22d","system_id":"levelo_inurba_marseille","lat":43.2677,"lon":5.39441,"is_reserved":false,"is_disabled":false,"rental_uris":{"android":"levelo://app?vid=f1dd018f-8174-4811-99c3-8cac1a8de22d","ios":"levelo://app?vid=f1dd018f-8174-4811-99c3-8cac1a8de22d"},"vehicle_type_id":"4","last_reported":1773876119,"current_range_meters":4400,"station_id":"ce4bhh12rcd13ifvqfg0","pricing_plan_id":"cebpf4jnsgd1na2vs0mg"},{"bike_id":"032692c2-e8ca-40e7-9c05-3713e043006b","system_id":"levelo_inurba_marseille","lat":43.23898,"lon":5.37457,"is_reserved":false,"is_disabled":false,"rental_uris":{"android":"levelo://app?vid=032692c2-e8ca-40e7-9c05-3713e043006b","ios":"levelo://app?vid=032692c2-e8ca-40e7-9c05-3713e043006b"},"vehicle_type_id":"4","last_reported":1773876119,"current_range_meters":4400,"station_id":"st_d6sm7csbq4hs73f8fpjg","pricing_plan_id":"cebpf4jnsgd1na2vs0mg"},{"bike_id":"a25eab46-a3e8-4aed-8456-4f2626fc5db6","system_id":"levelo_inurba_marseille","lat":43.3032,"lon":5.40446,"is_reserved":false,"is_disabled":false,"rental_uris":{"android":"levelo://app?vid=a25eab46-a3e8-4aed-8456-4f2626fc5db6","ios":"levelo://app?vid=a25eab46-a3e8-4aed-8456-4f2626fc5db6"},"vehicle_type_id":"4","last_reported":1773876119,"current_range_meters":4400,"station_id":"ce4bh012rcd13ifvqd10","pricing_plan_id":"cebpf4jnsgd1na2vs0mg"},{"bike_id":"0944d33a-97bd-47bb-991d-6f368ff6a5a5","system_id":"levelo_inurba_marseille","lat":43.28354,"lon":5.38103,"is_reserved":false,"is_disabled":false,"rental_uris":{"android":"levelo://app?vid=0944d33a-97bd-47bb-991d-6f368ff6a5a5","ios":"levelo://app?vid=0944d33a-97bd-47bb-991d-6f368ff6a5a5"},"vehicle_type_id":"4","last_reported":1773876119,"current_range_meters":4400,"station_id":"ce4bh412rcd13ifvqdr0","pricing_plan_id":"cebpf4jnsgd1na2vs0mg"},{"bike_id":"116584bc-4837-48ce-9d74-a02345f971de","system_id":"levelo_inurba_marseille","lat":43.30135,"lon":5.38787,"is_reserved":false,"is_disabled":false,"rental_uris":{"android":"levelo://app?vid=116584bc-4837-48ce-9d74-a02345f971de","ios":"levelo://app?vid=116584bc-4837-48ce-9d74-a02345f971de"},"vehicle_type_id":"4","last_reported":1773876119,"current_range_meters":4400,"station_id":"ce4bghh2rcd13ifvqb60","pricing_plan_id":"cebpf4jnsgd1na2vs0mg"},{"bike_id":"3561753f-25a2-4fa8-bc89-96a71e795d51","system_id":"levelo_inurba_marseille","lat":43.30653,"lon":5.40058,"is_reserved":false,"is_disabled":false,"rental_uris":{"android":"levelo://app?vid=3561753f-25a2-4fa8-bc89-96a71e795d51","ios":"levelo://app?vid=3561753f-25a2-4fa8-bc89-96a71e795d51"},"vehicle_type_id":"4","last_reported":1773876119,"current_range_meters":4400,"station_id":"ce4bh112rcd13ifvqda0","pricing_plan_id":"cebpf4jnsgd1na2vs0mg"},{"bike_id":"f7315d1e-73c8-4876-9e17-aedad5ed61d7","system_id":"levelo_inurba_marseille","lat":43.31116,"lon":5.38652,"is_reserved":false,"is_disabled":false,"rental_uris":{"android":"levelo://app?vid=f7315d1e-73c8-4876-9e17-aedad5ed61d7","ios":"levelo://app?vid=f7315d1e-73c8-4876-9e17-aedad5ed61d7"},"vehicle_type_id":"4","last_reported":1773876119,"current_range_meters":4400,"station_id":"","pricing_plan_id":"cebpf4jnsgd1na2vs0mg"},{"bike_id":"f8a00c49-c93d-41ce-9f11-d81257ca6394","system_id":"levelo_inurba_marseille","lat":43.2293,"lon":5.35379,"is_reserved":false,"is_disabled":false,"rental_uris":{"android":"levelo://app?vid=f8a00c49-c93d-41ce-9f11-d81257ca6394","ios":"levelo://app?vid=f8a00c49-c93d-41ce-9f11-d81257ca6394"},"vehicle_type_id":"4","last_reported":1773876119,"current_range_meters":4400,"station_id":"cpo3532slgdg3j2ikp40","pricing_plan_id":"cebpf4jnsgd1na2vs0mg"},{"bike_id":"e964becb-6d98-4cbf-8cde-41d442d32f65","system_id":"levelo_inurba_marseille","lat":43.29001,"lon":5.38132,"is_reserved":false,"is_disabled":false,"rental_uris":{"android":"levelo://app?vid=e964becb-6d98-4cbf-8cde-41d442d32f65","ios":"levelo://app?vid=e964becb-6d98-4cbf-8cde-41d442d32f65"},"vehicle_type_id":"4","last_reported":1773876119,"current_range_meters":4800,"station_id":"ce4bh4p2rcd13ifvqe1g","pricing_plan_id":"cebpf4jnsgd1na2vs0mg"},{"bike_id":"56dcc4fe-ac28-400c-a63f-b562d8415172","system_id":"levelo_inurba_marseille","lat":43.31159,"lon":5.38718,"is_reserved":false,"is_disabled":false,"rental_uris":{"android":"levelo://app?vid=56dcc4fe-ac28-400c-a63f-b562d8415172","ios":"levelo://app?vid=56dcc4fe-ac28-400c-a63f-b562d8415172"},"vehicle_type_id":"4","last_reported":1773876119,"current_range_meters":4800,"station_id":"ce4bgv12rcd13ifvqcp0","pricing_plan_id":"cebpf4jnsgd1na2vs0mg"},{"bike_id":"88697e8b-01fd-4696-bab5-73747ef3d57e","system_id":"levelo_inurba_marseille","lat":43.21751,"lon":5.34617,"is_reserved":false,"is_disabled":false,"rental_uris":{"android":"levelo://app?vid=88697e8b-01fd-4696-bab5-73747ef3d57e","ios":"levelo://app?vid=88697e8b-01fd-4696-bab5-73747ef3d57e"},"vehicle_type_id":"4","last_reported":1773876119,"current_range_meters":4800,"station_id":"st_cvj6r9ubvosntc0bgbag","pricing_plan_id":"cebpf4jnsgd1na2vs0mg"},{"bike_id":"156e0aba-dfd0-460c-bd31-19df6e575217","system_id":"levelo_inurba_marseille","lat":43.2791,"lon":5.38013,"is_reserved":false,"is_disabled":false,"rental_uris":{"android":"levelo://app?vid=156e0aba-dfd0-460c-bd31-19df6e575217","ios":"levelo://app?vid=156e0aba-dfd0-460c-bd31-19df6e575217"},"vehicle_type_id":"4","last_reported":1773876119,"current_range_meters":4800,"station_id":"ce4bhf92rcd13ifvqf50","pricing_plan_id":"cebpf4jnsgd1na2vs0mg"},{"bike_id":"70f98469-d2c0-43f4-9102-c6ad6fb97bca","system_id":"levelo_inurba_marseille","lat":43.21743,"lon":5.34605,"is_reserved":false,"is_disabled":false,"rental_uris":{"android":"levelo://app?vid=70f98469-d2c0-43f4-9102-c6ad6fb97bca","ios":"levelo://app?vid=70f98469-d2c0-43f4-9102-c6ad6fb97bca"},"vehicle_type_id":"4","last_reported":1773876119,"current_range_meters":4800,"station_id":"st_cvj6r9ubvosntc0bgbag","pricing_plan_id":"cebpf4jnsgd1na2vs0mg"},{"bike_id":"f4827580-5cd5-428f-ba33-4d62cd3477b8","system_id":"levelo_inurba_marseille","lat":43.29865,"lon":5.38935,"is_reserved":false,"is_disabled":false,"rental_uris":{"android":"levelo://app?vid=f4827580-5cd5-428f-ba33-4d62cd3477b8","ios":"levelo://app?vid=f4827580-5cd5-428f-ba33-4d62cd3477b8"},"vehicle_type_id":"4","last_reported":1773876119,"current_range_meters":4800,"station_id":"ce4bh392rcd13ifvqdl0","pricing_plan_id":"cebpf4jnsgd1na2vs0mg"},{"bike_id":"48bcb3d3-0279-4623-aebe-ac9aa7899b74","system_id":"levelo_inurba_marseille","lat":43.2841,"lon":5.37517,"is_reserved":false,"is_disabled":false,"rental_uris":{"android":"levelo://app?vid=48bcb3d3-0279-4623-aebe-ac9aa7899b74","ios":"levelo://app?vid=48bcb3d3-0279-4623-aebe-ac9aa7899b74"},"vehicle_type_id":"4","last_reported":1773876119,"current_range_meters":4800,"station_id":"ce4bh412rcd13ifvqds0","pricing_plan_id":"cebpf4jnsgd1na2vs0mg"},{"bike_id":"50e0584e-4dc0-49b6-950a-79953725031f","system_id":"levelo_inurba_marseille","lat":43.23062,"lon":5.35473,"is_reserved":false,"is_disabled":false,"rental_uris":{"android":"levelo://app?vid=50e0584e-4dc0-49b6-950a-79953725031f","ios":"levelo://app?vid=50e0584e-4dc0-49b6-950a-79953725031f"},"vehicle_type_id":"4","last_reported":1773876119,"current_range_meters":4800,"station_id":"cpo3342slgdg3j2ifvpg","pricing_plan_id":"cebpf4jnsgd1na2vs0mg"},{"bike_id":"2706db3b-3f01-4b6b-a1e9-42e6bda22571","system_id":"levelo_inurba_marseille","lat":43.26142,"lon":5.37337,"is_reserved":false,"is_disabled":false,"rental_uris":{"android":"levelo://app?vid=2706db3b-3f01-4b6b-a1e9-42e6bda22571","ios":"levelo://app?vid=2706db3b-3f01-4b6b-a1e9-42e6bda22571"},"vehicle_type_id":"4","last_reported":1773876119,"current_range_meters":4800,"station_id":"","pricing_plan_id":"cebpf4jnsgd1na2vs0mg"},{"bike_id":"3994c2ff-10e7-4294-902b-2b2d827dadd3","system_id":"levelo_inurba_marseille","lat":43.31684,"lon":5.40472,"is_reserved":false,"is_disabled":false,"rental_uris":{"android":"levelo://app?vid=3994c2ff-10e7-4294-902b-2b2d827dadd3","ios":"levelo://app?vid=3994c2ff-10e7-4294-902b-2b2d827dadd3"},"vehicle_type_id":"4","last_reported":1773876119,"current_range_meters":5600,"station_id":"ce4bh012rcd13ifvqd00","pricing_plan_id":"cebpf4jnsgd1na2vs0mg"},{"bike_id":"081a0881-89b6-4aec-8d87-38fd39de8439","system_id":"levelo_inurba_marseille","lat":43.28537,"lon":5.44094,"is_reserved":false,"is_disabled":false,"rental_uris":{"android":"levelo://app?vid=081a0881-89b6-4aec-8d87-38fd39de8439","ios":"levelo://app?vid=081a0881-89b6-4aec-8d87-38fd39de8439"},"vehicle_type_id":"4","last_reported":1773876119,"current_range_meters":5600,"station_id":"st_d3j3df2ikq2c7380ej80","pricing_plan_id":"cebpf4jnsgd1na2vs0mg"},{"bike_id":"0ccd480b-88e0-4d41-b24c-60e3cd09573c","system_id":"levelo_inurba_marseille","lat":43.28673,"lon":5.36353,"is_reserved":false,"is_disabled":false,"rental_uris":{"android":"levelo://app?vid=0ccd480b-88e0-4d41-b24c-60e3cd09573c","ios":"levelo://app?vid=0ccd480b-88e0-4d41-b24c-60e3cd09573c"},"vehicle_type_id":"4","last_reported":1773876119,"current_range_meters":5600,"station_id":"ce4bhah2rcd13ifvqej0","pricing_plan_id":"cebpf4jnsgd1na2vs0mg"},{"bike_id":"7fb6219e-7580-4213-ac54-0555075636fe","system_id":"levelo_inurba_marseille","lat":43.29788,"lon":5.39347,"is_reserved":false,"is_disabled":false,"rental_uris":{"android":"levelo://app?vid=7fb6219e-7580-4213-ac54-0555075636fe","ios":"levelo://app?vid=7fb6219e-7580-4213-ac54-0555075636fe"},"vehicle_type_id":"4","last_reported":1773876119,"current_range_meters":5600,"station_id":"chh1huq6cuj3fo74tm60","pricing_plan_id":"cebpf4jnsgd1na2vs0mg"},{"bike_id":"09d43caa-a3b5-4d9f-b2fc-53bcc0d772da","system_id":"levelo_inurba_marseille","lat":43.30899,"lon":5.38685,"is_reserved":false,"is_disabled":false,"rental_uris":{"android":"levelo://app?vid=09d43caa-a3b5-4d9f-b2fc-53bcc0d772da","ios":"levelo://app?vid=09d43caa-a3b5-4d9f-b2fc-53bcc0d772da"},"vehicle_type_id":"4","last_reported":1773876119,"current_range_meters":5600,"station_id":"","pricing_plan_id":"cebpf4jnsgd1na2vs0mg"},{"bike_id":"0c8526e0-6888-4044-8de5-94e774bcc95a","system_id":"levelo_inurba_marseille","lat":43.30536,"lon":5.38411,"is_reserved":false,"is_disabled":false,"rental_uris":{"android":"levelo://app?vid=0c8526e0-6888-4044-8de5-94e774bcc95a","ios":"levelo://app?vid=0c8526e0-6888-4044-8de5-94e774bcc95a"},"vehicle_type_id":"4","last_reported":1773876119,"current_range_meters":5600,"station_id":"ce4bgg92rcd13ifvqb30","pricing_plan_id":"cebpf4jnsgd1na2vs0mg"},{"bike_id":"f84b01ca-a305-48c8-abb1-5fe4887deffc","system_id":"levelo_inurba_marseille","lat":43.23156,"lon":5.43718,"is_reserved":false,"is_disabled":false,"rental_uris":{"android":"levelo://app?vid=f84b01ca-a305-48c8-abb1-5fe4887deffc","ios":"levelo://app?vid=f84b01ca-a305-48c8-abb1-5fe4887deffc"},"vehicle_type_id":"4","last_reported":1773876119,"current_range_meters":5600,"station_id":"ce4bhmp2rcd13ifvqgog","pricing_plan_id":"cebpf4jnsgd1na2vs0mg"},{"bike_id":"d30de8ad-fb99-42c1-a96b-fe31c62273a1","system_id":"levelo_inurba_marseille","lat":43.29571,"lon":5.39969,"is_reserved":false,"is_disabled":false,"rental_uris":{"android":"levelo://app?vid=d30de8ad-fb99-42c1-a96b-fe31c62273a1","ios":"levelo://app?vid=d30de8ad-fb99-42c1-a96b-fe31c62273a1"},"vehicle_type_id":"4","last_reported":1773876119,"current_range_meters":5600,"station_id":"ce4bh312rcd13ifvqdj0","pricing_plan_id":"cebpf4jnsgd1na2vs0mg"},{"bike_id":"15d16198-178f-4581-9c99-d0f097b847d4","system_id":"levelo_inurba_marseille","lat":43.2868,"lon":5.44245,"is_reserved":false,"is_disabled":false,"rental_uris":{"android":"levelo://app?vid=15d16198-178f-4581-9c99-d0f097b847d4","ios":"levelo://app?vid=15d16198-178f-4581-9c99-d0f097b847d4"},"vehicle_type_id":"4","last_reported":1773876119,"current_range_meters":5600,"station_id":"","pricing_plan_id":"cebpf4jnsgd1na2vs0mg"},{"bike_id":"7c245f6b-63fb-4c36-8493-afb8fd5288f8","system_id":"levelo_inurba_marseille","lat":43.31183,"lon":5.39086,"is_reserved":false,"is_disabled":false,"rental_uris":{"android":"levelo://app?vid=7c245f6b-63fb-4c36-8493-afb8fd5288f8","ios":"levelo://app?vid=7c245f6b-63fb-4c36-8493-afb8fd5288f8"},"vehicle_type_id":"4","last_reported":1773876119,"current_range_meters":5600,"station_id":"","pricing_plan_id":"cebpf4jnsgd1na2vs0mg"},{"bike_id":"306fc7c2-b2ac-4daa-a45a-a750efe316c3","system_id":"levelo_inurba_marseille","lat":43.281557,"lon":5.426482,"is_reserved":false,"is_disabled":false,"rental_uris":{"android":"levelo://app?vid=306fc7c2-b2ac-4daa-a45a-a750efe316c3","ios":"levelo://app?vid=306fc7c2-b2ac-4daa-a45a-a750efe316c3"},"vehicle_type_id":"4","last_reported":1773876119,"current_range_meters":5600,"station_id":"ce4bhnh2rcd13ifvqgug","pricing_plan_id":"cebpf4jnsgd1na2vs0mg"},{"bike_id":"5032ee4c-643b-4fa7-8a5c-8d5e764831f6","system_id":"levelo_inurba_marseille","lat":43.21766,"lon":5.34611,"is_reserved":false,"is_disabled":false,"rental_uris":{"android":"levelo://app?vid=5032ee4c-643b-4fa7-8a5c-8d5e764831f6","ios":"levelo://app?vid=5032ee4c-643b-4fa7-8a5c-8d5e764831f6"},"vehicle_type_id":"4","last_reported":1773876119,"current_range_meters":6000,"station_id":"st_cvj6r9ubvosntc0bgbag","pricing_plan_id":"cebpf4jnsgd1na2vs0mg"},{"bike_id":"09924c0b-800b-42ab-b3d6-39ea62fa5720","system_id":"levelo_inurba_marseille","lat":43.27336,"lon":5.39105,"is_reserved":false,"is_disabled":false,"rental_uris":{"android":"levelo://app?vid=09924c0b-800b-42ab-b3d6-39ea62fa5720","ios":"levelo://app?vid=09924c0b-800b-42ab-b3d6-39ea62fa5720"},"vehicle_type_id":"4","last_reported":1773876119,"current_range_meters":6000,"station_id":"ce4bhgp2rcd13ifvqfe0","pricing_plan_id":"cebpf4jnsgd1na2vs0mg"},{"bike_id":"7e3617ba-17ca-4431-a82f-f6d8ccebd397","system_id":"levelo_inurba_marseille","lat":43.30797,"lon":5.3815,"is_reserved":false,"is_disabled":false,"rental_uris":{"android":"levelo://app?vid=7e3617ba-17ca-4431-a82f-f6d8ccebd397","ios":"levelo://app?vid=7e3617ba-17ca-4431-a82f-f6d8ccebd397"},"vehicle_type_id":"4","last_reported":1773876119,"current_range_meters":6000,"station_id":"ce4bgt12rcd13ifvqce0","pricing_plan_id":"cebpf4jnsgd1na2vs0mg"},{"bike_id":"1eeb8fd8-3c0c-40ec-bab7-6b173acf9405","system_id":"levelo_inurba_marseille","lat":43.22928,"lon":5.35402,"is_reserved":false,"is_disabled":false,"rental_uris":{"android":"levelo://app?vid=1eeb8fd8-3c0c-40ec-bab7-6b173acf9405","ios":"levelo://app?vid=1eeb8fd8-3c0c-40ec-bab7-6b173acf9405"},"vehicle_type_id":"4","last_reported":1773876119,"current_range_meters":6000,"station_id":"cpo3532slgdg3j2ikp40","pricing_plan_id":"cebpf4jnsgd1na2vs0mg"},{"bike_id":"b1678298-3f5b-4e9b-bb34-63fa7c9d9c9c","system_id":"levelo_inurba_marseille","lat":43.28471,"lon":5.48381,"is_reserved":false,"is_disabled":false,"rental_uris":{"android":"levelo://app?vid=b1678298-3f5b-4e9b-bb34-63fa7c9d9c9c","ios":"levelo://app?vid=b1678298-3f5b-4e9b-bb34-63fa7c9d9c9c"},"vehicle_type_id":"4","last_reported":1773876119,"current_range_meters":6000,"station_id":"","pricing_plan_id":"cebpf4jnsgd1na2vs0mg"},{"bike_id":"d86f7f17-c40c-40d2-9445-70d30fa0ef64","system_id":"levelo_inurba_marseille","lat":43.21753,"lon":5.34607,"is_reserved":false,"is_disabled":true,"rental_uris":{"android":"levelo://app?vid=d86f7f17-c40c-40d2-9445-70d30fa0ef64","ios":"levelo://app?vid=d86f7f17-c40c-40d2-9445-70d30fa0ef64"},"vehicle_type_id":"4","last_reported":1773876119,"current_range_meters":6000,"station_id":"st_cvj6r9ubvosntc0bgbag","pricing_plan_id":"cebpf4jnsgd1na2vs0mg"},{"bike_id":"314a79eb-3b85-4ad3-93cb-d44c45467ba8","system_id":"levelo_inurba_marseille","lat":43.24811,"lon":5.37465,"is_reserved":false,"is_disabled":false,"rental_uris":{"android":"levelo://app?vid=314a79eb-3b85-4ad3-93cb-d44c45467ba8","ios":"levelo://app?vid=314a79eb-3b85-4ad3-93cb-d44c45467ba8"},"vehicle_type_id":"4","last_reported":1773876119,"current_range_meters":6000,"station_id":"ce4bhgh2rcd13ifvqfb0","pricing_plan_id":"cebpf4jnsgd1na2vs0mg"},{"bike_id":"f27557f5-3041-4725-ba95-c50d744c8357","system_id":"levelo_inurba_marseille","lat":43.28812,"lon":5.37452,"is_reserved":false,"is_disabled":false,"rental_uris":{"android":"levelo://app?vid=f27557f5-3041-4725-ba95-c50d744c8357","ios":"levelo://app?vid=f27557f5-3041-4725-ba95-c50d744c8357"},"vehicle_type_id":"4","last_reported":1773876119,"current_range_meters":6000,"station_id":"","pricing_plan_id":"cebpf4jnsgd1na2vs0mg"},{"bike_id":"9d99e656-43f9-4521-b575-035a903587ec","system_id":"levelo_inurba_marseille","lat":43.28555,"lon":5.39509,"is_reserved":false,"is_disabled":true,"rental_uris":{"android":"levelo://app?vid=9d99e656-43f9-4521-b575-035a903587ec","ios":"levelo://app?vid=9d99e656-43f9-4521-b575-035a903587ec"},"vehicle_type_id":"4","last_reported":1773876119,"current_range_meters":6000,"station_id":"ce4bh292rcd13ifvqdg0","pricing_plan_id":"cebpf4jnsgd1na2vs0mg"},{"bike_id":"746a3f72-a2e8-4821-8ef4-c6d319cc5fe3","system_id":"levelo_inurba_marseille","lat":43.29798,"lon":5.39321,"is_reserved":false,"is_disabled":false,"rental_uris":{"android":"levelo://app?vid=746a3f72-a2e8-4821-8ef4-c6d319cc5fe3","ios":"levelo://app?vid=746a3f72-a2e8-4821-8ef4-c6d319cc5fe3"},"vehicle_type_id":"4","last_reported":1773876119,"current_range_meters":6000,"station_id":"chh1huq6cuj3fo74tm60","pricing_plan_id":"cebpf4jnsgd1na2vs0mg"},{"bike_id":"adf73e63-84ba-40f5-9ef8-ed2e3150f1a9","system_id":"levelo_inurba_marseille","lat":43.30247,"lon":5.40055,"is_reserved":false,"is_disabled":false,"rental_uris":{"android":"levelo://app?vid=adf73e63-84ba-40f5-9ef8-ed2e3150f1a9","ios":"levelo://app?vid=adf73e63-84ba-40f5-9ef8-ed2e3150f1a9"},"vehicle_type_id":"4","last_reported":1773876119,"current_range_meters":6000,"station_id":"ce4bgvh2rcd13ifvqcs0","pricing_plan_id":"cebpf4jnsgd1na2vs0mg"},{"bike_id":"ed84b58c-3b82-4011-b909-1c2364917a81","system_id":"levelo_inurba_marseille","lat":43.31308,"lon":5.39707,"is_reserved":false,"is_disabled":false,"rental_uris":{"android":"levelo://app?vid=ed84b58c-3b82-4011-b909-1c2364917a81","ios":"levelo://app?vid=ed84b58c-3b82-4011-b909-1c2364917a81"},"vehicle_type_id":"4","last_reported":1773876119,"current_range_meters":6000,"station_id":"ce4bgvp2rcd13ifvqcu0","pricing_plan_id":"cebpf4jnsgd1na2vs0mg"},{"bike_id":"7f141dcd-887a-4746-a44a-688e104041f4","system_id":"levelo_inurba_marseille","lat":43.24177,"lon":5.36389,"is_reserved":false,"is_disabled":false,"rental_uris":{"android":"levelo://app?vid=7f141dcd-887a-4746-a44a-688e104041f4","ios":"levelo://app?vid=7f141dcd-887a-4746-a44a-688e104041f4"},"vehicle_type_id":"4","last_reported":1773876119,"current_range_meters":6000,"station_id":"cpo36qri1sfpv3e86is0","pricing_plan_id":"cebpf4jnsgd1na2vs0mg"},{"bike_id":"2c972513-e459-4da9-8372-9be54811adba","system_id":"levelo_inurba_marseille","lat":43.30325,"lon":5.40435,"is_reserved":false,"is_disabled":false,"rental_uris":{"android":"levelo://app?vid=2c972513-e459-4da9-8372-9be54811adba","ios":"levelo://app?vid=2c972513-e459-4da9-8372-9be54811adba"},"vehicle_type_id":"4","last_reported":1773876119,"current_range_meters":6000,"station_id":"ce4bh012rcd13ifvqd10","pricing_plan_id":"cebpf4jnsgd1na2vs0mg"},{"bike_id":"a39c2269-c1be-4679-b7ec-7b13e4b25bad","system_id":"levelo_inurba_marseille","lat":43.32496,"lon":5.38764,"is_reserved":false,"is_disabled":true,"rental_uris":{"android":"levelo://app?vid=a39c2269-c1be-4679-b7ec-7b13e4b25bad","ios":"levelo://app?vid=a39c2269-c1be-4679-b7ec-7b13e4b25bad"},"vehicle_type_id":"4","last_reported":1773876119,"current_range_meters":6000,"station_id":"","pricing_plan_id":"cebpf4jnsgd1na2vs0mg"},{"bike_id":"e2a98eaa-25b8-4479-b80e-51461339885e","system_id":"levelo_inurba_marseille","lat":43.23776,"lon":5.36612,"is_reserved":false,"is_disabled":false,"rental_uris":{"android":"levelo://app?vid=e2a98eaa-25b8-4479-b80e-51461339885e","ios":"levelo://app?vid=e2a98eaa-25b8-4479-b80e-51461339885e"},"vehicle_type_id":"4","last_reported":1773876119,"current_range_meters":6000,"station_id":"st_d3nk18o9ro0c73en2l3g","pricing_plan_id":"cebpf4jnsgd1na2vs0mg"},{"bike_id":"779b8a3c-1846-46b5-9cab-bf0ec2b1118f","system_id":"levelo_inurba_marseille","lat":43.28483,"lon":5.48384,"is_reserved":false,"is_disabled":false,"rental_uris":{"android":"levelo://app?vid=779b8a3c-1846-46b5-9cab-bf0ec2b1118f","ios":"levelo://app?vid=779b8a3c-1846-46b5-9cab-bf0ec2b1118f"},"vehicle_type_id":"4","last_reported":1773876119,"current_range_meters":6000,"station_id":"st_d3svhcjqgbts73a3dn0g","pricing_plan_id":"cebpf4jnsgd1na2vs0mg"},{"bike_id":"8168cd18-d76e-4c41-bba3-08b9305a2d9c","system_id":"levelo_inurba_marseille","lat":43.30143,"lon":5.37405,"is_reserved":false,"is_disabled":false,"rental_uris":{"android":"levelo://app?vid=8168cd18-d76e-4c41-bba3-08b9305a2d9c","ios":"levelo://app?vid=8168cd18-d76e-4c41-bba3-08b9305a2d9c"},"vehicle_type_id":"4","last_reported":1773876119,"current_range_meters":6000,"station_id":"ce4bgs92rcd13ifvqcc0","pricing_plan_id":"cebpf4jnsgd1na2vs0mg"},{"bike_id":"91472141-3427-4a3c-8d44-aa322d033af6","system_id":"levelo_inurba_marseille","lat":43.28938,"lon":5.38382,"is_reserved":false,"is_disabled":false,"rental_uris":{"android":"levelo://app?vid=91472141-3427-4a3c-8d44-aa322d033af6","ios":"levelo://app?vid=91472141-3427-4a3c-8d44-aa322d033af6"},"vehicle_type_id":"4","last_reported":1773876119,"current_range_meters":6000,"station_id":"ce4bh612rcd13ifvqe6g","pricing_plan_id":"cebpf4jnsgd1na2vs0mg"},{"bike_id":"7ee62ae5-1c9f-40f1-af63-7af5b27eef3d","system_id":"levelo_inurba_marseille","lat":43.2842,"lon":5.37518,"is_reserved":false,"is_disabled":false,"rental_uris":{"android":"levelo://app?vid=7ee62ae5-1c9f-40f1-af63-7af5b27eef3d","ios":"levelo://app?vid=7ee62ae5-1c9f-40f1-af63-7af5b27eef3d"},"vehicle_type_id":"4","last_reported":1773876119,"current_range_meters":6400,"station_id":"ce4bh412rcd13ifvqds0","pricing_plan_id":"cebpf4jnsgd1na2vs0mg"},{"bike_id":"a34b414b-88e8-47ad-b015-ee191ece79cf","system_id":"levelo_inurba_marseille","lat":43.30812,"lon":5.38147,"is_reserved":false,"is_disabled":false,"rental_uris":{"android":"levelo://app?vid=a34b414b-88e8-47ad-b015-ee191ece79cf","ios":"levelo://app?vid=a34b414b-88e8-47ad-b015-ee191ece79cf"},"vehicle_type_id":"4","last_reported":1773876119,"current_range_meters":6400,"station_id":"ce4bgt12rcd13ifvqce0","pricing_plan_id":"cebpf4jnsgd1na2vs0mg"},{"bike_id":"b4e54967-4eb4-45f5-a80e-01baddc6b232","system_id":"levelo_inurba_marseille","lat":43.2927,"lon":5.40108,"is_reserved":false,"is_disabled":true,"rental_uris":{"android":"levelo://app?vid=b4e54967-4eb4-45f5-a80e-01baddc6b232","ios":"levelo://app?vid=b4e54967-4eb4-45f5-a80e-01baddc6b232"},"vehicle_type_id":"4","last_reported":1773876119,"current_range_meters":6400,"station_id":"ce4bh312rcd13ifvqdk0","pricing_plan_id":"cebpf4jnsgd1na2vs0mg"},{"bike_id":"9ef9fd3b-08e1-41bf-bbd1-087477917b48","system_id":"levelo_inurba_marseille","lat":43.31234,"lon":5.36876,"is_reserved":false,"is_disabled":false,"rental_uris":{"android":"levelo://app?vid=9ef9fd3b-08e1-41bf-bbd1-087477917b48","ios":"levelo://app?vid=9ef9fd3b-08e1-41bf-bbd1-087477917b48"},"vehicle_type_id":"4","last_reported":1773876119,"current_range_meters":6400,"station_id":"ce4bgl92rcd13ifvqbq0","pricing_plan_id":"cebpf4jnsgd1na2vs0mg"},{"bike_id":"4e968e52-3d61-422a-ae95-1e77e5c0ca5c","system_id":"levelo_inurba_marseille","lat":43.30767,"lon":5.37656,"is_reserved":false,"is_disabled":false,"rental_uris":{"android":"levelo://app?vid=4e968e52-3d61-422a-ae95-1e77e5c0ca5c","ios":"levelo://app?vid=4e968e52-3d61-422a-ae95-1e77e5c0ca5c"},"vehicle_type_id":"4","last_reported":1773876119,"current_range_meters":6400,"station_id":"ce4bgv92rcd13ifvqcq0","pricing_plan_id":"cebpf4jnsgd1na2vs0mg"},{"bike_id":"e1bb4de0-7afb-4640-893b-7064dc6eb7df","system_id":"levelo_inurba_marseille","lat":43.286,"lon":5.37086,"is_reserved":false,"is_disabled":false,"rental_uris":{"android":"levelo://app?vid=e1bb4de0-7afb-4640-893b-7064dc6eb7df","ios":"levelo://app?vid=e1bb4de0-7afb-4640-893b-7064dc6eb7df"},"vehicle_type_id":"4","last_reported":1773876119,"current_range_meters":6400,"station_id":"ce4bht12rcd13ifvqi60","pricing_plan_id":"cebpf4jnsgd1na2vs0mg"},{"bike_id":"3224daa3-173c-4836-8af9-46b463d20aca","system_id":"levelo_inurba_marseille","lat":43.30435,"lon":5.38897,"is_reserved":false,"is_disabled":false,"rental_uris":{"android":"levelo://app?vid=3224daa3-173c-4836-8af9-46b463d20aca","ios":"levelo://app?vid=3224daa3-173c-4836-8af9-46b463d20aca"},"vehicle_type_id":"4","last_reported":1773876119,"current_range_meters":6400,"station_id":"ce4bgk12rcd13ifvqbi0","pricing_plan_id":"cebpf4jnsgd1na2vs0mg"},{"bike_id":"a9d31829-7e0d-482f-af05-97ddd320ae16","system_id":"levelo_inurba_marseille","lat":43.2975,"lon":5.42778,"is_reserved":false,"is_disabled":true,"rental_uris":{"android":"levelo://app?vid=a9d31829-7e0d-482f-af05-97ddd320ae16","ios":"levelo://app?vid=a9d31829-7e0d-482f-af05-97ddd320ae16"},"vehicle_type_id":"4","last_reported":1773876119,"current_range_meters":6400,"station_id":"st_d3md5207bmas73dh9klg","pricing_plan_id":"cebpf4jnsgd1na2vs0mg"},{"bike_id":"cf7d1234-f536-4df0-af0d-988a5d6a055a","system_id":"levelo_inurba_marseille","lat":43.30929,"lon":5.40169,"is_reserved":false,"is_disabled":false,"rental_uris":{"android":"levelo://app?vid=cf7d1234-f536-4df0-af0d-988a5d6a055a","ios":"levelo://app?vid=cf7d1234-f536-4df0-af0d-988a5d6a055a"},"vehicle_type_id":"4","last_reported":1773876119,"current_range_meters":6400,"station_id":"ce4bgvp2rcd13ifvqct0","pricing_plan_id":"cebpf4jnsgd1na2vs0mg"},{"bike_id":"e107cb22-a13d-4c03-93ce-8114e06b9a0f","system_id":"levelo_inurba_marseille","lat":43.28489,"lon":5.48393,"is_reserved":false,"is_disabled":false,"rental_uris":{"android":"levelo://app?vid=e107cb22-a13d-4c03-93ce-8114e06b9a0f","ios":"levelo://app?vid=e107cb22-a13d-4c03-93ce-8114e06b9a0f"},"vehicle_type_id":"4","last_reported":1773876119,"current_range_meters":6400,"station_id":"","pricing_plan_id":"cebpf4jnsgd1na2vs0mg"},{"bike_id":"447b11a1-21b5-4523-80dc-ebe593853403","system_id":"levelo_inurba_marseille","lat":43.29206,"lon":5.4267,"is_reserved":false,"is_disabled":false,"rental_uris":{"android":"levelo://app?vid=447b11a1-21b5-4523-80dc-ebe593853403","ios":"levelo://app?vid=447b11a1-21b5-4523-80dc-ebe593853403"},"vehicle_type_id":"4","last_reported":1773876119,"current_range_meters":6400,"station_id":"","pricing_plan_id":"cebpf4jnsgd1na2vs0mg"},{"bike_id":"9b403a02-0994-46a6-8c61-c39cc7306449","system_id":"levelo_inurba_marseille","lat":43.30254,"lon":5.40066,"is_reserved":false,"is_disabled":false,"rental_uris":{"android":"levelo://app?vid=9b403a02-0994-46a6-8c61-c39cc7306449","ios":"levelo://app?vid=9b403a02-0994-46a6-8c61-c39cc7306449"},"vehicle_type_id":"4","last_reported":1773876119,"current_range_meters":6400,"station_id":"ce4bgvh2rcd13ifvqcs0","pricing_plan_id":"cebpf4jnsgd1na2vs0mg"},{"bike_id":"a5d7a922-fa93-4b5a-85d5-d874d92b0a20","system_id":"levelo_inurba_marseille","lat":43.30621,"lon":5.39873,"is_reserved":false,"is_disabled":false,"rental_uris":{"android":"levelo://app?vid=a5d7a922-fa93-4b5a-85d5-d874d92b0a20","ios":"levelo://app?vid=a5d7a922-fa93-4b5a-85d5-d874d92b0a20"},"vehicle_type_id":"4","last_reported":1773876119,"current_range_meters":6400,"station_id":"","pricing_plan_id":"cebpf4jnsgd1na2vs0mg"},{"bike_id":"761d37d3-db89-4d13-9748-49c3d92df949","system_id":"levelo_inurba_marseille","lat":43.24834,"lon":5.3746,"is_reserved":false,"is_disabled":false,"rental_uris":{"android":"levelo://app?vid=761d37d3-db89-4d13-9748-49c3d92df949","ios":"levelo://app?vid=761d37d3-db89-4d13-9748-49c3d92df949"},"vehicle_type_id":"4","last_reported":1773876119,"current_range_meters":6800,"station_id":"","pricing_plan_id":"cebpf4jnsgd1na2vs0mg"},{"bike_id":"31e5fe70-8cb7-4014-8225-8ae6146674ce","system_id":"levelo_inurba_marseille","lat":43.27552,"lon":5.38426,"is_reserved":false,"is_disabled":false,"rental_uris":{"android":"levelo://app?vid=31e5fe70-8cb7-4014-8225-8ae6146674ce","ios":"levelo://app?vid=31e5fe70-8cb7-4014-8225-8ae6146674ce"},"vehicle_type_id":"4","last_reported":1773876119,"current_range_meters":6800,"station_id":"ce4bhh92rcd13ifvqfi0","pricing_plan_id":"cebpf4jnsgd1na2vs0mg"},{"bike_id":"173a3db2-8881-4b9b-9f56-8f03c5410dbd","system_id":"levelo_inurba_marseille","lat":43.27244,"lon":5.39214,"is_reserved":false,"is_disabled":false,"rental_uris":{"android":"levelo://app?vid=173a3db2-8881-4b9b-9f56-8f03c5410dbd","ios":"levelo://app?vid=173a3db2-8881-4b9b-9f56-8f03c5410dbd"},"vehicle_type_id":"4","last_reported":1773876119,"current_range_meters":6800,"station_id":"ce4bhhp2rcd13ifvqfm0","pricing_plan_id":"cebpf4jnsgd1na2vs0mg"},{"bike_id":"5fcac257-91b3-4396-9a56-b73d24ce161c","system_id":"levelo_inurba_marseille","lat":43.29188,"lon":5.39306,"is_reserved":false,"is_disabled":true,"rental_uris":{"android":"levelo://app?vid=5fcac257-91b3-4396-9a56-b73d24ce161c","ios":"levelo://app?vid=5fcac257-91b3-4396-9a56-b73d24ce161c"},"vehicle_type_id":"4","last_reported":1773876119,"current_range_meters":6800,"station_id":"ce4bh192rcd13ifvqdd0","pricing_plan_id":"cebpf4jnsgd1na2vs0mg"},{"bike_id":"bd60a6ec-18d4-4476-ab1b-f354043c4b72","system_id":"levelo_inurba_marseille","lat":43.29806,"lon":5.42643,"is_reserved":false,"is_disabled":false,"rental_uris":{"android":"levelo://app?vid=bd60a6ec-18d4-4476-ab1b-f354043c4b72","ios":"levelo://app?vid=bd60a6ec-18d4-4476-ab1b-f354043c4b72"},"vehicle_type_id":"4","last_reported":1773876119,"current_range_meters":6800,"station_id":"","pricing_plan_id":"cebpf4jnsgd1na2vs0mg"},{"bike_id":"3f800dca-0c97-4264-b119-84b721c4d832","system_id":"levelo_inurba_marseille","lat":43.302429,"lon":5.400698,"is_reserved":false,"is_disabled":false,"rental_uris":{"android":"levelo://app?vid=3f800dca-0c97-4264-b119-84b721c4d832","ios":"levelo://app?vid=3f800dca-0c97-4264-b119-84b721c4d832"},"vehicle_type_id":"4","last_reported":1773876119,"current_range_meters":6800,"station_id":"ce4bgvh2rcd13ifvqcs0","pricing_plan_id":"cebpf4jnsgd1na2vs0mg"},{"bike_id":"2cd6d2c4-9839-4b08-8d75-805c4c2214dc","system_id":"levelo_inurba_marseille","lat":43.23047,"lon":5.35497,"is_reserved":false,"is_disabled":false,"rental_uris":{"android":"levelo://app?vid=2cd6d2c4-9839-4b08-8d75-805c4c2214dc","ios":"levelo://app?vid=2cd6d2c4-9839-4b08-8d75-805c4c2214dc"},"vehicle_type_id":"4","last_reported":1773876119,"current_range_meters":6800,"station_id":"cpo3342slgdg3j2ifvpg","pricing_plan_id":"cebpf4jnsgd1na2vs0mg"},{"bike_id":"591c0d75-dd2c-4abc-8e75-7ed086672e0c","system_id":"levelo_inurba_marseille","lat":43.28219,"lon":5.39056,"is_reserved":false,"is_disabled":false,"rental_uris":{"android":"levelo://app?vid=591c0d75-dd2c-4abc-8e75-7ed086672e0c","ios":"levelo://app?vid=591c0d75-dd2c-4abc-8e75-7ed086672e0c"},"vehicle_type_id":"4","last_reported":1773876119,"current_range_meters":6800,"station_id":"ce4bhn92rcd13ifvqgsg","pricing_plan_id":"cebpf4jnsgd1na2vs0mg"},{"bike_id":"044327fb-ae76-49c9-a9ca-849879bad04a","system_id":"levelo_inurba_marseille","lat":43.29163,"lon":5.37172,"is_reserved":false,"is_disabled":false,"rental_uris":{"android":"levelo://app?vid=044327fb-ae76-49c9-a9ca-849879bad04a","ios":"levelo://app?vid=044327fb-ae76-49c9-a9ca-849879bad04a"},"vehicle_type_id":"4","last_reported":1773876119,"current_range_meters":6800,"station_id":"ce4bha92rcd13ifvqeh0","pricing_plan_id":"cebpf4jnsgd1na2vs0mg"},{"bike_id":"d0b1f448-6af4-4ef1-a755-e03baf4488aa","system_id":"levelo_inurba_marseille","lat":43.29262,"lon":5.3576,"is_reserved":false,"is_disabled":false,"rental_uris":{"android":"levelo://app?vid=d0b1f448-6af4-4ef1-a755-e03baf4488aa","ios":"levelo://app?vid=d0b1f448-6af4-4ef1-a755-e03baf4488aa"},"vehicle_type_id":"4","last_reported":1773876119,"current_range_meters":6800,"station_id":"","pricing_plan_id":"cebpf4jnsgd1na2vs0mg"},{"bike_id":"7ede43b4-ee4c-439a-89f2-16f8f587f976","system_id":"levelo_inurba_marseille","lat":43.29895,"lon":5.37486,"is_reserved":false,"is_disabled":false,"rental_uris":{"android":"levelo://app?vid=7ede43b4-ee4c-439a-89f2-16f8f587f976","ios":"levelo://app?vid=7ede43b4-ee4c-439a-89f2-16f8f587f976"},"vehicle_type_id":"4","last_reported":1773876119,"current_range_meters":6800,"station_id":"ce4bgjh2rcd13ifvqbg0","pricing_plan_id":"cebpf4jnsgd1na2vs0mg"},{"bike_id":"fe5c801f-68be-46bc-a966-92199c3574ea","system_id":"levelo_inurba_marseille","lat":43.28148,"lon":5.42628,"is_reserved":false,"is_disabled":false,"rental_uris":{"android":"levelo://app?vid=fe5c801f-68be-46bc-a966-92199c3574ea","ios":"levelo://app?vid=fe5c801f-68be-46bc-a966-92199c3574ea"},"vehicle_type_id":"4","last_reported":1773876119,"current_range_meters":6800,"station_id":"ce4bhnh2rcd13ifvqgug","pricing_plan_id":"cebpf4jnsgd1na2vs0mg"},{"bike_id":"04a672df-c3bb-4c7f-bb76-8e3d4b80c3af","system_id":"levelo_inurba_marseille","lat":43.284064,"lon":5.37511,"is_reserved":false,"is_disabled":false,"rental_uris":{"android":"levelo://app?vid=04a672df-c3bb-4c7f-bb76-8e3d4b80c3af","ios":"levelo://app?vid=04a672df-c3bb-4c7f-bb76-8e3d4b80c3af"},"vehicle_type_id":"4","last_reported":1773876119,"current_range_meters":6800,"station_id":"ce4bh412rcd13ifvqds0","pricing_plan_id":"cebpf4jnsgd1na2vs0mg"},{"bike_id":"d921a034-91f6-444c-9a4f-31bbc308387e","system_id":"levelo_inurba_marseille","lat":43.28436,"lon":5.37506,"is_reserved":false,"is_disabled":false,"rental_uris":{"android":"levelo://app?vid=d921a034-91f6-444c-9a4f-31bbc308387e","ios":"levelo://app?vid=d921a034-91f6-444c-9a4f-31bbc308387e"},"vehicle_type_id":"4","last_reported":1773876119,"current_range_meters":6800,"station_id":"ce4bh412rcd13ifvqds0","pricing_plan_id":"cebpf4jnsgd1na2vs0mg"},{"bike_id":"64f8e5fa-4ab6-4e22-8721-6a21ffbc83a2","system_id":"levelo_inurba_marseille","lat":43.30795,"lon":5.38158,"is_reserved":false,"is_disabled":false,"rental_uris":{"android":"levelo://app?vid=64f8e5fa-4ab6-4e22-8721-6a21ffbc83a2","ios":"levelo://app?vid=64f8e5fa-4ab6-4e22-8721-6a21ffbc83a2"},"vehicle_type_id":"4","last_reported":1773876119,"current_range_meters":6800,"station_id":"ce4bgt12rcd13ifvqce0","pricing_plan_id":"cebpf4jnsgd1na2vs0mg"},{"bike_id":"768a8c01-41df-42a9-9687-055ac84fde99","system_id":"levelo_inurba_marseille","lat":43.24658,"lon":5.38895,"is_reserved":false,"is_disabled":false,"rental_uris":{"android":"levelo://app?vid=768a8c01-41df-42a9-9687-055ac84fde99","ios":"levelo://app?vid=768a8c01-41df-42a9-9687-055ac84fde99"},"vehicle_type_id":"4","last_reported":1773876119,"current_range_meters":6800,"station_id":"ce4bhg12rcd13ifvqf60","pricing_plan_id":"cebpf4jnsgd1na2vs0mg"},{"bike_id":"a9430763-7b40-489c-99d2-1136f7fabb44","system_id":"levelo_inurba_marseille","lat":43.24664,"lon":5.38162,"is_reserved":false,"is_disabled":false,"rental_uris":{"android":"levelo://app?vid=a9430763-7b40-489c-99d2-1136f7fabb44","ios":"levelo://app?vid=a9430763-7b40-489c-99d2-1136f7fabb44"},"vehicle_type_id":"4","last_reported":1773876119,"current_range_meters":6800,"station_id":"ce4bhih2rcd13ifvqfr0","pricing_plan_id":"cebpf4jnsgd1na2vs0mg"},{"bike_id":"3635b547-8884-40df-a135-beb126bd6ba8","system_id":"levelo_inurba_marseille","lat":43.28622,"lon":5.38707,"is_reserved":false,"is_disabled":false,"rental_uris":{"android":"levelo://app?vid=3635b547-8884-40df-a135-beb126bd6ba8","ios":"levelo://app?vid=3635b547-8884-40df-a135-beb126bd6ba8"},"vehicle_type_id":"4","last_reported":1773876119,"current_range_meters":6800,"station_id":"ce4bh492rcd13ifvqdug","pricing_plan_id":"cebpf4jnsgd1na2vs0mg"},{"bike_id":"3389cb64-9af1-42a2-9f3e-85844077f42e","system_id":"levelo_inurba_marseille","lat":43.29802,"lon":5.40404,"is_reserved":false,"is_disabled":false,"rental_uris":{"android":"levelo://app?vid=3389cb64-9af1-42a2-9f3e-85844077f42e","ios":"levelo://app?vid=3389cb64-9af1-42a2-9f3e-85844077f42e"},"vehicle_type_id":"4","last_reported":1773876119,"current_range_meters":6800,"station_id":"ce4bh112rcd13ifvqd90","pricing_plan_id":"cebpf4jnsgd1na2vs0mg"},{"bike_id":"0b4bf319-02f6-45c9-9e4e-53cbe54411ea","system_id":"levelo_inurba_marseille","lat":43.31532,"lon":5.38034,"is_reserved":false,"is_disabled":false,"rental_uris":{"android":"levelo://app?vid=0b4bf319-02f6-45c9-9e4e-53cbe54411ea","ios":"levelo://app?vid=0b4bf319-02f6-45c9-9e4e-53cbe54411ea"},"vehicle_type_id":"4","last_reported":1773876119,"current_range_meters":7200,"station_id":"ce4bhsp2rcd13ifvqi50","pricing_plan_id":"cebpf4jnsgd1na2vs0mg"},{"bike_id":"6b4c7c94-85db-4650-b07f-11e6e023d6bf","system_id":"levelo_inurba_marseille","lat":43.29709,"lon":5.36615,"is_reserved":false,"is_disabled":false,"rental_uris":{"android":"levelo://app?vid=6b4c7c94-85db-4650-b07f-11e6e023d6bf","ios":"levelo://app?vid=6b4c7c94-85db-4650-b07f-11e6e023d6bf"},"vehicle_type_id":"4","last_reported":1773876119,"current_range_meters":7200,"station_id":"ce4bgn12rcd13ifvqbt0","pricing_plan_id":"cebpf4jnsgd1na2vs0mg"},{"bike_id":"1c51670a-46e5-4a0c-9d9c-3c2806d077a8","system_id":"levelo_inurba_marseille","lat":43.29013,"lon":5.38087,"is_reserved":false,"is_disabled":true,"rental_uris":{"android":"levelo://app?vid=1c51670a-46e5-4a0c-9d9c-3c2806d077a8","ios":"levelo://app?vid=1c51670a-46e5-4a0c-9d9c-3c2806d077a8"},"vehicle_type_id":"4","last_reported":1773876119,"current_range_meters":7200,"station_id":"ce4bh4p2rcd13ifvqe1g","pricing_plan_id":"cebpf4jnsgd1na2vs0mg"},{"bike_id":"0c568fbf-621d-4cc8-ade7-4b24ab6705de","system_id":"levelo_inurba_marseille","lat":43.21763,"lon":5.34604,"is_reserved":false,"is_disabled":false,"rental_uris":{"android":"levelo://app?vid=0c568fbf-621d-4cc8-ade7-4b24ab6705de","ios":"levelo://app?vid=0c568fbf-621d-4cc8-ade7-4b24ab6705de"},"vehicle_type_id":"4","last_reported":1773876119,"current_range_meters":7200,"station_id":"st_cvj6r9ubvosntc0bgbag","pricing_plan_id":"cebpf4jnsgd1na2vs0mg"},{"bike_id":"57aa2017-3442-489e-9be1-d1e8a8b79dfb","system_id":"levelo_inurba_marseille","lat":43.305378,"lon":5.384278,"is_reserved":false,"is_disabled":false,"rental_uris":{"android":"levelo://app?vid=57aa2017-3442-489e-9be1-d1e8a8b79dfb","ios":"levelo://app?vid=57aa2017-3442-489e-9be1-d1e8a8b79dfb"},"vehicle_type_id":"4","last_reported":1773876119,"current_range_meters":7200,"station_id":"ce4bgg92rcd13ifvqb30","pricing_plan_id":"cebpf4jnsgd1na2vs0mg"},{"bike_id":"bf26da59-cb72-4e4e-b621-6bfffa8b5fe0","system_id":"levelo_inurba_marseille","lat":43.28091,"lon":5.37864,"is_reserved":false,"is_disabled":false,"rental_uris":{"android":"levelo://app?vid=bf26da59-cb72-4e4e-b621-6bfffa8b5fe0","ios":"levelo://app?vid=bf26da59-cb72-4e4e-b621-6bfffa8b5fe0"},"vehicle_type_id":"4","last_reported":1773876119,"current_range_meters":7200,"station_id":"ce4bha12rcd13ifvqee0","pricing_plan_id":"cebpf4jnsgd1na2vs0mg"},{"bike_id":"df9adaef-5509-4871-bf78-1814d256e6d4","system_id":"levelo_inurba_marseille","lat":43.28223,"lon":5.39039,"is_reserved":false,"is_disabled":false,"rental_uris":{"android":"levelo://app?vid=df9adaef-5509-4871-bf78-1814d256e6d4","ios":"levelo://app?vid=df9adaef-5509-4871-bf78-1814d256e6d4"},"vehicle_type_id":"4","last_reported":1773876119,"current_range_meters":7200,"station_id":"ce4bhn92rcd13ifvqgsg","pricing_plan_id":"cebpf4jnsgd1na2vs0mg"},{"bike_id":"0d16c67b-9d4c-4c41-aeb6-84a24cd365e1","system_id":"levelo_inurba_marseille","lat":43.31282,"lon":5.40159,"is_reserved":false,"is_disabled":false,"rental_uris":{"android":"levelo://app?vid=0d16c67b-9d4c-4c41-aeb6-84a24cd365e1","ios":"levelo://app?vid=0d16c67b-9d4c-4c41-aeb6-84a24cd365e1"},"vehicle_type_id":"4","last_reported":1773876119,"current_range_meters":7200,"station_id":"ce4bh092rcd13ifvqd30","pricing_plan_id":"cebpf4jnsgd1na2vs0mg"},{"bike_id":"35654e12-233a-4410-9b0d-c7a68cd6bff0","system_id":"levelo_inurba_marseille","lat":43.25081,"lon":5.39524,"is_reserved":false,"is_disabled":false,"rental_uris":{"android":"levelo://app?vid=35654e12-233a-4410-9b0d-c7a68cd6bff0","ios":"levelo://app?vid=35654e12-233a-4410-9b0d-c7a68cd6bff0"},"vehicle_type_id":"4","last_reported":1773876119,"current_range_meters":7200,"station_id":"ce4bhm12rcd13ifvqgkg","pricing_plan_id":"cebpf4jnsgd1na2vs0mg"},{"bike_id":"8aeba5db-197f-49b1-a261-21478d093086","system_id":"levelo_inurba_marseille","lat":43.28641,"lon":5.39805,"is_reserved":false,"is_disabled":false,"rental_uris":{"android":"levelo://app?vid=8aeba5db-197f-49b1-a261-21478d093086","ios":"levelo://app?vid=8aeba5db-197f-49b1-a261-21478d093086"},"vehicle_type_id":"4","last_reported":1773876119,"current_range_meters":7200,"station_id":"st_d4a7ka997mjs738ck50g","pricing_plan_id":"cebpf4jnsgd1na2vs0mg"},{"bike_id":"90e06dc1-4034-4aa0-b2a4-e14e93cda8f6","system_id":"levelo_inurba_marseille","lat":43.28459,"lon":5.35903,"is_reserved":false,"is_disabled":false,"rental_uris":{"android":"levelo://app?vid=90e06dc1-4034-4aa0-b2a4-e14e93cda8f6","ios":"levelo://app?vid=90e06dc1-4034-4aa0-b2a4-e14e93cda8f6"},"vehicle_type_id":"4","last_reported":1773876119,"current_range_meters":7200,"station_id":"ce4bhah2rcd13ifvqei0","pricing_plan_id":"cebpf4jnsgd1na2vs0mg"},{"bike_id":"23e67bc3-c6df-471a-b481-46b83c355ff4","system_id":"levelo_inurba_marseille","lat":43.28405,"lon":5.37514,"is_reserved":false,"is_disabled":false,"rental_uris":{"android":"levelo://app?vid=23e67bc3-c6df-471a-b481-46b83c355ff4","ios":"levelo://app?vid=23e67bc3-c6df-471a-b481-46b83c355ff4"},"vehicle_type_id":"4","last_reported":1773876119,"current_range_meters":7200,"station_id":"ce4bh412rcd13ifvqds0","pricing_plan_id":"cebpf4jnsgd1na2vs0mg"},{"bike_id":"fad8e96d-acb2-4874-9608-7180f6b034b8","system_id":"levelo_inurba_marseille","lat":43.29166,"lon":5.40815,"is_reserved":false,"is_disabled":false,"rental_uris":{"android":"levelo://app?vid=fad8e96d-acb2-4874-9608-7180f6b034b8","ios":"levelo://app?vid=fad8e96d-acb2-4874-9608-7180f6b034b8"},"vehicle_type_id":"4","last_reported":1773876119,"current_range_meters":7200,"station_id":"","pricing_plan_id":"cebpf4jnsgd1na2vs0mg"},{"bike_id":"df328e25-1611-43bf-a2a1-3abfc13c8928","system_id":"levelo_inurba_marseille","lat":43.24821,"lon":5.37447,"is_reserved":false,"is_disabled":false,"rental_uris":{"android":"levelo://app?vid=df328e25-1611-43bf-a2a1-3abfc13c8928","ios":"levelo://app?vid=df328e25-1611-43bf-a2a1-3abfc13c8928"},"vehicle_type_id":"4","last_reported":1773876119,"current_range_meters":7200,"station_id":"ce4bhgh2rcd13ifvqfb0","pricing_plan_id":"cebpf4jnsgd1na2vs0mg"},{"bike_id":"374e86a8-de2a-4cb2-86ef-d4458405b73e","system_id":"levelo_inurba_marseille","lat":43.282,"lon":5.3906,"is_reserved":false,"is_disabled":false,"rental_uris":{"android":"levelo://app?vid=374e86a8-de2a-4cb2-86ef-d4458405b73e","ios":"levelo://app?vid=374e86a8-de2a-4cb2-86ef-d4458405b73e"},"vehicle_type_id":"4","last_reported":1773876119,"current_range_meters":7200,"station_id":"ce4bhn92rcd13ifvqgsg","pricing_plan_id":"cebpf4jnsgd1na2vs0mg"},{"bike_id":"b95c57e9-5fda-488c-ab14-d762b1591316","system_id":"levelo_inurba_marseille","lat":43.308,"lon":5.38155,"is_reserved":false,"is_disabled":false,"rental_uris":{"android":"levelo://app?vid=b95c57e9-5fda-488c-ab14-d762b1591316","ios":"levelo://app?vid=b95c57e9-5fda-488c-ab14-d762b1591316"},"vehicle_type_id":"4","last_reported":1773876119,"current_range_meters":7200,"station_id":"ce4bgt12rcd13ifvqce0","pricing_plan_id":"cebpf4jnsgd1na2vs0mg"},{"bike_id":"7e77126d-4367-40ad-aa10-44fec01b3afc","system_id":"levelo_inurba_marseille","lat":43.22931,"lon":5.35387,"is_reserved":false,"is_disabled":false,"rental_uris":{"android":"levelo://app?vid=7e77126d-4367-40ad-aa10-44fec01b3afc","ios":"levelo://app?vid=7e77126d-4367-40ad-aa10-44fec01b3afc"},"vehicle_type_id":"4","last_reported":1773876119,"current_range_meters":7200,"station_id":"cpo3532slgdg3j2ikp40","pricing_plan_id":"cebpf4jnsgd1na2vs0mg"},{"bike_id":"a87091a6-1ddb-4b26-8b5f-1025f74aee5c","system_id":"levelo_inurba_marseille","lat":43.28946,"lon":5.39634,"is_reserved":false,"is_disabled":false,"rental_uris":{"android":"levelo://app?vid=a87091a6-1ddb-4b26-8b5f-1025f74aee5c","ios":"levelo://app?vid=a87091a6-1ddb-4b26-8b5f-1025f74aee5c"},"vehicle_type_id":"4","last_reported":1773876119,"current_range_meters":7200,"station_id":"ce4bh3h2rcd13ifvqdn0","pricing_plan_id":"cebpf4jnsgd1na2vs0mg"},{"bike_id":"a238f644-6f8b-49ee-b43a-03a0fb52824a","system_id":"levelo_inurba_marseille","lat":43.28603,"lon":5.37064,"is_reserved":false,"is_disabled":false,"rental_uris":{"android":"levelo://app?vid=a238f644-6f8b-49ee-b43a-03a0fb52824a","ios":"levelo://app?vid=a238f644-6f8b-49ee-b43a-03a0fb52824a"},"vehicle_type_id":"4","last_reported":1773876119,"current_range_meters":7200,"station_id":"ce4bht12rcd13ifvqi60","pricing_plan_id":"cebpf4jnsgd1na2vs0mg"},{"bike_id":"7a15c25e-afab-4432-a459-459233f2203b","system_id":"levelo_inurba_marseille","lat":43.29224,"lon":5.36077,"is_reserved":false,"is_disabled":false,"rental_uris":{"android":"levelo://app?vid=7a15c25e-afab-4432-a459-459233f2203b","ios":"levelo://app?vid=7a15c25e-afab-4432-a459-459233f2203b"},"vehicle_type_id":"4","last_reported":1773876119,"current_range_meters":7200,"station_id":"ce4bhbh2rcd13ifvqeqg","pricing_plan_id":"cebpf4jnsgd1na2vs0mg"},{"bike_id":"d532de73-31b0-408e-96ce-6676e6435a22","system_id":"levelo_inurba_marseille","lat":43.212,"lon":5.35071,"is_reserved":false,"is_disabled":false,"rental_uris":{"android":"levelo://app?vid=d532de73-31b0-408e-96ce-6676e6435a22","ios":"levelo://app?vid=d532de73-31b0-408e-96ce-6676e6435a22"},"vehicle_type_id":"4","last_reported":1773876119,"current_range_meters":8000,"station_id":"st_cvj6sg6p6f1abm77japg","pricing_plan_id":"cebpf4jnsgd1na2vs0mg"},{"bike_id":"a918d57a-c48c-4085-ac42-61882623bc55","system_id":"levelo_inurba_marseille","lat":43.24463,"lon":5.42544,"is_reserved":false,"is_disabled":false,"rental_uris":{"android":"levelo://app?vid=a918d57a-c48c-4085-ac42-61882623bc55","ios":"levelo://app?vid=a918d57a-c48c-4085-ac42-61882623bc55"},"vehicle_type_id":"4","last_reported":1773876119,"current_range_meters":8000,"station_id":"st_d4a3vfp97mjs738cd8kg","pricing_plan_id":"cebpf4jnsgd1na2vs0mg"},{"bike_id":"9596adc9-0a00-4fd5-8f7a-4107ab6390ef","system_id":"levelo_inurba_marseille","lat":43.2926,"lon":5.36853,"is_reserved":false,"is_disabled":false,"rental_uris":{"android":"levelo://app?vid=9596adc9-0a00-4fd5-8f7a-4107ab6390ef","ios":"levelo://app?vid=9596adc9-0a00-4fd5-8f7a-4107ab6390ef"},"vehicle_type_id":"4","last_reported":1773876119,"current_range_meters":8000,"station_id":"ce4bhbp2rcd13ifvqesg","pricing_plan_id":"cebpf4jnsgd1na2vs0mg"},{"bike_id":"3903529a-97cf-43f8-9c3a-f35f9c9bbdf2","system_id":"levelo_inurba_marseille","lat":43.313552,"lon":5.367146,"is_reserved":false,"is_disabled":true,"rental_uris":{"android":"levelo://app?vid=3903529a-97cf-43f8-9c3a-f35f9c9bbdf2","ios":"levelo://app?vid=3903529a-97cf-43f8-9c3a-f35f9c9bbdf2"},"vehicle_type_id":"4","last_reported":1773876119,"current_range_meters":8000,"station_id":"ce4bgr92rcd13ifvqc6g","pricing_plan_id":"cebpf4jnsgd1na2vs0mg"},{"bike_id":"c37d7dba-1b35-4836-9628-3a7bf03ac96f","system_id":"levelo_inurba_marseille","lat":43.23402,"lon":5.4124,"is_reserved":false,"is_disabled":false,"rental_uris":{"android":"levelo://app?vid=c37d7dba-1b35-4836-9628-3a7bf03ac96f","ios":"levelo://app?vid=c37d7dba-1b35-4836-9628-3a7bf03ac96f"},"vehicle_type_id":"4","last_reported":1773876119,"current_range_meters":8000,"station_id":"","pricing_plan_id":"cebpf4jnsgd1na2vs0mg"},{"bike_id":"719e9861-af82-4022-a2ea-bd7d6f00ff5f","system_id":"levelo_inurba_marseille","lat":43.28749,"lon":5.42531,"is_reserved":false,"is_disabled":false,"rental_uris":{"android":"levelo://app?vid=719e9861-af82-4022-a2ea-bd7d6f00ff5f","ios":"levelo://app?vid=719e9861-af82-4022-a2ea-bd7d6f00ff5f"},"vehicle_type_id":"4","last_reported":1773876119,"current_range_meters":8000,"station_id":"","pricing_plan_id":"cebpf4jnsgd1na2vs0mg"},{"bike_id":"13ad50bf-7f2f-4ad1-a82f-209db682ff58","system_id":"levelo_inurba_marseille","lat":43.26555,"lon":5.39016,"is_reserved":false,"is_disabled":true,"rental_uris":{"android":"levelo://app?vid=13ad50bf-7f2f-4ad1-a82f-209db682ff58","ios":"levelo://app?vid=13ad50bf-7f2f-4ad1-a82f-209db682ff58"},"vehicle_type_id":"4","last_reported":1773876119,"current_range_meters":8000,"station_id":"ce4bhe12rcd13ifvqf30","pricing_plan_id":"cebpf4jnsgd1na2vs0mg"},{"bike_id":"3fba1b49-30ec-4c3f-9ccd-7058b7f461b0","system_id":"levelo_inurba_marseille","lat":43.30128,"lon":5.39863,"is_reserved":false,"is_disabled":false,"rental_uris":{"android":"levelo://app?vid=3fba1b49-30ec-4c3f-9ccd-7058b7f461b0","ios":"levelo://app?vid=3fba1b49-30ec-4c3f-9ccd-7058b7f461b0"},"vehicle_type_id":"4","last_reported":1773876119,"current_range_meters":8000,"station_id":"ce4bh0h2rcd13ifvqd40","pricing_plan_id":"cebpf4jnsgd1na2vs0mg"},{"bike_id":"237ab0bb-0029-4e41-9ae4-864155d6fbda","system_id":"levelo_inurba_marseille","lat":43.251058,"lon":5.403152,"is_reserved":false,"is_disabled":false,"rental_uris":{"android":"levelo://app?vid=237ab0bb-0029-4e41-9ae4-864155d6fbda","ios":"levelo://app?vid=237ab0bb-0029-4e41-9ae4-864155d6fbda"},"vehicle_type_id":"4","last_reported":1773876119,"current_range_meters":8000,"station_id":"ce4bhlh2rcd13ifvqgig","pricing_plan_id":"cebpf4jnsgd1na2vs0mg"},{"bike_id":"caf5e45c-f3f2-43eb-99a6-b11ec33451e8","system_id":"levelo_inurba_marseille","lat":43.23977,"lon":5.36654,"is_reserved":false,"is_disabled":false,"rental_uris":{"android":"levelo://app?vid=caf5e45c-f3f2-43eb-99a6-b11ec33451e8","ios":"levelo://app?vid=caf5e45c-f3f2-43eb-99a6-b11ec33451e8"},"vehicle_type_id":"4","last_reported":1773876119,"current_range_meters":8000,"station_id":"ce4bhi12rcd13ifvqfp0","pricing_plan_id":"cebpf4jnsgd1na2vs0mg"},{"bike_id":"0f1d9beb-68a0-41ff-aad4-5381229f326a","system_id":"levelo_inurba_marseille","lat":43.3076,"lon":5.37462,"is_reserved":false,"is_disabled":false,"rental_uris":{"android":"levelo://app?vid=0f1d9beb-68a0-41ff-aad4-5381229f326a","ios":"levelo://app?vid=0f1d9beb-68a0-41ff-aad4-5381229f326a"},"vehicle_type_id":"4","last_reported":1773876119,"current_range_meters":8000,"station_id":"","pricing_plan_id":"cebpf4jnsgd1na2vs0mg"},{"bike_id":"8af57e7b-3968-4723-84a5-33e601591d74","system_id":"levelo_inurba_marseille","lat":43.28367,"lon":5.35292,"is_reserved":false,"is_disabled":false,"rental_uris":{"android":"levelo://app?vid=8af57e7b-3968-4723-84a5-33e601591d74","ios":"levelo://app?vid=8af57e7b-3968-4723-84a5-33e601591d74"},"vehicle_type_id":"4","last_reported":1773876119,"current_range_meters":8000,"station_id":"","pricing_plan_id":"cebpf4jnsgd1na2vs0mg"},{"bike_id":"ed694dc7-1d27-4b2c-aa18-f5cfb41e8483","system_id":"levelo_inurba_marseille","lat":43.30163,"lon":5.36628,"is_reserved":false,"is_disabled":false,"rental_uris":{"android":"levelo://app?vid=ed694dc7-1d27-4b2c-aa18-f5cfb41e8483","ios":"levelo://app?vid=ed694dc7-1d27-4b2c-aa18-f5cfb41e8483"},"vehicle_type_id":"4","last_reported":1773876119,"current_range_meters":8000,"station_id":"ce4bgrh2rcd13ifvqc8g","pricing_plan_id":"cebpf4jnsgd1na2vs0mg"},{"bike_id":"6fea97c1-d456-4b21-8bd5-a1c9cce26929","system_id":"levelo_inurba_marseille","lat":43.28435,"lon":5.35909,"is_reserved":false,"is_disabled":false,"rental_uris":{"android":"levelo://app?vid=6fea97c1-d456-4b21-8bd5-a1c9cce26929","ios":"levelo://app?vid=6fea97c1-d456-4b21-8bd5-a1c9cce26929"},"vehicle_type_id":"4","last_reported":1773876119,"current_range_meters":8000,"station_id":"ce4bhah2rcd13ifvqei0","pricing_plan_id":"cebpf4jnsgd1na2vs0mg"},{"bike_id":"d326b34d-753e-4c47-ac30-b7e84de532c1","system_id":"levelo_inurba_marseille","lat":43.28543,"lon":5.39894,"is_reserved":false,"is_disabled":false,"rental_uris":{"android":"levelo://app?vid=d326b34d-753e-4c47-ac30-b7e84de532c1","ios":"levelo://app?vid=d326b34d-753e-4c47-ac30-b7e84de532c1"},"vehicle_type_id":"4","last_reported":1773876119,"current_range_meters":8000,"station_id":"st_d4a7ka997mjs738ck50g","pricing_plan_id":"cebpf4jnsgd1na2vs0mg"},{"bike_id":"72a1402b-d8db-44a2-83e4-6c2a4e4e7c1e","system_id":"levelo_inurba_marseille","lat":43.27986,"lon":5.41676,"is_reserved":false,"is_disabled":false,"rental_uris":{"android":"levelo://app?vid=72a1402b-d8db-44a2-83e4-6c2a4e4e7c1e","ios":"levelo://app?vid=72a1402b-d8db-44a2-83e4-6c2a4e4e7c1e"},"vehicle_type_id":"4","last_reported":1773876119,"current_range_meters":8000,"station_id":"ce4bho12rcd13ifvqh1g","pricing_plan_id":"cebpf4jnsgd1na2vs0mg"},{"bike_id":"c5b4f8a5-5a6c-40ba-9197-52b134bfa2c4","system_id":"levelo_inurba_marseille","lat":43.30436,"lon":5.38969,"is_reserved":false,"is_disabled":false,"rental_uris":{"android":"levelo://app?vid=c5b4f8a5-5a6c-40ba-9197-52b134bfa2c4","ios":"levelo://app?vid=c5b4f8a5-5a6c-40ba-9197-52b134bfa2c4"},"vehicle_type_id":"4","last_reported":1773876119,"current_range_meters":8000,"station_id":"","pricing_plan_id":"cebpf4jnsgd1na2vs0mg"},{"bike_id":"c515eede-67a2-4704-b673-dfcb2c2a65dd","system_id":"levelo_inurba_marseille","lat":43.30797,"lon":5.38153,"is_reserved":false,"is_disabled":false,"rental_uris":{"android":"levelo://app?vid=c515eede-67a2-4704-b673-dfcb2c2a65dd","ios":"levelo://app?vid=c515eede-67a2-4704-b673-dfcb2c2a65dd"},"vehicle_type_id":"4","last_reported":1773876119,"current_range_meters":8000,"station_id":"ce4bgt12rcd13ifvqce0","pricing_plan_id":"cebpf4jnsgd1na2vs0mg"},{"bike_id":"88db41f5-96f3-4155-a4d0-ecc56f594edb","system_id":"levelo_inurba_marseille","lat":43.22931,"lon":5.35372,"is_reserved":false,"is_disabled":false,"rental_uris":{"android":"levelo://app?vid=88db41f5-96f3-4155-a4d0-ecc56f594edb","ios":"levelo://app?vid=88db41f5-96f3-4155-a4d0-ecc56f594edb"},"vehicle_type_id":"4","last_reported":1773876119,"current_range_meters":8000,"station_id":"cpo3532slgdg3j2ikp40","pricing_plan_id":"cebpf4jnsgd1na2vs0mg"},{"bike_id":"c71d653d-969c-445e-97ca-3dcef61e7ad4","system_id":"levelo_inurba_marseille","lat":43.29209,"lon":5.39317,"is_reserved":false,"is_disabled":false,"rental_uris":{"android":"levelo://app?vid=c71d653d-969c-445e-97ca-3dcef61e7ad4","ios":"levelo://app?vid=c71d653d-969c-445e-97ca-3dcef61e7ad4"},"vehicle_type_id":"4","last_reported":1773876119,"current_range_meters":8000,"station_id":"ce4bh192rcd13ifvqdd0","pricing_plan_id":"cebpf4jnsgd1na2vs0mg"},{"bike_id":"557e5d18-9305-4b5a-976c-8e53e4f5c1ea","system_id":"levelo_inurba_marseille","lat":43.29812,"lon":5.40399,"is_reserved":false,"is_disabled":false,"rental_uris":{"android":"levelo://app?vid=557e5d18-9305-4b5a-976c-8e53e4f5c1ea","ios":"levelo://app?vid=557e5d18-9305-4b5a-976c-8e53e4f5c1ea"},"vehicle_type_id":"4","last_reported":1773876119,"current_range_meters":8000,"station_id":"ce4bh112rcd13ifvqd90","pricing_plan_id":"cebpf4jnsgd1na2vs0mg"},{"bike_id":"73e44213-1cd8-4593-a09e-a9c4a914a5d2","system_id":"levelo_inurba_marseille","lat":43.28476,"lon":5.48389,"is_reserved":false,"is_disabled":false,"rental_uris":{"android":"levelo://app?vid=73e44213-1cd8-4593-a09e-a9c4a914a5d2","ios":"levelo://app?vid=73e44213-1cd8-4593-a09e-a9c4a914a5d2"},"vehicle_type_id":"4","last_reported":1773876119,"current_range_meters":8000,"station_id":"","pricing_plan_id":"cebpf4jnsgd1na2vs0mg"},{"bike_id":"a0cb2d99-2066-4f7e-b148-0cc37c712cad","system_id":"levelo_inurba_marseille","lat":43.27177,"lon":5.40984,"is_reserved":false,"is_disabled":false,"rental_uris":{"android":"levelo://app?vid=a0cb2d99-2066-4f7e-b148-0cc37c712cad","ios":"levelo://app?vid=a0cb2d99-2066-4f7e-b148-0cc37c712cad"},"vehicle_type_id":"4","last_reported":1773876119,"current_range_meters":8000,"station_id":"ce4bhl12rcd13ifvqgf0","pricing_plan_id":"cebpf4jnsgd1na2vs0mg"},{"bike_id":"ad261fab-7885-4780-a277-e4835ccf8740","system_id":"levelo_inurba_marseille","lat":43.291229,"lon":5.386764,"is_reserved":false,"is_disabled":false,"rental_uris":{"android":"levelo://app?vid=ad261fab-7885-4780-a277-e4835ccf8740","ios":"levelo://app?vid=ad261fab-7885-4780-a277-e4835ccf8740"},"vehicle_type_id":"4","last_reported":1773876119,"current_range_meters":8000,"station_id":"cjm6bp8fraef2m0cb0m0","pricing_plan_id":"cebpf4jnsgd1na2vs0mg"},{"bike_id":"0c506fac-9822-4d55-93b9-ec283cf22639","system_id":"levelo_inurba_marseille","lat":43.2688,"lon":5.4047,"is_reserved":false,"is_disabled":false,"rental_uris":{"android":"levelo://app?vid=0c506fac-9822-4d55-93b9-ec283cf22639","ios":"levelo://app?vid=0c506fac-9822-4d55-93b9-ec283cf22639"},"vehicle_type_id":"4","last_reported":1773876119,"current_range_meters":8000,"station_id":"","pricing_plan_id":"cebpf4jnsgd1na2vs0mg"},{"bike_id":"920f4ef6-677b-4350-a93f-2d160fe6cab1","system_id":"levelo_inurba_marseille","lat":43.30319,"lon":5.40426,"is_reserved":false,"is_disabled":false,"rental_uris":{"android":"levelo://app?vid=920f4ef6-677b-4350-a93f-2d160fe6cab1","ios":"levelo://app?vid=920f4ef6-677b-4350-a93f-2d160fe6cab1"},"vehicle_type_id":"4","last_reported":1773876119,"current_range_meters":8000,"station_id":"ce4bh012rcd13ifvqd10","pricing_plan_id":"cebpf4jnsgd1na2vs0mg"},{"bike_id":"4603d8e6-1bdb-4e77-a999-dd174df795dd","system_id":"levelo_inurba_marseille","lat":43.21743,"lon":5.3462,"is_reserved":false,"is_disabled":false,"rental_uris":{"android":"levelo://app?vid=4603d8e6-1bdb-4e77-a999-dd174df795dd","ios":"levelo://app?vid=4603d8e6-1bdb-4e77-a999-dd174df795dd"},"vehicle_type_id":"4","last_reported":1773876119,"current_range_meters":8400,"station_id":"st_cvj6r9ubvosntc0bgbag","pricing_plan_id":"cebpf4jnsgd1na2vs0mg"},{"bike_id":"94f8f466-8e71-4f87-978f-df55f1bc6e54","system_id":"levelo_inurba_marseille","lat":43.21216,"lon":5.35011,"is_reserved":false,"is_disabled":false,"rental_uris":{"android":"levelo://app?vid=94f8f466-8e71-4f87-978f-df55f1bc6e54","ios":"levelo://app?vid=94f8f466-8e71-4f87-978f-df55f1bc6e54"},"vehicle_type_id":"4","last_reported":1773876119,"current_range_meters":8400,"station_id":"","pricing_plan_id":"cebpf4jnsgd1na2vs0mg"},{"bike_id":"1fdbd032-af28-4158-a02e-01bb107fd2a7","system_id":"levelo_inurba_marseille","lat":43.337444,"lon":5.374475,"is_reserved":false,"is_disabled":false,"rental_uris":{"android":"levelo://app?vid=1fdbd032-af28-4158-a02e-01bb107fd2a7","ios":"levelo://app?vid=1fdbd032-af28-4158-a02e-01bb107fd2a7"},"vehicle_type_id":"4","last_reported":1773876119,"current_range_meters":8400,"station_id":"","pricing_plan_id":"cebpf4jnsgd1na2vs0mg"},{"bike_id":"9e4d5daa-d3be-4fe6-8572-6c6fbbe8cce4","system_id":"levelo_inurba_marseille","lat":43.30603,"lon":5.39358,"is_reserved":false,"is_disabled":false,"rental_uris":{"android":"levelo://app?vid=9e4d5daa-d3be-4fe6-8572-6c6fbbe8cce4","ios":"levelo://app?vid=9e4d5daa-d3be-4fe6-8572-6c6fbbe8cce4"},"vehicle_type_id":"4","last_reported":1773876119,"current_range_meters":8400,"station_id":"ce4bh0p2rcd13ifvqd80","pricing_plan_id":"cebpf4jnsgd1na2vs0mg"},{"bike_id":"d7a795fb-5111-470c-9656-6fc028dd6f7f","system_id":"levelo_inurba_marseille","lat":43.262126,"lon":5.374377,"is_reserved":false,"is_disabled":false,"rental_uris":{"android":"levelo://app?vid=d7a795fb-5111-470c-9656-6fc028dd6f7f","ios":"levelo://app?vid=d7a795fb-5111-470c-9656-6fc028dd6f7f"},"vehicle_type_id":"4","last_reported":1773876119,"current_range_meters":8400,"station_id":"ce4bhgp2rcd13ifvqfc0","pricing_plan_id":"cebpf4jnsgd1na2vs0mg"},{"bike_id":"c0ce446a-9085-4968-895d-00725cc652ae","system_id":"levelo_inurba_marseille","lat":43.29567,"lon":5.42287,"is_reserved":false,"is_disabled":false,"rental_uris":{"android":"levelo://app?vid=c0ce446a-9085-4968-895d-00725cc652ae","ios":"levelo://app?vid=c0ce446a-9085-4968-895d-00725cc652ae"},"vehicle_type_id":"4","last_reported":1773876119,"current_range_meters":8400,"station_id":"ce4bhph2rcd13ifvqhdg","pricing_plan_id":"cebpf4jnsgd1na2vs0mg"},{"bike_id":"8c29270d-5d11-446e-a3f0-f5c56ae9c816","system_id":"levelo_inurba_marseille","lat":43.27555,"lon":5.43323,"is_reserved":false,"is_disabled":false,"rental_uris":{"android":"levelo://app?vid=8c29270d-5d11-446e-a3f0-f5c56ae9c816","ios":"levelo://app?vid=8c29270d-5d11-446e-a3f0-f5c56ae9c816"},"vehicle_type_id":"4","last_reported":1773876119,"current_range_meters":8400,"station_id":"","pricing_plan_id":"cebpf4jnsgd1na2vs0mg"},{"bike_id":"fe84594a-cdc2-4e5f-83a2-4d80f9f5966d","system_id":"levelo_inurba_marseille","lat":43.29003,"lon":5.35621,"is_reserved":false,"is_disabled":true,"rental_uris":{"android":"levelo://app?vid=fe84594a-cdc2-4e5f-83a2-4d80f9f5966d","ios":"levelo://app?vid=fe84594a-cdc2-4e5f-83a2-4d80f9f5966d"},"vehicle_type_id":"4","last_reported":1773876119,"current_range_meters":8400,"station_id":"ce4bhb92rcd13ifvqen0","pricing_plan_id":"cebpf4jnsgd1na2vs0mg"},{"bike_id":"d9f8cdf3-4098-434d-8f89-edd8182a95e6","system_id":"levelo_inurba_marseille","lat":43.28472,"lon":5.35886,"is_reserved":false,"is_disabled":false,"rental_uris":{"android":"levelo://app?vid=d9f8cdf3-4098-434d-8f89-edd8182a95e6","ios":"levelo://app?vid=d9f8cdf3-4098-434d-8f89-edd8182a95e6"},"vehicle_type_id":"4","last_reported":1773876119,"current_range_meters":8400,"station_id":"ce4bhah2rcd13ifvqei0","pricing_plan_id":"cebpf4jnsgd1na2vs0mg"},{"bike_id":"35683867-cb85-4d1f-8925-8164f427b032","system_id":"levelo_inurba_marseille","lat":43.25319,"lon":5.42127,"is_reserved":false,"is_disabled":false,"rental_uris":{"android":"levelo://app?vid=35683867-cb85-4d1f-8925-8164f427b032","ios":"levelo://app?vid=35683867-cb85-4d1f-8925-8164f427b032"},"vehicle_type_id":"4","last_reported":1773876119,"current_range_meters":8400,"station_id":"st_d2m65c5bi1j21697t3ng","pricing_plan_id":"cebpf4jnsgd1na2vs0mg"},{"bike_id":"506661fa-d7d4-473c-8038-c16d45410fe8","system_id":"levelo_inurba_marseille","lat":43.28868,"lon":5.42518,"is_reserved":false,"is_disabled":false,"rental_uris":{"android":"levelo://app?vid=506661fa-d7d4-473c-8038-c16d45410fe8","ios":"levelo://app?vid=506661fa-d7d4-473c-8038-c16d45410fe8"},"vehicle_type_id":"4","last_reported":1773876119,"current_range_meters":8400,"station_id":"","pricing_plan_id":"cebpf4jnsgd1na2vs0mg"},{"bike_id":"f9cbb5c0-15f3-4ddf-b4f4-fe1b0d0a2d4c","system_id":"levelo_inurba_marseille","lat":43.31188,"lon":5.38709,"is_reserved":false,"is_disabled":true,"rental_uris":{"android":"levelo://app?vid=f9cbb5c0-15f3-4ddf-b4f4-fe1b0d0a2d4c","ios":"levelo://app?vid=f9cbb5c0-15f3-4ddf-b4f4-fe1b0d0a2d4c"},"vehicle_type_id":"4","last_reported":1773876119,"current_range_meters":8400,"station_id":"ce4bgv12rcd13ifvqcp0","pricing_plan_id":"cebpf4jnsgd1na2vs0mg"},{"bike_id":"a8c51388-9cb7-40d8-9f83-0c1bff1683d1","system_id":"levelo_inurba_marseille","lat":43.29533,"lon":5.39026,"is_reserved":false,"is_disabled":false,"rental_uris":{"android":"levelo://app?vid=a8c51388-9cb7-40d8-9f83-0c1bff1683d1","ios":"levelo://app?vid=a8c51388-9cb7-40d8-9f83-0c1bff1683d1"},"vehicle_type_id":"4","last_reported":1773876119,"current_range_meters":8400,"station_id":"ce4bh3p2rcd13ifvqdp0","pricing_plan_id":"cebpf4jnsgd1na2vs0mg"},{"bike_id":"0ee4ce16-829f-49ee-9a2a-4b4670dfbc6f","system_id":"levelo_inurba_marseille","lat":43.28477,"lon":5.484,"is_reserved":false,"is_disabled":false,"rental_uris":{"android":"levelo://app?vid=0ee4ce16-829f-49ee-9a2a-4b4670dfbc6f","ios":"levelo://app?vid=0ee4ce16-829f-49ee-9a2a-4b4670dfbc6f"},"vehicle_type_id":"4","last_reported":1773876119,"current_range_meters":8400,"station_id":"st_d3svhcjqgbts73a3dn0g","pricing_plan_id":"cebpf4jnsgd1na2vs0mg"},{"bike_id":"c630e9fc-07eb-44fb-b665-baf3e779b83f","system_id":"levelo_inurba_marseille","lat":43.28532,"lon":5.44111,"is_reserved":false,"is_disabled":false,"rental_uris":{"android":"levelo://app?vid=c630e9fc-07eb-44fb-b665-baf3e779b83f","ios":"levelo://app?vid=c630e9fc-07eb-44fb-b665-baf3e779b83f"},"vehicle_type_id":"4","last_reported":1773876119,"current_range_meters":8400,"station_id":"st_d3j3df2ikq2c7380ej80","pricing_plan_id":"cebpf4jnsgd1na2vs0mg"},{"bike_id":"09c6bd8c-631e-428d-95ab-99a2c53a3ed5","system_id":"levelo_inurba_marseille","lat":43.27478,"lon":5.416,"is_reserved":false,"is_disabled":false,"rental_uris":{"android":"levelo://app?vid=09c6bd8c-631e-428d-95ab-99a2c53a3ed5","ios":"levelo://app?vid=09c6bd8c-631e-428d-95ab-99a2c53a3ed5"},"vehicle_type_id":"4","last_reported":1773876119,"current_range_meters":8400,"station_id":"st_d6im8g6chgec73a5pndg","pricing_plan_id":"cebpf4jnsgd1na2vs0mg"},{"bike_id":"aca858b8-5c21-445f-8d97-6fe721fab0f9","system_id":"levelo_inurba_marseille","lat":43.24656,"lon":5.38153,"is_reserved":false,"is_disabled":false,"rental_uris":{"android":"levelo://app?vid=aca858b8-5c21-445f-8d97-6fe721fab0f9","ios":"levelo://app?vid=aca858b8-5c21-445f-8d97-6fe721fab0f9"},"vehicle_type_id":"4","last_reported":1773876119,"current_range_meters":8400,"station_id":"ce4bhih2rcd13ifvqfr0","pricing_plan_id":"cebpf4jnsgd1na2vs0mg"},{"bike_id":"c15e7091-2dcd-49f8-91f6-929cdfde4dde","system_id":"levelo_inurba_marseille","lat":43.28266,"lon":5.35064,"is_reserved":false,"is_disabled":false,"rental_uris":{"android":"levelo://app?vid=c15e7091-2dcd-49f8-91f6-929cdfde4dde","ios":"levelo://app?vid=c15e7091-2dcd-49f8-91f6-929cdfde4dde"},"vehicle_type_id":"4","last_reported":1773876119,"current_range_meters":8400,"station_id":"ce4bhbp2rcd13ifvqerg","pricing_plan_id":"cebpf4jnsgd1na2vs0mg"},{"bike_id":"242e0753-12d5-492e-a5c0-5df875cc0675","system_id":"levelo_inurba_marseille","lat":43.31321,"lon":5.39705,"is_reserved":false,"is_disabled":false,"rental_uris":{"android":"levelo://app?vid=242e0753-12d5-492e-a5c0-5df875cc0675","ios":"levelo://app?vid=242e0753-12d5-492e-a5c0-5df875cc0675"},"vehicle_type_id":"4","last_reported":1773876119,"current_range_meters":8400,"station_id":"ce4bgvp2rcd13ifvqcu0","pricing_plan_id":"cebpf4jnsgd1na2vs0mg"},{"bike_id":"88b741cf-9e79-45ce-bd0e-3e7237093c90","system_id":"levelo_inurba_marseille","lat":43.28602,"lon":5.39887,"is_reserved":false,"is_disabled":false,"rental_uris":{"android":"levelo://app?vid=88b741cf-9e79-45ce-bd0e-3e7237093c90","ios":"levelo://app?vid=88b741cf-9e79-45ce-bd0e-3e7237093c90"},"vehicle_type_id":"4","last_reported":1773876119,"current_range_meters":8400,"station_id":"st_d4a7ka997mjs738ck50g","pricing_plan_id":"cebpf4jnsgd1na2vs0mg"},{"bike_id":"78c86868-a79f-4f2a-bb9a-961b0f22d36b","system_id":"levelo_inurba_marseille","lat":43.29969,"lon":5.38648,"is_reserved":false,"is_disabled":false,"rental_uris":{"android":"levelo://app?vid=78c86868-a79f-4f2a-bb9a-961b0f22d36b","ios":"levelo://app?vid=78c86868-a79f-4f2a-bb9a-961b0f22d36b"},"vehicle_type_id":"4","last_reported":1773876119,"current_range_meters":8400,"station_id":"","pricing_plan_id":"cebpf4jnsgd1na2vs0mg"},{"bike_id":"19df06a5-29c5-4eda-a70c-1bfaf697fdc3","system_id":"levelo_inurba_marseille","lat":43.21792,"lon":5.34572,"is_reserved":false,"is_disabled":false,"rental_uris":{"android":"levelo://app?vid=19df06a5-29c5-4eda-a70c-1bfaf697fdc3","ios":"levelo://app?vid=19df06a5-29c5-4eda-a70c-1bfaf697fdc3"},"vehicle_type_id":"4","last_reported":1773876119,"current_range_meters":8400,"station_id":"","pricing_plan_id":"cebpf4jnsgd1na2vs0mg"},{"bike_id":"1b9d9681-7574-4afe-84bf-144cbbece0f7","system_id":"levelo_inurba_marseille","lat":43.28262,"lon":5.35073,"is_reserved":false,"is_disabled":false,"rental_uris":{"android":"levelo://app?vid=1b9d9681-7574-4afe-84bf-144cbbece0f7","ios":"levelo://app?vid=1b9d9681-7574-4afe-84bf-144cbbece0f7"},"vehicle_type_id":"4","last_reported":1773876119,"current_range_meters":8400,"station_id":"ce4bhbp2rcd13ifvqerg","pricing_plan_id":"cebpf4jnsgd1na2vs0mg"},{"bike_id":"0f0f3f3e-0b16-46b6-a723-9cf6c82a3bfc","system_id":"levelo_inurba_marseille","lat":43.27511,"lon":5.41569,"is_reserved":false,"is_disabled":false,"rental_uris":{"android":"levelo://app?vid=0f0f3f3e-0b16-46b6-a723-9cf6c82a3bfc","ios":"levelo://app?vid=0f0f3f3e-0b16-46b6-a723-9cf6c82a3bfc"},"vehicle_type_id":"4","last_reported":1773876119,"current_range_meters":8400,"station_id":"st_d6im8g6chgec73a5pndg","pricing_plan_id":"cebpf4jnsgd1na2vs0mg"},{"bike_id":"6ba57b93-3420-48f1-a0ad-dd5ce745f39b","system_id":"levelo_inurba_marseille","lat":43.29905,"lon":5.38153,"is_reserved":false,"is_disabled":false,"rental_uris":{"android":"levelo://app?vid=6ba57b93-3420-48f1-a0ad-dd5ce745f39b","ios":"levelo://app?vid=6ba57b93-3420-48f1-a0ad-dd5ce745f39b"},"vehicle_type_id":"4","last_reported":1773876119,"current_range_meters":8400,"station_id":"ce4bgj12rcd13ifvqbc0","pricing_plan_id":"cebpf4jnsgd1na2vs0mg"},{"bike_id":"5671440c-19fc-480b-8cdb-b024a111e462","system_id":"levelo_inurba_marseille","lat":43.23795,"lon":5.41441,"is_reserved":false,"is_disabled":false,"rental_uris":{"android":"levelo://app?vid=5671440c-19fc-480b-8cdb-b024a111e462","ios":"levelo://app?vid=5671440c-19fc-480b-8cdb-b024a111e462"},"vehicle_type_id":"4","last_reported":1773876119,"current_range_meters":8400,"station_id":"","pricing_plan_id":"cebpf4jnsgd1na2vs0mg"},{"bike_id":"5927499b-9f56-4d02-a7d6-bfd048a5a6db","system_id":"levelo_inurba_marseille","lat":43.308,"lon":5.38153,"is_reserved":false,"is_disabled":false,"rental_uris":{"android":"levelo://app?vid=5927499b-9f56-4d02-a7d6-bfd048a5a6db","ios":"levelo://app?vid=5927499b-9f56-4d02-a7d6-bfd048a5a6db"},"vehicle_type_id":"4","last_reported":1773876119,"current_range_meters":8800,"station_id":"ce4bgt12rcd13ifvqce0","pricing_plan_id":"cebpf4jnsgd1na2vs0mg"},{"bike_id":"0697c487-3f14-4fcb-95ca-9f894ce98488","system_id":"levelo_inurba_marseille","lat":43.28508,"lon":5.39138,"is_reserved":false,"is_disabled":false,"rental_uris":{"android":"levelo://app?vid=0697c487-3f14-4fcb-95ca-9f894ce98488","ios":"levelo://app?vid=0697c487-3f14-4fcb-95ca-9f894ce98488"},"vehicle_type_id":"4","last_reported":1773876119,"current_range_meters":8800,"station_id":"","pricing_plan_id":"cebpf4jnsgd1na2vs0mg"},{"bike_id":"8eb97667-be03-4e7e-b167-8473d9b8ec4e","system_id":"levelo_inurba_marseille","lat":43.29894,"lon":5.4367,"is_reserved":false,"is_disabled":false,"rental_uris":{"android":"levelo://app?vid=8eb97667-be03-4e7e-b167-8473d9b8ec4e","ios":"levelo://app?vid=8eb97667-be03-4e7e-b167-8473d9b8ec4e"},"vehicle_type_id":"4","last_reported":1773876119,"current_range_meters":8800,"station_id":"ce4bhpp2rcd13ifvqhfg","pricing_plan_id":"cebpf4jnsgd1na2vs0mg"},{"bike_id":"24dc1ce5-2db6-421b-869a-69d6f082b300","system_id":"levelo_inurba_marseille","lat":43.29804,"lon":5.36295,"is_reserved":false,"is_disabled":false,"rental_uris":{"android":"levelo://app?vid=24dc1ce5-2db6-421b-869a-69d6f082b300","ios":"levelo://app?vid=24dc1ce5-2db6-421b-869a-69d6f082b300"},"vehicle_type_id":"4","last_reported":1773876119,"current_range_meters":8800,"station_id":"ce4bgpp2rcd13ifvqc3g","pricing_plan_id":"cebpf4jnsgd1na2vs0mg"},{"bike_id":"e801080f-4a8c-4c58-9490-df14ba78a212","system_id":"levelo_inurba_marseille","lat":43.295,"lon":5.43299,"is_reserved":false,"is_disabled":false,"rental_uris":{"android":"levelo://app?vid=e801080f-4a8c-4c58-9490-df14ba78a212","ios":"levelo://app?vid=e801080f-4a8c-4c58-9490-df14ba78a212"},"vehicle_type_id":"4","last_reported":1773876119,"current_range_meters":8800,"station_id":"st_d3j5ugp08ojc73fj9d10","pricing_plan_id":"cebpf4jnsgd1na2vs0mg"},{"bike_id":"f1a924eb-dba3-4a70-837d-f478e7e4a111","system_id":"levelo_inurba_marseille","lat":43.28252,"lon":5.35072,"is_reserved":false,"is_disabled":false,"rental_uris":{"android":"levelo://app?vid=f1a924eb-dba3-4a70-837d-f478e7e4a111","ios":"levelo://app?vid=f1a924eb-dba3-4a70-837d-f478e7e4a111"},"vehicle_type_id":"4","last_reported":1773876119,"current_range_meters":8800,"station_id":"ce4bhbp2rcd13ifvqerg","pricing_plan_id":"cebpf4jnsgd1na2vs0mg"},{"bike_id":"69eb8448-c0e0-496f-831c-8ada77fd31e2","system_id":"levelo_inurba_marseille","lat":43.2306,"lon":5.35487,"is_reserved":false,"is_disabled":false,"rental_uris":{"android":"levelo://app?vid=69eb8448-c0e0-496f-831c-8ada77fd31e2","ios":"levelo://app?vid=69eb8448-c0e0-496f-831c-8ada77fd31e2"},"vehicle_type_id":"4","last_reported":1773876119,"current_range_meters":8800,"station_id":"cpo3342slgdg3j2ifvpg","pricing_plan_id":"cebpf4jnsgd1na2vs0mg"},{"bike_id":"2518bae7-c776-42cd-b319-3c6b0327da59","system_id":"levelo_inurba_marseille","lat":43.28463,"lon":5.35898,"is_reserved":false,"is_disabled":false,"rental_uris":{"android":"levelo://app?vid=2518bae7-c776-42cd-b319-3c6b0327da59","ios":"levelo://app?vid=2518bae7-c776-42cd-b319-3c6b0327da59"},"vehicle_type_id":"4","last_reported":1773876119,"current_range_meters":8800,"station_id":"ce4bhah2rcd13ifvqei0","pricing_plan_id":"cebpf4jnsgd1na2vs0mg"},{"bike_id":"f7e79517-161a-451a-8a95-bb710b1b4d21","system_id":"levelo_inurba_marseille","lat":43.29869,"lon":5.37888,"is_reserved":false,"is_disabled":true,"rental_uris":{"android":"levelo://app?vid=f7e79517-161a-451a-8a95-bb710b1b4d21","ios":"levelo://app?vid=f7e79517-161a-451a-8a95-bb710b1b4d21"},"vehicle_type_id":"4","last_reported":1773876119,"current_range_meters":8800,"station_id":"","pricing_plan_id":"cebpf4jnsgd1na2vs0mg"},{"bike_id":"e96aa17b-a380-4269-aa15-f0a6d9e3febf","system_id":"levelo_inurba_marseille","lat":43.21771,"lon":5.34576,"is_reserved":false,"is_disabled":false,"rental_uris":{"android":"levelo://app?vid=e96aa17b-a380-4269-aa15-f0a6d9e3febf","ios":"levelo://app?vid=e96aa17b-a380-4269-aa15-f0a6d9e3febf"},"vehicle_type_id":"4","last_reported":1773876119,"current_range_meters":8800,"station_id":"st_cvj6r9ubvosntc0bgbag","pricing_plan_id":"cebpf4jnsgd1na2vs0mg"},{"bike_id":"6b218720-7d53-4c1e-b1c9-5dbfa513b086","system_id":"levelo_inurba_marseille","lat":43.23963,"lon":5.36631,"is_reserved":false,"is_disabled":false,"rental_uris":{"android":"levelo://app?vid=6b218720-7d53-4c1e-b1c9-5dbfa513b086","ios":"levelo://app?vid=6b218720-7d53-4c1e-b1c9-5dbfa513b086"},"vehicle_type_id":"4","last_reported":1773876119,"current_range_meters":8800,"station_id":"ce4bhi12rcd13ifvqfp0","pricing_plan_id":"cebpf4jnsgd1na2vs0mg"},{"bike_id":"f45cc1dc-250e-479e-8a48-ea4ddf42b63b","system_id":"levelo_inurba_marseille","lat":43.30802,"lon":5.38142,"is_reserved":false,"is_disabled":false,"rental_uris":{"android":"levelo://app?vid=f45cc1dc-250e-479e-8a48-ea4ddf42b63b","ios":"levelo://app?vid=f45cc1dc-250e-479e-8a48-ea4ddf42b63b"},"vehicle_type_id":"4","last_reported":1773876119,"current_range_meters":8800,"station_id":"ce4bgt12rcd13ifvqce0","pricing_plan_id":"cebpf4jnsgd1na2vs0mg"},{"bike_id":"7f576143-d504-4322-ab64-510745c9e514","system_id":"levelo_inurba_marseille","lat":43.28153,"lon":5.42647,"is_reserved":false,"is_disabled":false,"rental_uris":{"android":"levelo://app?vid=7f576143-d504-4322-ab64-510745c9e514","ios":"levelo://app?vid=7f576143-d504-4322-ab64-510745c9e514"},"vehicle_type_id":"4","last_reported":1773876119,"current_range_meters":8800,"station_id":"ce4bhnh2rcd13ifvqgug","pricing_plan_id":"cebpf4jnsgd1na2vs0mg"},{"bike_id":"623306fd-5411-42ac-b7b9-0776b8a65ddf","system_id":"levelo_inurba_marseille","lat":43.24822,"lon":5.37441,"is_reserved":false,"is_disabled":false,"rental_uris":{"android":"levelo://app?vid=623306fd-5411-42ac-b7b9-0776b8a65ddf","ios":"levelo://app?vid=623306fd-5411-42ac-b7b9-0776b8a65ddf"},"vehicle_type_id":"4","last_reported":1773876119,"current_range_meters":8800,"station_id":"ce4bhgh2rcd13ifvqfb0","pricing_plan_id":"cebpf4jnsgd1na2vs0mg"},{"bike_id":"9594196e-a8f0-49a6-8240-437765665f76","system_id":"levelo_inurba_marseille","lat":43.30306,"lon":5.36906,"is_reserved":false,"is_disabled":false,"rental_uris":{"android":"levelo://app?vid=9594196e-a8f0-49a6-8240-437765665f76","ios":"levelo://app?vid=9594196e-a8f0-49a6-8240-437765665f76"},"vehicle_type_id":"4","last_reported":1773876119,"current_range_meters":8800,"station_id":"ce4bgqh2rcd13ifvqc5g","pricing_plan_id":"cebpf4jnsgd1na2vs0mg"},{"bike_id":"a7589a93-7e92-46e3-9adb-33c382fc7b2d","system_id":"levelo_inurba_marseille","lat":43.23956,"lon":5.36646,"is_reserved":false,"is_disabled":false,"rental_uris":{"android":"levelo://app?vid=a7589a93-7e92-46e3-9adb-33c382fc7b2d","ios":"levelo://app?vid=a7589a93-7e92-46e3-9adb-33c382fc7b2d"},