{"last_updated":1731049698,"ttl":60,"version":"2.2","data":{"bikes":[{"bike_id":"b04ae775-f98e-4afc-a42a-53748b3019bb","system_id":"levelo_inurba_marseille","lat":43.28949,"lon":5.36413,"is_reserved":false,"is_disabled":false,"rental_uris":{"android":"levelo://app?vid=b04ae775-f98e-4afc-a42a-53748b3019bb","ios":"levelo://app?vid=b04ae775-f98e-4afc-a42a-53748b3019bb"},"vehicle_type_id":"4","last_reported":1731049698,"current_range_meters":32000,"station_id":"ce4bhc92rcd13ifvqetg","pricing_plan_id":"cebpf4jnsgd1na2vs0mg"},{"bike_id":"819790d1-873f-4738-b863-22ab3976983e","system_id":"levelo_inurba_marseille","lat":43.29554,"lon":5.42286,"is_reserved":false,"is_disabled":false,"rental_uris":{"android":"levelo://app?vid=819790d1-873f-4738-b863-22ab3976983e","ios":"levelo://app?vid=819790d1-873f-4738-b863-22ab3976983e"},"vehicle_type_id":"4","last_reported":1731049698,"current_range_meters":34000,"station_id":"ce4bhph2rcd13ifvqhdg","pricing_plan_id":"cebpf4jnsgd1na2vs0mg"},{"bike_id":"e5e7465d-1f89-4768-b017-15428809116f","system_id":"levelo_inurba_marseille","lat":43.26678,"lon":5.38268,"is_reserved":false,"is_disabled":false,"rental_uris":{"android":"levelo://app?vid=e5e7465d-1f89-4768-b017-15428809116f","ios":"levelo://app?vid=e5e7465d-1f89-4768-b017-15428809116f"},"vehicle_type_id":"4","last_reported":1731049698,"current_range_meters":32000,"station_id":"ce4bhg92rcd13ifvqf90","pricing_plan_id":"cebpf4jnsgd1na2vs0mg"},{"bike_id":"7f774ae5-6cb7-4c53-91e0-4e9519e7a5f3","system_id":"levelo_inurba_marseille","lat":43.31726,"lon":5.42386,"is_reserved":false,"is_disabled":false,"rental_uris":{"android":"levelo://app?vid=7f774ae5-6cb7-4c53-91e0-4e9519e7a5f3","ios":"levelo://app?vid=7f774ae5-6cb7-4c53-91e0-4e9519e7a5f3"},"vehicle_type_id":"4","last_reported":1731049698,"current_range_meters":32000,"station_id":"ce4bhp92rcd13ifvqhbg","pricing_plan_id":"cebpf4jnsgd1na2vs0mg"},{"bike_id":"3db1bf79-2ec6-4e2e-ba66-334994595e1d","system_id":"levelo_inurba_marseille","lat":43.28342,"lon":5.38109,"is_reserved":false,"is_disabled":false,"rental_uris":{"android":"levelo://app?vid=3db1bf79-2ec6-4e2e-ba66-334994595e1d","ios":"levelo://app?vid=3db1bf79-2ec6-4e2e-ba66-334994595e1d"},"vehicle_type_id":"4","last_reported":1731049698,"current_range_meters":38400,"station_id":"ce4bh412rcd13ifvqdr0","pricing_plan_id":"cebpf4jnsgd1na2vs0mg"},{"bike_id":"ecffb5ff-7ae5-4537-8e3a-0c610aa996fb","system_id":"levelo_inurba_marseille","lat":43.31368,"lon":5.38488,"is_reserved":false,"is_disabled":false,"rental_uris":{"android":"levelo://app?vid=ecffb5ff-7ae5-4537-8e3a-0c610aa996fb","ios":"levelo://app?vid=ecffb5ff-7ae5-4537-8e3a-0c610aa996fb"},"vehicle_type_id":"4","last_reported":1731049698,"current_range_meters":23200,"station_id":"ce4bgt92rcd13ifvqcf0","pricing_plan_id":"cebpf4jnsgd1na2vs0mg"},{"bike_id":"0299bca0-5fc6-4dd4-970e-91611f65d287","system_id":"levelo_inurba_marseille","lat":43.24071,"lon":5.37761,"is_reserved":false,"is_disabled":false,"rental_uris":{"android":"levelo://app?vid=0299bca0-5fc6-4dd4-970e-91611f65d287","ios":"levelo://app?vid=0299bca0-5fc6-4dd4-970e-91611f65d287"},"vehicle_type_id":"4","last_reported":1731049698,"current_range_meters":21600,"station_id":"ce4bhnp2rcd13ifvqgvg","pricing_plan_id":"cebpf4jnsgd1na2vs0mg"},{"bike_id":"428bec2e-e692-4ff0-a906-5dd10fc1e4c9","system_id":"levelo_inurba_marseille","lat":43.29831,"lon":5.37415,"is_reserved":false,"is_disabled":false,"rental_uris":{"android":"levelo://app?vid=428bec2e-e692-4ff0-a906-5dd10fc1e4c9","ios":"levelo://app?vid=428bec2e-e692-4ff0-a906-5dd10fc1e4c9"},"vehicle_type_id":"4","last_reported":1731049698,"current_range_meters":38800,"station_id":"ce4bgl12rcd13ifvqbo0","pricing_plan_id":"cebpf4jnsgd1na2vs0mg"},{"bike_id":"68e1c8c7-d076-487e-8424-d186576e3c3c","system_id":"levelo_inurba_marseille","lat":43.29587,"lon":5.38607,"is_reserved":false,"is_disabled":false,"rental_uris":{"android":"levelo://app?vid=68e1c8c7-d076-487e-8424-d186576e3c3c","ios":"levelo://app?vid=68e1c8c7-d076-487e-8424-d186576e3c3c"},"vehicle_type_id":"4","last_reported":1731049698,"current_range_meters":16400,"station_id":"","pricing_plan_id":"cebpf4jnsgd1na2vs0mg"},{"bike_id":"504e5d62-7828-485f-b5c5-e0859c494a6c","system_id":"levelo_inurba_marseille","lat":43.32486,"lon":5.36562,"is_reserved":false,"is_disabled":false,"rental_uris":{"android":"levelo://app?vid=504e5d62-7828-485f-b5c5-e0859c494a6c","ios":"levelo://app?vid=504e5d62-7828-485f-b5c5-e0859c494a6c"},"vehicle_type_id":"4","last_reported":1731049698,"current_range_meters":38000,"station_id":"ce4bhs12rcd13ifvqhvg","pricing_plan_id":"cebpf4jnsgd1na2vs0mg"},{"bike_id":"28c8cd0f-56be-4d87-b407-bac33fd81785","system_id":"levelo_inurba_marseille","lat":43.33023,"lon":5.39032,"is_reserved":false,"is_disabled":false,"rental_uris":{"android":"levelo://app?vid=28c8cd0f-56be-4d87-b407-bac33fd81785","ios":"levelo://app?vid=28c8cd0f-56be-4d87-b407-bac33fd81785"},"vehicle_type_id":"4","last_reported":1731049698,"current_range_meters":38800,"station_id":"ce4bhr92rcd13ifvqhrg","pricing_plan_id":"cebpf4jnsgd1na2vs0mg"},{"bike_id":"9939ff24-3b5e-46d9-b094-2a6519ad748e","system_id":"levelo_inurba_marseille","lat":43.27374,"lon":5.36255,"is_reserved":false,"is_disabled":false,"rental_uris":{"android":"levelo://app?vid=9939ff24-3b5e-46d9-b094-2a6519ad748e","ios":"levelo://app?vid=9939ff24-3b5e-46d9-b094-2a6519ad748e"},"vehicle_type_id":"4","last_reported":1731049698,"current_range_meters":36800,"station_id":"ce4bhbh2rcd13ifvqeo0","pricing_plan_id":"cebpf4jnsgd1na2vs0mg"},{"bike_id":"e382a5f5-b97c-4326-befe-74fa542b41c7","system_id":"levelo_inurba_marseille","lat":43.23151,"lon":5.43708,"is_reserved":false,"is_disabled":false,"rental_uris":{"android":"levelo://app?vid=e382a5f5-b97c-4326-befe-74fa542b41c7","ios":"levelo://app?vid=e382a5f5-b97c-4326-befe-74fa542b41c7"},"vehicle_type_id":"4","last_reported":1731049698,"current_range_meters":28000,"station_id":"ce4bhmp2rcd13ifvqgog","pricing_plan_id":"cebpf4jnsgd1na2vs0mg"},{"bike_id":"fd12b793-66ca-4f7d-ad00-0679e21d5de7","system_id":"levelo_inurba_marseille","lat":43.311432,"lon":5.400976,"is_reserved":false,"is_disabled":false,"rental_uris":{"android":"levelo://app?vid=fd12b793-66ca-4f7d-ad00-0679e21d5de7","ios":"levelo://app?vid=fd12b793-66ca-4f7d-ad00-0679e21d5de7"},"vehicle_type_id":"4","last_reported":1731049698,"current_range_meters":31200,"station_id":"ce4bgs12rcd13ifvqcag","pricing_plan_id":"cebpf4jnsgd1na2vs0mg"},{"bike_id":"52cd55b9-c5fa-456e-b87f-183e5b119b49","system_id":"levelo_inurba_marseille","lat":43.29032,"lon":5.38625,"is_reserved":false,"is_disabled":false,"rental_uris":{"android":"levelo://app?vid=52cd55b9-c5fa-456e-b87f-183e5b119b49","ios":"levelo://app?vid=52cd55b9-c5fa-456e-b87f-183e5b119b49"},"vehicle_type_id":"4","last_reported":1731049698,"current_range_meters":33200,"station_id":"ce4bh4p2rcd13ifvqe0g","pricing_plan_id":"cebpf4jnsgd1na2vs0mg"},{"bike_id":"a773c60d-75b1-400f-b744-7c7bc21c76a0","system_id":"levelo_inurba_marseille","lat":43.31078,"lon":5.42427,"is_reserved":false,"is_disabled":false,"rental_uris":{"android":"levelo://app?vid=a773c60d-75b1-400f-b744-7c7bc21c76a0","ios":"levelo://app?vid=a773c60d-75b1-400f-b744-7c7bc21c76a0"},"vehicle_type_id":"4","last_reported":1731049698,"current_range_meters":35600,"station_id":"ce4bhp92rcd13ifvqhag","pricing_plan_id":"cebpf4jnsgd1na2vs0mg"},{"bike_id":"bcf5dad1-721a-4f4e-82b2-15a9cc44926f","system_id":"levelo_inurba_marseille","lat":43.33776,"lon":5.37438,"is_reserved":false,"is_disabled":false,"rental_uris":{"android":"levelo://app?vid=bcf5dad1-721a-4f4e-82b2-15a9cc44926f","ios":"levelo://app?vid=bcf5dad1-721a-4f4e-82b2-15a9cc44926f"},"vehicle_type_id":"4","last_reported":1731049698,"current_range_meters":32400,"station_id":"","pricing_plan_id":"cebpf4jnsgd1na2vs0mg"},{"bike_id":"250fe7c5-be51-4156-94fa-c9fe94886f80","system_id":"levelo_inurba_marseille","lat":43.28862,"lon":5.35845,"is_reserved":false,"is_disabled":false,"rental_uris":{"android":"levelo://app?vid=250fe7c5-be51-4156-94fa-c9fe94886f80","ios":"levelo://app?vid=250fe7c5-be51-4156-94fa-c9fe94886f80"},"vehicle_type_id":"4","last_reported":1731049698,"current_range_meters":38000,"station_id":"ce4bhb12rcd13ifvqem0","pricing_plan_id":"cebpf4jnsgd1na2vs0mg"},{"bike_id":"e0ac934e-fe43-43a0-b60c-d5050845093e","system_id":"levelo_inurba_marseille","lat":43.26676,"lon":5.38265,"is_reserved":false,"is_disabled":false,"rental_uris":{"android":"levelo://app?vid=e0ac934e-fe43-43a0-b60c-d5050845093e","ios":"levelo://app?vid=e0ac934e-fe43-43a0-b60c-d5050845093e"},"vehicle_type_id":"4","last_reported":1731049698,"current_range_meters":32000,"station_id":"ce4bhg92rcd13ifvqf90","pricing_plan_id":"cebpf4jnsgd1na2vs0mg"},{"bike_id":"49daf1e0-2dcd-40f6-a33d-d42a5254aa4b","system_id":"levelo_inurba_marseille","lat":43.28492,"lon":5.38559,"is_reserved":false,"is_disabled":false,"rental_uris":{"android":"levelo://app?vid=49daf1e0-2dcd-40f6-a33d-d42a5254aa4b","ios":"levelo://app?vid=49daf1e0-2dcd-40f6-a33d-d42a5254aa4b"},"vehicle_type_id":"4","last_reported":1731049698,"current_range_meters":38400,"station_id":"ce4bh8p2rcd13ifvqeb0","pricing_plan_id":"cebpf4jnsgd1na2vs0mg"},{"bike_id":"b7331a71-8ec8-4f40-89ef-d0af4e4975de","system_id":"levelo_inurba_marseille","lat":43.28697,"lon":5.37389,"is_reserved":false,"is_disabled":false,"rental_uris":{"android":"levelo://app?vid=b7331a71-8ec8-4f40-89ef-d0af4e4975de","ios":"levelo://app?vid=b7331a71-8ec8-4f40-89ef-d0af4e4975de"},"vehicle_type_id":"4","last_reported":1731049698,"current_range_meters":38000,"station_id":"ce4bh3p2rcd13ifvqdq0","pricing_plan_id":"cebpf4jnsgd1na2vs0mg"},{"bike_id":"4525546b-3417-4249-8f7d-ad73da8809c5","system_id":"levelo_inurba_marseille","lat":43.33605,"lon":5.41037,"is_reserved":false,"is_disabled":false,"rental_uris":{"android":"levelo://app?vid=4525546b-3417-4249-8f7d-ad73da8809c5","ios":"levelo://app?vid=4525546b-3417-4249-8f7d-ad73da8809c5"},"vehicle_type_id":"4","last_reported":1731049698,"current_range_meters":7200,"station_id":"ce4bhqh2rcd13ifvqhmg","pricing_plan_id":"cebpf4jnsgd1na2vs0mg"},{"bike_id":"2fe0360e-e7e5-476d-87e5-00cbfae7b7e5","system_id":"levelo_inurba_marseille","lat":43.30146,"lon":5.38092,"is_reserved":false,"is_disabled":false,"rental_uris":{"android":"levelo://app?vid=2fe0360e-e7e5-476d-87e5-00cbfae7b7e5","ios":"levelo://app?vid=2fe0360e-e7e5-476d-87e5-00cbfae7b7e5"},"vehicle_type_id":"4","last_reported":1731049698,"current_range_meters":35600,"station_id":"ce4bgjp2rcd13ifvqbh0","pricing_plan_id":"cebpf4jnsgd1na2vs0mg"},{"bike_id":"6622a163-3b9f-4330-86ce-54423cf94cdf","system_id":"levelo_inurba_marseille","lat":43.28099,"lon":5.37836,"is_reserved":false,"is_disabled":false,"rental_uris":{"android":"levelo://app?vid=6622a163-3b9f-4330-86ce-54423cf94cdf","ios":"levelo://app?vid=6622a163-3b9f-4330-86ce-54423cf94cdf"},"vehicle_type_id":"4","last_reported":1731049698,"current_range_meters":38800,"station_id":"ce4bha12rcd13ifvqee0","pricing_plan_id":"cebpf4jnsgd1na2vs0mg"},{"bike_id":"41fc87f8-aeb5-489f-8b1b-a64d8d038e5c","system_id":"levelo_inurba_marseille","lat":43.27931,"lon":5.38711,"is_reserved":false,"is_disabled":false,"rental_uris":{"android":"levelo://app?vid=41fc87f8-aeb5-489f-8b1b-a64d8d038e5c","ios":"levelo://app?vid=41fc87f8-aeb5-489f-8b1b-a64d8d038e5c"},"vehicle_type_id":"4","last_reported":1731049698,"current_range_meters":39200,"station_id":"ce4bhg12rcd13ifvqf80","pricing_plan_id":"cebpf4jnsgd1na2vs0mg"},{"bike_id":"f00b8b7a-20f1-40a7-8dce-634caae61508","system_id":"levelo_inurba_marseille","lat":43.30349,"lon":5.41878,"is_reserved":false,"is_disabled":false,"rental_uris":{"android":"levelo://app?vid=f00b8b7a-20f1-40a7-8dce-634caae61508","ios":"levelo://app?vid=f00b8b7a-20f1-40a7-8dce-634caae61508"},"vehicle_type_id":"4","last_reported":1731049698,"current_range_meters":38800,"station_id":"ce4bhop2rcd13ifvqh7g","pricing_plan_id":"cebpf4jnsgd1na2vs0mg"},{"bike_id":"6fb32bb1-acec-47e9-a78c-5f0271edfd7f","system_id":"levelo_inurba_marseille","lat":43.26177,"lon":5.37501,"is_reserved":false,"is_disabled":false,"rental_uris":{"android":"levelo://app?vid=6fb32bb1-acec-47e9-a78c-5f0271edfd7f","ios":"levelo://app?vid=6fb32bb1-acec-47e9-a78c-5f0271edfd7f"},"vehicle_type_id":"4","last_reported":1731049698,"current_range_meters":23200,"station_id":"ce4bhgp2rcd13ifvqfc0","pricing_plan_id":"cebpf4jnsgd1na2vs0mg"},{"bike_id":"ea3e44e4-5607-432c-a36c-1dd1c2026358","system_id":"levelo_inurba_marseille","lat":43.32368,"lon":5.38895,"is_reserved":false,"is_disabled":false,"rental_uris":{"android":"levelo://app?vid=ea3e44e4-5607-432c-a36c-1dd1c2026358","ios":"levelo://app?vid=ea3e44e4-5607-432c-a36c-1dd1c2026358"},"vehicle_type_id":"4","last_reported":1731049698,"current_range_meters":36400,"station_id":"ce4bhqp2rcd13ifvqhog","pricing_plan_id":"cebpf4jnsgd1na2vs0mg"},{"bike_id":"76ed76f2-82b2-4bbe-a86a-c477e34247f1","system_id":"levelo_inurba_marseille","lat":43.27307,"lon":5.39095,"is_reserved":false,"is_disabled":false,"rental_uris":{"android":"levelo://app?vid=76ed76f2-82b2-4bbe-a86a-c477e34247f1","ios":"levelo://app?vid=76ed76f2-82b2-4bbe-a86a-c477e34247f1"},"vehicle_type_id":"4","last_reported":1731049698,"current_range_meters":38800,"station_id":"ce4bhgp2rcd13ifvqfe0","pricing_plan_id":"cebpf4jnsgd1na2vs0mg"},{"bike_id":"660460f1-6a3a-42ef-b81f-0e0e4afbd647","system_id":"levelo_inurba_marseille","lat":43.32109,"lon":5.36771,"is_reserved":false,"is_disabled":false,"rental_uris":{"android":"levelo://app?vid=660460f1-6a3a-42ef-b81f-0e0e4afbd647","ios":"levelo://app?vid=660460f1-6a3a-42ef-b81f-0e0e4afbd647"},"vehicle_type_id":"4","last_reported":1731049698,"current_range_meters":28000,"station_id":"ce4bhrh2rcd13ifvqhug","pricing_plan_id":"cebpf4jnsgd1na2vs0mg"},{"bike_id":"d5385c05-a85d-4384-9e5c-fb78c37c8d9a","system_id":"levelo_inurba_marseille","lat":43.25827,"lon":5.39432,"is_reserved":false,"is_disabled":false,"rental_uris":{"android":"levelo://app?vid=d5385c05-a85d-4384-9e5c-fb78c37c8d9a","ios":"levelo://app?vid=d5385c05-a85d-4384-9e5c-fb78c37c8d9a"},"vehicle_type_id":"4","last_reported":1731049698,"current_range_meters":23200,"station_id":"ce4bhip2rcd13ifvqft0","pricing_plan_id":"cebpf4jnsgd1na2vs0mg"},{"bike_id":"49900465-52dd-424c-b9df-70d26b98afe5","system_id":"levelo_inurba_marseille","lat":43.30455,"lon":5.37903,"is_reserved":false,"is_disabled":false,"rental_uris":{"android":"levelo://app?vid=49900465-52dd-424c-b9df-70d26b98afe5","ios":"levelo://app?vid=49900465-52dd-424c-b9df-70d26b98afe5"},"vehicle_type_id":"4","last_reported":1731049698,"current_range_meters":38800,"station_id":"ce4bgup2rcd13ifvqcn0","pricing_plan_id":"cebpf4jnsgd1na2vs0mg"},{"bike_id":"2000106d-68a0-476c-ba36-6e004afb8a6b","system_id":"levelo_inurba_marseille","lat":43.29552,"lon":5.42287,"is_reserved":false,"is_disabled":false,"rental_uris":{"android":"levelo://app?vid=2000106d-68a0-476c-ba36-6e004afb8a6b","ios":"levelo://app?vid=2000106d-68a0-476c-ba36-6e004afb8a6b"},"vehicle_type_id":"4","last_reported":1731049698,"current_range_meters":36800,"station_id":"ce4bhph2rcd13ifvqhdg","pricing_plan_id":"cebpf4jnsgd1na2vs0mg"},{"bike_id":"a4b40dc7-8a83-45a9-a731-eb2f03350b7f","system_id":"levelo_inurba_marseille","lat":43.33604,"lon":5.41022,"is_reserved":false,"is_disabled":false,"rental_uris":{"android":"levelo://app?vid=a4b40dc7-8a83-45a9-a731-eb2f03350b7f","ios":"levelo://app?vid=a4b40dc7-8a83-45a9-a731-eb2f03350b7f"},"vehicle_type_id":"4","last_reported":1731049698,"current_range_meters":32400,"station_id":"ce4bhqh2rcd13ifvqhmg","pricing_plan_id":"cebpf4jnsgd1na2vs0mg"},{"bike_id":"70089653-9799-4b1a-bc46-f45efe46b8cd","system_id":"levelo_inurba_marseille","lat":43.27493,"lon":5.42451,"is_reserved":false,"is_disabled":false,"rental_uris":{"android":"levelo://app?vid=70089653-9799-4b1a-bc46-f45efe46b8cd","ios":"levelo://app?vid=70089653-9799-4b1a-bc46-f45efe46b8cd"},"vehicle_type_id":"4","last_reported":1731049698,"current_range_meters":14400,"station_id":"ce4bhn92rcd13ifvqgrg","pricing_plan_id":"cebpf4jnsgd1na2vs0mg"},{"bike_id":"3232343b-b00a-47b1-9de8-95cc6580cbfa","system_id":"levelo_inurba_marseille","lat":43.22933,"lon":5.35375,"is_reserved":false,"is_disabled":false,"rental_uris":{"android":"levelo://app?vid=3232343b-b00a-47b1-9de8-95cc6580cbfa","ios":"levelo://app?vid=3232343b-b00a-47b1-9de8-95cc6580cbfa"},"vehicle_type_id":"4","last_reported":1731049698,"current_range_meters":28000,"station_id":"cpo3532slgdg3j2ikp40","pricing_plan_id":"cebpf4jnsgd1na2vs0mg"},{"bike_id":"c13a97d0-0530-41f0-a94a-cc0540876f4c","system_id":"levelo_inurba_marseille","lat":43.29037,"lon":5.3996,"is_reserved":false,"is_disabled":false,"rental_uris":{"android":"levelo://app?vid=c13a97d0-0530-41f0-a94a-cc0540876f4c","ios":"levelo://app?vid=c13a97d0-0530-41f0-a94a-cc0540876f4c"},"vehicle_type_id":"4","last_reported":1731049698,"current_range_meters":33600,"station_id":"ce4bh392rcd13ifvqdm0","pricing_plan_id":"cebpf4jnsgd1na2vs0mg"},{"bike_id":"8606ab25-4f38-4d90-a3a9-70c9d8c5a3ee","system_id":"levelo_inurba_marseille","lat":43.31761,"lon":5.39004,"is_reserved":false,"is_disabled":false,"rental_uris":{"android":"levelo://app?vid=8606ab25-4f38-4d90-a3a9-70c9d8c5a3ee","ios":"levelo://app?vid=8606ab25-4f38-4d90-a3a9-70c9d8c5a3ee"},"vehicle_type_id":"4","last_reported":1731049698,"current_range_meters":37600,"station_id":"ce4bhqp2rcd13ifvqhng","pricing_plan_id":"cebpf4jnsgd1na2vs0mg"},{"bike_id":"7a8c18a6-5cc7-47d5-b58b-63c6df80a074","system_id":"levelo_inurba_marseille","lat":43.28091,"lon":5.37846,"is_reserved":false,"is_disabled":false,"rental_uris":{"android":"levelo://app?vid=7a8c18a6-5cc7-47d5-b58b-63c6df80a074","ios":"levelo://app?vid=7a8c18a6-5cc7-47d5-b58b-63c6df80a074"},"vehicle_type_id":"4","last_reported":1731049698,"current_range_meters":28800,"station_id":"ce4bha12rcd13ifvqee0","pricing_plan_id":"cebpf4jnsgd1na2vs0mg"},{"bike_id":"8838674c-71ef-4915-9d5e-517d54e399ba","system_id":"levelo_inurba_marseille","lat":43.31704,"lon":5.3776,"is_reserved":false,"is_disabled":false,"rental_uris":{"android":"levelo://app?vid=8838674c-71ef-4915-9d5e-517d54e399ba","ios":"levelo://app?vid=8838674c-71ef-4915-9d5e-517d54e399ba"},"vehicle_type_id":"4","last_reported":1731049698,"current_range_meters":8400,"station_id":"ce4bgth2rcd13ifvqch0","pricing_plan_id":"cebpf4jnsgd1na2vs0mg"},{"bike_id":"bfa68fd3-397a-410c-be3b-76299c001320","system_id":"levelo_inurba_marseille","lat":43.2749,"lon":5.4245,"is_reserved":false,"is_disabled":false,"rental_uris":{"android":"levelo://app?vid=bfa68fd3-397a-410c-be3b-76299c001320","ios":"levelo://app?vid=bfa68fd3-397a-410c-be3b-76299c001320"},"vehicle_type_id":"4","last_reported":1731049698,"current_range_meters":26000,"station_id":"ce4bhn92rcd13ifvqgrg","pricing_plan_id":"cebpf4jnsgd1na2vs0mg"},{"bike_id":"31b54091-b221-437e-88c7-5d9b82831c1f","system_id":"levelo_inurba_marseille","lat":43.27787,"lon":5.3916,"is_reserved":false,"is_disabled":false,"rental_uris":{"android":"levelo://app?vid=31b54091-b221-437e-88c7-5d9b82831c1f","ios":"levelo://app?vid=31b54091-b221-437e-88c7-5d9b82831c1f"},"vehicle_type_id":"4","last_reported":1731049698,"current_range_meters":26000,"station_id":"ce4bgjh2rcd13ifvqbf0","pricing_plan_id":"cebpf4jnsgd1na2vs0mg"},{"bike_id":"67b910e0-bf0f-4abb-9b7a-2271a0845f0b","system_id":"levelo_inurba_marseille","lat":43.29038,"lon":5.39947,"is_reserved":false,"is_disabled":false,"rental_uris":{"android":"levelo://app?vid=67b910e0-bf0f-4abb-9b7a-2271a0845f0b","ios":"levelo://app?vid=67b910e0-bf0f-4abb-9b7a-2271a0845f0b"},"vehicle_type_id":"4","last_reported":1731049698,"current_range_meters":39200,"station_id":"ce4bh392rcd13ifvqdm0","pricing_plan_id":"cebpf4jnsgd1na2vs0mg"},{"bike_id":"d46fc949-017c-4337-a007-b5f9f19a0bfa","system_id":"levelo_inurba_marseille","lat":43.337444,"lon":5.374475,"is_reserved":false,"is_disabled":false,"rental_uris":{"android":"levelo://app?vid=d46fc949-017c-4337-a007-b5f9f19a0bfa","ios":"levelo://app?vid=d46fc949-017c-4337-a007-b5f9f19a0bfa"},"vehicle_type_id":"4","last_reported":1731049698,"current_range_meters":31200,"station_id":"","pricing_plan_id":"cebpf4jnsgd1na2vs0mg"},{"bike_id":"54e2b98b-369a-433b-9ae9-c001e48cdf14","system_id":"levelo_inurba_marseille","lat":43.28464,"lon":5.35886,"is_reserved":false,"is_disabled":false,"rental_uris":{"android":"levelo://app?vid=54e2b98b-369a-433b-9ae9-c001e48cdf14","ios":"levelo://app?vid=54e2b98b-369a-433b-9ae9-c001e48cdf14"},"vehicle_type_id":"4","last_reported":1731049698,"current_range_meters":38800,"station_id":"ce4bhah2rcd13ifvqei0","pricing_plan_id":"cebpf4jnsgd1na2vs0mg"},{"bike_id":"37ed2b08-87f9-4838-8170-72d1016f382f","system_id":"levelo_inurba_marseille","lat":43.30598,"lon":5.39364,"is_reserved":false,"is_disabled":false,"rental_uris":{"android":"levelo://app?vid=37ed2b08-87f9-4838-8170-72d1016f382f","ios":"levelo://app?vid=37ed2b08-87f9-4838-8170-72d1016f382f"},"vehicle_type_id":"4","last_reported":1731049698,"current_range_meters":38800,"station_id":"ce4bh0p2rcd13ifvqd80","pricing_plan_id":"cebpf4jnsgd1na2vs0mg"},{"bike_id":"d4f27e60-bf97-41ec-9466-fcbec8f57bc8","system_id":"levelo_inurba_marseille","lat":43.28855,"lon":5.393197,"is_reserved":false,"is_disabled":false,"rental_uris":{"android":"levelo://app?vid=d4f27e60-bf97-41ec-9466-fcbec8f57bc8","ios":"levelo://app?vid=d4f27e60-bf97-41ec-9466-fcbec8f57bc8"},"vehicle_type_id":"4","last_reported":1731049698,"current_range_meters":8800,"station_id":"ce4bh2p2rcd13ifvqdi0","pricing_plan_id":"cebpf4jnsgd1na2vs0mg"},{"bike_id":"75a5d8ac-cf0b-46c5-b1c0-a4fb7875ad51","system_id":"levelo_inurba_marseille","lat":43.24064,"lon":5.37767,"is_reserved":false,"is_disabled":false,"rental_uris":{"android":"levelo://app?vid=75a5d8ac-cf0b-46c5-b1c0-a4fb7875ad51","ios":"levelo://app?vid=75a5d8ac-cf0b-46c5-b1c0-a4fb7875ad51"},"vehicle_type_id":"4","last_reported":1731049698,"current_range_meters":20800,"station_id":"ce4bhnp2rcd13ifvqgvg","pricing_plan_id":"cebpf4jnsgd1na2vs0mg"},{"bike_id":"ab851f52-f268-471a-8e8e-95f4946f7983","system_id":"levelo_inurba_marseille","lat":43.27495,"lon":5.4245,"is_reserved":false,"is_disabled":false,"rental_uris":{"android":"levelo://app?vid=ab851f52-f268-471a-8e8e-95f4946f7983","ios":"levelo://app?vid=ab851f52-f268-471a-8e8e-95f4946f7983"},"vehicle_type_id":"4","last_reported":1731049698,"current_range_meters":24000,"station_id":"ce4bhn92rcd13ifvqgrg","pricing_plan_id":"cebpf4jnsgd1na2vs0mg"},{"bike_id":"8c3c94e4-9b16-480e-b141-ec41486459d1","system_id":"levelo_inurba_marseille","lat":43.29279,"lon":5.40124,"is_reserved":false,"is_disabled":false,"rental_uris":{"android":"levelo://app?vid=8c3c94e4-9b16-480e-b141-ec41486459d1","ios":"levelo://app?vid=8c3c94e4-9b16-480e-b141-ec41486459d1"},"vehicle_type_id":"4","last_reported":1731049698,"current_range_meters":37600,"station_id":"ce4bh312rcd13ifvqdk0","pricing_plan_id":"cebpf4jnsgd1na2vs0mg"},{"bike_id":"f57ef509-c8e3-488a-9a06-f0af43d7da91","system_id":"levelo_inurba_marseille","lat":43.30529,"lon":5.36701,"is_reserved":false,"is_disabled":false,"rental_uris":{"android":"levelo://app?vid=f57ef509-c8e3-488a-9a06-f0af43d7da91","ios":"levelo://app?vid=f57ef509-c8e3-488a-9a06-f0af43d7da91"},"vehicle_type_id":"4","last_reported":1731049698,"current_range_meters":7200,"station_id":"ce4bgrp2rcd13ifvqc9g","pricing_plan_id":"cebpf4jnsgd1na2vs0mg"},{"bike_id":"6e650f67-2802-455d-9d9e-1ae8402b0b6e","system_id":"levelo_inurba_marseille","lat":43.29036,"lon":5.39952,"is_reserved":false,"is_disabled":false,"rental_uris":{"android":"levelo://app?vid=6e650f67-2802-455d-9d9e-1ae8402b0b6e","ios":"levelo://app?vid=6e650f67-2802-455d-9d9e-1ae8402b0b6e"},"vehicle_type_id":"4","last_reported":1731049698,"current_range_meters":22000,"station_id":"ce4bh392rcd13ifvqdm0","pricing_plan_id":"cebpf4jnsgd1na2vs0mg"},{"bike_id":"b8fdd341-0697-41ca-82c9-e4253415f4e6","system_id":"levelo_inurba_marseille","lat":43.27486,"lon":5.42466,"is_reserved":false,"is_disabled":false,"rental_uris":{"android":"levelo://app?vid=b8fdd341-0697-41ca-82c9-e4253415f4e6","ios":"levelo://app?vid=b8fdd341-0697-41ca-82c9-e4253415f4e6"},"vehicle_type_id":"4","last_reported":1731049698,"current_range_meters":38000,"station_id":"ce4bhn92rcd13ifvqgrg","pricing_plan_id":"cebpf4jnsgd1na2vs0mg"},{"bike_id":"9b96d1a7-1bb0-4837-8ce5-5f6325109a7b","system_id":"levelo_inurba_marseille","lat":43.23186,"lon":5.39992,"is_reserved":false,"is_disabled":false,"rental_uris":{"android":"levelo://app?vid=9b96d1a7-1bb0-4837-8ce5-5f6325109a7b","ios":"levelo://app?vid=9b96d1a7-1bb0-4837-8ce5-5f6325109a7b"},"vehicle_type_id":"4","last_reported":1731049698,"current_range_meters":8000,"station_id":"ce4bhn12rcd13ifvqgqg","pricing_plan_id":"cebpf4jnsgd1na2vs0mg"},{"bike_id":"7148e5a3-e345-4df8-9602-6c428d6f2779","system_id":"levelo_inurba_marseille","lat":43.2667,"lon":5.40289,"is_reserved":false,"is_disabled":false,"rental_uris":{"android":"levelo://app?vid=7148e5a3-e345-4df8-9602-6c428d6f2779","ios":"levelo://app?vid=7148e5a3-e345-4df8-9602-6c428d6f2779"},"vehicle_type_id":"4","last_reported":1731049698,"current_range_meters":12400,"station_id":"","pricing_plan_id":"cebpf4jnsgd1na2vs0mg"},{"bike_id":"dbf0c74c-dbc0-4cc7-b18b-21073c3ea907","system_id":"levelo_inurba_marseille","lat":43.2787,"lon":5.38047,"is_reserved":false,"is_disabled":false,"rental_uris":{"android":"levelo://app?vid=dbf0c74c-dbc0-4cc7-b18b-21073c3ea907","ios":"levelo://app?vid=dbf0c74c-dbc0-4cc7-b18b-21073c3ea907"},"vehicle_type_id":"4","last_reported":1731049698,"current_range_meters":38000,"station_id":"","pricing_plan_id":"cebpf4jnsgd1na2vs0mg"},{"bike_id":"14a66910-2e94-4fbc-860a-5889a2a2ac9a","system_id":"levelo_inurba_marseille","lat":43.27178,"lon":5.4098,"is_reserved":false,"is_disabled":false,"rental_uris":{"android":"levelo://app?vid=14a66910-2e94-4fbc-860a-5889a2a2ac9a","ios":"levelo://app?vid=14a66910-2e94-4fbc-860a-5889a2a2ac9a"},"vehicle_type_id":"4","last_reported":1731049698,"current_range_meters":38800,"station_id":"ce4bhl12rcd13ifvqgf0","pricing_plan_id":"cebpf4jnsgd1na2vs0mg"},{"bike_id":"ffa6a709-cf7b-41fd-acb6-77573eab6973","system_id":"levelo_inurba_marseille","lat":43.324824,"lon":5.365662,"is_reserved":false,"is_disabled":false,"rental_uris":{"android":"levelo://app?vid=ffa6a709-cf7b-41fd-acb6-77573eab6973","ios":"levelo://app?vid=ffa6a709-cf7b-41fd-acb6-77573eab6973"},"vehicle_type_id":"4","last_reported":1731049698,"current_range_meters":16000,"station_id":"ce4bhs12rcd13ifvqhvg","pricing_plan_id":"cebpf4jnsgd1na2vs0mg"},{"bike_id":"160d6bb6-1af2-4552-8b41-ebed1e9ddef6","system_id":"levelo_inurba_marseille","lat":43.28153,"lon":5.42643,"is_reserved":false,"is_disabled":false,"rental_uris":{"android":"levelo://app?vid=160d6bb6-1af2-4552-8b41-ebed1e9ddef6","ios":"levelo://app?vid=160d6bb6-1af2-4552-8b41-ebed1e9ddef6"},"vehicle_type_id":"4","last_reported":1731049698,"current_range_meters":32000,"station_id":"ce4bhnh2rcd13ifvqgug","pricing_plan_id":"cebpf4jnsgd1na2vs0mg"},{"bike_id":"3823a6e8-bd84-4cc7-bab2-f3381c2706f2","system_id":"levelo_inurba_marseille","lat":43.27487,"lon":5.42455,"is_reserved":false,"is_disabled":false,"rental_uris":{"android":"levelo://app?vid=3823a6e8-bd84-4cc7-bab2-f3381c2706f2","ios":"levelo://app?vid=3823a6e8-bd84-4cc7-bab2-f3381c2706f2"},"vehicle_type_id":"4","last_reported":1731049698,"current_range_meters":28400,"station_id":"ce4bhn92rcd13ifvqgrg","pricing_plan_id":"cebpf4jnsgd1na2vs0mg"},{"bike_id":"2a7f3069-466f-4a54-a9a2-8376a2b61136","system_id":"levelo_inurba_marseille","lat":43.28359,"lon":5.38642,"is_reserved":false,"is_disabled":false,"rental_uris":{"android":"levelo://app?vid=2a7f3069-466f-4a54-a9a2-8376a2b61136","ios":"levelo://app?vid=2a7f3069-466f-4a54-a9a2-8376a2b61136"},"vehicle_type_id":"4","last_reported":1731049698,"current_range_meters":33200,"station_id":"ce4bh492rcd13ifvqdvg","pricing_plan_id":"cebpf4jnsgd1na2vs0mg"},{"bike_id":"d29ff769-a186-4070-9ab6-e7df5a1d0196","system_id":"levelo_inurba_marseille","lat":43.28937,"lon":5.36647,"is_reserved":false,"is_disabled":false,"rental_uris":{"android":"levelo://app?vid=d29ff769-a186-4070-9ab6-e7df5a1d0196","ios":"levelo://app?vid=d29ff769-a186-4070-9ab6-e7df5a1d0196"},"vehicle_type_id":"4","last_reported":1731049698,"current_range_meters":12000,"station_id":"ce4bhap2rcd13ifvqek0","pricing_plan_id":"cebpf4jnsgd1na2vs0mg"},{"bike_id":"42758877-c4e6-4f54-b67e-2527e84c4894","system_id":"levelo_inurba_marseille","lat":43.23188,"lon":5.39974,"is_reserved":false,"is_disabled":false,"rental_uris":{"android":"levelo://app?vid=42758877-c4e6-4f54-b67e-2527e84c4894","ios":"levelo://app?vid=42758877-c4e6-4f54-b67e-2527e84c4894"},"vehicle_type_id":"4","last_reported":1731049698,"current_range_meters":17200,"station_id":"ce4bhn12rcd13ifvqgqg","pricing_plan_id":"cebpf4jnsgd1na2vs0mg"},{"bike_id":"0aa6bfdb-35d7-4623-b08b-e980c485533a","system_id":"levelo_inurba_marseille","lat":43.287544,"lon":5.383744,"is_reserved":false,"is_disabled":false,"rental_uris":{"android":"levelo://app?vid=0aa6bfdb-35d7-4623-b08b-e980c485533a","ios":"levelo://app?vid=0aa6bfdb-35d7-4623-b08b-e980c485533a"},"vehicle_type_id":"4","last_reported":1731049698,"current_range_meters":30400,"station_id":"ce4bhap2rcd13ifvqek0","pricing_plan_id":"cebpf4jnsgd1na2vs0mg"},{"bike_id":"b2237bbf-7bcf-4c64-bcc3-ed9e1d67efe7","system_id":"levelo_inurba_marseille","lat":43.3414,"lon":5.40903,"is_reserved":false,"is_disabled":false,"rental_uris":{"android":"levelo://app?vid=b2237bbf-7bcf-4c64-bcc3-ed9e1d67efe7","ios":"levelo://app?vid=b2237bbf-7bcf-4c64-bcc3-ed9e1d67efe7"},"vehicle_type_id":"4","last_reported":1731049698,"current_range_meters":8400,"station_id":"ce4bhqh2rcd13ifvqhlg","pricing_plan_id":"cebpf4jnsgd1na2vs0mg"},{"bike_id":"d1b86b65-d96e-4453-991c-ca354fd59b03","system_id":"levelo_inurba_marseille","lat":43.29526,"lon":5.39405,"is_reserved":false,"is_disabled":false,"rental_uris":{"android":"levelo://app?vid=d1b86b65-d96e-4453-991c-ca354fd59b03","ios":"levelo://app?vid=d1b86b65-d96e-4453-991c-ca354fd59b03"},"vehicle_type_id":"4","last_reported":1731049698,"current_range_meters":33600,"station_id":"ce4bh292rcd13ifvqdf0","pricing_plan_id":"cebpf4jnsgd1na2vs0mg"},{"bike_id":"f25d5891-124e-470f-931d-7253b06fea97","system_id":"levelo_inurba_marseille","lat":43.30465,"lon":5.37912,"is_reserved":false,"is_disabled":false,"rental_uris":{"android":"levelo://app?vid=f25d5891-124e-470f-931d-7253b06fea97","ios":"levelo://app?vid=f25d5891-124e-470f-931d-7253b06fea97"},"vehicle_type_id":"4","last_reported":1731049698,"current_range_meters":30800,"station_id":"ce4bgup2rcd13ifvqcn0","pricing_plan_id":"cebpf4jnsgd1na2vs0mg"},{"bike_id":"b6a02552-d203-4d73-8082-627bf6022bac","system_id":"levelo_inurba_marseille","lat":43.29279,"lon":5.40121,"is_reserved":false,"is_disabled":false,"rental_uris":{"android":"levelo://app?vid=b6a02552-d203-4d73-8082-627bf6022bac","ios":"levelo://app?vid=b6a02552-d203-4d73-8082-627bf6022bac"},"vehicle_type_id":"4","last_reported":1731049698,"current_range_meters":37600,"station_id":"ce4bh312rcd13ifvqdk0","pricing_plan_id":"cebpf4jnsgd1na2vs0mg"},{"bike_id":"2bcf79aa-6b99-43b9-91a5-94e6ec87cd0b","system_id":"levelo_inurba_marseille","lat":43.26787,"lon":5.3941,"is_reserved":false,"is_disabled":false,"rental_uris":{"android":"levelo://app?vid=2bcf79aa-6b99-43b9-91a5-94e6ec87cd0b","ios":"levelo://app?vid=2bcf79aa-6b99-43b9-91a5-94e6ec87cd0b"},"vehicle_type_id":"4","last_reported":1731049698,"current_range_meters":33600,"station_id":"ce4bhh12rcd13ifvqfg0","pricing_plan_id":"cebpf4jnsgd1na2vs0mg"},{"bike_id":"41190612-808b-4888-8ab3-09113605971f","system_id":"levelo_inurba_marseille","lat":43.303894,"lon":5.377875,"is_reserved":false,"is_disabled":false,"rental_uris":{"android":"levelo://app?vid=41190612-808b-4888-8ab3-09113605971f","ios":"levelo://app?vid=41190612-808b-4888-8ab3-09113605971f"},"vehicle_type_id":"4","last_reported":1731049698,"current_range_meters":4000,"station_id":"","pricing_plan_id":"cebpf4jnsgd1na2vs0mg"},{"bike_id":"96af24a7-9c6e-4e43-9718-e21c9845789c","system_id":"levelo_inurba_marseille","lat":43.28404,"lon":5.37516,"is_reserved":false,"is_disabled":false,"rental_uris":{"android":"levelo://app?vid=96af24a7-9c6e-4e43-9718-e21c9845789c","ios":"levelo://app?vid=96af24a7-9c6e-4e43-9718-e21c9845789c"},"vehicle_type_id":"4","last_reported":1731049698,"current_range_meters":38000,"station_id":"ce4bh412rcd13ifvqds0","pricing_plan_id":"cebpf4jnsgd1na2vs0mg"},{"bike_id":"1f986931-33a6-407d-9691-981e5af33791","system_id":"levelo_inurba_marseille","lat":43.25933,"lon":5.40893,"is_reserved":false,"is_disabled":false,"rental_uris":{"android":"levelo://app?vid=1f986931-33a6-407d-9691-981e5af33791","ios":"levelo://app?vid=1f986931-33a6-407d-9691-981e5af33791"},"vehicle_type_id":"4","last_reported":1731049698,"current_range_meters":9200,"station_id":"ce4bhm92rcd13ifvqglg","pricing_plan_id":"cebpf4jnsgd1na2vs0mg"},{"bike_id":"820c2f71-6f95-41fb-bf27-3117987d2dca","system_id":"levelo_inurba_marseille","lat":43.28345,"lon":5.38113,"is_reserved":false,"is_disabled":false,"rental_uris":{"android":"levelo://app?vid=820c2f71-6f95-41fb-bf27-3117987d2dca","ios":"levelo://app?vid=820c2f71-6f95-41fb-bf27-3117987d2dca"},"vehicle_type_id":"4","last_reported":1731049698,"current_range_meters":19200,"station_id":"ce4bh412rcd13ifvqdr0","pricing_plan_id":"cebpf4jnsgd1na2vs0mg"},{"bike_id":"c54d8938-bd66-4746-8397-6468d0e45158","system_id":"levelo_inurba_marseille","lat":43.30795,"lon":5.43528,"is_reserved":false,"is_disabled":false,"rental_uris":{"android":"levelo://app?vid=c54d8938-bd66-4746-8397-6468d0e45158","ios":"levelo://app?vid=c54d8938-bd66-4746-8397-6468d0e45158"},"vehicle_type_id":"4","last_reported":1731049698,"current_range_meters":38800,"station_id":"ce4bhph2rcd13ifvqheg","pricing_plan_id":"cebpf4jnsgd1na2vs0mg"},{"bike_id":"95ac8b55-d461-4c79-bf07-3deece0b5544","system_id":"levelo_inurba_marseille","lat":43.33752,"lon":5.37451,"is_reserved":false,"is_disabled":false,"rental_uris":{"android":"levelo://app?vid=95ac8b55-d461-4c79-bf07-3deece0b5544","ios":"levelo://app?vid=95ac8b55-d461-4c79-bf07-3deece0b5544"},"vehicle_type_id":"4","last_reported":1731049698,"current_range_meters":27600,"station_id":"","pricing_plan_id":"cebpf4jnsgd1na2vs0mg"},{"bike_id":"3400b1bb-f63b-491a-891f-c56c990cbf82","system_id":"levelo_inurba_marseille","lat":43.25818,"lon":5.39437,"is_reserved":false,"is_disabled":false,"rental_uris":{"android":"levelo://app?vid=3400b1bb-f63b-491a-891f-c56c990cbf82","ios":"levelo://app?vid=3400b1bb-f63b-491a-891f-c56c990cbf82"},"vehicle_type_id":"4","last_reported":1731049698,"current_range_meters":13600,"station_id":"ce4bhip2rcd13ifvqft0","pricing_plan_id":"cebpf4jnsgd1na2vs0mg"},{"bike_id":"2558d9d8-30f3-4cb9-ae47-7f44ecff7179","system_id":"levelo_inurba_marseille","lat":43.29281,"lon":5.4013,"is_reserved":false,"is_disabled":false,"rental_uris":{"android":"levelo://app?vid=2558d9d8-30f3-4cb9-ae47-7f44ecff7179","ios":"levelo://app?vid=2558d9d8-30f3-4cb9-ae47-7f44ecff7179"},"vehicle_type_id":"4","last_reported":1731049698,"current_range_meters":26800,"station_id":"ce4bh312rcd13ifvqdk0","pricing_plan_id":"cebpf4jnsgd1na2vs0mg"},{"bike_id":"c68419ae-5304-473c-904a-721cc7490645","system_id":"levelo_inurba_marseille","lat":43.24076,"lon":5.37754,"is_reserved":false,"is_disabled":false,"rental_uris":{"android":"levelo://app?vid=c68419ae-5304-473c-904a-721cc7490645","ios":"levelo://app?vid=c68419ae-5304-473c-904a-721cc7490645"},"vehicle_type_id":"4","last_reported":1731049698,"current_range_meters":27600,"station_id":"ce4bhnp2rcd13ifvqgvg","pricing_plan_id":"cebpf4jnsgd1na2vs0mg"},{"bike_id":"5dae8da9-34fd-43f0-886d-9017bc04ac44","system_id":"levelo_inurba_marseille","lat":43.28337,"lon":5.38105,"is_reserved":false,"is_disabled":false,"rental_uris":{"android":"levelo://app?vid=5dae8da9-34fd-43f0-886d-9017bc04ac44","ios":"levelo://app?vid=5dae8da9-34fd-43f0-886d-9017bc04ac44"},"vehicle_type_id":"4","last_reported":1731049698,"current_range_meters":28800,"station_id":"ce4bh412rcd13ifvqdr0","pricing_plan_id":"cebpf4jnsgd1na2vs0mg"},{"bike_id":"5641435e-5ee6-4d06-9ff9-7d6b73cd6a54","system_id":"levelo_inurba_marseille","lat":43.2962,"lon":5.37166,"is_reserved":false,"is_disabled":false,"rental_uris":{"android":"levelo://app?vid=5641435e-5ee6-4d06-9ff9-7d6b73cd6a54","ios":"levelo://app?vid=5641435e-5ee6-4d06-9ff9-7d6b73cd6a54"},"vehicle_type_id":"4","last_reported":1731049698,"current_range_meters":17600,"station_id":"ce4bgjp2rcd13ifvqbh0","pricing_plan_id":"cebpf4jnsgd1na2vs0mg"},{"bike_id":"334ba5d7-f253-4edf-a5e7-62d35626273c","system_id":"levelo_inurba_marseille","lat":43.27825,"lon":5.39208,"is_reserved":false,"is_disabled":false,"rental_uris":{"android":"levelo://app?vid=334ba5d7-f253-4edf-a5e7-62d35626273c","ios":"levelo://app?vid=334ba5d7-f253-4edf-a5e7-62d35626273c"},"vehicle_type_id":"4","last_reported":1731049698,"current_range_meters":27600,"station_id":"ce4bhjp2rcd13ifvqga0","pricing_plan_id":"cebpf4jnsgd1na2vs0mg"},{"bike_id":"548f1609-a23f-4c94-9059-28bdd7e2b851","system_id":"levelo_inurba_marseille","lat":43.32536,"lon":5.41428,"is_reserved":false,"is_disabled":false,"rental_uris":{"android":"levelo://app?vid=548f1609-a23f-4c94-9059-28bdd7e2b851","ios":"levelo://app?vid=548f1609-a23f-4c94-9059-28bdd7e2b851"},"vehicle_type_id":"4","last_reported":1731049698,"current_range_meters":38800,"station_id":"ce4bhq12rcd13ifvqhhg","pricing_plan_id":"cebpf4jnsgd1na2vs0mg"},{"bike_id":"21cd2f46-7e50-4832-8919-1d871df023a1","system_id":"levelo_inurba_marseille","lat":43.284589,"lon":5.358924,"is_reserved":false,"is_disabled":false,"rental_uris":{"android":"levelo://app?vid=21cd2f46-7e50-4832-8919-1d871df023a1","ios":"levelo://app?vid=21cd2f46-7e50-4832-8919-1d871df023a1"},"vehicle_type_id":"4","last_reported":1731049698,"current_range_meters":38800,"station_id":"ce4bhah2rcd13ifvqei0","pricing_plan_id":"cebpf4jnsgd1na2vs0mg"},{"bike_id":"b8caa597-81b4-4a40-8085-1482b552ef27","system_id":"levelo_inurba_marseille","lat":43.31322,"lon":5.39694,"is_reserved":false,"is_disabled":false,"rental_uris":{"android":"levelo://app?vid=b8caa597-81b4-4a40-8085-1482b552ef27","ios":"levelo://app?vid=b8caa597-81b4-4a40-8085-1482b552ef27"},"vehicle_type_id":"4","last_reported":1731049698,"current_range_meters":18000,"station_id":"ce4bgvp2rcd13ifvqcu0","pricing_plan_id":"cebpf4jnsgd1na2vs0mg"},{"bike_id":"47294749-68e5-4b31-99bf-3d44aae7e13e","system_id":"levelo_inurba_marseille","lat":43.30311,"lon":5.40438,"is_reserved":false,"is_disabled":false,"rental_uris":{"android":"levelo://app?vid=47294749-68e5-4b31-99bf-3d44aae7e13e","ios":"levelo://app?vid=47294749-68e5-4b31-99bf-3d44aae7e13e"},"vehicle_type_id":"4","last_reported":1731049698,"current_range_meters":35600,"station_id":"ce4bh012rcd13ifvqd10","pricing_plan_id":"cebpf4jnsgd1na2vs0mg"},{"bike_id":"8703a4f3-3726-4eff-a6ea-0b45102bc5bf","system_id":"levelo_inurba_marseille","lat":43.24541,"lon":5.39528,"is_reserved":false,"is_disabled":false,"rental_uris":{"android":"levelo://app?vid=8703a4f3-3726-4eff-a6ea-0b45102bc5bf","ios":"levelo://app?vid=8703a4f3-3726-4eff-a6ea-0b45102bc5bf"},"vehicle_type_id":"4","last_reported":1731049698,"current_range_meters":27200,"station_id":"ce4bhlp2rcd13ifvqgjg","pricing_plan_id":"cebpf4jnsgd1na2vs0mg"},{"bike_id":"1bb7ff65-2606-4de0-942f-53bd8381abe1","system_id":"levelo_inurba_marseille","lat":43.287244,"lon":5.360863,"is_reserved":false,"is_disabled":false,"rental_uris":{"android":"levelo://app?vid=1bb7ff65-2606-4de0-942f-53bd8381abe1","ios":"levelo://app?vid=1bb7ff65-2606-4de0-942f-53bd8381abe1"},"vehicle_type_id":"4","last_reported":1731049698,"current_range_meters":38000,"station_id":"cki0cbj6b192h4jlfktg","pricing_plan_id":"cebpf4jnsgd1na2vs0mg"},{"bike_id":"5be0bd50-c94e-4688-afe6-4e24944fef3e","system_id":"levelo_inurba_marseille","lat":43.29592,"lon":5.38104,"is_reserved":false,"is_disabled":false,"rental_uris":{"android":"levelo://app?vid=5be0bd50-c94e-4688-afe6-4e24944fef3e","ios":"levelo://app?vid=5be0bd50-c94e-4688-afe6-4e24944fef3e"},"vehicle_type_id":"4","last_reported":1731049698,"current_range_meters":25200,"station_id":"ce4bgl12rcd13ifvqbo0","pricing_plan_id":"cebpf4jnsgd1na2vs0mg"},{"bike_id":"e4f2f8e3-0f19-431a-937e-bf51e53aa69a","system_id":"levelo_inurba_marseille","lat":43.3168,"lon":5.40473,"is_reserved":false,"is_disabled":false,"rental_uris":{"android":"levelo://app?vid=e4f2f8e3-0f19-431a-937e-bf51e53aa69a","ios":"levelo://app?vid=e4f2f8e3-0f19-431a-937e-bf51e53aa69a"},"vehicle_type_id":"4","last_reported":1731049698,"current_range_meters":24000,"station_id":"ce4bh012rcd13ifvqd00","pricing_plan_id":"cebpf4jnsgd1na2vs0mg"},{"bike_id":"9e0a32da-ea58-400b-b363-c228f0a691c2","system_id":"levelo_inurba_marseille","lat":43.28353,"lon":5.38104,"is_reserved":false,"is_disabled":false,"rental_uris":{"android":"levelo://app?vid=9e0a32da-ea58-400b-b363-c228f0a691c2","ios":"levelo://app?vid=9e0a32da-ea58-400b-b363-c228f0a691c2"},"vehicle_type_id":"4","last_reported":1731049698,"current_range_meters":17200,"station_id":"ce4bh412rcd13ifvqdr0","pricing_plan_id":"cebpf4jnsgd1na2vs0mg"},{"bike_id":"3d65a636-faeb-4cdc-870e-c146404fe702","system_id":"levelo_inurba_marseille","lat":43.27369,"lon":5.36257,"is_reserved":false,"is_disabled":false,"rental_uris":{"android":"levelo://app?vid=3d65a636-faeb-4cdc-870e-c146404fe702","ios":"levelo://app?vid=3d65a636-faeb-4cdc-870e-c146404fe702"},"vehicle_type_id":"4","last_reported":1731049698,"current_range_meters":23200,"station_id":"ce4bhbh2rcd13ifvqeo0","pricing_plan_id":"cebpf4jnsgd1na2vs0mg"},{"bike_id":"a9529e29-09f5-49ce-a102-9e94fd1d862a","system_id":"levelo_inurba_marseille","lat":43.29812,"lon":5.38099,"is_reserved":false,"is_disabled":false,"rental_uris":{"android":"levelo://app?vid=a9529e29-09f5-49ce-a102-9e94fd1d862a","ios":"levelo://app?vid=a9529e29-09f5-49ce-a102-9e94fd1d862a"},"vehicle_type_id":"4","last_reported":1731049698,"current_range_meters":9200,"station_id":"ce4bgip2rcd13ifvqbb0","pricing_plan_id":"cebpf4jnsgd1na2vs0mg"},{"bike_id":"2fe77fe1-22de-4287-b409-02ccb832da80","system_id":"levelo_inurba_marseille","lat":43.2986,"lon":5.376443,"is_reserved":false,"is_disabled":false,"rental_uris":{"android":"levelo://app?vid=2fe77fe1-22de-4287-b409-02ccb832da80","ios":"levelo://app?vid=2fe77fe1-22de-4287-b409-02ccb832da80"},"vehicle_type_id":"4","last_reported":1731049698,"current_range_meters":34800,"station_id":"ce4bgjh2rcd13ifvqbg0","pricing_plan_id":"cebpf4jnsgd1na2vs0mg"},{"bike_id":"fe50f747-7601-4d68-a505-ed41ded24de5","system_id":"levelo_inurba_marseille","lat":43.28578,"lon":5.39494,"is_reserved":false,"is_disabled":false,"rental_uris":{"android":"levelo://app?vid=fe50f747-7601-4d68-a505-ed41ded24de5","ios":"levelo://app?vid=fe50f747-7601-4d68-a505-ed41ded24de5"},"vehicle_type_id":"4","last_reported":1731049698,"current_range_meters":39200,"station_id":"ce4bh292rcd13ifvqdg0","pricing_plan_id":"cebpf4jnsgd1na2vs0mg"},{"bike_id":"cf54c119-a3f1-4128-a016-b7f9aa4c9639","system_id":"levelo_inurba_marseille","lat":43.330292,"lon":5.413238,"is_reserved":false,"is_disabled":false,"rental_uris":{"android":"levelo://app?vid=cf54c119-a3f1-4128-a016-b7f9aa4c9639","ios":"levelo://app?vid=cf54c119-a3f1-4128-a016-b7f9aa4c9639"},"vehicle_type_id":"4","last_reported":1731049698,"current_range_meters":25200,"station_id":"ce4bhqh2rcd13ifvqhlg","pricing_plan_id":"cebpf4jnsgd1na2vs0mg"},{"bike_id":"80d5c89e-745d-46d6-9ab9-4f5ea40b6def","system_id":"levelo_inurba_marseille","lat":43.27181,"lon":5.41001,"is_reserved":false,"is_disabled":false,"rental_uris":{"android":"levelo://app?vid=80d5c89e-745d-46d6-9ab9-4f5ea40b6def","ios":"levelo://app?vid=80d5c89e-745d-46d6-9ab9-4f5ea40b6def"},"vehicle_type_id":"4","last_reported":1731049698,"current_range_meters":11200,"station_id":"ce4bhl12rcd13ifvqgf0","pricing_plan_id":"cebpf4jnsgd1na2vs0mg"},{"bike_id":"eccb9bf1-4a0c-4df5-8229-bf46f21c4329","system_id":"levelo_inurba_marseille","lat":43.31717,"lon":5.42407,"is_reserved":false,"is_disabled":false,"rental_uris":{"android":"levelo://app?vid=eccb9bf1-4a0c-4df5-8229-bf46f21c4329","ios":"levelo://app?vid=eccb9bf1-4a0c-4df5-8229-bf46f21c4329"},"vehicle_type_id":"4","last_reported":1731049698,"current_range_meters":38400,"station_id":"ce4bhp92rcd13ifvqhbg","pricing_plan_id":"cebpf4jnsgd1na2vs0mg"},{"bike_id":"ef288286-229d-4b9a-a189-8d61840dcffb","system_id":"levelo_inurba_marseille","lat":43.23189,"lon":5.35545,"is_reserved":false,"is_disabled":false,"rental_uris":{"android":"levelo://app?vid=ef288286-229d-4b9a-a189-8d61840dcffb","ios":"levelo://app?vid=ef288286-229d-4b9a-a189-8d61840dcffb"},"vehicle_type_id":"4","last_reported":1731049698,"current_range_meters":6800,"station_id":"ce4bhu92rcd13ifvqi70","pricing_plan_id":"cebpf4jnsgd1na2vs0mg"},{"bike_id":"80707b24-40a6-46f6-ae0d-f55816aca1ca","system_id":"levelo_inurba_marseille","lat":43.28972,"lon":5.39936,"is_reserved":false,"is_disabled":false,"rental_uris":{"android":"levelo://app?vid=80707b24-40a6-46f6-ae0d-f55816aca1ca","ios":"levelo://app?vid=80707b24-40a6-46f6-ae0d-f55816aca1ca"},"vehicle_type_id":"4","last_reported":1731049698,"current_range_meters":26800,"station_id":"ce4bh3h2rcd13ifvqdn0","pricing_plan_id":"cebpf4jnsgd1na2vs0mg"},{"bike_id":"9044ed43-de46-4645-b2ad-5e136647239a","system_id":"levelo_inurba_marseille","lat":43.337444,"lon":5.374475,"is_reserved":false,"is_disabled":false,"rental_uris":{"android":"levelo://app?vid=9044ed43-de46-4645-b2ad-5e136647239a","ios":"levelo://app?vid=9044ed43-de46-4645-b2ad-5e136647239a"},"vehicle_type_id":"4","last_reported":1731049698,"current_range_meters":33600,"station_id":"","pricing_plan_id":"cebpf4jnsgd1na2vs0mg"},{"bike_id":"814f60de-99cd-4f7d-a8f8-bd04f78e73d1","system_id":"levelo_inurba_marseille","lat":43.29579,"lon":5.36733,"is_reserved":false,"is_disabled":false,"rental_uris":{"android":"levelo://app?vid=814f60de-99cd-4f7d-a8f8-bd04f78e73d1","ios":"levelo://app?vid=814f60de-99cd-4f7d-a8f8-bd04f78e73d1"},"vehicle_type_id":"4","last_reported":1731049698,"current_range_meters":38000,"station_id":"ce4bgph2rcd13ifvqc2g","pricing_plan_id":"cebpf4jnsgd1na2vs0mg"},{"bike_id":"5d851ff4-5a36-41d0-9c4b-c81d3d2c3335","system_id":"levelo_inurba_marseille","lat":43.30357,"lon":5.41885,"is_reserved":false,"is_disabled":false,"rental_uris":{"android":"levelo://app?vid=5d851ff4-5a36-41d0-9c4b-c81d3d2c3335","ios":"levelo://app?vid=5d851ff4-5a36-41d0-9c4b-c81d3d2c3335"},"vehicle_type_id":"4","last_reported":1731049698,"current_range_meters":25600,"station_id":"ce4bhop2rcd13ifvqh7g","pricing_plan_id":"cebpf4jnsgd1na2vs0mg"},{"bike_id":"8d94f27b-ae0d-491a-83aa-3e23cd6e67d3","system_id":"levelo_inurba_marseille","lat":43.30461,"lon":5.37902,"is_reserved":false,"is_disabled":false,"rental_uris":{"android":"levelo://app?vid=8d94f27b-ae0d-491a-83aa-3e23cd6e67d3","ios":"levelo://app?vid=8d94f27b-ae0d-491a-83aa-3e23cd6e67d3"},"vehicle_type_id":"4","last_reported":1731049698,"current_range_meters":37600,"station_id":"ce4bgup2rcd13ifvqcn0","pricing_plan_id":"cebpf4jnsgd1na2vs0mg"},{"bike_id":"546c522c-d858-4cc2-9ba9-af678b98d67a","system_id":"levelo_inurba_marseille","lat":43.24076,"lon":5.37754,"is_reserved":false,"is_disabled":false,"rental_uris":{"android":"levelo://app?vid=546c522c-d858-4cc2-9ba9-af678b98d67a","ios":"levelo://app?vid=546c522c-d858-4cc2-9ba9-af678b98d67a"},"vehicle_type_id":"4","last_reported":1731049698,"current_range_meters":38000,"station_id":"ce4bhnp2rcd13ifvqgvg","pricing_plan_id":"cebpf4jnsgd1na2vs0mg"},{"bike_id":"a0190ff5-c74c-4611-ab41-076c1f16cc19","system_id":"levelo_inurba_marseille","lat":43.25864,"lon":5.39894,"is_reserved":false,"is_disabled":false,"rental_uris":{"android":"levelo://app?vid=a0190ff5-c74c-4611-ab41-076c1f16cc19","ios":"levelo://app?vid=a0190ff5-c74c-4611-ab41-076c1f16cc19"},"vehicle_type_id":"4","last_reported":1731049698,"current_range_meters":38000,"station_id":"ce4bhl92rcd13ifvqghg","pricing_plan_id":"cebpf4jnsgd1na2vs0mg"},{"bike_id":"60656924-f0b8-4514-98b0-ef5f3c07a984","system_id":"levelo_inurba_marseille","lat":43.305908,"lon":5.393451,"is_reserved":false,"is_disabled":false,"rental_uris":{"android":"levelo://app?vid=60656924-f0b8-4514-98b0-ef5f3c07a984","ios":"levelo://app?vid=60656924-f0b8-4514-98b0-ef5f3c07a984"},"vehicle_type_id":"4","last_reported":1731049698,"current_range_meters":38000,"station_id":"ce4bh0p2rcd13ifvqd80","pricing_plan_id":"cebpf4jnsgd1na2vs0mg"},{"bike_id":"43ef446d-8adc-44a9-a73d-78a211be3855","system_id":"levelo_inurba_marseille","lat":43.29963,"lon":5.4132,"is_reserved":false,"is_disabled":false,"rental_uris":{"android":"levelo://app?vid=43ef446d-8adc-44a9-a73d-78a211be3855","ios":"levelo://app?vid=43ef446d-8adc-44a9-a73d-78a211be3855"},"vehicle_type_id":"4","last_reported":1731049698,"current_range_meters":39200,"station_id":"ce4bhp12rcd13ifvqh9g","pricing_plan_id":"cebpf4jnsgd1na2vs0mg"},{"bike_id":"b035c342-8fcc-43af-a99e-dfe9439708c2","system_id":"levelo_inurba_marseille","lat":43.31488,"lon":5.37298,"is_reserved":false,"is_disabled":false,"rental_uris":{"android":"levelo://app?vid=b035c342-8fcc-43af-a99e-dfe9439708c2","ios":"levelo://app?vid=b035c342-8fcc-43af-a99e-dfe9439708c2"},"vehicle_type_id":"4","last_reported":1731049698,"current_range_meters":39200,"station_id":"ce4bgt12rcd13ifvqcd0","pricing_plan_id":"cebpf4jnsgd1na2vs0mg"},{"bike_id":"4fdba802-48bc-419d-aa29-85ea29fa8938","system_id":"levelo_inurba_marseille","lat":43.30254,"lon":5.39561,"is_reserved":false,"is_disabled":false,"rental_uris":{"android":"levelo://app?vid=4fdba802-48bc-419d-aa29-85ea29fa8938","ios":"levelo://app?vid=4fdba802-48bc-419d-aa29-85ea29fa8938"},"vehicle_type_id":"4","last_reported":1731049698,"current_range_meters":38800,"station_id":"ce4bh0p2rcd13ifvqd70","pricing_plan_id":"cebpf4jnsgd1na2vs0mg"},{"bike_id":"11dbc5d9-5b28-4bc8-af1c-2b206ea101bb","system_id":"levelo_inurba_marseille","lat":43.30148,"lon":5.38079,"is_reserved":false,"is_disabled":false,"rental_uris":{"android":"levelo://app?vid=11dbc5d9-5b28-4bc8-af1c-2b206ea101bb","ios":"levelo://app?vid=11dbc5d9-5b28-4bc8-af1c-2b206ea101bb"},"vehicle_type_id":"4","last_reported":1731049698,"current_range_meters":10800,"station_id":"ce4bgjp2rcd13ifvqbh0","pricing_plan_id":"cebpf4jnsgd1na2vs0mg"},{"bike_id":"38c9c563-2dc8-4ec3-94f6-fd20caf6397c","system_id":"levelo_inurba_marseille","lat":43.28574,"lon":5.39499,"is_reserved":false,"is_disabled":false,"rental_uris":{"android":"levelo://app?vid=38c9c563-2dc8-4ec3-94f6-fd20caf6397c","ios":"levelo://app?vid=38c9c563-2dc8-4ec3-94f6-fd20caf6397c"},"vehicle_type_id":"4","last_reported":1731049698,"current_range_meters":39200,"station_id":"ce4bh292rcd13ifvqdg0","pricing_plan_id":"cebpf4jnsgd1na2vs0mg"},{"bike_id":"4eecdf01-2312-4036-b477-5b5650016af3","system_id":"levelo_inurba_marseille","lat":43.28344,"lon":5.38109,"is_reserved":false,"is_disabled":false,"rental_uris":{"android":"levelo://app?vid=4eecdf01-2312-4036-b477-5b5650016af3","ios":"levelo://app?vid=4eecdf01-2312-4036-b477-5b5650016af3"},"vehicle_type_id":"4","last_reported":1731049698,"current_range_meters":37600,"station_id":"ce4bh412rcd13ifvqdr0","pricing_plan_id":"cebpf4jnsgd1na2vs0mg"},{"bike_id":"70de144a-0069-4f13-ae37-8c7543eaf7d5","system_id":"levelo_inurba_marseille","lat":43.28575,"lon":5.39502,"is_reserved":false,"is_disabled":false,"rental_uris":{"android":"levelo://app?vid=70de144a-0069-4f13-ae37-8c7543eaf7d5","ios":"levelo://app?vid=70de144a-0069-4f13-ae37-8c7543eaf7d5"},"vehicle_type_id":"4","last_reported":1731049698,"current_range_meters":39200,"station_id":"ce4bh292rcd13ifvqdg0","pricing_plan_id":"cebpf4jnsgd1na2vs0mg"},{"bike_id":"4e7815d5-e515-4e9d-bace-2348f7258a9b","system_id":"levelo_inurba_marseille","lat":43.28456,"lon":5.38421,"is_reserved":false,"is_disabled":false,"rental_uris":{"android":"levelo://app?vid=4e7815d5-e515-4e9d-bace-2348f7258a9b","ios":"levelo://app?vid=4e7815d5-e515-4e9d-bace-2348f7258a9b"},"vehicle_type_id":"4","last_reported":1731049698,"current_range_meters":38800,"station_id":"ce4bh512rcd13ifvqe3g","pricing_plan_id":"cebpf4jnsgd1na2vs0mg"},{"bike_id":"e7cd005d-d362-4c36-a955-3c59f122a64d","system_id":"levelo_inurba_marseille","lat":43.28154,"lon":5.4264,"is_reserved":false,"is_disabled":false,"rental_uris":{"android":"levelo://app?vid=e7cd005d-d362-4c36-a955-3c59f122a64d","ios":"levelo://app?vid=e7cd005d-d362-4c36-a955-3c59f122a64d"},"vehicle_type_id":"4","last_reported":1731049698,"current_range_meters":26000,"station_id":"ce4bhnh2rcd13ifvqgug","pricing_plan_id":"cebpf4jnsgd1na2vs0mg"},{"bike_id":"79fb8fb8-1db7-4b8b-9912-6be1528bc53a","system_id":"levelo_inurba_marseille","lat":43.25578,"lon":5.38233,"is_reserved":false,"is_disabled":false,"rental_uris":{"android":"levelo://app?vid=79fb8fb8-1db7-4b8b-9912-6be1528bc53a","ios":"levelo://app?vid=79fb8fb8-1db7-4b8b-9912-6be1528bc53a"},"vehicle_type_id":"4","last_reported":1731049698,"current_range_meters":11600,"station_id":"ce4bhih2rcd13ifvqfs0","pricing_plan_id":"cebpf4jnsgd1na2vs0mg"},{"bike_id":"e6ef2b01-f63f-46a1-9852-4db36ef12aac","system_id":"levelo_inurba_marseille","lat":43.27207,"lon":5.39184,"is_reserved":false,"is_disabled":false,"rental_uris":{"android":"levelo://app?vid=e6ef2b01-f63f-46a1-9852-4db36ef12aac","ios":"levelo://app?vid=e6ef2b01-f63f-46a1-9852-4db36ef12aac"},"vehicle_type_id":"4","last_reported":1731049698,"current_range_meters":36400,"station_id":"ce4bhhp2rcd13ifvqfm0","pricing_plan_id":"cebpf4jnsgd1na2vs0mg"},{"bike_id":"dcadc843-2231-4f9b-ab03-bdc6276cc926","system_id":"levelo_inurba_marseille","lat":43.25079,"lon":5.3952,"is_reserved":false,"is_disabled":false,"rental_uris":{"android":"levelo://app?vid=dcadc843-2231-4f9b-ab03-bdc6276cc926","ios":"levelo://app?vid=dcadc843-2231-4f9b-ab03-bdc6276cc926"},"vehicle_type_id":"4","last_reported":1731049698,"current_range_meters":32000,"station_id":"ce4bhm12rcd13ifvqgkg","pricing_plan_id":"cebpf4jnsgd1na2vs0mg"},{"bike_id":"71655dbe-ce6c-47d2-97d5-cb062ba24e62","system_id":"levelo_inurba_marseille","lat":43.26051,"lon":5.39394,"is_reserved":false,"is_disabled":false,"rental_uris":{"android":"levelo://app?vid=71655dbe-ce6c-47d2-97d5-cb062ba24e62","ios":"levelo://app?vid=71655dbe-ce6c-47d2-97d5-cb062ba24e62"},"vehicle_type_id":"4","last_reported":1731049698,"current_range_meters":38800,"station_id":"ce4bhh92rcd13ifvqfj0","pricing_plan_id":"cebpf4jnsgd1na2vs0mg"},{"bike_id":"d9f62232-bf1d-4648-a44d-0d8f902be5a7","system_id":"levelo_inurba_marseille","lat":43.27633,"lon":5.42651,"is_reserved":false,"is_disabled":false,"rental_uris":{"android":"levelo://app?vid=d9f62232-bf1d-4648-a44d-0d8f902be5a7","ios":"levelo://app?vid=d9f62232-bf1d-4648-a44d-0d8f902be5a7"},"vehicle_type_id":"4","last_reported":1731049698,"current_range_meters":6000,"station_id":"","pricing_plan_id":"cebpf4jnsgd1na2vs0mg"},{"bike_id":"c7022000-40bb-4946-aca4-3a5058fa7b80","system_id":"levelo_inurba_marseille","lat":43.24074,"lon":5.3775,"is_reserved":false,"is_disabled":false,"rental_uris":{"android":"levelo://app?vid=c7022000-40bb-4946-aca4-3a5058fa7b80","ios":"levelo://app?vid=c7022000-40bb-4946-aca4-3a5058fa7b80"},"vehicle_type_id":"4","last_reported":1731049698,"current_range_meters":8800,"station_id":"ce4bhnp2rcd13ifvqgvg","pricing_plan_id":"cebpf4jnsgd1na2vs0mg"},{"bike_id":"eefd0687-4492-41ad-9368-b877bab02ae1","system_id":"levelo_inurba_marseille","lat":43.31224,"lon":5.36859,"is_reserved":false,"is_disabled":false,"rental_uris":{"android":"levelo://app?vid=eefd0687-4492-41ad-9368-b877bab02ae1","ios":"levelo://app?vid=eefd0687-4492-41ad-9368-b877bab02ae1"},"vehicle_type_id":"4","last_reported":1731049698,"current_range_meters":16000,"station_id":"ce4bgl92rcd13ifvqbq0","pricing_plan_id":"cebpf4jnsgd1na2vs0mg"},{"bike_id":"151c40a2-d2c7-4c7f-a406-0d78dbb44f62","system_id":"levelo_inurba_marseille","lat":43.31682,"lon":5.40477,"is_reserved":false,"is_disabled":false,"rental_uris":{"android":"levelo://app?vid=151c40a2-d2c7-4c7f-a406-0d78dbb44f62","ios":"levelo://app?vid=151c40a2-d2c7-4c7f-a406-0d78dbb44f62"},"vehicle_type_id":"4","last_reported":1731049698,"current_range_meters":9600,"station_id":"ce4bh012rcd13ifvqd00","pricing_plan_id":"cebpf4jnsgd1na2vs0mg"},{"bike_id":"954edc53-6ad5-4959-8ef7-cfb53e49b006","system_id":"levelo_inurba_marseille","lat":43.30458,"lon":5.37904,"is_reserved":false,"is_disabled":false,"rental_uris":{"android":"levelo://app?vid=954edc53-6ad5-4959-8ef7-cfb53e49b006","ios":"levelo://app?vid=954edc53-6ad5-4959-8ef7-cfb53e49b006"},"vehicle_type_id":"4","last_reported":1731049698,"current_range_meters":28400,"station_id":"ce4bgup2rcd13ifvqcn0","pricing_plan_id":"cebpf4jnsgd1na2vs0mg"},{"bike_id":"c70f3a51-3c77-47f4-afdc-c467e625745f","system_id":"levelo_inurba_marseille","lat":43.28103,"lon":5.38221,"is_reserved":false,"is_disabled":false,"rental_uris":{"android":"levelo://app?vid=c70f3a51-3c77-47f4-afdc-c467e625745f","ios":"levelo://app?vid=c70f3a51-3c77-47f4-afdc-c467e625745f"},"vehicle_type_id":"4","last_reported":1731049698,"current_range_meters":24400,"station_id":"","pricing_plan_id":"cebpf4jnsgd1na2vs0mg"},{"bike_id":"d6fdae69-642e-4d84-a8fd-edeb75ed0ef4","system_id":"levelo_inurba_marseille","lat":43.22926,"lon":5.35381,"is_reserved":false,"is_disabled":false,"rental_uris":{"android":"levelo://app?vid=d6fdae69-642e-4d84-a8fd-edeb75ed0ef4","ios":"levelo://app?vid=d6fdae69-642e-4d84-a8fd-edeb75ed0ef4"},"vehicle_type_id":"4","last_reported":1731049698,"current_range_meters":24800,"station_id":"cpo3532slgdg3j2ikp40","pricing_plan_id":"cebpf4jnsgd1na2vs0mg"},{"bike_id":"37cdb2b7-871c-490a-a0ae-21c51968b1c6","system_id":"levelo_inurba_marseille","lat":43.3204,"lon":5.41523,"is_reserved":false,"is_disabled":false,"rental_uris":{"android":"levelo://app?vid=37cdb2b7-871c-490a-a0ae-21c51968b1c6","ios":"levelo://app?vid=37cdb2b7-871c-490a-a0ae-21c51968b1c6"},"vehicle_type_id":"4","last_reported":1731049698,"current_range_meters":6400,"station_id":"ce4bhq92rcd13ifvqhkg","pricing_plan_id":"cebpf4jnsgd1na2vs0mg"},{"bike_id":"bdc2614c-f690-4a70-b4fe-4ce04e111f7f","system_id":"levelo_inurba_marseille","lat":43.31345,"lon":5.36715,"is_reserved":false,"is_disabled":false,"rental_uris":{"android":"levelo://app?vid=bdc2614c-f690-4a70-b4fe-4ce04e111f7f","ios":"levelo://app?vid=bdc2614c-f690-4a70-b4fe-4ce04e111f7f"},"vehicle_type_id":"4","last_reported":1731049698,"current_range_meters":36000,"station_id":"ce4bgr92rcd13ifvqc6g","pricing_plan_id":"cebpf4jnsgd1na2vs0mg"},{"bike_id":"0dbd4524-d4da-4d40-9087-5e2c18e4dea4","system_id":"levelo_inurba_marseille","lat":43.285703,"lon":5.395001,"is_reserved":false,"is_disabled":false,"rental_uris":{"android":"levelo://app?vid=0dbd4524-d4da-4d40-9087-5e2c18e4dea4","ios":"levelo://app?vid=0dbd4524-d4da-4d40-9087-5e2c18e4dea4"},"vehicle_type_id":"4","last_reported":1731049698,"current_range_meters":39200,"station_id":"ce4bh292rcd13ifvqdg0","pricing_plan_id":"cebpf4jnsgd1na2vs0mg"},{"bike_id":"643bca0a-b64b-4b32-85c7-4a59591334b7","system_id":"levelo_inurba_marseille","lat":43.28152,"lon":5.42649,"is_reserved":false,"is_disabled":false,"rental_uris":{"android":"levelo://app?vid=643bca0a-b64b-4b32-85c7-4a59591334b7","ios":"levelo://app?vid=643bca0a-b64b-4b32-85c7-4a59591334b7"},"vehicle_type_id":"4","last_reported":1731049698,"current_range_meters":18000,"station_id":"ce4bhnh2rcd13ifvqgug","pricing_plan_id":"cebpf4jnsgd1na2vs0mg"},{"bike_id":"f514e9d2-622e-4f9c-8674-304ce0e33a58","system_id":"levelo_inurba_marseille","lat":43.28086,"lon":5.37858,"is_reserved":false,"is_disabled":false,"rental_uris":{"android":"levelo://app?vid=f514e9d2-622e-4f9c-8674-304ce0e33a58","ios":"levelo://app?vid=f514e9d2-622e-4f9c-8674-304ce0e33a58"},"vehicle_type_id":"4","last_reported":1731049698,"current_range_meters":37600,"station_id":"ce4bha12rcd13ifvqee0","pricing_plan_id":"cebpf4jnsgd1na2vs0mg"},{"bike_id":"2e060594-fe17-443a-9988-5e4f3cb58498","system_id":"levelo_inurba_marseille","lat":43.28488,"lon":5.38429,"is_reserved":false,"is_disabled":false,"rental_uris":{"android":"levelo://app?vid=2e060594-fe17-443a-9988-5e4f3cb58498","ios":"levelo://app?vid=2e060594-fe17-443a-9988-5e4f3cb58498"},"vehicle_type_id":"4","last_reported":1731049698,"current_range_meters":16400,"station_id":"ce4bh512rcd13ifvqe3g","pricing_plan_id":"cebpf4jnsgd1na2vs0mg"},{"bike_id":"71a0518d-29e0-4fe0-abeb-b88b1108a7c0","system_id":"levelo_inurba_marseille","lat":43.30269,"lon":5.37713,"is_reserved":false,"is_disabled":false,"rental_uris":{"android":"levelo://app?vid=71a0518d-29e0-4fe0-abeb-b88b1108a7c0","ios":"levelo://app?vid=71a0518d-29e0-4fe0-abeb-b88b1108a7c0"},"vehicle_type_id":"4","last_reported":1731049698,"current_range_meters":34000,"station_id":"ce4bguh2rcd13ifvqcj0","pricing_plan_id":"cebpf4jnsgd1na2vs0mg"},{"bike_id":"80f88f91-d648-453a-88b2-cfa7d57ba25b","system_id":"levelo_inurba_marseille","lat":43.23181,"lon":5.39991,"is_reserved":false,"is_disabled":false,"rental_uris":{"android":"levelo://app?vid=80f88f91-d648-453a-88b2-cfa7d57ba25b","ios":"levelo://app?vid=80f88f91-d648-453a-88b2-cfa7d57ba25b"},"vehicle_type_id":"4","last_reported":1731049698,"current_range_meters":24800,"station_id":"ce4bhn12rcd13ifvqgqg","pricing_plan_id":"cebpf4jnsgd1na2vs0mg"},{"bike_id":"a7eb1bc9-fca5-4253-aedc-4fa129d70e3a","system_id":"levelo_inurba_marseille","lat":43.31718,"lon":5.42405,"is_reserved":false,"is_disabled":false,"rental_uris":{"android":"levelo://app?vid=a7eb1bc9-fca5-4253-aedc-4fa129d70e3a","ios":"levelo://app?vid=a7eb1bc9-fca5-4253-aedc-4fa129d70e3a"},"vehicle_type_id":"4","last_reported":1731049698,"current_range_meters":38400,"station_id":"ce4bhp92rcd13ifvqhbg","pricing_plan_id":"cebpf4jnsgd1na2vs0mg"},{"bike_id":"9178d598-d5de-4d5c-85ae-0efa9377149a","system_id":"levelo_inurba_marseille","lat":43.23186,"lon":5.39975,"is_reserved":false,"is_disabled":false,"rental_uris":{"android":"levelo://app?vid=9178d598-d5de-4d5c-85ae-0efa9377149a","ios":"levelo://app?vid=9178d598-d5de-4d5c-85ae-0efa9377149a"},"vehicle_type_id":"4","last_reported":1731049698,"current_range_meters":16800,"station_id":"ce4bhn12rcd13ifvqgqg","pricing_plan_id":"cebpf4jnsgd1na2vs0mg"},{"bike_id":"16241619-68a5-47ef-8ec1-a191e36146be","system_id":"levelo_inurba_marseille","lat":43.3046,"lon":5.37899,"is_reserved":false,"is_disabled":false,"rental_uris":{"android":"levelo://app?vid=16241619-68a5-47ef-8ec1-a191e36146be","ios":"levelo://app?vid=16241619-68a5-47ef-8ec1-a191e36146be"},"vehicle_type_id":"4","last_reported":1731049698,"current_range_meters":38800,"station_id":"ce4bgup2rcd13ifvqcn0","pricing_plan_id":"cebpf4jnsgd1na2vs0mg"},{"bike_id":"dcfeb495-eba8-43c2-a39d-e684f7df95ac","system_id":"levelo_inurba_marseille","lat":43.30444,"lon":5.37889,"is_reserved":false,"is_disabled":false,"rental_uris":{"android":"levelo://app?vid=dcfeb495-eba8-43c2-a39d-e684f7df95ac","ios":"levelo://app?vid=dcfeb495-eba8-43c2-a39d-e684f7df95ac"},"vehicle_type_id":"4","last_reported":1731049698,"current_range_meters":20800,"station_id":"ce4bgup2rcd13ifvqcn0","pricing_plan_id":"cebpf4jnsgd1na2vs0mg"},{"bike_id":"51565bbe-fdad-49e2-9143-31b45a68b061","system_id":"levelo_inurba_marseille","lat":43.28571,"lon":5.39497,"is_reserved":false,"is_disabled":false,"rental_uris":{"android":"levelo://app?vid=51565bbe-fdad-49e2-9143-31b45a68b061","ios":"levelo://app?vid=51565bbe-fdad-49e2-9143-31b45a68b061"},"vehicle_type_id":"4","last_reported":1731049698,"current_range_meters":39200,"station_id":"ce4bh292rcd13ifvqdg0","pricing_plan_id":"cebpf4jnsgd1na2vs0mg"},{"bike_id":"fdf26527-6c0f-4b2a-b565-d41399ed3242","system_id":"levelo_inurba_marseille","lat":43.31532,"lon":5.38038,"is_reserved":false,"is_disabled":false,"rental_uris":{"android":"levelo://app?vid=fdf26527-6c0f-4b2a-b565-d41399ed3242","ios":"levelo://app?vid=fdf26527-6c0f-4b2a-b565-d41399ed3242"},"vehicle_type_id":"4","last_reported":1731049698,"current_range_meters":38400,"station_id":"ce4bhsp2rcd13ifvqi50","pricing_plan_id":"cebpf4jnsgd1na2vs0mg"},{"bike_id":"297278e5-15d6-494f-bedc-e1bc1c8cf2d6","system_id":"levelo_inurba_marseille","lat":43.32532,"lon":5.41436,"is_reserved":false,"is_disabled":false,"rental_uris":{"android":"levelo://app?vid=297278e5-15d6-494f-bedc-e1bc1c8cf2d6","ios":"levelo://app?vid=297278e5-15d6-494f-bedc-e1bc1c8cf2d6"},"vehicle_type_id":"4","last_reported":1731049698,"current_range_meters":33200,"station_id":"ce4bhq12rcd13ifvqhhg","pricing_plan_id":"cebpf4jnsgd1na2vs0mg"},{"bike_id":"cab9a99c-1f00-48d7-ae5b-07977a2dc6e5","system_id":"levelo_inurba_marseille","lat":43.29801,"lon":5.38092,"is_reserved":false,"is_disabled":false,"rental_uris":{"android":"levelo://app?vid=cab9a99c-1f00-48d7-ae5b-07977a2dc6e5","ios":"levelo://app?vid=cab9a99c-1f00-48d7-ae5b-07977a2dc6e5"},"vehicle_type_id":"4","last_reported":1731049698,"current_range_meters":32800,"station_id":"ce4bgip2rcd13ifvqbb0","pricing_plan_id":"cebpf4jnsgd1na2vs0mg"},{"bike_id":"1aa5311f-310a-4f8f-98ee-beb7bd7bf29d","system_id":"levelo_inurba_marseille","lat":43.31877,"lon":5.4074,"is_reserved":false,"is_disabled":false,"rental_uris":{"android":"levelo://app?vid=1aa5311f-310a-4f8f-98ee-beb7bd7bf29d","ios":"levelo://app?vid=1aa5311f-310a-4f8f-98ee-beb7bd7bf29d"},"vehicle_type_id":"4","last_reported":1731049698,"current_range_meters":32400,"station_id":"ce4bhq12rcd13ifvqhig","pricing_plan_id":"cebpf4jnsgd1na2vs0mg"},{"bike_id":"1f15ab86-eac7-41e6-bdd8-a778d8f29ec6","system_id":"levelo_inurba_marseille","lat":43.29036,"lon":5.39954,"is_reserved":false,"is_disabled":false,"rental_uris":{"android":"levelo://app?vid=1f15ab86-eac7-41e6-bdd8-a778d8f29ec6","ios":"levelo://app?vid=1f15ab86-eac7-41e6-bdd8-a778d8f29ec6"},"vehicle_type_id":"4","last_reported":1731049698,"current_range_meters":36800,"station_id":"ce4bh392rcd13ifvqdm0","pricing_plan_id":"cebpf4jnsgd1na2vs0mg"},{"bike_id":"0993ae53-b33b-4ec0-8420-6942bdb9eb84","system_id":"levelo_inurba_marseille","lat":43.307949,"lon":5.435248,"is_reserved":false,"is_disabled":false,"rental_uris":{"android":"levelo://app?vid=0993ae53-b33b-4ec0-8420-6942bdb9eb84","ios":"levelo://app?vid=0993ae53-b33b-4ec0-8420-6942bdb9eb84"},"vehicle_type_id":"4","last_reported":1731049698,"current_range_meters":38800,"station_id":"ce4bhph2rcd13ifvqheg","pricing_plan_id":"cebpf4jnsgd1na2vs0mg"},{"bike_id":"f9d4dcb6-8082-48f8-86a0-460a26fbee51","system_id":"levelo_inurba_marseille","lat":43.298079,"lon":5.381207,"is_reserved":false,"is_disabled":false,"rental_uris":{"android":"levelo://app?vid=f9d4dcb6-8082-48f8-86a0-460a26fbee51","ios":"levelo://app?vid=f9d4dcb6-8082-48f8-86a0-460a26fbee51"},"vehicle_type_id":"4","last_reported":1731049698,"current_range_meters":16800,"station_id":"ce4bgip2rcd13ifvqbb0","pricing_plan_id":"cebpf4jnsgd1na2vs0mg"},{"bike_id":"481df6f8-c7bf-4706-9100-6fdf6b6298c2","system_id":"levelo_inurba_marseille","lat":43.30246,"lon":5.384035,"is_reserved":false,"is_disabled":false,"rental_uris":{"android":"levelo://app?vid=481df6f8-c7bf-4706-9100-6fdf6b6298c2","ios":"levelo://app?vid=481df6f8-c7bf-4706-9100-6fdf6b6298c2"},"vehicle_type_id":"4","last_reported":1731049698,"current_range_meters":35200,"station_id":"ce4bh0p2rcd13ifvqd80","pricing_plan_id":"cebpf4jnsgd1na2vs0mg"},{"bike_id":"02efd003-b9bf-4c08-b264-0f3d87d29f7a","system_id":"levelo_inurba_marseille","lat":43.26799,"lon":5.40269,"is_reserved":false,"is_disabled":false,"rental_uris":{"android":"levelo://app?vid=02efd003-b9bf-4c08-b264-0f3d87d29f7a","ios":"levelo://app?vid=02efd003-b9bf-4c08-b264-0f3d87d29f7a"},"vehicle_type_id":"4","last_reported":1731049698,"current_range_meters":30800,"station_id":"ce501612rcd8frsf0b60","pricing_plan_id":"cebpf4jnsgd1na2vs0mg"},{"bike_id":"12630b9d-f0ed-46fb-bfff-e48f21100201","system_id":"levelo_inurba_marseille","lat":43.33021,"lon":5.39027,"is_reserved":false,"is_disabled":false,"rental_uris":{"android":"levelo://app?vid=12630b9d-f0ed-46fb-bfff-e48f21100201","ios":"levelo://app?vid=12630b9d-f0ed-46fb-bfff-e48f21100201"},"vehicle_type_id":"4","last_reported":1731049698,"current_range_meters":38800,"station_id":"ce4bhr92rcd13ifvqhrg","pricing_plan_id":"cebpf4jnsgd1na2vs0mg"},{"bike_id":"d269ed79-363c-4650-a131-5c80cfb4586c","system_id":"levelo_inurba_marseille","lat":43.23188,"lon":5.3555,"is_reserved":false,"is_disabled":false,"rental_uris":{"android":"levelo://app?vid=d269ed79-363c-4650-a131-5c80cfb4586c","ios":"levelo://app?vid=d269ed79-363c-4650-a131-5c80cfb4586c"},"vehicle_type_id":"4","last_reported":1731049698,"current_range_meters":27600,"station_id":"ce4bhu92rcd13ifvqi70","pricing_plan_id":"cebpf4jnsgd1na2vs0mg"},{"bike_id":"b180cc6a-5a04-4cc7-97a9-452164440d62","system_id":"levelo_inurba_marseille","lat":43.2893,"lon":5.36401,"is_reserved":false,"is_disabled":false,"rental_uris":{"android":"levelo://app?vid=b180cc6a-5a04-4cc7-97a9-452164440d62","ios":"levelo://app?vid=b180cc6a-5a04-4cc7-97a9-452164440d62"},"vehicle_type_id":"4","last_reported":1731049698,"current_range_meters":36800,"station_id":"ce4bhc92rcd13ifvqetg","pricing_plan_id":"cebpf4jnsgd1na2vs0mg"},{"bike_id":"650f5835-bc4e-42c7-b5d8-20d584cdd8af","system_id":"levelo_inurba_marseille","lat":43.324839,"lon":5.365533,"is_reserved":false,"is_disabled":false,"rental_uris":{"android":"levelo://app?vid=650f5835-bc4e-42c7-b5d8-20d584cdd8af","ios":"levelo://app?vid=650f5835-bc4e-42c7-b5d8-20d584cdd8af"},"vehicle_type_id":"4","last_reported":1731049698,"current_range_meters":38400,"station_id":"ce4bhs12rcd13ifvqhvg","pricing_plan_id":"cebpf4jnsgd1na2vs0mg"},{"bike_id":"05e2025d-8068-47de-ac43-36f5972abcac","system_id":"levelo_inurba_marseille","lat":43.28152,"lon":5.42647,"is_reserved":false,"is_disabled":false,"rental_uris":{"android":"levelo://app?vid=05e2025d-8068-47de-ac43-36f5972abcac","ios":"levelo://app?vid=05e2025d-8068-47de-ac43-36f5972abcac"},"vehicle_type_id":"4","last_reported":1731049698,"current_range_meters":24000,"station_id":"ce4bhnh2rcd13ifvqgug","pricing_plan_id":"cebpf4jnsgd1na2vs0mg"},{"bike_id":"f75e2c0d-8850-4534-bb22-5901b7f393d1","system_id":"levelo_inurba_marseille","lat":43.3059,"lon":5.39362,"is_reserved":false,"is_disabled":false,"rental_uris":{"android":"levelo://app?vid=f75e2c0d-8850-4534-bb22-5901b7f393d1","ios":"levelo://app?vid=f75e2c0d-8850-4534-bb22-5901b7f393d1"},"vehicle_type_id":"4","last_reported":1731049698,"current_range_meters":37600,"station_id":"ce4bh0p2rcd13ifvqd80","pricing_plan_id":"cebpf4jnsgd1na2vs0mg"},{"bike_id":"6b9fc225-cd4f-47e5-bc5e-a4e18191acc9","system_id":"levelo_inurba_marseille","lat":43.2407,"lon":5.37757,"is_reserved":false,"is_disabled":false,"rental_uris":{"android":"levelo://app?vid=6b9fc225-cd4f-47e5-bc5e-a4e18191acc9","ios":"levelo://app?vid=6b9fc225-cd4f-47e5-bc5e-a4e18191acc9"},"vehicle_type_id":"4","last_reported":1731049698,"current_range_meters":26800,"station_id":"ce4bhnp2rcd13ifvqgvg","pricing_plan_id":"cebpf4jnsgd1na2vs0mg"},{"bike_id":"928945a9-829e-4eae-a34b-7dbc357fb10c","system_id":"levelo_inurba_marseille","lat":43.28938,"lon":5.36385,"is_reserved":false,"is_disabled":false,"rental_uris":{"android":"levelo://app?vid=928945a9-829e-4eae-a34b-7dbc357fb10c","ios":"levelo://app?vid=928945a9-829e-4eae-a34b-7dbc357fb10c"},"vehicle_type_id":"4","last_reported":1731049698,"current_range_meters":27600,"station_id":"ce4bhc92rcd13ifvqetg","pricing_plan_id":"cebpf4jnsgd1na2vs0mg"},{"bike_id":"8b72a1c6-8645-4c00-9eeb-cb47e52f5ec3","system_id":"levelo_inurba_marseille","lat":43.27489,"lon":5.42452,"is_reserved":false,"is_disabled":false,"rental_uris":{"android":"levelo://app?vid=8b72a1c6-8645-4c00-9eeb-cb47e52f5ec3","ios":"levelo://app?vid=8b72a1c6-8645-4c00-9eeb-cb47e52f5ec3"},"vehicle_type_id":"4","last_reported":1731049698,"current_range_meters":20800,"station_id":"ce4bhn92rcd13ifvqgrg","pricing_plan_id":"cebpf4jnsgd1na2vs0mg"},{"bike_id":"92bbe5af-b5d9-48fc-afb8-3b15fc8d3190","system_id":"levelo_inurba_marseille","lat":43.31714,"lon":5.42404,"is_reserved":false,"is_disabled":false,"rental_uris":{"android":"levelo://app?vid=92bbe5af-b5d9-48fc-afb8-3b15fc8d3190","ios":"levelo://app?vid=92bbe5af-b5d9-48fc-afb8-3b15fc8d3190"},"vehicle_type_id":"4","last_reported":1731049698,"current_range_meters":30000,"station_id":"ce4bhp92rcd13ifvqhbg","pricing_plan_id":"cebpf4jnsgd1na2vs0mg"},{"bike_id":"b89da140-c3b6-426f-a346-4fa42ea03fdf","system_id":"levelo_inurba_marseille","lat":43.285686,"lon":5.395028,"is_reserved":false,"is_disabled":false,"rental_uris":{"android":"levelo://app?vid=b89da140-c3b6-426f-a346-4fa42ea03fdf","ios":"levelo://app?vid=b89da140-c3b6-426f-a346-4fa42ea03fdf"},"vehicle_type_id":"4","last_reported":1731049698,"current_range_meters":38800,"station_id":"ce4bh292rcd13ifvqdg0","pricing_plan_id":"cebpf4jnsgd1na2vs0mg"},{"bike_id":"b4645bcf-38c6-46bd-8307-64022b464541","system_id":"levelo_inurba_marseille","lat":43.28339,"lon":5.38107,"is_reserved":false,"is_disabled":false,"rental_uris":{"android":"levelo://app?vid=b4645bcf-38c6-46bd-8307-64022b464541","ios":"levelo://app?vid=b4645bcf-38c6-46bd-8307-64022b464541"},"vehicle_type_id":"4","last_reported":1731049698,"current_range_meters":28800,"station_id":"ce4bh412rcd13ifvqdr0","pricing_plan_id":"cebpf4jnsgd1na2vs0mg"},{"bike_id":"f54bde22-39d9-429c-beb9-5c655cc1564e","system_id":"levelo_inurba_marseille","lat":43.31217,"lon":5.36851,"is_reserved":false,"is_disabled":false,"rental_uris":{"android":"levelo://app?vid=f54bde22-39d9-429c-beb9-5c655cc1564e","ios":"levelo://app?vid=f54bde22-39d9-429c-beb9-5c655cc1564e"},"vehicle_type_id":"4","last_reported":1731049698,"current_range_meters":38800,"station_id":"ce4bgl92rcd13ifvqbq0","pricing_plan_id":"cebpf4jnsgd1na2vs0mg"},{"bike_id":"b05a2ec5-0835-4dc4-aea2-3cd7d29b3c3d","system_id":"levelo_inurba_marseille","lat":43.32542,"lon":5.41423,"is_reserved":false,"is_disabled":false,"rental_uris":{"android":"levelo://app?vid=b05a2ec5-0835-4dc4-aea2-3cd7d29b3c3d","ios":"levelo://app?vid=b05a2ec5-0835-4dc4-aea2-3cd7d29b3c3d"},"vehicle_type_id":"4","last_reported":1731049698,"current_range_meters":29600,"station_id":"ce4bhq12rcd13ifvqhhg","pricing_plan_id":"cebpf4jnsgd1na2vs0mg"},{"bike_id":"0366bdb5-16ac-4a75-93d2-d1f7e545a0e7","system_id":"levelo_inurba_marseille","lat":43.24671,"lon":5.38158,"is_reserved":false,"is_disabled":false,"rental_uris":{"android":"levelo://app?vid=0366bdb5-16ac-4a75-93d2-d1f7e545a0e7","ios":"levelo://app?vid=0366bdb5-16ac-4a75-93d2-d1f7e545a0e7"},"vehicle_type_id":"4","last_reported":1731049698,"current_range_meters":16400,"station_id":"ce4bhih2rcd13ifvqfr0","pricing_plan_id":"cebpf4jnsgd1na2vs0mg"},{"bike_id":"367dc210-07cd-49d0-a04d-1debb5913e39","system_id":"levelo_inurba_marseille","lat":43.26196,"lon":5.37932,"is_reserved":false,"is_disabled":false,"rental_uris":{"android":"levelo://app?vid=367dc210-07cd-49d0-a04d-1debb5913e39","ios":"levelo://app?vid=367dc210-07cd-49d0-a04d-1debb5913e39"},"vehicle_type_id":"4","last_reported":1731049698,"current_range_meters":33200,"station_id":"ce4bhjp2rcd13ifvqg90","pricing_plan_id":"cebpf4jnsgd1na2vs0mg"},{"bike_id":"b4d2b281-5873-4902-bc46-b113f3def767","system_id":"levelo_inurba_marseille","lat":43.24076,"lon":5.37751,"is_reserved":false,"is_disabled":false,"rental_uris":{"android":"levelo://app?vid=b4d2b281-5873-4902-bc46-b113f3def767","ios":"levelo://app?vid=b4d2b281-5873-4902-bc46-b113f3def767"},"vehicle_type_id":"4","last_reported":1731049698,"current_range_meters":27200,"station_id":"ce4bhnp2rcd13ifvqgvg","pricing_plan_id":"cebpf4jnsgd1na2vs0mg"},{"bike_id":"b7a957c9-ff90-4c8e-a5b6-aaee11551279","system_id":"levelo_inurba_marseille","lat":43.29275,"lon":5.4012,"is_reserved":false,"is_disabled":false,"rental_uris":{"android":"levelo://app?vid=b7a957c9-ff90-4c8e-a5b6-aaee11551279","ios":"levelo://app?vid=b7a957c9-ff90-4c8e-a5b6-aaee11551279"},"vehicle_type_id":"4","last_reported":1731049698,"current_range_meters":28000,"station_id":"ce4bh312rcd13ifvqdk0","pricing_plan_id":"cebpf4jnsgd1na2vs0mg"},{"bike_id":"224b4f9b-8964-41f7-a92d-d6f79ed1277c","system_id":"levelo_inurba_marseille","lat":43.33603,"lon":5.41022,"is_reserved":false,"is_disabled":false,"rental_uris":{"android":"levelo://app?vid=224b4f9b-8964-41f7-a92d-d6f79ed1277c","ios":"levelo://app?vid=224b4f9b-8964-41f7-a92d-d6f79ed1277c"},"vehicle_type_id":"4","last_reported":1731049698,"current_range_meters":20400,"station_id":"ce4bhqh2rcd13ifvqhmg","pricing_plan_id":"cebpf4jnsgd1na2vs0mg"},{"bike_id":"c79dfb02-b92f-43bb-8ada-9d7a789fc009","system_id":"levelo_inurba_marseille","lat":43.28937,"lon":5.39626,"is_reserved":false,"is_disabled":false,"rental_uris":{"android":"levelo://app?vid=c79dfb02-b92f-43bb-8ada-9d7a789fc009","ios":"levelo://app?vid=c79dfb02-b92f-43bb-8ada-9d7a789fc009"},"vehicle_type_id":"4","last_reported":1731049698,"current_range_meters":37600,"station_id":"ce4bh3h2rcd13ifvqdn0","pricing_plan_id":"cebpf4jnsgd1na2vs0mg"},{"bike_id":"399025e6-7f35-4342-9d98-3c2224090b18","system_id":"levelo_inurba_marseille","lat":43.28574,"lon":5.39503,"is_reserved":false,"is_disabled":false,"rental_uris":{"android":"levelo://app?vid=399025e6-7f35-4342-9d98-3c2224090b18","ios":"levelo://app?vid=399025e6-7f35-4342-9d98-3c2224090b18"},"vehicle_type_id":"4","last_reported":1731049698,"current_range_meters":39200,"station_id":"ce4bh292rcd13ifvqdg0","pricing_plan_id":"cebpf4jnsgd1na2vs0mg"},{"bike_id":"815a0138-3843-4918-a6bb-a635a504bec6","system_id":"levelo_inurba_marseille","lat":43.24075,"lon":5.37756,"is_reserved":false,"is_disabled":false,"rental_uris":{"android":"levelo://app?vid=815a0138-3843-4918-a6bb-a635a504bec6","ios":"levelo://app?vid=815a0138-3843-4918-a6bb-a635a504bec6"},"vehicle_type_id":"4","last_reported":1731049698,"current_range_meters":23200,"station_id":"ce4bhnp2rcd13ifvqgvg","pricing_plan_id":"cebpf4jnsgd1na2vs0mg"},{"bike_id":"f5da078b-5359-4a72-8642-c4bd0f9e6885","system_id":"levelo_inurba_marseille","lat":43.28342,"lon":5.38103,"is_reserved":false,"is_disabled":false,"rental_uris":{"android":"levelo://app?vid=f5da078b-5359-4a72-8642-c4bd0f9e6885","ios":"levelo://app?vid=f5da078b-5359-4a72-8642-c4bd0f9e6885"},"vehicle_type_id":"4","last_reported":1731049698,"current_range_meters":33200,"station_id":"ce4bh412rcd13ifvqdr0","pricing_plan_id":"cebpf4jnsgd1na2vs0mg"},{"bike_id":"052b3319-81b7-493e-aa6e-7cec85055a9f","system_id":"levelo_inurba_marseille","lat":43.28479,"lon":5.38547,"is_reserved":false,"is_disabled":false,"rental_uris":{"android":"levelo://app?vid=052b3319-81b7-493e-aa6e-7cec85055a9f","ios":"levelo://app?vid=052b3319-81b7-493e-aa6e-7cec85055a9f"},"vehicle_type_id":"4","last_reported":1731049698,"current_range_meters":2000,"station_id":"ce4bh8p2rcd13ifvqeb0","pricing_plan_id":"cebpf4jnsgd1na2vs0mg"},{"bike_id":"55832718-3048-4754-b6c7-735f796a1db1","system_id":"levelo_inurba_marseille","lat":43.24809,"lon":5.37451,"is_reserved":false,"is_disabled":false,"rental_uris":{"android":"levelo://app?vid=55832718-3048-4754-b6c7-735f796a1db1","ios":"levelo://app?vid=55832718-3048-4754-b6c7-735f796a1db1"},"vehicle_type_id":"4","last_reported":1731049698,"current_range_meters":38000,"station_id":"ce4bhgh2rcd13ifvqfb0","pricing_plan_id":"cebpf4jnsgd1na2vs0mg"},{"bike_id":"6f7cb342-b848-4891-9997-c1683d70a93b","system_id":"levelo_inurba_marseille","lat":43.28565,"lon":5.39492,"is_reserved":false,"is_disabled":false,"rental_uris":{"android":"levelo://app?vid=6f7cb342-b848-4891-9997-c1683d70a93b","ios":"levelo://app?vid=6f7cb342-b848-4891-9997-c1683d70a93b"},"vehicle_type_id":"4","last_reported":1731049698,"current_range_meters":38400,"station_id":"ce4bh292rcd13ifvqdg0","pricing_plan_id":"cebpf4jnsgd1na2vs0mg"},{"bike_id":"cbf00055-bf11-47a5-8af2-3b1cb1abb636","system_id":"levelo_inurba_marseille","lat":43.33023,"lon":5.39044,"is_reserved":false,"is_disabled":false,"rental_uris":{"android":"levelo://app?vid=cbf00055-bf11-47a5-8af2-3b1cb1abb636","ios":"levelo://app?vid=cbf00055-bf11-47a5-8af2-3b1cb1abb636"},"vehicle_type_id":"4","last_reported":1731049698,"current_range_meters":38800,"station_id":"ce4bhr92rcd13ifvqhrg","pricing_plan_id":"cebpf4jnsgd1na2vs0mg"},{"bike_id":"93e800a3-8b5c-4a17-a99e-16efe8faf410","system_id":"levelo_inurba_marseille","lat":43.32536,"lon":5.41428,"is_reserved":false,"is_disabled":false,"rental_uris":{"android":"levelo://app?vid=93e800a3-8b5c-4a17-a99e-16efe8faf410","ios":"levelo://app?vid=93e800a3-8b5c-4a17-a99e-16efe8faf410"},"vehicle_type_id":"4","last_reported":1731049698,"current_range_meters":16400,"station_id":"ce4bhq12rcd13ifvqhhg","pricing_plan_id":"cebpf4jnsgd1na2vs0mg"},{"bike_id":"2dbe6d32-7479-4919-9522-273a4f908d22","system_id":"levelo_inurba_marseille","lat":43.310028,"lon":5.377534,"is_reserved":false,"is_disabled":false,"rental_uris":{"android":"levelo://app?vid=2dbe6d32-7479-4919-9522-273a4f908d22","ios":"levelo://app?vid=2dbe6d32-7479-4919-9522-273a4f908d22"},"vehicle_type_id":"4","last_reported":1731049698,"current_range_meters":36800,"station_id":"ce4bgt92rcd13ifvqcg0","pricing_plan_id":"cebpf4jnsgd1na2vs0mg"},{"bike_id":"f608348c-dd86-4bf4-b4b7-19f8f330f940","system_id":"levelo_inurba_marseille","lat":43.292648,"lon":5.384255,"is_reserved":false,"is_disabled":false,"rental_uris":{"android":"levelo://app?vid=f608348c-dd86-4bf4-b4b7-19f8f330f940","ios":"levelo://app?vid=f608348c-dd86-4bf4-b4b7-19f8f330f940"},"vehicle_type_id":"4","last_reported":1731049698,"current_range_meters":38000,"station_id":"ce4bh692rcd13ifvqea0","pricing_plan_id":"cebpf4jnsgd1na2vs0mg"},{"bike_id":"dfcf3015-64e1-4c73-9065-23a58d1a316f","system_id":"levelo_inurba_marseille","lat":43.33741,"lon":5.37448,"is_reserved":false,"is_disabled":false,"rental_uris":{"android":"levelo://app?vid=dfcf3015-64e1-4c73-9065-23a58d1a316f","ios":"levelo://app?vid=dfcf3015-64e1-4c73-9065-23a58d1a316f"},"vehicle_type_id":"4","last_reported":1731049698,"current_range_meters":33600,"station_id":"","pricing_plan_id":"cebpf4jnsgd1na2vs0mg"},{"bike_id":"a857852f-ab68-41f9-9316-7113b72659b6","system_id":"levelo_inurba_marseille","lat":43.25002,"lon":5.3891,"is_reserved":false,"is_disabled":false,"rental_uris":{"android":"levelo://app?vid=a857852f-ab68-41f9-9316-7113b72659b6","ios":"levelo://app?vid=a857852f-ab68-41f9-9316-7113b72659b6"},"vehicle_type_id":"4","last_reported":1731049698,"current_range_meters":15200,"station_id":"ce4bhgp2rcd13ifvqfd0","pricing_plan_id":"cebpf4jnsgd1na2vs0mg"},{"bike_id":"995ffeb2-9af1-4cca-845d-8c2efd181788","system_id":"levelo_inurba_marseille","lat":43.28613,"lon":5.37049,"is_reserved":false,"is_disabled":false,"rental_uris":{"android":"levelo://app?vid=995ffeb2-9af1-4cca-845d-8c2efd181788","ios":"levelo://app?vid=995ffeb2-9af1-4cca-845d-8c2efd181788"},"vehicle_type_id":"4","last_reported":1731049698,"current_range_meters":33200,"station_id":"ce4bht12rcd13ifvqi60","pricing_plan_id":"cebpf4jnsgd1na2vs0mg"},{"bike_id":"c91582d0-94e2-4eae-b428-2a4146738d46","system_id":"levelo_inurba_marseille","lat":43.3014,"lon":5.38086,"is_reserved":false,"is_disabled":false,"rental_uris":{"android":"levelo://app?vid=c91582d0-94e2-4eae-b428-2a4146738d46","ios":"levelo://app?vid=c91582d0-94e2-4eae-b428-2a4146738d46"},"vehicle_type_id":"4","last_reported":1731049698,"current_range_meters":35600,"station_id":"ce4bgjp2rcd13ifvqbh0","pricing_plan_id":"cebpf4jnsgd1na2vs0mg"},{"bike_id":"f86ad4f3-b44e-4fd5-b4e3-84a9274ecd57","system_id":"levelo_inurba_marseille","lat":43.2749,"lon":5.42451,"is_reserved":false,"is_disabled":false,"rental_uris":{"android":"levelo://app?vid=f86ad4f3-b44e-4fd5-b4e3-84a9274ecd57","ios":"levelo://app?vid=f86ad4f3-b44e-4fd5-b4e3-84a9274ecd57"},"vehicle_type_id":"4","last_reported":1731049698,"current_range_meters":19200,"station_id":"ce4bhn92rcd13ifvqgrg","pricing_plan_id":"cebpf4jnsgd1na2vs0mg"},{"bike_id":"994f2147-e130-4895-b32f-cea19e1b13aa","system_id":"levelo_inurba_marseille","lat":43.283417,"lon":5.381074,"is_reserved":false,"is_disabled":false,"rental_uris":{"android":"levelo://app?vid=994f2147-e130-4895-b32f-cea19e1b13aa","ios":"levelo://app?vid=994f2147-e130-4895-b32f-cea19e1b13aa"},"vehicle_type_id":"4","last_reported":1731049698,"current_range_meters":8000,"station_id":"","pricing_plan_id":"cebpf4jnsgd1na2vs0mg"},{"bike_id":"cf8f8482-f782-4c29-b6ce-e440f1c1c735","system_id":"levelo_inurba_marseille","lat":43.30533,"lon":5.36721,"is_reserved":false,"is_disabled":false,"rental_uris":{"android":"levelo://app?vid=cf8f8482-f782-4c29-b6ce-e440f1c1c735","ios":"levelo://app?vid=cf8f8482-f782-4c29-b6ce-e440f1c1c735"},"vehicle_type_id":"4","last_reported":1731049698,"current_range_meters":29600,"station_id":"ce4bgrp2rcd13ifvqc9g","pricing_plan_id":"cebpf4jnsgd1na2vs0mg"},{"bike_id":"56366bba-d7b6-4286-b4f1-a6872b73825e","system_id":"levelo_inurba_marseille","lat":43.30933,"lon":5.40146,"is_reserved":false,"is_disabled":false,"rental_uris":{"android":"levelo://app?vid=56366bba-d7b6-4286-b4f1-a6872b73825e","ios":"levelo://app?vid=56366bba-d7b6-4286-b4f1-a6872b73825e"},"vehicle_type_id":"4","last_reported":1731049698,"current_range_meters":36400,"station_id":"ce4bgvp2rcd13ifvqct0","pricing_plan_id":"cebpf4jnsgd1na2vs0mg"},{"bike_id":"b6819fdb-7a3a-474e-b25a-a2ceea70f6dd","system_id":"levelo_inurba_marseille","lat":43.26464,"lon":5.39557,"is_reserved":false,"is_disabled":false,"rental_uris":{"android":"levelo://app?vid=b6819fdb-7a3a-474e-b25a-a2ceea70f6dd","ios":"levelo://app?vid=b6819fdb-7a3a-474e-b25a-a2ceea70f6dd"},"vehicle_type_id":"4","last_reported":1731049698,"current_range_meters":22400,"station_id":"ce4bhip2rcd13ifvqft0","pricing_plan_id":"cebpf4jnsgd1na2vs0mg"},{"bike_id":"cb114105-1e46-4065-bfe9-d8d91117e98e","system_id":"levelo_inurba_marseille","lat":43.28927,"lon":5.39621,"is_reserved":false,"is_disabled":false,"rental_uris":{"android":"levelo://app?vid=cb114105-1e46-4065-bfe9-d8d91117e98e","ios":"levelo://app?vid=cb114105-1e46-4065-bfe9-d8d91117e98e"},"vehicle_type_id":"4","last_reported":1731049698,"current_range_meters":35600,"station_id":"ce4bh3h2rcd13ifvqdn0","pricing_plan_id":"cebpf4jnsgd1na2vs0mg"},{"bike_id":"e9c8a630-2d73-4117-9bf7-aca5570a0743","system_id":"levelo_inurba_marseille","lat":43.23185,"lon":5.3999,"is_reserved":false,"is_disabled":false,"rental_uris":{"android":"levelo://app?vid=e9c8a630-2d73-4117-9bf7-aca5570a0743","ios":"levelo://app?vid=e9c8a630-2d73-4117-9bf7-aca5570a0743"},"vehicle_type_id":"4","last_reported":1731049698,"current_range_meters":37600,"station_id":"ce4bhn12rcd13ifvqgqg","pricing_plan_id":"cebpf4jnsgd1na2vs0mg"},{"bike_id":"502c538f-739d-4605-9214-99ec0c3fdafd","system_id":"levelo_inurba_marseille","lat":43.25004,"lon":5.38925,"is_reserved":false,"is_disabled":false,"rental_uris":{"android":"levelo://app?vid=502c538f-739d-4605-9214-99ec0c3fdafd","ios":"levelo://app?vid=502c538f-739d-4605-9214-99ec0c3fdafd"},"vehicle_type_id":"4","last_reported":1731049698,"current_range_meters":38000,"station_id":"ce4bhgp2rcd13ifvqfd0","pricing_plan_id":"cebpf4jnsgd1na2vs0mg"},{"bike_id":"7164d488-9f05-4be0-bd71-64b943a38992","system_id":"levelo_inurba_marseille","lat":43.297962,"lon":5.3934,"is_reserved":false,"is_disabled":false,"rental_uris":{"android":"levelo://app?vid=7164d488-9f05-4be0-bd71-64b943a38992","ios":"levelo://app?vid=7164d488-9f05-4be0-bd71-64b943a38992"},"vehicle_type_id":"4","last_reported":1731049698,"current_range_meters":28000,"station_id":"ce4bgj12rcd13ifvqbc0","pricing_plan_id":"cebpf4jnsgd1na2vs0mg"},{"bike_id":"2f6d9d71-d295-4d48-984b-2188db9dadbc","system_id":"levelo_inurba_marseille","lat":43.30427,"lon":5.38886,"is_reserved":false,"is_disabled":false,"rental_uris":{"android":"levelo://app?vid=2f6d9d71-d295-4d48-984b-2188db9dadbc","ios":"levelo://app?vid=2f6d9d71-d295-4d48-984b-2188db9dadbc"},"vehicle_type_id":"4","last_reported":1731049698,"current_range_meters":10800,"station_id":"ce4bgk12rcd13ifvqbi0","pricing_plan_id":"cebpf4jnsgd1na2vs0mg"},{"bike_id":"79743799-93ac-4a4f-803b-d40865b7060b","system_id":"levelo_inurba_marseille","lat":43.3015,"lon":5.38074,"is_reserved":false,"is_disabled":false,"rental_uris":{"android":"levelo://app?vid=79743799-93ac-4a4f-803b-d40865b7060b","ios":"levelo://app?vid=79743799-93ac-4a4f-803b-d40865b7060b"},"vehicle_type_id":"4","last_reported":1731049698,"current_range_meters":32400,"station_id":"ce4bgjp2rcd13ifvqbh0","pricing_plan_id":"cebpf4jnsgd1na2vs0mg"},{"bike_id":"a9426ee3-c4ae-494e-8066-9650a1e2f01d","system_id":"levelo_inurba_marseille","lat":43.28719,"lon":5.37938,"is_reserved":false,"is_disabled":false,"rental_uris":{"android":"levelo://app?vid=a9426ee3-c4ae-494e-8066-9650a1e2f01d","ios":"levelo://app?vid=a9426ee3-c4ae-494e-8066-9650a1e2f01d"},"vehicle_type_id":"4","last_reported":1731049698,"current_range_meters":36800,"station_id":"ce4bh9p2rcd13ifvqec0","pricing_plan_id":"cebpf4jnsgd1na2vs0mg"},{"bike_id":"fc7f83a7-009e-48ef-a8ff-3ce00ef445de","system_id":"levelo_inurba_marseille","lat":43.31219,"lon":5.36857,"is_reserved":false,"is_disabled":false,"rental_uris":{"android":"levelo://app?vid=fc7f83a7-009e-48ef-a8ff-3ce00ef445de","ios":"levelo://app?vid=fc7f83a7-009e-48ef-a8ff-3ce00ef445de"},"vehicle_type_id":"4","last_reported":1731049698,"current_range_meters":33600,"station_id":"ce4bgl92rcd13ifvqbq0","pricing_plan_id":"cebpf4jnsgd1na2vs0mg"},{"bike_id":"e4e6ab83-bdd9-4696-a1f9-c015cbd359fd","system_id":"levelo_inurba_marseille","lat":43.29605,"lon":5.38104,"is_reserved":false,"is_disabled":false,"rental_uris":{"android":"levelo://app?vid=e4e6ab83-bdd9-4696-a1f9-c015cbd359fd","ios":"levelo://app?vid=e4e6ab83-bdd9-4696-a1f9-c015cbd359fd"},"vehicle_type_id":"4","last_reported":1731049698,"current_range_meters":37600,"station_id":"ce4bgl12rcd13ifvqbo0","pricing_plan_id":"cebpf4jnsgd1na2vs0mg"},{"bike_id":"2d3f424c-e6be-47ab-baf1-11e844740067","system_id":"levelo_inurba_marseille","lat":43.30901,"lon":5.37819,"is_reserved":false,"is_disabled":false,"rental_uris":{"android":"levelo://app?vid=2d3f424c-e6be-47ab-baf1-11e844740067","ios":"levelo://app?vid=2d3f424c-e6be-47ab-baf1-11e844740067"},"vehicle_type_id":"4","last_reported":1731049698,"current_range_meters":34000,"station_id":"","pricing_plan_id":"cebpf4jnsgd1na2vs0mg"},{"bike_id":"68380da3-b586-4871-9105-80f4012d6211","system_id":"levelo_inurba_marseille","lat":43.32536,"lon":5.41421,"is_reserved":false,"is_disabled":false,"rental_uris":{"android":"levelo://app?vid=68380da3-b586-4871-9105-80f4012d6211","ios":"levelo://app?vid=68380da3-b586-4871-9105-80f4012d6211"},"vehicle_type_id":"4","last_reported":1731049698,"current_range_meters":25200,"station_id":"ce4bhq12rcd13ifvqhhg","pricing_plan_id":"cebpf4jnsgd1na2vs0mg"},{"bike_id":"1db15b25-e96d-4f48-9fbc-1f87da9b9ca5","system_id":"levelo_inurba_marseille","lat":43.29792,"lon":5.38089,"is_reserved":false,"is_disabled":false,"rental_uris":{"android":"levelo://app?vid=1db15b25-e96d-4f48-9fbc-1f87da9b9ca5","ios":"levelo://app?vid=1db15b25-e96d-4f48-9fbc-1f87da9b9ca5"},"vehicle_type_id":"4","last_reported":1731049698,"current_range_meters":13600,"station_id":"ce4bgip2rcd13ifvqbb0","pricing_plan_id":"cebpf4jnsgd1na2vs0mg"},{"bike_id":"95fb3c45-aff3-4347-b692-a247d247cd73","system_id":"levelo_inurba_marseille","lat":43.29589,"lon":5.38117,"is_reserved":false,"is_disabled":false,"rental_uris":{"android":"levelo://app?vid=95fb3c45-aff3-4347-b692-a247d247cd73","ios":"levelo://app?vid=95fb3c45-aff3-4347-b692-a247d247cd73"},"vehicle_type_id":"4","last_reported":1731049698,"current_range_meters":38000,"station_id":"ce4bgl12rcd13ifvqbo0","pricing_plan_id":"cebpf4jnsgd1na2vs0mg"},{"bike_id":"0f6c9b87-1273-49c8-b349-408ffd5c2b13","system_id":"levelo_inurba_marseille","lat":43.26951,"lon":5.3863,"is_reserved":false,"is_disabled":false,"rental_uris":{"android":"levelo://app?vid=0f6c9b87-1273-49c8-b349-408ffd5c2b13","ios":"levelo://app?vid=0f6c9b87-1273-49c8-b349-408ffd5c2b13"},"vehicle_type_id":"4","last_reported":1731049698,"current_range_meters":10800,"station_id":"ce4bhh92rcd13ifvqfh0","pricing_plan_id":"cebpf4jnsgd1na2vs0mg"},{"bike_id":"878a1053-d78b-49a7-babf-42dbea1cc73b","system_id":"levelo_inurba_marseille","lat":43.29621,"lon":5.3716,"is_reserved":false,"is_disabled":false,"rental_uris":{"android":"levelo://app?vid=878a1053-d78b-49a7-babf-42dbea1cc73b","ios":"levelo://app?vid=878a1053-d78b-49a7-babf-42dbea1cc73b"},"vehicle_type_id":"4","last_reported":1731049698,"current_range_meters":36800,"station_id":"ce4bgnh2rcd13ifvqc0g","pricing_plan_id":"cebpf4jnsgd1na2vs0mg"},{"bike_id":"70452980-f6e8-437b-8cac-72e9fb74308f","system_id":"levelo_inurba_marseille","lat":43.28338,"lon":5.38115,"is_reserved":false,"is_disabled":false,"rental_uris":{"android":"levelo://app?vid=70452980-f6e8-437b-8cac-72e9fb74308f","ios":"levelo://app?vid=70452980-f6e8-437b-8cac-72e9fb74308f"},"vehicle_type_id":"4","last_reported":1731049698,"current_range_meters":6000,"station_id":"ce4bh412rcd13ifvqdr0","pricing_plan_id":"cebpf4jnsgd1na2vs0mg"},{"bike_id":"73c69365-6fdc-46de-abde-9e89de27dba1","system_id":"levelo_inurba_marseille","lat":43.32366,"lon":5.38883,"is_reserved":false,"is_disabled":false,"rental_uris":{"android":"levelo://app?vid=73c69365-6fdc-46de-abde-9e89de27dba1","ios":"levelo://app?vid=73c69365-6fdc-46de-abde-9e89de27dba1"},"vehicle_type_id":"4","last_reported":1731049698,"current_range_meters":37600,"station_id":"ce4bhqp2rcd13ifvqhog","pricing_plan_id":"cebpf4jnsgd1na2vs0mg"},{"bike_id":"e1275014-b8e7-43e7-aa63-210212370ac7","system_id":"levelo_inurba_marseille","lat":43.28937,"lon":5.39628,"is_reserved":false,"is_disabled":false,"rental_uris":{"android":"levelo://app?vid=e1275014-b8e7-43e7-aa63-210212370ac7","ios":"levelo://app?vid=e1275014-b8e7-43e7-aa63-210212370ac7"},"vehicle_type_id":"4","last_reported":1731049698,"current_range_meters":38800,"station_id":"ce4bh3h2rcd13ifvqdn0","pricing_plan_id":"cebpf4jnsgd1na2vs0mg"},{"bike_id":"263a2a38-721f-4258-9daa-8b211623e950","system_id":"levelo_inurba_marseille","lat":43.28718,"lon":5.37941,"is_reserved":false,"is_disabled":false,"rental_uris":{"android":"levelo://app?vid=263a2a38-721f-4258-9daa-8b211623e950","ios":"levelo://app?vid=263a2a38-721f-4258-9daa-8b211623e950"},"vehicle_type_id":"4","last_reported":1731049698,"current_range_meters":14000,"station_id":"ce4bh9p2rcd13ifvqec0","pricing_plan_id":"cebpf4jnsgd1na2vs0mg"},{"bike_id":"02f3bd69-c440-439f-96d2-1f56246cbb70","system_id":"levelo_inurba_marseille","lat":43.27488,"lon":5.42456,"is_reserved":false,"is_disabled":false,"rental_uris":{"android":"levelo://app?vid=02f3bd69-c440-439f-96d2-1f56246cbb70","ios":"levelo://app?vid=02f3bd69-c440-439f-96d2-1f56246cbb70"},"vehicle_type_id":"4","last_reported":1731049698,"current_range_meters":35200,"station_id":"ce4bhn92rcd13ifvqgrg","pricing_plan_id":"cebpf4jnsgd1na2vs0mg"},{"bike_id":"1304c55b-ba66-4def-8543-b51c00189aeb","system_id":"levelo_inurba_marseille","lat":43.30147,"lon":5.38083,"is_reserved":false,"is_disabled":false,"rental_uris":{"android":"levelo://app?vid=1304c55b-ba66-4def-8543-b51c00189aeb","ios":"levelo://app?vid=1304c55b-ba66-4def-8543-b51c00189aeb"},"vehicle_type_id":"4","last_reported":1731049698,"current_range_meters":36000,"station_id":"ce4bgjp2rcd13ifvqbh0","pricing_plan_id":"cebpf4jnsgd1na2vs0mg"},{"bike_id":"7aa89ab7-bfe4-4c30-8344-300c7d69ac3f","system_id":"levelo_inurba_marseille","lat":43.28933,"lon":5.36391,"is_reserved":false,"is_disabled":false,"rental_uris":{"android":"levelo://app?vid=7aa89ab7-bfe4-4c30-8344-300c7d69ac3f","ios":"levelo://app?vid=7aa89ab7-bfe4-4c30-8344-300c7d69ac3f"},"vehicle_type_id":"4","last_reported":1731049698,"current_range_meters":13600,"station_id":"ce4bhc92rcd13ifvqetg","pricing_plan_id":"cebpf4jnsgd1na2vs0mg"},{"bike_id":"5f67fd7c-6ddb-472c-9743-44f3304ecd3e","system_id":"levelo_inurba_marseille","lat":43.31749,"lon":5.39025,"is_reserved":false,"is_disabled":false,"rental_uris":{"android":"levelo://app?vid=5f67fd7c-6ddb-472c-9743-44f3304ecd3e","ios":"levelo://app?vid=5f67fd7c-6ddb-472c-9743-44f3304ecd3e"},"vehicle_type_id":"4","last_reported":1731049698,"current_range_meters":27600,"station_id":"ce4bhqp2rcd13ifvqhng","pricing_plan_id":"cebpf4jnsgd1na2vs0mg"},{"bike_id":"f224bba4-ab98-446e-89ac-3743c8ef28be","system_id":"levelo_inurba_marseille","lat":43.28979,"lon":5.37841,"is_reserved":false,"is_disabled":false,"rental_uris":{"android":"levelo://app?vid=f224bba4-ab98-446e-89ac-3743c8ef28be","ios":"levelo://app?vid=f224bba4-ab98-446e-89ac-3743c8ef28be"},"vehicle_type_id":"4","last_reported":1731049698,"current_range_meters":35600,"station_id":"ce4bh9p2rcd13ifvqed0","pricing_plan_id":"cebpf4jnsgd1na2vs0mg"},{"bike_id":"7d4fccd3-2e11-450b-9945-5f9a57c5186d","system_id":"levelo_inurba_marseille","lat":43.29554,"lon":5.42285,"is_reserved":false,"is_disabled":false,"rental_uris":{"android":"levelo://app?vid=7d4fccd3-2e11-450b-9945-5f9a57c5186d","ios":"levelo://app?vid=7d4fccd3-2e11-450b-9945-5f9a57c5186d"},"vehicle_type_id":"4","last_reported":1731049698,"current_range_meters":38800,"station_id":"ce4bhph2rcd13ifvqhdg","pricing_plan_id":"cebpf4jnsgd1na2vs0mg"},{"bike_id":"2d2f20bf-d7e7-4f1d-9da6-d9786e5be9ae","system_id":"levelo_inurba_marseille","lat":43.23145,"lon":5.43719,"is_reserved":false,"is_disabled":false,"rental_uris":{"android":"levelo://app?vid=2d2f20bf-d7e7-4f1d-9da6-d9786e5be9ae","ios":"levelo://app?vid=2d2f20bf-d7e7-4f1d-9da6-d9786e5be9ae"},"vehicle_type_id":"4","last_reported":1731049698,"current_range_meters":24000,"station_id":"ce4bhmp2rcd13ifvqgog","pricing_plan_id":"cebpf4jnsgd1na2vs0mg"},{"bike_id":"f6240ba0-900a-4bbb-b767-16165ed8fd4d","system_id":"levelo_inurba_marseille","lat":43.31829,"lon":5.38979,"is_reserved":false,"is_disabled":false,"rental_uris":{"android":"levelo://app?vid=f6240ba0-900a-4bbb-b767-16165ed8fd4d","ios":"levelo://app?vid=f6240ba0-900a-4bbb-b767-16165ed8fd4d"},"vehicle_type_id":"4","last_reported":1731049698,"current_range_meters":12800,"station_id":"","pricing_plan_id":"cebpf4jnsgd1na2vs0mg"},{"bike_id":"139dafa0-17ae-4eb4-80b8-6b6df06dded4","system_id":"levelo_inurba_marseille","lat":43.31396,"lon":5.38467,"is_reserved":false,"is_disabled":false,"rental_uris":{"android":"levelo://app?vid=139dafa0-17ae-4eb4-80b8-6b6df06dded4","ios":"levelo://app?vid=139dafa0-17ae-4eb4-80b8-6b6df06dded4"},"vehicle_type_id":"4","last_reported":1731049698,"current_range_meters":11600,"station_id":"ce4bgt92rcd13ifvqcf0","pricing_plan_id":"cebpf4jnsgd1na2vs0mg"},{"bike_id":"82b97aae-830e-4430-ae99-7cef8ad2c993","system_id":"levelo_inurba_marseille","lat":43.337444,"lon":5.374475,"is_reserved":false,"is_disabled":false,"rental_uris":{"android":"levelo://app?vid=82b97aae-830e-4430-ae99-7cef8ad2c993","ios":"levelo://app?vid=82b97aae-830e-4430-ae99-7cef8ad2c993"},"vehicle_type_id":"4","last_reported":1731049698,"current_range_meters":33200,"station_id":"","pricing_plan_id":"cebpf4jnsgd1na2vs0mg"},{"bike_id":"0cadfdbb-29cb-47f0-b0d2-065357ffe81f","system_id":"levelo_inurba_marseille","lat":43.30459,"lon":5.37904,"is_reserved":false,"is_disabled":false,"rental_uris":{"android":"levelo://app?vid=0cadfdbb-29cb-47f0-b0d2-065357ffe81f","ios":"levelo://app?vid=0cadfdbb-29cb-47f0-b0d2-065357ffe81f"},"vehicle_type_id":"4","last_reported":1731049698,"current_range_meters":23200,"station_id":"ce4bgup2rcd13ifvqcn0","pricing_plan_id":"cebpf4jnsgd1na2vs0mg"},{"bike_id":"912311cd-6142-41eb-81d1-3eeb62caf5a9","system_id":"levelo_inurba_marseille","lat":43.28481,"lon":5.38548,"is_reserved":false,"is_disabled":false,"rental_uris":{"android":"levelo://app?vid=912311cd-6142-41eb-81d1-3eeb62caf5a9","ios":"levelo://app?vid=912311cd-6142-41eb-81d1-3eeb62caf5a9"},"vehicle_type_id":"4","last_reported":1731049698,"current_range_meters":18000,"station_id":"ce4bh8p2rcd13ifvqeb0","pricing_plan_id":"cebpf4jnsgd1na2vs0mg"},{"bike_id":"c263cac9-fb65-44f1-b21a-6104bff70949","system_id":"levelo_inurba_marseille","lat":43.3021,"lon":5.39464,"is_reserved":false,"is_disabled":false,"rental_uris":{"android":"levelo://app?vid=c263cac9-fb65-44f1-b21a-6104bff70949","ios":"levelo://app?vid=c263cac9-fb65-44f1-b21a-6104bff70949"},"vehicle_type_id":"4","last_reported":1731049698,"current_range_meters":32000,"station_id":"ce4bh0p2rcd13ifvqd70","pricing_plan_id":"cebpf4jnsgd1na2vs0mg"},