{"last_updated":1690643148,"ttl":30,"version":"2.2","data":{"bikes":[{"bike_id":"96728249-39f7-4740-81be-01ce45f0a0b2","system_id":"levelo_inurba_marseille","lat":43.313391,"lon":5.36706,"is_reserved":false,"is_disabled":false,"rental_uris":{"android":"levelo://app?vid=96728249-39f7-4740-81be-01ce45f0a0b2","ios":"levelo://app?vid=96728249-39f7-4740-81be-01ce45f0a0b2"},"vehicle_type_id":"4","last_reported":1690643148,"current_range_meters":30000,"station_id":"ce4bgr92rcd13ifvqc6g","pricing_plan_id":"free"},{"bike_id":"cf81eeac-fe03-449e-ab9d-24cb454ba33c","system_id":"levelo_inurba_marseille","lat":43.31341,"lon":5.367098,"is_reserved":false,"is_disabled":false,"rental_uris":{"android":"levelo://app?vid=cf81eeac-fe03-449e-ab9d-24cb454ba33c","ios":"levelo://app?vid=cf81eeac-fe03-449e-ab9d-24cb454ba33c"},"vehicle_type_id":"4","last_reported":1690643148,"current_range_meters":29200,"station_id":"ce4bgr92rcd13ifvqc6g","pricing_plan_id":"free"},{"bike_id":"cfb186af-3014-4ad7-b593-797b1a3ee359","system_id":"levelo_inurba_marseille","lat":43.313391,"lon":5.36706,"is_reserved":false,"is_disabled":false,"rental_uris":{"android":"levelo://app?vid=cfb186af-3014-4ad7-b593-797b1a3ee359","ios":"levelo://app?vid=cfb186af-3014-4ad7-b593-797b1a3ee359"},"vehicle_type_id":"4","last_reported":1690643148,"current_range_meters":31200,"station_id":"ce4bgr92rcd13ifvqc6g","pricing_plan_id":"free"},{"bike_id":"6919b2c8-2aaa-4cc0-a7fd-1815057bf249","system_id":"levelo_inurba_marseille","lat":43.31341,"lon":5.367098,"is_reserved":false,"is_disabled":false,"rental_uris":{"android":"levelo://app?vid=6919b2c8-2aaa-4cc0-a7fd-1815057bf249","ios":"levelo://app?vid=6919b2c8-2aaa-4cc0-a7fd-1815057bf249"},"vehicle_type_id":"4","last_reported":1690643148,"current_range_meters":30000,"station_id":"ce4bgr92rcd13ifvqc6g","pricing_plan_id":"free"},{"bike_id":"94678323-dba6-4f3f-95b9-c3de6c534cc1","system_id":"levelo_inurba_marseille","lat":43.31341,"lon":5.367098,"is_reserved":false,"is_disabled":false,"rental_uris":{"android":"levelo://app?vid=94678323-dba6-4f3f-95b9-c3de6c534cc1","ios":"levelo://app?vid=94678323-dba6-4f3f-95b9-c3de6c534cc1"},"vehicle_type_id":"4","last_reported":1690643148,"current_range_meters":29200,"station_id":"ce4bgr92rcd13ifvqc6g","pricing_plan_id":"free"},{"bike_id":"27f4737d-8717-4d0f-8a2e-503345d689bc","system_id":"levelo_inurba_marseille","lat":43.31227,"lon":5.36852,"is_reserved":false,"is_disabled":false,"rental_uris":{"android":"levelo://app?vid=27f4737d-8717-4d0f-8a2e-503345d689bc","ios":"levelo://app?vid=27f4737d-8717-4d0f-8a2e-503345d689bc"},"vehicle_type_id":"4","last_reported":1690643148,"current_range_meters":17200,"station_id":"ce4bgl92rcd13ifvqbq0","pricing_plan_id":"free"},{"bike_id":"5bb813d4-b8c6-4ba7-a5dc-9742e97abe9b","system_id":"levelo_inurba_marseille","lat":43.31231,"lon":5.36869,"is_reserved":false,"is_disabled":false,"rental_uris":{"android":"levelo://app?vid=5bb813d4-b8c6-4ba7-a5dc-9742e97abe9b","ios":"levelo://app?vid=5bb813d4-b8c6-4ba7-a5dc-9742e97abe9b"},"vehicle_type_id":"4","last_reported":1690643148,"current_range_meters":16800,"station_id":"ce4bgl92rcd13ifvqbq0","pricing_plan_id":"free"},{"bike_id":"2a64066a-89f5-482f-b660-4a96f3b7764b","system_id":"levelo_inurba_marseille","lat":43.31222,"lon":5.36869,"is_reserved":false,"is_disabled":false,"rental_uris":{"android":"levelo://app?vid=2a64066a-89f5-482f-b660-4a96f3b7764b","ios":"levelo://app?vid=2a64066a-89f5-482f-b660-4a96f3b7764b"},"vehicle_type_id":"4","last_reported":1690643148,"current_range_meters":18000,"station_id":"ce4bgl92rcd13ifvqbq0","pricing_plan_id":"free"},{"bike_id":"e526d4e2-849c-44ae-a0d7-5572a62df909","system_id":"levelo_inurba_marseille","lat":43.31219,"lon":5.36868,"is_reserved":false,"is_disabled":false,"rental_uris":{"android":"levelo://app?vid=e526d4e2-849c-44ae-a0d7-5572a62df909","ios":"levelo://app?vid=e526d4e2-849c-44ae-a0d7-5572a62df909"},"vehicle_type_id":"4","last_reported":1690643148,"current_range_meters":28400,"station_id":"ce4bgl92rcd13ifvqbq0","pricing_plan_id":"free"},{"bike_id":"c0522d43-9629-4388-940a-3eb1b6acaca3","system_id":"levelo_inurba_marseille","lat":43.297794,"lon":5.370888,"is_reserved":false,"is_disabled":false,"rental_uris":{"android":"levelo://app?vid=c0522d43-9629-4388-940a-3eb1b6acaca3","ios":"levelo://app?vid=c0522d43-9629-4388-940a-3eb1b6acaca3"},"vehicle_type_id":"4","last_reported":1690643148,"current_range_meters":30000,"station_id":"ce4bgop2rcd13ifvqc1g","pricing_plan_id":"free"},{"bike_id":"089eb55d-7788-428d-ae40-ff05c95363d2","system_id":"levelo_inurba_marseille","lat":43.309076,"lon":5.368465,"is_reserved":false,"is_disabled":false,"rental_uris":{"android":"levelo://app?vid=089eb55d-7788-428d-ae40-ff05c95363d2","ios":"levelo://app?vid=089eb55d-7788-428d-ae40-ff05c95363d2"},"vehicle_type_id":"4","last_reported":1690643148,"current_range_meters":30000,"station_id":"ce4bgn92rcd13ifvqbvg","pricing_plan_id":"free"},{"bike_id":"4e55bb98-4735-4fba-814d-5ce42caa0523","system_id":"levelo_inurba_marseille","lat":43.309076,"lon":5.368465,"is_reserved":false,"is_disabled":false,"rental_uris":{"android":"levelo://app?vid=4e55bb98-4735-4fba-814d-5ce42caa0523","ios":"levelo://app?vid=4e55bb98-4735-4fba-814d-5ce42caa0523"},"vehicle_type_id":"4","last_reported":1690643148,"current_range_meters":28400,"station_id":"ce4bgn92rcd13ifvqbvg","pricing_plan_id":"free"},{"bike_id":"75650587-d9e6-4a41-a097-b06e3bc97d30","system_id":"levelo_inurba_marseille","lat":43.314811,"lon":5.373103,"is_reserved":false,"is_disabled":false,"rental_uris":{"android":"levelo://app?vid=75650587-d9e6-4a41-a097-b06e3bc97d30","ios":"levelo://app?vid=75650587-d9e6-4a41-a097-b06e3bc97d30"},"vehicle_type_id":"4","last_reported":1690643148,"current_range_meters":21200,"station_id":"ce4bgt12rcd13ifvqcd0","pricing_plan_id":"free"},{"bike_id":"a474ad3f-1c02-4bd4-8cef-0ae48efcfa15","system_id":"levelo_inurba_marseille","lat":43.314811,"lon":5.373103,"is_reserved":false,"is_disabled":false,"rental_uris":{"android":"levelo://app?vid=a474ad3f-1c02-4bd4-8cef-0ae48efcfa15","ios":"levelo://app?vid=a474ad3f-1c02-4bd4-8cef-0ae48efcfa15"},"vehicle_type_id":"4","last_reported":1690643148,"current_range_meters":31200,"station_id":"ce4bgt12rcd13ifvqcd0","pricing_plan_id":"free"},{"bike_id":"7fbe95ba-5540-4dd3-bfbb-6d93c58fbf7f","system_id":"levelo_inurba_marseille","lat":43.314811,"lon":5.373103,"is_reserved":false,"is_disabled":false,"rental_uris":{"android":"levelo://app?vid=7fbe95ba-5540-4dd3-bfbb-6d93c58fbf7f","ios":"levelo://app?vid=7fbe95ba-5540-4dd3-bfbb-6d93c58fbf7f"},"vehicle_type_id":"4","last_reported":1690643148,"current_range_meters":23200,"station_id":"ce4bgt12rcd13ifvqcd0","pricing_plan_id":"free"},{"bike_id":"b82576a2-e0bc-4a01-9fe4-31b488946cb5","system_id":"levelo_inurba_marseille","lat":43.314811,"lon":5.373103,"is_reserved":false,"is_disabled":false,"rental_uris":{"android":"levelo://app?vid=b82576a2-e0bc-4a01-9fe4-31b488946cb5","ios":"levelo://app?vid=b82576a2-e0bc-4a01-9fe4-31b488946cb5"},"vehicle_type_id":"4","last_reported":1690643148,"current_range_meters":28800,"station_id":"ce4bgt12rcd13ifvqcd0","pricing_plan_id":"free"},{"bike_id":"f37ea5a0-479e-4a87-ac3a-0363145a800c","system_id":"levelo_inurba_marseille","lat":43.314811,"lon":5.373104,"is_reserved":false,"is_disabled":false,"rental_uris":{"android":"levelo://app?vid=f37ea5a0-479e-4a87-ac3a-0363145a800c","ios":"levelo://app?vid=f37ea5a0-479e-4a87-ac3a-0363145a800c"},"vehicle_type_id":"4","last_reported":1690643148,"current_range_meters":31200,"station_id":"ce4bgt12rcd13ifvqcd0","pricing_plan_id":"free"},{"bike_id":"2319f931-71a8-4e73-b3b6-f35275eff56b","system_id":"levelo_inurba_marseille","lat":43.314811,"lon":5.373104,"is_reserved":false,"is_disabled":false,"rental_uris":{"android":"levelo://app?vid=2319f931-71a8-4e73-b3b6-f35275eff56b","ios":"levelo://app?vid=2319f931-71a8-4e73-b3b6-f35275eff56b"},"vehicle_type_id":"4","last_reported":1690643148,"current_range_meters":30000,"station_id":"ce4bgt12rcd13ifvqcd0","pricing_plan_id":"free"},{"bike_id":"5cf8e82b-5121-4436-b59c-fbea86df3a57","system_id":"levelo_inurba_marseille","lat":43.31549,"lon":5.37301,"is_reserved":false,"is_disabled":false,"rental_uris":{"android":"levelo://app?vid=5cf8e82b-5121-4436-b59c-fbea86df3a57","ios":"levelo://app?vid=5cf8e82b-5121-4436-b59c-fbea86df3a57"},"vehicle_type_id":"4","last_reported":1690643148,"current_range_meters":20800,"station_id":"","pricing_plan_id":"free"},{"bike_id":"8bf08a42-6780-4761-815e-da46d3a8cc32","system_id":"levelo_inurba_marseille","lat":43.309039,"lon":5.371797,"is_reserved":false,"is_disabled":false,"rental_uris":{"android":"levelo://app?vid=8bf08a42-6780-4761-815e-da46d3a8cc32","ios":"levelo://app?vid=8bf08a42-6780-4761-815e-da46d3a8cc32"},"vehicle_type_id":"4","last_reported":1690643148,"current_range_meters":3600,"station_id":"ce4bguh2rcd13ifvqckg","pricing_plan_id":"free"},{"bike_id":"bf77612f-8d54-423c-9155-03aab093be5c","system_id":"levelo_inurba_marseille","lat":43.314811,"lon":5.373103,"is_reserved":false,"is_disabled":false,"rental_uris":{"android":"levelo://app?vid=bf77612f-8d54-423c-9155-03aab093be5c","ios":"levelo://app?vid=bf77612f-8d54-423c-9155-03aab093be5c"},"vehicle_type_id":"4","last_reported":1690643148,"current_range_meters":24400,"station_id":"ce4bgt12rcd13ifvqcd0","pricing_plan_id":"free"},{"bike_id":"2a035618-9b15-4e55-ac79-597cfec449e5","system_id":"levelo_inurba_marseille","lat":43.30546,"lon":5.36542,"is_reserved":false,"is_disabled":false,"rental_uris":{"android":"levelo://app?vid=2a035618-9b15-4e55-ac79-597cfec449e5","ios":"levelo://app?vid=2a035618-9b15-4e55-ac79-597cfec449e5"},"vehicle_type_id":"4","last_reported":1690643148,"current_range_meters":16800,"station_id":"ce4bgs12rcd13ifvqcag","pricing_plan_id":"free"},{"bike_id":"7f07dcfe-2406-4377-a314-fd5f446fae39","system_id":"levelo_inurba_marseille","lat":43.305714,"lon":5.365633,"is_reserved":false,"is_disabled":false,"rental_uris":{"android":"levelo://app?vid=7f07dcfe-2406-4377-a314-fd5f446fae39","ios":"levelo://app?vid=7f07dcfe-2406-4377-a314-fd5f446fae39"},"vehicle_type_id":"4","last_reported":1690643148,"current_range_meters":19200,"station_id":"ce4bgs12rcd13ifvqcag","pricing_plan_id":"free"},{"bike_id":"9d3ca82c-1d6f-4c0a-b928-d2bfb9aae252","system_id":"levelo_inurba_marseille","lat":43.30533,"lon":5.36543,"is_reserved":false,"is_disabled":false,"rental_uris":{"android":"levelo://app?vid=9d3ca82c-1d6f-4c0a-b928-d2bfb9aae252","ios":"levelo://app?vid=9d3ca82c-1d6f-4c0a-b928-d2bfb9aae252"},"vehicle_type_id":"4","last_reported":1690643148,"current_range_meters":30800,"station_id":"ce4bgs12rcd13ifvqcag","pricing_plan_id":"free"},{"bike_id":"4c5f8c4f-1393-44b7-bbc6-412b8e3e1e94","system_id":"levelo_inurba_marseille","lat":43.305706,"lon":5.365654,"is_reserved":false,"is_disabled":false,"rental_uris":{"android":"levelo://app?vid=4c5f8c4f-1393-44b7-bbc6-412b8e3e1e94","ios":"levelo://app?vid=4c5f8c4f-1393-44b7-bbc6-412b8e3e1e94"},"vehicle_type_id":"4","last_reported":1690643148,"current_range_meters":4000,"station_id":"ce4bgs12rcd13ifvqcag","pricing_plan_id":"free"},{"bike_id":"f23efe8c-bd0a-47e1-9659-362fcd4fbfe3","system_id":"levelo_inurba_marseille","lat":43.305706,"lon":5.365654,"is_reserved":false,"is_disabled":false,"rental_uris":{"android":"levelo://app?vid=f23efe8c-bd0a-47e1-9659-362fcd4fbfe3","ios":"levelo://app?vid=f23efe8c-bd0a-47e1-9659-362fcd4fbfe3"},"vehicle_type_id":"4","last_reported":1690643148,"current_range_meters":22800,"station_id":"ce4bgs12rcd13ifvqcag","pricing_plan_id":"free"},{"bike_id":"cb4473c9-4071-432b-813c-9c8ccafc8016","system_id":"levelo_inurba_marseille","lat":43.305989,"lon":5.37225,"is_reserved":false,"is_disabled":false,"rental_uris":{"android":"levelo://app?vid=cb4473c9-4071-432b-813c-9c8ccafc8016","ios":"levelo://app?vid=cb4473c9-4071-432b-813c-9c8ccafc8016"},"vehicle_type_id":"4","last_reported":1690643148,"current_range_meters":22400,"station_id":"ce4bgqh2rcd13ifvqc4g","pricing_plan_id":"free"},{"bike_id":"f20ea888-8740-440b-bfeb-8eb2a7c1f652","system_id":"levelo_inurba_marseille","lat":43.305989,"lon":5.37225,"is_reserved":false,"is_disabled":false,"rental_uris":{"android":"levelo://app?vid=f20ea888-8740-440b-bfeb-8eb2a7c1f652","ios":"levelo://app?vid=f20ea888-8740-440b-bfeb-8eb2a7c1f652"},"vehicle_type_id":"4","last_reported":1690643148,"current_range_meters":29600,"station_id":"ce4bgqh2rcd13ifvqc4g","pricing_plan_id":"free"},{"bike_id":"3751ecf9-6607-4283-8666-8e1902cf2993","system_id":"levelo_inurba_marseille","lat":43.311131,"lon":5.377651,"is_reserved":false,"is_disabled":false,"rental_uris":{"android":"levelo://app?vid=3751ecf9-6607-4283-8666-8e1902cf2993","ios":"levelo://app?vid=3751ecf9-6607-4283-8666-8e1902cf2993"},"vehicle_type_id":"4","last_reported":1690643148,"current_range_meters":30000,"station_id":"ce4bgt92rcd13ifvqcg0","pricing_plan_id":"free"},{"bike_id":"ca66fa0d-c11f-4aaf-9a9d-afb1a08e6116","system_id":"levelo_inurba_marseille","lat":43.30308,"lon":5.36905,"is_reserved":false,"is_disabled":false,"rental_uris":{"android":"levelo://app?vid=ca66fa0d-c11f-4aaf-9a9d-afb1a08e6116","ios":"levelo://app?vid=ca66fa0d-c11f-4aaf-9a9d-afb1a08e6116"},"vehicle_type_id":"4","last_reported":1690643148,"current_range_meters":30400,"station_id":"ce4bgqh2rcd13ifvqc5g","pricing_plan_id":"free"},{"bike_id":"228e6b45-e5d5-4933-a26b-da5e9fed6fdf","system_id":"levelo_inurba_marseille","lat":43.30304,"lon":5.368987,"is_reserved":false,"is_disabled":false,"rental_uris":{"android":"levelo://app?vid=228e6b45-e5d5-4933-a26b-da5e9fed6fdf","ios":"levelo://app?vid=228e6b45-e5d5-4933-a26b-da5e9fed6fdf"},"vehicle_type_id":"4","last_reported":1690643148,"current_range_meters":29600,"station_id":"ce4bgqh2rcd13ifvqc5g","pricing_plan_id":"free"},{"bike_id":"2560d578-0c55-424b-8ff4-4a578b90e7e4","system_id":"levelo_inurba_marseille","lat":43.30304,"lon":5.368987,"is_reserved":false,"is_disabled":false,"rental_uris":{"android":"levelo://app?vid=2560d578-0c55-424b-8ff4-4a578b90e7e4","ios":"levelo://app?vid=2560d578-0c55-424b-8ff4-4a578b90e7e4"},"vehicle_type_id":"4","last_reported":1690643148,"current_range_meters":22800,"station_id":"ce4bgqh2rcd13ifvqc5g","pricing_plan_id":"free"},{"bike_id":"99b9a1fa-999a-4109-8a20-feee65871561","system_id":"levelo_inurba_marseille","lat":43.304606,"lon":5.379026,"is_reserved":false,"is_disabled":false,"rental_uris":{"android":"levelo://app?vid=99b9a1fa-999a-4109-8a20-feee65871561","ios":"levelo://app?vid=99b9a1fa-999a-4109-8a20-feee65871561"},"vehicle_type_id":"4","last_reported":1690643148,"current_range_meters":27200,"station_id":"ce4bgup2rcd13ifvqcn0","pricing_plan_id":"free"},{"bike_id":"2b25e4f1-9cb3-467d-b070-4a45bc61b825","system_id":"levelo_inurba_marseille","lat":43.304606,"lon":5.379026,"is_reserved":false,"is_disabled":false,"rental_uris":{"android":"levelo://app?vid=2b25e4f1-9cb3-467d-b070-4a45bc61b825","ios":"levelo://app?vid=2b25e4f1-9cb3-467d-b070-4a45bc61b825"},"vehicle_type_id":"4","last_reported":1690643148,"current_range_meters":4800,"station_id":"ce4bgup2rcd13ifvqcn0","pricing_plan_id":"free"},{"bike_id":"3d5762ce-6b7d-4b7f-b94f-b556f0497fea","system_id":"levelo_inurba_marseille","lat":43.313571,"lon":5.384829,"is_reserved":false,"is_disabled":false,"rental_uris":{"android":"levelo://app?vid=3d5762ce-6b7d-4b7f-b94f-b556f0497fea","ios":"levelo://app?vid=3d5762ce-6b7d-4b7f-b94f-b556f0497fea"},"vehicle_type_id":"4","last_reported":1690643148,"current_range_meters":12400,"station_id":"ce4bgt92rcd13ifvqcf0","pricing_plan_id":"free"},{"bike_id":"ee8ddd6d-54c4-4903-976c-13971532edd8","system_id":"levelo_inurba_marseille","lat":43.2994,"lon":5.36553,"is_reserved":false,"is_disabled":false,"rental_uris":{"android":"levelo://app?vid=ee8ddd6d-54c4-4903-976c-13971532edd8","ios":"levelo://app?vid=ee8ddd6d-54c4-4903-976c-13971532edd8"},"vehicle_type_id":"4","last_reported":1690643148,"current_range_meters":4400,"station_id":"ce4bhch2rcd13ifvqeug","pricing_plan_id":"free"},{"bike_id":"6ecd6df1-6f4b-4c95-9852-aa4cc4acba02","system_id":"levelo_inurba_marseille","lat":43.29959,"lon":5.37166,"is_reserved":false,"is_disabled":false,"rental_uris":{"android":"levelo://app?vid=6ecd6df1-6f4b-4c95-9852-aa4cc4acba02","ios":"levelo://app?vid=6ecd6df1-6f4b-4c95-9852-aa4cc4acba02"},"vehicle_type_id":"4","last_reported":1690643148,"current_range_meters":1600,"station_id":"ce4bgr92rcd13ifvqc7g","pricing_plan_id":"free"},{"bike_id":"30537d43-af02-4a10-b928-7b9b8cf633d2","system_id":"levelo_inurba_marseille","lat":43.30536,"lon":5.38427,"is_reserved":false,"is_disabled":false,"rental_uris":{"android":"levelo://app?vid=30537d43-af02-4a10-b928-7b9b8cf633d2","ios":"levelo://app?vid=30537d43-af02-4a10-b928-7b9b8cf633d2"},"vehicle_type_id":"4","last_reported":1690643148,"current_range_meters":31200,"station_id":"ce4bgg92rcd13ifvqb30","pricing_plan_id":"free"},{"bike_id":"fbda0033-8bd7-4c2b-b945-17a877d53e2a","system_id":"levelo_inurba_marseille","lat":43.298433,"lon":5.362774,"is_reserved":false,"is_disabled":false,"rental_uris":{"android":"levelo://app?vid=fbda0033-8bd7-4c2b-b945-17a877d53e2a","ios":"levelo://app?vid=fbda0033-8bd7-4c2b-b945-17a877d53e2a"},"vehicle_type_id":"4","last_reported":1690643148,"current_range_meters":30800,"station_id":"ce4bgpp2rcd13ifvqc3g","pricing_plan_id":"free"},{"bike_id":"0330cefe-3564-41fb-b2e7-95788e1aa721","system_id":"levelo_inurba_marseille","lat":43.30526,"lon":5.38436,"is_reserved":false,"is_disabled":false,"rental_uris":{"android":"levelo://app?vid=0330cefe-3564-41fb-b2e7-95788e1aa721","ios":"levelo://app?vid=0330cefe-3564-41fb-b2e7-95788e1aa721"},"vehicle_type_id":"4","last_reported":1690643148,"current_range_meters":13200,"station_id":"ce4bgg92rcd13ifvqb30","pricing_plan_id":"free"},{"bike_id":"95a62bb2-dfde-4453-aef3-1557646cd7c8","system_id":"levelo_inurba_marseille","lat":43.297794,"lon":5.370888,"is_reserved":false,"is_disabled":false,"rental_uris":{"android":"levelo://app?vid=95a62bb2-dfde-4453-aef3-1557646cd7c8","ios":"levelo://app?vid=95a62bb2-dfde-4453-aef3-1557646cd7c8"},"vehicle_type_id":"4","last_reported":1690643148,"current_range_meters":23200,"station_id":"ce4bgop2rcd13ifvqc1g","pricing_plan_id":"free"},{"bike_id":"a196dbb0-0ca2-44b0-8b03-b7d3a734d20c","system_id":"levelo_inurba_marseille","lat":43.3229,"lon":5.38269,"is_reserved":false,"is_disabled":false,"rental_uris":{"android":"levelo://app?vid=a196dbb0-0ca2-44b0-8b03-b7d3a734d20c","ios":"levelo://app?vid=a196dbb0-0ca2-44b0-8b03-b7d3a734d20c"},"vehicle_type_id":"4","last_reported":1690643148,"current_range_meters":29200,"station_id":"ce4bhr12rcd13ifvqhqg","pricing_plan_id":"free"},{"bike_id":"fead3f1e-e9e6-4830-9da4-e98cba309113","system_id":"levelo_inurba_marseille","lat":43.322872,"lon":5.382756,"is_reserved":false,"is_disabled":false,"rental_uris":{"android":"levelo://app?vid=fead3f1e-e9e6-4830-9da4-e98cba309113","ios":"levelo://app?vid=fead3f1e-e9e6-4830-9da4-e98cba309113"},"vehicle_type_id":"4","last_reported":1690643148,"current_range_meters":16400,"station_id":"ce4bhr12rcd13ifvqhqg","pricing_plan_id":"free"},{"bike_id":"3641a761-0636-4e0b-b047-72e86565129d","system_id":"levelo_inurba_marseille","lat":43.32289,"lon":5.38276,"is_reserved":false,"is_disabled":false,"rental_uris":{"android":"levelo://app?vid=3641a761-0636-4e0b-b047-72e86565129d","ios":"levelo://app?vid=3641a761-0636-4e0b-b047-72e86565129d"},"vehicle_type_id":"4","last_reported":1690643148,"current_range_meters":27600,"station_id":"ce4bhr12rcd13ifvqhqg","pricing_plan_id":"free"},{"bike_id":"82f1e03d-e4c3-4aac-b6f0-c9fc3950fe62","system_id":"levelo_inurba_marseille","lat":43.322948,"lon":5.3827,"is_reserved":false,"is_disabled":false,"rental_uris":{"android":"levelo://app?vid=82f1e03d-e4c3-4aac-b6f0-c9fc3950fe62","ios":"levelo://app?vid=82f1e03d-e4c3-4aac-b6f0-c9fc3950fe62"},"vehicle_type_id":"4","last_reported":1690643148,"current_range_meters":24400,"station_id":"","pricing_plan_id":"free"},{"bike_id":"79bf6da4-5f08-488b-96b1-6e23f74ec5ec","system_id":"levelo_inurba_marseille","lat":43.322872,"lon":5.382756,"is_reserved":false,"is_disabled":false,"rental_uris":{"android":"levelo://app?vid=79bf6da4-5f08-488b-96b1-6e23f74ec5ec","ios":"levelo://app?vid=79bf6da4-5f08-488b-96b1-6e23f74ec5ec"},"vehicle_type_id":"4","last_reported":1690643148,"current_range_meters":16000,"station_id":"ce4bhr12rcd13ifvqhqg","pricing_plan_id":"free"},{"bike_id":"42d4cffd-4f4b-489c-b938-241cedfd98b9","system_id":"levelo_inurba_marseille","lat":43.297774,"lon":5.370875,"is_reserved":false,"is_disabled":false,"rental_uris":{"android":"levelo://app?vid=42d4cffd-4f4b-489c-b938-241cedfd98b9","ios":"levelo://app?vid=42d4cffd-4f4b-489c-b938-241cedfd98b9"},"vehicle_type_id":"4","last_reported":1690643148,"current_range_meters":2800,"station_id":"ce4bgop2rcd13ifvqc1g","pricing_plan_id":"free"},{"bike_id":"69e6e336-3b68-498d-96d3-e09d5c464444","system_id":"levelo_inurba_marseille","lat":43.32822,"lon":5.36693,"is_reserved":false,"is_disabled":false,"rental_uris":{"android":"levelo://app?vid=69e6e336-3b68-498d-96d3-e09d5c464444","ios":"levelo://app?vid=69e6e336-3b68-498d-96d3-e09d5c464444"},"vehicle_type_id":"4","last_reported":1690643148,"current_range_meters":24000,"station_id":"ce4bhs92rcd13ifvqi0g","pricing_plan_id":"free"},{"bike_id":"5b4ea449-8884-4c80-80f7-38ae4af1bc0a","system_id":"levelo_inurba_marseille","lat":43.328371,"lon":5.366909,"is_reserved":false,"is_disabled":false,"rental_uris":{"android":"levelo://app?vid=5b4ea449-8884-4c80-80f7-38ae4af1bc0a","ios":"levelo://app?vid=5b4ea449-8884-4c80-80f7-38ae4af1bc0a"},"vehicle_type_id":"4","last_reported":1690643148,"current_range_meters":30400,"station_id":"ce4bhs92rcd13ifvqi0g","pricing_plan_id":"free"},{"bike_id":"70c8000f-84a5-4eea-ae83-80b69866e201","system_id":"levelo_inurba_marseille","lat":43.32828,"lon":5.36698,"is_reserved":false,"is_disabled":false,"rental_uris":{"android":"levelo://app?vid=70c8000f-84a5-4eea-ae83-80b69866e201","ios":"levelo://app?vid=70c8000f-84a5-4eea-ae83-80b69866e201"},"vehicle_type_id":"4","last_reported":1690643148,"current_range_meters":21600,"station_id":"ce4bhs92rcd13ifvqi0g","pricing_plan_id":"free"},{"bike_id":"c72ce1d8-c1fd-419a-9fc0-9ddeb92b3914","system_id":"levelo_inurba_marseille","lat":43.328371,"lon":5.366909,"is_reserved":false,"is_disabled":false,"rental_uris":{"android":"levelo://app?vid=c72ce1d8-c1fd-419a-9fc0-9ddeb92b3914","ios":"levelo://app?vid=c72ce1d8-c1fd-419a-9fc0-9ddeb92b3914"},"vehicle_type_id":"4","last_reported":1690643148,"current_range_meters":18800,"station_id":"ce4bhs92rcd13ifvqi0g","pricing_plan_id":"free"},{"bike_id":"3f56ab11-c8db-4856-8929-e236d19fea1e","system_id":"levelo_inurba_marseille","lat":43.328371,"lon":5.366909,"is_reserved":false,"is_disabled":false,"rental_uris":{"android":"levelo://app?vid=3f56ab11-c8db-4856-8929-e236d19fea1e","ios":"levelo://app?vid=3f56ab11-c8db-4856-8929-e236d19fea1e"},"vehicle_type_id":"4","last_reported":1690643148,"current_range_meters":4800,"station_id":"ce4bhs92rcd13ifvqi0g","pricing_plan_id":"free"},{"bike_id":"dd789220-e7b5-42c1-b9dc-dc4243148021","system_id":"levelo_inurba_marseille","lat":43.297163,"lon":5.365866,"is_reserved":false,"is_disabled":false,"rental_uris":{"android":"levelo://app?vid=dd789220-e7b5-42c1-b9dc-dc4243148021","ios":"levelo://app?vid=dd789220-e7b5-42c1-b9dc-dc4243148021"},"vehicle_type_id":"4","last_reported":1690643148,"current_range_meters":31200,"station_id":"ce4bgn12rcd13ifvqbt0","pricing_plan_id":"free"},{"bike_id":"8b397196-b18a-4cbc-9eeb-1ac4a224759a","system_id":"levelo_inurba_marseille","lat":43.29573,"lon":5.367355,"is_reserved":false,"is_disabled":false,"rental_uris":{"android":"levelo://app?vid=8b397196-b18a-4cbc-9eeb-1ac4a224759a","ios":"levelo://app?vid=8b397196-b18a-4cbc-9eeb-1ac4a224759a"},"vehicle_type_id":"4","last_reported":1690643148,"current_range_meters":30000,"station_id":"ce4bgph2rcd13ifvqc2g","pricing_plan_id":"free"},{"bike_id":"a86e1503-34d7-4880-8abe-88df8a284a0c","system_id":"levelo_inurba_marseille","lat":43.296131,"lon":5.370791,"is_reserved":false,"is_disabled":false,"rental_uris":{"android":"levelo://app?vid=a86e1503-34d7-4880-8abe-88df8a284a0c","ios":"levelo://app?vid=a86e1503-34d7-4880-8abe-88df8a284a0c"},"vehicle_type_id":"4","last_reported":1690643148,"current_range_meters":14400,"station_id":"ce4bgnh2rcd13ifvqc0g","pricing_plan_id":"free"},{"bike_id":"738c98f2-9306-4e85-9d13-78a52e73be52","system_id":"levelo_inurba_marseille","lat":43.299028,"lon":5.381509,"is_reserved":false,"is_disabled":false,"rental_uris":{"android":"levelo://app?vid=738c98f2-9306-4e85-9d13-78a52e73be52","ios":"levelo://app?vid=738c98f2-9306-4e85-9d13-78a52e73be52"},"vehicle_type_id":"4","last_reported":1690643148,"current_range_meters":0,"station_id":"ce4bgj12rcd13ifvqbc0","pricing_plan_id":"free"},{"bike_id":"058f6388-2188-4426-a086-06e752393a76","system_id":"levelo_inurba_marseille","lat":43.299028,"lon":5.381509,"is_reserved":false,"is_disabled":false,"rental_uris":{"android":"levelo://app?vid=058f6388-2188-4426-a086-06e752393a76","ios":"levelo://app?vid=058f6388-2188-4426-a086-06e752393a76"},"vehicle_type_id":"4","last_reported":1690643148,"current_range_meters":23200,"station_id":"ce4bgj12rcd13ifvqbc0","pricing_plan_id":"free"},{"bike_id":"cfe49956-1370-4c82-9483-df86d50b9aeb","system_id":"levelo_inurba_marseille","lat":43.309589,"lon":5.390258,"is_reserved":false,"is_disabled":false,"rental_uris":{"android":"levelo://app?vid=cfe49956-1370-4c82-9483-df86d50b9aeb","ios":"levelo://app?vid=cfe49956-1370-4c82-9483-df86d50b9aeb"},"vehicle_type_id":"4","last_reported":1690643148,"current_range_meters":9200,"station_id":"ce4bgup2rcd13ifvqco0","pricing_plan_id":"free"},{"bike_id":"80996baf-8597-4552-b66a-a0139bedf903","system_id":"levelo_inurba_marseille","lat":43.309502,"lon":5.390365,"is_reserved":false,"is_disabled":false,"rental_uris":{"android":"levelo://app?vid=80996baf-8597-4552-b66a-a0139bedf903","ios":"levelo://app?vid=80996baf-8597-4552-b66a-a0139bedf903"},"vehicle_type_id":"4","last_reported":1690643148,"current_range_meters":2000,"station_id":"","pricing_plan_id":"free"},{"bike_id":"bf5db30b-e91c-45b6-b1fe-0d456a28ae35","system_id":"levelo_inurba_marseille","lat":43.296935,"lon":5.376544,"is_reserved":false,"is_disabled":false,"rental_uris":{"android":"levelo://app?vid=bf5db30b-e91c-45b6-b1fe-0d456a28ae35","ios":"levelo://app?vid=bf5db30b-e91c-45b6-b1fe-0d456a28ae35"},"vehicle_type_id":"4","last_reported":1690643148,"current_range_meters":13600,"station_id":"ce4bgkh2rcd13ifvqbl0","pricing_plan_id":"free"},{"bike_id":"f0b1921d-8fc5-42f6-8214-26455e772ce5","system_id":"levelo_inurba_marseille","lat":43.309589,"lon":5.390258,"is_reserved":false,"is_disabled":false,"rental_uris":{"android":"levelo://app?vid=f0b1921d-8fc5-42f6-8214-26455e772ce5","ios":"levelo://app?vid=f0b1921d-8fc5-42f6-8214-26455e772ce5"},"vehicle_type_id":"4","last_reported":1690643148,"current_range_meters":28000,"station_id":"ce4bgup2rcd13ifvqco0","pricing_plan_id":"free"},{"bike_id":"bdae2320-3eb4-478a-bbce-815668dc66c7","system_id":"levelo_inurba_marseille","lat":43.304278,"lon":5.388868,"is_reserved":false,"is_disabled":false,"rental_uris":{"android":"levelo://app?vid=bdae2320-3eb4-478a-bbce-815668dc66c7","ios":"levelo://app?vid=bdae2320-3eb4-478a-bbce-815668dc66c7"},"vehicle_type_id":"4","last_reported":1690643148,"current_range_meters":4400,"station_id":"ce4bgk12rcd13ifvqbi0","pricing_plan_id":"free"},{"bike_id":"eac65ec8-7445-4060-9a83-1e340ef14483","system_id":"levelo_inurba_marseille","lat":43.298037,"lon":5.381066,"is_reserved":false,"is_disabled":false,"rental_uris":{"android":"levelo://app?vid=eac65ec8-7445-4060-9a83-1e340ef14483","ios":"levelo://app?vid=eac65ec8-7445-4060-9a83-1e340ef14483"},"vehicle_type_id":"4","last_reported":1690643148,"current_range_meters":14000,"station_id":"ce4bgip2rcd13ifvqbb0","pricing_plan_id":"free"},{"bike_id":"80b95fb3-c398-4200-9197-c07b7e0f4e3a","system_id":"levelo_inurba_marseille","lat":43.32367,"lon":5.388836,"is_reserved":false,"is_disabled":false,"rental_uris":{"android":"levelo://app?vid=80b95fb3-c398-4200-9197-c07b7e0f4e3a","ios":"levelo://app?vid=80b95fb3-c398-4200-9197-c07b7e0f4e3a"},"vehicle_type_id":"4","last_reported":1690643148,"current_range_meters":26000,"station_id":"ce4bhqp2rcd13ifvqhog","pricing_plan_id":"free"},{"bike_id":"ca22c4a3-1acd-4d3d-93d8-a629f7c9d12a","system_id":"levelo_inurba_marseille","lat":43.32367,"lon":5.388836,"is_reserved":false,"is_disabled":false,"rental_uris":{"android":"levelo://app?vid=ca22c4a3-1acd-4d3d-93d8-a629f7c9d12a","ios":"levelo://app?vid=ca22c4a3-1acd-4d3d-93d8-a629f7c9d12a"},"vehicle_type_id":"4","last_reported":1690643148,"current_range_meters":20400,"station_id":"ce4bhqp2rcd13ifvqhog","pricing_plan_id":"free"},{"bike_id":"bed242b5-0d00-4bd4-b1a6-8056715969fd","system_id":"levelo_inurba_marseille","lat":43.32367,"lon":5.388836,"is_reserved":false,"is_disabled":false,"rental_uris":{"android":"levelo://app?vid=bed242b5-0d00-4bd4-b1a6-8056715969fd","ios":"levelo://app?vid=bed242b5-0d00-4bd4-b1a6-8056715969fd"},"vehicle_type_id":"4","last_reported":1690643148,"current_range_meters":26800,"station_id":"ce4bhqp2rcd13ifvqhog","pricing_plan_id":"free"},{"bike_id":"390eb585-50db-4d90-b8b3-d3e3ee0231b7","system_id":"levelo_inurba_marseille","lat":43.32367,"lon":5.388836,"is_reserved":false,"is_disabled":false,"rental_uris":{"android":"levelo://app?vid=390eb585-50db-4d90-b8b3-d3e3ee0231b7","ios":"levelo://app?vid=390eb585-50db-4d90-b8b3-d3e3ee0231b7"},"vehicle_type_id":"4","last_reported":1690643148,"current_range_meters":22000,"station_id":"ce4bhqp2rcd13ifvqhog","pricing_plan_id":"free"},{"bike_id":"0f30fddf-a8ba-4602-83ec-5afecec76704","system_id":"levelo_inurba_marseille","lat":43.292749,"lon":5.368398,"is_reserved":false,"is_disabled":false,"rental_uris":{"android":"levelo://app?vid=0f30fddf-a8ba-4602-83ec-5afecec76704","ios":"levelo://app?vid=0f30fddf-a8ba-4602-83ec-5afecec76704"},"vehicle_type_id":"4","last_reported":1690643148,"current_range_meters":0,"station_id":"ce4bhbp2rcd13ifvqesg","pricing_plan_id":"free"},{"bike_id":"fcee53bb-3191-47da-8144-be728dc37ae2","system_id":"levelo_inurba_marseille","lat":43.292311,"lon":5.360731,"is_reserved":false,"is_disabled":false,"rental_uris":{"android":"levelo://app?vid=fcee53bb-3191-47da-8144-be728dc37ae2","ios":"levelo://app?vid=fcee53bb-3191-47da-8144-be728dc37ae2"},"vehicle_type_id":"4","last_reported":1690643148,"current_range_meters":30400,"station_id":"ce4bhbh2rcd13ifvqeqg","pricing_plan_id":"free"},{"bike_id":"f091cb42-eaa9-4e71-9e4e-2d65346c646d","system_id":"levelo_inurba_marseille","lat":43.298764,"lon":5.388973,"is_reserved":false,"is_disabled":false,"rental_uris":{"android":"levelo://app?vid=f091cb42-eaa9-4e71-9e4e-2d65346c646d","ios":"levelo://app?vid=f091cb42-eaa9-4e71-9e4e-2d65346c646d"},"vehicle_type_id":"4","last_reported":1690643148,"current_range_meters":2800,"station_id":"ce4bh392rcd13ifvqdl0","pricing_plan_id":"free"},{"bike_id":"dd22f506-503b-4d43-9c2a-0f8091e5c225","system_id":"levelo_inurba_marseille","lat":43.31323,"lon":5.39697,"is_reserved":false,"is_disabled":false,"rental_uris":{"android":"levelo://app?vid=dd22f506-503b-4d43-9c2a-0f8091e5c225","ios":"levelo://app?vid=dd22f506-503b-4d43-9c2a-0f8091e5c225"},"vehicle_type_id":"4","last_reported":1690643148,"current_range_meters":14400,"station_id":"ce4bgvp2rcd13ifvqcu0","pricing_plan_id":"free"},{"bike_id":"ffb43f09-eba2-4f9f-88a1-53854d53e49d","system_id":"levelo_inurba_marseille","lat":43.308882,"lon":5.39651,"is_reserved":false,"is_disabled":false,"rental_uris":{"android":"levelo://app?vid=ffb43f09-eba2-4f9f-88a1-53854d53e49d","ios":"levelo://app?vid=ffb43f09-eba2-4f9f-88a1-53854d53e49d"},"vehicle_type_id":"4","last_reported":1690643148,"current_range_meters":23600,"station_id":"","pricing_plan_id":"free"},{"bike_id":"b0644390-4acd-4701-b71c-4c73805bc03f","system_id":"levelo_inurba_marseille","lat":43.29529,"lon":5.385581,"is_reserved":false,"is_disabled":false,"rental_uris":{"android":"levelo://app?vid=b0644390-4acd-4701-b71c-4c73805bc03f","ios":"levelo://app?vid=b0644390-4acd-4701-b71c-4c73805bc03f"},"vehicle_type_id":"4","last_reported":1690643148,"current_range_meters":22400,"station_id":"ce4bgih2rcd13ifvqba0","pricing_plan_id":"free"},{"bike_id":"57396669-9be4-481c-b3a6-c460290895e4","system_id":"levelo_inurba_marseille","lat":43.302008,"lon":5.394694,"is_reserved":false,"is_disabled":false,"rental_uris":{"android":"levelo://app?vid=57396669-9be4-481c-b3a6-c460290895e4","ios":"levelo://app?vid=57396669-9be4-481c-b3a6-c460290895e4"},"vehicle_type_id":"4","last_reported":1690643148,"current_range_meters":0,"station_id":"ce4bh0p2rcd13ifvqd70","pricing_plan_id":"free"},{"bike_id":"509a66bf-129e-42f8-90e0-fd455906310e","system_id":"levelo_inurba_marseille","lat":43.302008,"lon":5.394694,"is_reserved":false,"is_disabled":false,"rental_uris":{"android":"levelo://app?vid=509a66bf-129e-42f8-90e0-fd455906310e","ios":"levelo://app?vid=509a66bf-129e-42f8-90e0-fd455906310e"},"vehicle_type_id":"4","last_reported":1690643148,"current_range_meters":21600,"station_id":"ce4bh0p2rcd13ifvqd70","pricing_plan_id":"free"},{"bike_id":"6e450259-0aaf-4a4a-9645-92fdaa0273f5","system_id":"levelo_inurba_marseille","lat":43.292644,"lon":5.384257,"is_reserved":false,"is_disabled":false,"rental_uris":{"android":"levelo://app?vid=6e450259-0aaf-4a4a-9645-92fdaa0273f5","ios":"levelo://app?vid=6e450259-0aaf-4a4a-9645-92fdaa0273f5"},"vehicle_type_id":"4","last_reported":1690643148,"current_range_meters":22800,"station_id":"ce4bh692rcd13ifvqea0","pricing_plan_id":"free"},{"bike_id":"d8c20e44-31f3-44fd-9f6b-2857e569d3ad","system_id":"levelo_inurba_marseille","lat":43.30249,"lon":5.39602,"is_reserved":false,"is_disabled":false,"rental_uris":{"android":"levelo://app?vid=d8c20e44-31f3-44fd-9f6b-2857e569d3ad","ios":"levelo://app?vid=d8c20e44-31f3-44fd-9f6b-2857e569d3ad"},"vehicle_type_id":"4","last_reported":1690643148,"current_range_meters":7600,"station_id":"","pricing_plan_id":"free"},{"bike_id":"204931b1-3e48-46d4-bc46-9a9295fa9a13","system_id":"levelo_inurba_marseille","lat":43.292644,"lon":5.384257,"is_reserved":false,"is_disabled":false,"rental_uris":{"android":"levelo://app?vid=204931b1-3e48-46d4-bc46-9a9295fa9a13","ios":"levelo://app?vid=204931b1-3e48-46d4-bc46-9a9295fa9a13"},"vehicle_type_id":"4","last_reported":1690643148,"current_range_meters":25600,"station_id":"ce4bh692rcd13ifvqea0","pricing_plan_id":"free"},{"bike_id":"07ace375-5d49-4fd2-943a-89fb8620278d","system_id":"levelo_inurba_marseille","lat":43.292644,"lon":5.384257,"is_reserved":false,"is_disabled":false,"rental_uris":{"android":"levelo://app?vid=07ace375-5d49-4fd2-943a-89fb8620278d","ios":"levelo://app?vid=07ace375-5d49-4fd2-943a-89fb8620278d"},"vehicle_type_id":"4","last_reported":1690643148,"current_range_meters":0,"station_id":"ce4bh692rcd13ifvqea0","pricing_plan_id":"free"},{"bike_id":"4031e07c-3812-4dd4-9840-651d80dc70e1","system_id":"levelo_inurba_marseille","lat":43.33044,"lon":5.38915,"is_reserved":false,"is_disabled":false,"rental_uris":{"android":"levelo://app?vid=4031e07c-3812-4dd4-9840-651d80dc70e1","ios":"levelo://app?vid=4031e07c-3812-4dd4-9840-651d80dc70e1"},"vehicle_type_id":"4","last_reported":1690643148,"current_range_meters":12000,"station_id":"ce4bhr92rcd13ifvqhrg","pricing_plan_id":"free"},{"bike_id":"d8132d11-7d1d-4eb1-907e-a79177a55510","system_id":"levelo_inurba_marseille","lat":43.330464,"lon":5.389125,"is_reserved":false,"is_disabled":false,"rental_uris":{"android":"levelo://app?vid=d8132d11-7d1d-4eb1-907e-a79177a55510","ios":"levelo://app?vid=d8132d11-7d1d-4eb1-907e-a79177a55510"},"vehicle_type_id":"4","last_reported":1690643148,"current_range_meters":15600,"station_id":"ce4bhr92rcd13ifvqhrg","pricing_plan_id":"free"},{"bike_id":"a636eec4-b719-4e6f-b179-4c8cadeba60e","system_id":"levelo_inurba_marseille","lat":43.33051,"lon":5.38916,"is_reserved":false,"is_disabled":false,"rental_uris":{"android":"levelo://app?vid=a636eec4-b719-4e6f-b179-4c8cadeba60e","ios":"levelo://app?vid=a636eec4-b719-4e6f-b179-4c8cadeba60e"},"vehicle_type_id":"4","last_reported":1690643148,"current_range_meters":22400,"station_id":"ce4bhr92rcd13ifvqhrg","pricing_plan_id":"free"},{"bike_id":"134ef223-0af9-48f2-bbd1-4d84dd8cb35c","system_id":"levelo_inurba_marseille","lat":43.290104,"lon":5.356111,"is_reserved":false,"is_disabled":false,"rental_uris":{"android":"levelo://app?vid=134ef223-0af9-48f2-bbd1-4d84dd8cb35c","ios":"levelo://app?vid=134ef223-0af9-48f2-bbd1-4d84dd8cb35c"},"vehicle_type_id":"4","last_reported":1690643148,"current_range_meters":31200,"station_id":"ce4bhb92rcd13ifvqen0","pricing_plan_id":"free"},{"bike_id":"05bf2cc0-c80b-4d3b-9303-5cea93148e89","system_id":"levelo_inurba_marseille","lat":43.290995,"lon":5.381361,"is_reserved":false,"is_disabled":false,"rental_uris":{"android":"levelo://app?vid=05bf2cc0-c80b-4d3b-9303-5cea93148e89","ios":"levelo://app?vid=05bf2cc0-c80b-4d3b-9303-5cea93148e89"},"vehicle_type_id":"4","last_reported":1690643148,"current_range_meters":29600,"station_id":"ce4bh512rcd13ifvqe2g","pricing_plan_id":"free"},{"bike_id":"4ddd0342-b0f6-44d2-becc-ff9c544bdbbc","system_id":"levelo_inurba_marseille","lat":43.295169,"lon":5.390426,"is_reserved":false,"is_disabled":false,"rental_uris":{"android":"levelo://app?vid=4ddd0342-b0f6-44d2-becc-ff9c544bdbbc","ios":"levelo://app?vid=4ddd0342-b0f6-44d2-becc-ff9c544bdbbc"},"vehicle_type_id":"4","last_reported":1690643148,"current_range_meters":12800,"station_id":"ce4bh3p2rcd13ifvqdp0","pricing_plan_id":"free"},{"bike_id":"e22494e0-4fcd-4d35-84a5-098e033b395c","system_id":"levelo_inurba_marseille","lat":43.28856,"lon":5.358371,"is_reserved":false,"is_disabled":false,"rental_uris":{"android":"levelo://app?vid=e22494e0-4fcd-4d35-84a5-098e033b395c","ios":"levelo://app?vid=e22494e0-4fcd-4d35-84a5-098e033b395c"},"vehicle_type_id":"4","last_reported":1690643148,"current_range_meters":14000,"station_id":"ce4bhb12rcd13ifvqem0","pricing_plan_id":"free"},{"bike_id":"351b4619-21f2-4b13-8cda-80f29b37475c","system_id":"levelo_inurba_marseille","lat":43.28856,"lon":5.358371,"is_reserved":false,"is_disabled":false,"rental_uris":{"android":"levelo://app?vid=351b4619-21f2-4b13-8cda-80f29b37475c","ios":"levelo://app?vid=351b4619-21f2-4b13-8cda-80f29b37475c"},"vehicle_type_id":"4","last_reported":1690643148,"current_range_meters":31200,"station_id":"ce4bhb12rcd13ifvqem0","pricing_plan_id":"free"},{"bike_id":"3193fff0-f6c0-426f-a10a-f674ac3f0a4c","system_id":"levelo_inurba_marseille","lat":43.28856,"lon":5.358371,"is_reserved":false,"is_disabled":false,"rental_uris":{"android":"levelo://app?vid=3193fff0-f6c0-426f-a10a-f674ac3f0a4c","ios":"levelo://app?vid=3193fff0-f6c0-426f-a10a-f674ac3f0a4c"},"vehicle_type_id":"4","last_reported":1690643148,"current_range_meters":31200,"station_id":"ce4bhb12rcd13ifvqem0","pricing_plan_id":"free"},{"bike_id":"cc13f89b-2f58-4ebe-a047-2ba24364f9a2","system_id":"levelo_inurba_marseille","lat":43.28856,"lon":5.358371,"is_reserved":false,"is_disabled":false,"rental_uris":{"android":"levelo://app?vid=cc13f89b-2f58-4ebe-a047-2ba24364f9a2","ios":"levelo://app?vid=cc13f89b-2f58-4ebe-a047-2ba24364f9a2"},"vehicle_type_id":"4","last_reported":1690643148,"current_range_meters":15200,"station_id":"ce4bhb12rcd13ifvqem0","pricing_plan_id":"free"},{"bike_id":"6a159fc9-17af-4535-8ddf-222f74f7cc85","system_id":"levelo_inurba_marseille","lat":43.28856,"lon":5.358371,"is_reserved":false,"is_disabled":false,"rental_uris":{"android":"levelo://app?vid=6a159fc9-17af-4535-8ddf-222f74f7cc85","ios":"levelo://app?vid=6a159fc9-17af-4535-8ddf-222f74f7cc85"},"vehicle_type_id":"4","last_reported":1690643148,"current_range_meters":29200,"station_id":"ce4bhb12rcd13ifvqem0","pricing_plan_id":"free"},{"bike_id":"1e03a6f5-d87b-48a5-a3d2-3b0500cb8b6e","system_id":"levelo_inurba_marseille","lat":43.33588,"lon":5.35422,"is_reserved":false,"is_disabled":false,"rental_uris":{"android":"levelo://app?vid=1e03a6f5-d87b-48a5-a3d2-3b0500cb8b6e","ios":"levelo://app?vid=1e03a6f5-d87b-48a5-a3d2-3b0500cb8b6e"},"vehicle_type_id":"4","last_reported":1690643148,"current_range_meters":20800,"station_id":"","pricing_plan_id":"free"},{"bike_id":"5339795f-3a20-48f5-aa16-92a6c75a1831","system_id":"levelo_inurba_marseille","lat":43.3375,"lon":5.37455,"is_reserved":false,"is_disabled":false,"rental_uris":{"android":"levelo://app?vid=5339795f-3a20-48f5-aa16-92a6c75a1831","ios":"levelo://app?vid=5339795f-3a20-48f5-aa16-92a6c75a1831"},"vehicle_type_id":"4","last_reported":1690643148,"current_range_meters":21200,"station_id":"","pricing_plan_id":"free"},{"bike_id":"c3002a30-00f1-4337-98d5-337792d31699","system_id":"levelo_inurba_marseille","lat":43.30936,"lon":5.40155,"is_reserved":false,"is_disabled":false,"rental_uris":{"android":"levelo://app?vid=c3002a30-00f1-4337-98d5-337792d31699","ios":"levelo://app?vid=c3002a30-00f1-4337-98d5-337792d31699"},"vehicle_type_id":"4","last_reported":1690643148,"current_range_meters":4800,"station_id":"ce4bgvp2rcd13ifvqct0","pricing_plan_id":"free"},{"bike_id":"7bd35dfc-701d-4a94-84b9-312701e00f76","system_id":"levelo_inurba_marseille","lat":43.33747,"lon":5.37502,"is_reserved":false,"is_disabled":false,"rental_uris":{"android":"levelo://app?vid=7bd35dfc-701d-4a94-84b9-312701e00f76","ios":"levelo://app?vid=7bd35dfc-701d-4a94-84b9-312701e00f76"},"vehicle_type_id":"4","last_reported":1690643148,"current_range_meters":19600,"station_id":"","pricing_plan_id":"free"},{"bike_id":"59976df7-227f-4714-9cb2-afaf722434f6","system_id":"levelo_inurba_marseille","lat":43.33748,"lon":5.375,"is_reserved":false,"is_disabled":false,"rental_uris":{"android":"levelo://app?vid=59976df7-227f-4714-9cb2-afaf722434f6","ios":"levelo://app?vid=59976df7-227f-4714-9cb2-afaf722434f6"},"vehicle_type_id":"4","last_reported":1690643148,"current_range_meters":8000,"station_id":"","pricing_plan_id":"free"},{"bike_id":"abdc95c7-512f-40d0-a7cb-b7dd95637591","system_id":"levelo_inurba_marseille","lat":43.3375,"lon":5.37509,"is_reserved":false,"is_disabled":false,"rental_uris":{"android":"levelo://app?vid=abdc95c7-512f-40d0-a7cb-b7dd95637591","ios":"levelo://app?vid=abdc95c7-512f-40d0-a7cb-b7dd95637591"},"vehicle_type_id":"4","last_reported":1690643148,"current_range_meters":3600,"station_id":"","pricing_plan_id":"free"},{"bike_id":"2650eb60-5101-4688-a692-d959b7814eb1","system_id":"levelo_inurba_marseille","lat":43.33752,"lon":5.37509,"is_reserved":false,"is_disabled":false,"rental_uris":{"android":"levelo://app?vid=2650eb60-5101-4688-a692-d959b7814eb1","ios":"levelo://app?vid=2650eb60-5101-4688-a692-d959b7814eb1"},"vehicle_type_id":"4","last_reported":1690643148,"current_range_meters":0,"station_id":"","pricing_plan_id":"free"},{"bike_id":"7783bfcf-afd0-4281-b6ef-6783658541be","system_id":"levelo_inurba_marseille","lat":43.33758,"lon":5.37491,"is_reserved":false,"is_disabled":false,"rental_uris":{"android":"levelo://app?vid=7783bfcf-afd0-4281-b6ef-6783658541be","ios":"levelo://app?vid=7783bfcf-afd0-4281-b6ef-6783658541be"},"vehicle_type_id":"4","last_reported":1690643148,"current_range_meters":31200,"station_id":"","pricing_plan_id":"free"},{"bike_id":"2b336acb-fc80-4981-965d-2b6e2f741ce0","system_id":"levelo_inurba_marseille","lat":43.301117,"lon":5.398795,"is_reserved":false,"is_disabled":false,"rental_uris":{"android":"levelo://app?vid=2b336acb-fc80-4981-965d-2b6e2f741ce0","ios":"levelo://app?vid=2b336acb-fc80-4981-965d-2b6e2f741ce0"},"vehicle_type_id":"4","last_reported":1690643148,"current_range_meters":11200,"station_id":"ce4bh0h2rcd13ifvqd40","pricing_plan_id":"free"},{"bike_id":"75199276-b705-4ad7-b6a9-49aeaa84628a","system_id":"levelo_inurba_marseille","lat":43.286593,"lon":5.363346,"is_reserved":false,"is_disabled":false,"rental_uris":{"android":"levelo://app?vid=75199276-b705-4ad7-b6a9-49aeaa84628a","ios":"levelo://app?vid=75199276-b705-4ad7-b6a9-49aeaa84628a"},"vehicle_type_id":"4","last_reported":1690643148,"current_range_meters":31200,"station_id":"ce4bhah2rcd13ifvqej0","pricing_plan_id":"free"},{"bike_id":"320d1cc4-b1d2-4387-bcc4-109fc0b69298","system_id":"levelo_inurba_marseille","lat":43.295194,"lon":5.39397,"is_reserved":false,"is_disabled":false,"rental_uris":{"android":"levelo://app?vid=320d1cc4-b1d2-4387-bcc4-109fc0b69298","ios":"levelo://app?vid=320d1cc4-b1d2-4387-bcc4-109fc0b69298"},"vehicle_type_id":"4","last_reported":1690643148,"current_range_meters":12000,"station_id":"ce4bh292rcd13ifvqdf0","pricing_plan_id":"free"},{"bike_id":"06e04282-1261-4c9e-9dbf-dfda7e8d2d1c","system_id":"levelo_inurba_marseille","lat":43.29023,"lon":5.38634,"is_reserved":false,"is_disabled":false,"rental_uris":{"android":"levelo://app?vid=06e04282-1261-4c9e-9dbf-dfda7e8d2d1c","ios":"levelo://app?vid=06e04282-1261-4c9e-9dbf-dfda7e8d2d1c"},"vehicle_type_id":"4","last_reported":1690643148,"current_range_meters":27600,"station_id":"ce4bh4p2rcd13ifvqe0g","pricing_plan_id":"free"},{"bike_id":"998e7120-c861-46a1-a9e2-f06f15ab976e","system_id":"levelo_inurba_marseille","lat":43.290336,"lon":5.386425,"is_reserved":false,"is_disabled":false,"rental_uris":{"android":"levelo://app?vid=998e7120-c861-46a1-a9e2-f06f15ab976e","ios":"levelo://app?vid=998e7120-c861-46a1-a9e2-f06f15ab976e"},"vehicle_type_id":"4","last_reported":1690643148,"current_range_meters":28400,"station_id":"ce4bh4p2rcd13ifvqe0g","pricing_plan_id":"free"},{"bike_id":"4fb80683-f953-4fcd-99cc-aea64a0dcaac","system_id":"levelo_inurba_marseille","lat":43.290336,"lon":5.386425,"is_reserved":false,"is_disabled":false,"rental_uris":{"android":"levelo://app?vid=4fb80683-f953-4fcd-99cc-aea64a0dcaac","ios":"levelo://app?vid=4fb80683-f953-4fcd-99cc-aea64a0dcaac"},"vehicle_type_id":"4","last_reported":1690643148,"current_range_meters":20000,"station_id":"ce4bh4p2rcd13ifvqe0g","pricing_plan_id":"free"},{"bike_id":"b39fa950-7348-48dc-8747-013de63017fd","system_id":"levelo_inurba_marseille","lat":43.290336,"lon":5.386425,"is_reserved":false,"is_disabled":false,"rental_uris":{"android":"levelo://app?vid=b39fa950-7348-48dc-8747-013de63017fd","ios":"levelo://app?vid=b39fa950-7348-48dc-8747-013de63017fd"},"vehicle_type_id":"4","last_reported":1690643148,"current_range_meters":27200,"station_id":"ce4bh4p2rcd13ifvqe0g","pricing_plan_id":"free"},{"bike_id":"841ed4a9-4d41-43f2-ad4b-780553e8a5df","system_id":"levelo_inurba_marseille","lat":43.290336,"lon":5.386425,"is_reserved":false,"is_disabled":false,"rental_uris":{"android":"levelo://app?vid=841ed4a9-4d41-43f2-ad4b-780553e8a5df","ios":"levelo://app?vid=841ed4a9-4d41-43f2-ad4b-780553e8a5df"},"vehicle_type_id":"4","last_reported":1690643148,"current_range_meters":18800,"station_id":"ce4bh4p2rcd13ifvqe0g","pricing_plan_id":"free"},{"bike_id":"ce33e713-a126-4b0e-9480-9075c06514a7","system_id":"levelo_inurba_marseille","lat":43.302759,"lon":5.400793,"is_reserved":false,"is_disabled":false,"rental_uris":{"android":"levelo://app?vid=ce33e713-a126-4b0e-9480-9075c06514a7","ios":"levelo://app?vid=ce33e713-a126-4b0e-9480-9075c06514a7"},"vehicle_type_id":"4","last_reported":1690643148,"current_range_meters":12000,"station_id":"ce4bgvh2rcd13ifvqcs0","pricing_plan_id":"free"},{"bike_id":"a17f7b80-b63a-4ee6-b7f7-0222156c54ae","system_id":"levelo_inurba_marseille","lat":43.302759,"lon":5.400793,"is_reserved":false,"is_disabled":false,"rental_uris":{"android":"levelo://app?vid=a17f7b80-b63a-4ee6-b7f7-0222156c54ae","ios":"levelo://app?vid=a17f7b80-b63a-4ee6-b7f7-0222156c54ae"},"vehicle_type_id":"4","last_reported":1690643148,"current_range_meters":27200,"station_id":"ce4bgvh2rcd13ifvqcs0","pricing_plan_id":"free"},{"bike_id":"d1ae7079-5c2b-451c-9bfe-ecc26ad8cc6c","system_id":"levelo_inurba_marseille","lat":43.286039,"lon":5.370679,"is_reserved":false,"is_disabled":false,"rental_uris":{"android":"levelo://app?vid=d1ae7079-5c2b-451c-9bfe-ecc26ad8cc6c","ios":"levelo://app?vid=d1ae7079-5c2b-451c-9bfe-ecc26ad8cc6c"},"vehicle_type_id":"4","last_reported":1690643148,"current_range_meters":9200,"station_id":"ce4bht12rcd13ifvqi60","pricing_plan_id":"free"},{"bike_id":"0f72e174-8272-45b9-ac8f-dc8066fd2528","system_id":"levelo_inurba_marseille","lat":43.286595,"lon":5.386795,"is_reserved":false,"is_disabled":false,"rental_uris":{"android":"levelo://app?vid=0f72e174-8272-45b9-ac8f-dc8066fd2528","ios":"levelo://app?vid=0f72e174-8272-45b9-ac8f-dc8066fd2528"},"vehicle_type_id":"4","last_reported":1690643148,"current_range_meters":23200,"station_id":"ce4bh492rcd13ifvqdug","pricing_plan_id":"free"},{"bike_id":"91ab7ff1-0890-4e67-b2d7-3cd987b6ca52","system_id":"levelo_inurba_marseille","lat":43.31647,"lon":5.40433,"is_reserved":false,"is_disabled":false,"rental_uris":{"android":"levelo://app?vid=91ab7ff1-0890-4e67-b2d7-3cd987b6ca52","ios":"levelo://app?vid=91ab7ff1-0890-4e67-b2d7-3cd987b6ca52"},"vehicle_type_id":"4","last_reported":1690643148,"current_range_meters":400,"station_id":"ce4bh012rcd13ifvqd00","pricing_plan_id":"free"},{"bike_id":"7cc77414-7355-4959-bd30-6a1816f7614c","system_id":"levelo_inurba_marseille","lat":43.31646,"lon":5.40434,"is_reserved":false,"is_disabled":false,"rental_uris":{"android":"levelo://app?vid=7cc77414-7355-4959-bd30-6a1816f7614c","ios":"levelo://app?vid=7cc77414-7355-4959-bd30-6a1816f7614c"},"vehicle_type_id":"4","last_reported":1690643148,"current_range_meters":16000,"station_id":"ce4bh012rcd13ifvqd00","pricing_plan_id":"free"},{"bike_id":"c37c6b12-ee28-445a-b34b-a452abf00be4","system_id":"levelo_inurba_marseille","lat":43.31644,"lon":5.40437,"is_reserved":false,"is_disabled":false,"rental_uris":{"android":"levelo://app?vid=c37c6b12-ee28-445a-b34b-a452abf00be4","ios":"levelo://app?vid=c37c6b12-ee28-445a-b34b-a452abf00be4"},"vehicle_type_id":"4","last_reported":1690643148,"current_range_meters":30400,"station_id":"ce4bh012rcd13ifvqd00","pricing_plan_id":"free"},{"bike_id":"f9ac32d9-bfba-4bb8-97d8-4f36f34532d8","system_id":"levelo_inurba_marseille","lat":43.31649,"lon":5.40443,"is_reserved":false,"is_disabled":false,"rental_uris":{"android":"levelo://app?vid=f9ac32d9-bfba-4bb8-97d8-4f36f34532d8","ios":"levelo://app?vid=f9ac32d9-bfba-4bb8-97d8-4f36f34532d8"},"vehicle_type_id":"4","last_reported":1690643148,"current_range_meters":30000,"station_id":"ce4bh012rcd13ifvqd00","pricing_plan_id":"free"},{"bike_id":"9118b72f-4b17-453b-b42d-b800e74d1915","system_id":"levelo_inurba_marseille","lat":43.31645,"lon":5.40449,"is_reserved":false,"is_disabled":false,"rental_uris":{"android":"levelo://app?vid=9118b72f-4b17-453b-b42d-b800e74d1915","ios":"levelo://app?vid=9118b72f-4b17-453b-b42d-b800e74d1915"},"vehicle_type_id":"4","last_reported":1690643148,"current_range_meters":30000,"station_id":"ce4bh012rcd13ifvqd00","pricing_plan_id":"free"},{"bike_id":"045a0b7a-34de-40d6-a30b-e816ea32b6e8","system_id":"levelo_inurba_marseille","lat":43.29968,"lon":5.40089,"is_reserved":false,"is_disabled":false,"rental_uris":{"android":"levelo://app?vid=045a0b7a-34de-40d6-a30b-e816ea32b6e8","ios":"levelo://app?vid=045a0b7a-34de-40d6-a30b-e816ea32b6e8"},"vehicle_type_id":"4","last_reported":1690643148,"current_range_meters":31200,"station_id":"","pricing_plan_id":"free"},{"bike_id":"267a03bd-82e1-4c8c-b204-50a1fd754ea0","system_id":"levelo_inurba_marseille","lat":43.291994,"lon":5.392907,"is_reserved":false,"is_disabled":false,"rental_uris":{"android":"levelo://app?vid=267a03bd-82e1-4c8c-b204-50a1fd754ea0","ios":"levelo://app?vid=267a03bd-82e1-4c8c-b204-50a1fd754ea0"},"vehicle_type_id":"4","last_reported":1690643148,"current_range_meters":14800,"station_id":"ce4bh192rcd13ifvqdd0","pricing_plan_id":"free"},{"bike_id":"f8e13353-d7d8-4ac4-9997-a0a335045d8d","system_id":"levelo_inurba_marseille","lat":43.284534,"lon":5.358662,"is_reserved":false,"is_disabled":false,"rental_uris":{"android":"levelo://app?vid=f8e13353-d7d8-4ac4-9997-a0a335045d8d","ios":"levelo://app?vid=f8e13353-d7d8-4ac4-9997-a0a335045d8d"},"vehicle_type_id":"4","last_reported":1690643148,"current_range_meters":10000,"station_id":"ce4bhah2rcd13ifvqei0","pricing_plan_id":"free"},{"bike_id":"fb3040b4-89e4-40e0-9105-0bc3579cede1","system_id":"levelo_inurba_marseille","lat":43.31551,"lon":5.40645,"is_reserved":false,"is_disabled":false,"rental_uris":{"android":"levelo://app?vid=fb3040b4-89e4-40e0-9105-0bc3579cede1","ios":"levelo://app?vid=fb3040b4-89e4-40e0-9105-0bc3579cede1"},"vehicle_type_id":"4","last_reported":1690643148,"current_range_meters":12400,"station_id":"","pricing_plan_id":"free"},{"bike_id":"da21022f-e6db-41eb-b80c-c3cb1040797c","system_id":"levelo_inurba_marseille","lat":43.28621,"lon":5.35104,"is_reserved":false,"is_disabled":false,"rental_uris":{"android":"levelo://app?vid=da21022f-e6db-41eb-b80c-c3cb1040797c","ios":"levelo://app?vid=da21022f-e6db-41eb-b80c-c3cb1040797c"},"vehicle_type_id":"4","last_reported":1690643148,"current_range_meters":25600,"station_id":"ce4bhch2rcd13ifvqeug","pricing_plan_id":"free"},{"bike_id":"95955e16-08ae-411a-be00-1371212d73d8","system_id":"levelo_inurba_marseille","lat":43.28621,"lon":5.35104,"is_reserved":false,"is_disabled":false,"rental_uris":{"android":"levelo://app?vid=95955e16-08ae-411a-be00-1371212d73d8","ios":"levelo://app?vid=95955e16-08ae-411a-be00-1371212d73d8"},"vehicle_type_id":"4","last_reported":1690643148,"current_range_meters":13600,"station_id":"ce4bhch2rcd13ifvqeug","pricing_plan_id":"free"},{"bike_id":"4a2489be-c7be-4e4c-b2c4-62cfe6dc3ddf","system_id":"levelo_inurba_marseille","lat":43.28618,"lon":5.3511,"is_reserved":false,"is_disabled":false,"rental_uris":{"android":"levelo://app?vid=4a2489be-c7be-4e4c-b2c4-62cfe6dc3ddf","ios":"levelo://app?vid=4a2489be-c7be-4e4c-b2c4-62cfe6dc3ddf"},"vehicle_type_id":"4","last_reported":1690643148,"current_range_meters":24000,"station_id":"ce4bhch2rcd13ifvqeug","pricing_plan_id":"free"},{"bike_id":"efb0a212-757e-495f-970c-5e3797be86c5","system_id":"levelo_inurba_marseille","lat":43.28621,"lon":5.351,"is_reserved":false,"is_disabled":false,"rental_uris":{"android":"levelo://app?vid=efb0a212-757e-495f-970c-5e3797be86c5","ios":"levelo://app?vid=efb0a212-757e-495f-970c-5e3797be86c5"},"vehicle_type_id":"4","last_reported":1690643148,"current_range_meters":26800,"station_id":"ce4bhch2rcd13ifvqeug","pricing_plan_id":"free"},{"bike_id":"5b112069-dd75-4a1c-a0d8-84fb8f414b25","system_id":"levelo_inurba_marseille","lat":43.2862,"lon":5.35103,"is_reserved":false,"is_disabled":false,"rental_uris":{"android":"levelo://app?vid=5b112069-dd75-4a1c-a0d8-84fb8f414b25","ios":"levelo://app?vid=5b112069-dd75-4a1c-a0d8-84fb8f414b25"},"vehicle_type_id":"4","last_reported":1690643148,"current_range_meters":30000,"station_id":"ce4bhch2rcd13ifvqeug","pricing_plan_id":"free"},{"bike_id":"2d9caa56-c7ae-402c-bd3a-ec4d83f8ada5","system_id":"levelo_inurba_marseille","lat":43.28618,"lon":5.35103,"is_reserved":false,"is_disabled":false,"rental_uris":{"android":"levelo://app?vid=2d9caa56-c7ae-402c-bd3a-ec4d83f8ada5","ios":"levelo://app?vid=2d9caa56-c7ae-402c-bd3a-ec4d83f8ada5"},"vehicle_type_id":"4","last_reported":1690643148,"current_range_meters":30400,"station_id":"ce4bhch2rcd13ifvqeug","pricing_plan_id":"free"},{"bike_id":"09c34ccf-cef1-4936-9b42-84f57eeac1a3","system_id":"levelo_inurba_marseille","lat":43.28615,"lon":5.35106,"is_reserved":false,"is_disabled":false,"rental_uris":{"android":"levelo://app?vid=09c34ccf-cef1-4936-9b42-84f57eeac1a3","ios":"levelo://app?vid=09c34ccf-cef1-4936-9b42-84f57eeac1a3"},"vehicle_type_id":"4","last_reported":1690643148,"current_range_meters":20400,"station_id":"ce4bhch2rcd13ifvqeug","pricing_plan_id":"free"},{"bike_id":"0e5b23bf-b425-47d4-9373-f7278713b861","system_id":"levelo_inurba_marseille","lat":43.28614,"lon":5.35107,"is_reserved":false,"is_disabled":false,"rental_uris":{"android":"levelo://app?vid=0e5b23bf-b425-47d4-9373-f7278713b861","ios":"levelo://app?vid=0e5b23bf-b425-47d4-9373-f7278713b861"},"vehicle_type_id":"4","last_reported":1690643148,"current_range_meters":12000,"station_id":"ce4bhch2rcd13ifvqeug","pricing_plan_id":"free"},{"bike_id":"3a91208f-20e5-4470-8226-916cd0044947","system_id":"levelo_inurba_marseille","lat":43.28615,"lon":5.35103,"is_reserved":false,"is_disabled":false,"rental_uris":{"android":"levelo://app?vid=3a91208f-20e5-4470-8226-916cd0044947","ios":"levelo://app?vid=3a91208f-20e5-4470-8226-916cd0044947"},"vehicle_type_id":"4","last_reported":1690643148,"current_range_meters":5200,"station_id":"ce4bhch2rcd13ifvqeug","pricing_plan_id":"free"},{"bike_id":"072893e1-5729-464f-9bce-bf079143fe7d","system_id":"levelo_inurba_marseille","lat":43.28614,"lon":5.35106,"is_reserved":false,"is_disabled":false,"rental_uris":{"android":"levelo://app?vid=072893e1-5729-464f-9bce-bf079143fe7d","ios":"levelo://app?vid=072893e1-5729-464f-9bce-bf079143fe7d"},"vehicle_type_id":"4","last_reported":1690643148,"current_range_meters":25200,"station_id":"ce4bhch2rcd13ifvqeug","pricing_plan_id":"free"},{"bike_id":"5fa85e35-87c5-4cb7-8eb2-e590d4158d64","system_id":"levelo_inurba_marseille","lat":43.28612,"lon":5.35112,"is_reserved":false,"is_disabled":false,"rental_uris":{"android":"levelo://app?vid=5fa85e35-87c5-4cb7-8eb2-e590d4158d64","ios":"levelo://app?vid=5fa85e35-87c5-4cb7-8eb2-e590d4158d64"},"vehicle_type_id":"4","last_reported":1690643148,"current_range_meters":19200,"station_id":"ce4bhch2rcd13ifvqeug","pricing_plan_id":"free"},{"bike_id":"ef141484-9ca0-46ea-b35b-2d03b4065b27","system_id":"levelo_inurba_marseille","lat":43.28614,"lon":5.35105,"is_reserved":false,"is_disabled":false,"rental_uris":{"android":"levelo://app?vid=ef141484-9ca0-46ea-b35b-2d03b4065b27","ios":"levelo://app?vid=ef141484-9ca0-46ea-b35b-2d03b4065b27"},"vehicle_type_id":"4","last_reported":1690643148,"current_range_meters":30000,"station_id":"ce4bhch2rcd13ifvqeug","pricing_plan_id":"free"},{"bike_id":"1a3b71f0-1366-4746-8d80-acaba30c6783","system_id":"levelo_inurba_marseille","lat":43.28617,"lon":5.35092,"is_reserved":false,"is_disabled":false,"rental_uris":{"android":"levelo://app?vid=1a3b71f0-1366-4746-8d80-acaba30c6783","ios":"levelo://app?vid=1a3b71f0-1366-4746-8d80-acaba30c6783"},"vehicle_type_id":"4","last_reported":1690643148,"current_range_meters":17600,"station_id":"ce4bhch2rcd13ifvqeug","pricing_plan_id":"free"},{"bike_id":"947fb46a-6072-4712-b0a4-2381424d2684","system_id":"levelo_inurba_marseille","lat":43.28614,"lon":5.35099,"is_reserved":false,"is_disabled":false,"rental_uris":{"android":"levelo://app?vid=947fb46a-6072-4712-b0a4-2381424d2684","ios":"levelo://app?vid=947fb46a-6072-4712-b0a4-2381424d2684"},"vehicle_type_id":"4","last_reported":1690643148,"current_range_meters":20800,"station_id":"ce4bhch2rcd13ifvqeug","pricing_plan_id":"free"},{"bike_id":"58019738-4bc1-4679-88d5-332d6fe47cbf","system_id":"levelo_inurba_marseille","lat":43.2861,"lon":5.3511,"is_reserved":false,"is_disabled":false,"rental_uris":{"android":"levelo://app?vid=58019738-4bc1-4679-88d5-332d6fe47cbf","ios":"levelo://app?vid=58019738-4bc1-4679-88d5-332d6fe47cbf"},"vehicle_type_id":"4","last_reported":1690643148,"current_range_meters":20800,"station_id":"ce4bhch2rcd13ifvqeug","pricing_plan_id":"free"},{"bike_id":"3379a594-4bdb-4d92-a4e1-f47813f93272","system_id":"levelo_inurba_marseille","lat":43.31559,"lon":5.40685,"is_reserved":false,"is_disabled":false,"rental_uris":{"android":"levelo://app?vid=3379a594-4bdb-4d92-a4e1-f47813f93272","ios":"levelo://app?vid=3379a594-4bdb-4d92-a4e1-f47813f93272"},"vehicle_type_id":"4","last_reported":1690643148,"current_range_meters":18800,"station_id":"","pricing_plan_id":"free"},{"bike_id":"01134300-46db-49fe-9685-202ea5b0a6a8","system_id":"levelo_inurba_marseille","lat":43.295713,"lon":5.399639,"is_reserved":false,"is_disabled":false,"rental_uris":{"android":"levelo://app?vid=01134300-46db-49fe-9685-202ea5b0a6a8","ios":"levelo://app?vid=01134300-46db-49fe-9685-202ea5b0a6a8"},"vehicle_type_id":"4","last_reported":1690643148,"current_range_meters":800,"station_id":"ce4bh312rcd13ifvqdj0","pricing_plan_id":"free"},{"bike_id":"3e7c8399-35a4-4364-b2a8-fee20588aad7","system_id":"levelo_inurba_marseille","lat":43.31888,"lon":5.40731,"is_reserved":false,"is_disabled":false,"rental_uris":{"android":"levelo://app?vid=3e7c8399-35a4-4364-b2a8-fee20588aad7","ios":"levelo://app?vid=3e7c8399-35a4-4364-b2a8-fee20588aad7"},"vehicle_type_id":"4","last_reported":1690643148,"current_range_meters":4400,"station_id":"","pricing_plan_id":"free"},{"bike_id":"64e29e51-351b-47c8-abb7-b6f467d54995","system_id":"levelo_inurba_marseille","lat":43.323464,"lon":5.406297,"is_reserved":false,"is_disabled":false,"rental_uris":{"android":"levelo://app?vid=64e29e51-351b-47c8-abb7-b6f467d54995","ios":"levelo://app?vid=64e29e51-351b-47c8-abb7-b6f467d54995"},"vehicle_type_id":"4","last_reported":1690643148,"current_range_meters":8800,"station_id":"ce4bhq92rcd13ifvqhjg","pricing_plan_id":"free"},{"bike_id":"07355913-3475-48df-8d84-3e45dbf0e07b","system_id":"levelo_inurba_marseille","lat":43.33725,"lon":5.39186,"is_reserved":false,"is_disabled":false,"rental_uris":{"android":"levelo://app?vid=07355913-3475-48df-8d84-3e45dbf0e07b","ios":"levelo://app?vid=07355913-3475-48df-8d84-3e45dbf0e07b"},"vehicle_type_id":"4","last_reported":1690643148,"current_range_meters":19200,"station_id":"ce4bhr92rcd13ifvqhsg","pricing_plan_id":"free"},{"bike_id":"26bfcad4-2dc6-43bb-9f00-91622fd750a3","system_id":"levelo_inurba_marseille","lat":43.323464,"lon":5.406297,"is_reserved":false,"is_disabled":false,"rental_uris":{"android":"levelo://app?vid=26bfcad4-2dc6-43bb-9f00-91622fd750a3","ios":"levelo://app?vid=26bfcad4-2dc6-43bb-9f00-91622fd750a3"},"vehicle_type_id":"4","last_reported":1690643148,"current_range_meters":31200,"station_id":"ce4bhq92rcd13ifvqhjg","pricing_plan_id":"free"},{"bike_id":"cf0bf93f-d49d-4479-8320-052904c77e28","system_id":"levelo_inurba_marseille","lat":43.29801,"lon":5.40402,"is_reserved":false,"is_disabled":false,"rental_uris":{"android":"levelo://app?vid=cf0bf93f-d49d-4479-8320-052904c77e28","ios":"levelo://app?vid=cf0bf93f-d49d-4479-8320-052904c77e28"},"vehicle_type_id":"4","last_reported":1690643148,"current_range_meters":30000,"station_id":"","pricing_plan_id":"free"},{"bike_id":"41918487-c7f5-4ca4-8e15-28473670b6b7","system_id":"levelo_inurba_marseille","lat":43.29801,"lon":5.40403,"is_reserved":false,"is_disabled":false,"rental_uris":{"android":"levelo://app?vid=41918487-c7f5-4ca4-8e15-28473670b6b7","ios":"levelo://app?vid=41918487-c7f5-4ca4-8e15-28473670b6b7"},"vehicle_type_id":"4","last_reported":1690643148,"current_range_meters":31200,"station_id":"","pricing_plan_id":"free"},{"bike_id":"229f98a3-041c-4a8d-a144-2a5f1e7d397a","system_id":"levelo_inurba_marseille","lat":43.288497,"lon":5.393089,"is_reserved":false,"is_disabled":false,"rental_uris":{"android":"levelo://app?vid=229f98a3-041c-4a8d-a144-2a5f1e7d397a","ios":"levelo://app?vid=229f98a3-041c-4a8d-a144-2a5f1e7d397a"},"vehicle_type_id":"4","last_reported":1690643148,"current_range_meters":11200,"station_id":"ce4bh2p2rcd13ifvqdi0","pricing_plan_id":"free"},{"bike_id":"5aa4fe5e-986f-4803-9986-d9cb7cffa375","system_id":"levelo_inurba_marseille","lat":43.284219,"lon":5.3497,"is_reserved":false,"is_disabled":false,"rental_uris":{"android":"levelo://app?vid=5aa4fe5e-986f-4803-9986-d9cb7cffa375","ios":"levelo://app?vid=5aa4fe5e-986f-4803-9986-d9cb7cffa375"},"vehicle_type_id":"4","last_reported":1690643148,"current_range_meters":31200,"station_id":"ce4bhbh2rcd13ifvqepg","pricing_plan_id":"free"},{"bike_id":"935ad233-c9a3-4ffd-86af-00b9e908ca91","system_id":"levelo_inurba_marseille","lat":43.284219,"lon":5.3497,"is_reserved":false,"is_disabled":false,"rental_uris":{"android":"levelo://app?vid=935ad233-c9a3-4ffd-86af-00b9e908ca91","ios":"levelo://app?vid=935ad233-c9a3-4ffd-86af-00b9e908ca91"},"vehicle_type_id":"4","last_reported":1690643148,"current_range_meters":24800,"station_id":"ce4bhbh2rcd13ifvqepg","pricing_plan_id":"free"},{"bike_id":"0e52b493-1ecf-49d3-bc79-13831d2b3fea","system_id":"levelo_inurba_marseille","lat":43.2842,"lon":5.35008,"is_reserved":false,"is_disabled":false,"rental_uris":{"android":"levelo://app?vid=0e52b493-1ecf-49d3-bc79-13831d2b3fea","ios":"levelo://app?vid=0e52b493-1ecf-49d3-bc79-13831d2b3fea"},"vehicle_type_id":"4","last_reported":1690643148,"current_range_meters":27200,"station_id":"ce4bhbh2rcd13ifvqepg","pricing_plan_id":"free"},{"bike_id":"93ef7a96-b76f-4cbb-b9d8-ad9dcaf15f72","system_id":"levelo_inurba_marseille","lat":43.284219,"lon":5.3497,"is_reserved":false,"is_disabled":false,"rental_uris":{"android":"levelo://app?vid=93ef7a96-b76f-4cbb-b9d8-ad9dcaf15f72","ios":"levelo://app?vid=93ef7a96-b76f-4cbb-b9d8-ad9dcaf15f72"},"vehicle_type_id":"4","last_reported":1690643148,"current_range_meters":24400,"station_id":"ce4bhbh2rcd13ifvqepg","pricing_plan_id":"free"},{"bike_id":"a45c62d3-13c3-4aab-a69f-b5da8cde321b","system_id":"levelo_inurba_marseille","lat":43.284219,"lon":5.3497,"is_reserved":false,"is_disabled":false,"rental_uris":{"android":"levelo://app?vid=a45c62d3-13c3-4aab-a69f-b5da8cde321b","ios":"levelo://app?vid=a45c62d3-13c3-4aab-a69f-b5da8cde321b"},"vehicle_type_id":"4","last_reported":1690643148,"current_range_meters":27600,"station_id":"ce4bhbh2rcd13ifvqepg","pricing_plan_id":"free"},{"bike_id":"73dfe535-c830-45c6-9270-b1249cd3fef5","system_id":"levelo_inurba_marseille","lat":43.2842,"lon":5.34995,"is_reserved":false,"is_disabled":false,"rental_uris":{"android":"levelo://app?vid=73dfe535-c830-45c6-9270-b1249cd3fef5","ios":"levelo://app?vid=73dfe535-c830-45c6-9270-b1249cd3fef5"},"vehicle_type_id":"4","last_reported":1690643148,"current_range_meters":23200,"station_id":"ce4bhbh2rcd13ifvqepg","pricing_plan_id":"free"},{"bike_id":"2b03d1e9-e8b1-40e2-ac11-5b582136f5fe","system_id":"levelo_inurba_marseille","lat":43.284219,"lon":5.3497,"is_reserved":false,"is_disabled":false,"rental_uris":{"android":"levelo://app?vid=2b03d1e9-e8b1-40e2-ac11-5b582136f5fe","ios":"levelo://app?vid=2b03d1e9-e8b1-40e2-ac11-5b582136f5fe"},"vehicle_type_id":"4","last_reported":1690643148,"current_range_meters":22400,"station_id":"ce4bhbh2rcd13ifvqepg","pricing_plan_id":"free"},{"bike_id":"5045851e-a2be-4121-9258-f403ae8b3dc6","system_id":"levelo_inurba_marseille","lat":43.284219,"lon":5.3497,"is_reserved":false,"is_disabled":false,"rental_uris":{"android":"levelo://app?vid=5045851e-a2be-4121-9258-f403ae8b3dc6","ios":"levelo://app?vid=5045851e-a2be-4121-9258-f403ae8b3dc6"},"vehicle_type_id":"4","last_reported":1690643148,"current_range_meters":0,"station_id":"ce4bhbh2rcd13ifvqepg","pricing_plan_id":"free"},{"bike_id":"b58fb898-956a-4e49-b047-978622c65644","system_id":"levelo_inurba_marseille","lat":43.284219,"lon":5.3497,"is_reserved":false,"is_disabled":false,"rental_uris":{"android":"levelo://app?vid=b58fb898-956a-4e49-b047-978622c65644","ios":"levelo://app?vid=b58fb898-956a-4e49-b047-978622c65644"},"vehicle_type_id":"4","last_reported":1690643148,"current_range_meters":24800,"station_id":"ce4bhbh2rcd13ifvqepg","pricing_plan_id":"free"},{"bike_id":"1bfbcee9-663f-4ac4-b316-71ed41ac9f8e","system_id":"levelo_inurba_marseille","lat":43.284219,"lon":5.3497,"is_reserved":false,"is_disabled":false,"rental_uris":{"android":"levelo://app?vid=1bfbcee9-663f-4ac4-b316-71ed41ac9f8e","ios":"levelo://app?vid=1bfbcee9-663f-4ac4-b316-71ed41ac9f8e"},"vehicle_type_id":"4","last_reported":1690643148,"current_range_meters":17600,"station_id":"ce4bhbh2rcd13ifvqepg","pricing_plan_id":"free"},{"bike_id":"b4367827-a3ad-4b1c-b404-2294d49c5857","system_id":"levelo_inurba_marseille","lat":43.284219,"lon":5.3497,"is_reserved":false,"is_disabled":false,"rental_uris":{"android":"levelo://app?vid=b4367827-a3ad-4b1c-b404-2294d49c5857","ios":"levelo://app?vid=b4367827-a3ad-4b1c-b404-2294d49c5857"},"vehicle_type_id":"4","last_reported":1690643148,"current_range_meters":28000,"station_id":"ce4bhbh2rcd13ifvqepg","pricing_plan_id":"free"},{"bike_id":"965f900d-17bd-4ef8-8d2b-4f581651ed7e","system_id":"levelo_inurba_marseille","lat":43.284219,"lon":5.3497,"is_reserved":false,"is_disabled":false,"rental_uris":{"android":"levelo://app?vid=965f900d-17bd-4ef8-8d2b-4f581651ed7e","ios":"levelo://app?vid=965f900d-17bd-4ef8-8d2b-4f581651ed7e"},"vehicle_type_id":"4","last_reported":1690643148,"current_range_meters":14400,"station_id":"ce4bhbh2rcd13ifvqepg","pricing_plan_id":"free"},{"bike_id":"64546c53-9c88-4d35-9ce5-f6b29d5217a3","system_id":"levelo_inurba_marseille","lat":43.284219,"lon":5.3497,"is_reserved":false,"is_disabled":false,"rental_uris":{"android":"levelo://app?vid=64546c53-9c88-4d35-9ce5-f6b29d5217a3","ios":"levelo://app?vid=64546c53-9c88-4d35-9ce5-f6b29d5217a3"},"vehicle_type_id":"4","last_reported":1690643148,"current_range_meters":29200,"station_id":"ce4bhbh2rcd13ifvqepg","pricing_plan_id":"free"},{"bike_id":"b4dc9478-e411-491f-9766-0483311aae4c","system_id":"levelo_inurba_marseille","lat":43.284219,"lon":5.3497,"is_reserved":false,"is_disabled":false,"rental_uris":{"android":"levelo://app?vid=b4dc9478-e411-491f-9766-0483311aae4c","ios":"levelo://app?vid=b4dc9478-e411-491f-9766-0483311aae4c"},"vehicle_type_id":"4","last_reported":1690643148,"current_range_meters":23600,"station_id":"ce4bhbh2rcd13ifvqepg","pricing_plan_id":"free"},{"bike_id":"a56999cc-e4fd-4aa3-920d-26d9acf3fc4c","system_id":"levelo_inurba_marseille","lat":43.284219,"lon":5.3497,"is_reserved":false,"is_disabled":false,"rental_uris":{"android":"levelo://app?vid=a56999cc-e4fd-4aa3-920d-26d9acf3fc4c","ios":"levelo://app?vid=a56999cc-e4fd-4aa3-920d-26d9acf3fc4c"},"vehicle_type_id":"4","last_reported":1690643148,"current_range_meters":30000,"station_id":"ce4bhbh2rcd13ifvqepg","pricing_plan_id":"free"},{"bike_id":"857eadcb-202f-4fc1-a6ab-1cec703afb07","system_id":"levelo_inurba_marseille","lat":43.28414,"lon":5.35001,"is_reserved":false,"is_disabled":false,"rental_uris":{"android":"levelo://app?vid=857eadcb-202f-4fc1-a6ab-1cec703afb07","ios":"levelo://app?vid=857eadcb-202f-4fc1-a6ab-1cec703afb07"},"vehicle_type_id":"4","last_reported":1690643148,"current_range_meters":31200,"station_id":"ce4bhbh2rcd13ifvqepg","pricing_plan_id":"free"},{"bike_id":"036aa569-a68a-400b-b6f3-5b375a3f8120","system_id":"levelo_inurba_marseille","lat":43.28413,"lon":5.35004,"is_reserved":false,"is_disabled":false,"rental_uris":{"android":"levelo://app?vid=036aa569-a68a-400b-b6f3-5b375a3f8120","ios":"levelo://app?vid=036aa569-a68a-400b-b6f3-5b375a3f8120"},"vehicle_type_id":"4","last_reported":1690643148,"current_range_meters":18400,"station_id":"ce4bhbh2rcd13ifvqepg","pricing_plan_id":"free"},{"bike_id":"ad7e64f5-3d49-4dfa-8d1d-043321d15306","system_id":"levelo_inurba_marseille","lat":43.28418,"lon":5.34988,"is_reserved":false,"is_disabled":false,"rental_uris":{"android":"levelo://app?vid=ad7e64f5-3d49-4dfa-8d1d-043321d15306","ios":"levelo://app?vid=ad7e64f5-3d49-4dfa-8d1d-043321d15306"},"vehicle_type_id":"4","last_reported":1690643148,"current_range_meters":18800,"station_id":"ce4bhbh2rcd13ifvqepg","pricing_plan_id":"free"},{"bike_id":"5ffb7a6a-b163-4570-96af-0515bdefd386","system_id":"levelo_inurba_marseille","lat":43.28419,"lon":5.34983,"is_reserved":false,"is_disabled":false,"rental_uris":{"android":"levelo://app?vid=5ffb7a6a-b163-4570-96af-0515bdefd386","ios":"levelo://app?vid=5ffb7a6a-b163-4570-96af-0515bdefd386"},"vehicle_type_id":"4","last_reported":1690643148,"current_range_meters":12800,"station_id":"ce4bhbh2rcd13ifvqepg","pricing_plan_id":"free"},{"bike_id":"52c26fe0-2403-4388-b7cb-4ae99fdc9f8f","system_id":"levelo_inurba_marseille","lat":43.284219,"lon":5.3497,"is_reserved":false,"is_disabled":false,"rental_uris":{"android":"levelo://app?vid=52c26fe0-2403-4388-b7cb-4ae99fdc9f8f","ios":"levelo://app?vid=52c26fe0-2403-4388-b7cb-4ae99fdc9f8f"},"vehicle_type_id":"4","last_reported":1690643148,"current_range_meters":31200,"station_id":"ce4bhbh2rcd13ifvqepg","pricing_plan_id":"free"},{"bike_id":"50f141d3-67fb-4f8e-ad05-1afa59378f02","system_id":"levelo_inurba_marseille","lat":43.28413,"lon":5.34995,"is_reserved":false,"is_disabled":false,"rental_uris":{"android":"levelo://app?vid=50f141d3-67fb-4f8e-ad05-1afa59378f02","ios":"levelo://app?vid=50f141d3-67fb-4f8e-ad05-1afa59378f02"},"vehicle_type_id":"4","last_reported":1690643148,"current_range_meters":14400,"station_id":"ce4bhbh2rcd13ifvqepg","pricing_plan_id":"free"},{"bike_id":"ca95364a-ce50-4a1e-8a64-1f0ba1bc305e","system_id":"levelo_inurba_marseille","lat":43.28412,"lon":5.34997,"is_reserved":false,"is_disabled":false,"rental_uris":{"android":"levelo://app?vid=ca95364a-ce50-4a1e-8a64-1f0ba1bc305e","ios":"levelo://app?vid=ca95364a-ce50-4a1e-8a64-1f0ba1bc305e"},"vehicle_type_id":"4","last_reported":1690643148,"current_range_meters":14800,"station_id":"ce4bhbh2rcd13ifvqepg","pricing_plan_id":"free"},{"bike_id":"821fa1af-79f0-4a9c-9806-c2e26011cb8c","system_id":"levelo_inurba_marseille","lat":43.28411,"lon":5.34999,"is_reserved":false,"is_disabled":false,"rental_uris":{"android":"levelo://app?vid=821fa1af-79f0-4a9c-9806-c2e26011cb8c","ios":"levelo://app?vid=821fa1af-79f0-4a9c-9806-c2e26011cb8c"},"vehicle_type_id":"4","last_reported":1690643148,"current_range_meters":17600,"station_id":"ce4bhbh2rcd13ifvqepg","pricing_plan_id":"free"},{"bike_id":"78702bd3-15f1-4b90-bef4-39e08cc78f06","system_id":"levelo_inurba_marseille","lat":43.284219,"lon":5.3497,"is_reserved":false,"is_disabled":false,"rental_uris":{"android":"levelo://app?vid=78702bd3-15f1-4b90-bef4-39e08cc78f06","ios":"levelo://app?vid=78702bd3-15f1-4b90-bef4-39e08cc78f06"},"vehicle_type_id":"4","last_reported":1690643148,"current_range_meters":28400,"station_id":"ce4bhbh2rcd13ifvqepg","pricing_plan_id":"free"},{"bike_id":"b1e98d1d-e871-4afb-b705-09916634953b","system_id":"levelo_inurba_marseille","lat":43.28413,"lon":5.34985,"is_reserved":false,"is_disabled":false,"rental_uris":{"android":"levelo://app?vid=b1e98d1d-e871-4afb-b705-09916634953b","ios":"levelo://app?vid=b1e98d1d-e871-4afb-b705-09916634953b"},"vehicle_type_id":"4","last_reported":1690643148,"current_range_meters":6000,"station_id":"ce4bhbh2rcd13ifvqepg","pricing_plan_id":"free"},{"bike_id":"c78e3e1f-8a71-4781-a792-04deccb30e4e","system_id":"levelo_inurba_marseille","lat":43.284219,"lon":5.3497,"is_reserved":false,"is_disabled":false,"rental_uris":{"android":"levelo://app?vid=c78e3e1f-8a71-4781-a792-04deccb30e4e","ios":"levelo://app?vid=c78e3e1f-8a71-4781-a792-04deccb30e4e"},"vehicle_type_id":"4","last_reported":1690643148,"current_range_meters":13200,"station_id":"ce4bhbh2rcd13ifvqepg","pricing_plan_id":"free"},{"bike_id":"e9638673-6f8c-4a13-9fb2-467a72f172f7","system_id":"levelo_inurba_marseille","lat":43.284219,"lon":5.3497,"is_reserved":false,"is_disabled":false,"rental_uris":{"android":"levelo://app?vid=e9638673-6f8c-4a13-9fb2-467a72f172f7","ios":"levelo://app?vid=e9638673-6f8c-4a13-9fb2-467a72f172f7"},"vehicle_type_id":"4","last_reported":1690643148,"current_range_meters":21200,"station_id":"ce4bhbh2rcd13ifvqepg","pricing_plan_id":"free"},{"bike_id":"cb428d5d-8bde-47e6-bdd8-06af82b92abd","system_id":"levelo_inurba_marseille","lat":43.284219,"lon":5.3497,"is_reserved":false,"is_disabled":false,"rental_uris":{"android":"levelo://app?vid=cb428d5d-8bde-47e6-bdd8-06af82b92abd","ios":"levelo://app?vid=cb428d5d-8bde-47e6-bdd8-06af82b92abd"},"vehicle_type_id":"4","last_reported":1690643148,"current_range_meters":24800,"station_id":"ce4bhbh2rcd13ifvqepg","pricing_plan_id":"free"},{"bike_id":"56a332a8-ec32-4fdc-9ed2-7515866ddf83","system_id":"levelo_inurba_marseille","lat":43.28412,"lon":5.34986,"is_reserved":false,"is_disabled":false,"rental_uris":{"android":"levelo://app?vid=56a332a8-ec32-4fdc-9ed2-7515866ddf83","ios":"levelo://app?vid=56a332a8-ec32-4fdc-9ed2-7515866ddf83"},"vehicle_type_id":"4","last_reported":1690643148,"current_range_meters":22400,"station_id":"ce4bhbh2rcd13ifvqepg","pricing_plan_id":"free"},{"bike_id":"70ffebc9-7f2b-4b75-b0f0-03651e411d5c","system_id":"levelo_inurba_marseille","lat":43.28411,"lon":5.34982,"is_reserved":false,"is_disabled":false,"rental_uris":{"android":"levelo://app?vid=70ffebc9-7f2b-4b75-b0f0-03651e411d5c","ios":"levelo://app?vid=70ffebc9-7f2b-4b75-b0f0-03651e411d5c"},"vehicle_type_id":"4","last_reported":1690643148,"current_range_meters":19200,"station_id":"ce4bhbh2rcd13ifvqepg","pricing_plan_id":"free"},{"bike_id":"c596d779-453b-4d5b-afa6-4cb6b462e54f","system_id":"levelo_inurba_marseille","lat":43.2841,"lon":5.34983,"is_reserved":false,"is_disabled":false,"rental_uris":{"android":"levelo://app?vid=c596d779-453b-4d5b-afa6-4cb6b462e54f","ios":"levelo://app?vid=c596d779-453b-4d5b-afa6-4cb6b462e54f"},"vehicle_type_id":"4","last_reported":1690643148,"current_range_meters":14000,"station_id":"ce4bhbh2rcd13ifvqepg","pricing_plan_id":"free"},{"bike_id":"27f40d45-744c-4d87-9e5e-f320fcc18a80","system_id":"levelo_inurba_marseille","lat":43.28408,"lon":5.34982,"is_reserved":false,"is_disabled":false,"rental_uris":{"android":"levelo://app?vid=27f40d45-744c-4d87-9e5e-f320fcc18a80","ios":"levelo://app?vid=27f40d45-744c-4d87-9e5e-f320fcc18a80"},"vehicle_type_id":"4","last_reported":1690643148,"current_range_meters":11600,"station_id":"ce4bhbh2rcd13ifvqepg","pricing_plan_id":"free"},{"bike_id":"73bc097e-5693-47b8-843d-6e1e1d5f33b4","system_id":"levelo_inurba_marseille","lat":43.289363,"lon":5.396322,"is_reserved":false,"is_disabled":false,"rental_uris":{"android":"levelo://app?vid=73bc097e-5693-47b8-843d-6e1e1d5f33b4","ios":"levelo://app?vid=73bc097e-5693-47b8-843d-6e1e1d5f33b4"},"vehicle_type_id":"4","last_reported":1690643148,"current_range_meters":18400,"station_id":"ce4bh3h2rcd13ifvqdn0","pricing_plan_id":"free"},{"bike_id":"fbb422b2-df81-4249-ba6f-622409dc07fd","system_id":"levelo_inurba_marseille","lat":43.32798,"lon":5.40537,"is_reserved":false,"is_disabled":false,"rental_uris":{"android":"levelo://app?vid=fbb422b2-df81-4249-ba6f-622409dc07fd","ios":"levelo://app?vid=fbb422b2-df81-4249-ba6f-622409dc07fd"},"vehicle_type_id":"4","last_reported":1690643148,"current_range_meters":4800,"station_id":"","pricing_plan_id":"free"},{"bike_id":"bbcb031e-aa89-4bdb-979f-912f25d932a4","system_id":"levelo_inurba_marseille","lat":43.282801,"lon":5.350889,"is_reserved":false,"is_disabled":false,"rental_uris":{"android":"levelo://app?vid=bbcb031e-aa89-4bdb-979f-912f25d932a4","ios":"levelo://app?vid=bbcb031e-aa89-4bdb-979f-912f25d932a4"},"vehicle_type_id":"4","last_reported":1690643148,"current_range_meters":18000,"station_id":"ce4bhbp2rcd13ifvqerg","pricing_plan_id":"free"},{"bike_id":"6edc7423-3395-4b1a-bb29-63db829b2b92","system_id":"levelo_inurba_marseille","lat":43.282744,"lon":5.350533,"is_reserved":false,"is_disabled":false,"rental_uris":{"android":"levelo://app?vid=6edc7423-3395-4b1a-bb29-63db829b2b92","ios":"levelo://app?vid=6edc7423-3395-4b1a-bb29-63db829b2b92"},"vehicle_type_id":"4","last_reported":1690643148,"current_range_meters":31200,"station_id":"ce4bhbp2rcd13ifvqerg","pricing_plan_id":"free"},{"bike_id":"aa6dcb7f-5b5c-419e-9e5f-0fe1f0095221","system_id":"levelo_inurba_marseille","lat":43.2827,"lon":5.35078,"is_reserved":false,"is_disabled":false,"rental_uris":{"android":"levelo://app?vid=aa6dcb7f-5b5c-419e-9e5f-0fe1f0095221","ios":"levelo://app?vid=aa6dcb7f-5b5c-419e-9e5f-0fe1f0095221"},"vehicle_type_id":"4","last_reported":1690643148,"current_range_meters":19600,"station_id":"ce4bhbp2rcd13ifvqerg","pricing_plan_id":"free"},{"bike_id":"74d4b0cc-3a14-4543-9ab3-2e968b0513f8","system_id":"levelo_inurba_marseille","lat":43.28268,"lon":5.35084,"is_reserved":false,"is_disabled":false,"rental_uris":{"android":"levelo://app?vid=74d4b0cc-3a14-4543-9ab3-2e968b0513f8","ios":"levelo://app?vid=74d4b0cc-3a14-4543-9ab3-2e968b0513f8"},"vehicle_type_id":"4","last_reported":1690643148,"current_range_meters":26800,"station_id":"ce4bhbp2rcd13ifvqerg","pricing_plan_id":"free"},{"bike_id":"c1eace0f-f79f-4640-b973-bad40bc86542","system_id":"levelo_inurba_marseille","lat":43.28269,"lon":5.35079,"is_reserved":false,"is_disabled":false,"rental_uris":{"android":"levelo://app?vid=c1eace0f-f79f-4640-b973-bad40bc86542","ios":"levelo://app?vid=c1eace0f-f79f-4640-b973-bad40bc86542"},"vehicle_type_id":"4","last_reported":1690643148,"current_range_meters":17600,"station_id":"ce4bhbp2rcd13ifvqerg","pricing_plan_id":"free"},{"bike_id":"a4ae56df-4270-4dc6-803b-d88da3a6b875","system_id":"levelo_inurba_marseille","lat":43.28268,"lon":5.35079,"is_reserved":false,"is_disabled":false,"rental_uris":{"android":"levelo://app?vid=a4ae56df-4270-4dc6-803b-d88da3a6b875","ios":"levelo://app?vid=a4ae56df-4270-4dc6-803b-d88da3a6b875"},"vehicle_type_id":"4","last_reported":1690643148,"current_range_meters":18800,"station_id":"ce4bhbp2rcd13ifvqerg","pricing_plan_id":"free"},{"bike_id":"b724afb1-2702-49bd-8971-67803f301557","system_id":"levelo_inurba_marseille","lat":43.28269,"lon":5.35075,"is_reserved":false,"is_disabled":false,"rental_uris":{"android":"levelo://app?vid=b724afb1-2702-49bd-8971-67803f301557","ios":"levelo://app?vid=b724afb1-2702-49bd-8971-67803f301557"},"vehicle_type_id":"4","last_reported":1690643148,"current_range_meters":31200,"station_id":"ce4bhbp2rcd13ifvqerg","pricing_plan_id":"free"},{"bike_id":"3fd090b3-c668-4e9a-adbb-eaae8fb8834f","system_id":"levelo_inurba_marseille","lat":43.282754,"lon":5.350519,"is_reserved":false,"is_disabled":false,"rental_uris":{"android":"levelo://app?vid=3fd090b3-c668-4e9a-adbb-eaae8fb8834f","ios":"levelo://app?vid=3fd090b3-c668-4e9a-adbb-eaae8fb8834f"},"vehicle_type_id":"4","last_reported":1690643148,"current_range_meters":23200,"station_id":"ce4bhbp2rcd13ifvqerg","pricing_plan_id":"free"},{"bike_id":"d4d8aab0-54f2-431c-952e-88898c94d1d1","system_id":"levelo_inurba_marseille","lat":43.28268,"lon":5.35075,"is_reserved":false,"is_disabled":false,"rental_uris":{"android":"levelo://app?vid=d4d8aab0-54f2-431c-952e-88898c94d1d1","ios":"levelo://app?vid=d4d8aab0-54f2-431c-952e-88898c94d1d1"},"vehicle_type_id":"4","last_reported":1690643148,"current_range_meters":20000,"station_id":"ce4bhbp2rcd13ifvqerg","pricing_plan_id":"free"},{"bike_id":"6c51d3ec-668f-44c4-a107-0edd22afa3e3","system_id":"levelo_inurba_marseille","lat":43.28268,"lon":5.35072,"is_reserved":false,"is_disabled":false,"rental_uris":{"android":"levelo://app?vid=6c51d3ec-668f-44c4-a107-0edd22afa3e3","ios":"levelo://app?vid=6c51d3ec-668f-44c4-a107-0edd22afa3e3"},"vehicle_type_id":"4","last_reported":1690643148,"current_range_meters":31200,"station_id":"ce4bhbp2rcd13ifvqerg","pricing_plan_id":"free"},{"bike_id":"dd8ad0ef-c8af-43cb-92eb-0d27d2987c67","system_id":"levelo_inurba_marseille","lat":43.28269,"lon":5.35068,"is_reserved":false,"is_disabled":false,"rental_uris":{"android":"levelo://app?vid=dd8ad0ef-c8af-43cb-92eb-0d27d2987c67","ios":"levelo://app?vid=dd8ad0ef-c8af-43cb-92eb-0d27d2987c67"},"vehicle_type_id":"4","last_reported":1690643148,"current_range_meters":19200,"station_id":"ce4bhbp2rcd13ifvqerg","pricing_plan_id":"free"},{"bike_id":"ef034a8d-39be-465d-a39a-4d3713a1f8ed","system_id":"levelo_inurba_marseille","lat":43.282754,"lon":5.350519,"is_reserved":false,"is_disabled":false,"rental_uris":{"android":"levelo://app?vid=ef034a8d-39be-465d-a39a-4d3713a1f8ed","ios":"levelo://app?vid=ef034a8d-39be-465d-a39a-4d3713a1f8ed"},"vehicle_type_id":"4","last_reported":1690643148,"current_range_meters":24800,"station_id":"ce4bhbp2rcd13ifvqerg","pricing_plan_id":"free"},{"bike_id":"f4173bf7-b534-41bf-9998-95b53865058b","system_id":"levelo_inurba_marseille","lat":43.282744,"lon":5.350533,"is_reserved":false,"is_disabled":false,"rental_uris":{"android":"levelo://app?vid=f4173bf7-b534-41bf-9998-95b53865058b","ios":"levelo://app?vid=f4173bf7-b534-41bf-9998-95b53865058b"},"vehicle_type_id":"4","last_reported":1690643148,"current_range_meters":31200,"station_id":"ce4bhbp2rcd13ifvqerg","pricing_plan_id":"free"},{"bike_id":"27426f30-9686-434d-9689-d2ab32e03069","system_id":"levelo_inurba_marseille","lat":43.28265,"lon":5.35078,"is_reserved":false,"is_disabled":false,"rental_uris":{"android":"levelo://app?vid=27426f30-9686-434d-9689-d2ab32e03069","ios":"levelo://app?vid=27426f30-9686-434d-9689-d2ab32e03069"},"vehicle_type_id":"4","last_reported":1690643148,"current_range_meters":31200,"station_id":"ce4bhbp2rcd13ifvqerg","pricing_plan_id":"free"},{"bike_id":"eca5ea94-2746-48ed-9c32-971e5a2d2dda","system_id":"levelo_inurba_marseille","lat":43.28264,"lon":5.35076,"is_reserved":false,"is_disabled":false,"rental_uris":{"android":"levelo://app?vid=eca5ea94-2746-48ed-9c32-971e5a2d2dda","ios":"levelo://app?vid=eca5ea94-2746-48ed-9c32-971e5a2d2dda"},"vehicle_type_id":"4","last_reported":1690643148,"current_range_meters":21200,"station_id":"ce4bhbp2rcd13ifvqerg","pricing_plan_id":"free"},{"bike_id":"a4995368-6ea0-4c78-8b99-2c24dd6f5ae3","system_id":"levelo_inurba_marseille","lat":43.282754,"lon":5.350519,"is_reserved":false,"is_disabled":false,"rental_uris":{"android":"levelo://app?vid=a4995368-6ea0-4c78-8b99-2c24dd6f5ae3","ios":"levelo://app?vid=a4995368-6ea0-4c78-8b99-2c24dd6f5ae3"},"vehicle_type_id":"4","last_reported":1690643148,"current_range_meters":27600,"station_id":"ce4bhbp2rcd13ifvqerg","pricing_plan_id":"free"},{"bike_id":"54666d10-93f4-4c8a-a97c-f51ed99898cb","system_id":"levelo_inurba_marseille","lat":43.28268,"lon":5.35061,"is_reserved":false,"is_disabled":false,"rental_uris":{"android":"levelo://app?vid=54666d10-93f4-4c8a-a97c-f51ed99898cb","ios":"levelo://app?vid=54666d10-93f4-4c8a-a97c-f51ed99898cb"},"vehicle_type_id":"4","last_reported":1690643148,"current_range_meters":24800,"station_id":"ce4bhbp2rcd13ifvqerg","pricing_plan_id":"free"},{"bike_id":"198960df-00b2-48f0-8e9c-9cc22c056c10","system_id":"levelo_inurba_marseille","lat":43.282754,"lon":5.350519,"is_reserved":false,"is_disabled":false,"rental_uris":{"android":"levelo://app?vid=198960df-00b2-48f0-8e9c-9cc22c056c10","ios":"levelo://app?vid=198960df-00b2-48f0-8e9c-9cc22c056c10"},"vehicle_type_id":"4","last_reported":1690643148,"current_range_meters":31200,"station_id":"ce4bhbp2rcd13ifvqerg","pricing_plan_id":"free"},{"bike_id":"680cdcce-b5d1-41cc-b967-ac83c12d209d","system_id":"levelo_inurba_marseille","lat":43.282744,"lon":5.350533,"is_reserved":false,"is_disabled":false,"rental_uris":{"android":"levelo://app?vid=680cdcce-b5d1-41cc-b967-ac83c12d209d","ios":"levelo://app?vid=680cdcce-b5d1-41cc-b967-ac83c12d209d"},"vehicle_type_id":"4","last_reported":1690643148,"current_range_meters":31200,"station_id":"ce4bhbp2rcd13ifvqerg","pricing_plan_id":"free"},{"bike_id":"3dd54fcc-5211-4694-ae39-a7afd685b01a","system_id":"levelo_inurba_marseille","lat":43.28262,"lon":5.35076,"is_reserved":false,"is_disabled":false,"rental_uris":{"android":"levelo://app?vid=3dd54fcc-5211-4694-ae39-a7afd685b01a","ios":"levelo://app?vid=3dd54fcc-5211-4694-ae39-a7afd685b01a"},"vehicle_type_id":"4","last_reported":1690643148,"current_range_meters":26000,"station_id":"ce4bhbp2rcd13ifvqerg","pricing_plan_id":"free"},{"bike_id":"16020aa8-29c7-4ce1-a383-1de54d661ae0","system_id":"levelo_inurba_marseille","lat":43.28262,"lon":5.35076,"is_reserved":false,"is_disabled":false,"rental_uris":{"android":"levelo://app?vid=16020aa8-29c7-4ce1-a383-1de54d661ae0","ios":"levelo://app?vid=16020aa8-29c7-4ce1-a383-1de54d661ae0"},"vehicle_type_id":"4","last_reported":1690643148,"current_range_meters":27600,"station_id":"ce4bhbp2rcd13ifvqerg","pricing_plan_id":"free"},{"bike_id":"850e5ade-c893-45fb-bb48-859588daa606","system_id":"levelo_inurba_marseille","lat":43.282754,"lon":5.350519,"is_reserved":false,"is_disabled":false,"rental_uris":{"android":"levelo://app?vid=850e5ade-c893-45fb-bb48-859588daa606","ios":"levelo://app?vid=850e5ade-c893-45fb-bb48-859588daa606"},"vehicle_type_id":"4","last_reported":1690643148,"current_range_meters":18000,"station_id":"ce4bhbp2rcd13ifvqerg","pricing_plan_id":"free"},{"bike_id":"0c2b1b0e-e4ea-4b20-b1fc-82caf6e9175c","system_id":"levelo_inurba_marseille","lat":43.28261,"lon":5.35078,"is_reserved":false,"is_disabled":false,"rental_uris":{"android":"levelo://app?vid=0c2b1b0e-e4ea-4b20-b1fc-82caf6e9175c","ios":"levelo://app?vid=0c2b1b0e-e4ea-4b20-b1fc-82caf6e9175c"},"vehicle_type_id":"4","last_reported":1690643148,"current_range_meters":21200,"station_id":"ce4bhbp2rcd13ifvqerg","pricing_plan_id":"free"},{"bike_id":"29c96b84-f378-499a-9b3d-7e8a9c99c2ae","system_id":"levelo_inurba_marseille","lat":43.282664,"lon":5.350573,"is_reserved":false,"is_disabled":false,"rental_uris":{"android":"levelo://app?vid=29c96b84-f378-499a-9b3d-7e8a9c99c2ae","ios":"levelo://app?vid=29c96b84-f378-499a-9b3d-7e8a9c99c2ae"},"vehicle_type_id":"4","last_reported":1690643148,"current_range_meters":24000,"station_id":"","pricing_plan_id":"free"},{"bike_id":"eda02c21-dd0b-4a7b-b78c-7f5048e04e56","system_id":"levelo_inurba_marseille","lat":43.282744,"lon":5.350533,"is_reserved":false,"is_disabled":false,"rental_uris":{"android":"levelo://app?vid=eda02c21-dd0b-4a7b-b78c-7f5048e04e56","ios":"levelo://app?vid=eda02c21-dd0b-4a7b-b78c-7f5048e04e56"},"vehicle_type_id":"4","last_reported":1690643148,"current_range_meters":31200,"station_id":"ce4bhbp2rcd13ifvqerg","pricing_plan_id":"free"},{"bike_id":"54ca3c60-0f83-48c5-8e22-c5de3432fa7e","system_id":"levelo_inurba_marseille","lat":43.28263,"lon":5.35062,"is_reserved":false,"is_disabled":false,"rental_uris":{"android":"levelo://app?vid=54ca3c60-0f83-48c5-8e22-c5de3432fa7e","ios":"levelo://app?vid=54ca3c60-0f83-48c5-8e22-c5de3432fa7e"},"vehicle_type_id":"4","last_reported":1690643148,"current_range_meters":31200,"station_id":"ce4bhbp2rcd13ifvqerg","pricing_plan_id":"free"},{"bike_id":"d6749849-702b-4aa7-a2da-57a0b19e5d7f","system_id":"levelo_inurba_marseille","lat":43.28262,"lon":5.35063,"is_reserved":false,"is_disabled":false,"rental_uris":{"android":"levelo://app?vid=d6749849-702b-4aa7-a2da-57a0b19e5d7f","ios":"levelo://app?vid=d6749849-702b-4aa7-a2da-57a0b19e5d7f"},"vehicle_type_id":"4","last_reported":1690643148,"current_range_meters":14000,"station_id":"ce4bhbp2rcd13ifvqerg","pricing_plan_id":"free"},{"bike_id":"01d00589-011a-4eb5-b57f-487700c9ede8","system_id":"levelo_inurba_marseille","lat":43.282754,"lon":5.350519,"is_reserved":false,"is_disabled":false,"rental_uris":{"android":"levelo://app?vid=01d00589-011a-4eb5-b57f-487700c9ede8","ios":"levelo://app?vid=01d00589-011a-4eb5-b57f-487700c9ede8"},"vehicle_type_id":"4","last_reported":1690643148,"current_range_meters":29600,"station_id":"ce4bhbp2rcd13ifvqerg","pricing_plan_id":"free"},{"bike_id":"012685c9-83a5-4cf4-a5a6-df7a538b590e","system_id":"levelo_inurba_marseille","lat":43.2826,"lon":5.35068,"is_reserved":false,"is_disabled":false,"rental_uris":{"android":"levelo://app?vid=012685c9-83a5-4cf4-a5a6-df7a538b590e","ios":"levelo://app?vid=012685c9-83a5-4cf4-a5a6-df7a538b590e"},"vehicle_type_id":"4","last_reported":1690643148,"current_range_meters":31200,"station_id":"ce4bhbp2rcd13ifvqerg","pricing_plan_id":"free"},{"bike_id":"99f7d7b6-30c9-4e70-b1e4-93c7cc377066","system_id":"levelo_inurba_marseille","lat":43.282744,"lon":5.350533,"is_reserved":false,"is_disabled":false,"rental_uris":{"android":"levelo://app?vid=99f7d7b6-30c9-4e70-b1e4-93c7cc377066","ios":"levelo://app?vid=99f7d7b6-30c9-4e70-b1e4-93c7cc377066"},"vehicle_type_id":"4","last_reported":1690643148,"current_range_meters":31200,"station_id":"ce4bhbp2rcd13ifvqerg","pricing_plan_id":"free"},{"bike_id":"310116e4-c066-4845-b90e-d028b7280339","system_id":"levelo_inurba_marseille","lat":43.282744,"lon":5.350533,"is_reserved":false,"is_disabled":false,"rental_uris":{"android":"levelo://app?vid=310116e4-c066-4845-b90e-d028b7280339","ios":"levelo://app?vid=310116e4-c066-4845-b90e-d028b7280339"},"vehicle_type_id":"4","last_reported":1690643148,"current_range_meters":31200,"station_id":"ce4bhbp2rcd13ifvqerg","pricing_plan_id":"free"},{"bike_id":"6a56621a-d51c-4759-98dc-b1ac8be3579c","system_id":"levelo_inurba_marseille","lat":43.28258,"lon":5.35064,"is_reserved":false,"is_disabled":false,"rental_uris":{"android":"levelo://app?vid=6a56621a-d51c-4759-98dc-b1ac8be3579c","ios":"levelo://app?vid=6a56621a-d51c-4759-98dc-b1ac8be3579c"},"vehicle_type_id":"4","last_reported":1690643148,"current_range_meters":29600,"station_id":"ce4bhbp2rcd13ifvqerg","pricing_plan_id":"free"},{"bike_id":"a8c24d88-705a-4bf2-a8b4-3b0d309f6402","system_id":"levelo_inurba_marseille","lat":43.32497,"lon":5.40818,"is_reserved":false,"is_disabled":false,"rental_uris":{"android":"levelo://app?vid=a8c24d88-705a-4bf2-a8b4-3b0d309f6402","ios":"levelo://app?vid=a8c24d88-705a-4bf2-a8b4-3b0d309f6402"},"vehicle_type_id":"4","last_reported":1690643148,"current_range_meters":12000,"station_id":"","pricing_plan_id":"free"},{"bike_id":"c2b20ad9-edd1-4e64-bb98-c8d073a542af","system_id":"levelo_inurba_marseille","lat":43.28039,"lon":5.369297,"is_reserved":false,"is_disabled":false,"rental_uris":{"android":"levelo://app?vid=c2b20ad9-edd1-4e64-bb98-c8d073a542af","ios":"levelo://app?vid=c2b20ad9-edd1-4e64-bb98-c8d073a542af"},"vehicle_type_id":"4","last_reported":1690643148,"current_range_meters":24800,"station_id":"ce4bha12rcd13ifvqef0","pricing_plan_id":"free"},{"bike_id":"0aae1381-5445-44b6-bf66-2b4afd7f17a9","system_id":"levelo_inurba_marseille","lat":43.28039,"lon":5.369297,"is_reserved":false,"is_disabled":false,"rental_uris":{"android":"levelo://app?vid=0aae1381-5445-44b6-bf66-2b4afd7f17a9","ios":"levelo://app?vid=0aae1381-5445-44b6-bf66-2b4afd7f17a9"},"vehicle_type_id":"4","last_reported":1690643148,"current_range_meters":17600,"station_id":"ce4bha12rcd13ifvqef0","pricing_plan_id":"free"},{"bike_id":"a94ebfae-3590-41e8-9a05-8fa829b82103","system_id":"levelo_inurba_marseille","lat":43.28031,"lon":5.3694,"is_reserved":false,"is_disabled":false,"rental_uris":{"android":"levelo://app?vid=a94ebfae-3590-41e8-9a05-8fa829b82103","ios":"levelo://app?vid=a94ebfae-3590-41e8-9a05-8fa829b82103"},"vehicle_type_id":"4","last_reported":1690643148,"current_range_meters":18400,"station_id":"ce4bha12rcd13ifvqef0","pricing_plan_id":"free"},{"bike_id":"b8a5ecf0-f3df-4e7f-ba38-036668dc9bdb","system_id":"levelo_inurba_marseille","lat":43.28101,"lon":5.37856,"is_reserved":false,"is_disabled":false,"rental_uris":{"android":"levelo://app?vid=b8a5ecf0-f3df-4e7f-ba38-036668dc9bdb","ios":"levelo://app?vid=b8a5ecf0-f3df-4e7f-ba38-036668dc9bdb"},"vehicle_type_id":"4","last_reported":1690643148,"current_range_meters":19600,"station_id":"ce4bha12rcd13ifvqee0","pricing_plan_id":"free"},{"bike_id":"4d3d8875-d340-4683-b724-d310e55bde1c","system_id":"levelo_inurba_marseille","lat":43.284462,"lon":5.392121,"is_reserved":false,"is_disabled":false,"rental_uris":{"android":"levelo://app?vid=4d3d8875-d340-4683-b724-d310e55bde1c","ios":"levelo://app?vid=4d3d8875-d340-4683-b724-d310e55bde1c"},"vehicle_type_id":"4","last_reported":1690643148,"current_range_meters":7200,"station_id":"ce4bhoh2rcd13ifvqh5g","pricing_plan_id":"free"},{"bike_id":"a7670790-e652-48be-ab71-63d783184e48","system_id":"levelo_inurba_marseille","lat":43.284462,"lon":5.392121,"is_reserved":false,"is_disabled":false,"rental_uris":{"android":"levelo://app?vid=a7670790-e652-48be-ab71-63d783184e48","ios":"levelo://app?vid=a7670790-e652-48be-ab71-63d783184e48"},"vehicle_type_id":"4","last_reported":1690643148,"current_range_meters":26000,"station_id":"ce4bhoh2rcd13ifvqh5g","pricing_plan_id":"free"},{"bike_id":"012eb806-002c-4302-9c3e-e08fbcf4dc26","system_id":"levelo_inurba_marseille","lat":43.285742,"lon":5.395004,"is_reserved":false,"is_disabled":false,"rental_uris":{"android":"levelo://app?vid=012eb806-002c-4302-9c3e-e08fbcf4dc26","ios":"levelo://app?vid=012eb806-002c-4302-9c3e-e08fbcf4dc26"},"vehicle_type_id":"4","last_reported":1690643148,"current_range_meters":8800,"station_id":"ce4bh292rcd13ifvqdg0","pricing_plan_id":"free"},{"bike_id":"fde91f9d-00cf-4058-a0c1-56c8c23fe859","system_id":"levelo_inurba_marseille","lat":43.32625,"lon":5.41014,"is_reserved":false,"is_disabled":false,"rental_uris":{"android":"levelo://app?vid=fde91f9d-00cf-4058-a0c1-56c8c23fe859","ios":"levelo://app?vid=fde91f9d-00cf-4058-a0c1-56c8c23fe859"},"vehicle_type_id":"4","last_reported":1690643148,"current_range_meters":25200,"station_id":"ce4bhpp2rcd13ifvqhgg","pricing_plan_id":"free"},{"bike_id":"ccd5d3e5-c34e-45d4-b107-c8731f1632b2","system_id":"levelo_inurba_marseille","lat":43.30425,"lon":5.41282,"is_reserved":false,"is_disabled":false,"rental_uris":{"android":"levelo://app?vid=ccd5d3e5-c34e-45d4-b107-c8731f1632b2","ios":"levelo://app?vid=ccd5d3e5-c34e-45d4-b107-c8731f1632b2"},"vehicle_type_id":"4","last_reported":1690643148,"current_range_meters":30000,"station_id":"ce4bhop2rcd13ifvqh8g","pricing_plan_id":"free"},{"bike_id":"decabf2e-ae4a-4ff0-9d85-93acca9c3e5c","system_id":"levelo_inurba_marseille","lat":43.304188,"lon":5.412904,"is_reserved":false,"is_disabled":false,"rental_uris":{"android":"levelo://app?vid=decabf2e-ae4a-4ff0-9d85-93acca9c3e5c","ios":"levelo://app?vid=decabf2e-ae4a-4ff0-9d85-93acca9c3e5c"},"vehicle_type_id":"4","last_reported":1690643148,"current_range_meters":31200,"station_id":"ce4bhop2rcd13ifvqh8g","pricing_plan_id":"free"},{"bike_id":"49873cdb-256f-4b62-a049-d110f34938e6","system_id":"levelo_inurba_marseille","lat":43.304188,"lon":5.412904,"is_reserved":false,"is_disabled":false,"rental_uris":{"android":"levelo://app?vid=49873cdb-256f-4b62-a049-d110f34938e6","ios":"levelo://app?vid=49873cdb-256f-4b62-a049-d110f34938e6"},"vehicle_type_id":"4","last_reported":1690643148,"current_range_meters":31200,"station_id":"ce4bhop2rcd13ifvqh8g","pricing_plan_id":"free"},{"bike_id":"c646d565-f64b-4dba-9b8e-ff974db1c550","system_id":"levelo_inurba_marseille","lat":43.304188,"lon":5.412904,"is_reserved":false,"is_disabled":false,"rental_uris":{"android":"levelo://app?vid=c646d565-f64b-4dba-9b8e-ff974db1c550","ios":"levelo://app?vid=c646d565-f64b-4dba-9b8e-ff974db1c550"},"vehicle_type_id":"4","last_reported":1690643148,"current_range_meters":31200,"station_id":"ce4bhop2rcd13ifvqh8g","pricing_plan_id":"free"},{"bike_id":"f0cc60dd-f612-4c9a-ad80-93b6785891ed","system_id":"levelo_inurba_marseille","lat":43.304188,"lon":5.412904,"is_reserved":false,"is_disabled":false,"rental_uris":{"android":"levelo://app?vid=f0cc60dd-f612-4c9a-ad80-93b6785891ed","ios":"levelo://app?vid=f0cc60dd-f612-4c9a-ad80-93b6785891ed"},"vehicle_type_id":"4","last_reported":1690643148,"current_range_meters":31200,"station_id":"ce4bhop2rcd13ifvqh8g","pricing_plan_id":"free"},{"bike_id":"da067921-fe96-4e3a-9f2b-5a2b08411a8d","system_id":"levelo_inurba_marseille","lat":43.279087,"lon":5.380114,"is_reserved":false,"is_disabled":false,"rental_uris":{"android":"levelo://app?vid=da067921-fe96-4e3a-9f2b-5a2b08411a8d","ios":"levelo://app?vid=da067921-fe96-4e3a-9f2b-5a2b08411a8d"},"vehicle_type_id":"4","last_reported":1690643148,"current_range_meters":11200,"station_id":"ce4bhf92rcd13ifvqf50","pricing_plan_id":"free"},{"bike_id":"da74851f-183f-4ed8-bc32-44e1d656b516","system_id":"levelo_inurba_marseille","lat":43.32095,"lon":5.41512,"is_reserved":false,"is_disabled":false,"rental_uris":{"android":"levelo://app?vid=da74851f-183f-4ed8-bc32-44e1d656b516","ios":"levelo://app?vid=da74851f-183f-4ed8-bc32-44e1d656b516"},"vehicle_type_id":"4","last_reported":1690643148,"current_range_meters":22400,"station_id":"","pricing_plan_id":"free"},{"bike_id":"e9fbe7f4-c376-4a74-9a01-c2dfa71d30c2","system_id":"levelo_inurba_marseille","lat":43.3209,"lon":5.41514,"is_reserved":false,"is_disabled":false,"rental_uris":{"android":"levelo://app?vid=e9fbe7f4-c376-4a74-9a01-c2dfa71d30c2","ios":"levelo://app?vid=e9fbe7f4-c376-4a74-9a01-c2dfa71d30c2"},"vehicle_type_id":"4","last_reported":1690643148,"current_range_meters":18800,"station_id":"","pricing_plan_id":"free"},{"bike_id":"ed39cd03-220c-4cb5-a271-a5b172ab8446","system_id":"levelo_inurba_marseille","lat":43.299577,"lon":5.413277,"is_reserved":false,"is_disabled":false,"rental_uris":{"android":"levelo://app?vid=ed39cd03-220c-4cb5-a271-a5b172ab8446","ios":"levelo://app?vid=ed39cd03-220c-4cb5-a271-a5b172ab8446"},"vehicle_type_id":"4","last_reported":1690643148,"current_range_meters":31200,"station_id":"ce4bhp12rcd13ifvqh9g","pricing_plan_id":"free"},