{"last_updated":1757794126,"ttl":60,"version":"2.2","data":{"bikes":[{"bike_id":"21ac057d-0c51-45b2-b9ba-59e547ad5c9f","system_id":"levelo_inurba_marseille","lat":43.305403,"lon":5.365516,"is_reserved":false,"is_disabled":false,"rental_uris":{"android":"levelo://app?vid=21ac057d-0c51-45b2-b9ba-59e547ad5c9f","ios":"levelo://app?vid=21ac057d-0c51-45b2-b9ba-59e547ad5c9f"},"vehicle_type_id":"4","last_reported":1757794126,"current_range_meters":2800,"station_id":"ce4bgs12rcd13ifvqcag","pricing_plan_id":"cebpf4jnsgd1na2vs0mg"},{"bike_id":"a0e6c708-a494-4f30-9766-7bb44c046355","system_id":"levelo_inurba_marseille","lat":43.26558,"lon":5.40328,"is_reserved":false,"is_disabled":false,"rental_uris":{"android":"levelo://app?vid=a0e6c708-a494-4f30-9766-7bb44c046355","ios":"levelo://app?vid=a0e6c708-a494-4f30-9766-7bb44c046355"},"vehicle_type_id":"4","last_reported":1757794126,"current_range_meters":2800,"station_id":"ce4bhmp2rcd13ifvqgng","pricing_plan_id":"cebpf4jnsgd1na2vs0mg"},{"bike_id":"07126d2a-5fd2-452d-8d03-e2d4e2410e4c","system_id":"levelo_inurba_marseille","lat":43.26218,"lon":5.40449,"is_reserved":false,"is_disabled":false,"rental_uris":{"android":"levelo://app?vid=07126d2a-5fd2-452d-8d03-e2d4e2410e4c","ios":"levelo://app?vid=07126d2a-5fd2-452d-8d03-e2d4e2410e4c"},"vehicle_type_id":"4","last_reported":1757794126,"current_range_meters":2800,"station_id":"ce4bhmh2rcd13ifvqgmg","pricing_plan_id":"cebpf4jnsgd1na2vs0mg"},{"bike_id":"829e3d43-b7fd-4fdb-a348-26986d341284","system_id":"levelo_inurba_marseille","lat":43.21743,"lon":5.34609,"is_reserved":false,"is_disabled":false,"rental_uris":{"android":"levelo://app?vid=829e3d43-b7fd-4fdb-a348-26986d341284","ios":"levelo://app?vid=829e3d43-b7fd-4fdb-a348-26986d341284"},"vehicle_type_id":"4","last_reported":1757794126,"current_range_meters":2800,"station_id":"st_cvj6r9ubvosntc0bgbag","pricing_plan_id":"cebpf4jnsgd1na2vs0mg"},{"bike_id":"e313b345-ef08-4d16-85af-9ecb95c2b843","system_id":"levelo_inurba_marseille","lat":43.30493,"lon":5.36772,"is_reserved":false,"is_disabled":false,"rental_uris":{"android":"levelo://app?vid=e313b345-ef08-4d16-85af-9ecb95c2b843","ios":"levelo://app?vid=e313b345-ef08-4d16-85af-9ecb95c2b843"},"vehicle_type_id":"4","last_reported":1757794126,"current_range_meters":3200,"station_id":"","pricing_plan_id":"cebpf4jnsgd1na2vs0mg"},{"bike_id":"0d5f76d9-c63d-4f13-9d2b-2a8b39aac158","system_id":"levelo_inurba_marseille","lat":43.26572,"lon":5.39009,"is_reserved":false,"is_disabled":false,"rental_uris":{"android":"levelo://app?vid=0d5f76d9-c63d-4f13-9d2b-2a8b39aac158","ios":"levelo://app?vid=0d5f76d9-c63d-4f13-9d2b-2a8b39aac158"},"vehicle_type_id":"4","last_reported":1757794126,"current_range_meters":3200,"station_id":"ce4bhe12rcd13ifvqf30","pricing_plan_id":"cebpf4jnsgd1na2vs0mg"},{"bike_id":"53554954-4092-48b0-bc91-1df4ef132f87","system_id":"levelo_inurba_marseille","lat":43.27619,"lon":5.36174,"is_reserved":false,"is_disabled":false,"rental_uris":{"android":"levelo://app?vid=53554954-4092-48b0-bc91-1df4ef132f87","ios":"levelo://app?vid=53554954-4092-48b0-bc91-1df4ef132f87"},"vehicle_type_id":"4","last_reported":1757794126,"current_range_meters":3600,"station_id":"","pricing_plan_id":"cebpf4jnsgd1na2vs0mg"},{"bike_id":"3258e62d-d54e-423a-82f8-b3e66399dbec","system_id":"levelo_inurba_marseille","lat":43.29802,"lon":5.38104,"is_reserved":false,"is_disabled":true,"rental_uris":{"android":"levelo://app?vid=3258e62d-d54e-423a-82f8-b3e66399dbec","ios":"levelo://app?vid=3258e62d-d54e-423a-82f8-b3e66399dbec"},"vehicle_type_id":"4","last_reported":1757794126,"current_range_meters":3600,"station_id":"ce4bgip2rcd13ifvqbb0","pricing_plan_id":"cebpf4jnsgd1na2vs0mg"},{"bike_id":"5aa58f4d-1b3c-49ee-9288-730307080e62","system_id":"levelo_inurba_marseille","lat":43.28988,"lon":5.37842,"is_reserved":false,"is_disabled":false,"rental_uris":{"android":"levelo://app?vid=5aa58f4d-1b3c-49ee-9288-730307080e62","ios":"levelo://app?vid=5aa58f4d-1b3c-49ee-9288-730307080e62"},"vehicle_type_id":"4","last_reported":1757794126,"current_range_meters":3600,"station_id":"ce4bh9p2rcd13ifvqed0","pricing_plan_id":"cebpf4jnsgd1na2vs0mg"},{"bike_id":"8e823669-a05c-4f14-a05f-6373bb94f16b","system_id":"levelo_inurba_marseille","lat":43.307288,"lon":5.372792,"is_reserved":false,"is_disabled":false,"rental_uris":{"android":"levelo://app?vid=8e823669-a05c-4f14-a05f-6373bb94f16b","ios":"levelo://app?vid=8e823669-a05c-4f14-a05f-6373bb94f16b"},"vehicle_type_id":"4","last_reported":1757794126,"current_range_meters":4000,"station_id":"","pricing_plan_id":"cebpf4jnsgd1na2vs0mg"},{"bike_id":"efcbc95c-850b-4cc0-9dcc-09f914352431","system_id":"levelo_inurba_marseille","lat":43.22933,"lon":5.35376,"is_reserved":false,"is_disabled":false,"rental_uris":{"android":"levelo://app?vid=efcbc95c-850b-4cc0-9dcc-09f914352431","ios":"levelo://app?vid=efcbc95c-850b-4cc0-9dcc-09f914352431"},"vehicle_type_id":"4","last_reported":1757794126,"current_range_meters":4000,"station_id":"cpo3532slgdg3j2ikp40","pricing_plan_id":"cebpf4jnsgd1na2vs0mg"},{"bike_id":"84c71451-2408-4bb5-ad22-fc13fc0637fe","system_id":"levelo_inurba_marseille","lat":43.30905,"lon":5.36852,"is_reserved":false,"is_disabled":false,"rental_uris":{"android":"levelo://app?vid=84c71451-2408-4bb5-ad22-fc13fc0637fe","ios":"levelo://app?vid=84c71451-2408-4bb5-ad22-fc13fc0637fe"},"vehicle_type_id":"4","last_reported":1757794126,"current_range_meters":4000,"station_id":"ce4bgn92rcd13ifvqbvg","pricing_plan_id":"cebpf4jnsgd1na2vs0mg"},{"bike_id":"fe8d88d6-81c3-42a8-85bb-3d0aa4841db3","system_id":"levelo_inurba_marseille","lat":43.337444,"lon":5.374475,"is_reserved":false,"is_disabled":false,"rental_uris":{"android":"levelo://app?vid=fe8d88d6-81c3-42a8-85bb-3d0aa4841db3","ios":"levelo://app?vid=fe8d88d6-81c3-42a8-85bb-3d0aa4841db3"},"vehicle_type_id":"4","last_reported":1757794126,"current_range_meters":4000,"station_id":"","pricing_plan_id":"cebpf4jnsgd1na2vs0mg"},{"bike_id":"d1de2b7d-3583-4df3-8bfa-43eda5116068","system_id":"levelo_inurba_marseille","lat":43.3374,"lon":5.37468,"is_reserved":false,"is_disabled":false,"rental_uris":{"android":"levelo://app?vid=d1de2b7d-3583-4df3-8bfa-43eda5116068","ios":"levelo://app?vid=d1de2b7d-3583-4df3-8bfa-43eda5116068"},"vehicle_type_id":"4","last_reported":1757794126,"current_range_meters":4000,"station_id":"","pricing_plan_id":"cebpf4jnsgd1na2vs0mg"},{"bike_id":"d1208639-5703-4ac3-a303-6e72a5788218","system_id":"levelo_inurba_marseille","lat":43.33753,"lon":5.37475,"is_reserved":false,"is_disabled":false,"rental_uris":{"android":"levelo://app?vid=d1208639-5703-4ac3-a303-6e72a5788218","ios":"levelo://app?vid=d1208639-5703-4ac3-a303-6e72a5788218"},"vehicle_type_id":"4","last_reported":1757794126,"current_range_meters":4000,"station_id":"","pricing_plan_id":"cebpf4jnsgd1na2vs0mg"},{"bike_id":"999df056-799c-417e-807e-52608d0b797e","system_id":"levelo_inurba_marseille","lat":43.297101,"lon":5.377007,"is_reserved":false,"is_disabled":false,"rental_uris":{"android":"levelo://app?vid=999df056-799c-417e-807e-52608d0b797e","ios":"levelo://app?vid=999df056-799c-417e-807e-52608d0b797e"},"vehicle_type_id":"4","last_reported":1757794126,"current_range_meters":4400,"station_id":"","pricing_plan_id":"cebpf4jnsgd1na2vs0mg"},{"bike_id":"256f78fb-d327-4237-9582-b154afa07f2d","system_id":"levelo_inurba_marseille","lat":43.30454,"lon":5.37932,"is_reserved":false,"is_disabled":false,"rental_uris":{"android":"levelo://app?vid=256f78fb-d327-4237-9582-b154afa07f2d","ios":"levelo://app?vid=256f78fb-d327-4237-9582-b154afa07f2d"},"vehicle_type_id":"4","last_reported":1757794126,"current_range_meters":4400,"station_id":"","pricing_plan_id":"cebpf4jnsgd1na2vs0mg"},{"bike_id":"c4c9a1d6-ac8a-42ea-b5a3-53c06657be39","system_id":"levelo_inurba_marseille","lat":43.24654,"lon":5.38168,"is_reserved":false,"is_disabled":false,"rental_uris":{"android":"levelo://app?vid=c4c9a1d6-ac8a-42ea-b5a3-53c06657be39","ios":"levelo://app?vid=c4c9a1d6-ac8a-42ea-b5a3-53c06657be39"},"vehicle_type_id":"4","last_reported":1757794126,"current_range_meters":4400,"station_id":"ce4bhih2rcd13ifvqfr0","pricing_plan_id":"cebpf4jnsgd1na2vs0mg"},{"bike_id":"618fb877-77aa-4758-822c-71c574b4844a","system_id":"levelo_inurba_marseille","lat":43.24387,"lon":5.37063,"is_reserved":false,"is_disabled":false,"rental_uris":{"android":"levelo://app?vid=618fb877-77aa-4758-822c-71c574b4844a","ios":"levelo://app?vid=618fb877-77aa-4758-822c-71c574b4844a"},"vehicle_type_id":"4","last_reported":1757794126,"current_range_meters":4400,"station_id":"ce4bhhh2rcd13ifvqfk0","pricing_plan_id":"cebpf4jnsgd1na2vs0mg"},{"bike_id":"fe8ea19a-9452-430b-9391-4bd937dd3622","system_id":"levelo_inurba_marseille","lat":43.2836,"lon":5.39041,"is_reserved":false,"is_disabled":false,"rental_uris":{"android":"levelo://app?vid=fe8ea19a-9452-430b-9391-4bd937dd3622","ios":"levelo://app?vid=fe8ea19a-9452-430b-9391-4bd937dd3622"},"vehicle_type_id":"4","last_reported":1757794126,"current_range_meters":4800,"station_id":"","pricing_plan_id":"cebpf4jnsgd1na2vs0mg"},{"bike_id":"d780a309-5e28-465a-9d4f-077b9cdae885","system_id":"levelo_inurba_marseille","lat":43.31712,"lon":5.43707,"is_reserved":false,"is_disabled":false,"rental_uris":{"android":"levelo://app?vid=d780a309-5e28-465a-9d4f-077b9cdae885","ios":"levelo://app?vid=d780a309-5e28-465a-9d4f-077b9cdae885"},"vehicle_type_id":"4","last_reported":1757794126,"current_range_meters":4800,"station_id":"ce4bhp92rcd13ifvqhcg","pricing_plan_id":"cebpf4jnsgd1na2vs0mg"},{"bike_id":"e4068744-5d25-4b07-891c-8659872c781e","system_id":"levelo_inurba_marseille","lat":43.26022,"lon":5.37545,"is_reserved":false,"is_disabled":false,"rental_uris":{"android":"levelo://app?vid=e4068744-5d25-4b07-891c-8659872c781e","ios":"levelo://app?vid=e4068744-5d25-4b07-891c-8659872c781e"},"vehicle_type_id":"4","last_reported":1757794126,"current_range_meters":4800,"station_id":"ce4bhgh2rcd13ifvqfa0","pricing_plan_id":"cebpf4jnsgd1na2vs0mg"},{"bike_id":"4c1cf1ea-5b82-43b9-ab7a-13709ed8e0d9","system_id":"levelo_inurba_marseille","lat":43.29529,"lon":5.38547,"is_reserved":false,"is_disabled":false,"rental_uris":{"android":"levelo://app?vid=4c1cf1ea-5b82-43b9-ab7a-13709ed8e0d9","ios":"levelo://app?vid=4c1cf1ea-5b82-43b9-ab7a-13709ed8e0d9"},"vehicle_type_id":"4","last_reported":1757794126,"current_range_meters":5600,"station_id":"ce4bgih2rcd13ifvqba0","pricing_plan_id":"cebpf4jnsgd1na2vs0mg"},{"bike_id":"8ed50a67-a984-47ae-b7b1-07e37f9e3a73","system_id":"levelo_inurba_marseille","lat":43.27999,"lon":5.41665,"is_reserved":false,"is_disabled":false,"rental_uris":{"android":"levelo://app?vid=8ed50a67-a984-47ae-b7b1-07e37f9e3a73","ios":"levelo://app?vid=8ed50a67-a984-47ae-b7b1-07e37f9e3a73"},"vehicle_type_id":"4","last_reported":1757794126,"current_range_meters":5600,"station_id":"ce4bho12rcd13ifvqh1g","pricing_plan_id":"cebpf4jnsgd1na2vs0mg"},{"bike_id":"ba46a4b6-1b90-4c16-85ba-7e171043c85f","system_id":"levelo_inurba_marseille","lat":43.31715,"lon":5.43707,"is_reserved":false,"is_disabled":false,"rental_uris":{"android":"levelo://app?vid=ba46a4b6-1b90-4c16-85ba-7e171043c85f","ios":"levelo://app?vid=ba46a4b6-1b90-4c16-85ba-7e171043c85f"},"vehicle_type_id":"4","last_reported":1757794126,"current_range_meters":5600,"station_id":"ce4bhp92rcd13ifvqhcg","pricing_plan_id":"cebpf4jnsgd1na2vs0mg"},{"bike_id":"646961bf-46f3-4b7e-8767-02cd8b541df8","system_id":"levelo_inurba_marseille","lat":43.30429,"lon":5.37939,"is_reserved":false,"is_disabled":false,"rental_uris":{"android":"levelo://app?vid=646961bf-46f3-4b7e-8767-02cd8b541df8","ios":"levelo://app?vid=646961bf-46f3-4b7e-8767-02cd8b541df8"},"vehicle_type_id":"4","last_reported":1757794126,"current_range_meters":6000,"station_id":"","pricing_plan_id":"cebpf4jnsgd1na2vs0mg"},{"bike_id":"84cfaee4-1b7c-43df-a018-15572b767a2c","system_id":"levelo_inurba_marseille","lat":43.30425,"lon":5.39751,"is_reserved":false,"is_disabled":false,"rental_uris":{"android":"levelo://app?vid=84cfaee4-1b7c-43df-a018-15572b767a2c","ios":"levelo://app?vid=84cfaee4-1b7c-43df-a018-15572b767a2c"},"vehicle_type_id":"4","last_reported":1757794126,"current_range_meters":6000,"station_id":"ce4bh092rcd13ifvqd20","pricing_plan_id":"cebpf4jnsgd1na2vs0mg"},{"bike_id":"8daef93f-30c9-48b2-9910-1aca48b54d7f","system_id":"levelo_inurba_marseille","lat":43.30486,"lon":5.37918,"is_reserved":false,"is_disabled":false,"rental_uris":{"android":"levelo://app?vid=8daef93f-30c9-48b2-9910-1aca48b54d7f","ios":"levelo://app?vid=8daef93f-30c9-48b2-9910-1aca48b54d7f"},"vehicle_type_id":"4","last_reported":1757794126,"current_range_meters":6000,"station_id":"","pricing_plan_id":"cebpf4jnsgd1na2vs0mg"},{"bike_id":"e7b57c99-b225-4a11-bb07-a15c96cd8971","system_id":"levelo_inurba_marseille","lat":43.27934,"lon":5.41067,"is_reserved":false,"is_disabled":false,"rental_uris":{"android":"levelo://app?vid=e7b57c99-b225-4a11-bb07-a15c96cd8971","ios":"levelo://app?vid=e7b57c99-b225-4a11-bb07-a15c96cd8971"},"vehicle_type_id":"4","last_reported":1757794126,"current_range_meters":6000,"station_id":"ce4bhnp2rcd13ifvqh0g","pricing_plan_id":"cebpf4jnsgd1na2vs0mg"},{"bike_id":"c8cf3e69-16cf-46e0-aed8-93ab85aba436","system_id":"levelo_inurba_marseille","lat":43.24403,"lon":5.37097,"is_reserved":false,"is_disabled":false,"rental_uris":{"android":"levelo://app?vid=c8cf3e69-16cf-46e0-aed8-93ab85aba436","ios":"levelo://app?vid=c8cf3e69-16cf-46e0-aed8-93ab85aba436"},"vehicle_type_id":"4","last_reported":1757794126,"current_range_meters":6000,"station_id":"","pricing_plan_id":"cebpf4jnsgd1na2vs0mg"},{"bike_id":"6e59f3a2-8d5f-43b8-809a-186247e3e0d0","system_id":"levelo_inurba_marseille","lat":43.23184,"lon":5.39994,"is_reserved":false,"is_disabled":false,"rental_uris":{"android":"levelo://app?vid=6e59f3a2-8d5f-43b8-809a-186247e3e0d0","ios":"levelo://app?vid=6e59f3a2-8d5f-43b8-809a-186247e3e0d0"},"vehicle_type_id":"4","last_reported":1757794126,"current_range_meters":6000,"station_id":"ce4bhn12rcd13ifvqgqg","pricing_plan_id":"cebpf4jnsgd1na2vs0mg"},{"bike_id":"9a24a4f4-41f7-4810-bda5-c96a460f72fc","system_id":"levelo_inurba_marseille","lat":43.274927,"lon":5.424491,"is_reserved":false,"is_disabled":false,"rental_uris":{"android":"levelo://app?vid=9a24a4f4-41f7-4810-bda5-c96a460f72fc","ios":"levelo://app?vid=9a24a4f4-41f7-4810-bda5-c96a460f72fc"},"vehicle_type_id":"4","last_reported":1757794126,"current_range_meters":6400,"station_id":"ce4bhn92rcd13ifvqgrg","pricing_plan_id":"cebpf4jnsgd1na2vs0mg"},{"bike_id":"44e5c786-f2f3-4d83-a38b-2da8f838dc03","system_id":"levelo_inurba_marseille","lat":43.28002,"lon":5.40029,"is_reserved":false,"is_disabled":false,"rental_uris":{"android":"levelo://app?vid=44e5c786-f2f3-4d83-a38b-2da8f838dc03","ios":"levelo://app?vid=44e5c786-f2f3-4d83-a38b-2da8f838dc03"},"vehicle_type_id":"4","last_reported":1757794126,"current_range_meters":6800,"station_id":"ce4bho92rcd13ifvqh4g","pricing_plan_id":"cebpf4jnsgd1na2vs0mg"},{"bike_id":"9df09255-28e6-44c3-9271-8089c9b64cd2","system_id":"levelo_inurba_marseille","lat":43.27207,"lon":5.39185,"is_reserved":false,"is_disabled":false,"rental_uris":{"android":"levelo://app?vid=9df09255-28e6-44c3-9271-8089c9b64cd2","ios":"levelo://app?vid=9df09255-28e6-44c3-9271-8089c9b64cd2"},"vehicle_type_id":"4","last_reported":1757794126,"current_range_meters":6800,"station_id":"ce4bhhp2rcd13ifvqfm0","pricing_plan_id":"cebpf4jnsgd1na2vs0mg"},{"bike_id":"4de2ad5a-7738-4213-8dbf-ce05c92d43e7","system_id":"levelo_inurba_marseille","lat":43.26687,"lon":5.38267,"is_reserved":false,"is_disabled":false,"rental_uris":{"android":"levelo://app?vid=4de2ad5a-7738-4213-8dbf-ce05c92d43e7","ios":"levelo://app?vid=4de2ad5a-7738-4213-8dbf-ce05c92d43e7"},"vehicle_type_id":"4","last_reported":1757794126,"current_range_meters":6800,"station_id":"ce4bhg92rcd13ifvqf90","pricing_plan_id":"cebpf4jnsgd1na2vs0mg"},{"bike_id":"24665070-43d5-48f1-934c-c4e1453fbc65","system_id":"levelo_inurba_marseille","lat":43.26699,"lon":5.38268,"is_reserved":false,"is_disabled":true,"rental_uris":{"android":"levelo://app?vid=24665070-43d5-48f1-934c-c4e1453fbc65","ios":"levelo://app?vid=24665070-43d5-48f1-934c-c4e1453fbc65"},"vehicle_type_id":"4","last_reported":1757794126,"current_range_meters":6800,"station_id":"ce4bhg92rcd13ifvqf90","pricing_plan_id":"cebpf4jnsgd1na2vs0mg"},{"bike_id":"2f3f8d43-a112-45e6-979c-f1c7564514ec","system_id":"levelo_inurba_marseille","lat":43.30475,"lon":5.37905,"is_reserved":false,"is_disabled":false,"rental_uris":{"android":"levelo://app?vid=2f3f8d43-a112-45e6-979c-f1c7564514ec","ios":"levelo://app?vid=2f3f8d43-a112-45e6-979c-f1c7564514ec"},"vehicle_type_id":"4","last_reported":1757794126,"current_range_meters":7200,"station_id":"","pricing_plan_id":"cebpf4jnsgd1na2vs0mg"},{"bike_id":"5044162e-6817-4aec-9a91-487c2fc824e7","system_id":"levelo_inurba_marseille","lat":43.30488,"lon":5.37941,"is_reserved":false,"is_disabled":false,"rental_uris":{"android":"levelo://app?vid=5044162e-6817-4aec-9a91-487c2fc824e7","ios":"levelo://app?vid=5044162e-6817-4aec-9a91-487c2fc824e7"},"vehicle_type_id":"4","last_reported":1757794126,"current_range_meters":7200,"station_id":"","pricing_plan_id":"cebpf4jnsgd1na2vs0mg"},{"bike_id":"ef47b351-81e8-44db-908b-74e609c6198f","system_id":"levelo_inurba_marseille","lat":43.27371,"lon":5.36262,"is_reserved":false,"is_disabled":false,"rental_uris":{"android":"levelo://app?vid=ef47b351-81e8-44db-908b-74e609c6198f","ios":"levelo://app?vid=ef47b351-81e8-44db-908b-74e609c6198f"},"vehicle_type_id":"4","last_reported":1757794126,"current_range_meters":7200,"station_id":"ce4bhbh2rcd13ifvqeo0","pricing_plan_id":"cebpf4jnsgd1na2vs0mg"},{"bike_id":"95228931-f122-4e75-97af-01dc8ce42769","system_id":"levelo_inurba_marseille","lat":43.269328,"lon":5.402682,"is_reserved":false,"is_disabled":false,"rental_uris":{"android":"levelo://app?vid=95228931-f122-4e75-97af-01dc8ce42769","ios":"levelo://app?vid=95228931-f122-4e75-97af-01dc8ce42769"},"vehicle_type_id":"4","last_reported":1757794126,"current_range_meters":8000,"station_id":"cjm6bp8fraef2m0cb0m0","pricing_plan_id":"cebpf4jnsgd1na2vs0mg"},{"bike_id":"d8f70efe-b3d4-4c6b-a53c-3f0190de4b9c","system_id":"levelo_inurba_marseille","lat":43.30306,"lon":5.40445,"is_reserved":false,"is_disabled":false,"rental_uris":{"android":"levelo://app?vid=d8f70efe-b3d4-4c6b-a53c-3f0190de4b9c","ios":"levelo://app?vid=d8f70efe-b3d4-4c6b-a53c-3f0190de4b9c"},"vehicle_type_id":"4","last_reported":1757794126,"current_range_meters":8000,"station_id":"ce4bh012rcd13ifvqd10","pricing_plan_id":"cebpf4jnsgd1na2vs0mg"},{"bike_id":"6b840e18-f568-449f-9ed2-7b4167ae29fc","system_id":"levelo_inurba_marseille","lat":43.29279,"lon":5.38461,"is_reserved":false,"is_disabled":false,"rental_uris":{"android":"levelo://app?vid=6b840e18-f568-449f-9ed2-7b4167ae29fc","ios":"levelo://app?vid=6b840e18-f568-449f-9ed2-7b4167ae29fc"},"vehicle_type_id":"4","last_reported":1757794126,"current_range_meters":8000,"station_id":"ce4bh692rcd13ifvqea0","pricing_plan_id":"cebpf4jnsgd1na2vs0mg"},{"bike_id":"972b4c5f-3a00-4bb2-9116-b81f2cecc9f2","system_id":"levelo_inurba_marseille","lat":43.33764,"lon":5.37483,"is_reserved":false,"is_disabled":false,"rental_uris":{"android":"levelo://app?vid=972b4c5f-3a00-4bb2-9116-b81f2cecc9f2","ios":"levelo://app?vid=972b4c5f-3a00-4bb2-9116-b81f2cecc9f2"},"vehicle_type_id":"4","last_reported":1757794126,"current_range_meters":8000,"station_id":"","pricing_plan_id":"cebpf4jnsgd1na2vs0mg"},{"bike_id":"131f662c-2f5f-4a71-9b61-1e81f408d142","system_id":"levelo_inurba_marseille","lat":43.24997,"lon":5.38935,"is_reserved":false,"is_disabled":false,"rental_uris":{"android":"levelo://app?vid=131f662c-2f5f-4a71-9b61-1e81f408d142","ios":"levelo://app?vid=131f662c-2f5f-4a71-9b61-1e81f408d142"},"vehicle_type_id":"4","last_reported":1757794126,"current_range_meters":8000,"station_id":"ce4bhgp2rcd13ifvqfd0","pricing_plan_id":"cebpf4jnsgd1na2vs0mg"},{"bike_id":"a3977072-5f91-4a68-b0d6-dc3cb909a337","system_id":"levelo_inurba_marseille","lat":43.33755,"lon":5.37474,"is_reserved":false,"is_disabled":false,"rental_uris":{"android":"levelo://app?vid=a3977072-5f91-4a68-b0d6-dc3cb909a337","ios":"levelo://app?vid=a3977072-5f91-4a68-b0d6-dc3cb909a337"},"vehicle_type_id":"4","last_reported":1757794126,"current_range_meters":8400,"station_id":"","pricing_plan_id":"cebpf4jnsgd1na2vs0mg"},{"bike_id":"dbbfb935-0bb0-4588-9598-d952a992d421","system_id":"levelo_inurba_marseille","lat":43.3089,"lon":5.37198,"is_reserved":false,"is_disabled":false,"rental_uris":{"android":"levelo://app?vid=dbbfb935-0bb0-4588-9598-d952a992d421","ios":"levelo://app?vid=dbbfb935-0bb0-4588-9598-d952a992d421"},"vehicle_type_id":"4","last_reported":1757794126,"current_range_meters":8400,"station_id":"ce4bguh2rcd13ifvqckg","pricing_plan_id":"cebpf4jnsgd1na2vs0mg"},{"bike_id":"dc1ea723-8812-4c32-806d-c9fb24ddc950","system_id":"levelo_inurba_marseille","lat":43.29572,"lon":5.3997,"is_reserved":false,"is_disabled":false,"rental_uris":{"android":"levelo://app?vid=dc1ea723-8812-4c32-806d-c9fb24ddc950","ios":"levelo://app?vid=dc1ea723-8812-4c32-806d-c9fb24ddc950"},"vehicle_type_id":"4","last_reported":1757794126,"current_range_meters":8400,"station_id":"ce4bh312rcd13ifvqdj0","pricing_plan_id":"cebpf4jnsgd1na2vs0mg"},{"bike_id":"e8f879af-6e5c-4099-b80c-7f5eca17ef71","system_id":"levelo_inurba_marseille","lat":43.24661,"lon":5.38169,"is_reserved":false,"is_disabled":false,"rental_uris":{"android":"levelo://app?vid=e8f879af-6e5c-4099-b80c-7f5eca17ef71","ios":"levelo://app?vid=e8f879af-6e5c-4099-b80c-7f5eca17ef71"},"vehicle_type_id":"4","last_reported":1757794126,"current_range_meters":8400,"station_id":"ce4bhih2rcd13ifvqfr0","pricing_plan_id":"cebpf4jnsgd1na2vs0mg"},{"bike_id":"202633c1-4070-4798-8b68-51f4eaee5281","system_id":"levelo_inurba_marseille","lat":43.29219,"lon":5.38366,"is_reserved":false,"is_disabled":false,"rental_uris":{"android":"levelo://app?vid=202633c1-4070-4798-8b68-51f4eaee5281","ios":"levelo://app?vid=202633c1-4070-4798-8b68-51f4eaee5281"},"vehicle_type_id":"4","last_reported":1757794126,"current_range_meters":8800,"station_id":"","pricing_plan_id":"cebpf4jnsgd1na2vs0mg"},{"bike_id":"472b5fed-0007-4c38-afb8-2cb63d183a11","system_id":"levelo_inurba_marseille","lat":43.27493,"lon":5.42455,"is_reserved":false,"is_disabled":false,"rental_uris":{"android":"levelo://app?vid=472b5fed-0007-4c38-afb8-2cb63d183a11","ios":"levelo://app?vid=472b5fed-0007-4c38-afb8-2cb63d183a11"},"vehicle_type_id":"4","last_reported":1757794126,"current_range_meters":8800,"station_id":"ce4bhn92rcd13ifvqgrg","pricing_plan_id":"cebpf4jnsgd1na2vs0mg"},{"bike_id":"f7fb42d0-b596-474e-918f-9f6e000b5b08","system_id":"levelo_inurba_marseille","lat":43.26936,"lon":5.40256,"is_reserved":false,"is_disabled":false,"rental_uris":{"android":"levelo://app?vid=f7fb42d0-b596-474e-918f-9f6e000b5b08","ios":"levelo://app?vid=f7fb42d0-b596-474e-918f-9f6e000b5b08"},"vehicle_type_id":"4","last_reported":1757794126,"current_range_meters":8800,"station_id":"cjm6bp8fraef2m0cb0m0","pricing_plan_id":"cebpf4jnsgd1na2vs0mg"},{"bike_id":"141081e1-2c1c-4fb1-9e43-afb07defefc8","system_id":"levelo_inurba_marseille","lat":43.30478,"lon":5.37932,"is_reserved":false,"is_disabled":false,"rental_uris":{"android":"levelo://app?vid=141081e1-2c1c-4fb1-9e43-afb07defefc8","ios":"levelo://app?vid=141081e1-2c1c-4fb1-9e43-afb07defefc8"},"vehicle_type_id":"4","last_reported":1757794126,"current_range_meters":8800,"station_id":"","pricing_plan_id":"cebpf4jnsgd1na2vs0mg"},{"bike_id":"84df1806-ca37-42e8-9022-1f5d9f362a93","system_id":"levelo_inurba_marseille","lat":43.27375,"lon":5.36267,"is_reserved":false,"is_disabled":false,"rental_uris":{"android":"levelo://app?vid=84df1806-ca37-42e8-9022-1f5d9f362a93","ios":"levelo://app?vid=84df1806-ca37-42e8-9022-1f5d9f362a93"},"vehicle_type_id":"4","last_reported":1757794126,"current_range_meters":8800,"station_id":"ce4bhbh2rcd13ifvqeo0","pricing_plan_id":"cebpf4jnsgd1na2vs0mg"},{"bike_id":"ae2200e0-55fa-4d16-87bf-72ca65d67371","system_id":"levelo_inurba_marseille","lat":43.28372,"lon":5.38452,"is_reserved":false,"is_disabled":true,"rental_uris":{"android":"levelo://app?vid=ae2200e0-55fa-4d16-87bf-72ca65d67371","ios":"levelo://app?vid=ae2200e0-55fa-4d16-87bf-72ca65d67371"},"vehicle_type_id":"4","last_reported":1757794126,"current_range_meters":8800,"station_id":"","pricing_plan_id":"cebpf4jnsgd1na2vs0mg"},{"bike_id":"3bd595b7-af3b-43b1-8697-1bcb2a61af6f","system_id":"levelo_inurba_marseille","lat":43.27998,"lon":5.40014,"is_reserved":false,"is_disabled":true,"rental_uris":{"android":"levelo://app?vid=3bd595b7-af3b-43b1-8697-1bcb2a61af6f","ios":"levelo://app?vid=3bd595b7-af3b-43b1-8697-1bcb2a61af6f"},"vehicle_type_id":"4","last_reported":1757794126,"current_range_meters":8800,"station_id":"ce4bho92rcd13ifvqh4g","pricing_plan_id":"cebpf4jnsgd1na2vs0mg"},{"bike_id":"65f043bb-ffb4-4737-80d8-76d4f803a94a","system_id":"levelo_inurba_marseille","lat":43.30932,"lon":5.40141,"is_reserved":false,"is_disabled":false,"rental_uris":{"android":"levelo://app?vid=65f043bb-ffb4-4737-80d8-76d4f803a94a","ios":"levelo://app?vid=65f043bb-ffb4-4737-80d8-76d4f803a94a"},"vehicle_type_id":"4","last_reported":1757794126,"current_range_meters":8800,"station_id":"ce4bgvp2rcd13ifvqct0","pricing_plan_id":"cebpf4jnsgd1na2vs0mg"},{"bike_id":"c64542e9-a65b-4859-af48-b48c37676a29","system_id":"levelo_inurba_marseille","lat":43.29304,"lon":5.37463,"is_reserved":false,"is_disabled":false,"rental_uris":{"android":"levelo://app?vid=c64542e9-a65b-4859-af48-b48c37676a29","ios":"levelo://app?vid=c64542e9-a65b-4859-af48-b48c37676a29"},"vehicle_type_id":"4","last_reported":1757794126,"current_range_meters":8800,"station_id":"ce4bgi12rcd13ifvqb70","pricing_plan_id":"cebpf4jnsgd1na2vs0mg"},{"bike_id":"f0e5a48d-dcca-4ab9-8c2a-a9ec07b39fac","system_id":"levelo_inurba_marseille","lat":43.23189,"lon":5.35566,"is_reserved":false,"is_disabled":false,"rental_uris":{"android":"levelo://app?vid=f0e5a48d-dcca-4ab9-8c2a-a9ec07b39fac","ios":"levelo://app?vid=f0e5a48d-dcca-4ab9-8c2a-a9ec07b39fac"},"vehicle_type_id":"4","last_reported":1757794126,"current_range_meters":8800,"station_id":"ce4bhu92rcd13ifvqi70","pricing_plan_id":"cebpf4jnsgd1na2vs0mg"},{"bike_id":"eaa220fb-5349-44c0-849a-e1e199bab0e0","system_id":"levelo_inurba_marseille","lat":43.312032,"lon":5.367326,"is_reserved":false,"is_disabled":true,"rental_uris":{"android":"levelo://app?vid=eaa220fb-5349-44c0-849a-e1e199bab0e0","ios":"levelo://app?vid=eaa220fb-5349-44c0-849a-e1e199bab0e0"},"vehicle_type_id":"4","last_reported":1757794126,"current_range_meters":9200,"station_id":"","pricing_plan_id":"cebpf4jnsgd1na2vs0mg"},{"bike_id":"dcb98f28-410d-46c2-af0e-d95444a9b890","system_id":"levelo_inurba_marseille","lat":43.24814,"lon":5.37472,"is_reserved":false,"is_disabled":false,"rental_uris":{"android":"levelo://app?vid=dcb98f28-410d-46c2-af0e-d95444a9b890","ios":"levelo://app?vid=dcb98f28-410d-46c2-af0e-d95444a9b890"},"vehicle_type_id":"4","last_reported":1757794126,"current_range_meters":9200,"station_id":"ce4bhgh2rcd13ifvqfb0","pricing_plan_id":"cebpf4jnsgd1na2vs0mg"},{"bike_id":"775af279-8ac9-4585-9121-809be9b13265","system_id":"levelo_inurba_marseille","lat":43.337775,"lon":5.374412,"is_reserved":false,"is_disabled":false,"rental_uris":{"android":"levelo://app?vid=775af279-8ac9-4585-9121-809be9b13265","ios":"levelo://app?vid=775af279-8ac9-4585-9121-809be9b13265"},"vehicle_type_id":"4","last_reported":1757794126,"current_range_meters":9200,"station_id":"","pricing_plan_id":"cebpf4jnsgd1na2vs0mg"},{"bike_id":"83caeb26-22bb-4fda-ae28-449a58ffb389","system_id":"levelo_inurba_marseille","lat":43.26195,"lon":5.3745,"is_reserved":false,"is_disabled":false,"rental_uris":{"android":"levelo://app?vid=83caeb26-22bb-4fda-ae28-449a58ffb389","ios":"levelo://app?vid=83caeb26-22bb-4fda-ae28-449a58ffb389"},"vehicle_type_id":"4","last_reported":1757794126,"current_range_meters":9200,"station_id":"ce4bhgp2rcd13ifvqfc0","pricing_plan_id":"cebpf4jnsgd1na2vs0mg"},{"bike_id":"813367df-5646-4dee-af06-a4acd77045f9","system_id":"levelo_inurba_marseille","lat":43.298633,"lon":5.39735,"is_reserved":false,"is_disabled":false,"rental_uris":{"android":"levelo://app?vid=813367df-5646-4dee-af06-a4acd77045f9","ios":"levelo://app?vid=813367df-5646-4dee-af06-a4acd77045f9"},"vehicle_type_id":"4","last_reported":1757794126,"current_range_meters":9600,"station_id":"ce4bh0h2rcd13ifvqd50","pricing_plan_id":"cebpf4jnsgd1na2vs0mg"},{"bike_id":"8aa28ac7-4966-4550-bc6c-b3bb97963800","system_id":"levelo_inurba_marseille","lat":43.27374,"lon":5.36256,"is_reserved":false,"is_disabled":false,"rental_uris":{"android":"levelo://app?vid=8aa28ac7-4966-4550-bc6c-b3bb97963800","ios":"levelo://app?vid=8aa28ac7-4966-4550-bc6c-b3bb97963800"},"vehicle_type_id":"4","last_reported":1757794126,"current_range_meters":9600,"station_id":"ce4bhbh2rcd13ifvqeo0","pricing_plan_id":"cebpf4jnsgd1na2vs0mg"},{"bike_id":"c5d0a267-63b8-45b1-8db4-f64d80554eb4","system_id":"levelo_inurba_marseille","lat":43.28608,"lon":5.37056,"is_reserved":false,"is_disabled":true,"rental_uris":{"android":"levelo://app?vid=c5d0a267-63b8-45b1-8db4-f64d80554eb4","ios":"levelo://app?vid=c5d0a267-63b8-45b1-8db4-f64d80554eb4"},"vehicle_type_id":"4","last_reported":1757794126,"current_range_meters":9600,"station_id":"ce4bht12rcd13ifvqi60","pricing_plan_id":"cebpf4jnsgd1na2vs0mg"},{"bike_id":"4266b374-d4bf-4fd2-bb94-51b2d7d40946","system_id":"levelo_inurba_marseille","lat":43.22568,"lon":5.41639,"is_reserved":false,"is_disabled":false,"rental_uris":{"android":"levelo://app?vid=4266b374-d4bf-4fd2-bb94-51b2d7d40946","ios":"levelo://app?vid=4266b374-d4bf-4fd2-bb94-51b2d7d40946"},"vehicle_type_id":"4","last_reported":1757794126,"current_range_meters":9600,"station_id":"st_d2o4gvlbi1j2169b742g","pricing_plan_id":"cebpf4jnsgd1na2vs0mg"},{"bike_id":"89724e0f-d6a6-4e81-9dc8-40ed9db09b04","system_id":"levelo_inurba_marseille","lat":43.28591,"lon":5.37069,"is_reserved":false,"is_disabled":false,"rental_uris":{"android":"levelo://app?vid=89724e0f-d6a6-4e81-9dc8-40ed9db09b04","ios":"levelo://app?vid=89724e0f-d6a6-4e81-9dc8-40ed9db09b04"},"vehicle_type_id":"4","last_reported":1757794126,"current_range_meters":9600,"station_id":"ce4bht12rcd13ifvqi60","pricing_plan_id":"cebpf4jnsgd1na2vs0mg"},{"bike_id":"71f23975-df19-4c8e-a1fd-40358f5edeef","system_id":"levelo_inurba_marseille","lat":43.24802,"lon":5.37464,"is_reserved":false,"is_disabled":false,"rental_uris":{"android":"levelo://app?vid=71f23975-df19-4c8e-a1fd-40358f5edeef","ios":"levelo://app?vid=71f23975-df19-4c8e-a1fd-40358f5edeef"},"vehicle_type_id":"4","last_reported":1757794126,"current_range_meters":9600,"station_id":"ce4bhgh2rcd13ifvqfb0","pricing_plan_id":"cebpf4jnsgd1na2vs0mg"},{"bike_id":"ab995a70-b60d-49b7-ad66-ce41a3adcd76","system_id":"levelo_inurba_marseille","lat":43.29532,"lon":5.38541,"is_reserved":false,"is_disabled":false,"rental_uris":{"android":"levelo://app?vid=ab995a70-b60d-49b7-ad66-ce41a3adcd76","ios":"levelo://app?vid=ab995a70-b60d-49b7-ad66-ce41a3adcd76"},"vehicle_type_id":"4","last_reported":1757794126,"current_range_meters":10000,"station_id":"ce4bgih2rcd13ifvqba0","pricing_plan_id":"cebpf4jnsgd1na2vs0mg"},{"bike_id":"a24c4696-920b-4645-847f-87e0b46915a6","system_id":"levelo_inurba_marseille","lat":43.324238,"lon":5.42491,"is_reserved":false,"is_disabled":false,"rental_uris":{"android":"levelo://app?vid=a24c4696-920b-4645-847f-87e0b46915a6","ios":"levelo://app?vid=a24c4696-920b-4645-847f-87e0b46915a6"},"vehicle_type_id":"4","last_reported":1757794126,"current_range_meters":10000,"station_id":"","pricing_plan_id":"cebpf4jnsgd1na2vs0mg"},{"bike_id":"afa5b270-1b82-4b90-8fe4-7ae439ce006b","system_id":"levelo_inurba_marseille","lat":43.27981,"lon":5.41663,"is_reserved":false,"is_disabled":false,"rental_uris":{"android":"levelo://app?vid=afa5b270-1b82-4b90-8fe4-7ae439ce006b","ios":"levelo://app?vid=afa5b270-1b82-4b90-8fe4-7ae439ce006b"},"vehicle_type_id":"4","last_reported":1757794126,"current_range_meters":10000,"station_id":"ce4bho12rcd13ifvqh1g","pricing_plan_id":"cebpf4jnsgd1na2vs0mg"},{"bike_id":"01ff4586-29c8-4333-b677-9a78ad9ba062","system_id":"levelo_inurba_marseille","lat":43.248,"lon":5.37436,"is_reserved":false,"is_disabled":false,"rental_uris":{"android":"levelo://app?vid=01ff4586-29c8-4333-b677-9a78ad9ba062","ios":"levelo://app?vid=01ff4586-29c8-4333-b677-9a78ad9ba062"},"vehicle_type_id":"4","last_reported":1757794126,"current_range_meters":10000,"station_id":"ce4bhgh2rcd13ifvqfb0","pricing_plan_id":"cebpf4jnsgd1na2vs0mg"},{"bike_id":"9ad57701-092b-4987-844d-5371986cdaba","system_id":"levelo_inurba_marseille","lat":43.23148,"lon":5.43722,"is_reserved":false,"is_disabled":false,"rental_uris":{"android":"levelo://app?vid=9ad57701-092b-4987-844d-5371986cdaba","ios":"levelo://app?vid=9ad57701-092b-4987-844d-5371986cdaba"},"vehicle_type_id":"4","last_reported":1757794126,"current_range_meters":10000,"station_id":"ce4bhmp2rcd13ifvqgog","pricing_plan_id":"cebpf4jnsgd1na2vs0mg"},{"bike_id":"e8f1a34f-d97f-492d-a96a-630755e01276","system_id":"levelo_inurba_marseille","lat":43.27441,"lon":5.39419,"is_reserved":false,"is_disabled":false,"rental_uris":{"android":"levelo://app?vid=e8f1a34f-d97f-492d-a96a-630755e01276","ios":"levelo://app?vid=e8f1a34f-d97f-492d-a96a-630755e01276"},"vehicle_type_id":"4","last_reported":1757794126,"current_range_meters":10800,"station_id":"ce4bhdp2rcd13ifvqf20","pricing_plan_id":"cebpf4jnsgd1na2vs0mg"},{"bike_id":"84c8fb15-5b5b-46a3-b92a-7de6406f90b3","system_id":"levelo_inurba_marseille","lat":43.26772,"lon":5.39433,"is_reserved":false,"is_disabled":true,"rental_uris":{"android":"levelo://app?vid=84c8fb15-5b5b-46a3-b92a-7de6406f90b3","ios":"levelo://app?vid=84c8fb15-5b5b-46a3-b92a-7de6406f90b3"},"vehicle_type_id":"4","last_reported":1757794126,"current_range_meters":10800,"station_id":"ce4bhh12rcd13ifvqfg0","pricing_plan_id":"cebpf4jnsgd1na2vs0mg"},{"bike_id":"9b2cfcb5-eac1-4312-a53a-639da7c59224","system_id":"levelo_inurba_marseille","lat":43.29037,"lon":5.35921,"is_reserved":false,"is_disabled":false,"rental_uris":{"android":"levelo://app?vid=9b2cfcb5-eac1-4312-a53a-639da7c59224","ios":"levelo://app?vid=9b2cfcb5-eac1-4312-a53a-639da7c59224"},"vehicle_type_id":"4","last_reported":1757794126,"current_range_meters":10800,"station_id":"ce4bha92rcd13ifvqeg0","pricing_plan_id":"cebpf4jnsgd1na2vs0mg"},{"bike_id":"c445ab95-92a0-47cb-bf12-767d069705a5","system_id":"levelo_inurba_marseille","lat":43.24545,"lon":5.39533,"is_reserved":false,"is_disabled":false,"rental_uris":{"android":"levelo://app?vid=c445ab95-92a0-47cb-bf12-767d069705a5","ios":"levelo://app?vid=c445ab95-92a0-47cb-bf12-767d069705a5"},"vehicle_type_id":"4","last_reported":1757794126,"current_range_meters":10800,"station_id":"ce4bhlp2rcd13ifvqgjg","pricing_plan_id":"cebpf4jnsgd1na2vs0mg"},{"bike_id":"140f33b8-1102-4f7e-b0ef-d83c5cd8bb96","system_id":"levelo_inurba_marseille","lat":43.23177,"lon":5.35577,"is_reserved":false,"is_disabled":false,"rental_uris":{"android":"levelo://app?vid=140f33b8-1102-4f7e-b0ef-d83c5cd8bb96","ios":"levelo://app?vid=140f33b8-1102-4f7e-b0ef-d83c5cd8bb96"},"vehicle_type_id":"4","last_reported":1757794126,"current_range_meters":10800,"station_id":"ce4bhu92rcd13ifvqi70","pricing_plan_id":"cebpf4jnsgd1na2vs0mg"},{"bike_id":"8a4d2a94-6dcc-48a7-bce6-1f6f98746be6","system_id":"levelo_inurba_marseille","lat":43.275092,"lon":5.424437,"is_reserved":false,"is_disabled":false,"rental_uris":{"android":"levelo://app?vid=8a4d2a94-6dcc-48a7-bce6-1f6f98746be6","ios":"levelo://app?vid=8a4d2a94-6dcc-48a7-bce6-1f6f98746be6"},"vehicle_type_id":"4","last_reported":1757794126,"current_range_meters":10800,"station_id":"ce4bhn92rcd13ifvqgrg","pricing_plan_id":"cebpf4jnsgd1na2vs0mg"},{"bike_id":"3d03a245-0f73-4cae-a4be-658cdc7048be","system_id":"levelo_inurba_marseille","lat":43.30458,"lon":5.3792,"is_reserved":false,"is_disabled":false,"rental_uris":{"android":"levelo://app?vid=3d03a245-0f73-4cae-a4be-658cdc7048be","ios":"levelo://app?vid=3d03a245-0f73-4cae-a4be-658cdc7048be"},"vehicle_type_id":"4","last_reported":1757794126,"current_range_meters":10800,"station_id":"","pricing_plan_id":"cebpf4jnsgd1na2vs0mg"},{"bike_id":"758d64a8-5398-4a2b-8026-4ab6c1c375e2","system_id":"levelo_inurba_marseille","lat":43.29263,"lon":5.38449,"is_reserved":false,"is_disabled":false,"rental_uris":{"android":"levelo://app?vid=758d64a8-5398-4a2b-8026-4ab6c1c375e2","ios":"levelo://app?vid=758d64a8-5398-4a2b-8026-4ab6c1c375e2"},"vehicle_type_id":"4","last_reported":1757794126,"current_range_meters":10800,"station_id":"ce4bh692rcd13ifvqea0","pricing_plan_id":"cebpf4jnsgd1na2vs0mg"},{"bike_id":"064a1e0e-3bc7-46f2-a93f-f27f3e063c3c","system_id":"levelo_inurba_marseille","lat":43.25721,"lon":5.41112,"is_reserved":false,"is_disabled":false,"rental_uris":{"android":"levelo://app?vid=064a1e0e-3bc7-46f2-a93f-f27f3e063c3c","ios":"levelo://app?vid=064a1e0e-3bc7-46f2-a93f-f27f3e063c3c"},"vehicle_type_id":"4","last_reported":1757794126,"current_range_meters":10800,"station_id":"ce4bhkp2rcd13ifvqgd0","pricing_plan_id":"cebpf4jnsgd1na2vs0mg"},{"bike_id":"463345a6-2d4f-4448-8488-9cab1efda713","system_id":"levelo_inurba_marseille","lat":43.25448,"lon":5.4014,"is_reserved":false,"is_disabled":false,"rental_uris":{"android":"levelo://app?vid=463345a6-2d4f-4448-8488-9cab1efda713","ios":"levelo://app?vid=463345a6-2d4f-4448-8488-9cab1efda713"},"vehicle_type_id":"4","last_reported":1757794126,"current_range_meters":10800,"station_id":"","pricing_plan_id":"cebpf4jnsgd1na2vs0mg"},{"bike_id":"0c78ed8a-2af8-4f2c-895d-0de884f1c9f2","system_id":"levelo_inurba_marseille","lat":43.29899,"lon":5.43668,"is_reserved":false,"is_disabled":false,"rental_uris":{"android":"levelo://app?vid=0c78ed8a-2af8-4f2c-895d-0de884f1c9f2","ios":"levelo://app?vid=0c78ed8a-2af8-4f2c-895d-0de884f1c9f2"},"vehicle_type_id":"4","last_reported":1757794126,"current_range_meters":10800,"station_id":"ce4bhpp2rcd13ifvqhfg","pricing_plan_id":"cebpf4jnsgd1na2vs0mg"},{"bike_id":"1684e6f3-0cd7-437b-889c-6721bfebc02b","system_id":"levelo_inurba_marseille","lat":43.31159,"lon":5.38727,"is_reserved":false,"is_disabled":false,"rental_uris":{"android":"levelo://app?vid=1684e6f3-0cd7-437b-889c-6721bfebc02b","ios":"levelo://app?vid=1684e6f3-0cd7-437b-889c-6721bfebc02b"},"vehicle_type_id":"4","last_reported":1757794126,"current_range_meters":10800,"station_id":"ce4bgv12rcd13ifvqcp0","pricing_plan_id":"cebpf4jnsgd1na2vs0mg"},{"bike_id":"26b69d0b-b5b9-460c-aa91-faf533b3f545","system_id":"levelo_inurba_marseille","lat":43.31709,"lon":5.43705,"is_reserved":false,"is_disabled":false,"rental_uris":{"android":"levelo://app?vid=26b69d0b-b5b9-460c-aa91-faf533b3f545","ios":"levelo://app?vid=26b69d0b-b5b9-460c-aa91-faf533b3f545"},"vehicle_type_id":"4","last_reported":1757794126,"current_range_meters":11200,"station_id":"ce4bhp92rcd13ifvqhcg","pricing_plan_id":"cebpf4jnsgd1na2vs0mg"},{"bike_id":"74ee7a5e-3f26-48d9-a09b-61de52b77c1c","system_id":"levelo_inurba_marseille","lat":43.30352,"lon":5.41884,"is_reserved":false,"is_disabled":false,"rental_uris":{"android":"levelo://app?vid=74ee7a5e-3f26-48d9-a09b-61de52b77c1c","ios":"levelo://app?vid=74ee7a5e-3f26-48d9-a09b-61de52b77c1c"},"vehicle_type_id":"4","last_reported":1757794126,"current_range_meters":11200,"station_id":"ce4bhop2rcd13ifvqh7g","pricing_plan_id":"cebpf4jnsgd1na2vs0mg"},{"bike_id":"ca56ede4-f481-4d70-a12f-d422009c0d1b","system_id":"levelo_inurba_marseille","lat":43.27376,"lon":5.36261,"is_reserved":false,"is_disabled":false,"rental_uris":{"android":"levelo://app?vid=ca56ede4-f481-4d70-a12f-d422009c0d1b","ios":"levelo://app?vid=ca56ede4-f481-4d70-a12f-d422009c0d1b"},"vehicle_type_id":"4","last_reported":1757794126,"current_range_meters":11200,"station_id":"ce4bhbh2rcd13ifvqeo0","pricing_plan_id":"cebpf4jnsgd1na2vs0mg"},{"bike_id":"4512c2c7-f6ea-48a6-8a48-abb3bc17e447","system_id":"levelo_inurba_marseille","lat":43.25571,"lon":5.38235,"is_reserved":false,"is_disabled":false,"rental_uris":{"android":"levelo://app?vid=4512c2c7-f6ea-48a6-8a48-abb3bc17e447","ios":"levelo://app?vid=4512c2c7-f6ea-48a6-8a48-abb3bc17e447"},"vehicle_type_id":"4","last_reported":1757794126,"current_range_meters":11600,"station_id":"ce4bhih2rcd13ifvqfs0","pricing_plan_id":"cebpf4jnsgd1na2vs0mg"},{"bike_id":"c7e7fd69-f607-4002-8cfc-51b1eee21570","system_id":"levelo_inurba_marseille","lat":43.30474,"lon":5.37508,"is_reserved":false,"is_disabled":false,"rental_uris":{"android":"levelo://app?vid=c7e7fd69-f607-4002-8cfc-51b1eee21570","ios":"levelo://app?vid=c7e7fd69-f607-4002-8cfc-51b1eee21570"},"vehicle_type_id":"4","last_reported":1757794126,"current_range_meters":11600,"station_id":"","pricing_plan_id":"cebpf4jnsgd1na2vs0mg"},{"bike_id":"cb12300c-8081-4d4a-a14b-64503270b3c8","system_id":"levelo_inurba_marseille","lat":43.29523,"lon":5.38533,"is_reserved":false,"is_disabled":false,"rental_uris":{"android":"levelo://app?vid=cb12300c-8081-4d4a-a14b-64503270b3c8","ios":"levelo://app?vid=cb12300c-8081-4d4a-a14b-64503270b3c8"},"vehicle_type_id":"4","last_reported":1757794126,"current_range_meters":11600,"station_id":"ce4bgih2rcd13ifvqba0","pricing_plan_id":"cebpf4jnsgd1na2vs0mg"},{"bike_id":"d7713e46-9818-48a1-a040-6b9d1f319742","system_id":"levelo_inurba_marseille","lat":43.28354,"lon":5.38633,"is_reserved":false,"is_disabled":false,"rental_uris":{"android":"levelo://app?vid=d7713e46-9818-48a1-a040-6b9d1f319742","ios":"levelo://app?vid=d7713e46-9818-48a1-a040-6b9d1f319742"},"vehicle_type_id":"4","last_reported":1757794126,"current_range_meters":11600,"station_id":"ce4bh492rcd13ifvqdvg","pricing_plan_id":"cebpf4jnsgd1na2vs0mg"},{"bike_id":"d5c98035-fc72-4062-a3ec-13203f68e8ed","system_id":"levelo_inurba_marseille","lat":43.28856,"lon":5.42522,"is_reserved":false,"is_disabled":false,"rental_uris":{"android":"levelo://app?vid=d5c98035-fc72-4062-a3ec-13203f68e8ed","ios":"levelo://app?vid=d5c98035-fc72-4062-a3ec-13203f68e8ed"},"vehicle_type_id":"4","last_reported":1757794126,"current_range_meters":11600,"station_id":"","pricing_plan_id":"cebpf4jnsgd1na2vs0mg"},{"bike_id":"3bef69fe-5b53-4b5c-bb48-170285c21d79","system_id":"levelo_inurba_marseille","lat":43.258291,"lon":5.394469,"is_reserved":false,"is_disabled":false,"rental_uris":{"android":"levelo://app?vid=3bef69fe-5b53-4b5c-bb48-170285c21d79","ios":"levelo://app?vid=3bef69fe-5b53-4b5c-bb48-170285c21d79"},"vehicle_type_id":"4","last_reported":1757794126,"current_range_meters":12000,"station_id":"ce4bhip2rcd13ifvqft0","pricing_plan_id":"cebpf4jnsgd1na2vs0mg"},{"bike_id":"b9327525-0760-4b85-bab6-daa2a726e1ee","system_id":"levelo_inurba_marseille","lat":43.29614,"lon":5.37732,"is_reserved":false,"is_disabled":false,"rental_uris":{"android":"levelo://app?vid=b9327525-0760-4b85-bab6-daa2a726e1ee","ios":"levelo://app?vid=b9327525-0760-4b85-bab6-daa2a726e1ee"},"vehicle_type_id":"4","last_reported":1757794126,"current_range_meters":12000,"station_id":"ce4bgi92rcd13ifvqb90","pricing_plan_id":"cebpf4jnsgd1na2vs0mg"},{"bike_id":"84be000e-b186-4e60-8aaa-b7a0f42a7175","system_id":"levelo_inurba_marseille","lat":43.337616,"lon":5.374353,"is_reserved":false,"is_disabled":false,"rental_uris":{"android":"levelo://app?vid=84be000e-b186-4e60-8aaa-b7a0f42a7175","ios":"levelo://app?vid=84be000e-b186-4e60-8aaa-b7a0f42a7175"},"vehicle_type_id":"4","last_reported":1757794126,"current_range_meters":12000,"station_id":"","pricing_plan_id":"cebpf4jnsgd1na2vs0mg"},{"bike_id":"6e1010f9-1bdd-430f-9494-cf019a35831c","system_id":"levelo_inurba_marseille","lat":43.29506,"lon":5.38542,"is_reserved":false,"is_disabled":false,"rental_uris":{"android":"levelo://app?vid=6e1010f9-1bdd-430f-9494-cf019a35831c","ios":"levelo://app?vid=6e1010f9-1bdd-430f-9494-cf019a35831c"},"vehicle_type_id":"4","last_reported":1757794126,"current_range_meters":12000,"station_id":"ce4bgih2rcd13ifvqba0","pricing_plan_id":"cebpf4jnsgd1na2vs0mg"},{"bike_id":"322bef41-0144-46b3-b28e-d10efc9d0c0e","system_id":"levelo_inurba_marseille","lat":43.29528,"lon":5.38541,"is_reserved":false,"is_disabled":false,"rental_uris":{"android":"levelo://app?vid=322bef41-0144-46b3-b28e-d10efc9d0c0e","ios":"levelo://app?vid=322bef41-0144-46b3-b28e-d10efc9d0c0e"},"vehicle_type_id":"4","last_reported":1757794126,"current_range_meters":12000,"station_id":"ce4bgih2rcd13ifvqba0","pricing_plan_id":"cebpf4jnsgd1na2vs0mg"},{"bike_id":"3a3080a9-2b37-43a7-a035-653599d82436","system_id":"levelo_inurba_marseille","lat":43.3053,"lon":5.36733,"is_reserved":false,"is_disabled":false,"rental_uris":{"android":"levelo://app?vid=3a3080a9-2b37-43a7-a035-653599d82436","ios":"levelo://app?vid=3a3080a9-2b37-43a7-a035-653599d82436"},"vehicle_type_id":"4","last_reported":1757794126,"current_range_meters":12000,"station_id":"ce4bgrp2rcd13ifvqc9g","pricing_plan_id":"cebpf4jnsgd1na2vs0mg"},{"bike_id":"3e2f244f-6268-4660-a8ca-b6f26ab520c9","system_id":"levelo_inurba_marseille","lat":43.2927,"lon":5.38434,"is_reserved":false,"is_disabled":false,"rental_uris":{"android":"levelo://app?vid=3e2f244f-6268-4660-a8ca-b6f26ab520c9","ios":"levelo://app?vid=3e2f244f-6268-4660-a8ca-b6f26ab520c9"},"vehicle_type_id":"4","last_reported":1757794126,"current_range_meters":12400,"station_id":"ce4bh692rcd13ifvqea0","pricing_plan_id":"cebpf4jnsgd1na2vs0mg"},{"bike_id":"7cd142bd-aea8-49e3-b3dd-ca5a2d64b2aa","system_id":"levelo_inurba_marseille","lat":43.28854,"lon":5.3587,"is_reserved":false,"is_disabled":false,"rental_uris":{"android":"levelo://app?vid=7cd142bd-aea8-49e3-b3dd-ca5a2d64b2aa","ios":"levelo://app?vid=7cd142bd-aea8-49e3-b3dd-ca5a2d64b2aa"},"vehicle_type_id":"4","last_reported":1757794126,"current_range_meters":12400,"station_id":"ce4bhb12rcd13ifvqem0","pricing_plan_id":"cebpf4jnsgd1na2vs0mg"},{"bike_id":"2bf800d6-5810-4583-9dbf-1aa58bacdde6","system_id":"levelo_inurba_marseille","lat":43.337444,"lon":5.374475,"is_reserved":false,"is_disabled":false,"rental_uris":{"android":"levelo://app?vid=2bf800d6-5810-4583-9dbf-1aa58bacdde6","ios":"levelo://app?vid=2bf800d6-5810-4583-9dbf-1aa58bacdde6"},"vehicle_type_id":"4","last_reported":1757794126,"current_range_meters":12400,"station_id":"","pricing_plan_id":"cebpf4jnsgd1na2vs0mg"},{"bike_id":"0a6a7f24-a3a8-4967-a9b1-528be52b4d45","system_id":"levelo_inurba_marseille","lat":43.28238,"lon":5.35024,"is_reserved":false,"is_disabled":false,"rental_uris":{"android":"levelo://app?vid=0a6a7f24-a3a8-4967-a9b1-528be52b4d45","ios":"levelo://app?vid=0a6a7f24-a3a8-4967-a9b1-528be52b4d45"},"vehicle_type_id":"4","last_reported":1757794126,"current_range_meters":12400,"station_id":"ce4bhbp2rcd13ifvqerg","pricing_plan_id":"cebpf4jnsgd1na2vs0mg"},{"bike_id":"62f771b2-4873-460c-a103-d249fe08d9a3","system_id":"levelo_inurba_marseille","lat":43.2847,"lon":5.359,"is_reserved":false,"is_disabled":true,"rental_uris":{"android":"levelo://app?vid=62f771b2-4873-460c-a103-d249fe08d9a3","ios":"levelo://app?vid=62f771b2-4873-460c-a103-d249fe08d9a3"},"vehicle_type_id":"4","last_reported":1757794126,"current_range_meters":12400,"station_id":"ce4bhah2rcd13ifvqei0","pricing_plan_id":"cebpf4jnsgd1na2vs0mg"},{"bike_id":"beb6189c-c21e-4836-b631-6b5c31a632d8","system_id":"levelo_inurba_marseille","lat":43.22558,"lon":5.41631,"is_reserved":false,"is_disabled":false,"rental_uris":{"android":"levelo://app?vid=beb6189c-c21e-4836-b631-6b5c31a632d8","ios":"levelo://app?vid=beb6189c-c21e-4836-b631-6b5c31a632d8"},"vehicle_type_id":"4","last_reported":1757794126,"current_range_meters":12400,"station_id":"st_d2o4gvlbi1j2169b742g","pricing_plan_id":"cebpf4jnsgd1na2vs0mg"},{"bike_id":"25b82d02-e21f-4739-a5c4-af9c1108229b","system_id":"levelo_inurba_marseille","lat":43.3171,"lon":5.43712,"is_reserved":false,"is_disabled":false,"rental_uris":{"android":"levelo://app?vid=25b82d02-e21f-4739-a5c4-af9c1108229b","ios":"levelo://app?vid=25b82d02-e21f-4739-a5c4-af9c1108229b"},"vehicle_type_id":"4","last_reported":1757794126,"current_range_meters":12000,"station_id":"ce4bhp92rcd13ifvqhcg","pricing_plan_id":"cebpf4jnsgd1na2vs0mg"},{"bike_id":"d5fe8587-d577-4927-9f03-bf5f1fa338f3","system_id":"levelo_inurba_marseille","lat":43.3257,"lon":5.37605,"is_reserved":false,"is_disabled":false,"rental_uris":{"android":"levelo://app?vid=d5fe8587-d577-4927-9f03-bf5f1fa338f3","ios":"levelo://app?vid=d5fe8587-d577-4927-9f03-bf5f1fa338f3"},"vehicle_type_id":"4","last_reported":1757794126,"current_range_meters":12400,"station_id":"","pricing_plan_id":"cebpf4jnsgd1na2vs0mg"},{"bike_id":"7551b6ea-c220-4ab0-ae49-87a7d4947d7b","system_id":"levelo_inurba_marseille","lat":43.2921,"lon":5.36056,"is_reserved":false,"is_disabled":false,"rental_uris":{"android":"levelo://app?vid=7551b6ea-c220-4ab0-ae49-87a7d4947d7b","ios":"levelo://app?vid=7551b6ea-c220-4ab0-ae49-87a7d4947d7b"},"vehicle_type_id":"4","last_reported":1757794126,"current_range_meters":12400,"station_id":"ce4bhbh2rcd13ifvqeqg","pricing_plan_id":"cebpf4jnsgd1na2vs0mg"},{"bike_id":"e30f9aa9-4c64-4ef8-9722-1913a71ebe93","system_id":"levelo_inurba_marseille","lat":43.29535,"lon":5.38546,"is_reserved":false,"is_disabled":false,"rental_uris":{"android":"levelo://app?vid=e30f9aa9-4c64-4ef8-9722-1913a71ebe93","ios":"levelo://app?vid=e30f9aa9-4c64-4ef8-9722-1913a71ebe93"},"vehicle_type_id":"4","last_reported":1757794126,"current_range_meters":12400,"station_id":"ce4bgih2rcd13ifvqba0","pricing_plan_id":"cebpf4jnsgd1na2vs0mg"},{"bike_id":"6418170a-4cce-4ed0-abf3-b13746543989","system_id":"levelo_inurba_marseille","lat":43.29267,"lon":5.38454,"is_reserved":false,"is_disabled":false,"rental_uris":{"android":"levelo://app?vid=6418170a-4cce-4ed0-abf3-b13746543989","ios":"levelo://app?vid=6418170a-4cce-4ed0-abf3-b13746543989"},"vehicle_type_id":"4","last_reported":1757794126,"current_range_meters":12400,"station_id":"ce4bh692rcd13ifvqea0","pricing_plan_id":"cebpf4jnsgd1na2vs0mg"},{"bike_id":"02dbb44c-70e3-4a7a-b86e-6159cc35ba47","system_id":"levelo_inurba_marseille","lat":43.29587,"lon":5.38689,"is_reserved":false,"is_disabled":false,"rental_uris":{"android":"levelo://app?vid=02dbb44c-70e3-4a7a-b86e-6159cc35ba47","ios":"levelo://app?vid=02dbb44c-70e3-4a7a-b86e-6159cc35ba47"},"vehicle_type_id":"4","last_reported":1757794126,"current_range_meters":12400,"station_id":"ce4bgih2rcd13ifvqba0","pricing_plan_id":"cebpf4jnsgd1na2vs0mg"},{"bike_id":"c5562d26-1a7c-4e81-9c79-a45e91be1774","system_id":"levelo_inurba_marseille","lat":43.23197,"lon":5.35552,"is_reserved":false,"is_disabled":false,"rental_uris":{"android":"levelo://app?vid=c5562d26-1a7c-4e81-9c79-a45e91be1774","ios":"levelo://app?vid=c5562d26-1a7c-4e81-9c79-a45e91be1774"},"vehicle_type_id":"4","last_reported":1757794126,"current_range_meters":12400,"station_id":"ce4bhu92rcd13ifvqi70","pricing_plan_id":"cebpf4jnsgd1na2vs0mg"},{"bike_id":"8ca77fed-bfca-44b8-94f4-d1bc4f0339c2","system_id":"levelo_inurba_marseille","lat":43.29785,"lon":5.39343,"is_reserved":false,"is_disabled":false,"rental_uris":{"android":"levelo://app?vid=8ca77fed-bfca-44b8-94f4-d1bc4f0339c2","ios":"levelo://app?vid=8ca77fed-bfca-44b8-94f4-d1bc4f0339c2"},"vehicle_type_id":"4","last_reported":1757794126,"current_range_meters":12800,"station_id":"chh1huq6cuj3fo74tm60","pricing_plan_id":"cebpf4jnsgd1na2vs0mg"},{"bike_id":"cbe6f866-1357-45a4-afbd-44c3352c1a8a","system_id":"levelo_inurba_marseille","lat":43.28118,"lon":5.37844,"is_reserved":false,"is_disabled":false,"rental_uris":{"android":"levelo://app?vid=cbe6f866-1357-45a4-afbd-44c3352c1a8a","ios":"levelo://app?vid=cbe6f866-1357-45a4-afbd-44c3352c1a8a"},"vehicle_type_id":"4","last_reported":1757794126,"current_range_meters":12800,"station_id":"ce4bha12rcd13ifvqee0","pricing_plan_id":"cebpf4jnsgd1na2vs0mg"},{"bike_id":"f8ffd399-b74b-428b-b8c5-652d37f4b22c","system_id":"levelo_inurba_marseille","lat":43.24944,"lon":5.40526,"is_reserved":false,"is_disabled":false,"rental_uris":{"android":"levelo://app?vid=f8ffd399-b74b-428b-b8c5-652d37f4b22c","ios":"levelo://app?vid=f8ffd399-b74b-428b-b8c5-652d37f4b22c"},"vehicle_type_id":"4","last_reported":1757794126,"current_range_meters":12800,"station_id":"st_d2ngiaodas8pm72gd1h0","pricing_plan_id":"cebpf4jnsgd1na2vs0mg"},{"bike_id":"6515536f-56de-4109-b7a1-24c742aed225","system_id":"levelo_inurba_marseille","lat":43.31997,"lon":5.37234,"is_reserved":false,"is_disabled":false,"rental_uris":{"android":"levelo://app?vid=6515536f-56de-4109-b7a1-24c742aed225","ios":"levelo://app?vid=6515536f-56de-4109-b7a1-24c742aed225"},"vehicle_type_id":"4","last_reported":1757794126,"current_range_meters":12800,"station_id":"","pricing_plan_id":"cebpf4jnsgd1na2vs0mg"},{"bike_id":"55d59e02-f5a5-4e1a-9360-556e842fa2a4","system_id":"levelo_inurba_marseille","lat":43.33764,"lon":5.37496,"is_reserved":false,"is_disabled":false,"rental_uris":{"android":"levelo://app?vid=55d59e02-f5a5-4e1a-9360-556e842fa2a4","ios":"levelo://app?vid=55d59e02-f5a5-4e1a-9360-556e842fa2a4"},"vehicle_type_id":"4","last_reported":1757794126,"current_range_meters":12800,"station_id":"","pricing_plan_id":"cebpf4jnsgd1na2vs0mg"},{"bike_id":"0e3ad037-070c-4c9b-8501-652470bf21b5","system_id":"levelo_inurba_marseille","lat":43.297947,"lon":5.404029,"is_reserved":false,"is_disabled":false,"rental_uris":{"android":"levelo://app?vid=0e3ad037-070c-4c9b-8501-652470bf21b5","ios":"levelo://app?vid=0e3ad037-070c-4c9b-8501-652470bf21b5"},"vehicle_type_id":"4","last_reported":1757794126,"current_range_meters":12800,"station_id":"ce4bh112rcd13ifvqd90","pricing_plan_id":"cebpf4jnsgd1na2vs0mg"},{"bike_id":"d9c11a94-d122-4240-b95b-24fdee8810ac","system_id":"levelo_inurba_marseille","lat":43.28268,"lon":5.3991,"is_reserved":false,"is_disabled":false,"rental_uris":{"android":"levelo://app?vid=d9c11a94-d122-4240-b95b-24fdee8810ac","ios":"levelo://app?vid=d9c11a94-d122-4240-b95b-24fdee8810ac"},"vehicle_type_id":"4","last_reported":1757794126,"current_range_meters":12800,"station_id":"","pricing_plan_id":"cebpf4jnsgd1na2vs0mg"},{"bike_id":"2a7bc07a-c148-4a25-b2c5-5233e29560f5","system_id":"levelo_inurba_marseille","lat":43.28604,"lon":5.37065,"is_reserved":false,"is_disabled":false,"rental_uris":{"android":"levelo://app?vid=2a7bc07a-c148-4a25-b2c5-5233e29560f5","ios":"levelo://app?vid=2a7bc07a-c148-4a25-b2c5-5233e29560f5"},"vehicle_type_id":"4","last_reported":1757794126,"current_range_meters":12800,"station_id":"ce4bht12rcd13ifvqi60","pricing_plan_id":"cebpf4jnsgd1na2vs0mg"},{"bike_id":"5b4ca8b7-8422-40e7-a18b-fbaafe0e9da9","system_id":"levelo_inurba_marseille","lat":43.29266,"lon":5.38449,"is_reserved":false,"is_disabled":false,"rental_uris":{"android":"levelo://app?vid=5b4ca8b7-8422-40e7-a18b-fbaafe0e9da9","ios":"levelo://app?vid=5b4ca8b7-8422-40e7-a18b-fbaafe0e9da9"},"vehicle_type_id":"4","last_reported":1757794126,"current_range_meters":12800,"station_id":"ce4bh692rcd13ifvqea0","pricing_plan_id":"cebpf4jnsgd1na2vs0mg"},{"bike_id":"5e315310-5f09-4620-9ba4-e75edd176840","system_id":"levelo_inurba_marseille","lat":43.287,"lon":5.39982,"is_reserved":false,"is_disabled":false,"rental_uris":{"android":"levelo://app?vid=5e315310-5f09-4620-9ba4-e75edd176840","ios":"levelo://app?vid=5e315310-5f09-4620-9ba4-e75edd176840"},"vehicle_type_id":"4","last_reported":1757794126,"current_range_meters":12800,"station_id":"ce4bho92rcd13ifvqh3g","pricing_plan_id":"cebpf4jnsgd1na2vs0mg"},{"bike_id":"9efae8ca-5cb1-48b2-87a2-2fcb19f66522","system_id":"levelo_inurba_marseille","lat":43.29528,"lon":5.38552,"is_reserved":false,"is_disabled":false,"rental_uris":{"android":"levelo://app?vid=9efae8ca-5cb1-48b2-87a2-2fcb19f66522","ios":"levelo://app?vid=9efae8ca-5cb1-48b2-87a2-2fcb19f66522"},"vehicle_type_id":"4","last_reported":1757794126,"current_range_meters":13600,"station_id":"ce4bgih2rcd13ifvqba0","pricing_plan_id":"cebpf4jnsgd1na2vs0mg"},{"bike_id":"f1d8b238-4c5e-4cf7-bf81-90f44dbfd0bb","system_id":"levelo_inurba_marseille","lat":43.28612,"lon":5.35109,"is_reserved":false,"is_disabled":false,"rental_uris":{"android":"levelo://app?vid=f1d8b238-4c5e-4cf7-bf81-90f44dbfd0bb","ios":"levelo://app?vid=f1d8b238-4c5e-4cf7-bf81-90f44dbfd0bb"},"vehicle_type_id":"4","last_reported":1757794126,"current_range_meters":13600,"station_id":"ce4bhch2rcd13ifvqeug","pricing_plan_id":"cebpf4jnsgd1na2vs0mg"},{"bike_id":"3510d789-ae1f-4c67-ae2b-5d51a86b5480","system_id":"levelo_inurba_marseille","lat":43.311179,"lon":5.377788,"is_reserved":false,"is_disabled":false,"rental_uris":{"android":"levelo://app?vid=3510d789-ae1f-4c67-ae2b-5d51a86b5480","ios":"levelo://app?vid=3510d789-ae1f-4c67-ae2b-5d51a86b5480"},"vehicle_type_id":"4","last_reported":1757794126,"current_range_meters":13600,"station_id":"ce4bgt92rcd13ifvqcg0","pricing_plan_id":"cebpf4jnsgd1na2vs0mg"},{"bike_id":"803fb79e-7a2d-456f-ac7c-1d8305874978","system_id":"levelo_inurba_marseille","lat":43.27368,"lon":5.36257,"is_reserved":false,"is_disabled":false,"rental_uris":{"android":"levelo://app?vid=803fb79e-7a2d-456f-ac7c-1d8305874978","ios":"levelo://app?vid=803fb79e-7a2d-456f-ac7c-1d8305874978"},"vehicle_type_id":"4","last_reported":1757794126,"current_range_meters":13600,"station_id":"ce4bhbh2rcd13ifvqeo0","pricing_plan_id":"cebpf4jnsgd1na2vs0mg"},{"bike_id":"764d85ee-d4b5-4cd3-8c41-e610c41f1b43","system_id":"levelo_inurba_marseille","lat":43.29673,"lon":5.36609,"is_reserved":false,"is_disabled":false,"rental_uris":{"android":"levelo://app?vid=764d85ee-d4b5-4cd3-8c41-e610c41f1b43","ios":"levelo://app?vid=764d85ee-d4b5-4cd3-8c41-e610c41f1b43"},"vehicle_type_id":"4","last_reported":1757794126,"current_range_meters":13600,"station_id":"ce4bgn12rcd13ifvqbt0","pricing_plan_id":"cebpf4jnsgd1na2vs0mg"},{"bike_id":"e1ac8c4a-9427-4e21-a945-9b7a7e138b5d","system_id":"levelo_inurba_marseille","lat":43.292633,"lon":5.376307,"is_reserved":false,"is_disabled":false,"rental_uris":{"android":"levelo://app?vid=e1ac8c4a-9427-4e21-a945-9b7a7e138b5d","ios":"levelo://app?vid=e1ac8c4a-9427-4e21-a945-9b7a7e138b5d"},"vehicle_type_id":"4","last_reported":1757794126,"current_range_meters":13600,"station_id":"ce4bgi12rcd13ifvqb80","pricing_plan_id":"cebpf4jnsgd1na2vs0mg"},{"bike_id":"31195751-bbc1-4ea5-8068-c21d8881b649","system_id":"levelo_inurba_marseille","lat":43.24065,"lon":5.3772,"is_reserved":false,"is_disabled":false,"rental_uris":{"android":"levelo://app?vid=31195751-bbc1-4ea5-8068-c21d8881b649","ios":"levelo://app?vid=31195751-bbc1-4ea5-8068-c21d8881b649"},"vehicle_type_id":"4","last_reported":1757794126,"current_range_meters":14000,"station_id":"ce4bhnp2rcd13ifvqgvg","pricing_plan_id":"cebpf4jnsgd1na2vs0mg"},{"bike_id":"939b9c08-d247-4e29-a963-e8d7b1f9aa03","system_id":"levelo_inurba_marseille","lat":43.28847,"lon":5.35889,"is_reserved":false,"is_disabled":false,"rental_uris":{"android":"levelo://app?vid=939b9c08-d247-4e29-a963-e8d7b1f9aa03","ios":"levelo://app?vid=939b9c08-d247-4e29-a963-e8d7b1f9aa03"},"vehicle_type_id":"4","last_reported":1757794126,"current_range_meters":14000,"station_id":"ce4bhb12rcd13ifvqem0","pricing_plan_id":"cebpf4jnsgd1na2vs0mg"},{"bike_id":"cd104b68-7370-4e88-ba9c-1edeee0f6c77","system_id":"levelo_inurba_marseille","lat":43.252133,"lon":5.425108,"is_reserved":false,"is_disabled":false,"rental_uris":{"android":"levelo://app?vid=cd104b68-7370-4e88-ba9c-1edeee0f6c77","ios":"levelo://app?vid=cd104b68-7370-4e88-ba9c-1edeee0f6c77"},"vehicle_type_id":"4","last_reported":1757794126,"current_range_meters":14000,"station_id":"","pricing_plan_id":"cebpf4jnsgd1na2vs0mg"},{"bike_id":"e9ee13b6-cdb7-464a-b41c-3f407be862de","system_id":"levelo_inurba_marseille","lat":43.217535,"lon":5.345973,"is_reserved":false,"is_disabled":false,"rental_uris":{"android":"levelo://app?vid=e9ee13b6-cdb7-464a-b41c-3f407be862de","ios":"levelo://app?vid=e9ee13b6-cdb7-464a-b41c-3f407be862de"},"vehicle_type_id":"4","last_reported":1757794126,"current_range_meters":14000,"station_id":"st_cvj6r9ubvosntc0bgbag","pricing_plan_id":"cebpf4jnsgd1na2vs0mg"},{"bike_id":"0c13100c-0c9a-4368-845d-53f7683eda77","system_id":"levelo_inurba_marseille","lat":43.290229,"lon":5.386519,"is_reserved":false,"is_disabled":false,"rental_uris":{"android":"levelo://app?vid=0c13100c-0c9a-4368-845d-53f7683eda77","ios":"levelo://app?vid=0c13100c-0c9a-4368-845d-53f7683eda77"},"vehicle_type_id":"4","last_reported":1757794126,"current_range_meters":14000,"station_id":"ce4bh4p2rcd13ifvqe0g","pricing_plan_id":"cebpf4jnsgd1na2vs0mg"},{"bike_id":"1eaf7d24-f23e-4e79-b6f5-17176bccc028","system_id":"levelo_inurba_marseille","lat":43.27959,"lon":5.38715,"is_reserved":false,"is_disabled":false,"rental_uris":{"android":"levelo://app?vid=1eaf7d24-f23e-4e79-b6f5-17176bccc028","ios":"levelo://app?vid=1eaf7d24-f23e-4e79-b6f5-17176bccc028"},"vehicle_type_id":"4","last_reported":1757794126,"current_range_meters":14000,"station_id":"ce4bhg12rcd13ifvqf80","pricing_plan_id":"cebpf4jnsgd1na2vs0mg"},{"bike_id":"ee42c31a-b74b-4b2d-917a-cd50dc10c6ce","system_id":"levelo_inurba_marseille","lat":43.330594,"lon":5.390092,"is_reserved":false,"is_disabled":false,"rental_uris":{"android":"levelo://app?vid=ee42c31a-b74b-4b2d-917a-cd50dc10c6ce","ios":"levelo://app?vid=ee42c31a-b74b-4b2d-917a-cd50dc10c6ce"},"vehicle_type_id":"4","last_reported":1757794126,"current_range_meters":14000,"station_id":"ce4bhr92rcd13ifvqhrg","pricing_plan_id":"cebpf4jnsgd1na2vs0mg"},{"bike_id":"b6bf1068-6d9e-4675-9745-cbdcefb2286a","system_id":"levelo_inurba_marseille","lat":43.27963,"lon":5.410309,"is_reserved":false,"is_disabled":false,"rental_uris":{"android":"levelo://app?vid=b6bf1068-6d9e-4675-9745-cbdcefb2286a","ios":"levelo://app?vid=b6bf1068-6d9e-4675-9745-cbdcefb2286a"},"vehicle_type_id":"4","last_reported":1757794126,"current_range_meters":14000,"station_id":"ce4bhnp2rcd13ifvqh0g","pricing_plan_id":"cebpf4jnsgd1na2vs0mg"},{"bike_id":"43ca272c-2814-4669-afb3-e6b5f5f8f21b","system_id":"levelo_inurba_marseille","lat":43.29889,"lon":5.38901,"is_reserved":false,"is_disabled":false,"rental_uris":{"android":"levelo://app?vid=43ca272c-2814-4669-afb3-e6b5f5f8f21b","ios":"levelo://app?vid=43ca272c-2814-4669-afb3-e6b5f5f8f21b"},"vehicle_type_id":"4","last_reported":1757794126,"current_range_meters":14000,"station_id":"ce4bh392rcd13ifvqdl0","pricing_plan_id":"cebpf4jnsgd1na2vs0mg"},{"bike_id":"c5cba6d7-e282-4417-a818-5fc0802dcb08","system_id":"levelo_inurba_marseille","lat":43.33761,"lon":5.3745,"is_reserved":false,"is_disabled":false,"rental_uris":{"android":"levelo://app?vid=c5cba6d7-e282-4417-a818-5fc0802dcb08","ios":"levelo://app?vid=c5cba6d7-e282-4417-a818-5fc0802dcb08"},"vehicle_type_id":"4","last_reported":1757794126,"current_range_meters":14000,"station_id":"","pricing_plan_id":"cebpf4jnsgd1na2vs0mg"},{"bike_id":"f07d1a34-6972-4c1d-8ed8-100dd0fc1e78","system_id":"levelo_inurba_marseille","lat":43.32985,"lon":5.39052,"is_reserved":false,"is_disabled":false,"rental_uris":{"android":"levelo://app?vid=f07d1a34-6972-4c1d-8ed8-100dd0fc1e78","ios":"levelo://app?vid=f07d1a34-6972-4c1d-8ed8-100dd0fc1e78"},"vehicle_type_id":"4","last_reported":1757794126,"current_range_meters":14000,"station_id":"ce4bhr92rcd13ifvqhrg","pricing_plan_id":"cebpf4jnsgd1na2vs0mg"},{"bike_id":"40207740-3997-48f7-a3a9-b19ccf0a0c3b","system_id":"levelo_inurba_marseille","lat":43.30419,"lon":5.41274,"is_reserved":false,"is_disabled":false,"rental_uris":{"android":"levelo://app?vid=40207740-3997-48f7-a3a9-b19ccf0a0c3b","ios":"levelo://app?vid=40207740-3997-48f7-a3a9-b19ccf0a0c3b"},"vehicle_type_id":"4","last_reported":1757794126,"current_range_meters":14000,"station_id":"ce4bhop2rcd13ifvqh8g","pricing_plan_id":"cebpf4jnsgd1na2vs0mg"},{"bike_id":"ee510f93-9bad-498c-af93-1bec8c5ad01b","system_id":"levelo_inurba_marseille","lat":43.25338,"lon":5.42139,"is_reserved":false,"is_disabled":false,"rental_uris":{"android":"levelo://app?vid=ee510f93-9bad-498c-af93-1bec8c5ad01b","ios":"levelo://app?vid=ee510f93-9bad-498c-af93-1bec8c5ad01b"},"vehicle_type_id":"4","last_reported":1757794126,"current_range_meters":14400,"station_id":"st_d2m65c5bi1j21697t3ng","pricing_plan_id":"cebpf4jnsgd1na2vs0mg"},{"bike_id":"fd023a40-d69c-4361-9109-4126162693f0","system_id":"levelo_inurba_marseille","lat":43.27772,"lon":5.3783,"is_reserved":false,"is_disabled":false,"rental_uris":{"android":"levelo://app?vid=fd023a40-d69c-4361-9109-4126162693f0","ios":"levelo://app?vid=fd023a40-d69c-4361-9109-4126162693f0"},"vehicle_type_id":"4","last_reported":1757794126,"current_range_meters":14400,"station_id":"","pricing_plan_id":"cebpf4jnsgd1na2vs0mg"},{"bike_id":"986d5aa2-f4df-4631-b089-ccb3d6dae626","system_id":"levelo_inurba_marseille","lat":43.31376,"lon":5.38627,"is_reserved":false,"is_disabled":false,"rental_uris":{"android":"levelo://app?vid=986d5aa2-f4df-4631-b089-ccb3d6dae626","ios":"levelo://app?vid=986d5aa2-f4df-4631-b089-ccb3d6dae626"},"vehicle_type_id":"4","last_reported":1757794126,"current_range_meters":14400,"station_id":"","pricing_plan_id":"cebpf4jnsgd1na2vs0mg"},{"bike_id":"aa410d03-d1e7-4dca-9573-65efb6871b4a","system_id":"levelo_inurba_marseille","lat":43.29277,"lon":5.40114,"is_reserved":false,"is_disabled":false,"rental_uris":{"android":"levelo://app?vid=aa410d03-d1e7-4dca-9573-65efb6871b4a","ios":"levelo://app?vid=aa410d03-d1e7-4dca-9573-65efb6871b4a"},"vehicle_type_id":"4","last_reported":1757794126,"current_range_meters":14400,"station_id":"ce4bh312rcd13ifvqdk0","pricing_plan_id":"cebpf4jnsgd1na2vs0mg"},{"bike_id":"c10be544-bed7-43be-8a6b-20970bed2ca2","system_id":"levelo_inurba_marseille","lat":43.292746,"lon":5.374865,"is_reserved":false,"is_disabled":false,"rental_uris":{"android":"levelo://app?vid=c10be544-bed7-43be-8a6b-20970bed2ca2","ios":"levelo://app?vid=c10be544-bed7-43be-8a6b-20970bed2ca2"},"vehicle_type_id":"4","last_reported":1757794126,"current_range_meters":14400,"station_id":"","pricing_plan_id":"cebpf4jnsgd1na2vs0mg"},{"bike_id":"876a4519-8239-4bd9-941c-4749ebc0fb10","system_id":"levelo_inurba_marseille","lat":43.32334,"lon":5.40627,"is_reserved":false,"is_disabled":false,"rental_uris":{"android":"levelo://app?vid=876a4519-8239-4bd9-941c-4749ebc0fb10","ios":"levelo://app?vid=876a4519-8239-4bd9-941c-4749ebc0fb10"},"vehicle_type_id":"4","last_reported":1757794126,"current_range_meters":14400,"station_id":"ce4bhq92rcd13ifvqhjg","pricing_plan_id":"cebpf4jnsgd1na2vs0mg"},{"bike_id":"7108a4a4-23a1-4ea2-a599-54c778559313","system_id":"levelo_inurba_marseille","lat":43.26223,"lon":5.40445,"is_reserved":false,"is_disabled":false,"rental_uris":{"android":"levelo://app?vid=7108a4a4-23a1-4ea2-a599-54c778559313","ios":"levelo://app?vid=7108a4a4-23a1-4ea2-a599-54c778559313"},"vehicle_type_id":"4","last_reported":1757794126,"current_range_meters":14400,"station_id":"ce4bhmh2rcd13ifvqgmg","pricing_plan_id":"cebpf4jnsgd1na2vs0mg"},{"bike_id":"bc594d68-6b8e-42c6-936e-87460fe35d94","system_id":"levelo_inurba_marseille","lat":43.30241,"lon":5.4008,"is_reserved":false,"is_disabled":false,"rental_uris":{"android":"levelo://app?vid=bc594d68-6b8e-42c6-936e-87460fe35d94","ios":"levelo://app?vid=bc594d68-6b8e-42c6-936e-87460fe35d94"},"vehicle_type_id":"4","last_reported":1757794126,"current_range_meters":14400,"station_id":"ce4bgvh2rcd13ifvqcs0","pricing_plan_id":"cebpf4jnsgd1na2vs0mg"},{"bike_id":"e7a329bd-ed66-4ac7-aaba-63f2810ddd86","system_id":"levelo_inurba_marseille","lat":43.31908,"lon":5.37177,"is_reserved":false,"is_disabled":false,"rental_uris":{"android":"levelo://app?vid=e7a329bd-ed66-4ac7-aaba-63f2810ddd86","ios":"levelo://app?vid=e7a329bd-ed66-4ac7-aaba-63f2810ddd86"},"vehicle_type_id":"4","last_reported":1757794126,"current_range_meters":14800,"station_id":"","pricing_plan_id":"cebpf4jnsgd1na2vs0mg"},{"bike_id":"b5e6492f-c6f6-4862-a7a2-5eb9440d5281","system_id":"levelo_inurba_marseille","lat":43.27996,"lon":5.4005,"is_reserved":false,"is_disabled":false,"rental_uris":{"android":"levelo://app?vid=b5e6492f-c6f6-4862-a7a2-5eb9440d5281","ios":"levelo://app?vid=b5e6492f-c6f6-4862-a7a2-5eb9440d5281"},"vehicle_type_id":"4","last_reported":1757794126,"current_range_meters":14800,"station_id":"ce4bho92rcd13ifvqh4g","pricing_plan_id":"cebpf4jnsgd1na2vs0mg"},{"bike_id":"0f88ade7-a5e5-4f84-877c-c89586811dd3","system_id":"levelo_inurba_marseille","lat":43.29311,"lon":5.37178,"is_reserved":false,"is_disabled":false,"rental_uris":{"android":"levelo://app?vid=0f88ade7-a5e5-4f84-877c-c89586811dd3","ios":"levelo://app?vid=0f88ade7-a5e5-4f84-877c-c89586811dd3"},"vehicle_type_id":"4","last_reported":1757794126,"current_range_meters":14800,"station_id":"ce4bgh92rcd13ifvqb40","pricing_plan_id":"cebpf4jnsgd1na2vs0mg"},{"bike_id":"08dd149f-234d-4257-9742-8ea8a2f2658d","system_id":"levelo_inurba_marseille","lat":43.28399,"lon":5.37519,"is_reserved":false,"is_disabled":true,"rental_uris":{"android":"levelo://app?vid=08dd149f-234d-4257-9742-8ea8a2f2658d","ios":"levelo://app?vid=08dd149f-234d-4257-9742-8ea8a2f2658d"},"vehicle_type_id":"4","last_reported":1757794126,"current_range_meters":14800,"station_id":"ce4bh412rcd13ifvqds0","pricing_plan_id":"cebpf4jnsgd1na2vs0mg"},{"bike_id":"12b9c958-ee1d-4a7e-b063-6648532a7910","system_id":"levelo_inurba_marseille","lat":43.30428,"lon":5.41293,"is_reserved":false,"is_disabled":false,"rental_uris":{"android":"levelo://app?vid=12b9c958-ee1d-4a7e-b063-6648532a7910","ios":"levelo://app?vid=12b9c958-ee1d-4a7e-b063-6648532a7910"},"vehicle_type_id":"4","last_reported":1757794126,"current_range_meters":14800,"station_id":"ce4bhop2rcd13ifvqh8g","pricing_plan_id":"cebpf4jnsgd1na2vs0mg"},{"bike_id":"b9818415-ba06-431b-8a12-0a48aedd520c","system_id":"levelo_inurba_marseille","lat":43.30354,"lon":5.41875,"is_reserved":false,"is_disabled":false,"rental_uris":{"android":"levelo://app?vid=b9818415-ba06-431b-8a12-0a48aedd520c","ios":"levelo://app?vid=b9818415-ba06-431b-8a12-0a48aedd520c"},"vehicle_type_id":"4","last_reported":1757794126,"current_range_meters":14800,"station_id":"ce4bhop2rcd13ifvqh7g","pricing_plan_id":"cebpf4jnsgd1na2vs0mg"},{"bike_id":"c682ef70-00bc-4415-9b10-9a35bd5ddcc1","system_id":"levelo_inurba_marseille","lat":43.27495,"lon":5.42449,"is_reserved":false,"is_disabled":false,"rental_uris":{"android":"levelo://app?vid=c682ef70-00bc-4415-9b10-9a35bd5ddcc1","ios":"levelo://app?vid=c682ef70-00bc-4415-9b10-9a35bd5ddcc1"},"vehicle_type_id":"4","last_reported":1757794126,"current_range_meters":15200,"station_id":"ce4bhn92rcd13ifvqgrg","pricing_plan_id":"cebpf4jnsgd1na2vs0mg"},{"bike_id":"0418ed23-d4c6-49db-b310-d4f985bd3bc3","system_id":"levelo_inurba_marseille","lat":43.32091,"lon":5.36761,"is_reserved":false,"is_disabled":false,"rental_uris":{"android":"levelo://app?vid=0418ed23-d4c6-49db-b310-d4f985bd3bc3","ios":"levelo://app?vid=0418ed23-d4c6-49db-b310-d4f985bd3bc3"},"vehicle_type_id":"4","last_reported":1757794126,"current_range_meters":15200,"station_id":"ce4bhrh2rcd13ifvqhug","pricing_plan_id":"cebpf4jnsgd1na2vs0mg"},{"bike_id":"c191ad49-f4cb-4b6a-8b55-e924c1e5ab80","system_id":"levelo_inurba_marseille","lat":43.279425,"lon":5.41053,"is_reserved":false,"is_disabled":false,"rental_uris":{"android":"levelo://app?vid=c191ad49-f4cb-4b6a-8b55-e924c1e5ab80","ios":"levelo://app?vid=c191ad49-f4cb-4b6a-8b55-e924c1e5ab80"},"vehicle_type_id":"4","last_reported":1757794126,"current_range_meters":15200,"station_id":"ce4bhnp2rcd13ifvqh0g","pricing_plan_id":"cebpf4jnsgd1na2vs0mg"},{"bike_id":"7dc559a0-54a4-4bc2-9f13-196f9d20639e","system_id":"levelo_inurba_marseille","lat":43.25498,"lon":5.37651,"is_reserved":false,"is_disabled":false,"rental_uris":{"android":"levelo://app?vid=7dc559a0-54a4-4bc2-9f13-196f9d20639e","ios":"levelo://app?vid=7dc559a0-54a4-4bc2-9f13-196f9d20639e"},"vehicle_type_id":"4","last_reported":1757794126,"current_range_meters":15200,"station_id":"ce4bhh12rcd13ifvqff0","pricing_plan_id":"cebpf4jnsgd1na2vs0mg"},{"bike_id":"3edab8b5-08ab-4bd7-a8e3-46e14fec2b69","system_id":"levelo_inurba_marseille","lat":43.22584,"lon":5.41651,"is_reserved":false,"is_disabled":false,"rental_uris":{"android":"levelo://app?vid=3edab8b5-08ab-4bd7-a8e3-46e14fec2b69","ios":"levelo://app?vid=3edab8b5-08ab-4bd7-a8e3-46e14fec2b69"},"vehicle_type_id":"4","last_reported":1757794126,"current_range_meters":15200,"station_id":"st_d2o4gvlbi1j2169b742g","pricing_plan_id":"cebpf4jnsgd1na2vs0mg"},{"bike_id":"9613ee4d-bd84-40ec-a183-9abb4af6a1b6","system_id":"levelo_inurba_marseille","lat":43.32347,"lon":5.36753,"is_reserved":false,"is_disabled":false,"rental_uris":{"android":"levelo://app?vid=9613ee4d-bd84-40ec-a183-9abb4af6a1b6","ios":"levelo://app?vid=9613ee4d-bd84-40ec-a183-9abb4af6a1b6"},"vehicle_type_id":"4","last_reported":1757794126,"current_range_meters":15200,"station_id":"ce4bhsh2rcd13ifvqi2g","pricing_plan_id":"cebpf4jnsgd1na2vs0mg"},{"bike_id":"1fd0839a-5871-4f14-8b02-5a5126ced4cd","system_id":"levelo_inurba_marseille","lat":43.23181,"lon":5.39987,"is_reserved":false,"is_disabled":false,"rental_uris":{"android":"levelo://app?vid=1fd0839a-5871-4f14-8b02-5a5126ced4cd","ios":"levelo://app?vid=1fd0839a-5871-4f14-8b02-5a5126ced4cd"},"vehicle_type_id":"4","last_reported":1757794126,"current_range_meters":15200,"station_id":"ce4bhn12rcd13ifvqgqg","pricing_plan_id":"cebpf4jnsgd1na2vs0mg"},{"bike_id":"d16230ff-2955-426b-a6aa-84f8e2e13648","system_id":"levelo_inurba_marseille","lat":43.28859,"lon":5.42526,"is_reserved":false,"is_disabled":false,"rental_uris":{"android":"levelo://app?vid=d16230ff-2955-426b-a6aa-84f8e2e13648","ios":"levelo://app?vid=d16230ff-2955-426b-a6aa-84f8e2e13648"},"vehicle_type_id":"4","last_reported":1757794126,"current_range_meters":15200,"station_id":"","pricing_plan_id":"cebpf4jnsgd1na2vs0mg"},{"bike_id":"31f4578e-18c6-48fb-9fec-123fce0578f9","system_id":"levelo_inurba_marseille","lat":43.30491,"lon":5.3794,"is_reserved":false,"is_disabled":false,"rental_uris":{"android":"levelo://app?vid=31f4578e-18c6-48fb-9fec-123fce0578f9","ios":"levelo://app?vid=31f4578e-18c6-48fb-9fec-123fce0578f9"},"vehicle_type_id":"4","last_reported":1757794126,"current_range_meters":15200,"station_id":"","pricing_plan_id":"cebpf4jnsgd1na2vs0mg"},{"bike_id":"fd413c1c-5b29-4fe2-b20e-81605e31bf59","system_id":"levelo_inurba_marseille","lat":43.29026,"lon":5.38647,"is_reserved":false,"is_disabled":false,"rental_uris":{"android":"levelo://app?vid=fd413c1c-5b29-4fe2-b20e-81605e31bf59","ios":"levelo://app?vid=fd413c1c-5b29-4fe2-b20e-81605e31bf59"},"vehicle_type_id":"4","last_reported":1757794126,"current_range_meters":15200,"station_id":"ce4bh4p2rcd13ifvqe0g","pricing_plan_id":"cebpf4jnsgd1na2vs0mg"},{"bike_id":"8bc5357f-ac38-437a-8652-67c1ef19001d","system_id":"levelo_inurba_marseille","lat":43.29429,"lon":5.38614,"is_reserved":false,"is_disabled":false,"rental_uris":{"android":"levelo://app?vid=8bc5357f-ac38-437a-8652-67c1ef19001d","ios":"levelo://app?vid=8bc5357f-ac38-437a-8652-67c1ef19001d"},"vehicle_type_id":"4","last_reported":1757794126,"current_range_meters":16000,"station_id":"","pricing_plan_id":"cebpf4jnsgd1na2vs0mg"},{"bike_id":"7b745801-5774-40e8-8c0c-f1518cce3ac7","system_id":"levelo_inurba_marseille","lat":43.29612,"lon":5.38094,"is_reserved":false,"is_disabled":false,"rental_uris":{"android":"levelo://app?vid=7b745801-5774-40e8-8c0c-f1518cce3ac7","ios":"levelo://app?vid=7b745801-5774-40e8-8c0c-f1518cce3ac7"},"vehicle_type_id":"4","last_reported":1757794126,"current_range_meters":16000,"station_id":"ce4bgl12rcd13ifvqbo0","pricing_plan_id":"cebpf4jnsgd1na2vs0mg"},{"bike_id":"76044b47-22ff-4054-b180-0d72b52b8bee","system_id":"levelo_inurba_marseille","lat":43.24627,"lon":5.43153,"is_reserved":false,"is_disabled":false,"rental_uris":{"android":"levelo://app?vid=76044b47-22ff-4054-b180-0d72b52b8bee","ios":"levelo://app?vid=76044b47-22ff-4054-b180-0d72b52b8bee"},"vehicle_type_id":"4","last_reported":1757794126,"current_range_meters":16000,"station_id":"st_d2m6c4gdas8pm72e190g","pricing_plan_id":"cebpf4jnsgd1na2vs0mg"},{"bike_id":"431c6cb6-668f-4a57-ad0c-d9770f1e96ab","system_id":"levelo_inurba_marseille","lat":43.2961,"lon":5.37723,"is_reserved":false,"is_disabled":false,"rental_uris":{"android":"levelo://app?vid=431c6cb6-668f-4a57-ad0c-d9770f1e96ab","ios":"levelo://app?vid=431c6cb6-668f-4a57-ad0c-d9770f1e96ab"},"vehicle_type_id":"4","last_reported":1757794126,"current_range_meters":16000,"station_id":"ce4bgi92rcd13ifvqb90","pricing_plan_id":"cebpf4jnsgd1na2vs0mg"},{"bike_id":"eb41f718-4e8e-40b8-964b-98e12bf05f6b","system_id":"levelo_inurba_marseille","lat":43.29266,"lon":5.3684,"is_reserved":false,"is_disabled":false,"rental_uris":{"android":"levelo://app?vid=eb41f718-4e8e-40b8-964b-98e12bf05f6b","ios":"levelo://app?vid=eb41f718-4e8e-40b8-964b-98e12bf05f6b"},"vehicle_type_id":"4","last_reported":1757794126,"current_range_meters":16000,"station_id":"ce4bhbp2rcd13ifvqesg","pricing_plan_id":"cebpf4jnsgd1na2vs0mg"},{"bike_id":"3bc338fd-b3c5-4caa-b6e6-3c70a52689ba","system_id":"levelo_inurba_marseille","lat":43.31606,"lon":5.38953,"is_reserved":false,"is_disabled":false,"rental_uris":{"android":"levelo://app?vid=3bc338fd-b3c5-4caa-b6e6-3c70a52689ba","ios":"levelo://app?vid=3bc338fd-b3c5-4caa-b6e6-3c70a52689ba"},"vehicle_type_id":"4","last_reported":1757794126,"current_range_meters":16000,"station_id":"","pricing_plan_id":"cebpf4jnsgd1na2vs0mg"},{"bike_id":"011965a8-f631-45b2-b308-a239a56214f2","system_id":"levelo_inurba_marseille","lat":43.30448,"lon":5.37926,"is_reserved":false,"is_disabled":false,"rental_uris":{"android":"levelo://app?vid=011965a8-f631-45b2-b308-a239a56214f2","ios":"levelo://app?vid=011965a8-f631-45b2-b308-a239a56214f2"},"vehicle_type_id":"4","last_reported":1757794126,"current_range_meters":16000,"station_id":"","pricing_plan_id":"cebpf4jnsgd1na2vs0mg"},{"bike_id":"1fa9cf8a-cbc2-4f66-a5af-49139eedcffa","system_id":"levelo_inurba_marseille","lat":43.31679,"lon":5.4049,"is_reserved":false,"is_disabled":false,"rental_uris":{"android":"levelo://app?vid=1fa9cf8a-cbc2-4f66-a5af-49139eedcffa","ios":"levelo://app?vid=1fa9cf8a-cbc2-4f66-a5af-49139eedcffa"},"vehicle_type_id":"4","last_reported":1757794126,"current_range_meters":16400,"station_id":"ce4bh012rcd13ifvqd00","pricing_plan_id":"cebpf4jnsgd1na2vs0mg"},{"bike_id":"085d1fc3-832e-4bb8-9dab-596c869e48fd","system_id":"levelo_inurba_marseille","lat":43.28207,"lon":5.39053,"is_reserved":false,"is_disabled":false,"rental_uris":{"android":"levelo://app?vid=085d1fc3-832e-4bb8-9dab-596c869e48fd","ios":"levelo://app?vid=085d1fc3-832e-4bb8-9dab-596c869e48fd"},"vehicle_type_id":"4","last_reported":1757794126,"current_range_meters":16400,"station_id":"ce4bhn92rcd13ifvqgsg","pricing_plan_id":"cebpf4jnsgd1na2vs0mg"},{"bike_id":"ffab450d-4c81-4d44-8256-678a72cf8297","system_id":"levelo_inurba_marseille","lat":43.31718,"lon":5.40475,"is_reserved":false,"is_disabled":false,"rental_uris":{"android":"levelo://app?vid=ffab450d-4c81-4d44-8256-678a72cf8297","ios":"levelo://app?vid=ffab450d-4c81-4d44-8256-678a72cf8297"},"vehicle_type_id":"4","last_reported":1757794126,"current_range_meters":16400,"station_id":"ce4bh012rcd13ifvqd00","pricing_plan_id":"cebpf4jnsgd1na2vs0mg"},{"bike_id":"03cbb913-b572-4e8e-8408-38de556db1ca","system_id":"levelo_inurba_marseille","lat":43.296072,"lon":5.381189,"is_reserved":false,"is_disabled":false,"rental_uris":{"android":"levelo://app?vid=03cbb913-b572-4e8e-8408-38de556db1ca","ios":"levelo://app?vid=03cbb913-b572-4e8e-8408-38de556db1ca"},"vehicle_type_id":"4","last_reported":1757794126,"current_range_meters":16400,"station_id":"ce4bgl12rcd13ifvqbo0","pricing_plan_id":"cebpf4jnsgd1na2vs0mg"},{"bike_id":"c75bfa20-483b-42f7-8a25-5f10e08a57b0","system_id":"levelo_inurba_marseille","lat":43.3211,"lon":5.36801,"is_reserved":false,"is_disabled":false,"rental_uris":{"android":"levelo://app?vid=c75bfa20-483b-42f7-8a25-5f10e08a57b0","ios":"levelo://app?vid=c75bfa20-483b-42f7-8a25-5f10e08a57b0"},"vehicle_type_id":"4","last_reported":1757794126,"current_range_meters":16400,"station_id":"ce4bhrh2rcd13ifvqhug","pricing_plan_id":"cebpf4jnsgd1na2vs0mg"},{"bike_id":"3bd2ccf5-8c56-4f81-9ee7-c15c3d5979d0","system_id":"levelo_inurba_marseille","lat":43.29615,"lon":5.38129,"is_reserved":false,"is_disabled":false,"rental_uris":{"android":"levelo://app?vid=3bd2ccf5-8c56-4f81-9ee7-c15c3d5979d0","ios":"levelo://app?vid=3bd2ccf5-8c56-4f81-9ee7-c15c3d5979d0"},"vehicle_type_id":"4","last_reported":1757794126,"current_range_meters":16400,"station_id":"ce4bgl12rcd13ifvqbo0","pricing_plan_id":"cebpf4jnsgd1na2vs0mg"},{"bike_id":"4030baaa-a3d7-4e05-a3f7-b84c1e413b72","system_id":"levelo_inurba_marseille","lat":43.29259,"lon":5.4091,"is_reserved":false,"is_disabled":false,"rental_uris":{"android":"levelo://app?vid=4030baaa-a3d7-4e05-a3f7-b84c1e413b72","ios":"levelo://app?vid=4030baaa-a3d7-4e05-a3f7-b84c1e413b72"},"vehicle_type_id":"4","last_reported":1757794126,"current_range_meters":16400,"station_id":"ce4bh192rcd13ifvqdc0","pricing_plan_id":"cebpf4jnsgd1na2vs0mg"},{"bike_id":"17bdaf43-5460-4804-b994-be25b63d6e19","system_id":"levelo_inurba_marseille","lat":43.35196,"lon":5.43589,"is_reserved":false,"is_disabled":false,"rental_uris":{"android":"levelo://app?vid=17bdaf43-5460-4804-b994-be25b63d6e19","ios":"levelo://app?vid=17bdaf43-5460-4804-b994-be25b63d6e19"},"vehicle_type_id":"4","last_reported":1757794126,"current_range_meters":16800,"station_id":"","pricing_plan_id":"cebpf4jnsgd1na2vs0mg"},{"bike_id":"e2e4f612-cea7-473f-8581-0936e5ea494b","system_id":"levelo_inurba_marseille","lat":43.29269,"lon":5.38445,"is_reserved":false,"is_disabled":false,"rental_uris":{"android":"levelo://app?vid=e2e4f612-cea7-473f-8581-0936e5ea494b","ios":"levelo://app?vid=e2e4f612-cea7-473f-8581-0936e5ea494b"},"vehicle_type_id":"4","last_reported":1757794126,"current_range_meters":16800,"station_id":"ce4bh692rcd13ifvqea0","pricing_plan_id":"cebpf4jnsgd1na2vs0mg"},{"bike_id":"5476d906-b0c2-4d37-81e0-6fc56d7abe48","system_id":"levelo_inurba_marseille","lat":43.31716,"lon":5.37672,"is_reserved":false,"is_disabled":false,"rental_uris":{"android":"levelo://app?vid=5476d906-b0c2-4d37-81e0-6fc56d7abe48","ios":"levelo://app?vid=5476d906-b0c2-4d37-81e0-6fc56d7abe48"},"vehicle_type_id":"4","last_reported":1757794126,"current_range_meters":16800,"station_id":"","pricing_plan_id":"cebpf4jnsgd1na2vs0mg"},{"bike_id":"cfdf2895-e59a-4f76-94cd-cab2954b2d8b","system_id":"levelo_inurba_marseille","lat":43.31225,"lon":5.36865,"is_reserved":false,"is_disabled":false,"rental_uris":{"android":"levelo://app?vid=cfdf2895-e59a-4f76-94cd-cab2954b2d8b","ios":"levelo://app?vid=cfdf2895-e59a-4f76-94cd-cab2954b2d8b"},"vehicle_type_id":"4","last_reported":1757794126,"current_range_meters":16800,"station_id":"ce4bgl92rcd13ifvqbq0","pricing_plan_id":"cebpf4jnsgd1na2vs0mg"},{"bike_id":"9a8c5c2a-17a3-4656-9963-909d8702da0c","system_id":"levelo_inurba_marseille","lat":43.29881,"lon":5.38909,"is_reserved":false,"is_disabled":false,"rental_uris":{"android":"levelo://app?vid=9a8c5c2a-17a3-4656-9963-909d8702da0c","ios":"levelo://app?vid=9a8c5c2a-17a3-4656-9963-909d8702da0c"},"vehicle_type_id":"4","last_reported":1757794126,"current_range_meters":16800,"station_id":"ce4bh392rcd13ifvqdl0","pricing_plan_id":"cebpf4jnsgd1na2vs0mg"},{"bike_id":"0db1212c-b38c-47f5-8e41-37749d8fc729","system_id":"levelo_inurba_marseille","lat":43.2899,"lon":5.38665,"is_reserved":false,"is_disabled":false,"rental_uris":{"android":"levelo://app?vid=0db1212c-b38c-47f5-8e41-37749d8fc729","ios":"levelo://app?vid=0db1212c-b38c-47f5-8e41-37749d8fc729"},"vehicle_type_id":"4","last_reported":1757794126,"current_range_meters":16800,"station_id":"","pricing_plan_id":"cebpf4jnsgd1na2vs0mg"},{"bike_id":"e4209e64-8d98-470c-a33c-9b7fd85a3947","system_id":"levelo_inurba_marseille","lat":43.295426,"lon":5.385482,"is_reserved":false,"is_disabled":false,"rental_uris":{"android":"levelo://app?vid=e4209e64-8d98-470c-a33c-9b7fd85a3947","ios":"levelo://app?vid=e4209e64-8d98-470c-a33c-9b7fd85a3947"},"vehicle_type_id":"4","last_reported":1757794126,"current_range_meters":16800,"station_id":"ce4bgih2rcd13ifvqba0","pricing_plan_id":"cebpf4jnsgd1na2vs0mg"},{"bike_id":"8160f885-c86d-440e-8f89-c570e092991d","system_id":"levelo_inurba_marseille","lat":43.31182,"lon":5.36884,"is_reserved":false,"is_disabled":false,"rental_uris":{"android":"levelo://app?vid=8160f885-c86d-440e-8f89-c570e092991d","ios":"levelo://app?vid=8160f885-c86d-440e-8f89-c570e092991d"},"vehicle_type_id":"4","last_reported":1757794126,"current_range_meters":17200,"station_id":"ce4bgl92rcd13ifvqbq0","pricing_plan_id":"cebpf4jnsgd1na2vs0mg"},{"bike_id":"8531afdb-32d4-4c53-8b7d-1730982d0eec","system_id":"levelo_inurba_marseille","lat":43.21741,"lon":5.34606,"is_reserved":false,"is_disabled":false,"rental_uris":{"android":"levelo://app?vid=8531afdb-32d4-4c53-8b7d-1730982d0eec","ios":"levelo://app?vid=8531afdb-32d4-4c53-8b7d-1730982d0eec"},"vehicle_type_id":"4","last_reported":1757794126,"current_range_meters":17200,"station_id":"st_cvj6r9ubvosntc0bgbag","pricing_plan_id":"cebpf4jnsgd1na2vs0mg"},{"bike_id":"2500752c-16d5-4447-b628-690ad7fdd253","system_id":"levelo_inurba_marseille","lat":43.21737,"lon":5.34607,"is_reserved":false,"is_disabled":false,"rental_uris":{"android":"levelo://app?vid=2500752c-16d5-4447-b628-690ad7fdd253","ios":"levelo://app?vid=2500752c-16d5-4447-b628-690ad7fdd253"},"vehicle_type_id":"4","last_reported":1757794126,"current_range_meters":17200,"station_id":"st_cvj6r9ubvosntc0bgbag","pricing_plan_id":"cebpf4jnsgd1na2vs0mg"},{"bike_id":"41ba6dcd-f11b-4445-b7b7-d9fe9325fc99","system_id":"levelo_inurba_marseille","lat":43.28015,"lon":5.36937,"is_reserved":false,"is_disabled":false,"rental_uris":{"android":"levelo://app?vid=41ba6dcd-f11b-4445-b7b7-d9fe9325fc99","ios":"levelo://app?vid=41ba6dcd-f11b-4445-b7b7-d9fe9325fc99"},"vehicle_type_id":"4","last_reported":1757794126,"current_range_meters":17200,"station_id":"ce4bha12rcd13ifvqef0","pricing_plan_id":"cebpf4jnsgd1na2vs0mg"},{"bike_id":"98ac5533-5be5-4010-97cc-352f11941c30","system_id":"levelo_inurba_marseille","lat":43.2903,"lon":5.39964,"is_reserved":false,"is_disabled":false,"rental_uris":{"android":"levelo://app?vid=98ac5533-5be5-4010-97cc-352f11941c30","ios":"levelo://app?vid=98ac5533-5be5-4010-97cc-352f11941c30"},"vehicle_type_id":"4","last_reported":1757794126,"current_range_meters":17200,"station_id":"ce4bh392rcd13ifvqdm0","pricing_plan_id":"cebpf4jnsgd1na2vs0mg"},{"bike_id":"7edc7bbf-2511-4016-8e4f-ab053b27c492","system_id":"levelo_inurba_marseille","lat":43.29296,"lon":5.37464,"is_reserved":false,"is_disabled":false,"rental_uris":{"android":"levelo://app?vid=7edc7bbf-2511-4016-8e4f-ab053b27c492","ios":"levelo://app?vid=7edc7bbf-2511-4016-8e4f-ab053b27c492"},"vehicle_type_id":"4","last_reported":1757794126,"current_range_meters":17200,"station_id":"ce4bgi12rcd13ifvqb70","pricing_plan_id":"cebpf4jnsgd1na2vs0mg"},{"bike_id":"9b3c346f-9588-43e4-83a8-2b93c7371469","system_id":"levelo_inurba_marseille","lat":43.28695,"lon":5.39973,"is_reserved":false,"is_disabled":false,"rental_uris":{"android":"levelo://app?vid=9b3c346f-9588-43e4-83a8-2b93c7371469","ios":"levelo://app?vid=9b3c346f-9588-43e4-83a8-2b93c7371469"},"vehicle_type_id":"4","last_reported":1757794126,"current_range_meters":17200,"station_id":"ce4bho92rcd13ifvqh3g","pricing_plan_id":"cebpf4jnsgd1na2vs0mg"},{"bike_id":"7c15ffc5-50c7-41e3-bb80-b448b9ae3693","system_id":"levelo_inurba_marseille","lat":43.2742,"lon":5.39416,"is_reserved":false,"is_disabled":false,"rental_uris":{"android":"levelo://app?vid=7c15ffc5-50c7-41e3-bb80-b448b9ae3693","ios":"levelo://app?vid=7c15ffc5-50c7-41e3-bb80-b448b9ae3693"},"vehicle_type_id":"4","last_reported":1757794126,"current_range_meters":17200,"station_id":"ce4bhdp2rcd13ifvqf20","pricing_plan_id":"cebpf4jnsgd1na2vs0mg"},{"bike_id":"bafbe027-3fce-41e5-990a-5969fa52ab76","system_id":"levelo_inurba_marseille","lat":43.255,"lon":5.37651,"is_reserved":false,"is_disabled":false,"rental_uris":{"android":"levelo://app?vid=bafbe027-3fce-41e5-990a-5969fa52ab76","ios":"levelo://app?vid=bafbe027-3fce-41e5-990a-5969fa52ab76"},"vehicle_type_id":"4","last_reported":1757794126,"current_range_meters":17200,"station_id":"ce4bhh12rcd13ifvqff0","pricing_plan_id":"cebpf4jnsgd1na2vs0mg"},{"bike_id":"654df5a8-46fd-4bb1-a78c-219e858dd01e","system_id":"levelo_inurba_marseille","lat":43.28884,"lon":5.3667,"is_reserved":false,"is_disabled":false,"rental_uris":{"android":"levelo://app?vid=654df5a8-46fd-4bb1-a78c-219e858dd01e","ios":"levelo://app?vid=654df5a8-46fd-4bb1-a78c-219e858dd01e"},"vehicle_type_id":"4","last_reported":1757794126,"current_range_meters":17200,"station_id":"ce4bhap2rcd13ifvqek0","pricing_plan_id":"cebpf4jnsgd1na2vs0mg"},{"bike_id":"14e2496b-54f5-4a71-8a7b-f668d23f2674","system_id":"levelo_inurba_marseille","lat":43.25731,"lon":5.41106,"is_reserved":false,"is_disabled":false,"rental_uris":{"android":"levelo://app?vid=14e2496b-54f5-4a71-8a7b-f668d23f2674","ios":"levelo://app?vid=14e2496b-54f5-4a71-8a7b-f668d23f2674"},"vehicle_type_id":"4","last_reported":1757794126,"current_range_meters":17200,"station_id":"ce4bhkp2rcd13ifvqgd0","pricing_plan_id":"cebpf4jnsgd1na2vs0mg"},{"bike_id":"8ab60a89-bd14-40d7-b359-020ea126cfef","system_id":"levelo_inurba_marseille","lat":43.32359,"lon":5.3675,"is_reserved":false,"is_disabled":false,"rental_uris":{"android":"levelo://app?vid=8ab60a89-bd14-40d7-b359-020ea126cfef","ios":"levelo://app?vid=8ab60a89-bd14-40d7-b359-020ea126cfef"},"vehicle_type_id":"4","last_reported":1757794126,"current_range_meters":17200,"station_id":"ce4bhsh2rcd13ifvqi2g","pricing_plan_id":"cebpf4jnsgd1na2vs0mg"},{"bike_id":"81d21fd8-3e6d-4e5f-8eda-5fe27968cb9c","system_id":"levelo_inurba_marseille","lat":43.29787,"lon":5.38078,"is_reserved":false,"is_disabled":false,"rental_uris":{"android":"levelo://app?vid=81d21fd8-3e6d-4e5f-8eda-5fe27968cb9c","ios":"levelo://app?vid=81d21fd8-3e6d-4e5f-8eda-5fe27968cb9c"},"vehicle_type_id":"4","last_reported":1757794126,"current_range_meters":17200,"station_id":"ce4bgip2rcd13ifvqbb0","pricing_plan_id":"cebpf4jnsgd1na2vs0mg"},{"bike_id":"78f28b4a-d7ed-451a-8630-b44239f089a1","system_id":"levelo_inurba_marseille","lat":43.31699,"lon":5.40465,"is_reserved":false,"is_disabled":false,"rental_uris":{"android":"levelo://app?vid=78f28b4a-d7ed-451a-8630-b44239f089a1","ios":"levelo://app?vid=78f28b4a-d7ed-451a-8630-b44239f089a1"},"vehicle_type_id":"4","last_reported":1757794126,"current_range_meters":17200,"station_id":"ce4bh012rcd13ifvqd00","pricing_plan_id":"cebpf4jnsgd1na2vs0mg"},{"bike_id":"eea56852-9d9b-44bf-8a84-ad4117b5bf76","system_id":"levelo_inurba_marseille","lat":43.30457,"lon":5.37923,"is_reserved":false,"is_disabled":false,"rental_uris":{"android":"levelo://app?vid=eea56852-9d9b-44bf-8a84-ad4117b5bf76","ios":"levelo://app?vid=eea56852-9d9b-44bf-8a84-ad4117b5bf76"},"vehicle_type_id":"4","last_reported":1757794126,"current_range_meters":17600,"station_id":"","pricing_plan_id":"cebpf4jnsgd1na2vs0mg"},{"bike_id":"c013e820-1fe7-438e-ac59-42571c463b8b","system_id":"levelo_inurba_marseille","lat":43.28616,"lon":5.35104,"is_reserved":false,"is_disabled":false,"rental_uris":{"android":"levelo://app?vid=c013e820-1fe7-438e-ac59-42571c463b8b","ios":"levelo://app?vid=c013e820-1fe7-438e-ac59-42571c463b8b"},"vehicle_type_id":"4","last_reported":1757794126,"current_range_meters":17600,"station_id":"ce4bhch2rcd13ifvqeug","pricing_plan_id":"cebpf4jnsgd1na2vs0mg"},{"bike_id":"d9c4202c-de13-4428-8c40-40d90faf1618","system_id":"levelo_inurba_marseille","lat":43.31356,"lon":5.3707,"is_reserved":false,"is_disabled":false,"rental_uris":{"android":"levelo://app?vid=d9c4202c-de13-4428-8c40-40d90faf1618","ios":"levelo://app?vid=d9c4202c-de13-4428-8c40-40d90faf1618"},"vehicle_type_id":"4","last_reported":1757794126,"current_range_meters":17600,"station_id":"","pricing_plan_id":"cebpf4jnsgd1na2vs0mg"},{"bike_id":"08179385-6609-4f79-9106-f2a4ea09d8a1","system_id":"levelo_inurba_marseille","lat":43.29535,"lon":5.3855,"is_reserved":false,"is_disabled":false,"rental_uris":{"android":"levelo://app?vid=08179385-6609-4f79-9106-f2a4ea09d8a1","ios":"levelo://app?vid=08179385-6609-4f79-9106-f2a4ea09d8a1"},"vehicle_type_id":"4","last_reported":1757794126,"current_range_meters":17600,"station_id":"ce4bgih2rcd13ifvqba0","pricing_plan_id":"cebpf4jnsgd1na2vs0mg"},{"bike_id":"4d6e6605-7f16-44fa-a19a-c138ee7cb360","system_id":"levelo_inurba_marseille","lat":43.33799,"lon":5.37446,"is_reserved":false,"is_disabled":false,"rental_uris":{"android":"levelo://app?vid=4d6e6605-7f16-44fa-a19a-c138ee7cb360","ios":"levelo://app?vid=4d6e6605-7f16-44fa-a19a-c138ee7cb360"},"vehicle_type_id":"4","last_reported":1757794126,"current_range_meters":17600,"station_id":"","pricing_plan_id":"cebpf4jnsgd1na2vs0mg"},{"bike_id":"ef94e107-b5fd-44f7-a023-fb0854a2be56","system_id":"levelo_inurba_marseille","lat":43.28622,"lon":5.3511,"is_reserved":false,"is_disabled":false,"rental_uris":{"android":"levelo://app?vid=ef94e107-b5fd-44f7-a023-fb0854a2be56","ios":"levelo://app?vid=ef94e107-b5fd-44f7-a023-fb0854a2be56"},"vehicle_type_id":"4","last_reported":1757794126,"current_range_meters":17600,"station_id":"ce4bhch2rcd13ifvqeug","pricing_plan_id":"cebpf4jnsgd1na2vs0mg"},{"bike_id":"b1fae7f5-f5c1-4232-88f8-9776066be04b","system_id":"levelo_inurba_marseille","lat":43.29293,"lon":5.37185,"is_reserved":false,"is_disabled":false,"rental_uris":{"android":"levelo://app?vid=b1fae7f5-f5c1-4232-88f8-9776066be04b","ios":"levelo://app?vid=b1fae7f5-f5c1-4232-88f8-9776066be04b"},"vehicle_type_id":"4","last_reported":1757794126,"current_range_meters":17600,"station_id":"ce4bgh92rcd13ifvqb40","pricing_plan_id":"cebpf4jnsgd1na2vs0mg"},{"bike_id":"025ce479-1fb0-4055-947e-69e2593919da","system_id":"levelo_inurba_marseille","lat":43.28105,"lon":5.37845,"is_reserved":false,"is_disabled":false,"rental_uris":{"android":"levelo://app?vid=025ce479-1fb0-4055-947e-69e2593919da","ios":"levelo://app?vid=025ce479-1fb0-4055-947e-69e2593919da"},"vehicle_type_id":"4","last_reported":1757794126,"current_range_meters":17600,"station_id":"ce4bha12rcd13ifvqee0","pricing_plan_id":"cebpf4jnsgd1na2vs0mg"},{"bike_id":"b37d21d9-2cea-4209-9cd1-8c6dacc037d6","system_id":"levelo_inurba_marseille","lat":43.31989,"lon":5.38134,"is_reserved":false,"is_disabled":false,"rental_uris":{"android":"levelo://app?vid=b37d21d9-2cea-4209-9cd1-8c6dacc037d6","ios":"levelo://app?vid=b37d21d9-2cea-4209-9cd1-8c6dacc037d6"},"vehicle_type_id":"4","last_reported":1757794126,"current_range_meters":17600,"station_id":"ce4bhr12rcd13ifvqhpg","pricing_plan_id":"cebpf4jnsgd1na2vs0mg"},{"bike_id":"5d13ad54-b30e-447b-9726-01c9d0427007","system_id":"levelo_inurba_marseille","lat":43.306563,"lon":5.400892,"is_reserved":false,"is_disabled":false,"rental_uris":{"android":"levelo://app?vid=5d13ad54-b30e-447b-9726-01c9d0427007","ios":"levelo://app?vid=5d13ad54-b30e-447b-9726-01c9d0427007"},"vehicle_type_id":"4","last_reported":1757794126,"current_range_meters":17600,"station_id":"ce4bh112rcd13ifvqda0","pricing_plan_id":"cebpf4jnsgd1na2vs0mg"},{"bike_id":"d1835cb7-e899-4398-9f30-62c2e5129cec","system_id":"levelo_inurba_marseille","lat":43.30471,"lon":5.37928,"is_reserved":false,"is_disabled":false,"rental_uris":{"android":"levelo://app?vid=d1835cb7-e899-4398-9f30-62c2e5129cec","ios":"levelo://app?vid=d1835cb7-e899-4398-9f30-62c2e5129cec"},"vehicle_type_id":"4","last_reported":1757794126,"current_range_meters":18000,"station_id":"","pricing_plan_id":"cebpf4jnsgd1na2vs0mg"},{"bike_id":"a61eac29-ba8a-4a4d-8b6e-f8e422859116","system_id":"levelo_inurba_marseille","lat":43.27987,"lon":5.40029,"is_reserved":false,"is_disabled":false,"rental_uris":{"android":"levelo://app?vid=a61eac29-ba8a-4a4d-8b6e-f8e422859116","ios":"levelo://app?vid=a61eac29-ba8a-4a4d-8b6e-f8e422859116"},"vehicle_type_id":"4","last_reported":1757794126,"current_range_meters":18000,"station_id":"ce4bho92rcd13ifvqh4g","pricing_plan_id":"cebpf4jnsgd1na2vs0mg"},{"bike_id":"7e0b8c7a-49e4-49c6-ac5b-5cec5e18f703","system_id":"levelo_inurba_marseille","lat":43.28931,"lon":5.3964,"is_reserved":false,"is_disabled":false,"rental_uris":{"android":"levelo://app?vid=7e0b8c7a-49e4-49c6-ac5b-5cec5e18f703","ios":"levelo://app?vid=7e0b8c7a-49e4-49c6-ac5b-5cec5e18f703"},"vehicle_type_id":"4","last_reported":1757794126,"current_range_meters":17600,"station_id":"ce4bh3h2rcd13ifvqdn0","pricing_plan_id":"cebpf4jnsgd1na2vs0mg"},{"bike_id":"6bee9883-13fd-47ae-b9a5-945df849a636","system_id":"levelo_inurba_marseille","lat":43.29276,"lon":5.40116,"is_reserved":false,"is_disabled":false,"rental_uris":{"android":"levelo://app?vid=6bee9883-13fd-47ae-b9a5-945df849a636","ios":"levelo://app?vid=6bee9883-13fd-47ae-b9a5-945df849a636"},"vehicle_type_id":"4","last_reported":1757794126,"current_range_meters":18000,"station_id":"ce4bh312rcd13ifvqdk0","pricing_plan_id":"cebpf4jnsgd1na2vs0mg"},{"bike_id":"55414d4f-a967-4551-85fc-42e6a9362a7a","system_id":"levelo_inurba_marseille","lat":43.26049,"lon":5.39391,"is_reserved":false,"is_disabled":false,"rental_uris":{"android":"levelo://app?vid=55414d4f-a967-4551-85fc-42e6a9362a7a","ios":"levelo://app?vid=55414d4f-a967-4551-85fc-42e6a9362a7a"},"vehicle_type_id":"4","last_reported":1757794126,"current_range_meters":18000,"station_id":"ce4bhh92rcd13ifvqfj0","pricing_plan_id":"cebpf4jnsgd1na2vs0mg"},{"bike_id":"8e3a9e83-812e-4b5d-8c7b-5119699e81be","system_id":"levelo_inurba_marseille","lat":43.3158,"lon":5.40582,"is_reserved":false,"is_disabled":false,"rental_uris":{"android":"levelo://app?vid=8e3a9e83-812e-4b5d-8c7b-5119699e81be","ios":"levelo://app?vid=8e3a9e83-812e-4b5d-8c7b-5119699e81be"},"vehicle_type_id":"4","last_reported":1757794126,"current_range_meters":18000,"station_id":"","pricing_plan_id":"cebpf4jnsgd1na2vs0mg"},{"bike_id":"e06d2e94-3ae2-4b4b-9d7e-05d3f806365a","system_id":"levelo_inurba_marseille","lat":43.25816,"lon":5.394345,"is_reserved":false,"is_disabled":false,"rental_uris":{"android":"levelo://app?vid=e06d2e94-3ae2-4b4b-9d7e-05d3f806365a","ios":"levelo://app?vid=e06d2e94-3ae2-4b4b-9d7e-05d3f806365a"},"vehicle_type_id":"4","last_reported":1757794126,"current_range_meters":18000,"station_id":"ce4bhip2rcd13ifvqft0","pricing_plan_id":"cebpf4jnsgd1na2vs0mg"},{"bike_id":"e7fcf438-9d82-4343-a4fb-25dc0513ade6","system_id":"levelo_inurba_marseille","lat":43.28352,"lon":5.38109,"is_reserved":false,"is_disabled":false,"rental_uris":{"android":"levelo://app?vid=e7fcf438-9d82-4343-a4fb-25dc0513ade6","ios":"levelo://app?vid=e7fcf438-9d82-4343-a4fb-25dc0513ade6"},"vehicle_type_id":"4","last_reported":1757794126,"current_range_meters":18000,"station_id":"ce4bh412rcd13ifvqdr0","pricing_plan_id":"cebpf4jnsgd1na2vs0mg"},{"bike_id":"2c0d900c-4835-44c8-bbd7-24aef00c6bd5","system_id":"levelo_inurba_marseille","lat":43.29544,"lon":5.38541,"is_reserved":false,"is_disabled":false,"rental_uris":{"android":"levelo://app?vid=2c0d900c-4835-44c8-bbd7-24aef00c6bd5","ios":"levelo://app?vid=2c0d900c-4835-44c8-bbd7-24aef00c6bd5"},"vehicle_type_id":"4","last_reported":1757794126,"current_range_meters":18000,"station_id":"ce4bgih2rcd13ifvqba0","pricing_plan_id":"cebpf4jnsgd1na2vs0mg"},{"bike_id":"933aabc0-7122-42d9-944a-80fb189e9b41","system_id":"levelo_inurba_marseille","lat":43.30941,"lon":5.36867,"is_reserved":false,"is_disabled":false,"rental_uris":{"android":"levelo://app?vid=933aabc0-7122-42d9-944a-80fb189e9b41","ios":"levelo://app?vid=933aabc0-7122-42d9-944a-80fb189e9b41"},"vehicle_type_id":"4","last_reported":1757794126,"current_range_meters":18800,"station_id":"ce4bgn92rcd13ifvqbvg","pricing_plan_id":"cebpf4jnsgd1na2vs0mg"},{"bike_id":"3e71af32-2808-40ef-84df-db8cb158295e","system_id":"levelo_inurba_marseille","lat":43.25502,"lon":5.37653,"is_reserved":false,"is_disabled":false,"rental_uris":{"android":"levelo://app?vid=3e71af32-2808-40ef-84df-db8cb158295e","ios":"levelo://app?vid=3e71af32-2808-40ef-84df-db8cb158295e"},"vehicle_type_id":"4","last_reported":1757794126,"current_range_meters":18800,"station_id":"ce4bhh12rcd13ifvqff0","pricing_plan_id":"cebpf4jnsgd1na2vs0mg"},{"bike_id":"6e08fe94-e5e7-44e1-8a61-23b030122e1f","system_id":"levelo_inurba_marseille","lat":43.2834,"lon":5.381,"is_reserved":false,"is_disabled":false,"rental_uris":{"android":"levelo://app?vid=6e08fe94-e5e7-44e1-8a61-23b030122e1f","ios":"levelo://app?vid=6e08fe94-e5e7-44e1-8a61-23b030122e1f"},