{"last_updated":1732454132,"ttl":60,"version":"2.2","data":{"bikes":[{"bike_id":"2bb8f244-4cb9-4240-977c-5d7844ecccaf","system_id":"levelo_inurba_marseille","lat":43.28662,"lon":5.36357,"is_reserved":false,"is_disabled":false,"rental_uris":{"android":"levelo://app?vid=2bb8f244-4cb9-4240-977c-5d7844ecccaf","ios":"levelo://app?vid=2bb8f244-4cb9-4240-977c-5d7844ecccaf"},"vehicle_type_id":"4","last_reported":1732454132,"current_range_meters":38000,"station_id":"ce4bhah2rcd13ifvqej0","pricing_plan_id":"cebpf4jnsgd1na2vs0mg"},{"bike_id":"9a592002-11fb-4de6-a5a9-2040f17876bf","system_id":"levelo_inurba_marseille","lat":43.32541,"lon":5.41446,"is_reserved":false,"is_disabled":false,"rental_uris":{"android":"levelo://app?vid=9a592002-11fb-4de6-a5a9-2040f17876bf","ios":"levelo://app?vid=9a592002-11fb-4de6-a5a9-2040f17876bf"},"vehicle_type_id":"4","last_reported":1732454132,"current_range_meters":38000,"station_id":"ce4bhq12rcd13ifvqhhg","pricing_plan_id":"cebpf4jnsgd1na2vs0mg"},{"bike_id":"0271f9e9-924d-4f1b-8701-075cee4b661f","system_id":"levelo_inurba_marseille","lat":43.27209,"lon":5.39184,"is_reserved":false,"is_disabled":false,"rental_uris":{"android":"levelo://app?vid=0271f9e9-924d-4f1b-8701-075cee4b661f","ios":"levelo://app?vid=0271f9e9-924d-4f1b-8701-075cee4b661f"},"vehicle_type_id":"4","last_reported":1732454132,"current_range_meters":6000,"station_id":"ce4bhhp2rcd13ifvqfm0","pricing_plan_id":"cebpf4jnsgd1na2vs0mg"},{"bike_id":"fb0b6155-47ca-4d07-a055-2eb2002cc148","system_id":"levelo_inurba_marseille","lat":43.28037,"lon":5.36955,"is_reserved":false,"is_disabled":false,"rental_uris":{"android":"levelo://app?vid=fb0b6155-47ca-4d07-a055-2eb2002cc148","ios":"levelo://app?vid=fb0b6155-47ca-4d07-a055-2eb2002cc148"},"vehicle_type_id":"4","last_reported":1732454132,"current_range_meters":28400,"station_id":"ce4bha12rcd13ifvqef0","pricing_plan_id":"cebpf4jnsgd1na2vs0mg"},{"bike_id":"6926623e-2fe0-455b-9bee-6506d940ff70","system_id":"levelo_inurba_marseille","lat":43.25585,"lon":5.38241,"is_reserved":false,"is_disabled":false,"rental_uris":{"android":"levelo://app?vid=6926623e-2fe0-455b-9bee-6506d940ff70","ios":"levelo://app?vid=6926623e-2fe0-455b-9bee-6506d940ff70"},"vehicle_type_id":"4","last_reported":1732454132,"current_range_meters":9600,"station_id":"ce4bhih2rcd13ifvqfs0","pricing_plan_id":"cebpf4jnsgd1na2vs0mg"},{"bike_id":"1f07519a-a2d7-4c30-b716-9346ab89c840","system_id":"levelo_inurba_marseille","lat":43.289468,"lon":5.36402,"is_reserved":false,"is_disabled":false,"rental_uris":{"android":"levelo://app?vid=1f07519a-a2d7-4c30-b716-9346ab89c840","ios":"levelo://app?vid=1f07519a-a2d7-4c30-b716-9346ab89c840"},"vehicle_type_id":"4","last_reported":1732454132,"current_range_meters":13600,"station_id":"ce4bhc92rcd13ifvqetg","pricing_plan_id":"cebpf4jnsgd1na2vs0mg"},{"bike_id":"b1121334-8cc6-4dae-b77a-4f26c8f8da5d","system_id":"levelo_inurba_marseille","lat":43.27812,"lon":5.40717,"is_reserved":false,"is_disabled":false,"rental_uris":{"android":"levelo://app?vid=b1121334-8cc6-4dae-b77a-4f26c8f8da5d","ios":"levelo://app?vid=b1121334-8cc6-4dae-b77a-4f26c8f8da5d"},"vehicle_type_id":"4","last_reported":1732454132,"current_range_meters":11600,"station_id":"ce4bhnh2rcd13ifvqgtg","pricing_plan_id":"cebpf4jnsgd1na2vs0mg"},{"bike_id":"34dc2208-7d32-4f6b-bcf6-0509368fd2ae","system_id":"levelo_inurba_marseille","lat":43.30443,"lon":5.38894,"is_reserved":false,"is_disabled":true,"rental_uris":{"android":"levelo://app?vid=34dc2208-7d32-4f6b-bcf6-0509368fd2ae","ios":"levelo://app?vid=34dc2208-7d32-4f6b-bcf6-0509368fd2ae"},"vehicle_type_id":"4","last_reported":1732454132,"current_range_meters":35600,"station_id":"ce4bgk12rcd13ifvqbi0","pricing_plan_id":"cebpf4jnsgd1na2vs0mg"},{"bike_id":"d0197773-8736-4042-8778-9995e2cd3b6c","system_id":"levelo_inurba_marseille","lat":43.3019,"lon":5.36619,"is_reserved":false,"is_disabled":false,"rental_uris":{"android":"levelo://app?vid=d0197773-8736-4042-8778-9995e2cd3b6c","ios":"levelo://app?vid=d0197773-8736-4042-8778-9995e2cd3b6c"},"vehicle_type_id":"4","last_reported":1732454132,"current_range_meters":37600,"station_id":"ce4bgrh2rcd13ifvqc8g","pricing_plan_id":"cebpf4jnsgd1na2vs0mg"},{"bike_id":"995bc3cb-bed6-415b-87ef-68df4ebc362d","system_id":"levelo_inurba_marseille","lat":43.2316,"lon":5.43723,"is_reserved":false,"is_disabled":false,"rental_uris":{"android":"levelo://app?vid=995bc3cb-bed6-415b-87ef-68df4ebc362d","ios":"levelo://app?vid=995bc3cb-bed6-415b-87ef-68df4ebc362d"},"vehicle_type_id":"4","last_reported":1732454132,"current_range_meters":22400,"station_id":"ce4bhmp2rcd13ifvqgog","pricing_plan_id":"cebpf4jnsgd1na2vs0mg"},{"bike_id":"17b9d959-4b96-45ab-85ec-25c08a0a44ca","system_id":"levelo_inurba_marseille","lat":43.27206,"lon":5.39177,"is_reserved":false,"is_disabled":false,"rental_uris":{"android":"levelo://app?vid=17b9d959-4b96-45ab-85ec-25c08a0a44ca","ios":"levelo://app?vid=17b9d959-4b96-45ab-85ec-25c08a0a44ca"},"vehicle_type_id":"4","last_reported":1732454132,"current_range_meters":36800,"station_id":"ce4bhhp2rcd13ifvqfm0","pricing_plan_id":"cebpf4jnsgd1na2vs0mg"},{"bike_id":"feebe858-8655-47db-bc52-52ee844b102c","system_id":"levelo_inurba_marseille","lat":43.28708,"lon":5.39987,"is_reserved":false,"is_disabled":false,"rental_uris":{"android":"levelo://app?vid=feebe858-8655-47db-bc52-52ee844b102c","ios":"levelo://app?vid=feebe858-8655-47db-bc52-52ee844b102c"},"vehicle_type_id":"4","last_reported":1732454132,"current_range_meters":32800,"station_id":"ce4bho92rcd13ifvqh3g","pricing_plan_id":"cebpf4jnsgd1na2vs0mg"},{"bike_id":"f956308a-2ffd-40f1-ae1b-6704e2671bec","system_id":"levelo_inurba_marseille","lat":43.23589,"lon":5.379106,"is_reserved":false,"is_disabled":false,"rental_uris":{"android":"levelo://app?vid=f956308a-2ffd-40f1-ae1b-6704e2671bec","ios":"levelo://app?vid=f956308a-2ffd-40f1-ae1b-6704e2671bec"},"vehicle_type_id":"4","last_reported":1732454132,"current_range_meters":20400,"station_id":"","pricing_plan_id":"cebpf4jnsgd1na2vs0mg"},{"bike_id":"608fa24e-5bee-4bfa-853a-063bc17e1e31","system_id":"levelo_inurba_marseille","lat":43.29274,"lon":5.36843,"is_reserved":false,"is_disabled":false,"rental_uris":{"android":"levelo://app?vid=608fa24e-5bee-4bfa-853a-063bc17e1e31","ios":"levelo://app?vid=608fa24e-5bee-4bfa-853a-063bc17e1e31"},"vehicle_type_id":"4","last_reported":1732454132,"current_range_meters":33200,"station_id":"ce4bhbp2rcd13ifvqesg","pricing_plan_id":"cebpf4jnsgd1na2vs0mg"},{"bike_id":"3eca035b-7624-478e-9ae5-bf9737dbf2ac","system_id":"levelo_inurba_marseille","lat":43.27898,"lon":5.38011,"is_reserved":false,"is_disabled":false,"rental_uris":{"android":"levelo://app?vid=3eca035b-7624-478e-9ae5-bf9737dbf2ac","ios":"levelo://app?vid=3eca035b-7624-478e-9ae5-bf9737dbf2ac"},"vehicle_type_id":"4","last_reported":1732454132,"current_range_meters":16800,"station_id":"ce4bhf92rcd13ifvqf50","pricing_plan_id":"cebpf4jnsgd1na2vs0mg"},{"bike_id":"1d480d76-bb73-4781-930a-16c68fdce680","system_id":"levelo_inurba_marseille","lat":43.2558,"lon":5.38245,"is_reserved":false,"is_disabled":false,"rental_uris":{"android":"levelo://app?vid=1d480d76-bb73-4781-930a-16c68fdce680","ios":"levelo://app?vid=1d480d76-bb73-4781-930a-16c68fdce680"},"vehicle_type_id":"4","last_reported":1732454132,"current_range_meters":36000,"station_id":"ce4bhih2rcd13ifvqfs0","pricing_plan_id":"cebpf4jnsgd1na2vs0mg"},{"bike_id":"024ad8fc-79a7-4363-a124-ba291b6278c1","system_id":"levelo_inurba_marseille","lat":43.29567,"lon":5.37524,"is_reserved":false,"is_disabled":false,"rental_uris":{"android":"levelo://app?vid=024ad8fc-79a7-4363-a124-ba291b6278c1","ios":"levelo://app?vid=024ad8fc-79a7-4363-a124-ba291b6278c1"},"vehicle_type_id":"4","last_reported":1732454132,"current_range_meters":20000,"station_id":"ce4bgh92rcd13ifvqb50","pricing_plan_id":"cebpf4jnsgd1na2vs0mg"},{"bike_id":"8474b969-c294-476d-a5ee-b3b70a750c3e","system_id":"levelo_inurba_marseille","lat":43.30261,"lon":5.40081,"is_reserved":false,"is_disabled":false,"rental_uris":{"android":"levelo://app?vid=8474b969-c294-476d-a5ee-b3b70a750c3e","ios":"levelo://app?vid=8474b969-c294-476d-a5ee-b3b70a750c3e"},"vehicle_type_id":"4","last_reported":1732454132,"current_range_meters":37600,"station_id":"ce4bgvh2rcd13ifvqcs0","pricing_plan_id":"cebpf4jnsgd1na2vs0mg"},{"bike_id":"50ea5bde-5722-438b-be2b-d7e798ec8edc","system_id":"levelo_inurba_marseille","lat":43.25093,"lon":5.39515,"is_reserved":false,"is_disabled":false,"rental_uris":{"android":"levelo://app?vid=50ea5bde-5722-438b-be2b-d7e798ec8edc","ios":"levelo://app?vid=50ea5bde-5722-438b-be2b-d7e798ec8edc"},"vehicle_type_id":"4","last_reported":1732454132,"current_range_meters":36800,"station_id":"ce4bhm12rcd13ifvqgkg","pricing_plan_id":"cebpf4jnsgd1na2vs0mg"},{"bike_id":"30585094-ecfe-43ac-ae36-000c4a5ab426","system_id":"levelo_inurba_marseille","lat":43.30959,"lon":5.39045,"is_reserved":false,"is_disabled":true,"rental_uris":{"android":"levelo://app?vid=30585094-ecfe-43ac-ae36-000c4a5ab426","ios":"levelo://app?vid=30585094-ecfe-43ac-ae36-000c4a5ab426"},"vehicle_type_id":"4","last_reported":1732454132,"current_range_meters":22800,"station_id":"ce4bgup2rcd13ifvqco0","pricing_plan_id":"cebpf4jnsgd1na2vs0mg"},{"bike_id":"5f84fccb-6473-45c7-b4bf-9ab64c8af504","system_id":"levelo_inurba_marseille","lat":43.25105,"lon":5.40324,"is_reserved":false,"is_disabled":false,"rental_uris":{"android":"levelo://app?vid=5f84fccb-6473-45c7-b4bf-9ab64c8af504","ios":"levelo://app?vid=5f84fccb-6473-45c7-b4bf-9ab64c8af504"},"vehicle_type_id":"4","last_reported":1732454132,"current_range_meters":33600,"station_id":"ce4bhlh2rcd13ifvqgig","pricing_plan_id":"cebpf4jnsgd1na2vs0mg"},{"bike_id":"06222d69-c6a3-47fe-9912-0fe63b34371e","system_id":"levelo_inurba_marseille","lat":43.29903,"lon":5.43668,"is_reserved":false,"is_disabled":false,"rental_uris":{"android":"levelo://app?vid=06222d69-c6a3-47fe-9912-0fe63b34371e","ios":"levelo://app?vid=06222d69-c6a3-47fe-9912-0fe63b34371e"},"vehicle_type_id":"4","last_reported":1732454132,"current_range_meters":39200,"station_id":"ce4bhpp2rcd13ifvqhfg","pricing_plan_id":"cebpf4jnsgd1na2vs0mg"},{"bike_id":"04251b05-720d-4010-9aca-0ed219c5a410","system_id":"levelo_inurba_marseille","lat":43.29842,"lon":5.36264,"is_reserved":false,"is_disabled":false,"rental_uris":{"android":"levelo://app?vid=04251b05-720d-4010-9aca-0ed219c5a410","ios":"levelo://app?vid=04251b05-720d-4010-9aca-0ed219c5a410"},"vehicle_type_id":"4","last_reported":1732454132,"current_range_meters":38800,"station_id":"ce4bgpp2rcd13ifvqc3g","pricing_plan_id":"cebpf4jnsgd1na2vs0mg"},{"bike_id":"db101b78-6ffb-4919-8b14-ec9dca35135b","system_id":"levelo_inurba_marseille","lat":43.33724,"lon":5.39182,"is_reserved":false,"is_disabled":false,"rental_uris":{"android":"levelo://app?vid=db101b78-6ffb-4919-8b14-ec9dca35135b","ios":"levelo://app?vid=db101b78-6ffb-4919-8b14-ec9dca35135b"},"vehicle_type_id":"4","last_reported":1732454132,"current_range_meters":10800,"station_id":"ce4bhr92rcd13ifvqhsg","pricing_plan_id":"cebpf4jnsgd1na2vs0mg"},{"bike_id":"0f0a07ff-f9b8-40e5-9bbf-3dd610e241ac","system_id":"levelo_inurba_marseille","lat":43.30547,"lon":5.3653,"is_reserved":false,"is_disabled":false,"rental_uris":{"android":"levelo://app?vid=0f0a07ff-f9b8-40e5-9bbf-3dd610e241ac","ios":"levelo://app?vid=0f0a07ff-f9b8-40e5-9bbf-3dd610e241ac"},"vehicle_type_id":"4","last_reported":1732454132,"current_range_meters":30000,"station_id":"ce4bgs12rcd13ifvqcag","pricing_plan_id":"cebpf4jnsgd1na2vs0mg"},{"bike_id":"7a6dc6a8-804b-42ca-945e-bc97b31816fe","system_id":"levelo_inurba_marseille","lat":43.28096,"lon":5.37845,"is_reserved":false,"is_disabled":false,"rental_uris":{"android":"levelo://app?vid=7a6dc6a8-804b-42ca-945e-bc97b31816fe","ios":"levelo://app?vid=7a6dc6a8-804b-42ca-945e-bc97b31816fe"},"vehicle_type_id":"4","last_reported":1732454132,"current_range_meters":35600,"station_id":"ce4bha12rcd13ifvqee0","pricing_plan_id":"cebpf4jnsgd1na2vs0mg"},{"bike_id":"acac8106-90c7-4afd-820c-eda5616f8960","system_id":"levelo_inurba_marseille","lat":43.27673,"lon":5.38875,"is_reserved":false,"is_disabled":false,"rental_uris":{"android":"levelo://app?vid=acac8106-90c7-4afd-820c-eda5616f8960","ios":"levelo://app?vid=acac8106-90c7-4afd-820c-eda5616f8960"},"vehicle_type_id":"4","last_reported":1732454132,"current_range_meters":28400,"station_id":"ce4bhi12rcd13ifvqfo0","pricing_plan_id":"cebpf4jnsgd1na2vs0mg"},{"bike_id":"3a19b94c-c18e-4b95-9e37-8654402907bb","system_id":"levelo_inurba_marseille","lat":43.29626,"lon":5.40601,"is_reserved":false,"is_disabled":false,"rental_uris":{"android":"levelo://app?vid=3a19b94c-c18e-4b95-9e37-8654402907bb","ios":"levelo://app?vid=3a19b94c-c18e-4b95-9e37-8654402907bb"},"vehicle_type_id":"4","last_reported":1732454132,"current_range_meters":19600,"station_id":"ce4bh0h2rcd13ifvqd60","pricing_plan_id":"cebpf4jnsgd1na2vs0mg"},{"bike_id":"99bb520e-e90c-4739-bf54-b9d058c0a2fd","system_id":"levelo_inurba_marseille","lat":43.30953,"lon":5.39032,"is_reserved":false,"is_disabled":false,"rental_uris":{"android":"levelo://app?vid=99bb520e-e90c-4739-bf54-b9d058c0a2fd","ios":"levelo://app?vid=99bb520e-e90c-4739-bf54-b9d058c0a2fd"},"vehicle_type_id":"4","last_reported":1732454132,"current_range_meters":32800,"station_id":"ce4bgup2rcd13ifvqco0","pricing_plan_id":"cebpf4jnsgd1na2vs0mg"},{"bike_id":"caeeb28a-2337-46ff-8cc1-38286fc7227b","system_id":"levelo_inurba_marseille","lat":43.25578,"lon":5.38239,"is_reserved":false,"is_disabled":false,"rental_uris":{"android":"levelo://app?vid=caeeb28a-2337-46ff-8cc1-38286fc7227b","ios":"levelo://app?vid=caeeb28a-2337-46ff-8cc1-38286fc7227b"},"vehicle_type_id":"4","last_reported":1732454132,"current_range_meters":11200,"station_id":"ce4bhih2rcd13ifvqfs0","pricing_plan_id":"cebpf4jnsgd1na2vs0mg"},{"bike_id":"6a2df70c-4e94-45ba-b67d-45bd465ca49d","system_id":"levelo_inurba_marseille","lat":43.29207,"lon":5.3932,"is_reserved":false,"is_disabled":true,"rental_uris":{"android":"levelo://app?vid=6a2df70c-4e94-45ba-b67d-45bd465ca49d","ios":"levelo://app?vid=6a2df70c-4e94-45ba-b67d-45bd465ca49d"},"vehicle_type_id":"4","last_reported":1732454132,"current_range_meters":30400,"station_id":"ce4bh192rcd13ifvqdd0","pricing_plan_id":"cebpf4jnsgd1na2vs0mg"},{"bike_id":"f0c9b009-6e7d-4316-96af-3036572d9258","system_id":"levelo_inurba_marseille","lat":43.2953,"lon":5.37509,"is_reserved":false,"is_disabled":true,"rental_uris":{"android":"levelo://app?vid=f0c9b009-6e7d-4316-96af-3036572d9258","ios":"levelo://app?vid=f0c9b009-6e7d-4316-96af-3036572d9258"},"vehicle_type_id":"4","last_reported":1732454132,"current_range_meters":30400,"station_id":"ce4bgkp2rcd13ifvqbmg","pricing_plan_id":"cebpf4jnsgd1na2vs0mg"},{"bike_id":"a33fd1d9-8998-41b0-9a29-7b1fde6c577a","system_id":"levelo_inurba_marseille","lat":43.26034,"lon":5.37549,"is_reserved":false,"is_disabled":false,"rental_uris":{"android":"levelo://app?vid=a33fd1d9-8998-41b0-9a29-7b1fde6c577a","ios":"levelo://app?vid=a33fd1d9-8998-41b0-9a29-7b1fde6c577a"},"vehicle_type_id":"4","last_reported":1732454132,"current_range_meters":39200,"station_id":"ce4bhgh2rcd13ifvqfa0","pricing_plan_id":"cebpf4jnsgd1na2vs0mg"},{"bike_id":"b2b158d0-8028-4675-9f9a-048f08fcfa95","system_id":"levelo_inurba_marseille","lat":43.27889,"lon":5.38003,"is_reserved":false,"is_disabled":false,"rental_uris":{"android":"levelo://app?vid=b2b158d0-8028-4675-9f9a-048f08fcfa95","ios":"levelo://app?vid=b2b158d0-8028-4675-9f9a-048f08fcfa95"},"vehicle_type_id":"4","last_reported":1732454132,"current_range_meters":36800,"station_id":"ce4bhf92rcd13ifvqf50","pricing_plan_id":"cebpf4jnsgd1na2vs0mg"},{"bike_id":"cba75631-9b69-42ba-8a82-1059adf0ef0e","system_id":"levelo_inurba_marseille","lat":43.27372,"lon":5.36258,"is_reserved":false,"is_disabled":false,"rental_uris":{"android":"levelo://app?vid=cba75631-9b69-42ba-8a82-1059adf0ef0e","ios":"levelo://app?vid=cba75631-9b69-42ba-8a82-1059adf0ef0e"},"vehicle_type_id":"4","last_reported":1732454132,"current_range_meters":38000,"station_id":"ce4bhbh2rcd13ifvqeo0","pricing_plan_id":"cebpf4jnsgd1na2vs0mg"},{"bike_id":"ff3594ee-f948-4832-9680-599cfdacc368","system_id":"levelo_inurba_marseille","lat":43.27187,"lon":5.40993,"is_reserved":false,"is_disabled":false,"rental_uris":{"android":"levelo://app?vid=ff3594ee-f948-4832-9680-599cfdacc368","ios":"levelo://app?vid=ff3594ee-f948-4832-9680-599cfdacc368"},"vehicle_type_id":"4","last_reported":1732454132,"current_range_meters":33200,"station_id":"ce4bhl12rcd13ifvqgf0","pricing_plan_id":"cebpf4jnsgd1na2vs0mg"},{"bike_id":"565a0b0b-afe1-4da1-b2e2-0df8233591e4","system_id":"levelo_inurba_marseille","lat":43.25101,"lon":5.40326,"is_reserved":false,"is_disabled":true,"rental_uris":{"android":"levelo://app?vid=565a0b0b-afe1-4da1-b2e2-0df8233591e4","ios":"levelo://app?vid=565a0b0b-afe1-4da1-b2e2-0df8233591e4"},"vehicle_type_id":"4","last_reported":1732454132,"current_range_meters":16000,"station_id":"ce4bhlh2rcd13ifvqgig","pricing_plan_id":"cebpf4jnsgd1na2vs0mg"},{"bike_id":"1e126baa-22b4-4cf7-a05e-1c0611873009","system_id":"levelo_inurba_marseille","lat":43.311192,"lon":5.377708,"is_reserved":false,"is_disabled":false,"rental_uris":{"android":"levelo://app?vid=1e126baa-22b4-4cf7-a05e-1c0611873009","ios":"levelo://app?vid=1e126baa-22b4-4cf7-a05e-1c0611873009"},"vehicle_type_id":"4","last_reported":1732454132,"current_range_meters":3200,"station_id":"","pricing_plan_id":"cebpf4jnsgd1na2vs0mg"},{"bike_id":"856c5296-7fea-42cc-be09-a6b9a37c0b30","system_id":"levelo_inurba_marseille","lat":43.27385,"lon":5.3625,"is_reserved":false,"is_disabled":true,"rental_uris":{"android":"levelo://app?vid=856c5296-7fea-42cc-be09-a6b9a37c0b30","ios":"levelo://app?vid=856c5296-7fea-42cc-be09-a6b9a37c0b30"},"vehicle_type_id":"4","last_reported":1732454132,"current_range_meters":0,"station_id":"ce4bhbh2rcd13ifvqeo0","pricing_plan_id":"cebpf4jnsgd1na2vs0mg"},{"bike_id":"da733dd2-b91d-4081-9db4-9fbf5fccb3c7","system_id":"levelo_inurba_marseille","lat":43.27903,"lon":5.38014,"is_reserved":false,"is_disabled":false,"rental_uris":{"android":"levelo://app?vid=da733dd2-b91d-4081-9db4-9fbf5fccb3c7","ios":"levelo://app?vid=da733dd2-b91d-4081-9db4-9fbf5fccb3c7"},"vehicle_type_id":"4","last_reported":1732454132,"current_range_meters":16000,"station_id":"ce4bhf92rcd13ifvqf50","pricing_plan_id":"cebpf4jnsgd1na2vs0mg"},{"bike_id":"4acfba0d-0d1b-436f-b509-52e30732ec64","system_id":"levelo_inurba_marseille","lat":43.232016,"lon":5.355635,"is_reserved":false,"is_disabled":false,"rental_uris":{"android":"levelo://app?vid=4acfba0d-0d1b-436f-b509-52e30732ec64","ios":"levelo://app?vid=4acfba0d-0d1b-436f-b509-52e30732ec64"},"vehicle_type_id":"4","last_reported":1732454132,"current_range_meters":13600,"station_id":"ce4bhu92rcd13ifvqi70","pricing_plan_id":"cebpf4jnsgd1na2vs0mg"},{"bike_id":"68dbdd7d-f5a7-49f7-a4d9-00b762aa7e24","system_id":"levelo_inurba_marseille","lat":43.3078,"lon":5.37669,"is_reserved":false,"is_disabled":false,"rental_uris":{"android":"levelo://app?vid=68dbdd7d-f5a7-49f7-a4d9-00b762aa7e24","ios":"levelo://app?vid=68dbdd7d-f5a7-49f7-a4d9-00b762aa7e24"},"vehicle_type_id":"4","last_reported":1732454132,"current_range_meters":32000,"station_id":"ce4bgv92rcd13ifvqcq0","pricing_plan_id":"cebpf4jnsgd1na2vs0mg"},{"bike_id":"32e30b44-394f-439d-9e2a-000c52163030","system_id":"levelo_inurba_marseille","lat":43.246486,"lon":5.381687,"is_reserved":false,"is_disabled":false,"rental_uris":{"android":"levelo://app?vid=32e30b44-394f-439d-9e2a-000c52163030","ios":"levelo://app?vid=32e30b44-394f-439d-9e2a-000c52163030"},"vehicle_type_id":"4","last_reported":1732454132,"current_range_meters":38800,"station_id":"ce4bhih2rcd13ifvqfr0","pricing_plan_id":"cebpf4jnsgd1na2vs0mg"},{"bike_id":"2755e063-c8eb-4591-943f-a84236cb7285","system_id":"levelo_inurba_marseille","lat":43.28411,"lon":5.34994,"is_reserved":false,"is_disabled":false,"rental_uris":{"android":"levelo://app?vid=2755e063-c8eb-4591-943f-a84236cb7285","ios":"levelo://app?vid=2755e063-c8eb-4591-943f-a84236cb7285"},"vehicle_type_id":"4","last_reported":1732454132,"current_range_meters":17200,"station_id":"ce4bhbh2rcd13ifvqepg","pricing_plan_id":"cebpf4jnsgd1na2vs0mg"},{"bike_id":"9a122f92-8d1b-4a84-9637-aeed9243668f","system_id":"levelo_inurba_marseille","lat":43.28946,"lon":5.36639,"is_reserved":false,"is_disabled":true,"rental_uris":{"android":"levelo://app?vid=9a122f92-8d1b-4a84-9637-aeed9243668f","ios":"levelo://app?vid=9a122f92-8d1b-4a84-9637-aeed9243668f"},"vehicle_type_id":"4","last_reported":1732454132,"current_range_meters":0,"station_id":"ce4bhap2rcd13ifvqek0","pricing_plan_id":"cebpf4jnsgd1na2vs0mg"},{"bike_id":"ab2f3a7f-e8b0-43a5-9cdc-926effad67d8","system_id":"levelo_inurba_marseille","lat":43.25865,"lon":5.39909,"is_reserved":false,"is_disabled":false,"rental_uris":{"android":"levelo://app?vid=ab2f3a7f-e8b0-43a5-9cdc-926effad67d8","ios":"levelo://app?vid=ab2f3a7f-e8b0-43a5-9cdc-926effad67d8"},"vehicle_type_id":"4","last_reported":1732454132,"current_range_meters":13600,"station_id":"ce4bhl92rcd13ifvqghg","pricing_plan_id":"cebpf4jnsgd1na2vs0mg"},{"bike_id":"ab867430-01e8-4b62-966b-6fdd2d74dbb2","system_id":"levelo_inurba_marseille","lat":43.26033,"lon":5.37548,"is_reserved":false,"is_disabled":false,"rental_uris":{"android":"levelo://app?vid=ab867430-01e8-4b62-966b-6fdd2d74dbb2","ios":"levelo://app?vid=ab867430-01e8-4b62-966b-6fdd2d74dbb2"},"vehicle_type_id":"4","last_reported":1732454132,"current_range_meters":27200,"station_id":"ce4bhgh2rcd13ifvqfa0","pricing_plan_id":"cebpf4jnsgd1na2vs0mg"},{"bike_id":"9765be13-9400-4122-9d83-460987e470ba","system_id":"levelo_inurba_marseille","lat":43.28933,"lon":5.36397,"is_reserved":false,"is_disabled":false,"rental_uris":{"android":"levelo://app?vid=9765be13-9400-4122-9d83-460987e470ba","ios":"levelo://app?vid=9765be13-9400-4122-9d83-460987e470ba"},"vehicle_type_id":"4","last_reported":1732454132,"current_range_meters":16800,"station_id":"ce4bhc92rcd13ifvqetg","pricing_plan_id":"cebpf4jnsgd1na2vs0mg"},{"bike_id":"0bff4688-540e-4e2c-808d-c9347a358a4f","system_id":"levelo_inurba_marseille","lat":43.27674,"lon":5.38913,"is_reserved":false,"is_disabled":true,"rental_uris":{"android":"levelo://app?vid=0bff4688-540e-4e2c-808d-c9347a358a4f","ios":"levelo://app?vid=0bff4688-540e-4e2c-808d-c9347a358a4f"},"vehicle_type_id":"4","last_reported":1732454132,"current_range_meters":38800,"station_id":"ce4bhi12rcd13ifvqfo0","pricing_plan_id":"cebpf4jnsgd1na2vs0mg"},{"bike_id":"88567ec9-8d77-4c86-a999-b82d7ad3885a","system_id":"levelo_inurba_marseille","lat":43.29039,"lon":5.37564,"is_reserved":false,"is_disabled":false,"rental_uris":{"android":"levelo://app?vid=88567ec9-8d77-4c86-a999-b82d7ad3885a","ios":"levelo://app?vid=88567ec9-8d77-4c86-a999-b82d7ad3885a"},"vehicle_type_id":"4","last_reported":1732454132,"current_range_meters":33200,"station_id":"ce4bh692rcd13ifvqe90","pricing_plan_id":"cebpf4jnsgd1na2vs0mg"},{"bike_id":"258d7690-9d27-4d6d-8ee0-719948d9e14b","system_id":"levelo_inurba_marseille","lat":43.29307,"lon":5.37177,"is_reserved":false,"is_disabled":false,"rental_uris":{"android":"levelo://app?vid=258d7690-9d27-4d6d-8ee0-719948d9e14b","ios":"levelo://app?vid=258d7690-9d27-4d6d-8ee0-719948d9e14b"},"vehicle_type_id":"4","last_reported":1732454132,"current_range_meters":38800,"station_id":"ce4bgh92rcd13ifvqb40","pricing_plan_id":"cebpf4jnsgd1na2vs0mg"},{"bike_id":"367077ea-35ca-4fd9-a04e-35a03d830838","system_id":"levelo_inurba_marseille","lat":43.26206,"lon":5.37931,"is_reserved":false,"is_disabled":false,"rental_uris":{"android":"levelo://app?vid=367077ea-35ca-4fd9-a04e-35a03d830838","ios":"levelo://app?vid=367077ea-35ca-4fd9-a04e-35a03d830838"},"vehicle_type_id":"4","last_reported":1732454132,"current_range_meters":30000,"station_id":"ce4bhjp2rcd13ifvqg90","pricing_plan_id":"cebpf4jnsgd1na2vs0mg"},{"bike_id":"66f17326-ccdc-40d5-8211-8a56a6a795be","system_id":"levelo_inurba_marseille","lat":43.27206,"lon":5.39179,"is_reserved":false,"is_disabled":false,"rental_uris":{"android":"levelo://app?vid=66f17326-ccdc-40d5-8211-8a56a6a795be","ios":"levelo://app?vid=66f17326-ccdc-40d5-8211-8a56a6a795be"},"vehicle_type_id":"4","last_reported":1732454132,"current_range_meters":30800,"station_id":"ce4bhhp2rcd13ifvqfm0","pricing_plan_id":"cebpf4jnsgd1na2vs0mg"},{"bike_id":"585b249f-8d26-4118-821e-ecb19a66d11d","system_id":"levelo_inurba_marseille","lat":43.23963,"lon":5.36635,"is_reserved":false,"is_disabled":false,"rental_uris":{"android":"levelo://app?vid=585b249f-8d26-4118-821e-ecb19a66d11d","ios":"levelo://app?vid=585b249f-8d26-4118-821e-ecb19a66d11d"},"vehicle_type_id":"4","last_reported":1732454132,"current_range_meters":25200,"station_id":"ce4bhi12rcd13ifvqfp0","pricing_plan_id":"cebpf4jnsgd1na2vs0mg"},{"bike_id":"fb3e88b4-f709-469a-9da4-593b5261ae6f","system_id":"levelo_inurba_marseille","lat":43.27211,"lon":5.39198,"is_reserved":false,"is_disabled":false,"rental_uris":{"android":"levelo://app?vid=fb3e88b4-f709-469a-9da4-593b5261ae6f","ios":"levelo://app?vid=fb3e88b4-f709-469a-9da4-593b5261ae6f"},"vehicle_type_id":"4","last_reported":1732454132,"current_range_meters":14800,"station_id":"ce4bhhp2rcd13ifvqfm0","pricing_plan_id":"cebpf4jnsgd1na2vs0mg"},{"bike_id":"6be951a1-3283-43a0-b905-d036d307c020","system_id":"levelo_inurba_marseille","lat":43.31266,"lon":5.40166,"is_reserved":false,"is_disabled":false,"rental_uris":{"android":"levelo://app?vid=6be951a1-3283-43a0-b905-d036d307c020","ios":"levelo://app?vid=6be951a1-3283-43a0-b905-d036d307c020"},"vehicle_type_id":"4","last_reported":1732454132,"current_range_meters":21600,"station_id":"ce4bh092rcd13ifvqd30","pricing_plan_id":"cebpf4jnsgd1na2vs0mg"},{"bike_id":"8c2ea6ac-c948-4ad4-8291-9ed371284386","system_id":"levelo_inurba_marseille","lat":43.25173,"lon":5.37836,"is_reserved":false,"is_disabled":false,"rental_uris":{"android":"levelo://app?vid=8c2ea6ac-c948-4ad4-8291-9ed371284386","ios":"levelo://app?vid=8c2ea6ac-c948-4ad4-8291-9ed371284386"},"vehicle_type_id":"4","last_reported":1732454132,"current_range_meters":26000,"station_id":"","pricing_plan_id":"cebpf4jnsgd1na2vs0mg"},{"bike_id":"4614c3ce-fa32-4b49-800d-cf02516d6ab9","system_id":"levelo_inurba_marseille","lat":43.32381,"lon":5.3897,"is_reserved":false,"is_disabled":false,"rental_uris":{"android":"levelo://app?vid=4614c3ce-fa32-4b49-800d-cf02516d6ab9","ios":"levelo://app?vid=4614c3ce-fa32-4b49-800d-cf02516d6ab9"},"vehicle_type_id":"4","last_reported":1732454132,"current_range_meters":19600,"station_id":"","pricing_plan_id":"cebpf4jnsgd1na2vs0mg"},{"bike_id":"00e2e107-04c7-40b5-96ac-6791be1c1147","system_id":"levelo_inurba_marseille","lat":43.2985,"lon":5.36283,"is_reserved":false,"is_disabled":false,"rental_uris":{"android":"levelo://app?vid=00e2e107-04c7-40b5-96ac-6791be1c1147","ios":"levelo://app?vid=00e2e107-04c7-40b5-96ac-6791be1c1147"},"vehicle_type_id":"4","last_reported":1732454132,"current_range_meters":35600,"station_id":"ce4bgpp2rcd13ifvqc3g","pricing_plan_id":"cebpf4jnsgd1na2vs0mg"},{"bike_id":"f3ff2d59-a9d3-493a-abad-16b7b386891b","system_id":"levelo_inurba_marseille","lat":43.28151,"lon":5.42639,"is_reserved":false,"is_disabled":false,"rental_uris":{"android":"levelo://app?vid=f3ff2d59-a9d3-493a-abad-16b7b386891b","ios":"levelo://app?vid=f3ff2d59-a9d3-493a-abad-16b7b386891b"},"vehicle_type_id":"4","last_reported":1732454132,"current_range_meters":14800,"station_id":"ce4bhnh2rcd13ifvqgug","pricing_plan_id":"cebpf4jnsgd1na2vs0mg"},{"bike_id":"fd0e3340-543f-4c8a-8c34-222130852a29","system_id":"levelo_inurba_marseille","lat":43.27982,"lon":5.38739,"is_reserved":false,"is_disabled":true,"rental_uris":{"android":"levelo://app?vid=fd0e3340-543f-4c8a-8c34-222130852a29","ios":"levelo://app?vid=fd0e3340-543f-4c8a-8c34-222130852a29"},"vehicle_type_id":"4","last_reported":1732454132,"current_range_meters":16400,"station_id":"ce4bhg12rcd13ifvqf80","pricing_plan_id":"cebpf4jnsgd1na2vs0mg"},{"bike_id":"e662b885-15c0-4344-8409-692fa14b9dbc","system_id":"levelo_inurba_marseille","lat":43.27496,"lon":5.4246,"is_reserved":false,"is_disabled":false,"rental_uris":{"android":"levelo://app?vid=e662b885-15c0-4344-8409-692fa14b9dbc","ios":"levelo://app?vid=e662b885-15c0-4344-8409-692fa14b9dbc"},"vehicle_type_id":"4","last_reported":1732454132,"current_range_meters":39200,"station_id":"ce4bhn92rcd13ifvqgrg","pricing_plan_id":"cebpf4jnsgd1na2vs0mg"},{"bike_id":"1dd2b38a-1eef-43a4-92ff-ef65d6e1f984","system_id":"levelo_inurba_marseille","lat":43.26495,"lon":5.39547,"is_reserved":false,"is_disabled":false,"rental_uris":{"android":"levelo://app?vid=1dd2b38a-1eef-43a4-92ff-ef65d6e1f984","ios":"levelo://app?vid=1dd2b38a-1eef-43a4-92ff-ef65d6e1f984"},"vehicle_type_id":"4","last_reported":1732454132,"current_range_meters":25200,"station_id":"ce4bhi12rcd13ifvqfq0","pricing_plan_id":"cebpf4jnsgd1na2vs0mg"},{"bike_id":"5c8055e5-a368-4312-8157-243ebc733ac9","system_id":"levelo_inurba_marseille","lat":43.30593,"lon":5.39345,"is_reserved":false,"is_disabled":true,"rental_uris":{"android":"levelo://app?vid=5c8055e5-a368-4312-8157-243ebc733ac9","ios":"levelo://app?vid=5c8055e5-a368-4312-8157-243ebc733ac9"},"vehicle_type_id":"4","last_reported":1732454132,"current_range_meters":22800,"station_id":"ce4bh0p2rcd13ifvqd80","pricing_plan_id":"cebpf4jnsgd1na2vs0mg"},{"bike_id":"03d7518f-5ee5-42a6-bbe5-fb6894f0c383","system_id":"levelo_inurba_marseille","lat":43.29515,"lon":5.3751,"is_reserved":false,"is_disabled":false,"rental_uris":{"android":"levelo://app?vid=03d7518f-5ee5-42a6-bbe5-fb6894f0c383","ios":"levelo://app?vid=03d7518f-5ee5-42a6-bbe5-fb6894f0c383"},"vehicle_type_id":"4","last_reported":1732454132,"current_range_meters":36400,"station_id":"ce4bgkp2rcd13ifvqbmg","pricing_plan_id":"cebpf4jnsgd1na2vs0mg"},{"bike_id":"a63f026b-964a-429c-9110-87bd719c2c3a","system_id":"levelo_inurba_marseille","lat":43.29309,"lon":5.37464,"is_reserved":false,"is_disabled":true,"rental_uris":{"android":"levelo://app?vid=a63f026b-964a-429c-9110-87bd719c2c3a","ios":"levelo://app?vid=a63f026b-964a-429c-9110-87bd719c2c3a"},"vehicle_type_id":"4","last_reported":1732454132,"current_range_meters":36000,"station_id":"ce4bgi12rcd13ifvqb70","pricing_plan_id":"cebpf4jnsgd1na2vs0mg"},{"bike_id":"0b60f259-44c3-44b4-8354-e8afd54af0ac","system_id":"levelo_inurba_marseille","lat":43.29585,"lon":5.36748,"is_reserved":false,"is_disabled":false,"rental_uris":{"android":"levelo://app?vid=0b60f259-44c3-44b4-8354-e8afd54af0ac","ios":"levelo://app?vid=0b60f259-44c3-44b4-8354-e8afd54af0ac"},"vehicle_type_id":"4","last_reported":1732454132,"current_range_meters":37600,"station_id":"ce4bgph2rcd13ifvqc2g","pricing_plan_id":"cebpf4jnsgd1na2vs0mg"},{"bike_id":"600b3470-1dde-43ce-962b-7a6284b20990","system_id":"levelo_inurba_marseille","lat":43.23188,"lon":5.35565,"is_reserved":false,"is_disabled":true,"rental_uris":{"android":"levelo://app?vid=600b3470-1dde-43ce-962b-7a6284b20990","ios":"levelo://app?vid=600b3470-1dde-43ce-962b-7a6284b20990"},"vehicle_type_id":"4","last_reported":1732454132,"current_range_meters":26800,"station_id":"ce4bhu92rcd13ifvqi70","pricing_plan_id":"cebpf4jnsgd1na2vs0mg"},{"bike_id":"95f9adf6-4f8c-4268-8305-f17d442a830a","system_id":"levelo_inurba_marseille","lat":43.27212,"lon":5.39186,"is_reserved":false,"is_disabled":false,"rental_uris":{"android":"levelo://app?vid=95f9adf6-4f8c-4268-8305-f17d442a830a","ios":"levelo://app?vid=95f9adf6-4f8c-4268-8305-f17d442a830a"},"vehicle_type_id":"4","last_reported":1732454132,"current_range_meters":18800,"station_id":"ce4bhhp2rcd13ifvqfm0","pricing_plan_id":"cebpf4jnsgd1na2vs0mg"},{"bike_id":"08117995-990e-4451-96a5-afc9c181642a","system_id":"levelo_inurba_marseille","lat":43.28612,"lon":5.35103,"is_reserved":false,"is_disabled":true,"rental_uris":{"android":"levelo://app?vid=08117995-990e-4451-96a5-afc9c181642a","ios":"levelo://app?vid=08117995-990e-4451-96a5-afc9c181642a"},"vehicle_type_id":"4","last_reported":1732454132,"current_range_meters":27600,"station_id":"","pricing_plan_id":"cebpf4jnsgd1na2vs0mg"},{"bike_id":"23c062dc-9f16-4a14-aa0b-b9c24e504663","system_id":"levelo_inurba_marseille","lat":43.255,"lon":5.37651,"is_reserved":false,"is_disabled":false,"rental_uris":{"android":"levelo://app?vid=23c062dc-9f16-4a14-aa0b-b9c24e504663","ios":"levelo://app?vid=23c062dc-9f16-4a14-aa0b-b9c24e504663"},"vehicle_type_id":"4","last_reported":1732454132,"current_range_meters":9600,"station_id":"ce4bhh12rcd13ifvqff0","pricing_plan_id":"cebpf4jnsgd1na2vs0mg"},{"bike_id":"418f11db-f18d-4af5-bf8d-9af8d4a1229d","system_id":"levelo_inurba_marseille","lat":43.29023,"lon":5.3814,"is_reserved":false,"is_disabled":false,"rental_uris":{"android":"levelo://app?vid=418f11db-f18d-4af5-bf8d-9af8d4a1229d","ios":"levelo://app?vid=418f11db-f18d-4af5-bf8d-9af8d4a1229d"},"vehicle_type_id":"4","last_reported":1732454132,"current_range_meters":16000,"station_id":"ce4bh4p2rcd13ifvqe1g","pricing_plan_id":"cebpf4jnsgd1na2vs0mg"},{"bike_id":"9cd4a41e-9267-4c1b-94dc-126dd78de022","system_id":"levelo_inurba_marseille","lat":43.30936,"lon":5.37414,"is_reserved":false,"is_disabled":false,"rental_uris":{"android":"levelo://app?vid=9cd4a41e-9267-4c1b-94dc-126dd78de022","ios":"levelo://app?vid=9cd4a41e-9267-4c1b-94dc-126dd78de022"},"vehicle_type_id":"4","last_reported":1732454132,"current_range_meters":10000,"station_id":"","pricing_plan_id":"cebpf4jnsgd1na2vs0mg"},{"bike_id":"6f148f96-5001-4751-9146-64d27a6f5f1c","system_id":"levelo_inurba_marseille","lat":43.30803,"lon":5.43531,"is_reserved":false,"is_disabled":false,"rental_uris":{"android":"levelo://app?vid=6f148f96-5001-4751-9146-64d27a6f5f1c","ios":"levelo://app?vid=6f148f96-5001-4751-9146-64d27a6f5f1c"},"vehicle_type_id":"4","last_reported":1732454132,"current_range_meters":38800,"station_id":"ce4bhph2rcd13ifvqheg","pricing_plan_id":"cebpf4jnsgd1na2vs0mg"},{"bike_id":"4cf68192-498e-49a8-b866-19367c604fb3","system_id":"levelo_inurba_marseille","lat":43.29593,"lon":5.39998,"is_reserved":false,"is_disabled":true,"rental_uris":{"android":"levelo://app?vid=4cf68192-498e-49a8-b866-19367c604fb3","ios":"levelo://app?vid=4cf68192-498e-49a8-b866-19367c604fb3"},"vehicle_type_id":"4","last_reported":1732454132,"current_range_meters":35600,"station_id":"ce4bh312rcd13ifvqdj0","pricing_plan_id":"cebpf4jnsgd1na2vs0mg"},{"bike_id":"246f0f93-d33e-49d2-b0c2-22df835c49f8","system_id":"levelo_inurba_marseille","lat":43.29568,"lon":5.39984,"is_reserved":false,"is_disabled":false,"rental_uris":{"android":"levelo://app?vid=246f0f93-d33e-49d2-b0c2-22df835c49f8","ios":"levelo://app?vid=246f0f93-d33e-49d2-b0c2-22df835c49f8"},"vehicle_type_id":"4","last_reported":1732454132,"current_range_meters":26800,"station_id":"ce4bh312rcd13ifvqdj0","pricing_plan_id":"cebpf4jnsgd1na2vs0mg"},{"bike_id":"5490ab91-05e5-48f9-bb1a-074a5b03f773","system_id":"levelo_inurba_marseille","lat":43.24648,"lon":5.3889,"is_reserved":false,"is_disabled":false,"rental_uris":{"android":"levelo://app?vid=5490ab91-05e5-48f9-bb1a-074a5b03f773","ios":"levelo://app?vid=5490ab91-05e5-48f9-bb1a-074a5b03f773"},"vehicle_type_id":"4","last_reported":1732454132,"current_range_meters":24000,"station_id":"ce4bhg12rcd13ifvqf60","pricing_plan_id":"cebpf4jnsgd1na2vs0mg"},{"bike_id":"1e57c68e-4f84-4b4b-9687-49bed0dc4e0d","system_id":"levelo_inurba_marseille","lat":43.25116,"lon":5.40319,"is_reserved":false,"is_disabled":false,"rental_uris":{"android":"levelo://app?vid=1e57c68e-4f84-4b4b-9687-49bed0dc4e0d","ios":"levelo://app?vid=1e57c68e-4f84-4b4b-9687-49bed0dc4e0d"},"vehicle_type_id":"4","last_reported":1732454132,"current_range_meters":22800,"station_id":"ce4bhlh2rcd13ifvqgig","pricing_plan_id":"cebpf4jnsgd1na2vs0mg"},{"bike_id":"6366c9d4-8bb1-44b4-ac0d-d040876d71bb","system_id":"levelo_inurba_marseille","lat":43.33634,"lon":5.41026,"is_reserved":false,"is_disabled":false,"rental_uris":{"android":"levelo://app?vid=6366c9d4-8bb1-44b4-ac0d-d040876d71bb","ios":"levelo://app?vid=6366c9d4-8bb1-44b4-ac0d-d040876d71bb"},"vehicle_type_id":"4","last_reported":1732454132,"current_range_meters":20400,"station_id":"ce4bhqh2rcd13ifvqhmg","pricing_plan_id":"cebpf4jnsgd1na2vs0mg"},{"bike_id":"839c41fc-5b61-4de1-bdfc-47023a6ad401","system_id":"levelo_inurba_marseille","lat":43.29416,"lon":5.38622,"is_reserved":false,"is_disabled":false,"rental_uris":{"android":"levelo://app?vid=839c41fc-5b61-4de1-bdfc-47023a6ad401","ios":"levelo://app?vid=839c41fc-5b61-4de1-bdfc-47023a6ad401"},"vehicle_type_id":"4","last_reported":1732454132,"current_range_meters":25600,"station_id":"ce4bh2h2rcd13ifvqdh0","pricing_plan_id":"cebpf4jnsgd1na2vs0mg"},{"bike_id":"734ff0c4-f245-4197-8036-be5e222d76fd","system_id":"levelo_inurba_marseille","lat":43.28996,"lon":5.42589,"is_reserved":false,"is_disabled":true,"rental_uris":{"android":"levelo://app?vid=734ff0c4-f245-4197-8036-be5e222d76fd","ios":"levelo://app?vid=734ff0c4-f245-4197-8036-be5e222d76fd"},"vehicle_type_id":"4","last_reported":1732454132,"current_range_meters":0,"station_id":"","pricing_plan_id":"cebpf4jnsgd1na2vs0mg"},{"bike_id":"31e8cf73-3755-4d23-8e13-6fb3e4e82277","system_id":"levelo_inurba_marseille","lat":43.29786,"lon":5.38118,"is_reserved":false,"is_disabled":true,"rental_uris":{"android":"levelo://app?vid=31e8cf73-3755-4d23-8e13-6fb3e4e82277","ios":"levelo://app?vid=31e8cf73-3755-4d23-8e13-6fb3e4e82277"},"vehicle_type_id":"4","last_reported":1732454132,"current_range_meters":28800,"station_id":"ce4bgip2rcd13ifvqbb0","pricing_plan_id":"cebpf4jnsgd1na2vs0mg"},{"bike_id":"6ac7e056-91eb-4652-8376-2a2bc9bfc434","system_id":"levelo_inurba_marseille","lat":43.28037,"lon":5.36957,"is_reserved":false,"is_disabled":false,"rental_uris":{"android":"levelo://app?vid=6ac7e056-91eb-4652-8376-2a2bc9bfc434","ios":"levelo://app?vid=6ac7e056-91eb-4652-8376-2a2bc9bfc434"},"vehicle_type_id":"4","last_reported":1732454132,"current_range_meters":9600,"station_id":"ce4bha12rcd13ifvqef0","pricing_plan_id":"cebpf4jnsgd1na2vs0mg"},{"bike_id":"4ed6f7dc-7210-4bad-9063-ef1107a0aef8","system_id":"levelo_inurba_marseille","lat":43.30426,"lon":5.39742,"is_reserved":false,"is_disabled":false,"rental_uris":{"android":"levelo://app?vid=4ed6f7dc-7210-4bad-9063-ef1107a0aef8","ios":"levelo://app?vid=4ed6f7dc-7210-4bad-9063-ef1107a0aef8"},"vehicle_type_id":"4","last_reported":1732454132,"current_range_meters":18000,"station_id":"ce4bh092rcd13ifvqd20","pricing_plan_id":"cebpf4jnsgd1na2vs0mg"},{"bike_id":"11980602-9466-4247-a5b8-e3e79fa3bf33","system_id":"levelo_inurba_marseille","lat":43.26033,"lon":5.37549,"is_reserved":false,"is_disabled":false,"rental_uris":{"android":"levelo://app?vid=11980602-9466-4247-a5b8-e3e79fa3bf33","ios":"levelo://app?vid=11980602-9466-4247-a5b8-e3e79fa3bf33"},"vehicle_type_id":"4","last_reported":1732454132,"current_range_meters":4400,"station_id":"ce4bhgh2rcd13ifvqfa0","pricing_plan_id":"cebpf4jnsgd1na2vs0mg"},{"bike_id":"4909d4e1-bd04-4fcd-9036-cf5cd84e5798","system_id":"levelo_inurba_marseille","lat":43.25,"lon":5.38922,"is_reserved":false,"is_disabled":false,"rental_uris":{"android":"levelo://app?vid=4909d4e1-bd04-4fcd-9036-cf5cd84e5798","ios":"levelo://app?vid=4909d4e1-bd04-4fcd-9036-cf5cd84e5798"},"vehicle_type_id":"4","last_reported":1732454132,"current_range_meters":28000,"station_id":"ce4bhgp2rcd13ifvqfd0","pricing_plan_id":"cebpf4jnsgd1na2vs0mg"},{"bike_id":"46542312-5a57-4358-8e82-504d74fb4c60","system_id":"levelo_inurba_marseille","lat":43.28151,"lon":5.42656,"is_reserved":false,"is_disabled":false,"rental_uris":{"android":"levelo://app?vid=46542312-5a57-4358-8e82-504d74fb4c60","ios":"levelo://app?vid=46542312-5a57-4358-8e82-504d74fb4c60"},"vehicle_type_id":"4","last_reported":1732454132,"current_range_meters":38800,"station_id":"ce4bhnh2rcd13ifvqgug","pricing_plan_id":"cebpf4jnsgd1na2vs0mg"},{"bike_id":"294eeb79-af1b-495a-909f-216801ae6b41","system_id":"levelo_inurba_marseille","lat":43.337444,"lon":5.374475,"is_reserved":false,"is_disabled":true,"rental_uris":{"android":"levelo://app?vid=294eeb79-af1b-495a-909f-216801ae6b41","ios":"levelo://app?vid=294eeb79-af1b-495a-909f-216801ae6b41"},"vehicle_type_id":"4","last_reported":1732454132,"current_range_meters":0,"station_id":"","pricing_plan_id":"cebpf4jnsgd1na2vs0mg"},{"bike_id":"ada70d50-099b-4f77-b6a4-d56cf2bcdc70","system_id":"levelo_inurba_marseille","lat":43.29777,"lon":5.37105,"is_reserved":false,"is_disabled":false,"rental_uris":{"android":"levelo://app?vid=ada70d50-099b-4f77-b6a4-d56cf2bcdc70","ios":"levelo://app?vid=ada70d50-099b-4f77-b6a4-d56cf2bcdc70"},"vehicle_type_id":"4","last_reported":1732454132,"current_range_meters":15200,"station_id":"ce4bgop2rcd13ifvqc1g","pricing_plan_id":"cebpf4jnsgd1na2vs0mg"},{"bike_id":"ae1dd2db-5b19-40fe-a981-fb874abf3912","system_id":"levelo_inurba_marseille","lat":43.24387,"lon":5.3706,"is_reserved":false,"is_disabled":false,"rental_uris":{"android":"levelo://app?vid=ae1dd2db-5b19-40fe-a981-fb874abf3912","ios":"levelo://app?vid=ae1dd2db-5b19-40fe-a981-fb874abf3912"},"vehicle_type_id":"4","last_reported":1732454132,"current_range_meters":16000,"station_id":"ce4bhhh2rcd13ifvqfk0","pricing_plan_id":"cebpf4jnsgd1na2vs0mg"},{"bike_id":"50f415fe-e878-4f24-833c-95cde137d543","system_id":"levelo_inurba_marseille","lat":43.28822,"lon":5.35272,"is_reserved":false,"is_disabled":false,"rental_uris":{"android":"levelo://app?vid=50f415fe-e878-4f24-833c-95cde137d543","ios":"levelo://app?vid=50f415fe-e878-4f24-833c-95cde137d543"},"vehicle_type_id":"4","last_reported":1732454132,"current_range_meters":37600,"station_id":"","pricing_plan_id":"cebpf4jnsgd1na2vs0mg"},{"bike_id":"677c7322-f017-41b4-b2b4-6107ebd39bbc","system_id":"levelo_inurba_marseille","lat":43.32671,"lon":5.40994,"is_reserved":false,"is_disabled":false,"rental_uris":{"android":"levelo://app?vid=677c7322-f017-41b4-b2b4-6107ebd39bbc","ios":"levelo://app?vid=677c7322-f017-41b4-b2b4-6107ebd39bbc"},"vehicle_type_id":"4","last_reported":1732454132,"current_range_meters":39200,"station_id":"ce4bhpp2rcd13ifvqhgg","pricing_plan_id":"cebpf4jnsgd1na2vs0mg"},{"bike_id":"c9727e47-9040-416f-a7c9-84d58e4a8c27","system_id":"levelo_inurba_marseille","lat":43.29591,"lon":5.38093,"is_reserved":false,"is_disabled":false,"rental_uris":{"android":"levelo://app?vid=c9727e47-9040-416f-a7c9-84d58e4a8c27","ios":"levelo://app?vid=c9727e47-9040-416f-a7c9-84d58e4a8c27"},"vehicle_type_id":"4","last_reported":1732454132,"current_range_meters":30000,"station_id":"ce4bgl12rcd13ifvqbo0","pricing_plan_id":"cebpf4jnsgd1na2vs0mg"},{"bike_id":"e038d361-373d-42fa-9980-4c32dedccb9f","system_id":"levelo_inurba_marseille","lat":43.28479,"lon":5.38423,"is_reserved":false,"is_disabled":false,"rental_uris":{"android":"levelo://app?vid=e038d361-373d-42fa-9980-4c32dedccb9f","ios":"levelo://app?vid=e038d361-373d-42fa-9980-4c32dedccb9f"},"vehicle_type_id":"4","last_reported":1732454132,"current_range_meters":38800,"station_id":"ce4bh512rcd13ifvqe3g","pricing_plan_id":"cebpf4jnsgd1na2vs0mg"},{"bike_id":"6aeff2b9-cd17-4948-9952-f7b991e16719","system_id":"levelo_inurba_marseille","lat":43.24995,"lon":5.38945,"is_reserved":false,"is_disabled":false,"rental_uris":{"android":"levelo://app?vid=6aeff2b9-cd17-4948-9952-f7b991e16719","ios":"levelo://app?vid=6aeff2b9-cd17-4948-9952-f7b991e16719"},"vehicle_type_id":"4","last_reported":1732454132,"current_range_meters":36400,"station_id":"ce4bhgp2rcd13ifvqfd0","pricing_plan_id":"cebpf4jnsgd1na2vs0mg"},{"bike_id":"777b7fed-d395-4c97-b504-dee7c3479d4f","system_id":"levelo_inurba_marseille","lat":43.29836,"lon":5.3785,"is_reserved":false,"is_disabled":true,"rental_uris":{"android":"levelo://app?vid=777b7fed-d395-4c97-b504-dee7c3479d4f","ios":"levelo://app?vid=777b7fed-d395-4c97-b504-dee7c3479d4f"},"vehicle_type_id":"4","last_reported":1732454132,"current_range_meters":0,"station_id":"","pricing_plan_id":"cebpf4jnsgd1na2vs0mg"},{"bike_id":"cd78312a-142a-42d0-92e1-dbc654bf8bb4","system_id":"levelo_inurba_marseille","lat":43.24183,"lon":5.39721,"is_reserved":false,"is_disabled":true,"rental_uris":{"android":"levelo://app?vid=cd78312a-142a-42d0-92e1-dbc654bf8bb4","ios":"levelo://app?vid=cd78312a-142a-42d0-92e1-dbc654bf8bb4"},"vehicle_type_id":"4","last_reported":1732454132,"current_range_meters":9200,"station_id":"ce4bhn12rcd13ifvqgpg","pricing_plan_id":"cebpf4jnsgd1na2vs0mg"},{"bike_id":"fc2d205d-0702-47a8-9581-d5ae3b191495","system_id":"levelo_inurba_marseille","lat":43.2481,"lon":5.37458,"is_reserved":false,"is_disabled":false,"rental_uris":{"android":"levelo://app?vid=fc2d205d-0702-47a8-9581-d5ae3b191495","ios":"levelo://app?vid=fc2d205d-0702-47a8-9581-d5ae3b191495"},"vehicle_type_id":"4","last_reported":1732454132,"current_range_meters":26000,"station_id":"ce4bhgh2rcd13ifvqfb0","pricing_plan_id":"cebpf4jnsgd1na2vs0mg"},{"bike_id":"3acf8a97-1cee-4e45-b349-3e5ca607d164","system_id":"levelo_inurba_marseille","lat":43.26033,"lon":5.37554,"is_reserved":false,"is_disabled":false,"rental_uris":{"android":"levelo://app?vid=3acf8a97-1cee-4e45-b349-3e5ca607d164","ios":"levelo://app?vid=3acf8a97-1cee-4e45-b349-3e5ca607d164"},"vehicle_type_id":"4","last_reported":1732454132,"current_range_meters":33200,"station_id":"ce4bhgh2rcd13ifvqfa0","pricing_plan_id":"cebpf4jnsgd1na2vs0mg"},{"bike_id":"43f6da94-5cf1-446e-9b8d-b4c4e86bf027","system_id":"levelo_inurba_marseille","lat":43.26191,"lon":5.37454,"is_reserved":false,"is_disabled":true,"rental_uris":{"android":"levelo://app?vid=43f6da94-5cf1-446e-9b8d-b4c4e86bf027","ios":"levelo://app?vid=43f6da94-5cf1-446e-9b8d-b4c4e86bf027"},"vehicle_type_id":"4","last_reported":1732454132,"current_range_meters":8000,"station_id":"ce4bhgp2rcd13ifvqfc0","pricing_plan_id":"cebpf4jnsgd1na2vs0mg"},{"bike_id":"dd5ab154-647e-4dfa-88f1-0f781c7552f5","system_id":"levelo_inurba_marseille","lat":43.2558,"lon":5.38238,"is_reserved":false,"is_disabled":false,"rental_uris":{"android":"levelo://app?vid=dd5ab154-647e-4dfa-88f1-0f781c7552f5","ios":"levelo://app?vid=dd5ab154-647e-4dfa-88f1-0f781c7552f5"},"vehicle_type_id":"4","last_reported":1732454132,"current_range_meters":25600,"station_id":"ce4bhih2rcd13ifvqfs0","pricing_plan_id":"cebpf4jnsgd1na2vs0mg"},{"bike_id":"5088bd3a-f977-40b8-8a1e-c56e9cb2df42","system_id":"levelo_inurba_marseille","lat":43.27309,"lon":5.3909,"is_reserved":false,"is_disabled":false,"rental_uris":{"android":"levelo://app?vid=5088bd3a-f977-40b8-8a1e-c56e9cb2df42","ios":"levelo://app?vid=5088bd3a-f977-40b8-8a1e-c56e9cb2df42"},"vehicle_type_id":"4","last_reported":1732454132,"current_range_meters":36800,"station_id":"ce4bhgp2rcd13ifvqfe0","pricing_plan_id":"cebpf4jnsgd1na2vs0mg"},{"bike_id":"994195f6-b5da-4158-a5b5-8b38baad32b0","system_id":"levelo_inurba_marseille","lat":43.33724,"lon":5.392,"is_reserved":false,"is_disabled":false,"rental_uris":{"android":"levelo://app?vid=994195f6-b5da-4158-a5b5-8b38baad32b0","ios":"levelo://app?vid=994195f6-b5da-4158-a5b5-8b38baad32b0"},"vehicle_type_id":"4","last_reported":1732454132,"current_range_meters":28000,"station_id":"ce4bhr92rcd13ifvqhsg","pricing_plan_id":"cebpf4jnsgd1na2vs0mg"},{"bike_id":"7c2f19f3-5373-4c2a-87bb-e1fd3ef39822","system_id":"levelo_inurba_marseille","lat":43.26563,"lon":5.39017,"is_reserved":false,"is_disabled":true,"rental_uris":{"android":"levelo://app?vid=7c2f19f3-5373-4c2a-87bb-e1fd3ef39822","ios":"levelo://app?vid=7c2f19f3-5373-4c2a-87bb-e1fd3ef39822"},"vehicle_type_id":"4","last_reported":1732454132,"current_range_meters":19200,"station_id":"ce4bhe12rcd13ifvqf30","pricing_plan_id":"cebpf4jnsgd1na2vs0mg"},{"bike_id":"36ef9a42-f4d8-45f5-adc2-b51fb9b962d0","system_id":"levelo_inurba_marseille","lat":43.34148,"lon":5.40907,"is_reserved":false,"is_disabled":false,"rental_uris":{"android":"levelo://app?vid=36ef9a42-f4d8-45f5-adc2-b51fb9b962d0","ios":"levelo://app?vid=36ef9a42-f4d8-45f5-adc2-b51fb9b962d0"},"vehicle_type_id":"4","last_reported":1732454132,"current_range_meters":37600,"station_id":"ce4bhqh2rcd13ifvqhlg","pricing_plan_id":"cebpf4jnsgd1na2vs0mg"},{"bike_id":"d7efcdad-c0b8-45b3-bdae-b08615486a10","system_id":"levelo_inurba_marseille","lat":43.31709,"lon":5.40465,"is_reserved":false,"is_disabled":false,"rental_uris":{"android":"levelo://app?vid=d7efcdad-c0b8-45b3-bdae-b08615486a10","ios":"levelo://app?vid=d7efcdad-c0b8-45b3-bdae-b08615486a10"},"vehicle_type_id":"4","last_reported":1732454132,"current_range_meters":33200,"station_id":"ce4bh012rcd13ifvqd00","pricing_plan_id":"cebpf4jnsgd1na2vs0mg"},{"bike_id":"a3202fc1-85cb-42ee-bead-37756f81ff0f","system_id":"levelo_inurba_marseille","lat":43.30565,"lon":5.38388,"is_reserved":false,"is_disabled":true,"rental_uris":{"android":"levelo://app?vid=a3202fc1-85cb-42ee-bead-37756f81ff0f","ios":"levelo://app?vid=a3202fc1-85cb-42ee-bead-37756f81ff0f"},"vehicle_type_id":"4","last_reported":1732454132,"current_range_meters":24800,"station_id":"ce4bgg92rcd13ifvqb30","pricing_plan_id":"cebpf4jnsgd1na2vs0mg"},{"bike_id":"f7b40e1b-bb7c-43c8-a240-1ecdca3276ed","system_id":"levelo_inurba_marseille","lat":43.32052,"lon":5.41541,"is_reserved":false,"is_disabled":false,"rental_uris":{"android":"levelo://app?vid=f7b40e1b-bb7c-43c8-a240-1ecdca3276ed","ios":"levelo://app?vid=f7b40e1b-bb7c-43c8-a240-1ecdca3276ed"},"vehicle_type_id":"4","last_reported":1732454132,"current_range_meters":38800,"station_id":"ce4bhq92rcd13ifvqhkg","pricing_plan_id":"cebpf4jnsgd1na2vs0mg"},{"bike_id":"67eec873-2e0f-49d2-a011-594652020334","system_id":"levelo_inurba_marseille","lat":43.26214,"lon":5.37924,"is_reserved":false,"is_disabled":false,"rental_uris":{"android":"levelo://app?vid=67eec873-2e0f-49d2-a011-594652020334","ios":"levelo://app?vid=67eec873-2e0f-49d2-a011-594652020334"},"vehicle_type_id":"4","last_reported":1732454132,"current_range_meters":12800,"station_id":"ce4bhjp2rcd13ifvqg90","pricing_plan_id":"cebpf4jnsgd1na2vs0mg"},{"bike_id":"9495fa64-9fda-4344-b5aa-1797ee4f28c5","system_id":"levelo_inurba_marseille","lat":43.25086,"lon":5.39516,"is_reserved":false,"is_disabled":false,"rental_uris":{"android":"levelo://app?vid=9495fa64-9fda-4344-b5aa-1797ee4f28c5","ios":"levelo://app?vid=9495fa64-9fda-4344-b5aa-1797ee4f28c5"},"vehicle_type_id":"4","last_reported":1732454132,"current_range_meters":38800,"station_id":"ce4bhm12rcd13ifvqgkg","pricing_plan_id":"cebpf4jnsgd1na2vs0mg"},{"bike_id":"abe1eb5f-010a-4174-943f-d9c0685d197c","system_id":"levelo_inurba_marseille","lat":43.2905,"lon":5.3591,"is_reserved":false,"is_disabled":false,"rental_uris":{"android":"levelo://app?vid=abe1eb5f-010a-4174-943f-d9c0685d197c","ios":"levelo://app?vid=abe1eb5f-010a-4174-943f-d9c0685d197c"},"vehicle_type_id":"4","last_reported":1732454132,"current_range_meters":37600,"station_id":"ce4bha92rcd13ifvqeg0","pricing_plan_id":"cebpf4jnsgd1na2vs0mg"},{"bike_id":"48a8ff3a-efa9-4d07-93dd-f4b39bd7fd4f","system_id":"levelo_inurba_marseille","lat":43.29559,"lon":5.42288,"is_reserved":false,"is_disabled":false,"rental_uris":{"android":"levelo://app?vid=48a8ff3a-efa9-4d07-93dd-f4b39bd7fd4f","ios":"levelo://app?vid=48a8ff3a-efa9-4d07-93dd-f4b39bd7fd4f"},"vehicle_type_id":"4","last_reported":1732454132,"current_range_meters":23200,"station_id":"ce4bhph2rcd13ifvqhdg","pricing_plan_id":"cebpf4jnsgd1na2vs0mg"},{"bike_id":"f8b957eb-ac36-4e56-96cf-7474e1d53753","system_id":"levelo_inurba_marseille","lat":43.2466,"lon":5.38166,"is_reserved":false,"is_disabled":false,"rental_uris":{"android":"levelo://app?vid=f8b957eb-ac36-4e56-96cf-7474e1d53753","ios":"levelo://app?vid=f8b957eb-ac36-4e56-96cf-7474e1d53753"},"vehicle_type_id":"4","last_reported":1732454132,"current_range_meters":16400,"station_id":"ce4bhih2rcd13ifvqfr0","pricing_plan_id":"cebpf4jnsgd1na2vs0mg"},{"bike_id":"57fa0b0b-836e-4aeb-9db5-c114ef1d588b","system_id":"levelo_inurba_marseille","lat":43.2782,"lon":5.40703,"is_reserved":false,"is_disabled":false,"rental_uris":{"android":"levelo://app?vid=57fa0b0b-836e-4aeb-9db5-c114ef1d588b","ios":"levelo://app?vid=57fa0b0b-836e-4aeb-9db5-c114ef1d588b"},"vehicle_type_id":"4","last_reported":1732454132,"current_range_meters":9600,"station_id":"ce4bhnh2rcd13ifvqgtg","pricing_plan_id":"cebpf4jnsgd1na2vs0mg"},{"bike_id":"909964af-2938-415e-902e-4fb9a0ea70de","system_id":"levelo_inurba_marseille","lat":43.26557,"lon":5.37284,"is_reserved":false,"is_disabled":false,"rental_uris":{"android":"levelo://app?vid=909964af-2938-415e-902e-4fb9a0ea70de","ios":"levelo://app?vid=909964af-2938-415e-902e-4fb9a0ea70de"},"vehicle_type_id":"4","last_reported":1732454132,"current_range_meters":26000,"station_id":"ce4bhg12rcd13ifvqf70","pricing_plan_id":"cebpf4jnsgd1na2vs0mg"},{"bike_id":"faddc5bf-9308-4490-a929-f5be12fd1597","system_id":"levelo_inurba_marseille","lat":43.25577,"lon":5.38232,"is_reserved":false,"is_disabled":false,"rental_uris":{"android":"levelo://app?vid=faddc5bf-9308-4490-a929-f5be12fd1597","ios":"levelo://app?vid=faddc5bf-9308-4490-a929-f5be12fd1597"},"vehicle_type_id":"4","last_reported":1732454132,"current_range_meters":19600,"station_id":"ce4bhih2rcd13ifvqfs0","pricing_plan_id":"cebpf4jnsgd1na2vs0mg"},{"bike_id":"73ff8f4e-173b-4111-860f-0fbe90564417","system_id":"levelo_inurba_marseille","lat":43.32663,"lon":5.40984,"is_reserved":false,"is_disabled":false,"rental_uris":{"android":"levelo://app?vid=73ff8f4e-173b-4111-860f-0fbe90564417","ios":"levelo://app?vid=73ff8f4e-173b-4111-860f-0fbe90564417"},"vehicle_type_id":"4","last_reported":1732454132,"current_range_meters":39200,"station_id":"ce4bhpp2rcd13ifvqhgg","pricing_plan_id":"cebpf4jnsgd1na2vs0mg"},{"bike_id":"36296f5c-0176-4be0-97c8-7930cda9c369","system_id":"levelo_inurba_marseille","lat":43.32107,"lon":5.36773,"is_reserved":false,"is_disabled":false,"rental_uris":{"android":"levelo://app?vid=36296f5c-0176-4be0-97c8-7930cda9c369","ios":"levelo://app?vid=36296f5c-0176-4be0-97c8-7930cda9c369"},"vehicle_type_id":"4","last_reported":1732454132,"current_range_meters":31200,"station_id":"ce4bhrh2rcd13ifvqhug","pricing_plan_id":"cebpf4jnsgd1na2vs0mg"},{"bike_id":"12b1bbd6-dc44-489a-bdfb-1eac521b561d","system_id":"levelo_inurba_marseille","lat":43.33614,"lon":5.41027,"is_reserved":false,"is_disabled":false,"rental_uris":{"android":"levelo://app?vid=12b1bbd6-dc44-489a-bdfb-1eac521b561d","ios":"levelo://app?vid=12b1bbd6-dc44-489a-bdfb-1eac521b561d"},"vehicle_type_id":"4","last_reported":1732454132,"current_range_meters":33600,"station_id":"ce4bhqh2rcd13ifvqhmg","pricing_plan_id":"cebpf4jnsgd1na2vs0mg"},{"bike_id":"3749f547-26de-49f3-8704-9a5a504b68f5","system_id":"levelo_inurba_marseille","lat":43.25579,"lon":5.38239,"is_reserved":false,"is_disabled":false,"rental_uris":{"android":"levelo://app?vid=3749f547-26de-49f3-8704-9a5a504b68f5","ios":"levelo://app?vid=3749f547-26de-49f3-8704-9a5a504b68f5"},"vehicle_type_id":"4","last_reported":1732454132,"current_range_meters":36000,"station_id":"ce4bhih2rcd13ifvqfs0","pricing_plan_id":"cebpf4jnsgd1na2vs0mg"},{"bike_id":"d2a52b58-fabe-4a57-94ba-464e41b85800","system_id":"levelo_inurba_marseille","lat":43.30075,"lon":5.37427,"is_reserved":false,"is_disabled":true,"rental_uris":{"android":"levelo://app?vid=d2a52b58-fabe-4a57-94ba-464e41b85800","ios":"levelo://app?vid=d2a52b58-fabe-4a57-94ba-464e41b85800"},"vehicle_type_id":"4","last_reported":1732454132,"current_range_meters":25600,"station_id":"","pricing_plan_id":"cebpf4jnsgd1na2vs0mg"},{"bike_id":"6ac5d406-ab3f-4199-9685-2730e591b58f","system_id":"levelo_inurba_marseille","lat":43.23176,"lon":5.39988,"is_reserved":false,"is_disabled":false,"rental_uris":{"android":"levelo://app?vid=6ac5d406-ab3f-4199-9685-2730e591b58f","ios":"levelo://app?vid=6ac5d406-ab3f-4199-9685-2730e591b58f"},"vehicle_type_id":"4","last_reported":1732454132,"current_range_meters":36000,"station_id":"ce4bhn12rcd13ifvqgqg","pricing_plan_id":"cebpf4jnsgd1na2vs0mg"},{"bike_id":"5546cc7e-b5f4-42f8-90bc-2c151db90410","system_id":"levelo_inurba_marseille","lat":43.30414,"lon":5.41282,"is_reserved":false,"is_disabled":false,"rental_uris":{"android":"levelo://app?vid=5546cc7e-b5f4-42f8-90bc-2c151db90410","ios":"levelo://app?vid=5546cc7e-b5f4-42f8-90bc-2c151db90410"},"vehicle_type_id":"4","last_reported":1732454132,"current_range_meters":15200,"station_id":"ce4bhop2rcd13ifvqh8g","pricing_plan_id":"cebpf4jnsgd1na2vs0mg"},{"bike_id":"740e9bd1-e752-44f7-9a3a-1d7188adc084","system_id":"levelo_inurba_marseille","lat":43.309,"lon":5.37191,"is_reserved":false,"is_disabled":false,"rental_uris":{"android":"levelo://app?vid=740e9bd1-e752-44f7-9a3a-1d7188adc084","ios":"levelo://app?vid=740e9bd1-e752-44f7-9a3a-1d7188adc084"},"vehicle_type_id":"4","last_reported":1732454132,"current_range_meters":33200,"station_id":"ce4bguh2rcd13ifvqckg","pricing_plan_id":"cebpf4jnsgd1na2vs0mg"},{"bike_id":"6a2b37d7-2dc4-425c-99f3-7b284ac569cd","system_id":"levelo_inurba_marseille","lat":43.27202,"lon":5.39181,"is_reserved":false,"is_disabled":false,"rental_uris":{"android":"levelo://app?vid=6a2b37d7-2dc4-425c-99f3-7b284ac569cd","ios":"levelo://app?vid=6a2b37d7-2dc4-425c-99f3-7b284ac569cd"},"vehicle_type_id":"4","last_reported":1732454132,"current_range_meters":38800,"station_id":"ce4bhhp2rcd13ifvqfm0","pricing_plan_id":"cebpf4jnsgd1na2vs0mg"},{"bike_id":"4923d6fc-1ccb-44fd-9ab5-43feda0c5519","system_id":"levelo_inurba_marseille","lat":43.25718,"lon":5.41096,"is_reserved":false,"is_disabled":false,"rental_uris":{"android":"levelo://app?vid=4923d6fc-1ccb-44fd-9ab5-43feda0c5519","ios":"levelo://app?vid=4923d6fc-1ccb-44fd-9ab5-43feda0c5519"},"vehicle_type_id":"4","last_reported":1732454132,"current_range_meters":16000,"station_id":"ce4bhkp2rcd13ifvqgd0","pricing_plan_id":"cebpf4jnsgd1na2vs0mg"},{"bike_id":"845cd7ff-290e-432c-bed8-16e3fe08c47c","system_id":"levelo_inurba_marseille","lat":43.23964,"lon":5.36634,"is_reserved":false,"is_disabled":false,"rental_uris":{"android":"levelo://app?vid=845cd7ff-290e-432c-bed8-16e3fe08c47c","ios":"levelo://app?vid=845cd7ff-290e-432c-bed8-16e3fe08c47c"},"vehicle_type_id":"4","last_reported":1732454132,"current_range_meters":6800,"station_id":"ce4bhi12rcd13ifvqfp0","pricing_plan_id":"cebpf4jnsgd1na2vs0mg"},{"bike_id":"66d70828-b14f-4541-8984-1f382e380cdf","system_id":"levelo_inurba_marseille","lat":43.27321,"lon":5.39089,"is_reserved":false,"is_disabled":true,"rental_uris":{"android":"levelo://app?vid=66d70828-b14f-4541-8984-1f382e380cdf","ios":"levelo://app?vid=66d70828-b14f-4541-8984-1f382e380cdf"},"vehicle_type_id":"4","last_reported":1732454132,"current_range_meters":38800,"station_id":"ce4bhgp2rcd13ifvqfe0","pricing_plan_id":"cebpf4jnsgd1na2vs0mg"},{"bike_id":"dd3b09fe-b71a-401a-b299-a88383f47f1c","system_id":"levelo_inurba_marseille","lat":43.337444,"lon":5.374475,"is_reserved":false,"is_disabled":false,"rental_uris":{"android":"levelo://app?vid=dd3b09fe-b71a-401a-b299-a88383f47f1c","ios":"levelo://app?vid=dd3b09fe-b71a-401a-b299-a88383f47f1c"},"vehicle_type_id":"4","last_reported":1732454132,"current_range_meters":30800,"station_id":"","pricing_plan_id":"cebpf4jnsgd1na2vs0mg"},{"bike_id":"0bd24871-1ac5-4d27-92b1-fc38cd997d34","system_id":"levelo_inurba_marseille","lat":43.23961,"lon":5.36637,"is_reserved":false,"is_disabled":false,"rental_uris":{"android":"levelo://app?vid=0bd24871-1ac5-4d27-92b1-fc38cd997d34","ios":"levelo://app?vid=0bd24871-1ac5-4d27-92b1-fc38cd997d34"},"vehicle_type_id":"4","last_reported":1732454132,"current_range_meters":14800,"station_id":"ce4bhi12rcd13ifvqfp0","pricing_plan_id":"cebpf4jnsgd1na2vs0mg"},{"bike_id":"c76567f4-7d8d-4550-bbbb-47b91f1a69a9","system_id":"levelo_inurba_marseille","lat":43.28266,"lon":5.35063,"is_reserved":false,"is_disabled":false,"rental_uris":{"android":"levelo://app?vid=c76567f4-7d8d-4550-bbbb-47b91f1a69a9","ios":"levelo://app?vid=c76567f4-7d8d-4550-bbbb-47b91f1a69a9"},"vehicle_type_id":"4","last_reported":1732454132,"current_range_meters":12800,"station_id":"ce4bhbp2rcd13ifvqerg","pricing_plan_id":"cebpf4jnsgd1na2vs0mg"},{"bike_id":"2dafa2a2-b8e3-409e-8abc-38514475ae7a","system_id":"levelo_inurba_marseille","lat":43.27919,"lon":5.39578,"is_reserved":false,"is_disabled":false,"rental_uris":{"android":"levelo://app?vid=2dafa2a2-b8e3-409e-8abc-38514475ae7a","ios":"levelo://app?vid=2dafa2a2-b8e3-409e-8abc-38514475ae7a"},"vehicle_type_id":"4","last_reported":1732454132,"current_range_meters":22400,"station_id":"ce4bhf92rcd13ifvqf40","pricing_plan_id":"cebpf4jnsgd1na2vs0mg"},{"bike_id":"f66d947b-8c86-4dab-940c-996d3486d69f","system_id":"levelo_inurba_marseille","lat":43.29222,"lon":5.36057,"is_reserved":false,"is_disabled":false,"rental_uris":{"android":"levelo://app?vid=f66d947b-8c86-4dab-940c-996d3486d69f","ios":"levelo://app?vid=f66d947b-8c86-4dab-940c-996d3486d69f"},"vehicle_type_id":"4","last_reported":1732454132,"current_range_meters":17600,"station_id":"ce4bhbh2rcd13ifvqeqg","pricing_plan_id":"cebpf4jnsgd1na2vs0mg"},{"bike_id":"43bb9ac4-d443-4983-98fd-c91d8dd06c22","system_id":"levelo_inurba_marseille","lat":43.3021,"lon":5.3946,"is_reserved":false,"is_disabled":false,"rental_uris":{"android":"levelo://app?vid=43bb9ac4-d443-4983-98fd-c91d8dd06c22","ios":"levelo://app?vid=43bb9ac4-d443-4983-98fd-c91d8dd06c22"},"vehicle_type_id":"4","last_reported":1732454132,"current_range_meters":30800,"station_id":"ce4bh0p2rcd13ifvqd70","pricing_plan_id":"cebpf4jnsgd1na2vs0mg"},{"bike_id":"be2c66eb-6e79-49bf-a20f-45ee32c91060","system_id":"levelo_inurba_marseille","lat":43.308,"lon":5.43524,"is_reserved":false,"is_disabled":false,"rental_uris":{"android":"levelo://app?vid=be2c66eb-6e79-49bf-a20f-45ee32c91060","ios":"levelo://app?vid=be2c66eb-6e79-49bf-a20f-45ee32c91060"},"vehicle_type_id":"4","last_reported":1732454132,"current_range_meters":38800,"station_id":"ce4bhph2rcd13ifvqheg","pricing_plan_id":"cebpf4jnsgd1na2vs0mg"},{"bike_id":"17ba6615-9f08-440e-93e9-f8f4f3600fcd","system_id":"levelo_inurba_marseille","lat":43.3056,"lon":5.36538,"is_reserved":false,"is_disabled":true,"rental_uris":{"android":"levelo://app?vid=17ba6615-9f08-440e-93e9-f8f4f3600fcd","ios":"levelo://app?vid=17ba6615-9f08-440e-93e9-f8f4f3600fcd"},"vehicle_type_id":"4","last_reported":1732454132,"current_range_meters":800,"station_id":"ce4bgs12rcd13ifvqcag","pricing_plan_id":"cebpf4jnsgd1na2vs0mg"},{"bike_id":"cbc2167d-639d-4b33-b914-3ad6f36f2868","system_id":"levelo_inurba_marseille","lat":43.22926,"lon":5.35376,"is_reserved":false,"is_disabled":false,"rental_uris":{"android":"levelo://app?vid=cbc2167d-639d-4b33-b914-3ad6f36f2868","ios":"levelo://app?vid=cbc2167d-639d-4b33-b914-3ad6f36f2868"},"vehicle_type_id":"4","last_reported":1732454132,"current_range_meters":36000,"station_id":"cpo3532slgdg3j2ikp40","pricing_plan_id":"cebpf4jnsgd1na2vs0mg"},{"bike_id":"e79e383a-195b-4040-9e46-5523fb31c3f3","system_id":"levelo_inurba_marseille","lat":43.28443,"lon":5.39193,"is_reserved":false,"is_disabled":false,"rental_uris":{"android":"levelo://app?vid=e79e383a-195b-4040-9e46-5523fb31c3f3","ios":"levelo://app?vid=e79e383a-195b-4040-9e46-5523fb31c3f3"},"vehicle_type_id":"4","last_reported":1732454132,"current_range_meters":15200,"station_id":"ce4bhoh2rcd13ifvqh5g","pricing_plan_id":"cebpf4jnsgd1na2vs0mg"},{"bike_id":"1d69a13d-2141-41be-aa68-51f0e8b7c6b1","system_id":"levelo_inurba_marseille","lat":43.29516,"lon":5.37512,"is_reserved":false,"is_disabled":false,"rental_uris":{"android":"levelo://app?vid=1d69a13d-2141-41be-aa68-51f0e8b7c6b1","ios":"levelo://app?vid=1d69a13d-2141-41be-aa68-51f0e8b7c6b1"},"vehicle_type_id":"4","last_reported":1732454132,"current_range_meters":36800,"station_id":"ce4bgkp2rcd13ifvqbmg","pricing_plan_id":"cebpf4jnsgd1na2vs0mg"},{"bike_id":"d2d6b761-7df5-4ee3-9c07-7f6feedf1b78","system_id":"levelo_inurba_marseille","lat":43.29261,"lon":5.40918,"is_reserved":false,"is_disabled":false,"rental_uris":{"android":"levelo://app?vid=d2d6b761-7df5-4ee3-9c07-7f6feedf1b78","ios":"levelo://app?vid=d2d6b761-7df5-4ee3-9c07-7f6feedf1b78"},"vehicle_type_id":"4","last_reported":1732454132,"current_range_meters":24400,"station_id":"ce4bh192rcd13ifvqdc0","pricing_plan_id":"cebpf4jnsgd1na2vs0mg"},{"bike_id":"9571ab5e-b96b-4203-912e-9bbecb2fc5cb","system_id":"levelo_inurba_marseille","lat":43.30425,"lon":5.41274,"is_reserved":false,"is_disabled":false,"rental_uris":{"android":"levelo://app?vid=9571ab5e-b96b-4203-912e-9bbecb2fc5cb","ios":"levelo://app?vid=9571ab5e-b96b-4203-912e-9bbecb2fc5cb"},"vehicle_type_id":"4","last_reported":1732454132,"current_range_meters":38800,"station_id":"ce4bhop2rcd13ifvqh8g","pricing_plan_id":"cebpf4jnsgd1na2vs0mg"},{"bike_id":"635f2088-37d7-4c7e-b140-3292398be605","system_id":"levelo_inurba_marseille","lat":43.24812,"lon":5.37457,"is_reserved":false,"is_disabled":false,"rental_uris":{"android":"levelo://app?vid=635f2088-37d7-4c7e-b140-3292398be605","ios":"levelo://app?vid=635f2088-37d7-4c7e-b140-3292398be605"},"vehicle_type_id":"4","last_reported":1732454132,"current_range_meters":36000,"station_id":"ce4bhgh2rcd13ifvqfb0","pricing_plan_id":"cebpf4jnsgd1na2vs0mg"},{"bike_id":"d7259feb-ca11-4e85-b9f7-53a5ce5807f9","system_id":"levelo_inurba_marseille","lat":43.27663,"lon":5.38924,"is_reserved":false,"is_disabled":false,"rental_uris":{"android":"levelo://app?vid=d7259feb-ca11-4e85-b9f7-53a5ce5807f9","ios":"levelo://app?vid=d7259feb-ca11-4e85-b9f7-53a5ce5807f9"},"vehicle_type_id":"4","last_reported":1732454132,"current_range_meters":36800,"station_id":"ce4bhi12rcd13ifvqfo0","pricing_plan_id":"cebpf4jnsgd1na2vs0mg"},{"bike_id":"f2935390-c61d-4bbc-842b-e3b3e3334f3f","system_id":"levelo_inurba_marseille","lat":43.28157,"lon":5.42646,"is_reserved":false,"is_disabled":false,"rental_uris":{"android":"levelo://app?vid=f2935390-c61d-4bbc-842b-e3b3e3334f3f","ios":"levelo://app?vid=f2935390-c61d-4bbc-842b-e3b3e3334f3f"},"vehicle_type_id":"4","last_reported":1732454132,"current_range_meters":33200,"station_id":"ce4bhnh2rcd13ifvqgug","pricing_plan_id":"cebpf4jnsgd1na2vs0mg"},{"bike_id":"43915cf4-289f-4594-a73e-51915a49a4ce","system_id":"levelo_inurba_marseille","lat":43.2991,"lon":5.38137,"is_reserved":false,"is_disabled":false,"rental_uris":{"android":"levelo://app?vid=43915cf4-289f-4594-a73e-51915a49a4ce","ios":"levelo://app?vid=43915cf4-289f-4594-a73e-51915a49a4ce"},"vehicle_type_id":"4","last_reported":1732454132,"current_range_meters":38000,"station_id":"ce4bgj12rcd13ifvqbc0","pricing_plan_id":"cebpf4jnsgd1na2vs0mg"},{"bike_id":"f4615afd-7731-4c7c-9110-5dd802e9aaaf","system_id":"levelo_inurba_marseille","lat":43.30545,"lon":5.36552,"is_reserved":false,"is_disabled":false,"rental_uris":{"android":"levelo://app?vid=f4615afd-7731-4c7c-9110-5dd802e9aaaf","ios":"levelo://app?vid=f4615afd-7731-4c7c-9110-5dd802e9aaaf"},"vehicle_type_id":"4","last_reported":1732454132,"current_range_meters":24000,"station_id":"ce4bgs12rcd13ifvqcag","pricing_plan_id":"cebpf4jnsgd1na2vs0mg"},{"bike_id":"2671fb8a-3452-46fd-bec4-bd169133378c","system_id":"levelo_inurba_marseille","lat":43.26686,"lon":5.38277,"is_reserved":false,"is_disabled":true,"rental_uris":{"android":"levelo://app?vid=2671fb8a-3452-46fd-bec4-bd169133378c","ios":"levelo://app?vid=2671fb8a-3452-46fd-bec4-bd169133378c"},"vehicle_type_id":"4","last_reported":1732454132,"current_range_meters":38800,"station_id":"ce4bhg92rcd13ifvqf90","pricing_plan_id":"cebpf4jnsgd1na2vs0mg"},{"bike_id":"6e5f0abd-4828-428c-93b3-40258f9f6c4d","system_id":"levelo_inurba_marseille","lat":43.31883,"lon":5.40737,"is_reserved":false,"is_disabled":false,"rental_uris":{"android":"levelo://app?vid=6e5f0abd-4828-428c-93b3-40258f9f6c4d","ios":"levelo://app?vid=6e5f0abd-4828-428c-93b3-40258f9f6c4d"},"vehicle_type_id":"4","last_reported":1732454132,"current_range_meters":38800,"station_id":"ce4bhq12rcd13ifvqhig","pricing_plan_id":"cebpf4jnsgd1na2vs0mg"},{"bike_id":"78d4ded6-449d-416a-9ec0-7767d7d3439a","system_id":"levelo_inurba_marseille","lat":43.29259,"lon":5.40899,"is_reserved":false,"is_disabled":false,"rental_uris":{"android":"levelo://app?vid=78d4ded6-449d-416a-9ec0-7767d7d3439a","ios":"levelo://app?vid=78d4ded6-449d-416a-9ec0-7767d7d3439a"},"vehicle_type_id":"4","last_reported":1732454132,"current_range_meters":33600,"station_id":"ce4bh192rcd13ifvqdc0","pricing_plan_id":"cebpf4jnsgd1na2vs0mg"},{"bike_id":"28f8ecf8-a7ae-4a32-aa4f-609e03eada5d","system_id":"levelo_inurba_marseille","lat":43.29533,"lon":5.38542,"is_reserved":false,"is_disabled":true,"rental_uris":{"android":"levelo://app?vid=28f8ecf8-a7ae-4a32-aa4f-609e03eada5d","ios":"levelo://app?vid=28f8ecf8-a7ae-4a32-aa4f-609e03eada5d"},"vehicle_type_id":"4","last_reported":1732454132,"current_range_meters":0,"station_id":"ce4bgih2rcd13ifvqba0","pricing_plan_id":"cebpf4jnsgd1na2vs0mg"},{"bike_id":"3482cfb1-7eb9-4b70-ad77-712354d14003","system_id":"levelo_inurba_marseille","lat":43.31326,"lon":5.39693,"is_reserved":false,"is_disabled":false,"rental_uris":{"android":"levelo://app?vid=3482cfb1-7eb9-4b70-ad77-712354d14003","ios":"levelo://app?vid=3482cfb1-7eb9-4b70-ad77-712354d14003"},"vehicle_type_id":"4","last_reported":1732454132,"current_range_meters":24400,"station_id":"ce4bgvp2rcd13ifvqcu0","pricing_plan_id":"cebpf4jnsgd1na2vs0mg"},{"bike_id":"858b65e1-94fc-4151-a71e-8b168cb19dcb","system_id":"levelo_inurba_marseille","lat":43.32249,"lon":5.39241,"is_reserved":false,"is_disabled":true,"rental_uris":{"android":"levelo://app?vid=858b65e1-94fc-4151-a71e-8b168cb19dcb","ios":"levelo://app?vid=858b65e1-94fc-4151-a71e-8b168cb19dcb"},"vehicle_type_id":"4","last_reported":1732454132,"current_range_meters":6800,"station_id":"","pricing_plan_id":"cebpf4jnsgd1na2vs0mg"},{"bike_id":"50fa51f0-e97e-445c-be1f-abf6b73d62f8","system_id":"levelo_inurba_marseille","lat":43.25111,"lon":5.40331,"is_reserved":false,"is_disabled":false,"rental_uris":{"android":"levelo://app?vid=50fa51f0-e97e-445c-be1f-abf6b73d62f8","ios":"levelo://app?vid=50fa51f0-e97e-445c-be1f-abf6b73d62f8"},"vehicle_type_id":"4","last_reported":1732454132,"current_range_meters":18000,"station_id":"ce4bhlh2rcd13ifvqgig","pricing_plan_id":"cebpf4jnsgd1na2vs0mg"},{"bike_id":"a45fcc89-e9e4-4b9d-9677-9957fd62b268","system_id":"levelo_inurba_marseille","lat":43.3055,"lon":5.36716,"is_reserved":false,"is_disabled":false,"rental_uris":{"android":"levelo://app?vid=a45fcc89-e9e4-4b9d-9677-9957fd62b268","ios":"levelo://app?vid=a45fcc89-e9e4-4b9d-9677-9957fd62b268"},"vehicle_type_id":"4","last_reported":1732454132,"current_range_meters":13600,"station_id":"ce4bgn92rcd13ifvqbvg","pricing_plan_id":"cebpf4jnsgd1na2vs0mg"},{"bike_id":"133c0635-6ac4-49a6-b3b8-4ad5dda949c5","system_id":"levelo_inurba_marseille","lat":43.31692,"lon":5.37776,"is_reserved":false,"is_disabled":true,"rental_uris":{"android":"levelo://app?vid=133c0635-6ac4-49a6-b3b8-4ad5dda949c5","ios":"levelo://app?vid=133c0635-6ac4-49a6-b3b8-4ad5dda949c5"},"vehicle_type_id":"4","last_reported":1732454132,"current_range_meters":38000,"station_id":"ce4bgth2rcd13ifvqch0","pricing_plan_id":"cebpf4jnsgd1na2vs0mg"},{"bike_id":"bcc3b397-4053-4374-93ce-1da8586f0c5d","system_id":"levelo_inurba_marseille","lat":43.33727,"lon":5.39181,"is_reserved":false,"is_disabled":false,"rental_uris":{"android":"levelo://app?vid=bcc3b397-4053-4374-93ce-1da8586f0c5d","ios":"levelo://app?vid=bcc3b397-4053-4374-93ce-1da8586f0c5d"},"vehicle_type_id":"4","last_reported":1732454132,"current_range_meters":37600,"station_id":"ce4bhr92rcd13ifvqhsg","pricing_plan_id":"cebpf4jnsgd1na2vs0mg"},{"bike_id":"abc4e129-6098-43b4-9108-74d1b39c71fb","system_id":"levelo_inurba_marseille","lat":43.31486,"lon":5.37307,"is_reserved":false,"is_disabled":false,"rental_uris":{"android":"levelo://app?vid=abc4e129-6098-43b4-9108-74d1b39c71fb","ios":"levelo://app?vid=abc4e129-6098-43b4-9108-74d1b39c71fb"},"vehicle_type_id":"4","last_reported":1732454132,"current_range_meters":37600,"station_id":"ce4bgt12rcd13ifvqcd0","pricing_plan_id":"cebpf4jnsgd1na2vs0mg"},{"bike_id":"1f7a2424-c270-4472-84c7-0f6ba57bbbb4","system_id":"levelo_inurba_marseille","lat":43.31353,"lon":5.38524,"is_reserved":false,"is_disabled":true,"rental_uris":{"android":"levelo://app?vid=1f7a2424-c270-4472-84c7-0f6ba57bbbb4","ios":"levelo://app?vid=1f7a2424-c270-4472-84c7-0f6ba57bbbb4"},"vehicle_type_id":"4","last_reported":1732454132,"current_range_meters":8000,"station_id":"ce4bgt92rcd13ifvqcf0","pricing_plan_id":"cebpf4jnsgd1na2vs0mg"},{"bike_id":"2c8b08a5-2c68-4a87-abab-32670574a046","system_id":"levelo_inurba_marseille","lat":43.24811,"lon":5.37458,"is_reserved":false,"is_disabled":false,"rental_uris":{"android":"levelo://app?vid=2c8b08a5-2c68-4a87-abab-32670574a046","ios":"levelo://app?vid=2c8b08a5-2c68-4a87-abab-32670574a046"},"vehicle_type_id":"4","last_reported":1732454132,"current_range_meters":30800,"station_id":"ce4bhgh2rcd13ifvqfb0","pricing_plan_id":"cebpf4jnsgd1na2vs0mg"},{"bike_id":"1d8b04ea-c924-4550-898b-f581a4794dea","system_id":"levelo_inurba_marseille","lat":43.29912,"lon":5.37471,"is_reserved":false,"is_disabled":true,"rental_uris":{"android":"levelo://app?vid=1d8b04ea-c924-4550-898b-f581a4794dea","ios":"levelo://app?vid=1d8b04ea-c924-4550-898b-f581a4794dea"},"vehicle_type_id":"4","last_reported":1732454132,"current_range_meters":3600,"station_id":"ce4bgjh2rcd13ifvqbg0","pricing_plan_id":"cebpf4jnsgd1na2vs0mg"},{"bike_id":"a4774a5b-8dee-4635-9379-ce3e73872177","system_id":"levelo_inurba_marseille","lat":43.280041,"lon":5.400142,"is_reserved":false,"is_disabled":false,"rental_uris":{"android":"levelo://app?vid=a4774a5b-8dee-4635-9379-ce3e73872177","ios":"levelo://app?vid=a4774a5b-8dee-4635-9379-ce3e73872177"},"vehicle_type_id":"4","last_reported":1732454132,"current_range_meters":36000,"station_id":"ce4bho92rcd13ifvqh4g","pricing_plan_id":"cebpf4jnsgd1na2vs0mg"},{"bike_id":"6faf2d99-bbb2-43e5-afb8-f6cda26de5c6","system_id":"levelo_inurba_marseille","lat":43.29717,"lon":5.36615,"is_reserved":false,"is_disabled":false,"rental_uris":{"android":"levelo://app?vid=6faf2d99-bbb2-43e5-afb8-f6cda26de5c6","ios":"levelo://app?vid=6faf2d99-bbb2-43e5-afb8-f6cda26de5c6"},"vehicle_type_id":"4","last_reported":1732454132,"current_range_meters":38800,"station_id":"ce4bgn12rcd13ifvqbt0","pricing_plan_id":"cebpf4jnsgd1na2vs0mg"},{"bike_id":"552ae1f9-34eb-4d70-a19b-3616d3661778","system_id":"levelo_inurba_marseille","lat":43.3373,"lon":5.39183,"is_reserved":false,"is_disabled":false,"rental_uris":{"android":"levelo://app?vid=552ae1f9-34eb-4d70-a19b-3616d3661778","ios":"levelo://app?vid=552ae1f9-34eb-4d70-a19b-3616d3661778"},"vehicle_type_id":"4","last_reported":1732454132,"current_range_meters":15200,"station_id":"ce4bhr92rcd13ifvqhsg","pricing_plan_id":"cebpf4jnsgd1na2vs0mg"},{"bike_id":"f7f3756c-1ec7-4782-9c87-6273f87b6774","system_id":"levelo_inurba_marseille","lat":43.337444,"lon":5.374475,"is_reserved":false,"is_disabled":true,"rental_uris":{"android":"levelo://app?vid=f7f3756c-1ec7-4782-9c87-6273f87b6774","ios":"levelo://app?vid=f7f3756c-1ec7-4782-9c87-6273f87b6774"},"vehicle_type_id":"4","last_reported":1732454132,"current_range_meters":28400,"station_id":"","pricing_plan_id":"cebpf4jnsgd1na2vs0mg"},{"bike_id":"740f162e-a0c7-4af9-899d-283ea1409dc6","system_id":"levelo_inurba_marseille","lat":43.26941,"lon":5.38919,"is_reserved":false,"is_disabled":true,"rental_uris":{"android":"levelo://app?vid=740f162e-a0c7-4af9-899d-283ea1409dc6","ios":"levelo://app?vid=740f162e-a0c7-4af9-899d-283ea1409dc6"},"vehicle_type_id":"4","last_reported":1732454132,"current_range_meters":30800,"station_id":"ce4bhhh2rcd13ifvqfl0","pricing_plan_id":"cebpf4jnsgd1na2vs0mg"},{"bike_id":"fdad8c31-b968-44fd-ac61-fbd0b35e667d","system_id":"levelo_inurba_marseille","lat":43.3041,"lon":5.41126,"is_reserved":false,"is_disabled":false,"rental_uris":{"android":"levelo://app?vid=fdad8c31-b968-44fd-ac61-fbd0b35e667d","ios":"levelo://app?vid=fdad8c31-b968-44fd-ac61-fbd0b35e667d"},"vehicle_type_id":"4","last_reported":1732454132,"current_range_meters":27200,"station_id":"ce4bhop2rcd13ifvqh8g","pricing_plan_id":"cebpf4jnsgd1na2vs0mg"},{"bike_id":"d8d94634-4ac1-4f5f-8651-7a99e522961a","system_id":"levelo_inurba_marseille","lat":43.25958,"lon":5.39643,"is_reserved":false,"is_disabled":false,"rental_uris":{"android":"levelo://app?vid=d8d94634-4ac1-4f5f-8651-7a99e522961a","ios":"levelo://app?vid=d8d94634-4ac1-4f5f-8651-7a99e522961a"},"vehicle_type_id":"4","last_reported":1732454132,"current_range_meters":29600,"station_id":"","pricing_plan_id":"cebpf4jnsgd1na2vs0mg"},{"bike_id":"65088e27-513c-4742-9897-625c47ae1bbc","system_id":"levelo_inurba_marseille","lat":43.28359,"lon":5.38631,"is_reserved":false,"is_disabled":false,"rental_uris":{"android":"levelo://app?vid=65088e27-513c-4742-9897-625c47ae1bbc","ios":"levelo://app?vid=65088e27-513c-4742-9897-625c47ae1bbc"},"vehicle_type_id":"4","last_reported":1732454132,"current_range_meters":28400,"station_id":"ce4bh492rcd13ifvqdvg","pricing_plan_id":"cebpf4jnsgd1na2vs0mg"},{"bike_id":"a1dbe115-f9e3-4893-b922-da3269d077be","system_id":"levelo_inurba_marseille","lat":43.28155,"lon":5.42643,"is_reserved":false,"is_disabled":false,"rental_uris":{"android":"levelo://app?vid=a1dbe115-f9e3-4893-b922-da3269d077be","ios":"levelo://app?vid=a1dbe115-f9e3-4893-b922-da3269d077be"},"vehicle_type_id":"4","last_reported":1732454132,"current_range_meters":3600,"station_id":"ce4bhnh2rcd13ifvqgug","pricing_plan_id":"cebpf4jnsgd1na2vs0mg"},{"bike_id":"ae2b9dc9-2b11-49d7-85f2-a5f66993d139","system_id":"levelo_inurba_marseille","lat":43.27528,"lon":5.41633,"is_reserved":false,"is_disabled":false,"rental_uris":{"android":"levelo://app?vid=ae2b9dc9-2b11-49d7-85f2-a5f66993d139","ios":"levelo://app?vid=ae2b9dc9-2b11-49d7-85f2-a5f66993d139"},"vehicle_type_id":"4","last_reported":1732454132,"current_range_meters":24400,"station_id":"","pricing_plan_id":"cebpf4jnsgd1na2vs0mg"},{"bike_id":"900c7a12-3abc-4188-860e-7d2f813f8662","system_id":"levelo_inurba_marseille","lat":43.29629,"lon":5.40597,"is_reserved":false,"is_disabled":false,"rental_uris":{"android":"levelo://app?vid=900c7a12-3abc-4188-860e-7d2f813f8662","ios":"levelo://app?vid=900c7a12-3abc-4188-860e-7d2f813f8662"},"vehicle_type_id":"4","last_reported":1732454132,"current_range_meters":22800,"station_id":"ce4bh0h2rcd13ifvqd60","pricing_plan_id":"cebpf4jnsgd1na2vs0mg"},{"bike_id":"96fef04f-f424-4b1e-a003-fc645e04ed3a","system_id":"levelo_inurba_marseille","lat":43.27389,"lon":5.36261,"is_reserved":false,"is_disabled":true,"rental_uris":{"android":"levelo://app?vid=96fef04f-f424-4b1e-a003-fc645e04ed3a","ios":"levelo://app?vid=96fef04f-f424-4b1e-a003-fc645e04ed3a"},"vehicle_type_id":"4","last_reported":1732454132,"current_range_meters":30800,"station_id":"ce4bhbh2rcd13ifvqeo0","pricing_plan_id":"cebpf4jnsgd1na2vs0mg"},{"bike_id":"b7b61d62-d3cf-45c0-ae9e-f05215122577","system_id":"levelo_inurba_marseille","lat":43.30929,"lon":5.40154,"is_reserved":false,"is_disabled":true,"rental_uris":{"android":"levelo://app?vid=b7b61d62-d3cf-45c0-ae9e-f05215122577","ios":"levelo://app?vid=b7b61d62-d3cf-45c0-ae9e-f05215122577"},"vehicle_type_id":"4","last_reported":1732454132,"current_range_meters":0,"station_id":"ce4bgvp2rcd13ifvqct0","pricing_plan_id":"cebpf4jnsgd1na2vs0mg"},{"bike_id":"6ae3a20a-5473-424a-bb53-1b1394d94eb2","system_id":"levelo_inurba_marseille","lat":43.29277,"lon":5.36844,"is_reserved":false,"is_disabled":false,"rental_uris":{"android":"levelo://app?vid=6ae3a20a-5473-424a-bb53-1b1394d94eb2","ios":"levelo://app?vid=6ae3a20a-5473-424a-bb53-1b1394d94eb2"},"vehicle_type_id":"4","last_reported":1732454132,"current_range_meters":35200,"station_id":"ce4bhbp2rcd13ifvqesg","pricing_plan_id":"cebpf4jnsgd1na2vs0mg"},{"bike_id":"a17697dd-cd64-4838-8209-019feb7cdb69","system_id":"levelo_inurba_marseille","lat":43.32049,"lon":5.41567,"is_reserved":false,"is_disabled":false,"rental_uris":{"android":"levelo://app?vid=a17697dd-cd64-4838-8209-019feb7cdb69","ios":"levelo://app?vid=a17697dd-cd64-4838-8209-019feb7cdb69"},"vehicle_type_id":"4","last_reported":1732454132,"current_range_meters":37600,"station_id":"ce4bhq92rcd13ifvqhkg","pricing_plan_id":"cebpf4jnsgd1na2vs0mg"},{"bike_id":"84d9683f-65bd-49c1-9e7a-9816a1507f5b","system_id":"levelo_inurba_marseille","lat":43.2929,"lon":5.37462,"is_reserved":false,"is_disabled":false,"rental_uris":{"android":"levelo://app?vid=84d9683f-65bd-49c1-9e7a-9816a1507f5b","ios":"levelo://app?vid=84d9683f-65bd-49c1-9e7a-9816a1507f5b"},"vehicle_type_id":"4","last_reported":1732454132,"current_range_meters":38800,"station_id":"ce4bgi12rcd13ifvqb70","pricing_plan_id":"cebpf4jnsgd1na2vs0mg"},{"bike_id":"a467a420-c56b-4e78-916a-c062ab59da48","system_id":"levelo_inurba_marseille","lat":43.27324,"lon":5.39077,"is_reserved":false,"is_disabled":false,"rental_uris":{"android":"levelo://app?vid=a467a420-c56b-4e78-916a-c062ab59da48","ios":"levelo://app?vid=a467a420-c56b-4e78-916a-c062ab59da48"},"vehicle_type_id":"4","last_reported":1732454132,"current_range_meters":19200,"station_id":"ce4bhgp2rcd13ifvqfe0","pricing_plan_id":"cebpf4jnsgd1na2vs0mg"},{"bike_id":"0ee2791b-c0d5-4ae7-a47e-597962f52631","system_id":"levelo_inurba_marseille","lat":43.29905,"lon":5.43663,"is_reserved":false,"is_disabled":false,"rental_uris":{"android":"levelo://app?vid=0ee2791b-c0d5-4ae7-a47e-597962f52631","ios":"levelo://app?vid=0ee2791b-c0d5-4ae7-a47e-597962f52631"},"vehicle_type_id":"4","last_reported":1732454132,"current_range_meters":38800,"station_id":"ce4bhpp2rcd13ifvqhfg","pricing_plan_id":"cebpf4jnsgd1na2vs0mg"},{"bike_id":"63e5c75a-30c8-4be5-8ec8-448fdf89dbb8","system_id":"levelo_inurba_marseille","lat":43.23065,"lon":5.35489,"is_reserved":false,"is_disabled":false,"rental_uris":{"android":"levelo://app?vid=63e5c75a-30c8-4be5-8ec8-448fdf89dbb8","ios":"levelo://app?vid=63e5c75a-30c8-4be5-8ec8-448fdf89dbb8"},"vehicle_type_id":"4","last_reported":1732454132,"current_range_meters":38800,"station_id":"cpo3342slgdg3j2ifvpg","pricing_plan_id":"cebpf4jnsgd1na2vs0mg"},{"bike_id":"1e193d09-2cb0-4798-8e19-b0516f3ebb8e","system_id":"levelo_inurba_marseille","lat":43.2815,"lon":5.42653,"is_reserved":false,"is_disabled":false,"rental_uris":{"android":"levelo://app?vid=1e193d09-2cb0-4798-8e19-b0516f3ebb8e","ios":"levelo://app?vid=1e193d09-2cb0-4798-8e19-b0516f3ebb8e"},"vehicle_type_id":"4","last_reported":1732454132,"current_range_meters":19200,"station_id":"ce4bhnh2rcd13ifvqgug","pricing_plan_id":"cebpf4jnsgd1na2vs0mg"},{"bike_id":"73d4db1d-08b7-4afd-804d-573e35d8c13b","system_id":"levelo_inurba_marseille","lat":43.30305,"lon":5.39204,"is_reserved":false,"is_disabled":false,"rental_uris":{"android":"levelo://app?vid=73d4db1d-08b7-4afd-804d-573e35d8c13b","ios":"levelo://app?vid=73d4db1d-08b7-4afd-804d-573e35d8c13b"},"vehicle_type_id":"4","last_reported":1732454132,"current_range_meters":27600,"station_id":"ce4bgkh2rcd13ifvqbk0","pricing_plan_id":"cebpf4jnsgd1na2vs0mg"},{"bike_id":"89228f68-3127-4436-9201-8331b38355c7","system_id":"levelo_inurba_marseille","lat":43.25722,"lon":5.41103,"is_reserved":false,"is_disabled":false,"rental_uris":{"android":"levelo://app?vid=89228f68-3127-4436-9201-8331b38355c7","ios":"levelo://app?vid=89228f68-3127-4436-9201-8331b38355c7"},"vehicle_type_id":"4","last_reported":1732454132,"current_range_meters":37600,"station_id":"ce4bhkp2rcd13ifvqgd0","pricing_plan_id":"cebpf4jnsgd1na2vs0mg"},{"bike_id":"48e4b81e-c26f-491d-8dcb-e411f601c465","system_id":"levelo_inurba_marseille","lat":43.29317,"lon":5.37013,"is_reserved":false,"is_disabled":false,"rental_uris":{"android":"levelo://app?vid=48e4b81e-c26f-491d-8dcb-e411f601c465","ios":"levelo://app?vid=48e4b81e-c26f-491d-8dcb-e411f601c465"},"vehicle_type_id":"4","last_reported":1732454132,"current_range_meters":29600,"station_id":"","pricing_plan_id":"cebpf4jnsgd1na2vs0mg"},{"bike_id":"319287df-687a-4519-8559-afdae3b3272f","system_id":"levelo_inurba_marseille","lat":43.29785,"lon":5.38114,"is_reserved":false,"is_disabled":true,"rental_uris":{"android":"levelo://app?vid=319287df-687a-4519-8559-afdae3b3272f","ios":"levelo://app?vid=319287df-687a-4519-8559-afdae3b3272f"},"vehicle_type_id":"4","last_reported":1732454132,"current_range_meters":34800,"station_id":"ce4bgip2rcd13ifvqbb0","pricing_plan_id":"cebpf4jnsgd1na2vs0mg"},{"bike_id":"d01e60b8-3a61-468d-9360-5ca22085e3b4","system_id":"levelo_inurba_marseille","lat":43.28039,"lon":5.3694,"is_reserved":false,"is_disabled":false,"rental_uris":{"android":"levelo://app?vid=d01e60b8-3a61-468d-9360-5ca22085e3b4","ios":"levelo://app?vid=d01e60b8-3a61-468d-9360-5ca22085e3b4"},"vehicle_type_id":"4","last_reported":1732454132,"current_range_meters":36000,"station_id":"ce4bha12rcd13ifvqef0","pricing_plan_id":"cebpf4jnsgd1na2vs0mg"},{"bike_id":"e5951ee3-4a5a-4ebb-b469-096c5188dfa3","system_id":"levelo_inurba_marseille","lat":43.23193,"lon":5.35556,"is_reserved":false,"is_disabled":false,"rental_uris":{"android":"levelo://app?vid=e5951ee3-4a5a-4ebb-b469-096c5188dfa3","ios":"levelo://app?vid=e5951ee3-4a5a-4ebb-b469-096c5188dfa3"},"vehicle_type_id":"4","last_reported":1732454132,"current_range_meters":17600,"station_id":"ce4bhu92rcd13ifvqi70","pricing_plan_id":"cebpf4jnsgd1na2vs0mg"},{"bike_id":"b4031e97-07ad-4bf3-b625-27b2659b4faf","system_id":"levelo_inurba_marseille","lat":43.25725,"lon":5.41104,"is_reserved":false,"is_disabled":false,"rental_uris":{"android":"levelo://app?vid=b4031e97-07ad-4bf3-b625-27b2659b4faf","ios":"levelo://app?vid=b4031e97-07ad-4bf3-b625-27b2659b4faf"},"vehicle_type_id":"4","last_reported":1732454132,"current_range_meters":10000,"station_id":"ce4bhkp2rcd13ifvqgd0","pricing_plan_id":"cebpf4jnsgd1na2vs0mg"},{"bike_id":"38b912b2-2d2a-4554-8fd2-0e0947577dc9","system_id":"levelo_inurba_marseille","lat":43.29529,"lon":5.37503,"is_reserved":false,"is_disabled":false,"rental_uris":{"android":"levelo://app?vid=38b912b2-2d2a-4554-8fd2-0e0947577dc9","ios":"levelo://app?vid=38b912b2-2d2a-4554-8fd2-0e0947577dc9"},"vehicle_type_id":"4","last_reported":1732454132,"current_range_meters":34800,"station_id":"ce4bgkp2rcd13ifvqbmg","pricing_plan_id":"cebpf4jnsgd1na2vs0mg"},{"bike_id":"53aedfa4-4049-4759-bc95-757addd8c685","system_id":"levelo_inurba_marseille","lat":43.2655,"lon":5.372897,"is_reserved":false,"is_disabled":false,"rental_uris":{"android":"levelo://app?vid=53aedfa4-4049-4759-bc95-757addd8c685","ios":"levelo://app?vid=53aedfa4-4049-4759-bc95-757addd8c685"},"vehicle_type_id":"4","last_reported":1732454132,"current_range_meters":36800,"station_id":"ce4bhg12rcd13ifvqf70","pricing_plan_id":"cebpf4jnsgd1na2vs0mg"},{"bike_id":"b564febb-756f-4cc5-bf94-b1cf4f2b6b27","system_id":"levelo_inurba_marseille","lat":43.30597,"lon":5.37234,"is_reserved":false,"is_disabled":false,"rental_uris":{"android":"levelo://app?vid=b564febb-756f-4cc5-bf94-b1cf4f2b6b27","ios":"levelo://app?vid=b564febb-756f-4cc5-bf94-b1cf4f2b6b27"},"vehicle_type_id":"4","last_reported":1732454132,"current_range_meters":22000,"station_id":"ce4bgqh2rcd13ifvqc4g","pricing_plan_id":"cebpf4jnsgd1na2vs0mg"},{"bike_id":"61518d8f-1e64-4caf-b026-397ea337715b","system_id":"levelo_inurba_marseille","lat":43.24394,"lon":5.37061,"is_reserved":false,"is_disabled":false,"rental_uris":{"android":"levelo://app?vid=61518d8f-1e64-4caf-b026-397ea337715b","ios":"levelo://app?vid=61518d8f-1e64-4caf-b026-397ea337715b"},"vehicle_type_id":"4","last_reported":1732454132,"current_range_meters":39200,"station_id":"ce4bhhh2rcd13ifvqfk0","pricing_plan_id":"cebpf4jnsgd1na2vs0mg"},{"bike_id":"b7525073-7d62-4136-8bd9-4525d84d0061","system_id":"levelo_inurba_marseille","lat":43.28042,"lon":5.36955,"is_reserved":false,"is_disabled":false,"rental_uris":{"android":"levelo://app?vid=b7525073-7d62-4136-8bd9-4525d84d0061","ios":"levelo://app?vid=b7525073-7d62-4136-8bd9-4525d84d0061"},"vehicle_type_id":"4","last_reported":1732454132,"current_range_meters":6400,"station_id":"ce4bha12rcd13ifvqef0","pricing_plan_id":"cebpf4jnsgd1na2vs0mg"},{"bike_id":"6c948e9c-d5b3-4fe5-a918-1bd2f7c83b02","system_id":"levelo_inurba_marseille","lat":43.32116,"lon":5.36771,"is_reserved":false,"is_disabled":false,"rental_uris":{"android":"levelo://app?vid=6c948e9c-d5b3-4fe5-a918-1bd2f7c83b02","ios":"levelo://app?vid=6c948e9c-d5b3-4fe5-a918-1bd2f7c83b02"},"vehicle_type_id":"4","last_reported":1732454132,"current_range_meters":28400,"station_id":"ce4bhrh2rcd13ifvqhug","pricing_plan_id":"cebpf4jnsgd1na2vs0mg"},{"bike_id":"9e620abf-d324-4f99-84fc-d67e71109f2a","system_id":"levelo_inurba_marseille","lat":43.31077,"lon":5.42435,"is_reserved":false,"is_disabled":true,"rental_uris":{"android":"levelo://app?vid=9e620abf-d324-4f99-84fc-d67e71109f2a","ios":"levelo://app?vid=9e620abf-d324-4f99-84fc-d67e71109f2a"},"vehicle_type_id":"4","last_reported":1732454132,"current_range_meters":0,"station_id":"ce4bhp92rcd13ifvqhag","pricing_plan_id":"cebpf4jnsgd1na2vs0mg"},{"bike_id":"9388a7ff-9c5c-4c26-9899-39b2408cf7e3","system_id":"levelo_inurba_marseille","lat":43.31025,"lon":5.38342,"is_reserved":false,"is_disabled":true,"rental_uris":{"android":"levelo://app?vid=9388a7ff-9c5c-4c26-9899-39b2408cf7e3","ios":"levelo://app?vid=9388a7ff-9c5c-4c26-9899-39b2408cf7e3"},"vehicle_type_id":"4","last_reported":1732454132,"current_range_meters":0,"station_id":"","pricing_plan_id":"cebpf4jnsgd1na2vs0mg"},{"bike_id":"4d6b356d-2cf8-4c98-aed1-976ebfe1555d","system_id":"levelo_inurba_marseille","lat":43.25578,"lon":5.38243,"is_reserved":false,"is_disabled":false,"rental_uris":{"android":"levelo://app?vid=4d6b356d-2cf8-4c98-aed1-976ebfe1555d","ios":"levelo://app?vid=4d6b356d-2cf8-4c98-aed1-976ebfe1555d"},"vehicle_type_id":"4","last_reported":1732454132,"current_range_meters":32400,"station_id":"ce4bhih2rcd13ifvqfs0","pricing_plan_id":"cebpf4jnsgd1na2vs0mg"},{"bike_id":"015b3c69-9da6-4a70-9b96-3e30758935ea","system_id":"levelo_inurba_marseille","lat":43.292538,"lon":5.409042,"is_reserved":false,"is_disabled":false,"rental_uris":{"android":"levelo://app?vid=015b3c69-9da6-4a70-9b96-3e30758935ea","ios":"levelo://app?vid=015b3c69-9da6-4a70-9b96-3e30758935ea"},"vehicle_type_id":"4","last_reported":1732454132,"current_range_meters":11200,"station_id":"ce4bh192rcd13ifvqdc0","pricing_plan_id":"cebpf4jnsgd1na2vs0mg"},{"bike_id":"623efcdd-d051-4505-909d-c52e6c52245f","system_id":"levelo_inurba_marseille","lat":43.3237,"lon":5.3889,"is_reserved":false,"is_disabled":true,"rental_uris":{"android":"levelo://app?vid=623efcdd-d051-4505-909d-c52e6c52245f","ios":"levelo://app?vid=623efcdd-d051-4505-909d-c52e6c52245f"},"vehicle_type_id":"4","last_reported":1732454132,"current_range_meters":8400,"station_id":"ce4bhqp2rcd13ifvqhog","pricing_plan_id":"cebpf4jnsgd1na2vs0mg"},{"bike_id":"a826624e-e9b9-44c6-96f8-7bfae66d96a3","system_id":"levelo_inurba_marseille","lat":43.3041,"lon":5.41284,"is_reserved":false,"is_disabled":false,"rental_uris":{"android":"levelo://app?vid=a826624e-e9b9-44c6-96f8-7bfae66d96a3","ios":"levelo://app?vid=a826624e-e9b9-44c6-96f8-7bfae66d96a3"},"vehicle_type_id":"4","last_reported":1732454132,"current_range_meters":26800,"station_id":"ce4bhop2rcd13ifvqh8g","pricing_plan_id":"cebpf4jnsgd1na2vs0mg"},{"bike_id":"0db86600-0ccb-4137-a487-dc388a8acaf9","system_id":"levelo_inurba_marseille","lat":43.26032,"lon":5.37551,"is_reserved":false,"is_disabled":false,"rental_uris":{"android":"levelo://app?vid=0db86600-0ccb-4137-a487-dc388a8acaf9","ios":"levelo://app?vid=0db86600-0ccb-4137-a487-dc388a8acaf9"},"vehicle_type_id":"4","last_reported":1732454132,"current_range_meters":27600,"station_id":"ce4bhgh2rcd13ifvqfa0","pricing_plan_id":"cebpf4jnsgd1na2vs0mg"},{"bike_id":"e037c9da-c171-4b43-be00-da0a1321479e","system_id":"levelo_inurba_marseille","lat":43.32056,"lon":5.41535,"is_reserved":false,"is_disabled":false,"rental_uris":{"android":"levelo://app?vid=e037c9da-c171-4b43-be00-da0a1321479e","ios":"levelo://app?vid=e037c9da-c171-4b43-be00-da0a1321479e"},"vehicle_type_id":"4","last_reported":1732454132,"current_range_meters":38800,"station_id":"ce4bhq92rcd13ifvqhkg","pricing_plan_id":"cebpf4jnsgd1na2vs0mg"},{"bike_id":"5c53cfbd-2547-413a-b79a-f8cc3b1ca992","system_id":"levelo_inurba_marseille","lat":43.3211,"lon":5.3678,"is_reserved":false,"is_disabled":false,"rental_uris":{"android":"levelo://app?vid=5c53cfbd-2547-413a-b79a-f8cc3b1ca992","ios":"levelo://app?vid=5c53cfbd-2547-413a-b79a-f8cc3b1ca992"},"vehicle_type_id":"4","last_reported":1732454132,"current_range_meters":38800,"station_id":"ce4bhrh2rcd13ifvqhug","pricing_plan_id":"cebpf4jnsgd1na2vs0mg"},{"bike_id":"d47870fb-39c9-4f78-a8ca-1c20cef42e09","system_id":"levelo_inurba_marseille","lat":43.30806,"lon":5.43523,"is_reserved":false,"is_disabled":false,"rental_uris":{"android":"levelo://app?vid=d47870fb-39c9-4f78-a8ca-1c20cef42e09","ios":"levelo://app?vid=d47870fb-39c9-4f78-a8ca-1c20cef42e09"},"vehicle_type_id":"4","last_reported":1732454132,"current_range_meters":38400,"station_id":"ce4bhph2rcd13ifvqheg","pricing_plan_id":"cebpf4jnsgd1na2vs0mg"},{"bike_id":"ff39222f-3648-497e-9edc-74beb73aa68a","system_id":"levelo_inurba_marseille","lat":43.30544,"lon":5.36519,"is_reserved":false,"is_disabled":false,"rental_uris":{"android":"levelo://app?vid=ff39222f-3648-497e-9edc-74beb73aa68a","ios":"levelo://app?vid=ff39222f-3648-497e-9edc-74beb73aa68a"},"vehicle_type_id":"4","last_reported":1732454132,"current_range_meters":19600,"station_id":"ce4bgs12rcd13ifvqcag","pricing_plan_id":"cebpf4jnsgd1na2vs0mg"},{"bike_id":"04b9c9cb-be15-44a7-9bdc-6d22ca715c34","system_id":"levelo_inurba_marseille","lat":43.33727,"lon":5.39182,"is_reserved":false,"is_disabled":false,"rental_uris":{"android":"levelo://app?vid=04b9c9cb-be15-44a7-9bdc-6d22ca715c34","ios":"levelo://app?vid=04b9c9cb-be15-44a7-9bdc-6d22ca715c34"},"vehicle_type_id":"4","last_reported":1732454132,"current_range_meters":24800,"station_id":"ce4bhr92rcd13ifvqhsg","pricing_plan_id":"cebpf4jnsgd1na2vs0mg"},{"bike_id":"e8a4657c-0e3d-4419-b47e-48626bc898e8","system_id":"levelo_inurba_marseille","lat":43.30421,"lon":5.41298,"is_reserved":false,"is_disabled":false,"rental_uris":{"android":"levelo://app?vid=e8a4657c-0e3d-4419-b47e-48626bc898e8","ios":"levelo://app?vid=e8a4657c-0e3d-4419-b47e-48626bc898e8"},"vehicle_type_id":"4","last_reported":1732454132,"current_range_meters":19200,"station_id":"ce4bhop2rcd13ifvqh8g","pricing_plan_id":"cebpf4jnsgd1na2vs0mg"},{"bike_id":"d18f5810-35b2-498c-80c0-0518a1fab5af","system_id":"levelo_inurba_marseille","lat":43.292827,"lon":5.401117,"is_reserved":false,"is_disabled":false,"rental_uris":{"android":"levelo://app?vid=d18f5810-35b2-498c-80c0-0518a1fab5af","ios":"levelo://app?vid=d18f5810-35b2-498c-80c0-0518a1fab5af"},"vehicle_type_id":"4","last_reported":1732454132,"current_range_meters":20400,"station_id":"ce4bh312rcd13ifvqdk0","pricing_plan_id":"cebpf4jnsgd1na2vs0mg"},{"bike_id":"43ef1878-08c8-43ce-8a84-e0d20cc2548c","system_id":"levelo_inurba_marseille","lat":43.2594,"lon":5.40908,"is_reserved":false,"is_disabled":true,"rental_uris":{"android":"levelo://app?vid=43ef1878-08c8-43ce-8a84-e0d20cc2548c","ios":"levelo://app?vid=43ef1878-08c8-43ce-8a84-e0d20cc2548c"},"vehicle_type_id":"4","last_reported":1732454132,"current_range_meters":800,"station_id":"ce4bhm92rcd13ifvqglg","pricing_plan_id":"cebpf4jnsgd1na2vs0mg"},{"bike_id":"56ca6b93-ca3d-4dfc-8e20-e35c24d8bd07","system_id":"levelo_inurba_marseille","lat":43.337444,"lon":5.374475,"is_reserved":false,"is_disabled":true,"rental_uris":{"android":"levelo://app?vid=56ca6b93-ca3d-4dfc-8e20-e35c24d8bd07","ios":"levelo://app?vid=56ca6b93-ca3d-4dfc-8e20-e35c24d8bd07"},"vehicle_type_id":"4","last_reported":1732454132,"current_range_meters":0,"station_id":"","pricing_plan_id":"cebpf4jnsgd1na2vs0mg"},{"bike_id":"6a5343e2-790c-4d71-99b1-205dd0fef62e","system_id":"levelo_inurba_marseille","lat":43.2737,"lon":5.36261,"is_reserved":false,"is_disabled":false,"rental_uris":{"android":"levelo://app?vid=6a5343e2-790c-4d71-99b1-205dd0fef62e","ios":"levelo://app?vid=6a5343e2-790c-4d71-99b1-205dd0fef62e"},"vehicle_type_id":"4","last_reported":1732454132,"current_range_meters":22800,"station_id":"ce4bhbh2rcd13ifvqeo0","pricing_plan_id":"cebpf4jnsgd1na2vs0mg"},{"bike_id":"fc4e3e2e-faf4-4cbc-8fd8-119b18821073","system_id":"levelo_inurba_marseille","lat":43.25584,"lon":5.3823,"is_reserved":false,"is_disabled":true,"rental_uris":{"android":"levelo://app?vid=fc4e3e2e-faf4-4cbc-8fd8-119b18821073","ios":"levelo://app?vid=fc4e3e2e-faf4-4cbc-8fd8-119b18821073"},"vehicle_type_id":"4","last_reported":1732454132,"current_range_meters":11200,"station_id":"ce4bhih2rcd13ifvqfs0","pricing_plan_id":"cebpf4jnsgd1na2vs0mg"},{"bike_id":"7f395732-6e72-413a-9ca2-14619ed67fe1","system_id":"levelo_inurba_marseille","lat":43.31216,"lon":5.36856,"is_reserved":false,"is_disabled":false,"rental_uris":{"android":"levelo://app?vid=7f395732-6e72-413a-9ca2-14619ed67fe1","ios":"levelo://app?vid=7f395732-6e72-413a-9ca2-14619ed67fe1"},"vehicle_type_id":"4","last_reported":1732454132,"current_range_meters":38800,"station_id":"ce4bgl92rcd13ifvqbq0","pricing_plan_id":"cebpf4jnsgd1na2vs0mg"},{"bike_id":"46ac22a8-6f10-4221-98a6-34eba5c97bfb","system_id":"levelo_inurba_marseille","lat":43.292,"lon":5.37323,"is_reserved":false,"is_disabled":true,"rental_uris":{"android":"levelo://app?vid=46ac22a8-6f10-4221-98a6-34eba5c97bfb","ios":"levelo://app?vid=46ac22a8-6f10-4221-98a6-34eba5c97bfb"},"vehicle_type_id":"4","last_reported":1732454132,"current_range_meters":0,"station_id":"","pricing_plan_id":"cebpf4jnsgd1na2vs0mg"},{"bike_id":"a77ae6b4-f7e6-4e00-9de7-42820b87252c","system_id":"levelo_inurba_marseille","lat":43.27061,"lon":5.40263,"is_reserved":false,"is_disabled":false,"rental_uris":{"android":"levelo://app?vid=a77ae6b4-f7e6-4e00-9de7-42820b87252c","ios":"levelo://app?vid=a77ae6b4-f7e6-4e00-9de7-42820b87252c"},"vehicle_type_id":"4","last_reported":1732454132,"current_range_meters":6000,"station_id":"ce4bhk92rcd13ifvqgc0","pricing_plan_id":"cebpf4jnsgd1na2vs0mg"},{"bike_id":"b98490ee-49c9-4a5b-acb2-11855e78584d","system_id":"levelo_inurba_marseille","lat":43.31331,"lon":5.3969,"is_reserved":false,"is_disabled":false,"rental_uris":{"android":"levelo://app?vid=b98490ee-49c9-4a5b-acb2-11855e78584d","ios":"levelo://app?vid=b98490ee-49c9-4a5b-acb2-11855e78584d"},"vehicle_type_id":"4","last_reported":1732454132,"current_range_meters":12800,"station_id":"ce4bgvp2rcd13ifvqcu0","pricing_plan_id":"cebpf4jnsgd1na2vs0mg"},{"bike_id":"43746d86-8a13-4845-9faf-ae69b548d714","system_id":"levelo_inurba_marseille","lat":43.29451,"lon":5.3793,"is_reserved":false,"is_disabled":true,"rental_uris":{"android":"levelo://app?vid=43746d86-8a13-4845-9faf-ae69b548d714","ios":"levelo://app?vid=43746d86-8a13-4845-9faf-ae69b548d714"},"vehicle_type_id":"4","last_reported":1732454132,"current_range_meters":0,"station_id":"","pricing_plan_id":"cebpf4jnsgd1na2vs0mg"},{"bike_id":"c16f0c06-b28a-49a0-b892-39b3c1a0339b","system_id":"levelo_inurba_marseille","lat":43.27212,"lon":5.39198,"is_reserved":false,"is_disabled":false,"rental_uris":{"android":"levelo://app?vid=c16f0c06-b28a-49a0-b892-39b3c1a0339b","ios":"levelo://app?vid=c16f0c06-b28a-49a0-b892-39b3c1a0339b"},"vehicle_type_id":"4","last_reported":1732454132,"current_range_meters":30800,"station_id":"ce4bhhp2rcd13ifvqfm0","pricing_plan_id":"cebpf4jnsgd1na2vs0mg"},{"bike_id":"6cc3ba0f-0c15-436b-be5f-026e86250829","system_id":"levelo_inurba_marseille","lat":43.28462,"lon":5.35882,"is_reserved":false,"is_disabled":false,"rental_uris":{"android":"levelo://app?vid=6cc3ba0f-0c15-436b-be5f-026e86250829","ios":"levelo://app?vid=6cc3ba0f-0c15-436b-be5f-026e86250829"},"vehicle_type_id":"4","last_reported":1732454132,"current_range_meters":27200,"station_id":"ce4bhah2rcd13ifvqei0","pricing_plan_id":"cebpf4jnsgd1na2vs0mg"},{"bike_id":"83d0dcf6-569d-49a3-aea5-c410d59f87ce","system_id":"levelo_inurba_marseille","lat":43.31172,"lon":5.3871,"is_reserved":false,"is_disabled":false,"rental_uris":{"android":"levelo://app?vid=83d0dcf6-569d-49a3-aea5-c410d59f87ce","ios":"levelo://app?vid=83d0dcf6-569d-49a3-aea5-c410d59f87ce"},"vehicle_type_id":"4","last_reported":1732454132,"current_range_meters":36400,"station_id":"ce4bgv12rcd13ifvqcp0","pricing_plan_id":"cebpf4jnsgd1na2vs0mg"},{"bike_id":"a2b09865-004d-45eb-b301-cf3640220a72","system_id":"levelo_inurba_marseille","lat":43.29609,"lon":5.38088,"is_reserved":false,"is_disabled":true,"rental_uris":{"android":"levelo://app?vid=a2b09865-004d-45eb-b301-cf3640220a72","ios":"levelo://app?vid=a2b09865-004d-45eb-b301-cf3640220a72"},