{"last_updated":1744211566,"ttl":60,"version":"2.2","data":{"bikes":[{"bike_id":"4432e0b1-0011-4e11-add8-ea3c5697e6e9","system_id":"levelo_inurba_marseille","lat":43.27948,"lon":5.41046,"is_reserved":false,"is_disabled":false,"rental_uris":{"android":"levelo://app?vid=4432e0b1-0011-4e11-add8-ea3c5697e6e9","ios":"levelo://app?vid=4432e0b1-0011-4e11-add8-ea3c5697e6e9"},"vehicle_type_id":"4","last_reported":1744211566,"current_range_meters":2800,"station_id":"ce4bhnp2rcd13ifvqh0g","pricing_plan_id":"cebpf4jnsgd1na2vs0mg"},{"bike_id":"f54faab0-b40f-4562-8cf1-84576529790d","system_id":"levelo_inurba_marseille","lat":43.2848,"lon":5.38584,"is_reserved":false,"is_disabled":false,"rental_uris":{"android":"levelo://app?vid=f54faab0-b40f-4562-8cf1-84576529790d","ios":"levelo://app?vid=f54faab0-b40f-4562-8cf1-84576529790d"},"vehicle_type_id":"4","last_reported":1744211566,"current_range_meters":2800,"station_id":"ce4bh8p2rcd13ifvqeb0","pricing_plan_id":"cebpf4jnsgd1na2vs0mg"},{"bike_id":"76524e70-81c2-4376-b35f-8b48bd72c524","system_id":"levelo_inurba_marseille","lat":43.25521,"lon":5.37676,"is_reserved":false,"is_disabled":false,"rental_uris":{"android":"levelo://app?vid=76524e70-81c2-4376-b35f-8b48bd72c524","ios":"levelo://app?vid=76524e70-81c2-4376-b35f-8b48bd72c524"},"vehicle_type_id":"4","last_reported":1744211566,"current_range_meters":2800,"station_id":"ce4bhh12rcd13ifvqff0","pricing_plan_id":"cebpf4jnsgd1na2vs0mg"},{"bike_id":"f39be6f5-2f69-4c37-b021-559d20b299a4","system_id":"levelo_inurba_marseille","lat":43.30001,"lon":5.37663,"is_reserved":false,"is_disabled":false,"rental_uris":{"android":"levelo://app?vid=f39be6f5-2f69-4c37-b021-559d20b299a4","ios":"levelo://app?vid=f39be6f5-2f69-4c37-b021-559d20b299a4"},"vehicle_type_id":"4","last_reported":1744211566,"current_range_meters":3200,"station_id":"","pricing_plan_id":"cebpf4jnsgd1na2vs0mg"},{"bike_id":"68cfeab6-df0b-4493-978d-d706ffd0f99b","system_id":"levelo_inurba_marseille","lat":43.27314,"lon":5.39077,"is_reserved":false,"is_disabled":false,"rental_uris":{"android":"levelo://app?vid=68cfeab6-df0b-4493-978d-d706ffd0f99b","ios":"levelo://app?vid=68cfeab6-df0b-4493-978d-d706ffd0f99b"},"vehicle_type_id":"4","last_reported":1744211566,"current_range_meters":3200,"station_id":"ce4bhgp2rcd13ifvqfe0","pricing_plan_id":"cebpf4jnsgd1na2vs0mg"},{"bike_id":"51438bd1-409e-47bc-b873-e6764c8184e9","system_id":"levelo_inurba_marseille","lat":43.231685,"lon":5.436773,"is_reserved":false,"is_disabled":false,"rental_uris":{"android":"levelo://app?vid=51438bd1-409e-47bc-b873-e6764c8184e9","ios":"levelo://app?vid=51438bd1-409e-47bc-b873-e6764c8184e9"},"vehicle_type_id":"4","last_reported":1744211566,"current_range_meters":2800,"station_id":"ce4bhn12rcd13ifvqgqg","pricing_plan_id":"cebpf4jnsgd1na2vs0mg"},{"bike_id":"04ea21db-9998-4cdc-8b93-e4b23b0ed540","system_id":"levelo_inurba_marseille","lat":43.26098,"lon":5.39571,"is_reserved":false,"is_disabled":false,"rental_uris":{"android":"levelo://app?vid=04ea21db-9998-4cdc-8b93-e4b23b0ed540","ios":"levelo://app?vid=04ea21db-9998-4cdc-8b93-e4b23b0ed540"},"vehicle_type_id":"4","last_reported":1744211566,"current_range_meters":3200,"station_id":"","pricing_plan_id":"cebpf4jnsgd1na2vs0mg"},{"bike_id":"94731731-4f61-46dc-b111-bc644a530746","system_id":"levelo_inurba_marseille","lat":43.30308,"lon":5.368931,"is_reserved":false,"is_disabled":false,"rental_uris":{"android":"levelo://app?vid=94731731-4f61-46dc-b111-bc644a530746","ios":"levelo://app?vid=94731731-4f61-46dc-b111-bc644a530746"},"vehicle_type_id":"4","last_reported":1744211566,"current_range_meters":3200,"station_id":"ce4bgqh2rcd13ifvqc5g","pricing_plan_id":"cebpf4jnsgd1na2vs0mg"},{"bike_id":"6bccbfa3-5d60-4fe2-b23f-dbc12faa2dc1","system_id":"levelo_inurba_marseille","lat":43.30564,"lon":5.36541,"is_reserved":false,"is_disabled":false,"rental_uris":{"android":"levelo://app?vid=6bccbfa3-5d60-4fe2-b23f-dbc12faa2dc1","ios":"levelo://app?vid=6bccbfa3-5d60-4fe2-b23f-dbc12faa2dc1"},"vehicle_type_id":"4","last_reported":1744211566,"current_range_meters":3600,"station_id":"ce4bgs12rcd13ifvqcag","pricing_plan_id":"cebpf4jnsgd1na2vs0mg"},{"bike_id":"2040422d-5721-4c2d-8ec0-9fe656138036","system_id":"levelo_inurba_marseille","lat":43.295354,"lon":5.385395,"is_reserved":false,"is_disabled":false,"rental_uris":{"android":"levelo://app?vid=2040422d-5721-4c2d-8ec0-9fe656138036","ios":"levelo://app?vid=2040422d-5721-4c2d-8ec0-9fe656138036"},"vehicle_type_id":"4","last_reported":1744211566,"current_range_meters":3600,"station_id":"ce4bgih2rcd13ifvqba0","pricing_plan_id":"cebpf4jnsgd1na2vs0mg"},{"bike_id":"3576b946-70b3-456f-a60a-d98e227f015c","system_id":"levelo_inurba_marseille","lat":43.3012,"lon":5.38205,"is_reserved":false,"is_disabled":false,"rental_uris":{"android":"levelo://app?vid=3576b946-70b3-456f-a60a-d98e227f015c","ios":"levelo://app?vid=3576b946-70b3-456f-a60a-d98e227f015c"},"vehicle_type_id":"4","last_reported":1744211566,"current_range_meters":3600,"station_id":"","pricing_plan_id":"cebpf4jnsgd1na2vs0mg"},{"bike_id":"198c6014-e02a-48de-8d46-3e12661f242e","system_id":"levelo_inurba_marseille","lat":43.28271,"lon":5.3507,"is_reserved":false,"is_disabled":false,"rental_uris":{"android":"levelo://app?vid=198c6014-e02a-48de-8d46-3e12661f242e","ios":"levelo://app?vid=198c6014-e02a-48de-8d46-3e12661f242e"},"vehicle_type_id":"4","last_reported":1744211566,"current_range_meters":4000,"station_id":"ce4bhbp2rcd13ifvqerg","pricing_plan_id":"cebpf4jnsgd1na2vs0mg"},{"bike_id":"275808d3-9916-43ce-bb03-bc8ec298aea9","system_id":"levelo_inurba_marseille","lat":43.286998,"lon":5.373824,"is_reserved":false,"is_disabled":false,"rental_uris":{"android":"levelo://app?vid=275808d3-9916-43ce-bb03-bc8ec298aea9","ios":"levelo://app?vid=275808d3-9916-43ce-bb03-bc8ec298aea9"},"vehicle_type_id":"4","last_reported":1744211566,"current_range_meters":4000,"station_id":"ce4bh3p2rcd13ifvqdq0","pricing_plan_id":"cebpf4jnsgd1na2vs0mg"},{"bike_id":"a5893a1f-7c9d-4af5-acab-6328a27154af","system_id":"levelo_inurba_marseille","lat":43.292785,"lon":5.408999,"is_reserved":false,"is_disabled":true,"rental_uris":{"android":"levelo://app?vid=a5893a1f-7c9d-4af5-acab-6328a27154af","ios":"levelo://app?vid=a5893a1f-7c9d-4af5-acab-6328a27154af"},"vehicle_type_id":"4","last_reported":1744211566,"current_range_meters":4000,"station_id":"","pricing_plan_id":"cebpf4jnsgd1na2vs0mg"},{"bike_id":"d0eeea24-6369-436e-89b9-0e1792fabb25","system_id":"levelo_inurba_marseille","lat":43.29534,"lon":5.38548,"is_reserved":false,"is_disabled":false,"rental_uris":{"android":"levelo://app?vid=d0eeea24-6369-436e-89b9-0e1792fabb25","ios":"levelo://app?vid=d0eeea24-6369-436e-89b9-0e1792fabb25"},"vehicle_type_id":"4","last_reported":1744211566,"current_range_meters":4400,"station_id":"ce4bgih2rcd13ifvqba0","pricing_plan_id":"cebpf4jnsgd1na2vs0mg"},{"bike_id":"61faeab7-d3b1-42ea-8185-a6bb834269b2","system_id":"levelo_inurba_marseille","lat":43.27119,"lon":5.41486,"is_reserved":false,"is_disabled":false,"rental_uris":{"android":"levelo://app?vid=61faeab7-d3b1-42ea-8185-a6bb834269b2","ios":"levelo://app?vid=61faeab7-d3b1-42ea-8185-a6bb834269b2"},"vehicle_type_id":"4","last_reported":1744211566,"current_range_meters":4400,"station_id":"","pricing_plan_id":"cebpf4jnsgd1na2vs0mg"},{"bike_id":"bf5b5926-3725-4d0e-a1db-cb707f3699cd","system_id":"levelo_inurba_marseille","lat":43.28997,"lon":5.37186,"is_reserved":false,"is_disabled":false,"rental_uris":{"android":"levelo://app?vid=bf5b5926-3725-4d0e-a1db-cb707f3699cd","ios":"levelo://app?vid=bf5b5926-3725-4d0e-a1db-cb707f3699cd"},"vehicle_type_id":"4","last_reported":1744211566,"current_range_meters":4800,"station_id":"","pricing_plan_id":"cebpf4jnsgd1na2vs0mg"},{"bike_id":"f3b5cac2-eaf2-48a0-91db-905cf1f68e94","system_id":"levelo_inurba_marseille","lat":43.23063,"lon":5.35487,"is_reserved":false,"is_disabled":false,"rental_uris":{"android":"levelo://app?vid=f3b5cac2-eaf2-48a0-91db-905cf1f68e94","ios":"levelo://app?vid=f3b5cac2-eaf2-48a0-91db-905cf1f68e94"},"vehicle_type_id":"4","last_reported":1744211566,"current_range_meters":5600,"station_id":"cpo3342slgdg3j2ifvpg","pricing_plan_id":"cebpf4jnsgd1na2vs0mg"},{"bike_id":"f3f013df-ad5b-4b7c-8a13-f9d74b32eaf9","system_id":"levelo_inurba_marseille","lat":43.29581,"lon":5.3674,"is_reserved":false,"is_disabled":false,"rental_uris":{"android":"levelo://app?vid=f3f013df-ad5b-4b7c-8a13-f9d74b32eaf9","ios":"levelo://app?vid=f3f013df-ad5b-4b7c-8a13-f9d74b32eaf9"},"vehicle_type_id":"4","last_reported":1744211566,"current_range_meters":5600,"station_id":"ce4bgph2rcd13ifvqc2g","pricing_plan_id":"cebpf4jnsgd1na2vs0mg"},{"bike_id":"59b621ed-81cf-40df-a684-917ebf84494c","system_id":"levelo_inurba_marseille","lat":43.286196,"lon":5.351007,"is_reserved":false,"is_disabled":false,"rental_uris":{"android":"levelo://app?vid=59b621ed-81cf-40df-a684-917ebf84494c","ios":"levelo://app?vid=59b621ed-81cf-40df-a684-917ebf84494c"},"vehicle_type_id":"4","last_reported":1744211566,"current_range_meters":6000,"station_id":"ce4bhgp2rcd13ifvqfc0","pricing_plan_id":"cebpf4jnsgd1na2vs0mg"},{"bike_id":"09c11521-406d-4eb4-9a8b-2e1530663a95","system_id":"levelo_inurba_marseille","lat":43.29265,"lon":5.38447,"is_reserved":false,"is_disabled":false,"rental_uris":{"android":"levelo://app?vid=09c11521-406d-4eb4-9a8b-2e1530663a95","ios":"levelo://app?vid=09c11521-406d-4eb4-9a8b-2e1530663a95"},"vehicle_type_id":"4","last_reported":1744211566,"current_range_meters":6000,"station_id":"ce4bh692rcd13ifvqea0","pricing_plan_id":"cebpf4jnsgd1na2vs0mg"},{"bike_id":"af06e75e-85d0-484d-94e1-914b78864c85","system_id":"levelo_inurba_marseille","lat":43.29808,"lon":5.38092,"is_reserved":false,"is_disabled":false,"rental_uris":{"android":"levelo://app?vid=af06e75e-85d0-484d-94e1-914b78864c85","ios":"levelo://app?vid=af06e75e-85d0-484d-94e1-914b78864c85"},"vehicle_type_id":"4","last_reported":1744211566,"current_range_meters":6000,"station_id":"ce4bgip2rcd13ifvqbb0","pricing_plan_id":"cebpf4jnsgd1na2vs0mg"},{"bike_id":"9dfb2e29-03e9-426f-8daa-c5a6eeb96a84","system_id":"levelo_inurba_marseille","lat":43.28024,"lon":5.36934,"is_reserved":false,"is_disabled":false,"rental_uris":{"android":"levelo://app?vid=9dfb2e29-03e9-426f-8daa-c5a6eeb96a84","ios":"levelo://app?vid=9dfb2e29-03e9-426f-8daa-c5a6eeb96a84"},"vehicle_type_id":"4","last_reported":1744211566,"current_range_meters":6400,"station_id":"ce4bha12rcd13ifvqef0","pricing_plan_id":"cebpf4jnsgd1na2vs0mg"},{"bike_id":"d3eaffc2-1608-460e-80ee-66362a51d546","system_id":"levelo_inurba_marseille","lat":43.262179,"lon":5.374394,"is_reserved":false,"is_disabled":false,"rental_uris":{"android":"levelo://app?vid=d3eaffc2-1608-460e-80ee-66362a51d546","ios":"levelo://app?vid=d3eaffc2-1608-460e-80ee-66362a51d546"},"vehicle_type_id":"4","last_reported":1744211566,"current_range_meters":2000,"station_id":"ce4bhgp2rcd13ifvqfc0","pricing_plan_id":"cebpf4jnsgd1na2vs0mg"},{"bike_id":"70810d3e-9936-4863-b211-84f880613e88","system_id":"levelo_inurba_marseille","lat":43.31287,"lon":5.37318,"is_reserved":false,"is_disabled":false,"rental_uris":{"android":"levelo://app?vid=70810d3e-9936-4863-b211-84f880613e88","ios":"levelo://app?vid=70810d3e-9936-4863-b211-84f880613e88"},"vehicle_type_id":"4","last_reported":1744211566,"current_range_meters":6400,"station_id":"","pricing_plan_id":"cebpf4jnsgd1na2vs0mg"},{"bike_id":"ec41b842-c84f-4ab1-894c-fc6101e00efb","system_id":"levelo_inurba_marseille","lat":43.31712,"lon":5.40288,"is_reserved":false,"is_disabled":false,"rental_uris":{"android":"levelo://app?vid=ec41b842-c84f-4ab1-894c-fc6101e00efb","ios":"levelo://app?vid=ec41b842-c84f-4ab1-894c-fc6101e00efb"},"vehicle_type_id":"4","last_reported":1744211566,"current_range_meters":6400,"station_id":"","pricing_plan_id":"cebpf4jnsgd1na2vs0mg"},{"bike_id":"01eddbfe-7caf-4f82-88a4-3ff4bf85fe70","system_id":"levelo_inurba_marseille","lat":43.28427,"lon":5.34983,"is_reserved":false,"is_disabled":false,"rental_uris":{"android":"levelo://app?vid=01eddbfe-7caf-4f82-88a4-3ff4bf85fe70","ios":"levelo://app?vid=01eddbfe-7caf-4f82-88a4-3ff4bf85fe70"},"vehicle_type_id":"4","last_reported":1744211566,"current_range_meters":6400,"station_id":"ce4bhbh2rcd13ifvqepg","pricing_plan_id":"cebpf4jnsgd1na2vs0mg"},{"bike_id":"5c4cc2f8-1878-4d27-b455-098a46ab6764","system_id":"levelo_inurba_marseille","lat":43.30462,"lon":5.37902,"is_reserved":false,"is_disabled":false,"rental_uris":{"android":"levelo://app?vid=5c4cc2f8-1878-4d27-b455-098a46ab6764","ios":"levelo://app?vid=5c4cc2f8-1878-4d27-b455-098a46ab6764"},"vehicle_type_id":"4","last_reported":1744211566,"current_range_meters":6800,"station_id":"ce4bgup2rcd13ifvqcn0","pricing_plan_id":"cebpf4jnsgd1na2vs0mg"},{"bike_id":"924f1d69-8750-450a-9310-fc6ba5c4b93a","system_id":"levelo_inurba_marseille","lat":43.25471,"lon":5.3765,"is_reserved":false,"is_disabled":false,"rental_uris":{"android":"levelo://app?vid=924f1d69-8750-450a-9310-fc6ba5c4b93a","ios":"levelo://app?vid=924f1d69-8750-450a-9310-fc6ba5c4b93a"},"vehicle_type_id":"4","last_reported":1744211566,"current_range_meters":6800,"station_id":"ce4bhh12rcd13ifvqff0","pricing_plan_id":"cebpf4jnsgd1na2vs0mg"},{"bike_id":"da8c4291-1d50-4c2b-aff0-db757eab8439","system_id":"levelo_inurba_marseille","lat":43.29769,"lon":5.37101,"is_reserved":false,"is_disabled":false,"rental_uris":{"android":"levelo://app?vid=da8c4291-1d50-4c2b-aff0-db757eab8439","ios":"levelo://app?vid=da8c4291-1d50-4c2b-aff0-db757eab8439"},"vehicle_type_id":"4","last_reported":1744211566,"current_range_meters":7200,"station_id":"ce4bgop2rcd13ifvqc1g","pricing_plan_id":"cebpf4jnsgd1na2vs0mg"},{"bike_id":"829f6377-5fcb-4a2a-83c5-f5b4c9e0d09c","system_id":"levelo_inurba_marseille","lat":43.29042,"lon":5.35912,"is_reserved":false,"is_disabled":false,"rental_uris":{"android":"levelo://app?vid=829f6377-5fcb-4a2a-83c5-f5b4c9e0d09c","ios":"levelo://app?vid=829f6377-5fcb-4a2a-83c5-f5b4c9e0d09c"},"vehicle_type_id":"4","last_reported":1744211566,"current_range_meters":7200,"station_id":"ce4bha92rcd13ifvqeg0","pricing_plan_id":"cebpf4jnsgd1na2vs0mg"},{"bike_id":"7789bd8b-8aa5-464d-bbb9-d57e8bb1a4a7","system_id":"levelo_inurba_marseille","lat":43.27835,"lon":5.40737,"is_reserved":false,"is_disabled":false,"rental_uris":{"android":"levelo://app?vid=7789bd8b-8aa5-464d-bbb9-d57e8bb1a4a7","ios":"levelo://app?vid=7789bd8b-8aa5-464d-bbb9-d57e8bb1a4a7"},"vehicle_type_id":"4","last_reported":1744211566,"current_range_meters":7200,"station_id":"ce4bhnh2rcd13ifvqgtg","pricing_plan_id":"cebpf4jnsgd1na2vs0mg"},{"bike_id":"532253ed-6e3c-4c22-8626-927e6533d9d0","system_id":"levelo_inurba_marseille","lat":43.28263,"lon":5.35071,"is_reserved":false,"is_disabled":false,"rental_uris":{"android":"levelo://app?vid=532253ed-6e3c-4c22-8626-927e6533d9d0","ios":"levelo://app?vid=532253ed-6e3c-4c22-8626-927e6533d9d0"},"vehicle_type_id":"4","last_reported":1744211566,"current_range_meters":7200,"station_id":"ce4bhbp2rcd13ifvqerg","pricing_plan_id":"cebpf4jnsgd1na2vs0mg"},{"bike_id":"3d0cae43-5b75-4aac-b7cb-471ce1151dd5","system_id":"levelo_inurba_marseille","lat":43.33072,"lon":5.39566,"is_reserved":false,"is_disabled":false,"rental_uris":{"android":"levelo://app?vid=3d0cae43-5b75-4aac-b7cb-471ce1151dd5","ios":"levelo://app?vid=3d0cae43-5b75-4aac-b7cb-471ce1151dd5"},"vehicle_type_id":"4","last_reported":1744211566,"current_range_meters":7200,"station_id":"","pricing_plan_id":"cebpf4jnsgd1na2vs0mg"},{"bike_id":"3cb42cf0-6a1d-4b57-adf5-538d6c6bddbb","system_id":"levelo_inurba_marseille","lat":43.31078,"lon":5.42427,"is_reserved":false,"is_disabled":false,"rental_uris":{"android":"levelo://app?vid=3cb42cf0-6a1d-4b57-adf5-538d6c6bddbb","ios":"levelo://app?vid=3cb42cf0-6a1d-4b57-adf5-538d6c6bddbb"},"vehicle_type_id":"4","last_reported":1744211566,"current_range_meters":7200,"station_id":"ce4bhp92rcd13ifvqhag","pricing_plan_id":"cebpf4jnsgd1na2vs0mg"},{"bike_id":"9c857a57-c98d-4fd7-913b-17169cc075b9","system_id":"levelo_inurba_marseille","lat":43.27311,"lon":5.39118,"is_reserved":false,"is_disabled":false,"rental_uris":{"android":"levelo://app?vid=9c857a57-c98d-4fd7-913b-17169cc075b9","ios":"levelo://app?vid=9c857a57-c98d-4fd7-913b-17169cc075b9"},"vehicle_type_id":"4","last_reported":1744211566,"current_range_meters":7200,"station_id":"ce4bhgp2rcd13ifvqfe0","pricing_plan_id":"cebpf4jnsgd1na2vs0mg"},{"bike_id":"68d1cc33-0218-451e-8e10-d32225c21263","system_id":"levelo_inurba_marseille","lat":43.2315,"lon":5.43696,"is_reserved":false,"is_disabled":true,"rental_uris":{"android":"levelo://app?vid=68d1cc33-0218-451e-8e10-d32225c21263","ios":"levelo://app?vid=68d1cc33-0218-451e-8e10-d32225c21263"},"vehicle_type_id":"4","last_reported":1744211566,"current_range_meters":7200,"station_id":"ce4bhmp2rcd13ifvqgog","pricing_plan_id":"cebpf4jnsgd1na2vs0mg"},{"bike_id":"5e6ad826-38da-4531-b4ba-2eda8622ede3","system_id":"levelo_inurba_marseille","lat":43.310979,"lon":5.404589,"is_reserved":false,"is_disabled":false,"rental_uris":{"android":"levelo://app?vid=5e6ad826-38da-4531-b4ba-2eda8622ede3","ios":"levelo://app?vid=5e6ad826-38da-4531-b4ba-2eda8622ede3"},"vehicle_type_id":"4","last_reported":1744211566,"current_range_meters":7200,"station_id":"","pricing_plan_id":"cebpf4jnsgd1na2vs0mg"},{"bike_id":"99259828-1544-4e51-8c45-dfc492a49a11","system_id":"levelo_inurba_marseille","lat":43.290459,"lon":5.359082,"is_reserved":false,"is_disabled":false,"rental_uris":{"android":"levelo://app?vid=99259828-1544-4e51-8c45-dfc492a49a11","ios":"levelo://app?vid=99259828-1544-4e51-8c45-dfc492a49a11"},"vehicle_type_id":"4","last_reported":1744211566,"current_range_meters":8000,"station_id":"ce4bha92rcd13ifvqeg0","pricing_plan_id":"cebpf4jnsgd1na2vs0mg"},{"bike_id":"b975603d-8879-4cc6-979d-7a6f7da4837b","system_id":"levelo_inurba_marseille","lat":43.296204,"lon":5.371659,"is_reserved":false,"is_disabled":false,"rental_uris":{"android":"levelo://app?vid=b975603d-8879-4cc6-979d-7a6f7da4837b","ios":"levelo://app?vid=b975603d-8879-4cc6-979d-7a6f7da4837b"},"vehicle_type_id":"4","last_reported":1744211566,"current_range_meters":0,"station_id":"ce4bgnh2rcd13ifvqc0g","pricing_plan_id":"cebpf4jnsgd1na2vs0mg"},{"bike_id":"ec2afbe5-9bb2-4cb5-af18-dcc7889ed875","system_id":"levelo_inurba_marseille","lat":43.24802,"lon":5.37452,"is_reserved":false,"is_disabled":false,"rental_uris":{"android":"levelo://app?vid=ec2afbe5-9bb2-4cb5-af18-dcc7889ed875","ios":"levelo://app?vid=ec2afbe5-9bb2-4cb5-af18-dcc7889ed875"},"vehicle_type_id":"4","last_reported":1744211566,"current_range_meters":8000,"station_id":"ce4bhgh2rcd13ifvqfb0","pricing_plan_id":"cebpf4jnsgd1na2vs0mg"},{"bike_id":"72088571-0129-4e1e-a31e-c2953838eeca","system_id":"levelo_inurba_marseille","lat":43.26565,"lon":5.39018,"is_reserved":false,"is_disabled":false,"rental_uris":{"android":"levelo://app?vid=72088571-0129-4e1e-a31e-c2953838eeca","ios":"levelo://app?vid=72088571-0129-4e1e-a31e-c2953838eeca"},"vehicle_type_id":"4","last_reported":1744211566,"current_range_meters":8000,"station_id":"ce4bhe12rcd13ifvqf30","pricing_plan_id":"cebpf4jnsgd1na2vs0mg"},{"bike_id":"4fbdd499-0c84-41fa-ac53-6ac51d45909a","system_id":"levelo_inurba_marseille","lat":43.30443,"lon":5.41281,"is_reserved":false,"is_disabled":false,"rental_uris":{"android":"levelo://app?vid=4fbdd499-0c84-41fa-ac53-6ac51d45909a","ios":"levelo://app?vid=4fbdd499-0c84-41fa-ac53-6ac51d45909a"},"vehicle_type_id":"4","last_reported":1744211566,"current_range_meters":8000,"station_id":"ce4bhop2rcd13ifvqh8g","pricing_plan_id":"cebpf4jnsgd1na2vs0mg"},{"bike_id":"a566336b-6133-47a6-ad7f-74f32862e29a","system_id":"levelo_inurba_marseille","lat":43.30384,"lon":5.42518,"is_reserved":false,"is_disabled":false,"rental_uris":{"android":"levelo://app?vid=a566336b-6133-47a6-ad7f-74f32862e29a","ios":"levelo://app?vid=a566336b-6133-47a6-ad7f-74f32862e29a"},"vehicle_type_id":"4","last_reported":1744211566,"current_range_meters":8400,"station_id":"ce4bhoh2rcd13ifvqh6g","pricing_plan_id":"cebpf4jnsgd1na2vs0mg"},{"bike_id":"b068d3f8-8680-421a-8f2c-1e5214b5f123","system_id":"levelo_inurba_marseille","lat":43.2927,"lon":5.38438,"is_reserved":false,"is_disabled":false,"rental_uris":{"android":"levelo://app?vid=b068d3f8-8680-421a-8f2c-1e5214b5f123","ios":"levelo://app?vid=b068d3f8-8680-421a-8f2c-1e5214b5f123"},"vehicle_type_id":"4","last_reported":1744211566,"current_range_meters":8400,"station_id":"ce4bh692rcd13ifvqea0","pricing_plan_id":"cebpf4jnsgd1na2vs0mg"},{"bike_id":"08f9c0c8-8b33-4578-8a03-20f44d582241","system_id":"levelo_inurba_marseille","lat":43.30615,"lon":5.37139,"is_reserved":false,"is_disabled":false,"rental_uris":{"android":"levelo://app?vid=08f9c0c8-8b33-4578-8a03-20f44d582241","ios":"levelo://app?vid=08f9c0c8-8b33-4578-8a03-20f44d582241"},"vehicle_type_id":"4","last_reported":1744211566,"current_range_meters":8400,"station_id":"","pricing_plan_id":"cebpf4jnsgd1na2vs0mg"},{"bike_id":"ad212075-aa88-4f52-8b77-40fff53ff563","system_id":"levelo_inurba_marseille","lat":43.30375,"lon":5.42486,"is_reserved":false,"is_disabled":false,"rental_uris":{"android":"levelo://app?vid=ad212075-aa88-4f52-8b77-40fff53ff563","ios":"levelo://app?vid=ad212075-aa88-4f52-8b77-40fff53ff563"},"vehicle_type_id":"4","last_reported":1744211566,"current_range_meters":8400,"station_id":"ce4bhoh2rcd13ifvqh6g","pricing_plan_id":"cebpf4jnsgd1na2vs0mg"},{"bike_id":"8386773b-06c3-4390-9da3-18aa2d27d571","system_id":"levelo_inurba_marseille","lat":43.21195,"lon":5.35074,"is_reserved":false,"is_disabled":false,"rental_uris":{"android":"levelo://app?vid=8386773b-06c3-4390-9da3-18aa2d27d571","ios":"levelo://app?vid=8386773b-06c3-4390-9da3-18aa2d27d571"},"vehicle_type_id":"4","last_reported":1744211566,"current_range_meters":8800,"station_id":"st_cvj6sg6p6f1abm77japg","pricing_plan_id":"cebpf4jnsgd1na2vs0mg"},{"bike_id":"80663e12-6b64-446d-88c9-20255bde1a8a","system_id":"levelo_inurba_marseille","lat":43.308951,"lon":5.396346,"is_reserved":false,"is_disabled":true,"rental_uris":{"android":"levelo://app?vid=80663e12-6b64-446d-88c9-20255bde1a8a","ios":"levelo://app?vid=80663e12-6b64-446d-88c9-20255bde1a8a"},"vehicle_type_id":"4","last_reported":1744211566,"current_range_meters":8800,"station_id":"ce4bh012rcd13ifvqcv0","pricing_plan_id":"cebpf4jnsgd1na2vs0mg"},{"bike_id":"61d8d1be-27cd-46ae-a6ba-cf49fe01e9e5","system_id":"levelo_inurba_marseille","lat":43.25127,"lon":5.40317,"is_reserved":false,"is_disabled":false,"rental_uris":{"android":"levelo://app?vid=61d8d1be-27cd-46ae-a6ba-cf49fe01e9e5","ios":"levelo://app?vid=61d8d1be-27cd-46ae-a6ba-cf49fe01e9e5"},"vehicle_type_id":"4","last_reported":1744211566,"current_range_meters":8800,"station_id":"ce4bhlh2rcd13ifvqgig","pricing_plan_id":"cebpf4jnsgd1na2vs0mg"},{"bike_id":"ad567f36-532f-4572-ba79-026237d7cccc","system_id":"levelo_inurba_marseille","lat":43.26217,"lon":5.37434,"is_reserved":false,"is_disabled":false,"rental_uris":{"android":"levelo://app?vid=ad567f36-532f-4572-ba79-026237d7cccc","ios":"levelo://app?vid=ad567f36-532f-4572-ba79-026237d7cccc"},"vehicle_type_id":"4","last_reported":1744211566,"current_range_meters":8800,"station_id":"ce4bhgp2rcd13ifvqfc0","pricing_plan_id":"cebpf4jnsgd1na2vs0mg"},{"bike_id":"feca3d9e-12e9-4a3a-8f8a-211aa953b3fa","system_id":"levelo_inurba_marseille","lat":43.29331,"lon":5.41155,"is_reserved":false,"is_disabled":false,"rental_uris":{"android":"levelo://app?vid=feca3d9e-12e9-4a3a-8f8a-211aa953b3fa","ios":"levelo://app?vid=feca3d9e-12e9-4a3a-8f8a-211aa953b3fa"},"vehicle_type_id":"4","last_reported":1744211566,"current_range_meters":8800,"station_id":"","pricing_plan_id":"cebpf4jnsgd1na2vs0mg"},{"bike_id":"33ea9cce-28c1-42a6-9a1c-7f13eb907b4b","system_id":"levelo_inurba_marseille","lat":43.297,"lon":5.37697,"is_reserved":false,"is_disabled":false,"rental_uris":{"android":"levelo://app?vid=33ea9cce-28c1-42a6-9a1c-7f13eb907b4b","ios":"levelo://app?vid=33ea9cce-28c1-42a6-9a1c-7f13eb907b4b"},"vehicle_type_id":"4","last_reported":1744211566,"current_range_meters":8400,"station_id":"ce4bgkh2rcd13ifvqbl0","pricing_plan_id":"cebpf4jnsgd1na2vs0mg"},{"bike_id":"b109ce60-cfd3-4e62-97f9-787193fd29f3","system_id":"levelo_inurba_marseille","lat":43.24068,"lon":5.37762,"is_reserved":false,"is_disabled":false,"rental_uris":{"android":"levelo://app?vid=b109ce60-cfd3-4e62-97f9-787193fd29f3","ios":"levelo://app?vid=b109ce60-cfd3-4e62-97f9-787193fd29f3"},"vehicle_type_id":"4","last_reported":1744211566,"current_range_meters":8800,"station_id":"ce4bhnp2rcd13ifvqgvg","pricing_plan_id":"cebpf4jnsgd1na2vs0mg"},{"bike_id":"b397701f-0d3d-44bf-ab3e-3ccc7e74fb2e","system_id":"levelo_inurba_marseille","lat":43.26453,"lon":5.42284,"is_reserved":false,"is_disabled":false,"rental_uris":{"android":"levelo://app?vid=b397701f-0d3d-44bf-ab3e-3ccc7e74fb2e","ios":"levelo://app?vid=b397701f-0d3d-44bf-ab3e-3ccc7e74fb2e"},"vehicle_type_id":"4","last_reported":1744211566,"current_range_meters":8800,"station_id":"","pricing_plan_id":"cebpf4jnsgd1na2vs0mg"},{"bike_id":"9ccd98b7-f215-42f0-944a-3e3b31a383ef","system_id":"levelo_inurba_marseille","lat":43.26564,"lon":5.39012,"is_reserved":false,"is_disabled":false,"rental_uris":{"android":"levelo://app?vid=9ccd98b7-f215-42f0-944a-3e3b31a383ef","ios":"levelo://app?vid=9ccd98b7-f215-42f0-944a-3e3b31a383ef"},"vehicle_type_id":"4","last_reported":1744211566,"current_range_meters":9200,"station_id":"ce4bhe12rcd13ifvqf30","pricing_plan_id":"cebpf4jnsgd1na2vs0mg"},{"bike_id":"5dca8226-8c41-4c36-9bb7-6898bac28605","system_id":"levelo_inurba_marseille","lat":43.27375,"lon":5.36253,"is_reserved":false,"is_disabled":false,"rental_uris":{"android":"levelo://app?vid=5dca8226-8c41-4c36-9bb7-6898bac28605","ios":"levelo://app?vid=5dca8226-8c41-4c36-9bb7-6898bac28605"},"vehicle_type_id":"4","last_reported":1744211566,"current_range_meters":9200,"station_id":"ce4bhbh2rcd13ifvqeo0","pricing_plan_id":"cebpf4jnsgd1na2vs0mg"},{"bike_id":"827fb1cd-bee7-476f-849f-93c89efa115f","system_id":"levelo_inurba_marseille","lat":43.27956,"lon":5.41044,"is_reserved":false,"is_disabled":false,"rental_uris":{"android":"levelo://app?vid=827fb1cd-bee7-476f-849f-93c89efa115f","ios":"levelo://app?vid=827fb1cd-bee7-476f-849f-93c89efa115f"},"vehicle_type_id":"4","last_reported":1744211566,"current_range_meters":9200,"station_id":"ce4bhnp2rcd13ifvqh0g","pricing_plan_id":"cebpf4jnsgd1na2vs0mg"},{"bike_id":"4d3db2d2-0ded-467b-abaa-b33acc1d45c4","system_id":"levelo_inurba_marseille","lat":43.29971,"lon":5.3717,"is_reserved":false,"is_disabled":false,"rental_uris":{"android":"levelo://app?vid=4d3db2d2-0ded-467b-abaa-b33acc1d45c4","ios":"levelo://app?vid=4d3db2d2-0ded-467b-abaa-b33acc1d45c4"},"vehicle_type_id":"4","last_reported":1744211566,"current_range_meters":9200,"station_id":"ce4bgr92rcd13ifvqc7g","pricing_plan_id":"cebpf4jnsgd1na2vs0mg"},{"bike_id":"57965f83-5085-46a6-a177-1744be026756","system_id":"levelo_inurba_marseille","lat":43.28868,"lon":5.35885,"is_reserved":false,"is_disabled":false,"rental_uris":{"android":"levelo://app?vid=57965f83-5085-46a6-a177-1744be026756","ios":"levelo://app?vid=57965f83-5085-46a6-a177-1744be026756"},"vehicle_type_id":"4","last_reported":1744211566,"current_range_meters":9200,"station_id":"ce4bhb12rcd13ifvqem0","pricing_plan_id":"cebpf4jnsgd1na2vs0mg"},{"bike_id":"fc8654a4-eeb8-4fab-a5e7-edda81adee6e","system_id":"levelo_inurba_marseille","lat":43.30327,"lon":5.40431,"is_reserved":false,"is_disabled":false,"rental_uris":{"android":"levelo://app?vid=fc8654a4-eeb8-4fab-a5e7-edda81adee6e","ios":"levelo://app?vid=fc8654a4-eeb8-4fab-a5e7-edda81adee6e"},"vehicle_type_id":"4","last_reported":1744211566,"current_range_meters":9200,"station_id":"ce4bh012rcd13ifvqd10","pricing_plan_id":"cebpf4jnsgd1na2vs0mg"},{"bike_id":"0e7051ad-00f7-4897-9995-929c1987289a","system_id":"levelo_inurba_marseille","lat":43.33039,"lon":5.39046,"is_reserved":false,"is_disabled":false,"rental_uris":{"android":"levelo://app?vid=0e7051ad-00f7-4897-9995-929c1987289a","ios":"levelo://app?vid=0e7051ad-00f7-4897-9995-929c1987289a"},"vehicle_type_id":"4","last_reported":1744211566,"current_range_meters":9200,"station_id":"ce4bhr92rcd13ifvqhrg","pricing_plan_id":"cebpf4jnsgd1na2vs0mg"},{"bike_id":"eeb317e1-aa7a-4b25-9ea1-28edd8ebc165","system_id":"levelo_inurba_marseille","lat":43.233463,"lon":5.435966,"is_reserved":false,"is_disabled":false,"rental_uris":{"android":"levelo://app?vid=eeb317e1-aa7a-4b25-9ea1-28edd8ebc165","ios":"levelo://app?vid=eeb317e1-aa7a-4b25-9ea1-28edd8ebc165"},"vehicle_type_id":"4","last_reported":1744211566,"current_range_meters":9600,"station_id":"ce4bho92rcd13ifvqh3g","pricing_plan_id":"cebpf4jnsgd1na2vs0mg"},{"bike_id":"73f81063-a4f2-4c63-9b54-1056b3c344ba","system_id":"levelo_inurba_marseille","lat":43.27322,"lon":5.39111,"is_reserved":false,"is_disabled":false,"rental_uris":{"android":"levelo://app?vid=73f81063-a4f2-4c63-9b54-1056b3c344ba","ios":"levelo://app?vid=73f81063-a4f2-4c63-9b54-1056b3c344ba"},"vehicle_type_id":"4","last_reported":1744211566,"current_range_meters":9600,"station_id":"ce4bhgp2rcd13ifvqfe0","pricing_plan_id":"cebpf4jnsgd1na2vs0mg"},{"bike_id":"0dd970c4-9b12-49f1-becc-47216e4835fd","system_id":"levelo_inurba_marseille","lat":43.28107,"lon":5.37837,"is_reserved":false,"is_disabled":false,"rental_uris":{"android":"levelo://app?vid=0dd970c4-9b12-49f1-becc-47216e4835fd","ios":"levelo://app?vid=0dd970c4-9b12-49f1-becc-47216e4835fd"},"vehicle_type_id":"4","last_reported":1744211566,"current_range_meters":9200,"station_id":"ce4bha12rcd13ifvqee0","pricing_plan_id":"cebpf4jnsgd1na2vs0mg"},{"bike_id":"1180a7b1-52e4-45a6-a35d-3a6133d07906","system_id":"levelo_inurba_marseille","lat":43.30136,"lon":5.37408,"is_reserved":false,"is_disabled":false,"rental_uris":{"android":"levelo://app?vid=1180a7b1-52e4-45a6-a35d-3a6133d07906","ios":"levelo://app?vid=1180a7b1-52e4-45a6-a35d-3a6133d07906"},"vehicle_type_id":"4","last_reported":1744211566,"current_range_meters":10000,"station_id":"ce4bgs92rcd13ifvqcc0","pricing_plan_id":"cebpf4jnsgd1na2vs0mg"},{"bike_id":"ced119c8-a930-4b91-8b11-05a1e12ed4ae","system_id":"levelo_inurba_marseille","lat":43.29299,"lon":5.37462,"is_reserved":false,"is_disabled":false,"rental_uris":{"android":"levelo://app?vid=ced119c8-a930-4b91-8b11-05a1e12ed4ae","ios":"levelo://app?vid=ced119c8-a930-4b91-8b11-05a1e12ed4ae"},"vehicle_type_id":"4","last_reported":1744211566,"current_range_meters":10000,"station_id":"ce4bgi12rcd13ifvqb70","pricing_plan_id":"cebpf4jnsgd1na2vs0mg"},{"bike_id":"38c43302-d0f3-42c8-89fb-a9374ff631e5","system_id":"levelo_inurba_marseille","lat":43.30529,"lon":5.36529,"is_reserved":false,"is_disabled":false,"rental_uris":{"android":"levelo://app?vid=38c43302-d0f3-42c8-89fb-a9374ff631e5","ios":"levelo://app?vid=38c43302-d0f3-42c8-89fb-a9374ff631e5"},"vehicle_type_id":"4","last_reported":1744211566,"current_range_meters":10000,"station_id":"ce4bgs12rcd13ifvqcag","pricing_plan_id":"cebpf4jnsgd1na2vs0mg"},{"bike_id":"85de8c90-b44c-4bb0-8eef-9568e327bfc7","system_id":"levelo_inurba_marseille","lat":43.302234,"lon":5.397191,"is_reserved":false,"is_disabled":false,"rental_uris":{"android":"levelo://app?vid=85de8c90-b44c-4bb0-8eef-9568e327bfc7","ios":"levelo://app?vid=85de8c90-b44c-4bb0-8eef-9568e327bfc7"},"vehicle_type_id":"4","last_reported":1744211566,"current_range_meters":10000,"station_id":"ce4bh0h2rcd13ifvqd40","pricing_plan_id":"cebpf4jnsgd1na2vs0mg"},{"bike_id":"9b2fc6c4-39ba-4c12-8105-fe5825817970","system_id":"levelo_inurba_marseille","lat":43.29568,"lon":5.37519,"is_reserved":false,"is_disabled":false,"rental_uris":{"android":"levelo://app?vid=9b2fc6c4-39ba-4c12-8105-fe5825817970","ios":"levelo://app?vid=9b2fc6c4-39ba-4c12-8105-fe5825817970"},"vehicle_type_id":"4","last_reported":1744211566,"current_range_meters":10800,"station_id":"ce4bgh92rcd13ifvqb50","pricing_plan_id":"cebpf4jnsgd1na2vs0mg"},{"bike_id":"b376218e-3a76-446a-953c-6a0a52673ea6","system_id":"levelo_inurba_marseille","lat":43.292603,"lon":5.384433,"is_reserved":false,"is_disabled":false,"rental_uris":{"android":"levelo://app?vid=b376218e-3a76-446a-953c-6a0a52673ea6","ios":"levelo://app?vid=b376218e-3a76-446a-953c-6a0a52673ea6"},"vehicle_type_id":"4","last_reported":1744211566,"current_range_meters":10800,"station_id":"ce4bh692rcd13ifvqea0","pricing_plan_id":"cebpf4jnsgd1na2vs0mg"},{"bike_id":"1a8c3bfa-7658-4f5e-93b8-93807ec24b6f","system_id":"levelo_inurba_marseille","lat":43.26561,"lon":5.39036,"is_reserved":false,"is_disabled":true,"rental_uris":{"android":"levelo://app?vid=1a8c3bfa-7658-4f5e-93b8-93807ec24b6f","ios":"levelo://app?vid=1a8c3bfa-7658-4f5e-93b8-93807ec24b6f"},"vehicle_type_id":"4","last_reported":1744211566,"current_range_meters":10800,"station_id":"ce4bhe12rcd13ifvqf30","pricing_plan_id":"cebpf4jnsgd1na2vs0mg"},{"bike_id":"4ce1f9c6-ca43-45f6-bad7-55d7134cb815","system_id":"levelo_inurba_marseille","lat":43.282686,"lon":5.35057,"is_reserved":false,"is_disabled":false,"rental_uris":{"android":"levelo://app?vid=4ce1f9c6-ca43-45f6-bad7-55d7134cb815","ios":"levelo://app?vid=4ce1f9c6-ca43-45f6-bad7-55d7134cb815"},"vehicle_type_id":"4","last_reported":1744211566,"current_range_meters":10800,"station_id":"ce4bhbp2rcd13ifvqerg","pricing_plan_id":"cebpf4jnsgd1na2vs0mg"},{"bike_id":"e1b43b61-ae33-420d-9156-fb2573591c30","system_id":"levelo_inurba_marseille","lat":43.28941,"lon":5.39634,"is_reserved":false,"is_disabled":false,"rental_uris":{"android":"levelo://app?vid=e1b43b61-ae33-420d-9156-fb2573591c30","ios":"levelo://app?vid=e1b43b61-ae33-420d-9156-fb2573591c30"},"vehicle_type_id":"4","last_reported":1744211566,"current_range_meters":10000,"station_id":"ce4bh3h2rcd13ifvqdn0","pricing_plan_id":"cebpf4jnsgd1na2vs0mg"},{"bike_id":"c388b19e-8cdd-4997-b852-7d80ac346368","system_id":"levelo_inurba_marseille","lat":43.29634,"lon":5.40594,"is_reserved":false,"is_disabled":false,"rental_uris":{"android":"levelo://app?vid=c388b19e-8cdd-4997-b852-7d80ac346368","ios":"levelo://app?vid=c388b19e-8cdd-4997-b852-7d80ac346368"},"vehicle_type_id":"4","last_reported":1744211566,"current_range_meters":10800,"station_id":"ce4bh0h2rcd13ifvqd60","pricing_plan_id":"cebpf4jnsgd1na2vs0mg"},{"bike_id":"8b86c7d7-bf95-4bce-9fca-d602adae4a08","system_id":"levelo_inurba_marseille","lat":43.30886,"lon":5.39656,"is_reserved":false,"is_disabled":false,"rental_uris":{"android":"levelo://app?vid=8b86c7d7-bf95-4bce-9fca-d602adae4a08","ios":"levelo://app?vid=8b86c7d7-bf95-4bce-9fca-d602adae4a08"},"vehicle_type_id":"4","last_reported":1744211566,"current_range_meters":10800,"station_id":"ce4bh012rcd13ifvqcv0","pricing_plan_id":"cebpf4jnsgd1na2vs0mg"},{"bike_id":"51c41135-02bc-47bc-842d-5c2cdae2b2f4","system_id":"levelo_inurba_marseille","lat":43.29277,"lon":5.38429,"is_reserved":false,"is_disabled":false,"rental_uris":{"android":"levelo://app?vid=51c41135-02bc-47bc-842d-5c2cdae2b2f4","ios":"levelo://app?vid=51c41135-02bc-47bc-842d-5c2cdae2b2f4"},"vehicle_type_id":"4","last_reported":1744211566,"current_range_meters":11200,"station_id":"ce4bh692rcd13ifvqea0","pricing_plan_id":"cebpf4jnsgd1na2vs0mg"},{"bike_id":"99258538-6009-4f65-a744-9d41c2e2b583","system_id":"levelo_inurba_marseille","lat":43.31081,"lon":5.42427,"is_reserved":false,"is_disabled":false,"rental_uris":{"android":"levelo://app?vid=99258538-6009-4f65-a744-9d41c2e2b583","ios":"levelo://app?vid=99258538-6009-4f65-a744-9d41c2e2b583"},"vehicle_type_id":"4","last_reported":1744211566,"current_range_meters":11200,"station_id":"ce4bhp92rcd13ifvqhag","pricing_plan_id":"cebpf4jnsgd1na2vs0mg"},{"bike_id":"0023ebf8-ebf1-404b-bc1a-e228ea130723","system_id":"levelo_inurba_marseille","lat":43.24389,"lon":5.37055,"is_reserved":false,"is_disabled":false,"rental_uris":{"android":"levelo://app?vid=0023ebf8-ebf1-404b-bc1a-e228ea130723","ios":"levelo://app?vid=0023ebf8-ebf1-404b-bc1a-e228ea130723"},"vehicle_type_id":"4","last_reported":1744211566,"current_range_meters":11200,"station_id":"ce4bhhh2rcd13ifvqfk0","pricing_plan_id":"cebpf4jnsgd1na2vs0mg"},{"bike_id":"c068a2f7-c2fe-4de7-90ff-4ee2ca6789dd","system_id":"levelo_inurba_marseille","lat":43.2512,"lon":5.40315,"is_reserved":false,"is_disabled":false,"rental_uris":{"android":"levelo://app?vid=c068a2f7-c2fe-4de7-90ff-4ee2ca6789dd","ios":"levelo://app?vid=c068a2f7-c2fe-4de7-90ff-4ee2ca6789dd"},"vehicle_type_id":"4","last_reported":1744211566,"current_range_meters":11200,"station_id":"ce4bhlh2rcd13ifvqgig","pricing_plan_id":"cebpf4jnsgd1na2vs0mg"},{"bike_id":"2d83b890-86af-4c4f-8fe5-4d3df25272d7","system_id":"levelo_inurba_marseille","lat":43.30136,"lon":5.37408,"is_reserved":false,"is_disabled":false,"rental_uris":{"android":"levelo://app?vid=2d83b890-86af-4c4f-8fe5-4d3df25272d7","ios":"levelo://app?vid=2d83b890-86af-4c4f-8fe5-4d3df25272d7"},"vehicle_type_id":"4","last_reported":1744211566,"current_range_meters":11200,"station_id":"ce4bgs92rcd13ifvqcc0","pricing_plan_id":"cebpf4jnsgd1na2vs0mg"},{"bike_id":"c0d4937a-b80f-4b94-9770-e7c358ce8724","system_id":"levelo_inurba_marseille","lat":43.305355,"lon":5.36527,"is_reserved":false,"is_disabled":false,"rental_uris":{"android":"levelo://app?vid=c0d4937a-b80f-4b94-9770-e7c358ce8724","ios":"levelo://app?vid=c0d4937a-b80f-4b94-9770-e7c358ce8724"},"vehicle_type_id":"4","last_reported":1744211566,"current_range_meters":11200,"station_id":"ce4bgs12rcd13ifvqcag","pricing_plan_id":"cebpf4jnsgd1na2vs0mg"},{"bike_id":"69b190d0-159b-48c9-babb-c14e37922ab6","system_id":"levelo_inurba_marseille","lat":43.2999,"lon":5.38487,"is_reserved":false,"is_disabled":false,"rental_uris":{"android":"levelo://app?vid=69b190d0-159b-48c9-babb-c14e37922ab6","ios":"levelo://app?vid=69b190d0-159b-48c9-babb-c14e37922ab6"},"vehicle_type_id":"4","last_reported":1744211566,"current_range_meters":11600,"station_id":"ce4bgj92rcd13ifvqbd0","pricing_plan_id":"cebpf4jnsgd1na2vs0mg"},{"bike_id":"cceb7ad7-e54e-4611-9259-6eccd633bf39","system_id":"levelo_inurba_marseille","lat":43.31123,"lon":5.37775,"is_reserved":false,"is_disabled":false,"rental_uris":{"android":"levelo://app?vid=cceb7ad7-e54e-4611-9259-6eccd633bf39","ios":"levelo://app?vid=cceb7ad7-e54e-4611-9259-6eccd633bf39"},"vehicle_type_id":"4","last_reported":1744211566,"current_range_meters":11600,"station_id":"ce4bgt92rcd13ifvqcg0","pricing_plan_id":"cebpf4jnsgd1na2vs0mg"},{"bike_id":"e928b71c-b3eb-42b5-ad6c-eaecbb58e874","system_id":"levelo_inurba_marseille","lat":43.21196,"lon":5.35073,"is_reserved":false,"is_disabled":false,"rental_uris":{"android":"levelo://app?vid=e928b71c-b3eb-42b5-ad6c-eaecbb58e874","ios":"levelo://app?vid=e928b71c-b3eb-42b5-ad6c-eaecbb58e874"},"vehicle_type_id":"4","last_reported":1744211566,"current_range_meters":11600,"station_id":"st_cvj6sg6p6f1abm77japg","pricing_plan_id":"cebpf4jnsgd1na2vs0mg"},{"bike_id":"e82d3cbf-6990-4eca-9743-6a7db542c284","system_id":"levelo_inurba_marseille","lat":43.32332,"lon":5.40624,"is_reserved":false,"is_disabled":false,"rental_uris":{"android":"levelo://app?vid=e82d3cbf-6990-4eca-9743-6a7db542c284","ios":"levelo://app?vid=e82d3cbf-6990-4eca-9743-6a7db542c284"},"vehicle_type_id":"4","last_reported":1744211566,"current_range_meters":11600,"station_id":"ce4bhq92rcd13ifvqhjg","pricing_plan_id":"cebpf4jnsgd1na2vs0mg"},{"bike_id":"94bc17ce-61fc-4eb1-a45b-7ebc8c51a8fe","system_id":"levelo_inurba_marseille","lat":43.29535,"lon":5.38548,"is_reserved":false,"is_disabled":false,"rental_uris":{"android":"levelo://app?vid=94bc17ce-61fc-4eb1-a45b-7ebc8c51a8fe","ios":"levelo://app?vid=94bc17ce-61fc-4eb1-a45b-7ebc8c51a8fe"},"vehicle_type_id":"4","last_reported":1744211566,"current_range_meters":12000,"station_id":"ce4bgih2rcd13ifvqba0","pricing_plan_id":"cebpf4jnsgd1na2vs0mg"},{"bike_id":"5f30a5a4-de9f-499e-b151-b811ebb3b43a","system_id":"levelo_inurba_marseille","lat":43.31056,"lon":5.38345,"is_reserved":false,"is_disabled":true,"rental_uris":{"android":"levelo://app?vid=5f30a5a4-de9f-499e-b151-b811ebb3b43a","ios":"levelo://app?vid=5f30a5a4-de9f-499e-b151-b811ebb3b43a"},"vehicle_type_id":"4","last_reported":1744211566,"current_range_meters":12000,"station_id":"ce4bgv92rcd13ifvqcr0","pricing_plan_id":"cebpf4jnsgd1na2vs0mg"},{"bike_id":"0f1226c8-7af2-45b7-a904-e2dbd4d41c85","system_id":"levelo_inurba_marseille","lat":43.3047,"lon":5.37898,"is_reserved":false,"is_disabled":false,"rental_uris":{"android":"levelo://app?vid=0f1226c8-7af2-45b7-a904-e2dbd4d41c85","ios":"levelo://app?vid=0f1226c8-7af2-45b7-a904-e2dbd4d41c85"},"vehicle_type_id":"4","last_reported":1744211566,"current_range_meters":12000,"station_id":"ce4bgup2rcd13ifvqcn0","pricing_plan_id":"cebpf4jnsgd1na2vs0mg"},{"bike_id":"1c98d87f-7412-4091-bf9a-5fdf4799f905","system_id":"levelo_inurba_marseille","lat":43.23061,"lon":5.35491,"is_reserved":false,"is_disabled":false,"rental_uris":{"android":"levelo://app?vid=1c98d87f-7412-4091-bf9a-5fdf4799f905","ios":"levelo://app?vid=1c98d87f-7412-4091-bf9a-5fdf4799f905"},"vehicle_type_id":"4","last_reported":1744211566,"current_range_meters":12400,"station_id":"cpo3342slgdg3j2ifvpg","pricing_plan_id":"cebpf4jnsgd1na2vs0mg"},{"bike_id":"91c85598-0c0b-42bf-9388-e5e9b7c7702f","system_id":"levelo_inurba_marseille","lat":43.31333,"lon":5.36713,"is_reserved":false,"is_disabled":false,"rental_uris":{"android":"levelo://app?vid=91c85598-0c0b-42bf-9388-e5e9b7c7702f","ios":"levelo://app?vid=91c85598-0c0b-42bf-9388-e5e9b7c7702f"},"vehicle_type_id":"4","last_reported":1744211566,"current_range_meters":12400,"station_id":"ce4bgr92rcd13ifvqc6g","pricing_plan_id":"cebpf4jnsgd1na2vs0mg"},{"bike_id":"51220fd5-275f-44db-a81e-280c0ca810af","system_id":"levelo_inurba_marseille","lat":43.32323,"lon":5.38542,"is_reserved":false,"is_disabled":false,"rental_uris":{"android":"levelo://app?vid=51220fd5-275f-44db-a81e-280c0ca810af","ios":"levelo://app?vid=51220fd5-275f-44db-a81e-280c0ca810af"},"vehicle_type_id":"4","last_reported":1744211566,"current_range_meters":12400,"station_id":"","pricing_plan_id":"cebpf4jnsgd1na2vs0mg"},{"bike_id":"b96be04a-adcd-4816-8c18-ee76dccce0e8","system_id":"levelo_inurba_marseille","lat":43.2418,"lon":5.36403,"is_reserved":false,"is_disabled":false,"rental_uris":{"android":"levelo://app?vid=b96be04a-adcd-4816-8c18-ee76dccce0e8","ios":"levelo://app?vid=b96be04a-adcd-4816-8c18-ee76dccce0e8"},"vehicle_type_id":"4","last_reported":1744211566,"current_range_meters":12400,"station_id":"cpo36qri1sfpv3e86is0","pricing_plan_id":"cebpf4jnsgd1na2vs0mg"},{"bike_id":"cd31cc3a-ab40-4309-83a8-d7a0e97ff33e","system_id":"levelo_inurba_marseille","lat":43.262185,"lon":5.37449,"is_reserved":false,"is_disabled":false,"rental_uris":{"android":"levelo://app?vid=cd31cc3a-ab40-4309-83a8-d7a0e97ff33e","ios":"levelo://app?vid=cd31cc3a-ab40-4309-83a8-d7a0e97ff33e"},"vehicle_type_id":"4","last_reported":1744211566,"current_range_meters":12400,"station_id":"ce4bhgp2rcd13ifvqfc0","pricing_plan_id":"cebpf4jnsgd1na2vs0mg"},{"bike_id":"8aca47b8-dcba-4e10-a490-7acd73bde0df","system_id":"levelo_inurba_marseille","lat":43.305504,"lon":5.365319,"is_reserved":false,"is_disabled":false,"rental_uris":{"android":"levelo://app?vid=8aca47b8-dcba-4e10-a490-7acd73bde0df","ios":"levelo://app?vid=8aca47b8-dcba-4e10-a490-7acd73bde0df"},"vehicle_type_id":"4","last_reported":1744211566,"current_range_meters":12800,"station_id":"ce4bgs12rcd13ifvqcag","pricing_plan_id":"cebpf4jnsgd1na2vs0mg"},{"bike_id":"f147c6df-27ae-4e7a-90c0-6893ba89129c","system_id":"levelo_inurba_marseille","lat":43.30537,"lon":5.36519,"is_reserved":false,"is_disabled":false,"rental_uris":{"android":"levelo://app?vid=f147c6df-27ae-4e7a-90c0-6893ba89129c","ios":"levelo://app?vid=f147c6df-27ae-4e7a-90c0-6893ba89129c"},"vehicle_type_id":"4","last_reported":1744211566,"current_range_meters":12800,"station_id":"ce4bgs12rcd13ifvqcag","pricing_plan_id":"cebpf4jnsgd1na2vs0mg"},{"bike_id":"1654c368-69f8-4340-a6a9-75e67328d2e9","system_id":"levelo_inurba_marseille","lat":43.258176,"lon":5.3944,"is_reserved":false,"is_disabled":false,"rental_uris":{"android":"levelo://app?vid=1654c368-69f8-4340-a6a9-75e67328d2e9","ios":"levelo://app?vid=1654c368-69f8-4340-a6a9-75e67328d2e9"},"vehicle_type_id":"4","last_reported":1744211566,"current_range_meters":12800,"station_id":"ce4bh4p2rcd13ifvqe0g","pricing_plan_id":"cebpf4jnsgd1na2vs0mg"},{"bike_id":"b336900a-56d9-404d-9747-da025e975154","system_id":"levelo_inurba_marseille","lat":43.29258,"lon":5.38446,"is_reserved":false,"is_disabled":false,"rental_uris":{"android":"levelo://app?vid=b336900a-56d9-404d-9747-da025e975154","ios":"levelo://app?vid=b336900a-56d9-404d-9747-da025e975154"},"vehicle_type_id":"4","last_reported":1744211566,"current_range_meters":13600,"station_id":"ce4bh692rcd13ifvqea0","pricing_plan_id":"cebpf4jnsgd1na2vs0mg"},{"bike_id":"9fce7fb9-26b6-4832-9f96-ea1b75c489f0","system_id":"levelo_inurba_marseille","lat":43.212,"lon":5.35115,"is_reserved":false,"is_disabled":false,"rental_uris":{"android":"levelo://app?vid=9fce7fb9-26b6-4832-9f96-ea1b75c489f0","ios":"levelo://app?vid=9fce7fb9-26b6-4832-9f96-ea1b75c489f0"},"vehicle_type_id":"4","last_reported":1744211566,"current_range_meters":13600,"station_id":"st_cvj6sg6p6f1abm77japg","pricing_plan_id":"cebpf4jnsgd1na2vs0mg"},{"bike_id":"2ef5a01f-4da6-4038-a9da-7ee7db6cbd18","system_id":"levelo_inurba_marseille","lat":43.25572,"lon":5.38223,"is_reserved":false,"is_disabled":false,"rental_uris":{"android":"levelo://app?vid=2ef5a01f-4da6-4038-a9da-7ee7db6cbd18","ios":"levelo://app?vid=2ef5a01f-4da6-4038-a9da-7ee7db6cbd18"},"vehicle_type_id":"4","last_reported":1744211566,"current_range_meters":13600,"station_id":"ce4bhih2rcd13ifvqfs0","pricing_plan_id":"cebpf4jnsgd1na2vs0mg"},{"bike_id":"53fb0077-3a65-43ca-a501-d7c36dc0627d","system_id":"levelo_inurba_marseille","lat":43.31777,"lon":5.38788,"is_reserved":false,"is_disabled":false,"rental_uris":{"android":"levelo://app?vid=53fb0077-3a65-43ca-a501-d7c36dc0627d","ios":"levelo://app?vid=53fb0077-3a65-43ca-a501-d7c36dc0627d"},"vehicle_type_id":"4","last_reported":1744211566,"current_range_meters":14000,"station_id":"","pricing_plan_id":"cebpf4jnsgd1na2vs0mg"},{"bike_id":"37967cd8-0dc5-40d7-af03-2bbfc2c2b2fc","system_id":"levelo_inurba_marseille","lat":43.27373,"lon":5.36248,"is_reserved":false,"is_disabled":false,"rental_uris":{"android":"levelo://app?vid=37967cd8-0dc5-40d7-af03-2bbfc2c2b2fc","ios":"levelo://app?vid=37967cd8-0dc5-40d7-af03-2bbfc2c2b2fc"},"vehicle_type_id":"4","last_reported":1744211566,"current_range_meters":14000,"station_id":"ce4bhbh2rcd13ifvqeo0","pricing_plan_id":"cebpf4jnsgd1na2vs0mg"},{"bike_id":"ba59a287-5cde-4e3c-9456-c804be46e990","system_id":"levelo_inurba_marseille","lat":43.29091,"lon":5.37144,"is_reserved":false,"is_disabled":false,"rental_uris":{"android":"levelo://app?vid=ba59a287-5cde-4e3c-9456-c804be46e990","ios":"levelo://app?vid=ba59a287-5cde-4e3c-9456-c804be46e990"},"vehicle_type_id":"4","last_reported":1744211566,"current_range_meters":14000,"station_id":"ce4bh5p2rcd13ifvqe4g","pricing_plan_id":"cebpf4jnsgd1na2vs0mg"},{"bike_id":"b230622e-25e8-41d8-92d0-c055abccde7f","system_id":"levelo_inurba_marseille","lat":43.303066,"lon":5.392147,"is_reserved":false,"is_disabled":false,"rental_uris":{"android":"levelo://app?vid=b230622e-25e8-41d8-92d0-c055abccde7f","ios":"levelo://app?vid=b230622e-25e8-41d8-92d0-c055abccde7f"},"vehicle_type_id":"4","last_reported":1744211566,"current_range_meters":14000,"station_id":"ce4bhch2rcd13ifvqeug","pricing_plan_id":"cebpf4jnsgd1na2vs0mg"},{"bike_id":"b4b93a64-d083-4ab2-bbd0-53609c602fb5","system_id":"levelo_inurba_marseille","lat":43.30928,"lon":5.40138,"is_reserved":false,"is_disabled":true,"rental_uris":{"android":"levelo://app?vid=b4b93a64-d083-4ab2-bbd0-53609c602fb5","ios":"levelo://app?vid=b4b93a64-d083-4ab2-bbd0-53609c602fb5"},"vehicle_type_id":"4","last_reported":1744211566,"current_range_meters":14000,"station_id":"ce4bgvp2rcd13ifvqct0","pricing_plan_id":"cebpf4jnsgd1na2vs0mg"},{"bike_id":"8736f218-cf21-4cf4-b933-ff26f8529b1a","system_id":"levelo_inurba_marseille","lat":43.28462,"lon":5.35882,"is_reserved":false,"is_disabled":false,"rental_uris":{"android":"levelo://app?vid=8736f218-cf21-4cf4-b933-ff26f8529b1a","ios":"levelo://app?vid=8736f218-cf21-4cf4-b933-ff26f8529b1a"},"vehicle_type_id":"4","last_reported":1744211566,"current_range_meters":14000,"station_id":"ce4bhah2rcd13ifvqei0","pricing_plan_id":"cebpf4jnsgd1na2vs0mg"},{"bike_id":"d44ff2b9-417e-4368-bebb-1fc974db3122","system_id":"levelo_inurba_marseille","lat":43.33644,"lon":5.39753,"is_reserved":false,"is_disabled":false,"rental_uris":{"android":"levelo://app?vid=d44ff2b9-417e-4368-bebb-1fc974db3122","ios":"levelo://app?vid=d44ff2b9-417e-4368-bebb-1fc974db3122"},"vehicle_type_id":"4","last_reported":1744211566,"current_range_meters":14000,"station_id":"","pricing_plan_id":"cebpf4jnsgd1na2vs0mg"},{"bike_id":"c369bf23-f24d-4fbc-a2a6-9db5e7f2adca","system_id":"levelo_inurba_marseille","lat":43.2763,"lon":5.36126,"is_reserved":false,"is_disabled":false,"rental_uris":{"android":"levelo://app?vid=c369bf23-f24d-4fbc-a2a6-9db5e7f2adca","ios":"levelo://app?vid=c369bf23-f24d-4fbc-a2a6-9db5e7f2adca"},"vehicle_type_id":"4","last_reported":1744211566,"current_range_meters":14400,"station_id":"ce4bgj92rcd13ifvqbe0","pricing_plan_id":"cebpf4jnsgd1na2vs0mg"},{"bike_id":"46687e7c-84b8-4f93-be29-c4b87e918af2","system_id":"levelo_inurba_marseille","lat":43.32481,"lon":5.36554,"is_reserved":false,"is_disabled":false,"rental_uris":{"android":"levelo://app?vid=46687e7c-84b8-4f93-be29-c4b87e918af2","ios":"levelo://app?vid=46687e7c-84b8-4f93-be29-c4b87e918af2"},"vehicle_type_id":"4","last_reported":1744211566,"current_range_meters":14400,"station_id":"ce4bhs12rcd13ifvqhvg","pricing_plan_id":"cebpf4jnsgd1na2vs0mg"},{"bike_id":"1a7312ba-7455-4944-ad26-cc3120037a01","system_id":"levelo_inurba_marseille","lat":43.28004,"lon":5.40014,"is_reserved":false,"is_disabled":false,"rental_uris":{"android":"levelo://app?vid=1a7312ba-7455-4944-ad26-cc3120037a01","ios":"levelo://app?vid=1a7312ba-7455-4944-ad26-cc3120037a01"},"vehicle_type_id":"4","last_reported":1744211566,"current_range_meters":14400,"station_id":"ce4bho92rcd13ifvqh4g","pricing_plan_id":"cebpf4jnsgd1na2vs0mg"},{"bike_id":"6c05bba3-0ac3-480d-b2f9-f40065cd981f","system_id":"levelo_inurba_marseille","lat":43.29796,"lon":5.40395,"is_reserved":false,"is_disabled":false,"rental_uris":{"android":"levelo://app?vid=6c05bba3-0ac3-480d-b2f9-f40065cd981f","ios":"levelo://app?vid=6c05bba3-0ac3-480d-b2f9-f40065cd981f"},"vehicle_type_id":"4","last_reported":1744211566,"current_range_meters":14800,"station_id":"ce4bh112rcd13ifvqd90","pricing_plan_id":"cebpf4jnsgd1na2vs0mg"},{"bike_id":"0c68c5ed-238f-4537-8a40-c3845465c678","system_id":"levelo_inurba_marseille","lat":43.24797,"lon":5.37456,"is_reserved":false,"is_disabled":false,"rental_uris":{"android":"levelo://app?vid=0c68c5ed-238f-4537-8a40-c3845465c678","ios":"levelo://app?vid=0c68c5ed-238f-4537-8a40-c3845465c678"},"vehicle_type_id":"4","last_reported":1744211566,"current_range_meters":14800,"station_id":"ce4bhgh2rcd13ifvqfb0","pricing_plan_id":"cebpf4jnsgd1na2vs0mg"},{"bike_id":"5431a345-8b8b-4021-86b3-3ce30b7140b9","system_id":"levelo_inurba_marseille","lat":43.29022,"lon":5.3813,"is_reserved":false,"is_disabled":false,"rental_uris":{"android":"levelo://app?vid=5431a345-8b8b-4021-86b3-3ce30b7140b9","ios":"levelo://app?vid=5431a345-8b8b-4021-86b3-3ce30b7140b9"},"vehicle_type_id":"4","last_reported":1744211566,"current_range_meters":14800,"station_id":"ce4bh4p2rcd13ifvqe1g","pricing_plan_id":"cebpf4jnsgd1na2vs0mg"},{"bike_id":"417095ad-77df-49ea-a5a5-b03d3ddc554e","system_id":"levelo_inurba_marseille","lat":43.28615,"lon":5.351,"is_reserved":false,"is_disabled":false,"rental_uris":{"android":"levelo://app?vid=417095ad-77df-49ea-a5a5-b03d3ddc554e","ios":"levelo://app?vid=417095ad-77df-49ea-a5a5-b03d3ddc554e"},"vehicle_type_id":"4","last_reported":1744211566,"current_range_meters":14800,"station_id":"ce4bhch2rcd13ifvqeug","pricing_plan_id":"cebpf4jnsgd1na2vs0mg"},{"bike_id":"24468822-6d20-42c0-b5e8-2691953ea9cf","system_id":"levelo_inurba_marseille","lat":43.25592,"lon":5.3823,"is_reserved":false,"is_disabled":false,"rental_uris":{"android":"levelo://app?vid=24468822-6d20-42c0-b5e8-2691953ea9cf","ios":"levelo://app?vid=24468822-6d20-42c0-b5e8-2691953ea9cf"},"vehicle_type_id":"4","last_reported":1744211566,"current_range_meters":15200,"station_id":"ce4bhih2rcd13ifvqfs0","pricing_plan_id":"cebpf4jnsgd1na2vs0mg"},{"bike_id":"c76085d2-f86a-47df-a28e-d08413818fe2","system_id":"levelo_inurba_marseille","lat":43.31117,"lon":5.37778,"is_reserved":false,"is_disabled":false,"rental_uris":{"android":"levelo://app?vid=c76085d2-f86a-47df-a28e-d08413818fe2","ios":"levelo://app?vid=c76085d2-f86a-47df-a28e-d08413818fe2"},"vehicle_type_id":"4","last_reported":1744211566,"current_range_meters":14800,"station_id":"ce4bgt92rcd13ifvqcg0","pricing_plan_id":"cebpf4jnsgd1na2vs0mg"},{"bike_id":"c0caac97-a957-4f01-bd7d-413a2d6a15d7","system_id":"levelo_inurba_marseille","lat":43.24804,"lon":5.37454,"is_reserved":false,"is_disabled":false,"rental_uris":{"android":"levelo://app?vid=c0caac97-a957-4f01-bd7d-413a2d6a15d7","ios":"levelo://app?vid=c0caac97-a957-4f01-bd7d-413a2d6a15d7"},"vehicle_type_id":"4","last_reported":1744211566,"current_range_meters":15200,"station_id":"ce4bhgh2rcd13ifvqfb0","pricing_plan_id":"cebpf4jnsgd1na2vs0mg"},{"bike_id":"f4b172b2-311d-4a01-828e-de94b14e76fb","system_id":"levelo_inurba_marseille","lat":43.28358,"lon":5.38097,"is_reserved":false,"is_disabled":false,"rental_uris":{"android":"levelo://app?vid=f4b172b2-311d-4a01-828e-de94b14e76fb","ios":"levelo://app?vid=f4b172b2-311d-4a01-828e-de94b14e76fb"},"vehicle_type_id":"4","last_reported":1744211566,"current_range_meters":16000,"station_id":"ce4bh412rcd13ifvqdr0","pricing_plan_id":"cebpf4jnsgd1na2vs0mg"},{"bike_id":"1de04cae-3738-4669-9c90-4bfd569a229d","system_id":"levelo_inurba_marseille","lat":43.27806,"lon":5.40712,"is_reserved":false,"is_disabled":false,"rental_uris":{"android":"levelo://app?vid=1de04cae-3738-4669-9c90-4bfd569a229d","ios":"levelo://app?vid=1de04cae-3738-4669-9c90-4bfd569a229d"},"vehicle_type_id":"4","last_reported":1744211566,"current_range_meters":16000,"station_id":"ce4bhnh2rcd13ifvqgtg","pricing_plan_id":"cebpf4jnsgd1na2vs0mg"},{"bike_id":"e38108b1-7f9c-4483-9d3e-f50742dccee7","system_id":"levelo_inurba_marseille","lat":43.29792,"lon":5.39337,"is_reserved":false,"is_disabled":false,"rental_uris":{"android":"levelo://app?vid=e38108b1-7f9c-4483-9d3e-f50742dccee7","ios":"levelo://app?vid=e38108b1-7f9c-4483-9d3e-f50742dccee7"},"vehicle_type_id":"4","last_reported":1744211566,"current_range_meters":16000,"station_id":"chh1huq6cuj3fo74tm60","pricing_plan_id":"cebpf4jnsgd1na2vs0mg"},{"bike_id":"b84b1d45-729e-47db-8c7e-e88abe2948fb","system_id":"levelo_inurba_marseille","lat":43.31717,"lon":5.42411,"is_reserved":false,"is_disabled":false,"rental_uris":{"android":"levelo://app?vid=b84b1d45-729e-47db-8c7e-e88abe2948fb","ios":"levelo://app?vid=b84b1d45-729e-47db-8c7e-e88abe2948fb"},"vehicle_type_id":"4","last_reported":1744211566,"current_range_meters":16000,"station_id":"ce4bhp92rcd13ifvqhbg","pricing_plan_id":"cebpf4jnsgd1na2vs0mg"},{"bike_id":"f559efe1-fbfe-4324-b23d-eb5c2ea8970c","system_id":"levelo_inurba_marseille","lat":43.29424,"lon":5.38618,"is_reserved":false,"is_disabled":false,"rental_uris":{"android":"levelo://app?vid=f559efe1-fbfe-4324-b23d-eb5c2ea8970c","ios":"levelo://app?vid=f559efe1-fbfe-4324-b23d-eb5c2ea8970c"},"vehicle_type_id":"4","last_reported":1744211566,"current_range_meters":16000,"station_id":"ce4bh2h2rcd13ifvqdh0","pricing_plan_id":"cebpf4jnsgd1na2vs0mg"},{"bike_id":"d3a30278-1fc8-438b-a6b9-b6523acb13c6","system_id":"levelo_inurba_marseille","lat":43.31231,"lon":5.36854,"is_reserved":false,"is_disabled":false,"rental_uris":{"android":"levelo://app?vid=d3a30278-1fc8-438b-a6b9-b6523acb13c6","ios":"levelo://app?vid=d3a30278-1fc8-438b-a6b9-b6523acb13c6"},"vehicle_type_id":"4","last_reported":1744211566,"current_range_meters":16000,"station_id":"ce4bgl92rcd13ifvqbq0","pricing_plan_id":"cebpf4jnsgd1na2vs0mg"},{"bike_id":"3e193bf4-ed71-43ce-9a37-9a250214b00c","system_id":"levelo_inurba_marseille","lat":43.27376,"lon":5.36251,"is_reserved":false,"is_disabled":false,"rental_uris":{"android":"levelo://app?vid=3e193bf4-ed71-43ce-9a37-9a250214b00c","ios":"levelo://app?vid=3e193bf4-ed71-43ce-9a37-9a250214b00c"},"vehicle_type_id":"4","last_reported":1744211566,"current_range_meters":16000,"station_id":"ce4bhbh2rcd13ifvqeo0","pricing_plan_id":"cebpf4jnsgd1na2vs0mg"},{"bike_id":"d7adffc4-cf62-4fea-aaaf-6657cbfbb451","system_id":"levelo_inurba_marseille","lat":43.28856,"lon":5.35852,"is_reserved":false,"is_disabled":true,"rental_uris":{"android":"levelo://app?vid=d7adffc4-cf62-4fea-aaaf-6657cbfbb451","ios":"levelo://app?vid=d7adffc4-cf62-4fea-aaaf-6657cbfbb451"},"vehicle_type_id":"4","last_reported":1744211566,"current_range_meters":16400,"station_id":"ce4bhb12rcd13ifvqem0","pricing_plan_id":"cebpf4jnsgd1na2vs0mg"},{"bike_id":"cef98494-47e7-4a86-a3a7-20388ed6a6a1","system_id":"levelo_inurba_marseille","lat":43.29245,"lon":5.37608,"is_reserved":false,"is_disabled":false,"rental_uris":{"android":"levelo://app?vid=cef98494-47e7-4a86-a3a7-20388ed6a6a1","ios":"levelo://app?vid=cef98494-47e7-4a86-a3a7-20388ed6a6a1"},"vehicle_type_id":"4","last_reported":1744211566,"current_range_meters":16400,"station_id":"ce4bgi12rcd13ifvqb80","pricing_plan_id":"cebpf4jnsgd1na2vs0mg"},{"bike_id":"9b7966f3-0ee7-44d2-9cf1-b4511be6c0bb","system_id":"levelo_inurba_marseille","lat":43.27311,"lon":5.3907,"is_reserved":false,"is_disabled":false,"rental_uris":{"android":"levelo://app?vid=9b7966f3-0ee7-44d2-9cf1-b4511be6c0bb","ios":"levelo://app?vid=9b7966f3-0ee7-44d2-9cf1-b4511be6c0bb"},"vehicle_type_id":"4","last_reported":1744211566,"current_range_meters":16000,"station_id":"ce4bhgp2rcd13ifvqfe0","pricing_plan_id":"cebpf4jnsgd1na2vs0mg"},{"bike_id":"239d175f-690e-4522-81fb-5227b6ca202a","system_id":"levelo_inurba_marseille","lat":43.31756,"lon":5.39013,"is_reserved":false,"is_disabled":false,"rental_uris":{"android":"levelo://app?vid=239d175f-690e-4522-81fb-5227b6ca202a","ios":"levelo://app?vid=239d175f-690e-4522-81fb-5227b6ca202a"},"vehicle_type_id":"4","last_reported":1744211566,"current_range_meters":16400,"station_id":"ce4bhqp2rcd13ifvqhng","pricing_plan_id":"cebpf4jnsgd1na2vs0mg"},{"bike_id":"42c1fdc6-38af-4ea1-a910-702e15d5a9b4","system_id":"levelo_inurba_marseille","lat":43.30909,"lon":5.40145,"is_reserved":false,"is_disabled":true,"rental_uris":{"android":"levelo://app?vid=42c1fdc6-38af-4ea1-a910-702e15d5a9b4","ios":"levelo://app?vid=42c1fdc6-38af-4ea1-a910-702e15d5a9b4"},"vehicle_type_id":"4","last_reported":1744211566,"current_range_meters":16400,"station_id":"ce4bgvp2rcd13ifvqct0","pricing_plan_id":"cebpf4jnsgd1na2vs0mg"},{"bike_id":"9b707f39-8a91-47a1-afe5-0c6d90ae57f5","system_id":"levelo_inurba_marseille","lat":43.305306,"lon":5.365284,"is_reserved":false,"is_disabled":false,"rental_uris":{"android":"levelo://app?vid=9b707f39-8a91-47a1-afe5-0c6d90ae57f5","ios":"levelo://app?vid=9b707f39-8a91-47a1-afe5-0c6d90ae57f5"},"vehicle_type_id":"4","last_reported":1744211566,"current_range_meters":16400,"station_id":"ce4bgs12rcd13ifvqcag","pricing_plan_id":"cebpf4jnsgd1na2vs0mg"},{"bike_id":"c55184d3-fbbd-4f0a-a6fc-c4d88e36e900","system_id":"levelo_inurba_marseille","lat":43.3053,"lon":5.36552,"is_reserved":false,"is_disabled":false,"rental_uris":{"android":"levelo://app?vid=c55184d3-fbbd-4f0a-a6fc-c4d88e36e900","ios":"levelo://app?vid=c55184d3-fbbd-4f0a-a6fc-c4d88e36e900"},"vehicle_type_id":"4","last_reported":1744211566,"current_range_meters":16400,"station_id":"ce4bgs12rcd13ifvqcag","pricing_plan_id":"cebpf4jnsgd1na2vs0mg"},{"bike_id":"875883da-a830-4c1a-8530-93fae3774448","system_id":"levelo_inurba_marseille","lat":43.30531,"lon":5.3654,"is_reserved":false,"is_disabled":false,"rental_uris":{"android":"levelo://app?vid=875883da-a830-4c1a-8530-93fae3774448","ios":"levelo://app?vid=875883da-a830-4c1a-8530-93fae3774448"},"vehicle_type_id":"4","last_reported":1744211566,"current_range_meters":16800,"station_id":"ce4bgs12rcd13ifvqcag","pricing_plan_id":"cebpf4jnsgd1na2vs0mg"},{"bike_id":"9d8338ba-9d5e-43b1-b64a-c1e2bd9c7126","system_id":"levelo_inurba_marseille","lat":43.28467,"lon":5.3588,"is_reserved":false,"is_disabled":false,"rental_uris":{"android":"levelo://app?vid=9d8338ba-9d5e-43b1-b64a-c1e2bd9c7126","ios":"levelo://app?vid=9d8338ba-9d5e-43b1-b64a-c1e2bd9c7126"},"vehicle_type_id":"4","last_reported":1744211566,"current_range_meters":16800,"station_id":"ce4bhah2rcd13ifvqei0","pricing_plan_id":"cebpf4jnsgd1na2vs0mg"},{"bike_id":"35a6949c-4268-4108-81f5-1cdb702f11ad","system_id":"levelo_inurba_marseille","lat":43.29263,"lon":5.38435,"is_reserved":false,"is_disabled":false,"rental_uris":{"android":"levelo://app?vid=35a6949c-4268-4108-81f5-1cdb702f11ad","ios":"levelo://app?vid=35a6949c-4268-4108-81f5-1cdb702f11ad"},"vehicle_type_id":"4","last_reported":1744211566,"current_range_meters":16800,"station_id":"ce4bh692rcd13ifvqea0","pricing_plan_id":"cebpf4jnsgd1na2vs0mg"},{"bike_id":"63253410-eddf-465c-a44f-5d79059287e6","system_id":"levelo_inurba_marseille","lat":43.292084,"lon":5.384016,"is_reserved":false,"is_disabled":false,"rental_uris":{"android":"levelo://app?vid=63253410-eddf-465c-a44f-5d79059287e6","ios":"levelo://app?vid=63253410-eddf-465c-a44f-5d79059287e6"},"vehicle_type_id":"4","last_reported":1744211566,"current_range_meters":16800,"station_id":"ce4bgip2rcd13ifvqbb0","pricing_plan_id":"cebpf4jnsgd1na2vs0mg"},{"bike_id":"23024458-c06e-407b-8b70-542cb27e5baa","system_id":"levelo_inurba_marseille","lat":43.29061,"lon":5.37163,"is_reserved":false,"is_disabled":false,"rental_uris":{"android":"levelo://app?vid=23024458-c06e-407b-8b70-542cb27e5baa","ios":"levelo://app?vid=23024458-c06e-407b-8b70-542cb27e5baa"},"vehicle_type_id":"4","last_reported":1744211566,"current_range_meters":16800,"station_id":"ce4bgqh2rcd13ifvqc4g","pricing_plan_id":"cebpf4jnsgd1na2vs0mg"},{"bike_id":"1a3cd0ab-ec77-41b3-982c-74e5093499a8","system_id":"levelo_inurba_marseille","lat":43.3046,"lon":5.3891,"is_reserved":false,"is_disabled":true,"rental_uris":{"android":"levelo://app?vid=1a3cd0ab-ec77-41b3-982c-74e5093499a8","ios":"levelo://app?vid=1a3cd0ab-ec77-41b3-982c-74e5093499a8"},"vehicle_type_id":"4","last_reported":1744211566,"current_range_meters":16800,"station_id":"ce4bgk12rcd13ifvqbi0","pricing_plan_id":"cebpf4jnsgd1na2vs0mg"},{"bike_id":"b6a29bc3-2f4e-454c-8957-df3b897c452a","system_id":"levelo_inurba_marseille","lat":43.30888,"lon":5.37182,"is_reserved":false,"is_disabled":false,"rental_uris":{"android":"levelo://app?vid=b6a29bc3-2f4e-454c-8957-df3b897c452a","ios":"levelo://app?vid=b6a29bc3-2f4e-454c-8957-df3b897c452a"},"vehicle_type_id":"4","last_reported":1744211566,"current_range_meters":17200,"station_id":"ce4bguh2rcd13ifvqckg","pricing_plan_id":"cebpf4jnsgd1na2vs0mg"},{"bike_id":"b0e7c080-9b32-4fb1-ae6b-91b2f1cae096","system_id":"levelo_inurba_marseille","lat":43.305597,"lon":5.365569,"is_reserved":false,"is_disabled":false,"rental_uris":{"android":"levelo://app?vid=b0e7c080-9b32-4fb1-ae6b-91b2f1cae096","ios":"levelo://app?vid=b0e7c080-9b32-4fb1-ae6b-91b2f1cae096"},"vehicle_type_id":"4","last_reported":1744211566,"current_range_meters":17200,"station_id":"ce4bgs12rcd13ifvqcag","pricing_plan_id":"cebpf4jnsgd1na2vs0mg"},{"bike_id":"2a656228-8e25-4fb1-bf63-12fd5fe6e637","system_id":"levelo_inurba_marseille","lat":43.24804,"lon":5.37455,"is_reserved":false,"is_disabled":false,"rental_uris":{"android":"levelo://app?vid=2a656228-8e25-4fb1-bf63-12fd5fe6e637","ios":"levelo://app?vid=2a656228-8e25-4fb1-bf63-12fd5fe6e637"},"vehicle_type_id":"4","last_reported":1744211566,"current_range_meters":17200,"station_id":"ce4bhgh2rcd13ifvqfb0","pricing_plan_id":"cebpf4jnsgd1na2vs0mg"},{"bike_id":"ceb42bda-17b0-473f-a990-ea6bbdd336ff","system_id":"levelo_inurba_marseille","lat":43.21747,"lon":5.34602,"is_reserved":false,"is_disabled":false,"rental_uris":{"android":"levelo://app?vid=ceb42bda-17b0-473f-a990-ea6bbdd336ff","ios":"levelo://app?vid=ceb42bda-17b0-473f-a990-ea6bbdd336ff"},"vehicle_type_id":"4","last_reported":1744211566,"current_range_meters":17200,"station_id":"st_cvj6r9ubvosntc0bgbag","pricing_plan_id":"cebpf4jnsgd1na2vs0mg"},{"bike_id":"bcf8ebda-feb8-45a7-8b40-70acfe26d606","system_id":"levelo_inurba_marseille","lat":43.29619,"lon":5.37726,"is_reserved":false,"is_disabled":false,"rental_uris":{"android":"levelo://app?vid=bcf8ebda-feb8-45a7-8b40-70acfe26d606","ios":"levelo://app?vid=bcf8ebda-feb8-45a7-8b40-70acfe26d606"},"vehicle_type_id":"4","last_reported":1744211566,"current_range_meters":14400,"station_id":"ce4bgi92rcd13ifvqb90","pricing_plan_id":"cebpf4jnsgd1na2vs0mg"},{"bike_id":"491b14d5-539f-4d1b-9622-fb7897ba4d0e","system_id":"levelo_inurba_marseille","lat":43.330297,"lon":5.390407,"is_reserved":false,"is_disabled":false,"rental_uris":{"android":"levelo://app?vid=491b14d5-539f-4d1b-9622-fb7897ba4d0e","ios":"levelo://app?vid=491b14d5-539f-4d1b-9622-fb7897ba4d0e"},"vehicle_type_id":"4","last_reported":1744211566,"current_range_meters":17200,"station_id":"ce4bhr92rcd13ifvqhrg","pricing_plan_id":"cebpf4jnsgd1na2vs0mg"},{"bike_id":"b117601f-f6ac-4d4e-a559-6e65eada87c0","system_id":"levelo_inurba_marseille","lat":43.2942,"lon":5.3862,"is_reserved":false,"is_disabled":false,"rental_uris":{"android":"levelo://app?vid=b117601f-f6ac-4d4e-a559-6e65eada87c0","ios":"levelo://app?vid=b117601f-f6ac-4d4e-a559-6e65eada87c0"},"vehicle_type_id":"4","last_reported":1744211566,"current_range_meters":17200,"station_id":"ce4bh2h2rcd13ifvqdh0","pricing_plan_id":"cebpf4jnsgd1na2vs0mg"},{"bike_id":"e84b8cf3-23a0-41ed-a7da-d8ee52f95923","system_id":"levelo_inurba_marseille","lat":43.27619,"lon":5.36118,"is_reserved":false,"is_disabled":false,"rental_uris":{"android":"levelo://app?vid=e84b8cf3-23a0-41ed-a7da-d8ee52f95923","ios":"levelo://app?vid=e84b8cf3-23a0-41ed-a7da-d8ee52f95923"},"vehicle_type_id":"4","last_reported":1744211566,"current_range_meters":17200,"station_id":"ce4bgj92rcd13ifvqbe0","pricing_plan_id":"cebpf4jnsgd1na2vs0mg"},{"bike_id":"e3e40c0c-3f68-416d-a3df-3012d9865a14","system_id":"levelo_inurba_marseille","lat":43.28723,"lon":5.36089,"is_reserved":false,"is_disabled":false,"rental_uris":{"android":"levelo://app?vid=e3e40c0c-3f68-416d-a3df-3012d9865a14","ios":"levelo://app?vid=e3e40c0c-3f68-416d-a3df-3012d9865a14"},"vehicle_type_id":"4","last_reported":1744211566,"current_range_meters":17600,"station_id":"cki0cbj6b192h4jlfktg","pricing_plan_id":"cebpf4jnsgd1na2vs0mg"},{"bike_id":"54779b12-5c54-4875-b2f4-a4667ea519d2","system_id":"levelo_inurba_marseille","lat":43.301419,"lon":5.374747,"is_reserved":false,"is_disabled":false,"rental_uris":{"android":"levelo://app?vid=54779b12-5c54-4875-b2f4-a4667ea519d2","ios":"levelo://app?vid=54779b12-5c54-4875-b2f4-a4667ea519d2"},"vehicle_type_id":"4","last_reported":1744211566,"current_range_meters":18000,"station_id":"ce4bgjh2rcd13ifvqbf0","pricing_plan_id":"cebpf4jnsgd1na2vs0mg"},{"bike_id":"29fb479e-2ab9-4fea-8f90-2ba76c3d0194","system_id":"levelo_inurba_marseille","lat":43.24665,"lon":5.38126,"is_reserved":false,"is_disabled":false,"rental_uris":{"android":"levelo://app?vid=29fb479e-2ab9-4fea-8f90-2ba76c3d0194","ios":"levelo://app?vid=29fb479e-2ab9-4fea-8f90-2ba76c3d0194"},"vehicle_type_id":"4","last_reported":1744211566,"current_range_meters":18000,"station_id":"ce4bhih2rcd13ifvqfr0","pricing_plan_id":"cebpf4jnsgd1na2vs0mg"},{"bike_id":"e3c3a051-8134-4ed3-913b-374aa217874c","system_id":"levelo_inurba_marseille","lat":43.2559,"lon":5.40455,"is_reserved":false,"is_disabled":false,"rental_uris":{"android":"levelo://app?vid=e3c3a051-8134-4ed3-913b-374aa217874c","ios":"levelo://app?vid=e3c3a051-8134-4ed3-913b-374aa217874c"},"vehicle_type_id":"4","last_reported":1744211566,"current_range_meters":18000,"station_id":"","pricing_plan_id":"cebpf4jnsgd1na2vs0mg"},{"bike_id":"066918e9-658d-41fb-94df-83bd20a02c25","system_id":"levelo_inurba_marseille","lat":43.23072,"lon":5.35488,"is_reserved":false,"is_disabled":false,"rental_uris":{"android":"levelo://app?vid=066918e9-658d-41fb-94df-83bd20a02c25","ios":"levelo://app?vid=066918e9-658d-41fb-94df-83bd20a02c25"},"vehicle_type_id":"4","last_reported":1744211566,"current_range_meters":18000,"station_id":"cpo3342slgdg3j2ifvpg","pricing_plan_id":"cebpf4jnsgd1na2vs0mg"},{"bike_id":"2ab54020-df93-4f6b-8cd1-9b0e84795bda","system_id":"levelo_inurba_marseille","lat":43.30532,"lon":5.36541,"is_reserved":false,"is_disabled":false,"rental_uris":{"android":"levelo://app?vid=2ab54020-df93-4f6b-8cd1-9b0e84795bda","ios":"levelo://app?vid=2ab54020-df93-4f6b-8cd1-9b0e84795bda"},"vehicle_type_id":"4","last_reported":1744211566,"current_range_meters":18000,"station_id":"ce4bgs12rcd13ifvqcag","pricing_plan_id":"cebpf4jnsgd1na2vs0mg"},{"bike_id":"640b6901-af87-4cbb-84ba-cf000e7c8d63","system_id":"levelo_inurba_marseille","lat":43.26492,"lon":5.39542,"is_reserved":false,"is_disabled":true,"rental_uris":{"android":"levelo://app?vid=640b6901-af87-4cbb-84ba-cf000e7c8d63","ios":"levelo://app?vid=640b6901-af87-4cbb-84ba-cf000e7c8d63"},"vehicle_type_id":"4","last_reported":1744211566,"current_range_meters":18000,"station_id":"ce4bhi12rcd13ifvqfq0","pricing_plan_id":"cebpf4jnsgd1na2vs0mg"},{"bike_id":"e5c60aee-59da-4751-b54b-7a9501fb2c0a","system_id":"levelo_inurba_marseille","lat":43.29805,"lon":5.38097,"is_reserved":false,"is_disabled":false,"rental_uris":{"android":"levelo://app?vid=e5c60aee-59da-4751-b54b-7a9501fb2c0a","ios":"levelo://app?vid=e5c60aee-59da-4751-b54b-7a9501fb2c0a"},"vehicle_type_id":"4","last_reported":1744211566,"current_range_meters":18000,"station_id":"ce4bgip2rcd13ifvqbb0","pricing_plan_id":"cebpf4jnsgd1na2vs0mg"},{"bike_id":"d1f92f28-9609-4256-bd4a-880c7b09d4e8","system_id":"levelo_inurba_marseille","lat":43.2933,"lon":5.41133,"is_reserved":false,"is_disabled":false,"rental_uris":{"android":"levelo://app?vid=d1f92f28-9609-4256-bd4a-880c7b09d4e8","ios":"levelo://app?vid=d1f92f28-9609-4256-bd4a-880c7b09d4e8"},"vehicle_type_id":"4","last_reported":1744211566,"current_range_meters":18000,"station_id":"","pricing_plan_id":"cebpf4jnsgd1na2vs0mg"},{"bike_id":"1bc8c418-4185-4c56-91f1-4c3054770205","system_id":"levelo_inurba_marseille","lat":43.2957,"lon":5.39985,"is_reserved":false,"is_disabled":false,"rental_uris":{"android":"levelo://app?vid=1bc8c418-4185-4c56-91f1-4c3054770205","ios":"levelo://app?vid=1bc8c418-4185-4c56-91f1-4c3054770205"},"vehicle_type_id":"4","last_reported":1744211566,"current_range_meters":18800,"station_id":"ce4bh312rcd13ifvqdj0","pricing_plan_id":"cebpf4jnsgd1na2vs0mg"},{"bike_id":"b24c0d5d-425d-43d6-9cf5-49c265f50228","system_id":"levelo_inurba_marseille","lat":43.27206,"lon":5.39181,"is_reserved":false,"is_disabled":false,"rental_uris":{"android":"levelo://app?vid=b24c0d5d-425d-43d6-9cf5-49c265f50228","ios":"levelo://app?vid=b24c0d5d-425d-43d6-9cf5-49c265f50228"},"vehicle_type_id":"4","last_reported":1744211566,"current_range_meters":18800,"station_id":"ce4bhhp2rcd13ifvqfm0","pricing_plan_id":"cebpf4jnsgd1na2vs0mg"},{"bike_id":"87f09235-4a25-440f-b8e8-3bbf3033c72a","system_id":"levelo_inurba_marseille","lat":43.272105,"lon":5.39193,"is_reserved":false,"is_disabled":false,"rental_uris":{"android":"levelo://app?vid=87f09235-4a25-440f-b8e8-3bbf3033c72a","ios":"levelo://app?vid=87f09235-4a25-440f-b8e8-3bbf3033c72a"},"vehicle_type_id":"4","last_reported":1744211566,"current_range_meters":18800,"station_id":"ce4bhhp2rcd13ifvqfm0","pricing_plan_id":"cebpf4jnsgd1na2vs0mg"},{"bike_id":"ac60a767-378f-45d6-984a-37bf7e8078c6","system_id":"levelo_inurba_marseille","lat":43.25868,"lon":5.39898,"is_reserved":false,"is_disabled":false,"rental_uris":{"android":"levelo://app?vid=ac60a767-378f-45d6-984a-37bf7e8078c6","ios":"levelo://app?vid=ac60a767-378f-45d6-984a-37bf7e8078c6"},"vehicle_type_id":"4","last_reported":1744211566,"current_range_meters":18000,"station_id":"ce4bhl92rcd13ifvqghg","pricing_plan_id":"cebpf4jnsgd1na2vs0mg"},{"bike_id":"be1582b6-72f5-48bb-9d26-94e4a91d6e07","system_id":"levelo_inurba_marseille","lat":43.24177,"lon":5.36402,"is_reserved":false,"is_disabled":false,"rental_uris":{"android":"levelo://app?vid=be1582b6-72f5-48bb-9d26-94e4a91d6e07","ios":"levelo://app?vid=be1582b6-72f5-48bb-9d26-94e4a91d6e07"},"vehicle_type_id":"4","last_reported":1744211566,"current_range_meters":18800,"station_id":"cpo36qri1sfpv3e86is0","pricing_plan_id":"cebpf4jnsgd1na2vs0mg"},{"bike_id":"42e9026a-fbf4-47a2-9551-c5037ee4c6ae","system_id":"levelo_inurba_marseille","lat":43.31722,"lon":5.43706,"is_reserved":false,"is_disabled":false,"rental_uris":{"android":"levelo://app?vid=42e9026a-fbf4-47a2-9551-c5037ee4c6ae","ios":"levelo://app?vid=42e9026a-fbf4-47a2-9551-c5037ee4c6ae"},"vehicle_type_id":"4","last_reported":1744211566,"current_range_meters":18800,"station_id":"ce4bhp92rcd13ifvqhcg","pricing_plan_id":"cebpf4jnsgd1na2vs0mg"},{"bike_id":"39d569f2-804d-4c1f-93cb-ffdd8bba0563","system_id":"levelo_inurba_marseille","lat":43.30542,"lon":5.38433,"is_reserved":false,"is_disabled":true,"rental_uris":{"android":"levelo://app?vid=39d569f2-804d-4c1f-93cb-ffdd8bba0563","ios":"levelo://app?vid=39d569f2-804d-4c1f-93cb-ffdd8bba0563"},"vehicle_type_id":"4","last_reported":1744211566,"current_range_meters":19200,"station_id":"ce4bgg92rcd13ifvqb30","pricing_plan_id":"cebpf4jnsgd1na2vs0mg"},{"bike_id":"c01d2614-49eb-48f4-89f5-36d8c1586bb5","system_id":"levelo_inurba_marseille","lat":43.30602,"lon":5.3722,"is_reserved":false,"is_disabled":false,"rental_uris":{"android":"levelo://app?vid=c01d2614-49eb-48f4-89f5-36d8c1586bb5","ios":"levelo://app?vid=c01d2614-49eb-48f4-89f5-36d8c1586bb5"},"vehicle_type_id":"4","last_reported":1744211566,"current_range_meters":19200,"station_id":"ce4bgqh2rcd13ifvqc4g","pricing_plan_id":"cebpf4jnsgd1na2vs0mg"},{"bike_id":"1b510006-e1b6-4f90-9327-e7320f73311d","system_id":"levelo_inurba_marseille","lat":43.28614,"lon":5.35096,"is_reserved":false,"is_disabled":false,"rental_uris":{"android":"levelo://app?vid=1b510006-e1b6-4f90-9327-e7320f73311d","ios":"levelo://app?vid=1b510006-e1b6-4f90-9327-e7320f73311d"},"vehicle_type_id":"4","last_reported":1744211566,"current_range_meters":19200,"station_id":"ce4bhch2rcd13ifvqeug","pricing_plan_id":"cebpf4jnsgd1na2vs0mg"},{"bike_id":"3353e334-96f1-43e5-9158-49fcb5af13c7","system_id":"levelo_inurba_marseille","lat":43.30316,"lon":5.39211,"is_reserved":false,"is_disabled":false,"rental_uris":{"android":"levelo://app?vid=3353e334-96f1-43e5-9158-49fcb5af13c7","ios":"levelo://app?vid=3353e334-96f1-43e5-9158-49fcb5af13c7"},"vehicle_type_id":"4","last_reported":1744211566,"current_range_meters":19200,"station_id":"ce4bgkh2rcd13ifvqbk0","pricing_plan_id":"cebpf4jnsgd1na2vs0mg"},{"bike_id":"ef291804-1477-432e-b153-82ea15725418","system_id":"levelo_inurba_marseille","lat":43.33768,"lon":5.37471,"is_reserved":false,"is_disabled":false,"rental_uris":{"android":"levelo://app?vid=ef291804-1477-432e-b153-82ea15725418","ios":"levelo://app?vid=ef291804-1477-432e-b153-82ea15725418"},"vehicle_type_id":"4","last_reported":1744211566,"current_range_meters":19200,"station_id":"","pricing_plan_id":"cebpf4jnsgd1na2vs0mg"},{"bike_id":"0a6691d7-4d5a-4d62-9396-bdc88bd7d2c4","system_id":"levelo_inurba_marseille","lat":43.2319,"lon":5.39981,"is_reserved":false,"is_disabled":false,"rental_uris":{"android":"levelo://app?vid=0a6691d7-4d5a-4d62-9396-bdc88bd7d2c4","ios":"levelo://app?vid=0a6691d7-4d5a-4d62-9396-bdc88bd7d2c4"},"vehicle_type_id":"4","last_reported":1744211566,"current_range_meters":18800,"station_id":"ce4bhn12rcd13ifvqgqg","pricing_plan_id":"cebpf4jnsgd1na2vs0mg"},{"bike_id":"761ab4c6-4800-4be8-a1fe-1b0640d4f959","system_id":"levelo_inurba_marseille","lat":43.32278,"lon":5.3765,"is_reserved":false,"is_disabled":false,"rental_uris":{"android":"levelo://app?vid=761ab4c6-4800-4be8-a1fe-1b0640d4f959","ios":"levelo://app?vid=761ab4c6-4800-4be8-a1fe-1b0640d4f959"},"vehicle_type_id":"4","last_reported":1744211566,"current_range_meters":19200,"station_id":"","pricing_plan_id":"cebpf4jnsgd1na2vs0mg"},{"bike_id":"3a444846-729f-44f1-8ea0-f4084e842394","system_id":"levelo_inurba_marseille","lat":43.27906,"lon":5.38003,"is_reserved":false,"is_disabled":false,"rental_uris":{"android":"levelo://app?vid=3a444846-729f-44f1-8ea0-f4084e842394","ios":"levelo://app?vid=3a444846-729f-44f1-8ea0-f4084e842394"},"vehicle_type_id":"4","last_reported":1744211566,"current_range_meters":19200,"station_id":"ce4bhf92rcd13ifvqf50","pricing_plan_id":"cebpf4jnsgd1na2vs0mg"},{"bike_id":"111b7fb2-fdcc-4598-98df-44b627d72a55","system_id":"levelo_inurba_marseille","lat":43.28928,"lon":5.38407,"is_reserved":false,"is_disabled":false,"rental_uris":{"android":"levelo://app?vid=111b7fb2-fdcc-4598-98df-44b627d72a55","ios":"levelo://app?vid=111b7fb2-fdcc-4598-98df-44b627d72a55"},"vehicle_type_id":"4","last_reported":1744211566,"current_range_meters":19200,"station_id":"ce4bh612rcd13ifvqe6g","pricing_plan_id":"cebpf4jnsgd1na2vs0mg"},{"bike_id":"231aaa88-1e79-4a74-a543-651d8fd5a027","system_id":"levelo_inurba_marseille","lat":43.33081,"lon":5.40512,"is_reserved":false,"is_disabled":false,"rental_uris":{"android":"levelo://app?vid=231aaa88-1e79-4a74-a543-651d8fd5a027","ios":"levelo://app?vid=231aaa88-1e79-4a74-a543-651d8fd5a027"},"vehicle_type_id":"4","last_reported":1744211566,"current_range_meters":19600,"station_id":"","pricing_plan_id":"cebpf4jnsgd1na2vs0mg"},{"bike_id":"d635783b-67d0-4c6f-b21d-1ae304a20885","system_id":"levelo_inurba_marseille","lat":43.3134,"lon":5.39692,"is_reserved":false,"is_disabled":false,"rental_uris":{"android":"levelo://app?vid=d635783b-67d0-4c6f-b21d-1ae304a20885","ios":"levelo://app?vid=d635783b-67d0-4c6f-b21d-1ae304a20885"},"vehicle_type_id":"4","last_reported":1744211566,"current_range_meters":19200,"station_id":"ce4bgvp2rcd13ifvqcu0","pricing_plan_id":"cebpf4jnsgd1na2vs0mg"},{"bike_id":"f8b72f54-86d9-487f-83e1-e4cbea371977","system_id":"levelo_inurba_marseille","lat":43.30592,"lon":5.39355,"is_reserved":false,"is_disabled":false,"rental_uris":{"android":"levelo://app?vid=f8b72f54-86d9-487f-83e1-e4cbea371977","ios":"levelo://app?vid=f8b72f54-86d9-487f-83e1-e4cbea371977"},"vehicle_type_id":"4","last_reported":1744211566,"current_range_meters":19600,"station_id":"ce4bh0p2rcd13ifvqd80","pricing_plan_id":"cebpf4jnsgd1na2vs0mg"},{"bike_id":"2b54a496-5bb2-42c4-bb01-6f1e5c2215a7","system_id":"levelo_inurba_marseille","lat":43.30815,"lon":5.37675,"is_reserved":false,"is_disabled":true,"rental_uris":{"android":"levelo://app?vid=2b54a496-5bb2-42c4-bb01-6f1e5c2215a7","ios":"levelo://app?vid=2b54a496-5bb2-42c4-bb01-6f1e5c2215a7"},"vehicle_type_id":"4","last_reported":1744211566,"current_range_meters":19600,"station_id":"ce4bgv92rcd13ifvqcq0","pricing_plan_id":"cebpf4jnsgd1na2vs0mg"},{"bike_id":"3debd7b6-6720-40a7-98f7-9554a05a5f53","system_id":"levelo_inurba_marseille","lat":43.28939,"lon":5.39629,"is_reserved":false,"is_disabled":false,"rental_uris":{"android":"levelo://app?vid=3debd7b6-6720-40a7-98f7-9554a05a5f53","ios":"levelo://app?vid=3debd7b6-6720-40a7-98f7-9554a05a5f53"},"vehicle_type_id":"4","last_reported":1744211566,"current_range_meters":19600,"station_id":"ce4bh3h2rcd13ifvqdn0","pricing_plan_id":"cebpf4jnsgd1na2vs0mg"},{"bike_id":"dcf2b0fd-e733-460c-90f0-8a7f9526959a","system_id":"levelo_inurba_marseille","lat":43.29602,"lon":5.37057,"is_reserved":false,"is_disabled":false,"rental_uris":{"android":"levelo://app?vid=dcf2b0fd-e733-460c-90f0-8a7f9526959a","ios":"levelo://app?vid=dcf2b0fd-e733-460c-90f0-8a7f9526959a"},"vehicle_type_id":"4","last_reported":1744211566,"current_range_meters":19600,"station_id":"","pricing_plan_id":"cebpf4jnsgd1na2vs0mg"},{"bike_id":"40ab8110-1b5b-47fe-8e36-b8a5eeb6839f","system_id":"levelo_inurba_marseille","lat":43.28273,"lon":5.35074,"is_reserved":false,"is_disabled":false,"rental_uris":{"android":"levelo://app?vid=40ab8110-1b5b-47fe-8e36-b8a5eeb6839f","ios":"levelo://app?vid=40ab8110-1b5b-47fe-8e36-b8a5eeb6839f"},"vehicle_type_id":"4","last_reported":1744211566,"current_range_meters":19600,"station_id":"ce4bhbp2rcd13ifvqerg","pricing_plan_id":"cebpf4jnsgd1na2vs0mg"},{"bike_id":"a4f16448-d95e-41cb-b40e-f59aa80b277f","system_id":"levelo_inurba_marseille","lat":43.29056,"lon":5.35909,"is_reserved":false,"is_disabled":false,"rental_uris":{"android":"levelo://app?vid=a4f16448-d95e-41cb-b40e-f59aa80b277f","ios":"levelo://app?vid=a4f16448-d95e-41cb-b40e-f59aa80b277f"},"vehicle_type_id":"4","last_reported":1744211566,"current_range_meters":19600,"station_id":"ce4bha92rcd13ifvqeg0","pricing_plan_id":"cebpf4jnsgd1na2vs0mg"},{"bike_id":"27a722dd-c748-479a-835e-5e10f9714b92","system_id":"levelo_inurba_marseille","lat":43.25496,"lon":5.37647,"is_reserved":false,"is_disabled":false,"rental_uris":{"android":"levelo://app?vid=27a722dd-c748-479a-835e-5e10f9714b92","ios":"levelo://app?vid=27a722dd-c748-479a-835e-5e10f9714b92"},"vehicle_type_id":"4","last_reported":1744211566,"current_range_meters":20000,"station_id":"ce4bhh12rcd13ifvqff0","pricing_plan_id":"cebpf4jnsgd1na2vs0mg"},{"bike_id":"682978c5-4216-4357-9cf5-063f816af533","system_id":"levelo_inurba_marseille","lat":43.2803,"lon":5.36953,"is_reserved":false,"is_disabled":false,"rental_uris":{"android":"levelo://app?vid=682978c5-4216-4357-9cf5-063f816af533","ios":"levelo://app?vid=682978c5-4216-4357-9cf5-063f816af533"},"vehicle_type_id":"4","last_reported":1744211566,"current_range_meters":20000,"station_id":"ce4bha12rcd13ifvqef0","pricing_plan_id":"cebpf4jnsgd1na2vs0mg"},{"bike_id":"17259cc4-291c-4bb1-8f25-09782e06e280","system_id":"levelo_inurba_marseille","lat":43.29422,"lon":5.38636,"is_reserved":false,"is_disabled":false,"rental_uris":{"android":"levelo://app?vid=17259cc4-291c-4bb1-8f25-09782e06e280","ios":"levelo://app?vid=17259cc4-291c-4bb1-8f25-09782e06e280"},"vehicle_type_id":"4","last_reported":1744211566,"current_range_meters":20000,"station_id":"ce4bh2h2rcd13ifvqdh0","pricing_plan_id":"cebpf4jnsgd1na2vs0mg"},{"bike_id":"4b771abd-c7a9-428d-8985-16dab8ec86b0","system_id":"levelo_inurba_marseille","lat":43.26557,"lon":5.37283,"is_reserved":false,"is_disabled":false,"rental_uris":{"android":"levelo://app?vid=4b771abd-c7a9-428d-8985-16dab8ec86b0","ios":"levelo://app?vid=4b771abd-c7a9-428d-8985-16dab8ec86b0"},"vehicle_type_id":"4","last_reported":1744211566,"current_range_meters":20000,"station_id":"ce4bhg12rcd13ifvqf70","pricing_plan_id":"cebpf4jnsgd1na2vs0mg"},{"bike_id":"75b7a4a4-f566-43d2-8665-a87442b1a934","system_id":"levelo_inurba_marseille","lat":43.28037,"lon":5.3694,"is_reserved":false,"is_disabled":false,"rental_uris":{"android":"levelo://app?vid=75b7a4a4-f566-43d2-8665-a87442b1a934","ios":"levelo://app?vid=75b7a4a4-f566-43d2-8665-a87442b1a934"},"vehicle_type_id":"4","last_reported":1744211566,"current_range_meters":20000,"station_id":"ce4bha12rcd13ifvqef0","pricing_plan_id":"cebpf4jnsgd1na2vs0mg"},{"bike_id":"7a8425a2-77b9-415b-8ca0-968976ceb490","system_id":"levelo_inurba_marseille","lat":43.28853,"lon":5.35886,"is_reserved":false,"is_disabled":false,"rental_uris":{"android":"levelo://app?vid=7a8425a2-77b9-415b-8ca0-968976ceb490","ios":"levelo://app?vid=7a8425a2-77b9-415b-8ca0-968976ceb490"},"vehicle_type_id":"4","last_reported":1744211566,"current_range_meters":20000,"station_id":"ce4bhb12rcd13ifvqem0","pricing_plan_id":"cebpf4jnsgd1na2vs0mg"},{"bike_id":"ec71824f-66d8-4c73-9328-262c264b4051","system_id":"levelo_inurba_marseille","lat":43.32764,"lon":5.38201,"is_reserved":false,"is_disabled":false,"rental_uris":{"android":"levelo://app?vid=ec71824f-66d8-4c73-9328-262c264b4051","ios":"levelo://app?vid=ec71824f-66d8-4c73-9328-262c264b4051"},"vehicle_type_id":"4","last_reported":1744211566,"current_range_meters":20000,"station_id":"","pricing_plan_id":"cebpf4jnsgd1na2vs0mg"},{"bike_id":"cb0aadbc-03cc-4066-aa79-b69372944efe","system_id":"levelo_inurba_marseille","lat":43.31531,"lon":5.38041,"is_reserved":false,"is_disabled":false,"rental_uris":{"android":"levelo://app?vid=cb0aadbc-03cc-4066-aa79-b69372944efe","ios":"levelo://app?vid=cb0aadbc-03cc-4066-aa79-b69372944efe"},"vehicle_type_id":"4","last_reported":1744211566,"current_range_meters":20000,"station_id":"ce4bhsp2rcd13ifvqi50","pricing_plan_id":"cebpf4jnsgd1na2vs0mg"},{"bike_id":"f9fde33d-3e05-4f24-9670-2ad2d1cacdc1","system_id":"levelo_inurba_marseille","lat":43.28813,"lon":5.37275,"is_reserved":false,"is_disabled":false,"rental_uris":{"android":"levelo://app?vid=f9fde33d-3e05-4f24-9670-2ad2d1cacdc1","ios":"levelo://app?vid=f9fde33d-3e05-4f24-9670-2ad2d1cacdc1"},"vehicle_type_id":"4","last_reported":1744211566,"current_range_meters":20000,"station_id":"","pricing_plan_id":"cebpf4jnsgd1na2vs0mg"},{"bike_id":"f20ca40c-9597-43f6-b779-83eba0d948c6","system_id":"levelo_inurba_marseille","lat":43.29028,"lon":5.38641,"is_reserved":false,"is_disabled":false,"rental_uris":{"android":"levelo://app?vid=f20ca40c-9597-43f6-b779-83eba0d948c6","ios":"levelo://app?vid=f20ca40c-9597-43f6-b779-83eba0d948c6"},"vehicle_type_id":"4","last_reported":1744211566,"current_range_meters":20400,"station_id":"ce4bh4p2rcd13ifvqe0g","pricing_plan_id":"cebpf4jnsgd1na2vs0mg"},{"bike_id":"6863d177-c4a1-42d2-95e4-af15d6f188d5","system_id":"levelo_inurba_marseille","lat":43.30534,"lon":5.38424,"is_reserved":false,"is_disabled":false,"rental_uris":{"android":"levelo://app?vid=6863d177-c4a1-42d2-95e4-af15d6f188d5","ios":"levelo://app?vid=6863d177-c4a1-42d2-95e4-af15d6f188d5"},"vehicle_type_id":"4","last_reported":1744211566,"current_range_meters":20400,"station_id":"ce4bgg92rcd13ifvqb30","pricing_plan_id":"cebpf4jnsgd1na2vs0mg"},{"bike_id":"a403af13-7c54-4b7d-8bfd-c3bda909d264","system_id":"levelo_inurba_marseille","lat":43.30757,"lon":5.371766,"is_reserved":false,"is_disabled":false,"rental_uris":{"android":"levelo://app?vid=a403af13-7c54-4b7d-8bfd-c3bda909d264","ios":"levelo://app?vid=a403af13-7c54-4b7d-8bfd-c3bda909d264"},"vehicle_type_id":"4","last_reported":1744211566,"current_range_meters":20000,"station_id":"ce4bhb92rcd13ifvqen0","pricing_plan_id":"cebpf4jnsgd1na2vs0mg"},{"bike_id":"9c452128-17fb-4b9f-907d-c814b0305fe4","system_id":"levelo_inurba_marseille","lat":43.30258,"lon":5.40071,"is_reserved":false,"is_disabled":false,"rental_uris":{"android":"levelo://app?vid=9c452128-17fb-4b9f-907d-c814b0305fe4","ios":"levelo://app?vid=9c452128-17fb-4b9f-907d-c814b0305fe4"},"vehicle_type_id":"4","last_reported":1744211566,"current_range_meters":20800,"station_id":"ce4bgvh2rcd13ifvqcs0","pricing_plan_id":"cebpf4jnsgd1na2vs0mg"},{"bike_id":"6d0afb17-39ad-4e32-b029-64c345a20149","system_id":"levelo_inurba_marseille","lat":43.31495,"lon":5.37311,"is_reserved":false,"is_disabled":false,"rental_uris":{"android":"levelo://app?vid=6d0afb17-39ad-4e32-b029-64c345a20149","ios":"levelo://app?vid=6d0afb17-39ad-4e32-b029-64c345a20149"},"vehicle_type_id":"4","last_reported":1744211566,"current_range_meters":20800,"station_id":"ce4bgt12rcd13ifvqcd0","pricing_plan_id":"cebpf4jnsgd1na2vs0mg"},{"bike_id":"189cd17a-c44b-4d85-b0ad-a1d74c709578","system_id":"levelo_inurba_marseille","lat":43.30115,"lon":5.39853,"is_reserved":false,"is_disabled":false,"rental_uris":{"android":"levelo://app?vid=189cd17a-c44b-4d85-b0ad-a1d74c709578","ios":"levelo://app?vid=189cd17a-c44b-4d85-b0ad-a1d74c709578"},"vehicle_type_id":"4","last_reported":1744211566,"current_range_meters":20800,"station_id":"ce4bh0h2rcd13ifvqd40","pricing_plan_id":"cebpf4jnsgd1na2vs0mg"},{"bike_id":"495dbfc2-ecfd-4680-8db5-27dda1650588","system_id":"levelo_inurba_marseille","lat":43.255,"lon":5.37649,"is_reserved":false,"is_disabled":false,"rental_uris":{"android":"levelo://app?vid=495dbfc2-ecfd-4680-8db5-27dda1650588","ios":"levelo://app?vid=495dbfc2-ecfd-4680-8db5-27dda1650588"},"vehicle_type_id":"4","last_reported":1744211566,"current_range_meters":20800,"station_id":"ce4bhh12rcd13ifvqff0","pricing_plan_id":"cebpf4jnsgd1na2vs0mg"},{"bike_id":"d6355468-2b7f-4798-b2a4-5e589be7d7c2","system_id":"levelo_inurba_marseille","lat":43.22933,"lon":5.35379,"is_reserved":false,"is_disabled":false,"rental_uris":{"android":"levelo://app?vid=d6355468-2b7f-4798-b2a4-5e589be7d7c2","ios":"levelo://app?vid=d6355468-2b7f-4798-b2a4-5e589be7d7c2"},"vehicle_type_id":"4","last_reported":1744211566,"current_range_meters":20800,"station_id":"cpo3532slgdg3j2ikp40","pricing_plan_id":"cebpf4jnsgd1na2vs0mg"},{"bike_id":"f112d351-cf97-4def-8a45-af5e1e8e51c9","system_id":"levelo_inurba_marseille","lat":43.22931,"lon":5.35373,"is_reserved":false,"is_disabled":false,"rental_uris":{"android":"levelo://app?vid=f112d351-cf97-4def-8a45-af5e1e8e51c9","ios":"levelo://app?vid=f112d351-cf97-4def-8a45-af5e1e8e51c9"},"vehicle_type_id":"4","last_reported":1744211566,"current_range_meters":20800,"station_id":"cpo3532slgdg3j2ikp40","pricing_plan_id":"cebpf4jnsgd1na2vs0mg"},{"bike_id":"78360cbe-d3b7-435b-86f1-ae23c72490e2","system_id":"levelo_inurba_marseille","lat":43.28848,"lon":5.393,"is_reserved":false,"is_disabled":false,"rental_uris":{"android":"levelo://app?vid=78360cbe-d3b7-435b-86f1-ae23c72490e2","ios":"levelo://app?vid=78360cbe-d3b7-435b-86f1-ae23c72490e2"},"vehicle_type_id":"4","last_reported":1744211566,"current_range_meters":20400,"station_id":"ce4bh2p2rcd13ifvqdi0","pricing_plan_id":"cebpf4jnsgd1na2vs0mg"},{"bike_id":"842b7dd8-eec6-4566-aae6-00557caaf3ae","system_id":"levelo_inurba_marseille","lat":43.29427,"lon":5.38632,"is_reserved":false,"is_disabled":false,"rental_uris":{"android":"levelo://app?vid=842b7dd8-eec6-4566-aae6-00557caaf3ae","ios":"levelo://app?vid=842b7dd8-eec6-4566-aae6-00557caaf3ae"},"vehicle_type_id":"4","last_reported":1744211566,"current_range_meters":20800,"station_id":"","pricing_plan_id":"cebpf4jnsgd1na2vs0mg"},{"bike_id":"c6a79ac6-700f-4e4a-887a-ddc9fc44fbdd","system_id":"levelo_inurba_marseille","lat":43.31225,"lon":5.36852,"is_reserved":false,"is_disabled":false,"rental_uris":{"android":"levelo://app?vid=c6a79ac6-700f-4e4a-887a-ddc9fc44fbdd","ios":"levelo://app?vid=c6a79ac6-700f-4e4a-887a-ddc9fc44fbdd"},"vehicle_type_id":"4","last_reported":1744211566,"current_range_meters":21600,"station_id":"ce4bgl92rcd13ifvqbq0","pricing_plan_id":"cebpf4jnsgd1na2vs0mg"},{"bike_id":"99b03e7b-2166-46a0-b69f-82bc3a2161c0","system_id":"levelo_inurba_marseille","lat":43.24169,"lon":5.36392,"is_reserved":false,"is_disabled":false,"rental_uris":{"android":"levelo://app?vid=99b03e7b-2166-46a0-b69f-82bc3a2161c0","ios":"levelo://app?vid=99b03e7b-2166-46a0-b69f-82bc3a2161c0"},"vehicle_type_id":"4","last_reported":1744211566,"current_range_meters":20800,"station_id":"cpo36qri1sfpv3e86is0","pricing_plan_id":"cebpf4jnsgd1na2vs0mg"},{"bike_id":"0922821c-4e1d-4817-9469-860e55f8f0d1","system_id":"levelo_inurba_marseille","lat":43.22516,"lon":5.34784,"is_reserved":false,"is_disabled":false,"rental_uris":{"android":"levelo://app?vid=0922821c-4e1d-4817-9469-860e55f8f0d1","ios":"levelo://app?vid=0922821c-4e1d-4817-9469-860e55f8f0d1"},"vehicle_type_id":"4","last_reported":1744211566,"current_range_meters":20800,"station_id":"st_cvj5dfep6f1abm77gieg","pricing_plan_id":"cebpf4jnsgd1na2vs0mg"},{"bike_id":"29534675-f0a3-451d-ba81-6e3cb30cb657","system_id":"levelo_inurba_marseille","lat":43.28855,"lon":5.35847,"is_reserved":false,"is_disabled":false,"rental_uris":{"android":"levelo://app?vid=29534675-f0a3-451d-ba81-6e3cb30cb657","ios":"levelo://app?vid=29534675-f0a3-451d-ba81-6e3cb30cb657"},"vehicle_type_id":"4","last_reported":1744211566,"current_range_meters":20800,"station_id":"ce4bhb12rcd13ifvqem0","pricing_plan_id":"cebpf4jnsgd1na2vs0mg"},{"bike_id":"0d6437a2-4323-466a-b3ec-f2c93486fd25","system_id":"levelo_inurba_marseille","lat":43.30799,"lon":5.38153,"is_reserved":false,"is_disabled":false,"rental_uris":{"android":"levelo://app?vid=0d6437a2-4323-466a-b3ec-f2c93486fd25","ios":"levelo://app?vid=0d6437a2-4323-466a-b3ec-f2c93486fd25"},"vehicle_type_id":"4","last_reported":1744211566,"current_range_meters":21600,"station_id":"ce4bgt12rcd13ifvqce0","pricing_plan_id":"cebpf4jnsgd1na2vs0mg"},{"bike_id":"24632e73-75eb-4767-8bae-0aa739040d2a","system_id":"levelo_inurba_marseille","lat":43.31497,"lon":5.37296,"is_reserved":false,"is_disabled":false,"rental_uris":{"android":"levelo://app?vid=24632e73-75eb-4767-8bae-0aa739040d2a","ios":"levelo://app?vid=24632e73-75eb-4767-8bae-0aa739040d2a"},"vehicle_type_id":"4","last_reported":1744211566,"current_range_meters":21600,"station_id":"ce4bgt12rcd13ifvqcd0","pricing_plan_id":"cebpf4jnsgd1na2vs0mg"},{"bike_id":"463b69ef-4545-41a2-aa01-0230bc2b5461","system_id":"levelo_inurba_marseille","lat":43.28614,"lon":5.351,"is_reserved":false,"is_disabled":false,"rental_uris":{"android":"levelo://app?vid=463b69ef-4545-41a2-aa01-0230bc2b5461","ios":"levelo://app?vid=463b69ef-4545-41a2-aa01-0230bc2b5461"},"vehicle_type_id":"4","last_reported":1744211566,"current_range_meters":21600,"station_id":"ce4bhch2rcd13ifvqeug","pricing_plan_id":"cebpf4jnsgd1na2vs0mg"},{"bike_id":"c602ac29-c6be-4d30-91e5-e37dd276b28d","system_id":"levelo_inurba_marseille","lat":43.25586,"lon":5.38244,"is_reserved":false,"is_disabled":false,"rental_uris":{"android":"levelo://app?vid=c602ac29-c6be-4d30-91e5-e37dd276b28d","ios":"levelo://app?vid=c602ac29-c6be-4d30-91e5-e37dd276b28d"},"vehicle_type_id":"4","last_reported":1744211566,"current_range_meters":21600,"station_id":"ce4bhih2rcd13ifvqfs0","pricing_plan_id":"cebpf4jnsgd1na2vs0mg"},{"bike_id":"eab6cbfa-cb8e-47d7-b0d6-226ab7facec7","system_id":"levelo_inurba_marseille","lat":43.31719,"lon":5.42403,"is_reserved":false,"is_disabled":true,"rental_uris":{"android":"levelo://app?vid=eab6cbfa-cb8e-47d7-b0d6-226ab7facec7","ios":"levelo://app?vid=eab6cbfa-cb8e-47d7-b0d6-226ab7facec7"},"vehicle_type_id":"4","last_reported":1744211566,"current_range_meters":21600,"station_id":"ce4bhp92rcd13ifvqhbg","pricing_plan_id":"cebpf4jnsgd1na2vs0mg"},{"bike_id":"50deb72e-5960-4e77-b6ad-907fdfa7b57d","system_id":"levelo_inurba_marseille","lat":43.29581,"lon":5.37504,"is_reserved":false,"is_disabled":true,"rental_uris":{"android":"levelo://app?vid=50deb72e-5960-4e77-b6ad-907fdfa7b57d","ios":"levelo://app?vid=50deb72e-5960-4e77-b6ad-907fdfa7b57d"},"vehicle_type_id":"4","last_reported":1744211566,"current_range_meters":21600,"station_id":"ce4bgh92rcd13ifvqb50","pricing_plan_id":"cebpf4jnsgd1na2vs0mg"},{"bike_id":"591d54e9-0096-4ca4-92d5-a1e5cb0a2e6a","system_id":"levelo_inurba_marseille","lat":43.30379,"lon":5.4248,"is_reserved":false,"is_disabled":false,"rental_uris":{"android":"levelo://app?vid=591d54e9-0096-4ca4-92d5-a1e5cb0a2e6a","ios":"levelo://app?vid=591d54e9-0096-4ca4-92d5-a1e5cb0a2e6a"},"vehicle_type_id":"4","last_reported":1744211566,"current_range_meters":21600,"station_id":"ce4bhoh2rcd13ifvqh6g","pricing_plan_id":"cebpf4jnsgd1na2vs0mg"},{"bike_id":"075d81a6-e23e-405f-bc56-2dc3e878957e","system_id":"levelo_inurba_marseille","lat":43.27375,"lon":5.36251,"is_reserved":false,"is_disabled":false,"rental_uris":{"android":"levelo://app?vid=075d81a6-e23e-405f-bc56-2dc3e878957e","ios":"levelo://app?vid=075d81a6-e23e-405f-bc56-2dc3e878957e"},"vehicle_type_id":"4","last_reported":1744211566,"current_range_meters":21600,"station_id":"ce4bhbh2rcd13ifvqeo0","pricing_plan_id":"cebpf4jnsgd1na2vs0mg"},{"bike_id":"ab2c0f29-e6a0-4873-9305-501ad011bf3b","system_id":"levelo_inurba_marseille","lat":43.25591,"lon":5.38245,"is_reserved":false,"is_disabled":false,"rental_uris":{"android":"levelo://app?vid=ab2c0f29-e6a0-4873-9305-501ad011bf3b","ios":"levelo://app?vid=ab2c0f29-e6a0-4873-9305-501ad011bf3b"},"vehicle_type_id":"4","last_reported":1744211566,"current_range_meters":22000,"station_id":"ce4bhih2rcd13ifvqfs0","pricing_plan_id":"cebpf4jnsgd1na2vs0mg"},{"bike_id":"f68e2c04-45dc-488f-bc01-197d2e6cf1f9","system_id":"levelo_inurba_marseille","lat":43.27906,"lon":5.3802,"is_reserved":false,"is_disabled":false,"rental_uris":{"android":"levelo://app?vid=f68e2c04-45dc-488f-bc01-197d2e6cf1f9","ios":"levelo://app?vid=f68e2c04-45dc-488f-bc01-197d2e6cf1f9"},"vehicle_type_id":"4","last_reported":1744211566,"current_range_meters":22000,"station_id":"ce4bhf92rcd13ifvqf50","pricing_plan_id":"cebpf4jnsgd1na2vs0mg"},{"bike_id":"1a63870b-80f2-43ac-9e64-94020f92ab57","system_id":"levelo_inurba_marseille","lat":43.27825,"lon":5.4072,"is_reserved":false,"is_disabled":false,"rental_uris":{"android":"levelo://app?vid=1a63870b-80f2-43ac-9e64-94020f92ab57","ios":"levelo://app?vid=1a63870b-80f2-43ac-9e64-94020f92ab57"},"vehicle_type_id":"4","last_reported":1744211566,"current_range_meters":22000,"station_id":"ce4bhnh2rcd13ifvqgtg","pricing_plan_id":"cebpf4jnsgd1na2vs0mg"},{"bike_id":"a73ce061-6092-4cbe-a2ab-b29ccc1f1821","system_id":"levelo_inurba_marseille","lat":43.299804,"lon":5.384856,"is_reserved":false,"is_disabled":false,"rental_uris":{"android":"levelo://app?vid=a73ce061-6092-4cbe-a2ab-b29ccc1f1821","ios":"levelo://app?vid=a73ce061-6092-4cbe-a2ab-b29ccc1f1821"},"vehicle_type_id":"4","last_reported":1744211566,"current_range_meters":22000,"station_id":"ce4bgj92rcd13ifvqbd0","pricing_plan_id":"cebpf4jnsgd1na2vs0mg"},{"bike_id":"593cc697-220e-4df3-9f2b-b1793070fa32","system_id":"levelo_inurba_marseille","lat":43.30583,"lon":5.36538,"is_reserved":false,"is_disabled":true,"rental_uris":{"android":"levelo://app?vid=593cc697-220e-4df3-9f2b-b1793070fa32","ios":"levelo://app?vid=593cc697-220e-4df3-9f2b-b1793070fa32"},"vehicle_type_id":"4","last_reported":1744211566,"current_range_meters":22000,"station_id":"ce4bgs12rcd13ifvqcag","pricing_plan_id":"cebpf4jnsgd1na2vs0mg"},{"bike_id":"97574520-ee77-45bf-8eb1-cac7ab65ffbe","system_id":"levelo_inurba_marseille","lat":43.30213,"lon":5.39466,"is_reserved":false,"is_disabled":false,"rental_uris":{"android":"levelo://app?vid=97574520-ee77-45bf-8eb1-cac7ab65ffbe","ios":"levelo://app?vid=97574520-ee77-45bf-8eb1-cac7ab65ffbe"},"vehicle_type_id":"4","last_reported":1744211566,"current_range_meters":22000,"station_id":"ce4bh0p2rcd13ifvqd70","pricing_plan_id":"cebpf4jnsgd1na2vs0mg"},{"bike_id":"46b18c31-54ec-4e0c-a234-d9c724c2479a","system_id":"levelo_inurba_marseille","lat":43.29927,"lon":5.36541,"is_reserved":false,"is_disabled":false,"rental_uris":{"android":"levelo://app?vid=46b18c31-54ec-4e0c-a234-d9c724c2479a","ios":"levelo://app?vid=46b18c31-54ec-4e0c-a234-d9c724c2479a"},"vehicle_type_id":"4","last_reported":1744211566,"current_range_meters":22000,"station_id":"ce4bgm92rcd13ifvqbr0","pricing_plan_id":"cebpf4jnsgd1na2vs0mg"},{"bike_id":"2c22bbae-f3f4-4ad8-ab9e-0832c60ae5e9","system_id":"levelo_inurba_marseille","lat":43.29023,"lon":5.38136,"is_reserved":false,"is_disabled":false,"rental_uris":{"android":"levelo://app?vid=2c22bbae-f3f4-4ad8-ab9e-0832c60ae5e9","ios":"levelo://app?vid=2c22bbae-f3f4-4ad8-ab9e-0832c60ae5e9"},"vehicle_type_id":"4","last_reported":1744211566,"current_range_meters":22000,"station_id":"ce4bh4p2rcd13ifvqe1g","pricing_plan_id":"cebpf4jnsgd1na2vs0mg"},{"bike_id":"ec6a14dc-6d0a-4b4a-aab3-494d208300b4","system_id":"levelo_inurba_marseille","lat":43.3053,"lon":5.36529,"is_reserved":false,"is_disabled":false,"rental_uris":{"android":"levelo://app?vid=ec6a14dc-6d0a-4b4a-aab3-494d208300b4","ios":"levelo://app?vid=ec6a14dc-6d0a-4b4a-aab3-494d208300b4"},"vehicle_type_id":"4","last_reported":1744211566,"current_range_meters":22000,"station_id":"ce4bgs12rcd13ifvqcag","pricing_plan_id":"cebpf4jnsgd1na2vs0mg"},{"bike_id":"248e6f2f-2e1e-4e0a-bdb3-badd9dc01398","system_id":"levelo_inurba_marseille","lat":43.28029,"lon":5.40889,"is_reserved":false,"is_disabled":false,"rental_uris":{"android":"levelo://app?vid=248e6f2f-2e1e-4e0a-bdb3-badd9dc01398","ios":"levelo://app?vid=248e6f2f-2e1e-4e0a-bdb3-badd9dc01398"},"vehicle_type_id":"4","last_reported":1744211566,"current_range_meters":22000,"station_id":"","pricing_plan_id":"cebpf4jnsgd1na2vs0mg"},{"bike_id":"caff42ed-b230-4813-8beb-baaf4257327d","system_id":"levelo_inurba_marseille","lat":43.28282,"lon":5.35087,"is_reserved":false,"is_disabled":false,"rental_uris":{"android":"levelo://app?vid=caff42ed-b230-4813-8beb-baaf4257327d","ios":"levelo://app?vid=caff42ed-b230-4813-8beb-baaf4257327d"},