{"last_updated":1729231985,"ttl":60,"version":"2.2","data":{"bikes":[{"bike_id":"906fd1b5-4709-46ec-840d-6d7b2e81489a","system_id":"levelo_inurba_marseille","lat":43.26961,"lon":5.38636,"is_reserved":false,"is_disabled":false,"rental_uris":{"android":"levelo://app?vid=906fd1b5-4709-46ec-840d-6d7b2e81489a","ios":"levelo://app?vid=906fd1b5-4709-46ec-840d-6d7b2e81489a"},"vehicle_type_id":"4","last_reported":1729231985,"current_range_meters":17600,"station_id":"ce4bhh92rcd13ifvqfh0","pricing_plan_id":"cebpf4jnsgd1na2vs0mg"},{"bike_id":"827c24bf-14df-499c-8c0e-70e69a8ae529","system_id":"levelo_inurba_marseille","lat":43.29554,"lon":5.42289,"is_reserved":false,"is_disabled":false,"rental_uris":{"android":"levelo://app?vid=827c24bf-14df-499c-8c0e-70e69a8ae529","ios":"levelo://app?vid=827c24bf-14df-499c-8c0e-70e69a8ae529"},"vehicle_type_id":"4","last_reported":1729231985,"current_range_meters":38400,"station_id":"ce4bhph2rcd13ifvqhdg","pricing_plan_id":"cebpf4jnsgd1na2vs0mg"},{"bike_id":"9a878f42-9b8c-4083-b673-12ab1f3990c0","system_id":"levelo_inurba_marseille","lat":43.29253,"lon":5.40915,"is_reserved":false,"is_disabled":false,"rental_uris":{"android":"levelo://app?vid=9a878f42-9b8c-4083-b673-12ab1f3990c0","ios":"levelo://app?vid=9a878f42-9b8c-4083-b673-12ab1f3990c0"},"vehicle_type_id":"4","last_reported":1729231985,"current_range_meters":26800,"station_id":"ce4bh192rcd13ifvqdc0","pricing_plan_id":"cebpf4jnsgd1na2vs0mg"},{"bike_id":"e327461c-f9f4-4e76-8534-30fe741cabe2","system_id":"levelo_inurba_marseille","lat":43.23186,"lon":5.39984,"is_reserved":false,"is_disabled":false,"rental_uris":{"android":"levelo://app?vid=e327461c-f9f4-4e76-8534-30fe741cabe2","ios":"levelo://app?vid=e327461c-f9f4-4e76-8534-30fe741cabe2"},"vehicle_type_id":"4","last_reported":1729231985,"current_range_meters":28400,"station_id":"ce4bhn12rcd13ifvqgqg","pricing_plan_id":"cebpf4jnsgd1na2vs0mg"},{"bike_id":"676ec6c4-6b42-43e0-81fe-327782965da5","system_id":"levelo_inurba_marseille","lat":43.33765,"lon":5.37484,"is_reserved":false,"is_disabled":false,"rental_uris":{"android":"levelo://app?vid=676ec6c4-6b42-43e0-81fe-327782965da5","ios":"levelo://app?vid=676ec6c4-6b42-43e0-81fe-327782965da5"},"vehicle_type_id":"4","last_reported":1729231985,"current_range_meters":19600,"station_id":"","pricing_plan_id":"cebpf4jnsgd1na2vs0mg"},{"bike_id":"c3bc217e-6b59-4db1-a7e9-dc7cde300865","system_id":"levelo_inurba_marseille","lat":43.30468,"lon":5.37895,"is_reserved":false,"is_disabled":false,"rental_uris":{"android":"levelo://app?vid=c3bc217e-6b59-4db1-a7e9-dc7cde300865","ios":"levelo://app?vid=c3bc217e-6b59-4db1-a7e9-dc7cde300865"},"vehicle_type_id":"4","last_reported":1729231985,"current_range_meters":37600,"station_id":"ce4bgup2rcd13ifvqcn0","pricing_plan_id":"cebpf4jnsgd1na2vs0mg"},{"bike_id":"dd36d869-9b55-4a5a-bb04-3c24db77b13f","system_id":"levelo_inurba_marseille","lat":43.25582,"lon":5.38243,"is_reserved":false,"is_disabled":false,"rental_uris":{"android":"levelo://app?vid=dd36d869-9b55-4a5a-bb04-3c24db77b13f","ios":"levelo://app?vid=dd36d869-9b55-4a5a-bb04-3c24db77b13f"},"vehicle_type_id":"4","last_reported":1729231985,"current_range_meters":37600,"station_id":"ce4bhih2rcd13ifvqfs0","pricing_plan_id":"cebpf4jnsgd1na2vs0mg"},{"bike_id":"58dae4ab-37a7-4fd7-813c-630c20c6063a","system_id":"levelo_inurba_marseille","lat":43.30471,"lon":5.37908,"is_reserved":false,"is_disabled":false,"rental_uris":{"android":"levelo://app?vid=58dae4ab-37a7-4fd7-813c-630c20c6063a","ios":"levelo://app?vid=58dae4ab-37a7-4fd7-813c-630c20c6063a"},"vehicle_type_id":"4","last_reported":1729231985,"current_range_meters":22400,"station_id":"ce4bgup2rcd13ifvqcn0","pricing_plan_id":"cebpf4jnsgd1na2vs0mg"},{"bike_id":"8f74cc5d-584a-4a7e-b569-454b6794006b","system_id":"levelo_inurba_marseille","lat":43.2894,"lon":5.36396,"is_reserved":false,"is_disabled":false,"rental_uris":{"android":"levelo://app?vid=8f74cc5d-584a-4a7e-b569-454b6794006b","ios":"levelo://app?vid=8f74cc5d-584a-4a7e-b569-454b6794006b"},"vehicle_type_id":"4","last_reported":1729231985,"current_range_meters":36400,"station_id":"ce4bhc92rcd13ifvqetg","pricing_plan_id":"cebpf4jnsgd1na2vs0mg"},{"bike_id":"27a7a7f9-e4d8-48f5-a3db-737780b9e514","system_id":"levelo_inurba_marseille","lat":43.32105,"lon":5.36774,"is_reserved":false,"is_disabled":false,"rental_uris":{"android":"levelo://app?vid=27a7a7f9-e4d8-48f5-a3db-737780b9e514","ios":"levelo://app?vid=27a7a7f9-e4d8-48f5-a3db-737780b9e514"},"vehicle_type_id":"4","last_reported":1729231985,"current_range_meters":33200,"station_id":"ce4bhrh2rcd13ifvqhug","pricing_plan_id":"cebpf4jnsgd1na2vs0mg"},{"bike_id":"cf30a138-86f7-4159-8eea-132a3e8b34e9","system_id":"levelo_inurba_marseille","lat":43.25942,"lon":5.40911,"is_reserved":false,"is_disabled":false,"rental_uris":{"android":"levelo://app?vid=cf30a138-86f7-4159-8eea-132a3e8b34e9","ios":"levelo://app?vid=cf30a138-86f7-4159-8eea-132a3e8b34e9"},"vehicle_type_id":"4","last_reported":1729231985,"current_range_meters":16400,"station_id":"ce4bhm92rcd13ifvqglg","pricing_plan_id":"cebpf4jnsgd1na2vs0mg"},{"bike_id":"276ccc15-2edd-47d4-b6bd-cf0a0442b0f5","system_id":"levelo_inurba_marseille","lat":43.25576,"lon":5.38236,"is_reserved":false,"is_disabled":false,"rental_uris":{"android":"levelo://app?vid=276ccc15-2edd-47d4-b6bd-cf0a0442b0f5","ios":"levelo://app?vid=276ccc15-2edd-47d4-b6bd-cf0a0442b0f5"},"vehicle_type_id":"4","last_reported":1729231985,"current_range_meters":37600,"station_id":"ce4bhih2rcd13ifvqfs0","pricing_plan_id":"cebpf4jnsgd1na2vs0mg"},{"bike_id":"a615b58a-77c1-4244-b90d-32945cab662b","system_id":"levelo_inurba_marseille","lat":43.30603,"lon":5.39363,"is_reserved":false,"is_disabled":false,"rental_uris":{"android":"levelo://app?vid=a615b58a-77c1-4244-b90d-32945cab662b","ios":"levelo://app?vid=a615b58a-77c1-4244-b90d-32945cab662b"},"vehicle_type_id":"4","last_reported":1729231985,"current_range_meters":36800,"station_id":"ce4bh0p2rcd13ifvqd80","pricing_plan_id":"cebpf4jnsgd1na2vs0mg"},{"bike_id":"c080f516-4079-491c-96b9-3e04ab00e030","system_id":"levelo_inurba_marseille","lat":43.30464,"lon":5.37894,"is_reserved":false,"is_disabled":false,"rental_uris":{"android":"levelo://app?vid=c080f516-4079-491c-96b9-3e04ab00e030","ios":"levelo://app?vid=c080f516-4079-491c-96b9-3e04ab00e030"},"vehicle_type_id":"4","last_reported":1729231985,"current_range_meters":32000,"station_id":"ce4bgup2rcd13ifvqcn0","pricing_plan_id":"cebpf4jnsgd1na2vs0mg"},{"bike_id":"9c3612f1-7535-4092-b3c2-9687af5e3b48","system_id":"levelo_inurba_marseille","lat":43.29259,"lon":5.40908,"is_reserved":false,"is_disabled":false,"rental_uris":{"android":"levelo://app?vid=9c3612f1-7535-4092-b3c2-9687af5e3b48","ios":"levelo://app?vid=9c3612f1-7535-4092-b3c2-9687af5e3b48"},"vehicle_type_id":"4","last_reported":1729231985,"current_range_meters":27600,"station_id":"ce4bh192rcd13ifvqdc0","pricing_plan_id":"cebpf4jnsgd1na2vs0mg"},{"bike_id":"9521ca94-9f23-4c4f-8f21-9f42e4399283","system_id":"levelo_inurba_marseille","lat":43.29264,"lon":5.40912,"is_reserved":false,"is_disabled":false,"rental_uris":{"android":"levelo://app?vid=9521ca94-9f23-4c4f-8f21-9f42e4399283","ios":"levelo://app?vid=9521ca94-9f23-4c4f-8f21-9f42e4399283"},"vehicle_type_id":"4","last_reported":1729231985,"current_range_meters":34800,"station_id":"ce4bh192rcd13ifvqdc0","pricing_plan_id":"cebpf4jnsgd1na2vs0mg"},{"bike_id":"01482ca5-9a5a-43c5-a4aa-5f78f019b8b0","system_id":"levelo_inurba_marseille","lat":43.26549,"lon":5.37285,"is_reserved":false,"is_disabled":false,"rental_uris":{"android":"levelo://app?vid=01482ca5-9a5a-43c5-a4aa-5f78f019b8b0","ios":"levelo://app?vid=01482ca5-9a5a-43c5-a4aa-5f78f019b8b0"},"vehicle_type_id":"4","last_reported":1729231985,"current_range_meters":36000,"station_id":"ce4bhg12rcd13ifvqf70","pricing_plan_id":"cebpf4jnsgd1na2vs0mg"},{"bike_id":"f5fbe5c8-97ae-4266-af05-81fa5bd0c239","system_id":"levelo_inurba_marseille","lat":43.284651,"lon":5.384112,"is_reserved":false,"is_disabled":false,"rental_uris":{"android":"levelo://app?vid=f5fbe5c8-97ae-4266-af05-81fa5bd0c239","ios":"levelo://app?vid=f5fbe5c8-97ae-4266-af05-81fa5bd0c239"},"vehicle_type_id":"4","last_reported":1729231985,"current_range_meters":24400,"station_id":"ce4bgqh2rcd13ifvqc5g","pricing_plan_id":"cebpf4jnsgd1na2vs0mg"},{"bike_id":"0e9ad9af-e89b-412e-a7df-344fe8f113f7","system_id":"levelo_inurba_marseille","lat":43.25009,"lon":5.38923,"is_reserved":false,"is_disabled":false,"rental_uris":{"android":"levelo://app?vid=0e9ad9af-e89b-412e-a7df-344fe8f113f7","ios":"levelo://app?vid=0e9ad9af-e89b-412e-a7df-344fe8f113f7"},"vehicle_type_id":"4","last_reported":1729231985,"current_range_meters":38800,"station_id":"ce4bhgp2rcd13ifvqfd0","pricing_plan_id":"cebpf4jnsgd1na2vs0mg"},{"bike_id":"91ac8fa7-b7c8-4143-be6d-e2ffbaedc096","system_id":"levelo_inurba_marseille","lat":43.27073,"lon":5.4228,"is_reserved":false,"is_disabled":false,"rental_uris":{"android":"levelo://app?vid=91ac8fa7-b7c8-4143-be6d-e2ffbaedc096","ios":"levelo://app?vid=91ac8fa7-b7c8-4143-be6d-e2ffbaedc096"},"vehicle_type_id":"4","last_reported":1729231985,"current_range_meters":36000,"station_id":"ce4bhk92rcd13ifvqgb0","pricing_plan_id":"cebpf4jnsgd1na2vs0mg"},{"bike_id":"e9d8d5db-0aa5-4111-9431-c35177157ef1","system_id":"levelo_inurba_marseille","lat":43.31499,"lon":5.37299,"is_reserved":false,"is_disabled":false,"rental_uris":{"android":"levelo://app?vid=e9d8d5db-0aa5-4111-9431-c35177157ef1","ios":"levelo://app?vid=e9d8d5db-0aa5-4111-9431-c35177157ef1"},"vehicle_type_id":"4","last_reported":1729231985,"current_range_meters":33200,"station_id":"ce4bgt12rcd13ifvqcd0","pricing_plan_id":"cebpf4jnsgd1na2vs0mg"},{"bike_id":"191b113b-be16-492e-a876-32c12d6b048b","system_id":"levelo_inurba_marseille","lat":43.24076,"lon":5.37751,"is_reserved":false,"is_disabled":false,"rental_uris":{"android":"levelo://app?vid=191b113b-be16-492e-a876-32c12d6b048b","ios":"levelo://app?vid=191b113b-be16-492e-a876-32c12d6b048b"},"vehicle_type_id":"4","last_reported":1729231985,"current_range_meters":19600,"station_id":"ce4bhnp2rcd13ifvqgvg","pricing_plan_id":"cebpf4jnsgd1na2vs0mg"},{"bike_id":"ebac8b2d-a49c-4e0f-98ad-4b44fd876553","system_id":"levelo_inurba_marseille","lat":43.28658,"lon":5.36359,"is_reserved":false,"is_disabled":false,"rental_uris":{"android":"levelo://app?vid=ebac8b2d-a49c-4e0f-98ad-4b44fd876553","ios":"levelo://app?vid=ebac8b2d-a49c-4e0f-98ad-4b44fd876553"},"vehicle_type_id":"4","last_reported":1729231985,"current_range_meters":25600,"station_id":"ce4bhah2rcd13ifvqej0","pricing_plan_id":"cebpf4jnsgd1na2vs0mg"},{"bike_id":"a71414de-d2ee-4a17-94ea-50f620ba8558","system_id":"levelo_inurba_marseille","lat":43.2843,"lon":5.34994,"is_reserved":false,"is_disabled":false,"rental_uris":{"android":"levelo://app?vid=a71414de-d2ee-4a17-94ea-50f620ba8558","ios":"levelo://app?vid=a71414de-d2ee-4a17-94ea-50f620ba8558"},"vehicle_type_id":"4","last_reported":1729231985,"current_range_meters":38800,"station_id":"ce4bhbh2rcd13ifvqepg","pricing_plan_id":"cebpf4jnsgd1na2vs0mg"},{"bike_id":"1b490cc6-71ed-4c96-ba76-2851bb80248f","system_id":"levelo_inurba_marseille","lat":43.24075,"lon":5.37759,"is_reserved":false,"is_disabled":false,"rental_uris":{"android":"levelo://app?vid=1b490cc6-71ed-4c96-ba76-2851bb80248f","ios":"levelo://app?vid=1b490cc6-71ed-4c96-ba76-2851bb80248f"},"vehicle_type_id":"4","last_reported":1729231985,"current_range_meters":27600,"station_id":"ce4bhnp2rcd13ifvqgvg","pricing_plan_id":"cebpf4jnsgd1na2vs0mg"},{"bike_id":"88ed0f9f-e90c-4cb7-aed8-4122cf81bf11","system_id":"levelo_inurba_marseille","lat":43.26033,"lon":5.37553,"is_reserved":false,"is_disabled":false,"rental_uris":{"android":"levelo://app?vid=88ed0f9f-e90c-4cb7-aed8-4122cf81bf11","ios":"levelo://app?vid=88ed0f9f-e90c-4cb7-aed8-4122cf81bf11"},"vehicle_type_id":"4","last_reported":1729231985,"current_range_meters":37600,"station_id":"ce4bhgh2rcd13ifvqfa0","pricing_plan_id":"cebpf4jnsgd1na2vs0mg"},{"bike_id":"4ae2c184-8c50-452d-87fb-8f7bf4f540f3","system_id":"levelo_inurba_marseille","lat":43.2465,"lon":5.38895,"is_reserved":false,"is_disabled":false,"rental_uris":{"android":"levelo://app?vid=4ae2c184-8c50-452d-87fb-8f7bf4f540f3","ios":"levelo://app?vid=4ae2c184-8c50-452d-87fb-8f7bf4f540f3"},"vehicle_type_id":"4","last_reported":1729231985,"current_range_meters":38800,"station_id":"ce4bhg12rcd13ifvqf60","pricing_plan_id":"cebpf4jnsgd1na2vs0mg"},{"bike_id":"791641b8-dabe-4982-982b-c8e7fc7abd5d","system_id":"levelo_inurba_marseille","lat":43.25115,"lon":5.40323,"is_reserved":false,"is_disabled":false,"rental_uris":{"android":"levelo://app?vid=791641b8-dabe-4982-982b-c8e7fc7abd5d","ios":"levelo://app?vid=791641b8-dabe-4982-982b-c8e7fc7abd5d"},"vehicle_type_id":"4","last_reported":1729231985,"current_range_meters":10000,"station_id":"ce4bhlh2rcd13ifvqgig","pricing_plan_id":"cebpf4jnsgd1na2vs0mg"},{"bike_id":"1c7ad6f4-57f9-461a-9867-f3b52e700041","system_id":"levelo_inurba_marseille","lat":43.26951,"lon":5.3863,"is_reserved":false,"is_disabled":false,"rental_uris":{"android":"levelo://app?vid=1c7ad6f4-57f9-461a-9867-f3b52e700041","ios":"levelo://app?vid=1c7ad6f4-57f9-461a-9867-f3b52e700041"},"vehicle_type_id":"4","last_reported":1729231985,"current_range_meters":25600,"station_id":"ce4bhh92rcd13ifvqfh0","pricing_plan_id":"cebpf4jnsgd1na2vs0mg"},{"bike_id":"bf409d02-c0c7-444c-b2a0-619ebcb73fb0","system_id":"levelo_inurba_marseille","lat":43.26789,"lon":5.39417,"is_reserved":false,"is_disabled":false,"rental_uris":{"android":"levelo://app?vid=bf409d02-c0c7-444c-b2a0-619ebcb73fb0","ios":"levelo://app?vid=bf409d02-c0c7-444c-b2a0-619ebcb73fb0"},"vehicle_type_id":"4","last_reported":1729231985,"current_range_meters":38000,"station_id":"ce4bhh12rcd13ifvqfg0","pricing_plan_id":"cebpf4jnsgd1na2vs0mg"},{"bike_id":"8d478c8b-8b6a-4178-a7cf-b710f5b01194","system_id":"levelo_inurba_marseille","lat":43.26216,"lon":5.37446,"is_reserved":false,"is_disabled":false,"rental_uris":{"android":"levelo://app?vid=8d478c8b-8b6a-4178-a7cf-b710f5b01194","ios":"levelo://app?vid=8d478c8b-8b6a-4178-a7cf-b710f5b01194"},"vehicle_type_id":"4","last_reported":1729231985,"current_range_meters":37600,"station_id":"ce4bhgp2rcd13ifvqfc0","pricing_plan_id":"cebpf4jnsgd1na2vs0mg"},{"bike_id":"fb64ec8f-2c85-4ca2-be58-da1b620bb32c","system_id":"levelo_inurba_marseille","lat":43.30603,"lon":5.3935,"is_reserved":false,"is_disabled":false,"rental_uris":{"android":"levelo://app?vid=fb64ec8f-2c85-4ca2-be58-da1b620bb32c","ios":"levelo://app?vid=fb64ec8f-2c85-4ca2-be58-da1b620bb32c"},"vehicle_type_id":"4","last_reported":1729231985,"current_range_meters":38800,"station_id":"ce4bh0p2rcd13ifvqd80","pricing_plan_id":"cebpf4jnsgd1na2vs0mg"},{"bike_id":"ba385696-1c00-4366-b0a7-b17da0e20789","system_id":"levelo_inurba_marseille","lat":43.317613,"lon":5.390186,"is_reserved":false,"is_disabled":false,"rental_uris":{"android":"levelo://app?vid=ba385696-1c00-4366-b0a7-b17da0e20789","ios":"levelo://app?vid=ba385696-1c00-4366-b0a7-b17da0e20789"},"vehicle_type_id":"4","last_reported":1729231985,"current_range_meters":6800,"station_id":"ce4bhqp2rcd13ifvqhng","pricing_plan_id":"cebpf4jnsgd1na2vs0mg"},{"bike_id":"d5d87b96-496a-454b-9e81-b0e5a09c72cf","system_id":"levelo_inurba_marseille","lat":43.28616,"lon":5.37072,"is_reserved":false,"is_disabled":false,"rental_uris":{"android":"levelo://app?vid=d5d87b96-496a-454b-9e81-b0e5a09c72cf","ios":"levelo://app?vid=d5d87b96-496a-454b-9e81-b0e5a09c72cf"},"vehicle_type_id":"4","last_reported":1729231985,"current_range_meters":38400,"station_id":"ce4bht12rcd13ifvqi60","pricing_plan_id":"cebpf4jnsgd1na2vs0mg"},{"bike_id":"052b3563-392a-4857-8174-027696f961ab","system_id":"levelo_inurba_marseille","lat":43.24648,"lon":5.38904,"is_reserved":false,"is_disabled":false,"rental_uris":{"android":"levelo://app?vid=052b3563-392a-4857-8174-027696f961ab","ios":"levelo://app?vid=052b3563-392a-4857-8174-027696f961ab"},"vehicle_type_id":"4","last_reported":1729231985,"current_range_meters":19200,"station_id":"ce4bhg12rcd13ifvqf60","pricing_plan_id":"cebpf4jnsgd1na2vs0mg"},{"bike_id":"6897de91-a87c-480c-8eab-4b5f00d3f963","system_id":"levelo_inurba_marseille","lat":43.30463,"lon":5.37893,"is_reserved":false,"is_disabled":false,"rental_uris":{"android":"levelo://app?vid=6897de91-a87c-480c-8eab-4b5f00d3f963","ios":"levelo://app?vid=6897de91-a87c-480c-8eab-4b5f00d3f963"},"vehicle_type_id":"4","last_reported":1729231985,"current_range_meters":28800,"station_id":"ce4bgup2rcd13ifvqcn0","pricing_plan_id":"cebpf4jnsgd1na2vs0mg"},{"bike_id":"c664c061-e4f3-4e88-a3b3-53b8afa76dc4","system_id":"levelo_inurba_marseille","lat":43.32476,"lon":5.36564,"is_reserved":false,"is_disabled":false,"rental_uris":{"android":"levelo://app?vid=c664c061-e4f3-4e88-a3b3-53b8afa76dc4","ios":"levelo://app?vid=c664c061-e4f3-4e88-a3b3-53b8afa76dc4"},"vehicle_type_id":"4","last_reported":1729231985,"current_range_meters":11600,"station_id":"ce4bhs12rcd13ifvqhvg","pricing_plan_id":"cebpf4jnsgd1na2vs0mg"},{"bike_id":"fab51718-1e50-43f2-bc78-cc5a955e6f32","system_id":"levelo_inurba_marseille","lat":43.33606,"lon":5.41039,"is_reserved":false,"is_disabled":false,"rental_uris":{"android":"levelo://app?vid=fab51718-1e50-43f2-bc78-cc5a955e6f32","ios":"levelo://app?vid=fab51718-1e50-43f2-bc78-cc5a955e6f32"},"vehicle_type_id":"4","last_reported":1729231985,"current_range_meters":16000,"station_id":"ce4bhqh2rcd13ifvqhmg","pricing_plan_id":"cebpf4jnsgd1na2vs0mg"},{"bike_id":"7a001e1f-4f80-44e8-9bdc-c0abc7f8a32f","system_id":"levelo_inurba_marseille","lat":43.27498,"lon":5.42452,"is_reserved":false,"is_disabled":false,"rental_uris":{"android":"levelo://app?vid=7a001e1f-4f80-44e8-9bdc-c0abc7f8a32f","ios":"levelo://app?vid=7a001e1f-4f80-44e8-9bdc-c0abc7f8a32f"},"vehicle_type_id":"4","last_reported":1729231985,"current_range_meters":37600,"station_id":"ce4bhn92rcd13ifvqgrg","pricing_plan_id":"cebpf4jnsgd1na2vs0mg"},{"bike_id":"3e01c3e8-89ec-4586-acf8-0a0601b33f28","system_id":"levelo_inurba_marseille","lat":43.28725,"lon":5.3794,"is_reserved":false,"is_disabled":false,"rental_uris":{"android":"levelo://app?vid=3e01c3e8-89ec-4586-acf8-0a0601b33f28","ios":"levelo://app?vid=3e01c3e8-89ec-4586-acf8-0a0601b33f28"},"vehicle_type_id":"4","last_reported":1729231985,"current_range_meters":30800,"station_id":"ce4bh9p2rcd13ifvqec0","pricing_plan_id":"cebpf4jnsgd1na2vs0mg"},{"bike_id":"14bc89c2-4375-4488-91e8-1027b3555b6b","system_id":"levelo_inurba_marseille","lat":43.2455,"lon":5.39525,"is_reserved":false,"is_disabled":false,"rental_uris":{"android":"levelo://app?vid=14bc89c2-4375-4488-91e8-1027b3555b6b","ios":"levelo://app?vid=14bc89c2-4375-4488-91e8-1027b3555b6b"},"vehicle_type_id":"4","last_reported":1729231985,"current_range_meters":32000,"station_id":"ce4bhlp2rcd13ifvqgjg","pricing_plan_id":"cebpf4jnsgd1na2vs0mg"},{"bike_id":"aa33b057-b1ff-43d6-8cc9-985994c510e4","system_id":"levelo_inurba_marseille","lat":43.24074,"lon":5.3777,"is_reserved":false,"is_disabled":false,"rental_uris":{"android":"levelo://app?vid=aa33b057-b1ff-43d6-8cc9-985994c510e4","ios":"levelo://app?vid=aa33b057-b1ff-43d6-8cc9-985994c510e4"},"vehicle_type_id":"4","last_reported":1729231985,"current_range_meters":24800,"station_id":"ce4bhnp2rcd13ifvqgvg","pricing_plan_id":"cebpf4jnsgd1na2vs0mg"},{"bike_id":"4e88f477-c87c-4fc5-bc5a-d19751e8fceb","system_id":"levelo_inurba_marseille","lat":43.28155,"lon":5.42646,"is_reserved":false,"is_disabled":false,"rental_uris":{"android":"levelo://app?vid=4e88f477-c87c-4fc5-bc5a-d19751e8fceb","ios":"levelo://app?vid=4e88f477-c87c-4fc5-bc5a-d19751e8fceb"},"vehicle_type_id":"4","last_reported":1729231985,"current_range_meters":36800,"station_id":"ce4bhnh2rcd13ifvqgug","pricing_plan_id":"cebpf4jnsgd1na2vs0mg"},{"bike_id":"42021a3d-ca74-4171-8c91-04c13070aabe","system_id":"levelo_inurba_marseille","lat":43.30531,"lon":5.36542,"is_reserved":false,"is_disabled":false,"rental_uris":{"android":"levelo://app?vid=42021a3d-ca74-4171-8c91-04c13070aabe","ios":"levelo://app?vid=42021a3d-ca74-4171-8c91-04c13070aabe"},"vehicle_type_id":"4","last_reported":1729231985,"current_range_meters":38800,"station_id":"ce4bgs12rcd13ifvqcag","pricing_plan_id":"cebpf4jnsgd1na2vs0mg"},{"bike_id":"5fcd8f6e-ba15-45e1-94c8-9f2b14eaa9ad","system_id":"levelo_inurba_marseille","lat":43.28274,"lon":5.35082,"is_reserved":false,"is_disabled":false,"rental_uris":{"android":"levelo://app?vid=5fcd8f6e-ba15-45e1-94c8-9f2b14eaa9ad","ios":"levelo://app?vid=5fcd8f6e-ba15-45e1-94c8-9f2b14eaa9ad"},"vehicle_type_id":"4","last_reported":1729231985,"current_range_meters":38800,"station_id":"ce4bhbp2rcd13ifvqerg","pricing_plan_id":"cebpf4jnsgd1na2vs0mg"},{"bike_id":"278c2e6f-55c5-418e-802c-4af4cd9f1665","system_id":"levelo_inurba_marseille","lat":43.32478,"lon":5.36574,"is_reserved":false,"is_disabled":false,"rental_uris":{"android":"levelo://app?vid=278c2e6f-55c5-418e-802c-4af4cd9f1665","ios":"levelo://app?vid=278c2e6f-55c5-418e-802c-4af4cd9f1665"},"vehicle_type_id":"4","last_reported":1729231985,"current_range_meters":7200,"station_id":"ce4bhs12rcd13ifvqhvg","pricing_plan_id":"cebpf4jnsgd1na2vs0mg"},{"bike_id":"3a58e076-a1e1-4083-a03e-926764754da2","system_id":"levelo_inurba_marseille","lat":43.34141,"lon":5.40905,"is_reserved":false,"is_disabled":false,"rental_uris":{"android":"levelo://app?vid=3a58e076-a1e1-4083-a03e-926764754da2","ios":"levelo://app?vid=3a58e076-a1e1-4083-a03e-926764754da2"},"vehicle_type_id":"4","last_reported":1729231985,"current_range_meters":11600,"station_id":"ce4bhqh2rcd13ifvqhlg","pricing_plan_id":"cebpf4jnsgd1na2vs0mg"},{"bike_id":"f35e98d6-9037-498d-92e0-2f91fd1e544b","system_id":"levelo_inurba_marseille","lat":43.29801,"lon":5.38092,"is_reserved":false,"is_disabled":false,"rental_uris":{"android":"levelo://app?vid=f35e98d6-9037-498d-92e0-2f91fd1e544b","ios":"levelo://app?vid=f35e98d6-9037-498d-92e0-2f91fd1e544b"},"vehicle_type_id":"4","last_reported":1729231985,"current_range_meters":36800,"station_id":"ce4bgip2rcd13ifvqbb0","pricing_plan_id":"cebpf4jnsgd1na2vs0mg"},{"bike_id":"a5488ecc-feca-431e-8b7d-84d131dcd791","system_id":"levelo_inurba_marseille","lat":43.3254,"lon":5.41443,"is_reserved":false,"is_disabled":false,"rental_uris":{"android":"levelo://app?vid=a5488ecc-feca-431e-8b7d-84d131dcd791","ios":"levelo://app?vid=a5488ecc-feca-431e-8b7d-84d131dcd791"},"vehicle_type_id":"4","last_reported":1729231985,"current_range_meters":20400,"station_id":"ce4bhq12rcd13ifvqhhg","pricing_plan_id":"cebpf4jnsgd1na2vs0mg"},{"bike_id":"e4a5fd91-ee94-4f54-8cd4-70031017c7d3","system_id":"levelo_inurba_marseille","lat":43.28347,"lon":5.38108,"is_reserved":false,"is_disabled":false,"rental_uris":{"android":"levelo://app?vid=e4a5fd91-ee94-4f54-8cd4-70031017c7d3","ios":"levelo://app?vid=e4a5fd91-ee94-4f54-8cd4-70031017c7d3"},"vehicle_type_id":"4","last_reported":1729231985,"current_range_meters":8400,"station_id":"ce4bh412rcd13ifvqdr0","pricing_plan_id":"cebpf4jnsgd1na2vs0mg"},{"bike_id":"3cc9ca15-d23c-4891-9216-c134fa816eb8","system_id":"levelo_inurba_marseille","lat":43.24184,"lon":5.39729,"is_reserved":false,"is_disabled":false,"rental_uris":{"android":"levelo://app?vid=3cc9ca15-d23c-4891-9216-c134fa816eb8","ios":"levelo://app?vid=3cc9ca15-d23c-4891-9216-c134fa816eb8"},"vehicle_type_id":"4","last_reported":1729231985,"current_range_meters":25600,"station_id":"ce4bhn12rcd13ifvqgpg","pricing_plan_id":"cebpf4jnsgd1na2vs0mg"},{"bike_id":"2185f387-886c-4021-b5b5-d4e24db50f85","system_id":"levelo_inurba_marseille","lat":43.29843,"lon":5.36271,"is_reserved":false,"is_disabled":false,"rental_uris":{"android":"levelo://app?vid=2185f387-886c-4021-b5b5-d4e24db50f85","ios":"levelo://app?vid=2185f387-886c-4021-b5b5-d4e24db50f85"},"vehicle_type_id":"4","last_reported":1729231985,"current_range_meters":27600,"station_id":"ce4bgpp2rcd13ifvqc3g","pricing_plan_id":"cebpf4jnsgd1na2vs0mg"},{"bike_id":"05b00f0c-3a0d-4d2a-9f88-4fdc287bdf95","system_id":"levelo_inurba_marseille","lat":43.29844,"lon":5.36277,"is_reserved":false,"is_disabled":false,"rental_uris":{"android":"levelo://app?vid=05b00f0c-3a0d-4d2a-9f88-4fdc287bdf95","ios":"levelo://app?vid=05b00f0c-3a0d-4d2a-9f88-4fdc287bdf95"},"vehicle_type_id":"4","last_reported":1729231985,"current_range_meters":33600,"station_id":"ce4bgpp2rcd13ifvqc3g","pricing_plan_id":"cebpf4jnsgd1na2vs0mg"},{"bike_id":"2cdc1722-bbbd-4809-b0f9-3f52e41762bc","system_id":"levelo_inurba_marseille","lat":43.27496,"lon":5.42462,"is_reserved":false,"is_disabled":false,"rental_uris":{"android":"levelo://app?vid=2cdc1722-bbbd-4809-b0f9-3f52e41762bc","ios":"levelo://app?vid=2cdc1722-bbbd-4809-b0f9-3f52e41762bc"},"vehicle_type_id":"4","last_reported":1729231985,"current_range_meters":38800,"station_id":"ce4bhn92rcd13ifvqgrg","pricing_plan_id":"cebpf4jnsgd1na2vs0mg"},{"bike_id":"b973d0fb-33b7-4366-b2f3-352cd0a5e63f","system_id":"levelo_inurba_marseille","lat":43.28989,"lon":5.3666,"is_reserved":false,"is_disabled":false,"rental_uris":{"android":"levelo://app?vid=b973d0fb-33b7-4366-b2f3-352cd0a5e63f","ios":"levelo://app?vid=b973d0fb-33b7-4366-b2f3-352cd0a5e63f"},"vehicle_type_id":"4","last_reported":1729231985,"current_range_meters":34800,"station_id":"ce4bhh92rcd13ifvqfi0","pricing_plan_id":"cebpf4jnsgd1na2vs0mg"},{"bike_id":"7182847d-3512-4e50-8685-13183a9f360a","system_id":"levelo_inurba_marseille","lat":43.30475,"lon":5.379,"is_reserved":false,"is_disabled":false,"rental_uris":{"android":"levelo://app?vid=7182847d-3512-4e50-8685-13183a9f360a","ios":"levelo://app?vid=7182847d-3512-4e50-8685-13183a9f360a"},"vehicle_type_id":"4","last_reported":1729231985,"current_range_meters":22400,"station_id":"ce4bgup2rcd13ifvqcn0","pricing_plan_id":"cebpf4jnsgd1na2vs0mg"},{"bike_id":"a9098d7e-dad8-4291-896a-fb9fc91f920e","system_id":"levelo_inurba_marseille","lat":43.29804,"lon":5.38119,"is_reserved":false,"is_disabled":false,"rental_uris":{"android":"levelo://app?vid=a9098d7e-dad8-4291-896a-fb9fc91f920e","ios":"levelo://app?vid=a9098d7e-dad8-4291-896a-fb9fc91f920e"},"vehicle_type_id":"4","last_reported":1729231985,"current_range_meters":30400,"station_id":"ce4bgip2rcd13ifvqbb0","pricing_plan_id":"cebpf4jnsgd1na2vs0mg"},{"bike_id":"b8951c7b-a93b-4535-9474-84658cb54f8b","system_id":"levelo_inurba_marseille","lat":43.29913,"lon":5.37485,"is_reserved":false,"is_disabled":false,"rental_uris":{"android":"levelo://app?vid=b8951c7b-a93b-4535-9474-84658cb54f8b","ios":"levelo://app?vid=b8951c7b-a93b-4535-9474-84658cb54f8b"},"vehicle_type_id":"4","last_reported":1729231985,"current_range_meters":38800,"station_id":"ce4bgjh2rcd13ifvqbg0","pricing_plan_id":"cebpf4jnsgd1na2vs0mg"},{"bike_id":"3d7546d0-4dba-4212-88c9-dfe9a2032237","system_id":"levelo_inurba_marseille","lat":43.24163,"lon":5.36397,"is_reserved":false,"is_disabled":false,"rental_uris":{"android":"levelo://app?vid=3d7546d0-4dba-4212-88c9-dfe9a2032237","ios":"levelo://app?vid=3d7546d0-4dba-4212-88c9-dfe9a2032237"},"vehicle_type_id":"4","last_reported":1729231985,"current_range_meters":38800,"station_id":"cpo36qri1sfpv3e86is0","pricing_plan_id":"cebpf4jnsgd1na2vs0mg"},{"bike_id":"5f66d9b1-dc9b-46e4-ab6f-979d6221f9ab","system_id":"levelo_inurba_marseille","lat":43.32293,"lon":5.38258,"is_reserved":false,"is_disabled":false,"rental_uris":{"android":"levelo://app?vid=5f66d9b1-dc9b-46e4-ab6f-979d6221f9ab","ios":"levelo://app?vid=5f66d9b1-dc9b-46e4-ab6f-979d6221f9ab"},"vehicle_type_id":"4","last_reported":1729231985,"current_range_meters":11200,"station_id":"ce4bhr12rcd13ifvqhqg","pricing_plan_id":"cebpf4jnsgd1na2vs0mg"},{"bike_id":"544f7afc-844d-4ea0-a2be-13dd77c8ea21","system_id":"levelo_inurba_marseille","lat":43.29563,"lon":5.42283,"is_reserved":false,"is_disabled":false,"rental_uris":{"android":"levelo://app?vid=544f7afc-844d-4ea0-a2be-13dd77c8ea21","ios":"levelo://app?vid=544f7afc-844d-4ea0-a2be-13dd77c8ea21"},"vehicle_type_id":"4","last_reported":1729231985,"current_range_meters":38800,"station_id":"ce4bhph2rcd13ifvqhdg","pricing_plan_id":"cebpf4jnsgd1na2vs0mg"},{"bike_id":"fbe9116f-5c4e-40ee-aa87-c56740e685fb","system_id":"levelo_inurba_marseille","lat":43.26952,"lon":5.38638,"is_reserved":false,"is_disabled":false,"rental_uris":{"android":"levelo://app?vid=fbe9116f-5c4e-40ee-aa87-c56740e685fb","ios":"levelo://app?vid=fbe9116f-5c4e-40ee-aa87-c56740e685fb"},"vehicle_type_id":"4","last_reported":1729231985,"current_range_meters":36800,"station_id":"ce4bhh92rcd13ifvqfh0","pricing_plan_id":"cebpf4jnsgd1na2vs0mg"},{"bike_id":"90b7df2b-2805-4913-a745-07d80216980c","system_id":"levelo_inurba_marseille","lat":43.30801,"lon":5.43519,"is_reserved":false,"is_disabled":false,"rental_uris":{"android":"levelo://app?vid=90b7df2b-2805-4913-a745-07d80216980c","ios":"levelo://app?vid=90b7df2b-2805-4913-a745-07d80216980c"},"vehicle_type_id":"4","last_reported":1729231985,"current_range_meters":13600,"station_id":"ce4bhph2rcd13ifvqheg","pricing_plan_id":"cebpf4jnsgd1na2vs0mg"},{"bike_id":"32ce68a3-3fc7-4257-974f-ab657619c295","system_id":"levelo_inurba_marseille","lat":43.33753,"lon":5.37433,"is_reserved":false,"is_disabled":false,"rental_uris":{"android":"levelo://app?vid=32ce68a3-3fc7-4257-974f-ab657619c295","ios":"levelo://app?vid=32ce68a3-3fc7-4257-974f-ab657619c295"},"vehicle_type_id":"4","last_reported":1729231985,"current_range_meters":26000,"station_id":"","pricing_plan_id":"cebpf4jnsgd1na2vs0mg"},{"bike_id":"bf8efb0b-e266-4cfe-b4e0-f6c91cd91c1f","system_id":"levelo_inurba_marseille","lat":43.30475,"lon":5.37913,"is_reserved":false,"is_disabled":false,"rental_uris":{"android":"levelo://app?vid=bf8efb0b-e266-4cfe-b4e0-f6c91cd91c1f","ios":"levelo://app?vid=bf8efb0b-e266-4cfe-b4e0-f6c91cd91c1f"},"vehicle_type_id":"4","last_reported":1729231985,"current_range_meters":22400,"station_id":"ce4bgup2rcd13ifvqcn0","pricing_plan_id":"cebpf4jnsgd1na2vs0mg"},{"bike_id":"baa5139f-40b1-4f22-9030-10bb81bcdbe4","system_id":"levelo_inurba_marseille","lat":43.29248,"lon":5.4091,"is_reserved":false,"is_disabled":false,"rental_uris":{"android":"levelo://app?vid=baa5139f-40b1-4f22-9030-10bb81bcdbe4","ios":"levelo://app?vid=baa5139f-40b1-4f22-9030-10bb81bcdbe4"},"vehicle_type_id":"4","last_reported":1729231985,"current_range_meters":29600,"station_id":"ce4bh192rcd13ifvqdc0","pricing_plan_id":"cebpf4jnsgd1na2vs0mg"},{"bike_id":"d1d42581-aaae-44fd-820d-f092420f39c8","system_id":"levelo_inurba_marseille","lat":43.301854,"lon":5.372928,"is_reserved":false,"is_disabled":false,"rental_uris":{"android":"levelo://app?vid=d1d42581-aaae-44fd-820d-f092420f39c8","ios":"levelo://app?vid=d1d42581-aaae-44fd-820d-f092420f39c8"},"vehicle_type_id":"4","last_reported":1729231985,"current_range_meters":14400,"station_id":"ce4bgs92rcd13ifvqcc0","pricing_plan_id":"cebpf4jnsgd1na2vs0mg"},{"bike_id":"52c8eb13-7c11-4cd0-a2fd-39c3c51b85d9","system_id":"levelo_inurba_marseille","lat":43.24623,"lon":5.41579,"is_reserved":false,"is_disabled":false,"rental_uris":{"android":"levelo://app?vid=52c8eb13-7c11-4cd0-a2fd-39c3c51b85d9","ios":"levelo://app?vid=52c8eb13-7c11-4cd0-a2fd-39c3c51b85d9"},"vehicle_type_id":"4","last_reported":1729231985,"current_range_meters":16800,"station_id":"","pricing_plan_id":"cebpf4jnsgd1na2vs0mg"},{"bike_id":"5a1b62f7-8a9e-42be-aefa-217aca5b6f27","system_id":"levelo_inurba_marseille","lat":43.23958,"lon":5.36643,"is_reserved":false,"is_disabled":false,"rental_uris":{"android":"levelo://app?vid=5a1b62f7-8a9e-42be-aefa-217aca5b6f27","ios":"levelo://app?vid=5a1b62f7-8a9e-42be-aefa-217aca5b6f27"},"vehicle_type_id":"4","last_reported":1729231985,"current_range_meters":38000,"station_id":"ce4bhi12rcd13ifvqfp0","pricing_plan_id":"cebpf4jnsgd1na2vs0mg"},{"bike_id":"2fe8892d-bdab-445c-ac8e-66325fa7c911","system_id":"levelo_inurba_marseille","lat":43.2694,"lon":5.38927,"is_reserved":false,"is_disabled":false,"rental_uris":{"android":"levelo://app?vid=2fe8892d-bdab-445c-ac8e-66325fa7c911","ios":"levelo://app?vid=2fe8892d-bdab-445c-ac8e-66325fa7c911"},"vehicle_type_id":"4","last_reported":1729231985,"current_range_meters":32800,"station_id":"ce4bhhh2rcd13ifvqfl0","pricing_plan_id":"cebpf4jnsgd1na2vs0mg"},{"bike_id":"fa7bbdc9-afbe-404d-8676-647037cc76a9","system_id":"levelo_inurba_marseille","lat":43.23189,"lon":5.35543,"is_reserved":false,"is_disabled":false,"rental_uris":{"android":"levelo://app?vid=fa7bbdc9-afbe-404d-8676-647037cc76a9","ios":"levelo://app?vid=fa7bbdc9-afbe-404d-8676-647037cc76a9"},"vehicle_type_id":"4","last_reported":1729231985,"current_range_meters":30000,"station_id":"ce4bhu92rcd13ifvqi70","pricing_plan_id":"cebpf4jnsgd1na2vs0mg"},{"bike_id":"9a4b7f99-e11e-4f0b-b857-0dbeb1b8e0a6","system_id":"levelo_inurba_marseille","lat":43.33023,"lon":5.39043,"is_reserved":false,"is_disabled":false,"rental_uris":{"android":"levelo://app?vid=9a4b7f99-e11e-4f0b-b857-0dbeb1b8e0a6","ios":"levelo://app?vid=9a4b7f99-e11e-4f0b-b857-0dbeb1b8e0a6"},"vehicle_type_id":"4","last_reported":1729231985,"current_range_meters":30000,"station_id":"ce4bhr92rcd13ifvqhrg","pricing_plan_id":"cebpf4jnsgd1na2vs0mg"},{"bike_id":"a3cf650d-9506-4515-93fa-7b5605276f14","system_id":"levelo_inurba_marseille","lat":43.330262,"lon":5.390393,"is_reserved":false,"is_disabled":false,"rental_uris":{"android":"levelo://app?vid=a3cf650d-9506-4515-93fa-7b5605276f14","ios":"levelo://app?vid=a3cf650d-9506-4515-93fa-7b5605276f14"},"vehicle_type_id":"4","last_reported":1729231985,"current_range_meters":38800,"station_id":"ce4bhr92rcd13ifvqhrg","pricing_plan_id":"cebpf4jnsgd1na2vs0mg"},{"bike_id":"ff726813-2517-4302-b4b8-60455484d8f6","system_id":"levelo_inurba_marseille","lat":43.33024,"lon":5.3905,"is_reserved":false,"is_disabled":false,"rental_uris":{"android":"levelo://app?vid=ff726813-2517-4302-b4b8-60455484d8f6","ios":"levelo://app?vid=ff726813-2517-4302-b4b8-60455484d8f6"},"vehicle_type_id":"4","last_reported":1729231985,"current_range_meters":38800,"station_id":"ce4bhr92rcd13ifvqhrg","pricing_plan_id":"cebpf4jnsgd1na2vs0mg"},{"bike_id":"f8d2e239-573b-4f9d-8955-e6720aa9663e","system_id":"levelo_inurba_marseille","lat":43.24647,"lon":5.38897,"is_reserved":false,"is_disabled":false,"rental_uris":{"android":"levelo://app?vid=f8d2e239-573b-4f9d-8955-e6720aa9663e","ios":"levelo://app?vid=f8d2e239-573b-4f9d-8955-e6720aa9663e"},"vehicle_type_id":"4","last_reported":1729231985,"current_range_meters":33200,"station_id":"ce4bhg12rcd13ifvqf60","pricing_plan_id":"cebpf4jnsgd1na2vs0mg"},{"bike_id":"133ba9f2-9412-4bde-b9e8-39dc0b56f1de","system_id":"levelo_inurba_marseille","lat":43.29911,"lon":5.38151,"is_reserved":false,"is_disabled":false,"rental_uris":{"android":"levelo://app?vid=133ba9f2-9412-4bde-b9e8-39dc0b56f1de","ios":"levelo://app?vid=133ba9f2-9412-4bde-b9e8-39dc0b56f1de"},"vehicle_type_id":"4","last_reported":1729231985,"current_range_meters":29600,"station_id":"ce4bgj12rcd13ifvqbc0","pricing_plan_id":"cebpf4jnsgd1na2vs0mg"},{"bike_id":"44b3f731-f23e-4dcc-80c3-7fcaf654f564","system_id":"levelo_inurba_marseille","lat":43.28971,"lon":5.37839,"is_reserved":false,"is_disabled":false,"rental_uris":{"android":"levelo://app?vid=44b3f731-f23e-4dcc-80c3-7fcaf654f564","ios":"levelo://app?vid=44b3f731-f23e-4dcc-80c3-7fcaf654f564"},"vehicle_type_id":"4","last_reported":1729231985,"current_range_meters":38000,"station_id":"ce4bh9p2rcd13ifvqed0","pricing_plan_id":"cebpf4jnsgd1na2vs0mg"},{"bike_id":"2b17cdac-d72d-4f54-9d9b-dd8650ad2d79","system_id":"levelo_inurba_marseille","lat":43.30594,"lon":5.39361,"is_reserved":false,"is_disabled":false,"rental_uris":{"android":"levelo://app?vid=2b17cdac-d72d-4f54-9d9b-dd8650ad2d79","ios":"levelo://app?vid=2b17cdac-d72d-4f54-9d9b-dd8650ad2d79"},"vehicle_type_id":"4","last_reported":1729231985,"current_range_meters":24000,"station_id":"ce4bh0p2rcd13ifvqd80","pricing_plan_id":"cebpf4jnsgd1na2vs0mg"},{"bike_id":"8c1ec6cb-2291-4814-837b-be8625c706f3","system_id":"levelo_inurba_marseille","lat":43.23196,"lon":5.35543,"is_reserved":false,"is_disabled":false,"rental_uris":{"android":"levelo://app?vid=8c1ec6cb-2291-4814-837b-be8625c706f3","ios":"levelo://app?vid=8c1ec6cb-2291-4814-837b-be8625c706f3"},"vehicle_type_id":"4","last_reported":1729231985,"current_range_meters":34000,"station_id":"ce4bhu92rcd13ifvqi70","pricing_plan_id":"cebpf4jnsgd1na2vs0mg"},{"bike_id":"e05a8545-65f7-4cf3-8739-ba534517b4f3","system_id":"levelo_inurba_marseille","lat":43.24084,"lon":5.37754,"is_reserved":false,"is_disabled":false,"rental_uris":{"android":"levelo://app?vid=e05a8545-65f7-4cf3-8739-ba534517b4f3","ios":"levelo://app?vid=e05a8545-65f7-4cf3-8739-ba534517b4f3"},"vehicle_type_id":"4","last_reported":1729231985,"current_range_meters":27600,"station_id":"ce4bhnp2rcd13ifvqgvg","pricing_plan_id":"cebpf4jnsgd1na2vs0mg"},{"bike_id":"109e6c8a-0c97-4977-80dc-2ed128d130e9","system_id":"levelo_inurba_marseille","lat":43.26958,"lon":5.38641,"is_reserved":false,"is_disabled":false,"rental_uris":{"android":"levelo://app?vid=109e6c8a-0c97-4977-80dc-2ed128d130e9","ios":"levelo://app?vid=109e6c8a-0c97-4977-80dc-2ed128d130e9"},"vehicle_type_id":"4","last_reported":1729231985,"current_range_meters":30800,"station_id":"ce4bhh92rcd13ifvqfh0","pricing_plan_id":"cebpf4jnsgd1na2vs0mg"},{"bike_id":"64503929-7751-40d6-9a91-0a6614d2a4d8","system_id":"levelo_inurba_marseille","lat":43.3112,"lon":5.37784,"is_reserved":false,"is_disabled":false,"rental_uris":{"android":"levelo://app?vid=64503929-7751-40d6-9a91-0a6614d2a4d8","ios":"levelo://app?vid=64503929-7751-40d6-9a91-0a6614d2a4d8"},"vehicle_type_id":"4","last_reported":1729231985,"current_range_meters":34000,"station_id":"ce4bgt92rcd13ifvqcg0","pricing_plan_id":"cebpf4jnsgd1na2vs0mg"},{"bike_id":"266dc397-fb18-4681-b62e-c2296c41a8f9","system_id":"levelo_inurba_marseille","lat":43.29964,"lon":5.41328,"is_reserved":false,"is_disabled":false,"rental_uris":{"android":"levelo://app?vid=266dc397-fb18-4681-b62e-c2296c41a8f9","ios":"levelo://app?vid=266dc397-fb18-4681-b62e-c2296c41a8f9"},"vehicle_type_id":"4","last_reported":1729231985,"current_range_meters":38800,"station_id":"ce4bhp12rcd13ifvqh9g","pricing_plan_id":"cebpf4jnsgd1na2vs0mg"},{"bike_id":"825a5728-5622-402d-832f-3c45d65f1195","system_id":"levelo_inurba_marseille","lat":43.30545,"lon":5.384274,"is_reserved":false,"is_disabled":false,"rental_uris":{"android":"levelo://app?vid=825a5728-5622-402d-832f-3c45d65f1195","ios":"levelo://app?vid=825a5728-5622-402d-832f-3c45d65f1195"},"vehicle_type_id":"4","last_reported":1729231985,"current_range_meters":35600,"station_id":"ce4bgup2rcd13ifvqcn0","pricing_plan_id":"cebpf4jnsgd1na2vs0mg"},{"bike_id":"705b8de5-8a57-41b7-8eec-7e54710e0592","system_id":"levelo_inurba_marseille","lat":43.25006,"lon":5.38925,"is_reserved":false,"is_disabled":false,"rental_uris":{"android":"levelo://app?vid=705b8de5-8a57-41b7-8eec-7e54710e0592","ios":"levelo://app?vid=705b8de5-8a57-41b7-8eec-7e54710e0592"},"vehicle_type_id":"4","last_reported":1729231985,"current_range_meters":4000,"station_id":"ce4bhgp2rcd13ifvqfd0","pricing_plan_id":"cebpf4jnsgd1na2vs0mg"},{"bike_id":"c89c2319-61a9-47ef-9229-e31c9eaab143","system_id":"levelo_inurba_marseille","lat":43.23192,"lon":5.35544,"is_reserved":false,"is_disabled":false,"rental_uris":{"android":"levelo://app?vid=c89c2319-61a9-47ef-9229-e31c9eaab143","ios":"levelo://app?vid=c89c2319-61a9-47ef-9229-e31c9eaab143"},"vehicle_type_id":"4","last_reported":1729231985,"current_range_meters":37600,"station_id":"ce4bhu92rcd13ifvqi70","pricing_plan_id":"cebpf4jnsgd1na2vs0mg"},{"bike_id":"eebd2710-b6e0-4f47-8a18-ffd45a96c57a","system_id":"levelo_inurba_marseille","lat":43.24072,"lon":5.37767,"is_reserved":false,"is_disabled":false,"rental_uris":{"android":"levelo://app?vid=eebd2710-b6e0-4f47-8a18-ffd45a96c57a","ios":"levelo://app?vid=eebd2710-b6e0-4f47-8a18-ffd45a96c57a"},"vehicle_type_id":"4","last_reported":1729231985,"current_range_meters":5600,"station_id":"ce4bhnp2rcd13ifvqgvg","pricing_plan_id":"cebpf4jnsgd1na2vs0mg"},{"bike_id":"15a59784-d515-4a97-ab9b-90e02c51b4d1","system_id":"levelo_inurba_marseille","lat":43.24996,"lon":5.38932,"is_reserved":false,"is_disabled":false,"rental_uris":{"android":"levelo://app?vid=15a59784-d515-4a97-ab9b-90e02c51b4d1","ios":"levelo://app?vid=15a59784-d515-4a97-ab9b-90e02c51b4d1"},"vehicle_type_id":"4","last_reported":1729231985,"current_range_meters":8000,"station_id":"ce4bhgp2rcd13ifvqfd0","pricing_plan_id":"cebpf4jnsgd1na2vs0mg"},{"bike_id":"57361188-06f2-4c07-98b2-feba1246da7f","system_id":"levelo_inurba_marseille","lat":43.30214,"lon":5.39477,"is_reserved":false,"is_disabled":false,"rental_uris":{"android":"levelo://app?vid=57361188-06f2-4c07-98b2-feba1246da7f","ios":"levelo://app?vid=57361188-06f2-4c07-98b2-feba1246da7f"},"vehicle_type_id":"4","last_reported":1729231985,"current_range_meters":22000,"station_id":"ce4bh0p2rcd13ifvqd70","pricing_plan_id":"cebpf4jnsgd1na2vs0mg"},{"bike_id":"794acdc8-c17c-4149-b903-ed4baea396b4","system_id":"levelo_inurba_marseille","lat":43.23187,"lon":5.39979,"is_reserved":false,"is_disabled":false,"rental_uris":{"android":"levelo://app?vid=794acdc8-c17c-4149-b903-ed4baea396b4","ios":"levelo://app?vid=794acdc8-c17c-4149-b903-ed4baea396b4"},"vehicle_type_id":"4","last_reported":1729231985,"current_range_meters":12000,"station_id":"ce4bhn12rcd13ifvqgqg","pricing_plan_id":"cebpf4jnsgd1na2vs0mg"},{"bike_id":"a638a42f-2c86-4a47-9fce-e8d77bee8966","system_id":"levelo_inurba_marseille","lat":43.3081,"lon":5.4353,"is_reserved":false,"is_disabled":false,"rental_uris":{"android":"levelo://app?vid=a638a42f-2c86-4a47-9fce-e8d77bee8966","ios":"levelo://app?vid=a638a42f-2c86-4a47-9fce-e8d77bee8966"},"vehicle_type_id":"4","last_reported":1729231985,"current_range_meters":29600,"station_id":"ce4bhph2rcd13ifvqheg","pricing_plan_id":"cebpf4jnsgd1na2vs0mg"},{"bike_id":"a12fd2c3-b5fe-497f-a9a1-b48106f9e4f3","system_id":"levelo_inurba_marseille","lat":43.28611,"lon":5.37068,"is_reserved":false,"is_disabled":false,"rental_uris":{"android":"levelo://app?vid=a12fd2c3-b5fe-497f-a9a1-b48106f9e4f3","ios":"levelo://app?vid=a12fd2c3-b5fe-497f-a9a1-b48106f9e4f3"},"vehicle_type_id":"4","last_reported":1729231985,"current_range_meters":37600,"station_id":"ce4bht12rcd13ifvqi60","pricing_plan_id":"cebpf4jnsgd1na2vs0mg"},{"bike_id":"2901b8c0-c6a2-419e-85db-0504e2945734","system_id":"levelo_inurba_marseille","lat":43.30597,"lon":5.39365,"is_reserved":false,"is_disabled":false,"rental_uris":{"android":"levelo://app?vid=2901b8c0-c6a2-419e-85db-0504e2945734","ios":"levelo://app?vid=2901b8c0-c6a2-419e-85db-0504e2945734"},"vehicle_type_id":"4","last_reported":1729231985,"current_range_meters":33200,"station_id":"ce4bh0p2rcd13ifvqd80","pricing_plan_id":"cebpf4jnsgd1na2vs0mg"},{"bike_id":"b45c7b3d-a751-4ad0-ae7b-0cb81cab24c6","system_id":"levelo_inurba_marseille","lat":43.31117,"lon":5.37774,"is_reserved":false,"is_disabled":false,"rental_uris":{"android":"levelo://app?vid=b45c7b3d-a751-4ad0-ae7b-0cb81cab24c6","ios":"levelo://app?vid=b45c7b3d-a751-4ad0-ae7b-0cb81cab24c6"},"vehicle_type_id":"4","last_reported":1729231985,"current_range_meters":38800,"station_id":"ce4bgt92rcd13ifvqcg0","pricing_plan_id":"cebpf4jnsgd1na2vs0mg"},{"bike_id":"874494de-7452-4f47-9fec-c5ec79478035","system_id":"levelo_inurba_marseille","lat":43.23963,"lon":5.36639,"is_reserved":false,"is_disabled":false,"rental_uris":{"android":"levelo://app?vid=874494de-7452-4f47-9fec-c5ec79478035","ios":"levelo://app?vid=874494de-7452-4f47-9fec-c5ec79478035"},"vehicle_type_id":"4","last_reported":1729231985,"current_range_meters":25200,"station_id":"ce4bhi12rcd13ifvqfp0","pricing_plan_id":"cebpf4jnsgd1na2vs0mg"},{"bike_id":"8b33911e-5d42-46bd-b00d-c1d5ce72f577","system_id":"levelo_inurba_marseille","lat":43.23193,"lon":5.39985,"is_reserved":false,"is_disabled":false,"rental_uris":{"android":"levelo://app?vid=8b33911e-5d42-46bd-b00d-c1d5ce72f577","ios":"levelo://app?vid=8b33911e-5d42-46bd-b00d-c1d5ce72f577"},"vehicle_type_id":"4","last_reported":1729231985,"current_range_meters":38800,"station_id":"ce4bhn12rcd13ifvqgqg","pricing_plan_id":"cebpf4jnsgd1na2vs0mg"},{"bike_id":"a76de2c0-2220-470c-859d-5067404e02e2","system_id":"levelo_inurba_marseille","lat":43.30464,"lon":5.37904,"is_reserved":false,"is_disabled":false,"rental_uris":{"android":"levelo://app?vid=a76de2c0-2220-470c-859d-5067404e02e2","ios":"levelo://app?vid=a76de2c0-2220-470c-859d-5067404e02e2"},"vehicle_type_id":"4","last_reported":1729231985,"current_range_meters":30400,"station_id":"ce4bgup2rcd13ifvqcn0","pricing_plan_id":"cebpf4jnsgd1na2vs0mg"},{"bike_id":"b6847ffe-8a49-4fb7-bf21-e9b0da0b98a9","system_id":"levelo_inurba_marseille","lat":43.25942,"lon":5.40901,"is_reserved":false,"is_disabled":false,"rental_uris":{"android":"levelo://app?vid=b6847ffe-8a49-4fb7-bf21-e9b0da0b98a9","ios":"levelo://app?vid=b6847ffe-8a49-4fb7-bf21-e9b0da0b98a9"},"vehicle_type_id":"4","last_reported":1729231985,"current_range_meters":38800,"station_id":"ce4bhm92rcd13ifvqglg","pricing_plan_id":"cebpf4jnsgd1na2vs0mg"},{"bike_id":"2b17fc51-6a04-4de4-9767-91ac6030ac7d","system_id":"levelo_inurba_marseille","lat":43.26202,"lon":5.37942,"is_reserved":false,"is_disabled":false,"rental_uris":{"android":"levelo://app?vid=2b17fc51-6a04-4de4-9767-91ac6030ac7d","ios":"levelo://app?vid=2b17fc51-6a04-4de4-9767-91ac6030ac7d"},"vehicle_type_id":"4","last_reported":1729231985,"current_range_meters":25600,"station_id":"ce4bhjp2rcd13ifvqg90","pricing_plan_id":"cebpf4jnsgd1na2vs0mg"},{"bike_id":"0994d7f0-fa2e-480f-b967-2b1e1b476b78","system_id":"levelo_inurba_marseille","lat":43.23192,"lon":5.35562,"is_reserved":false,"is_disabled":false,"rental_uris":{"android":"levelo://app?vid=0994d7f0-fa2e-480f-b967-2b1e1b476b78","ios":"levelo://app?vid=0994d7f0-fa2e-480f-b967-2b1e1b476b78"},"vehicle_type_id":"4","last_reported":1729231985,"current_range_meters":9600,"station_id":"ce4bhu92rcd13ifvqi70","pricing_plan_id":"cebpf4jnsgd1na2vs0mg"},{"bike_id":"cafacf31-3dc4-4662-b543-8a143108fe4d","system_id":"levelo_inurba_marseille","lat":43.23188,"lon":5.39977,"is_reserved":false,"is_disabled":false,"rental_uris":{"android":"levelo://app?vid=cafacf31-3dc4-4662-b543-8a143108fe4d","ios":"levelo://app?vid=cafacf31-3dc4-4662-b543-8a143108fe4d"},"vehicle_type_id":"4","last_reported":1729231985,"current_range_meters":20000,"station_id":"ce4bhn12rcd13ifvqgqg","pricing_plan_id":"cebpf4jnsgd1na2vs0mg"},{"bike_id":"22c39253-4373-4654-b8d6-6dd622f66580","system_id":"levelo_inurba_marseille","lat":43.32537,"lon":5.41431,"is_reserved":false,"is_disabled":false,"rental_uris":{"android":"levelo://app?vid=22c39253-4373-4654-b8d6-6dd622f66580","ios":"levelo://app?vid=22c39253-4373-4654-b8d6-6dd622f66580"},"vehicle_type_id":"4","last_reported":1729231985,"current_range_meters":24000,"station_id":"ce4bhq12rcd13ifvqhhg","pricing_plan_id":"cebpf4jnsgd1na2vs0mg"},{"bike_id":"66ccc46d-618e-4760-b09c-27382152bdab","system_id":"levelo_inurba_marseille","lat":43.23194,"lon":5.35539,"is_reserved":false,"is_disabled":false,"rental_uris":{"android":"levelo://app?vid=66ccc46d-618e-4760-b09c-27382152bdab","ios":"levelo://app?vid=66ccc46d-618e-4760-b09c-27382152bdab"},"vehicle_type_id":"4","last_reported":1729231985,"current_range_meters":29600,"station_id":"ce4bhu92rcd13ifvqi70","pricing_plan_id":"cebpf4jnsgd1na2vs0mg"},{"bike_id":"d5b9b817-fb2d-41a8-ba43-96d664da8412","system_id":"levelo_inurba_marseille","lat":43.30601,"lon":5.39364,"is_reserved":false,"is_disabled":false,"rental_uris":{"android":"levelo://app?vid=d5b9b817-fb2d-41a8-ba43-96d664da8412","ios":"levelo://app?vid=d5b9b817-fb2d-41a8-ba43-96d664da8412"},"vehicle_type_id":"4","last_reported":1729231985,"current_range_meters":32400,"station_id":"ce4bh0p2rcd13ifvqd80","pricing_plan_id":"cebpf4jnsgd1na2vs0mg"},{"bike_id":"664792a8-fedb-46f8-a815-c4726dcc7830","system_id":"levelo_inurba_marseille","lat":43.29045,"lon":5.39957,"is_reserved":false,"is_disabled":false,"rental_uris":{"android":"levelo://app?vid=664792a8-fedb-46f8-a815-c4726dcc7830","ios":"levelo://app?vid=664792a8-fedb-46f8-a815-c4726dcc7830"},"vehicle_type_id":"4","last_reported":1729231985,"current_range_meters":30800,"station_id":"ce4bh392rcd13ifvqdm0","pricing_plan_id":"cebpf4jnsgd1na2vs0mg"},{"bike_id":"8d481af8-b62c-4acc-a2e6-1539cd665ab7","system_id":"levelo_inurba_marseille","lat":43.27497,"lon":5.42458,"is_reserved":false,"is_disabled":false,"rental_uris":{"android":"levelo://app?vid=8d481af8-b62c-4acc-a2e6-1539cd665ab7","ios":"levelo://app?vid=8d481af8-b62c-4acc-a2e6-1539cd665ab7"},"vehicle_type_id":"4","last_reported":1729231985,"current_range_meters":21600,"station_id":"ce4bhn92rcd13ifvqgrg","pricing_plan_id":"cebpf4jnsgd1na2vs0mg"},{"bike_id":"00898167-0eb0-40ce-9671-968a45c2492b","system_id":"levelo_inurba_marseille","lat":43.30463,"lon":5.37904,"is_reserved":false,"is_disabled":false,"rental_uris":{"android":"levelo://app?vid=00898167-0eb0-40ce-9671-968a45c2492b","ios":"levelo://app?vid=00898167-0eb0-40ce-9671-968a45c2492b"},"vehicle_type_id":"4","last_reported":1729231985,"current_range_meters":24000,"station_id":"ce4bgup2rcd13ifvqcn0","pricing_plan_id":"cebpf4jnsgd1na2vs0mg"},{"bike_id":"e4931e34-e843-4fa6-bef8-69f937e96cc9","system_id":"levelo_inurba_marseille","lat":43.25115,"lon":5.40322,"is_reserved":false,"is_disabled":false,"rental_uris":{"android":"levelo://app?vid=e4931e34-e843-4fa6-bef8-69f937e96cc9","ios":"levelo://app?vid=e4931e34-e843-4fa6-bef8-69f937e96cc9"},"vehicle_type_id":"4","last_reported":1729231985,"current_range_meters":6400,"station_id":"ce4bhlh2rcd13ifvqgig","pricing_plan_id":"cebpf4jnsgd1na2vs0mg"},{"bike_id":"72ce77f7-81c8-49a3-8760-dfcdc23fbddb","system_id":"levelo_inurba_marseille","lat":43.27074,"lon":5.42285,"is_reserved":false,"is_disabled":false,"rental_uris":{"android":"levelo://app?vid=72ce77f7-81c8-49a3-8760-dfcdc23fbddb","ios":"levelo://app?vid=72ce77f7-81c8-49a3-8760-dfcdc23fbddb"},"vehicle_type_id":"4","last_reported":1729231985,"current_range_meters":26800,"station_id":"ce4bhk92rcd13ifvqgb0","pricing_plan_id":"cebpf4jnsgd1na2vs0mg"},{"bike_id":"fc262b45-2b88-4d3d-8020-e7c946d1fec3","system_id":"levelo_inurba_marseille","lat":43.32113,"lon":5.36772,"is_reserved":false,"is_disabled":false,"rental_uris":{"android":"levelo://app?vid=fc262b45-2b88-4d3d-8020-e7c946d1fec3","ios":"levelo://app?vid=fc262b45-2b88-4d3d-8020-e7c946d1fec3"},"vehicle_type_id":"4","last_reported":1729231985,"current_range_meters":38400,"station_id":"ce4bhrh2rcd13ifvqhug","pricing_plan_id":"cebpf4jnsgd1na2vs0mg"},{"bike_id":"d7992096-705f-4c05-a4cb-e8657ad3ee19","system_id":"levelo_inurba_marseille","lat":43.31354,"lon":5.3672,"is_reserved":false,"is_disabled":false,"rental_uris":{"android":"levelo://app?vid=d7992096-705f-4c05-a4cb-e8657ad3ee19","ios":"levelo://app?vid=d7992096-705f-4c05-a4cb-e8657ad3ee19"},"vehicle_type_id":"4","last_reported":1729231985,"current_range_meters":32000,"station_id":"ce4bgr92rcd13ifvqc6g","pricing_plan_id":"cebpf4jnsgd1na2vs0mg"},{"bike_id":"0b03270e-5e6d-4ba5-a579-bef2e5d0025a","system_id":"levelo_inurba_marseille","lat":43.26212,"lon":5.37442,"is_reserved":false,"is_disabled":false,"rental_uris":{"android":"levelo://app?vid=0b03270e-5e6d-4ba5-a579-bef2e5d0025a","ios":"levelo://app?vid=0b03270e-5e6d-4ba5-a579-bef2e5d0025a"},"vehicle_type_id":"4","last_reported":1729231985,"current_range_meters":24000,"station_id":"ce4bhgp2rcd13ifvqfc0","pricing_plan_id":"cebpf4jnsgd1na2vs0mg"},{"bike_id":"907d90e2-7e08-4846-bbc2-01977b54a9bd","system_id":"levelo_inurba_marseille","lat":43.24168,"lon":5.36392,"is_reserved":false,"is_disabled":false,"rental_uris":{"android":"levelo://app?vid=907d90e2-7e08-4846-bbc2-01977b54a9bd","ios":"levelo://app?vid=907d90e2-7e08-4846-bbc2-01977b54a9bd"},"vehicle_type_id":"4","last_reported":1729231985,"current_range_meters":19200,"station_id":"cpo36qri1sfpv3e86is0","pricing_plan_id":"cebpf4jnsgd1na2vs0mg"},{"bike_id":"07968cbf-0c0b-4ed9-9aaa-b749f52ab67d","system_id":"levelo_inurba_marseille","lat":43.30603,"lon":5.39355,"is_reserved":false,"is_disabled":false,"rental_uris":{"android":"levelo://app?vid=07968cbf-0c0b-4ed9-9aaa-b749f52ab67d","ios":"levelo://app?vid=07968cbf-0c0b-4ed9-9aaa-b749f52ab67d"},"vehicle_type_id":"4","last_reported":1729231985,"current_range_meters":25600,"station_id":"ce4bh0p2rcd13ifvqd80","pricing_plan_id":"cebpf4jnsgd1na2vs0mg"},{"bike_id":"59238a0c-de64-46a6-a64a-5a5563ed932a","system_id":"levelo_inurba_marseille","lat":43.22932,"lon":5.35372,"is_reserved":false,"is_disabled":false,"rental_uris":{"android":"levelo://app?vid=59238a0c-de64-46a6-a64a-5a5563ed932a","ios":"levelo://app?vid=59238a0c-de64-46a6-a64a-5a5563ed932a"},"vehicle_type_id":"4","last_reported":1729231985,"current_range_meters":27600,"station_id":"cpo3532slgdg3j2ikp40","pricing_plan_id":"cebpf4jnsgd1na2vs0mg"},{"bike_id":"3bd447d5-41ca-4287-b6a9-bd3d82ad381b","system_id":"levelo_inurba_marseille","lat":43.30599,"lon":5.39362,"is_reserved":false,"is_disabled":false,"rental_uris":{"android":"levelo://app?vid=3bd447d5-41ca-4287-b6a9-bd3d82ad381b","ios":"levelo://app?vid=3bd447d5-41ca-4287-b6a9-bd3d82ad381b"},"vehicle_type_id":"4","last_reported":1729231985,"current_range_meters":33200,"station_id":"ce4bh0p2rcd13ifvqd80","pricing_plan_id":"cebpf4jnsgd1na2vs0mg"},{"bike_id":"0d9570c6-60b3-42af-8c11-033de7ccd9c7","system_id":"levelo_inurba_marseille","lat":43.26683,"lon":5.38267,"is_reserved":false,"is_disabled":false,"rental_uris":{"android":"levelo://app?vid=0d9570c6-60b3-42af-8c11-033de7ccd9c7","ios":"levelo://app?vid=0d9570c6-60b3-42af-8c11-033de7ccd9c7"},"vehicle_type_id":"4","last_reported":1729231985,"current_range_meters":37600,"station_id":"ce4bhg92rcd13ifvqf90","pricing_plan_id":"cebpf4jnsgd1na2vs0mg"},{"bike_id":"2db49f82-1252-4071-9057-14d5eafb22c3","system_id":"levelo_inurba_marseille","lat":43.27493,"lon":5.42461,"is_reserved":false,"is_disabled":false,"rental_uris":{"android":"levelo://app?vid=2db49f82-1252-4071-9057-14d5eafb22c3","ios":"levelo://app?vid=2db49f82-1252-4071-9057-14d5eafb22c3"},"vehicle_type_id":"4","last_reported":1729231985,"current_range_meters":30400,"station_id":"ce4bhn92rcd13ifvqgrg","pricing_plan_id":"cebpf4jnsgd1na2vs0mg"},{"bike_id":"0a12077a-64ea-4f82-9cc2-6d30cd8f221d","system_id":"levelo_inurba_marseille","lat":43.25104,"lon":5.40328,"is_reserved":false,"is_disabled":false,"rental_uris":{"android":"levelo://app?vid=0a12077a-64ea-4f82-9cc2-6d30cd8f221d","ios":"levelo://app?vid=0a12077a-64ea-4f82-9cc2-6d30cd8f221d"},"vehicle_type_id":"4","last_reported":1729231985,"current_range_meters":24000,"station_id":"ce4bhlh2rcd13ifvqgig","pricing_plan_id":"cebpf4jnsgd1na2vs0mg"},{"bike_id":"43fdde0f-33ee-4944-81bd-0a22df7d4f67","system_id":"levelo_inurba_marseille","lat":43.24075,"lon":5.37764,"is_reserved":false,"is_disabled":false,"rental_uris":{"android":"levelo://app?vid=43fdde0f-33ee-4944-81bd-0a22df7d4f67","ios":"levelo://app?vid=43fdde0f-33ee-4944-81bd-0a22df7d4f67"},"vehicle_type_id":"4","last_reported":1729231985,"current_range_meters":38400,"station_id":"ce4bhnp2rcd13ifvqgvg","pricing_plan_id":"cebpf4jnsgd1na2vs0mg"},{"bike_id":"94dad7f8-6585-4b37-b691-74420d23ef13","system_id":"levelo_inurba_marseille","lat":43.30799,"lon":5.43522,"is_reserved":false,"is_disabled":false,"rental_uris":{"android":"levelo://app?vid=94dad7f8-6585-4b37-b691-74420d23ef13","ios":"levelo://app?vid=94dad7f8-6585-4b37-b691-74420d23ef13"},"vehicle_type_id":"4","last_reported":1729231985,"current_range_meters":36800,"station_id":"ce4bhph2rcd13ifvqheg","pricing_plan_id":"cebpf4jnsgd1na2vs0mg"},{"bike_id":"a641e56a-cbc8-4c77-9ca9-e9e465436340","system_id":"levelo_inurba_marseille","lat":43.30954,"lon":5.39043,"is_reserved":false,"is_disabled":false,"rental_uris":{"android":"levelo://app?vid=a641e56a-cbc8-4c77-9ca9-e9e465436340","ios":"levelo://app?vid=a641e56a-cbc8-4c77-9ca9-e9e465436340"},"vehicle_type_id":"4","last_reported":1729231985,"current_range_meters":38800,"station_id":"ce4bgup2rcd13ifvqco0","pricing_plan_id":"cebpf4jnsgd1na2vs0mg"},{"bike_id":"4562e9bb-7c1e-4e0e-95e1-858d0f8d86d1","system_id":"levelo_inurba_marseille","lat":43.23197,"lon":5.355525,"is_reserved":false,"is_disabled":false,"rental_uris":{"android":"levelo://app?vid=4562e9bb-7c1e-4e0e-95e1-858d0f8d86d1","ios":"levelo://app?vid=4562e9bb-7c1e-4e0e-95e1-858d0f8d86d1"},"vehicle_type_id":"4","last_reported":1729231985,"current_range_meters":36800,"station_id":"ce4bhu92rcd13ifvqi70","pricing_plan_id":"cebpf4jnsgd1na2vs0mg"},{"bike_id":"8ed8f046-33ce-4fc1-8b11-bc22d612772d","system_id":"levelo_inurba_marseille","lat":43.29806,"lon":5.3811,"is_reserved":false,"is_disabled":false,"rental_uris":{"android":"levelo://app?vid=8ed8f046-33ce-4fc1-8b11-bc22d612772d","ios":"levelo://app?vid=8ed8f046-33ce-4fc1-8b11-bc22d612772d"},"vehicle_type_id":"4","last_reported":1729231985,"current_range_meters":36000,"station_id":"ce4bgip2rcd13ifvqbb0","pricing_plan_id":"cebpf4jnsgd1na2vs0mg"},{"bike_id":"1e9fd399-dcd6-4b31-8ffa-a89520ed08cc","system_id":"levelo_inurba_marseille","lat":43.32533,"lon":5.41429,"is_reserved":false,"is_disabled":false,"rental_uris":{"android":"levelo://app?vid=1e9fd399-dcd6-4b31-8ffa-a89520ed08cc","ios":"levelo://app?vid=1e9fd399-dcd6-4b31-8ffa-a89520ed08cc"},"vehicle_type_id":"4","last_reported":1729231985,"current_range_meters":36400,"station_id":"ce4bhq12rcd13ifvqhhg","pricing_plan_id":"cebpf4jnsgd1na2vs0mg"},{"bike_id":"6837ac97-30a8-4145-8047-b6d6df61ac48","system_id":"levelo_inurba_marseille","lat":43.23185,"lon":5.39993,"is_reserved":false,"is_disabled":false,"rental_uris":{"android":"levelo://app?vid=6837ac97-30a8-4145-8047-b6d6df61ac48","ios":"levelo://app?vid=6837ac97-30a8-4145-8047-b6d6df61ac48"},"vehicle_type_id":"4","last_reported":1729231985,"current_range_meters":38800,"station_id":"ce4bhn12rcd13ifvqgqg","pricing_plan_id":"cebpf4jnsgd1na2vs0mg"},{"bike_id":"2140b6a3-5118-4150-823e-9225aeb56201","system_id":"levelo_inurba_marseille","lat":43.23192,"lon":5.35544,"is_reserved":false,"is_disabled":false,"rental_uris":{"android":"levelo://app?vid=2140b6a3-5118-4150-823e-9225aeb56201","ios":"levelo://app?vid=2140b6a3-5118-4150-823e-9225aeb56201"},"vehicle_type_id":"4","last_reported":1729231985,"current_range_meters":32800,"station_id":"ce4bhu92rcd13ifvqi70","pricing_plan_id":"cebpf4jnsgd1na2vs0mg"},{"bike_id":"2d26828d-d90f-4409-8e3f-2bdaa5ca0cb2","system_id":"levelo_inurba_marseille","lat":43.23189,"lon":5.39984,"is_reserved":false,"is_disabled":false,"rental_uris":{"android":"levelo://app?vid=2d26828d-d90f-4409-8e3f-2bdaa5ca0cb2","ios":"levelo://app?vid=2d26828d-d90f-4409-8e3f-2bdaa5ca0cb2"},"vehicle_type_id":"4","last_reported":1729231985,"current_range_meters":34000,"station_id":"ce4bhn12rcd13ifvqgqg","pricing_plan_id":"cebpf4jnsgd1na2vs0mg"},{"bike_id":"66b00399-45e1-4f0a-af69-00121535fe8c","system_id":"levelo_inurba_marseille","lat":43.30148,"lon":5.38077,"is_reserved":false,"is_disabled":false,"rental_uris":{"android":"levelo://app?vid=66b00399-45e1-4f0a-af69-00121535fe8c","ios":"levelo://app?vid=66b00399-45e1-4f0a-af69-00121535fe8c"},"vehicle_type_id":"4","last_reported":1729231985,"current_range_meters":21600,"station_id":"ce4bgjp2rcd13ifvqbh0","pricing_plan_id":"cebpf4jnsgd1na2vs0mg"},{"bike_id":"6f303577-c145-42dc-b0ad-f609ecd5c6cc","system_id":"levelo_inurba_marseille","lat":43.28154,"lon":5.42639,"is_reserved":false,"is_disabled":false,"rental_uris":{"android":"levelo://app?vid=6f303577-c145-42dc-b0ad-f609ecd5c6cc","ios":"levelo://app?vid=6f303577-c145-42dc-b0ad-f609ecd5c6cc"},"vehicle_type_id":"4","last_reported":1729231985,"current_range_meters":30800,"station_id":"ce4bhnh2rcd13ifvqgug","pricing_plan_id":"cebpf4jnsgd1na2vs0mg"},{"bike_id":"53434d6f-a84d-4c28-940d-dfe33ad91507","system_id":"levelo_inurba_marseille","lat":43.27497,"lon":5.42459,"is_reserved":false,"is_disabled":false,"rental_uris":{"android":"levelo://app?vid=53434d6f-a84d-4c28-940d-dfe33ad91507","ios":"levelo://app?vid=53434d6f-a84d-4c28-940d-dfe33ad91507"},"vehicle_type_id":"4","last_reported":1729231985,"current_range_meters":25600,"station_id":"ce4bhn92rcd13ifvqgrg","pricing_plan_id":"cebpf4jnsgd1na2vs0mg"},{"bike_id":"d1190ac7-4526-4adb-9e31-271e29263190","system_id":"levelo_inurba_marseille","lat":43.291534,"lon":5.3792,"is_reserved":false,"is_disabled":false,"rental_uris":{"android":"levelo://app?vid=d1190ac7-4526-4adb-9e31-271e29263190","ios":"levelo://app?vid=d1190ac7-4526-4adb-9e31-271e29263190"},"vehicle_type_id":"4","last_reported":1729231985,"current_range_meters":14400,"station_id":"ce4bh192rcd13ifvqdc0","pricing_plan_id":"cebpf4jnsgd1na2vs0mg"},{"bike_id":"66273aaf-4a3f-4ab1-95c9-9102359831d5","system_id":"levelo_inurba_marseille","lat":43.26029,"lon":5.37549,"is_reserved":false,"is_disabled":false,"rental_uris":{"android":"levelo://app?vid=66273aaf-4a3f-4ab1-95c9-9102359831d5","ios":"levelo://app?vid=66273aaf-4a3f-4ab1-95c9-9102359831d5"},"vehicle_type_id":"4","last_reported":1729231985,"current_range_meters":38800,"station_id":"ce4bhgh2rcd13ifvqfa0","pricing_plan_id":"cebpf4jnsgd1na2vs0mg"},{"bike_id":"9a5adff2-e84f-41ae-84d8-ac0a797ab11c","system_id":"levelo_inurba_marseille","lat":43.27494,"lon":5.42453,"is_reserved":false,"is_disabled":false,"rental_uris":{"android":"levelo://app?vid=9a5adff2-e84f-41ae-84d8-ac0a797ab11c","ios":"levelo://app?vid=9a5adff2-e84f-41ae-84d8-ac0a797ab11c"},"vehicle_type_id":"4","last_reported":1729231985,"current_range_meters":32400,"station_id":"ce4bhn92rcd13ifvqgrg","pricing_plan_id":"cebpf4jnsgd1na2vs0mg"},{"bike_id":"fa9433b4-083f-47af-bd7b-c30153b643c4","system_id":"levelo_inurba_marseille","lat":43.27076,"lon":5.42285,"is_reserved":false,"is_disabled":false,"rental_uris":{"android":"levelo://app?vid=fa9433b4-083f-47af-bd7b-c30153b643c4","ios":"levelo://app?vid=fa9433b4-083f-47af-bd7b-c30153b643c4"},"vehicle_type_id":"4","last_reported":1729231985,"current_range_meters":24000,"station_id":"ce4bhk92rcd13ifvqgb0","pricing_plan_id":"cebpf4jnsgd1na2vs0mg"},{"bike_id":"90e370dd-7ad1-405b-b951-315fb9e8e3a6","system_id":"levelo_inurba_marseille","lat":43.32344,"lon":5.40625,"is_reserved":false,"is_disabled":false,"rental_uris":{"android":"levelo://app?vid=90e370dd-7ad1-405b-b951-315fb9e8e3a6","ios":"levelo://app?vid=90e370dd-7ad1-405b-b951-315fb9e8e3a6"},"vehicle_type_id":"4","last_reported":1729231985,"current_range_meters":25600,"station_id":"ce4bhq92rcd13ifvqhjg","pricing_plan_id":"cebpf4jnsgd1na2vs0mg"},{"bike_id":"cb040897-bc99-413e-a8d1-a5fc4b53cfd3","system_id":"levelo_inurba_marseille","lat":43.28728,"lon":5.37936,"is_reserved":false,"is_disabled":false,"rental_uris":{"android":"levelo://app?vid=cb040897-bc99-413e-a8d1-a5fc4b53cfd3","ios":"levelo://app?vid=cb040897-bc99-413e-a8d1-a5fc4b53cfd3"},"vehicle_type_id":"4","last_reported":1729231985,"current_range_meters":38000,"station_id":"ce4bh9p2rcd13ifvqec0","pricing_plan_id":"cebpf4jnsgd1na2vs0mg"},{"bike_id":"521c673e-7033-4999-9ba4-100fe2ca5465","system_id":"levelo_inurba_marseille","lat":43.24643,"lon":5.38892,"is_reserved":false,"is_disabled":false,"rental_uris":{"android":"levelo://app?vid=521c673e-7033-4999-9ba4-100fe2ca5465","ios":"levelo://app?vid=521c673e-7033-4999-9ba4-100fe2ca5465"},"vehicle_type_id":"4","last_reported":1729231985,"current_range_meters":32400,"station_id":"ce4bhg12rcd13ifvqf60","pricing_plan_id":"cebpf4jnsgd1na2vs0mg"},{"bike_id":"3e4e242e-8e51-4d53-b6f1-b097266b72b3","system_id":"levelo_inurba_marseille","lat":43.24081,"lon":5.37764,"is_reserved":false,"is_disabled":false,"rental_uris":{"android":"levelo://app?vid=3e4e242e-8e51-4d53-b6f1-b097266b72b3","ios":"levelo://app?vid=3e4e242e-8e51-4d53-b6f1-b097266b72b3"},"vehicle_type_id":"4","last_reported":1729231985,"current_range_meters":38000,"station_id":"ce4bhnp2rcd13ifvqgvg","pricing_plan_id":"cebpf4jnsgd1na2vs0mg"},{"bike_id":"7772d39f-5e28-445c-af91-069b0cf63793","system_id":"levelo_inurba_marseille","lat":43.33765,"lon":5.37438,"is_reserved":false,"is_disabled":false,"rental_uris":{"android":"levelo://app?vid=7772d39f-5e28-445c-af91-069b0cf63793","ios":"levelo://app?vid=7772d39f-5e28-445c-af91-069b0cf63793"},"vehicle_type_id":"4","last_reported":1729231985,"current_range_meters":14800,"station_id":"","pricing_plan_id":"cebpf4jnsgd1na2vs0mg"},{"bike_id":"fe7c9c87-9327-4463-ab10-bd720bab19e5","system_id":"levelo_inurba_marseille","lat":43.3015,"lon":5.37421,"is_reserved":false,"is_disabled":false,"rental_uris":{"android":"levelo://app?vid=fe7c9c87-9327-4463-ab10-bd720bab19e5","ios":"levelo://app?vid=fe7c9c87-9327-4463-ab10-bd720bab19e5"},"vehicle_type_id":"4","last_reported":1729231985,"current_range_meters":27600,"station_id":"ce4bgs92rcd13ifvqcc0","pricing_plan_id":"cebpf4jnsgd1na2vs0mg"},{"bike_id":"66353cae-38f8-48d4-8e19-5a2f014fed36","system_id":"levelo_inurba_marseille","lat":43.33028,"lon":5.39042,"is_reserved":false,"is_disabled":false,"rental_uris":{"android":"levelo://app?vid=66353cae-38f8-48d4-8e19-5a2f014fed36","ios":"levelo://app?vid=66353cae-38f8-48d4-8e19-5a2f014fed36"},"vehicle_type_id":"4","last_reported":1729231985,"current_range_meters":14800,"station_id":"ce4bhr92rcd13ifvqhrg","pricing_plan_id":"cebpf4jnsgd1na2vs0mg"},{"bike_id":"5d9373cb-e293-4e08-908a-5e40ac6e38b7","system_id":"levelo_inurba_marseille","lat":43.325378,"lon":5.414212,"is_reserved":false,"is_disabled":false,"rental_uris":{"android":"levelo://app?vid=5d9373cb-e293-4e08-908a-5e40ac6e38b7","ios":"levelo://app?vid=5d9373cb-e293-4e08-908a-5e40ac6e38b7"},"vehicle_type_id":"4","last_reported":1729231985,"current_range_meters":35600,"station_id":"ce4bhq12rcd13ifvqhhg","pricing_plan_id":"cebpf4jnsgd1na2vs0mg"},{"bike_id":"3213665e-989c-4d22-9f5a-31c8522597dd","system_id":"levelo_inurba_marseille","lat":43.296,"lon":5.36142,"is_reserved":false,"is_disabled":false,"rental_uris":{"android":"levelo://app?vid=3213665e-989c-4d22-9f5a-31c8522597dd","ios":"levelo://app?vid=3213665e-989c-4d22-9f5a-31c8522597dd"},"vehicle_type_id":"4","last_reported":1729231985,"current_range_meters":25200,"station_id":"","pricing_plan_id":"cebpf4jnsgd1na2vs0mg"},{"bike_id":"71a78e23-d701-49c4-a06e-bb433dc10843","system_id":"levelo_inurba_marseille","lat":43.29803,"lon":5.38103,"is_reserved":false,"is_disabled":false,"rental_uris":{"android":"levelo://app?vid=71a78e23-d701-49c4-a06e-bb433dc10843","ios":"levelo://app?vid=71a78e23-d701-49c4-a06e-bb433dc10843"},"vehicle_type_id":"4","last_reported":1729231985,"current_range_meters":36800,"station_id":"ce4bgip2rcd13ifvqbb0","pricing_plan_id":"cebpf4jnsgd1na2vs0mg"},{"bike_id":"cddb2538-acdb-46a5-bc95-6e0a8d74ef0c","system_id":"levelo_inurba_marseille","lat":43.30801,"lon":5.43525,"is_reserved":false,"is_disabled":false,"rental_uris":{"android":"levelo://app?vid=cddb2538-acdb-46a5-bc95-6e0a8d74ef0c","ios":"levelo://app?vid=cddb2538-acdb-46a5-bc95-6e0a8d74ef0c"},"vehicle_type_id":"4","last_reported":1729231985,"current_range_meters":33200,"station_id":"ce4bhph2rcd13ifvqheg","pricing_plan_id":"cebpf4jnsgd1na2vs0mg"},{"bike_id":"5f50933a-822a-4388-8612-62a3f233b7b7","system_id":"levelo_inurba_marseille","lat":43.23155,"lon":5.43718,"is_reserved":false,"is_disabled":false,"rental_uris":{"android":"levelo://app?vid=5f50933a-822a-4388-8612-62a3f233b7b7","ios":"levelo://app?vid=5f50933a-822a-4388-8612-62a3f233b7b7"},"vehicle_type_id":"4","last_reported":1729231985,"current_range_meters":28400,"station_id":"ce4bhmp2rcd13ifvqgog","pricing_plan_id":"cebpf4jnsgd1na2vs0mg"},{"bike_id":"1641b826-604a-4181-8231-dca386f637a6","system_id":"levelo_inurba_marseille","lat":43.23186,"lon":5.35555,"is_reserved":false,"is_disabled":false,"rental_uris":{"android":"levelo://app?vid=1641b826-604a-4181-8231-dca386f637a6","ios":"levelo://app?vid=1641b826-604a-4181-8231-dca386f637a6"},"vehicle_type_id":"4","last_reported":1729231985,"current_range_meters":30400,"station_id":"ce4bhu92rcd13ifvqi70","pricing_plan_id":"cebpf4jnsgd1na2vs0mg"},{"bike_id":"89211ee2-076f-4df3-92bd-cd8885f2e76d","system_id":"levelo_inurba_marseille","lat":43.23193,"lon":5.35544,"is_reserved":false,"is_disabled":false,"rental_uris":{"android":"levelo://app?vid=89211ee2-076f-4df3-92bd-cd8885f2e76d","ios":"levelo://app?vid=89211ee2-076f-4df3-92bd-cd8885f2e76d"},"vehicle_type_id":"4","last_reported":1729231985,"current_range_meters":29600,"station_id":"ce4bhu92rcd13ifvqi70","pricing_plan_id":"cebpf4jnsgd1na2vs0mg"},{"bike_id":"86da6a2a-8601-4f01-a2a1-66f70d88e370","system_id":"levelo_inurba_marseille","lat":43.28278,"lon":5.35085,"is_reserved":false,"is_disabled":false,"rental_uris":{"android":"levelo://app?vid=86da6a2a-8601-4f01-a2a1-66f70d88e370","ios":"levelo://app?vid=86da6a2a-8601-4f01-a2a1-66f70d88e370"},"vehicle_type_id":"4","last_reported":1729231985,"current_range_meters":3600,"station_id":"ce4bhbp2rcd13ifvqerg","pricing_plan_id":"cebpf4jnsgd1na2vs0mg"},{"bike_id":"7e031d97-c21e-4a8d-92a1-2338d4aebb71","system_id":"levelo_inurba_marseille","lat":43.304565,"lon":5.378888,"is_reserved":false,"is_disabled":false,"rental_uris":{"android":"levelo://app?vid=7e031d97-c21e-4a8d-92a1-2338d4aebb71","ios":"levelo://app?vid=7e031d97-c21e-4a8d-92a1-2338d4aebb71"},"vehicle_type_id":"4","last_reported":1729231985,"current_range_meters":33200,"station_id":"ce4bgup2rcd13ifvqcn0","pricing_plan_id":"cebpf4jnsgd1na2vs0mg"},{"bike_id":"e2d96579-ea64-404c-b9fa-501833cdd63e","system_id":"levelo_inurba_marseille","lat":43.33609,"lon":5.4104,"is_reserved":false,"is_disabled":false,"rental_uris":{"android":"levelo://app?vid=e2d96579-ea64-404c-b9fa-501833cdd63e","ios":"levelo://app?vid=e2d96579-ea64-404c-b9fa-501833cdd63e"},"vehicle_type_id":"4","last_reported":1729231985,"current_range_meters":19200,"station_id":"ce4bhqh2rcd13ifvqhmg","pricing_plan_id":"cebpf4jnsgd1na2vs0mg"},{"bike_id":"a67216fb-2536-4b29-ad32-2e3785b115ac","system_id":"levelo_inurba_marseille","lat":43.27179,"lon":5.40891,"is_reserved":false,"is_disabled":false,"rental_uris":{"android":"levelo://app?vid=a67216fb-2536-4b29-ad32-2e3785b115ac","ios":"levelo://app?vid=a67216fb-2536-4b29-ad32-2e3785b115ac"},"vehicle_type_id":"4","last_reported":1729231985,"current_range_meters":9600,"station_id":"ce4bhl12rcd13ifvqgf0","pricing_plan_id":"cebpf4jnsgd1na2vs0mg"},{"bike_id":"21d1f8ef-3dea-4cf6-ae2f-5dbc36b38fdb","system_id":"levelo_inurba_marseille","lat":43.32662,"lon":5.40994,"is_reserved":false,"is_disabled":false,"rental_uris":{"android":"levelo://app?vid=21d1f8ef-3dea-4cf6-ae2f-5dbc36b38fdb","ios":"levelo://app?vid=21d1f8ef-3dea-4cf6-ae2f-5dbc36b38fdb"},"vehicle_type_id":"4","last_reported":1729231985,"current_range_meters":38800,"station_id":"ce4bhpp2rcd13ifvqhgg","pricing_plan_id":"cebpf4jnsgd1na2vs0mg"},{"bike_id":"475a7ed1-4607-4794-9351-41dc0e934e3b","system_id":"levelo_inurba_marseille","lat":43.30597,"lon":5.39363,"is_reserved":false,"is_disabled":false,"rental_uris":{"android":"levelo://app?vid=475a7ed1-4607-4794-9351-41dc0e934e3b","ios":"levelo://app?vid=475a7ed1-4607-4794-9351-41dc0e934e3b"},"vehicle_type_id":"4","last_reported":1729231985,"current_range_meters":6400,"station_id":"ce4bh0p2rcd13ifvqd80","pricing_plan_id":"cebpf4jnsgd1na2vs0mg"},{"bike_id":"f88c7e01-bc8c-4735-8a37-e29425c30c87","system_id":"levelo_inurba_marseille","lat":43.2319,"lon":5.39987,"is_reserved":false,"is_disabled":false,"rental_uris":{"android":"levelo://app?vid=f88c7e01-bc8c-4735-8a37-e29425c30c87","ios":"levelo://app?vid=f88c7e01-bc8c-4735-8a37-e29425c30c87"},"vehicle_type_id":"4","last_reported":1729231985,"current_range_meters":8800,"station_id":"ce4bhn12rcd13ifvqgqg","pricing_plan_id":"cebpf4jnsgd1na2vs0mg"},{"bike_id":"e8fa0c67-c553-4a87-9c32-6644007fca22","system_id":"levelo_inurba_marseille","lat":43.28616,"lon":5.35102,"is_reserved":false,"is_disabled":false,"rental_uris":{"android":"levelo://app?vid=e8fa0c67-c553-4a87-9c32-6644007fca22","ios":"levelo://app?vid=e8fa0c67-c553-4a87-9c32-6644007fca22"},"vehicle_type_id":"4","last_reported":1729231985,"current_range_meters":12400,"station_id":"ce4bhch2rcd13ifvqeug","pricing_plan_id":"cebpf4jnsgd1na2vs0mg"},{"bike_id":"14deb1b1-b495-4b35-97c2-895a5ef7ad23","system_id":"levelo_inurba_marseille","lat":43.32337,"lon":5.4062,"is_reserved":false,"is_disabled":false,"rental_uris":{"android":"levelo://app?vid=14deb1b1-b495-4b35-97c2-895a5ef7ad23","ios":"levelo://app?vid=14deb1b1-b495-4b35-97c2-895a5ef7ad23"},"vehicle_type_id":"4","last_reported":1729231985,"current_range_meters":38800,"station_id":"ce4bhq92rcd13ifvqhjg","pricing_plan_id":"cebpf4jnsgd1na2vs0mg"},{"bike_id":"8b6fd32d-7aa7-43d4-9c64-5ad5dabdedc6","system_id":"levelo_inurba_marseille","lat":43.29771,"lon":5.38108,"is_reserved":false,"is_disabled":false,"rental_uris":{"android":"levelo://app?vid=8b6fd32d-7aa7-43d4-9c64-5ad5dabdedc6","ios":"levelo://app?vid=8b6fd32d-7aa7-43d4-9c64-5ad5dabdedc6"},"vehicle_type_id":"4","last_reported":1729231985,"current_range_meters":36400,"station_id":"ce4bgip2rcd13ifvqbb0","pricing_plan_id":"cebpf4jnsgd1na2vs0mg"},{"bike_id":"5f1b64c3-7ea7-4a8a-a91e-af36e2fe1213","system_id":"levelo_inurba_marseille","lat":43.30466,"lon":5.37905,"is_reserved":false,"is_disabled":false,"rental_uris":{"android":"levelo://app?vid=5f1b64c3-7ea7-4a8a-a91e-af36e2fe1213","ios":"levelo://app?vid=5f1b64c3-7ea7-4a8a-a91e-af36e2fe1213"},"vehicle_type_id":"4","last_reported":1729231985,"current_range_meters":31200,"station_id":"ce4bgup2rcd13ifvqcn0","pricing_plan_id":"cebpf4jnsgd1na2vs0mg"},{"bike_id":"87440bd7-4730-412f-b52f-03b263c3d6ba","system_id":"levelo_inurba_marseille","lat":43.23191,"lon":5.35551,"is_reserved":false,"is_disabled":false,"rental_uris":{"android":"levelo://app?vid=87440bd7-4730-412f-b52f-03b263c3d6ba","ios":"levelo://app?vid=87440bd7-4730-412f-b52f-03b263c3d6ba"},"vehicle_type_id":"4","last_reported":1729231985,"current_range_meters":14800,"station_id":"ce4bhu92rcd13ifvqi70","pricing_plan_id":"cebpf4jnsgd1na2vs0mg"},{"bike_id":"28fc6e76-24b8-4f28-b4f0-350fa32f4ebd","system_id":"levelo_inurba_marseille","lat":43.24998,"lon":5.38936,"is_reserved":false,"is_disabled":false,"rental_uris":{"android":"levelo://app?vid=28fc6e76-24b8-4f28-b4f0-350fa32f4ebd","ios":"levelo://app?vid=28fc6e76-24b8-4f28-b4f0-350fa32f4ebd"},"vehicle_type_id":"4","last_reported":1729231985,"current_range_meters":36800,"station_id":"ce4bhgp2rcd13ifvqfd0","pricing_plan_id":"cebpf4jnsgd1na2vs0mg"},{"bike_id":"ef4dd203-fcc5-4759-ae60-6c03f2e0543e","system_id":"levelo_inurba_marseille","lat":43.30906,"lon":5.36837,"is_reserved":false,"is_disabled":false,"rental_uris":{"android":"levelo://app?vid=ef4dd203-fcc5-4759-ae60-6c03f2e0543e","ios":"levelo://app?vid=ef4dd203-fcc5-4759-ae60-6c03f2e0543e"},"vehicle_type_id":"4","last_reported":1729231985,"current_range_meters":38400,"station_id":"ce4bgn92rcd13ifvqbvg","pricing_plan_id":"cebpf4jnsgd1na2vs0mg"},{"bike_id":"e0f74b35-6e81-4485-9496-e80c2453f0bd","system_id":"levelo_inurba_marseille","lat":43.23196,"lon":5.35553,"is_reserved":false,"is_disabled":false,"rental_uris":{"android":"levelo://app?vid=e0f74b35-6e81-4485-9496-e80c2453f0bd","ios":"levelo://app?vid=e0f74b35-6e81-4485-9496-e80c2453f0bd"},"vehicle_type_id":"4","last_reported":1729231985,"current_range_meters":27600,"station_id":"ce4bhu92rcd13ifvqi70","pricing_plan_id":"cebpf4jnsgd1na2vs0mg"},{"bike_id":"d4999d5e-6147-4891-a483-935ec145d5bd","system_id":"levelo_inurba_marseille","lat":43.24072,"lon":5.37768,"is_reserved":false,"is_disabled":false,"rental_uris":{"android":"levelo://app?vid=d4999d5e-6147-4891-a483-935ec145d5bd","ios":"levelo://app?vid=d4999d5e-6147-4891-a483-935ec145d5bd"},"vehicle_type_id":"4","last_reported":1729231985,"current_range_meters":34800,"station_id":"ce4bhnp2rcd13ifvqgvg","pricing_plan_id":"cebpf4jnsgd1na2vs0mg"},{"bike_id":"1c61c240-9d00-4c1f-b112-113ee598425d","system_id":"levelo_inurba_marseille","lat":43.33024,"lon":5.39043,"is_reserved":false,"is_disabled":false,"rental_uris":{"android":"levelo://app?vid=1c61c240-9d00-4c1f-b112-113ee598425d","ios":"levelo://app?vid=1c61c240-9d00-4c1f-b112-113ee598425d"},"vehicle_type_id":"4","last_reported":1729231985,"current_range_meters":38800,"station_id":"ce4bhr92rcd13ifvqhrg","pricing_plan_id":"cebpf4jnsgd1na2vs0mg"},{"bike_id":"f2e0eb79-06d2-4284-9540-1e16fe68288c","system_id":"levelo_inurba_marseille","lat":43.27495,"lon":5.42461,"is_reserved":false,"is_disabled":false,"rental_uris":{"android":"levelo://app?vid=f2e0eb79-06d2-4284-9540-1e16fe68288c","ios":"levelo://app?vid=f2e0eb79-06d2-4284-9540-1e16fe68288c"},"vehicle_type_id":"4","last_reported":1729231985,"current_range_meters":33600,"station_id":"ce4bhn92rcd13ifvqgrg","pricing_plan_id":"cebpf4jnsgd1na2vs0mg"},{"bike_id":"cb443c4a-3cc3-4c6a-a2f4-6f386431b5bc","system_id":"levelo_inurba_marseille","lat":43.27497,"lon":5.42453,"is_reserved":false,"is_disabled":false,"rental_uris":{"android":"levelo://app?vid=cb443c4a-3cc3-4c6a-a2f4-6f386431b5bc","ios":"levelo://app?vid=cb443c4a-3cc3-4c6a-a2f4-6f386431b5bc"},"vehicle_type_id":"4","last_reported":1729231985,"current_range_meters":36800,"station_id":"ce4bhn92rcd13ifvqgrg","pricing_plan_id":"cebpf4jnsgd1na2vs0mg"},{"bike_id":"7576d3b4-07d2-4a55-920d-3e058cf1e6b9","system_id":"levelo_inurba_marseille","lat":43.24069,"lon":5.37766,"is_reserved":false,"is_disabled":false,"rental_uris":{"android":"levelo://app?vid=7576d3b4-07d2-4a55-920d-3e058cf1e6b9","ios":"levelo://app?vid=7576d3b4-07d2-4a55-920d-3e058cf1e6b9"},"vehicle_type_id":"4","last_reported":1729231985,"current_range_meters":36800,"station_id":"ce4bhnp2rcd13ifvqgvg","pricing_plan_id":"cebpf4jnsgd1na2vs0mg"},{"bike_id":"a012d858-2431-4e96-b3a7-117306f88c88","system_id":"levelo_inurba_marseille","lat":43.2962,"lon":5.37732,"is_reserved":false,"is_disabled":false,"rental_uris":{"android":"levelo://app?vid=a012d858-2431-4e96-b3a7-117306f88c88","ios":"levelo://app?vid=a012d858-2431-4e96-b3a7-117306f88c88"},"vehicle_type_id":"4","last_reported":1729231985,"current_range_meters":38800,"station_id":"ce4bgi92rcd13ifvqb90","pricing_plan_id":"cebpf4jnsgd1na2vs0mg"},{"bike_id":"1be302f9-f11f-474a-bf33-e1b016bb397d","system_id":"levelo_inurba_marseille","lat":43.27496,"lon":5.42457,"is_reserved":false,"is_disabled":false,"rental_uris":{"android":"levelo://app?vid=1be302f9-f11f-474a-bf33-e1b016bb397d","ios":"levelo://app?vid=1be302f9-f11f-474a-bf33-e1b016bb397d"},"vehicle_type_id":"4","last_reported":1729231985,"current_range_meters":9200,"station_id":"ce4bhn92rcd13ifvqgrg","pricing_plan_id":"cebpf4jnsgd1na2vs0mg"},{"bike_id":"2e103f01-451b-4b82-9095-05c15c05a759","system_id":"levelo_inurba_marseille","lat":43.27495,"lon":5.42458,"is_reserved":false,"is_disabled":false,"rental_uris":{"android":"levelo://app?vid=2e103f01-451b-4b82-9095-05c15c05a759","ios":"levelo://app?vid=2e103f01-451b-4b82-9095-05c15c05a759"},"vehicle_type_id":"4","last_reported":1729231985,"current_range_meters":16800,"station_id":"ce4bhn92rcd13ifvqgrg","pricing_plan_id":"cebpf4jnsgd1na2vs0mg"},{"bike_id":"b2a5087f-ee0d-4b32-8a93-92715cb5d8a5","system_id":"levelo_inurba_marseille","lat":43.28611,"lon":5.35108,"is_reserved":false,"is_disabled":false,"rental_uris":{"android":"levelo://app?vid=b2a5087f-ee0d-4b32-8a93-92715cb5d8a5","ios":"levelo://app?vid=b2a5087f-ee0d-4b32-8a93-92715cb5d8a5"},"vehicle_type_id":"4","last_reported":1729231985,"current_range_meters":38400,"station_id":"ce4bhch2rcd13ifvqeug","pricing_plan_id":"cebpf4jnsgd1na2vs0mg"},{"bike_id":"39f687c9-0dfb-4c97-b1fc-671d0c9d562c","system_id":"levelo_inurba_marseille","lat":43.26571,"lon":5.3901,"is_reserved":false,"is_disabled":false,"rental_uris":{"android":"levelo://app?vid=39f687c9-0dfb-4c97-b1fc-671d0c9d562c","ios":"levelo://app?vid=39f687c9-0dfb-4c97-b1fc-671d0c9d562c"},"vehicle_type_id":"4","last_reported":1729231985,"current_range_meters":11600,"station_id":"ce4bhe12rcd13ifvqf30","pricing_plan_id":"cebpf4jnsgd1na2vs0mg"},{"bike_id":"a964c67e-18ab-44ee-bf53-6a3f734dc13b","system_id":"levelo_inurba_marseille","lat":43.30152,"lon":5.38079,"is_reserved":false,"is_disabled":false,"rental_uris":{"android":"levelo://app?vid=a964c67e-18ab-44ee-bf53-6a3f734dc13b","ios":"levelo://app?vid=a964c67e-18ab-44ee-bf53-6a3f734dc13b"},"vehicle_type_id":"4","last_reported":1729231985,"current_range_meters":36400,"station_id":"ce4bgjp2rcd13ifvqbh0","pricing_plan_id":"cebpf4jnsgd1na2vs0mg"},{"bike_id":"bdd054ac-a093-485d-8612-1d9daa118469","system_id":"levelo_inurba_marseille","lat":43.28347,"lon":5.38105,"is_reserved":false,"is_disabled":false,"rental_uris":{"android":"levelo://app?vid=bdd054ac-a093-485d-8612-1d9daa118469","ios":"levelo://app?vid=bdd054ac-a093-485d-8612-1d9daa118469"},"vehicle_type_id":"4","last_reported":1729231985,"current_range_meters":32800,"station_id":"ce4bh412rcd13ifvqdr0","pricing_plan_id":"cebpf4jnsgd1na2vs0mg"},{"bike_id":"a42336f1-6fcd-4045-891e-701347f41b85","system_id":"levelo_inurba_marseille","lat":43.23187,"lon":5.39982,"is_reserved":false,"is_disabled":false,"rental_uris":{"android":"levelo://app?vid=a42336f1-6fcd-4045-891e-701347f41b85","ios":"levelo://app?vid=a42336f1-6fcd-4045-891e-701347f41b85"},"vehicle_type_id":"4","last_reported":1729231985,"current_range_meters":4000,"station_id":"ce4bhn12rcd13ifvqgqg","pricing_plan_id":"cebpf4jnsgd1na2vs0mg"},{"bike_id":"2901ff37-0119-4f7b-91fb-d7fdf0736260","system_id":"levelo_inurba_marseille","lat":43.2293,"lon":5.35374,"is_reserved":false,"is_disabled":false,"rental_uris":{"android":"levelo://app?vid=2901ff37-0119-4f7b-91fb-d7fdf0736260","ios":"levelo://app?vid=2901ff37-0119-4f7b-91fb-d7fdf0736260"},"vehicle_type_id":"4","last_reported":1729231985,"current_range_meters":28400,"station_id":"cpo3532slgdg3j2ikp40","pricing_plan_id":"cebpf4jnsgd1na2vs0mg"},{"bike_id":"f9f64464-c287-4ad0-a5f0-25af2e828287","system_id":"levelo_inurba_marseille","lat":43.29576,"lon":5.37522,"is_reserved":false,"is_disabled":false,"rental_uris":{"android":"levelo://app?vid=f9f64464-c287-4ad0-a5f0-25af2e828287","ios":"levelo://app?vid=f9f64464-c287-4ad0-a5f0-25af2e828287"},"vehicle_type_id":"4","last_reported":1729231985,"current_range_meters":20000,"station_id":"ce4bgh92rcd13ifvqb50","pricing_plan_id":"cebpf4jnsgd1na2vs0mg"},{"bike_id":"cfb75433-6052-4c81-88c3-e1a332c265cf","system_id":"levelo_inurba_marseille","lat":43.27994,"lon":5.40021,"is_reserved":false,"is_disabled":false,"rental_uris":{"android":"levelo://app?vid=cfb75433-6052-4c81-88c3-e1a332c265cf","ios":"levelo://app?vid=cfb75433-6052-4c81-88c3-e1a332c265cf"},"vehicle_type_id":"4","last_reported":1729231985,"current_range_meters":38800,"station_id":"ce4bho92rcd13ifvqh4g","pricing_plan_id":"cebpf4jnsgd1na2vs0mg"},{"bike_id":"915d8fda-eaef-4a60-9d36-992c88c1e042","system_id":"levelo_inurba_marseille","lat":43.25004,"lon":5.38926,"is_reserved":false,"is_disabled":false,"rental_uris":{"android":"levelo://app?vid=915d8fda-eaef-4a60-9d36-992c88c1e042","ios":"levelo://app?vid=915d8fda-eaef-4a60-9d36-992c88c1e042"},"vehicle_type_id":"4","last_reported":1729231985,"current_range_meters":38800,"station_id":"ce4bhgp2rcd13ifvqfd0","pricing_plan_id":"cebpf4jnsgd1na2vs0mg"},{"bike_id":"a4b88a8f-d604-4f6f-b1a1-e74abc504ac6","system_id":"levelo_inurba_marseille","lat":43.280788,"lon":5.396605,"is_reserved":false,"is_disabled":false,"rental_uris":{"android":"levelo://app?vid=a4b88a8f-d604-4f6f-b1a1-e74abc504ac6","ios":"levelo://app?vid=a4b88a8f-d604-4f6f-b1a1-e74abc504ac6"},"vehicle_type_id":"4","last_reported":1729231985,"current_range_meters":37600,"station_id":"ce4bgs12rcd13ifvqcag","pricing_plan_id":"cebpf4jnsgd1na2vs0mg"},{"bike_id":"a9295dde-ceb4-4ca6-940b-7dd28fc752be","system_id":"levelo_inurba_marseille","lat":43.32482,"lon":5.36566,"is_reserved":false,"is_disabled":false,"rental_uris":{"android":"levelo://app?vid=a9295dde-ceb4-4ca6-940b-7dd28fc752be","ios":"levelo://app?vid=a9295dde-ceb4-4ca6-940b-7dd28fc752be"},"vehicle_type_id":"4","last_reported":1729231985,"current_range_meters":24400,"station_id":"ce4bhs12rcd13ifvqhvg","pricing_plan_id":"cebpf4jnsgd1na2vs0mg"},{"bike_id":"f2fa2f4a-c894-477b-b08a-8bf3fc505540","system_id":"levelo_inurba_marseille","lat":43.28616,"lon":5.35104,"is_reserved":false,"is_disabled":false,"rental_uris":{"android":"levelo://app?vid=f2fa2f4a-c894-477b-b08a-8bf3fc505540","ios":"levelo://app?vid=f2fa2f4a-c894-477b-b08a-8bf3fc505540"},"vehicle_type_id":"4","last_reported":1729231985,"current_range_meters":38000,"station_id":"ce4bhch2rcd13ifvqeug","pricing_plan_id":"cebpf4jnsgd1na2vs0mg"},{"bike_id":"29c35a71-e605-4c71-a30f-f8615f71edd4","system_id":"levelo_inurba_marseille","lat":43.290243,"lon":5.376173,"is_reserved":false,"is_disabled":false,"rental_uris":{"android":"levelo://app?vid=29c35a71-e605-4c71-a30f-f8615f71edd4","ios":"levelo://app?vid=29c35a71-e605-4c71-a30f-f8615f71edd4"},"vehicle_type_id":"4","last_reported":1729231985,"current_range_meters":28000,"station_id":"ce4bh692rcd13ifvqe90","pricing_plan_id":"cebpf4jnsgd1na2vs0mg"},{"bike_id":"292b9425-1372-40d4-bf0a-fe57aa779a41","system_id":"levelo_inurba_marseille","lat":43.23057,"lon":5.35496,"is_reserved":false,"is_disabled":false,"rental_uris":{"android":"levelo://app?vid=292b9425-1372-40d4-bf0a-fe57aa779a41","ios":"levelo://app?vid=292b9425-1372-40d4-bf0a-fe57aa779a41"},"vehicle_type_id":"4","last_reported":1729231985,"current_range_meters":20800,"station_id":"cpo3342slgdg3j2ifvpg","pricing_plan_id":"cebpf4jnsgd1na2vs0mg"},{"bike_id":"2a5a501f-f647-467b-8667-933bcb0b6e1c","system_id":"levelo_inurba_marseille","lat":43.25938,"lon":5.40915,"is_reserved":false,"is_disabled":false,"rental_uris":{"android":"levelo://app?vid=2a5a501f-f647-467b-8667-933bcb0b6e1c","ios":"levelo://app?vid=2a5a501f-f647-467b-8667-933bcb0b6e1c"},"vehicle_type_id":"4","last_reported":1729231985,"current_range_meters":31200,"station_id":"ce4bhm92rcd13ifvqglg","pricing_plan_id":"cebpf4jnsgd1na2vs0mg"},{"bike_id":"cbb0509b-7841-4fe4-8474-aa3f9fae860f","system_id":"levelo_inurba_marseille","lat":43.28348,"lon":5.38111,"is_reserved":false,"is_disabled":false,"rental_uris":{"android":"levelo://app?vid=cbb0509b-7841-4fe4-8474-aa3f9fae860f","ios":"levelo://app?vid=cbb0509b-7841-4fe4-8474-aa3f9fae860f"},"vehicle_type_id":"4","last_reported":1729231985,"current_range_meters":38000,"station_id":"ce4bh412rcd13ifvqdr0","pricing_plan_id":"cebpf4jnsgd1na2vs0mg"},{"bike_id":"afe9ff89-1b31-492e-9dea-f8a33b0bd764","system_id":"levelo_inurba_marseille","lat":43.27822,"lon":5.40709,"is_reserved":false,"is_disabled":false,"rental_uris":{"android":"levelo://app?vid=afe9ff89-1b31-492e-9dea-f8a33b0bd764","ios":"levelo://app?vid=afe9ff89-1b31-492e-9dea-f8a33b0bd764"},"vehicle_type_id":"4","last_reported":1729231985,"current_range_meters":9600,"station_id":"ce4bhnh2rcd13ifvqgtg","pricing_plan_id":"cebpf4jnsgd1na2vs0mg"},{"bike_id":"75c77eb4-fb37-41f0-b717-ef1ac5d82cb6","system_id":"levelo_inurba_marseille","lat":43.29605,"lon":5.38115,"is_reserved":false,"is_disabled":false,"rental_uris":{"android":"levelo://app?vid=75c77eb4-fb37-41f0-b717-ef1ac5d82cb6","ios":"levelo://app?vid=75c77eb4-fb37-41f0-b717-ef1ac5d82cb6"},"vehicle_type_id":"4","last_reported":1729231985,"current_range_meters":36800,"station_id":"ce4bgl12rcd13ifvqbo0","pricing_plan_id":"cebpf4jnsgd1na2vs0mg"},{"bike_id":"6a0c3d48-aa3b-4c9a-b420-ffd4b9f8b717","system_id":"levelo_inurba_marseille","lat":43.27496,"lon":5.42462,"is_reserved":false,"is_disabled":false,"rental_uris":{"android":"levelo://app?vid=6a0c3d48-aa3b-4c9a-b420-ffd4b9f8b717","ios":"levelo://app?vid=6a0c3d48-aa3b-4c9a-b420-ffd4b9f8b717"},"vehicle_type_id":"4","last_reported":1729231985,"current_range_meters":29600,"station_id":"ce4bhn92rcd13ifvqgrg","pricing_plan_id":"cebpf4jnsgd1na2vs0mg"},{"bike_id":"c480db0f-6982-4e1f-bd4f-5353d3357ace","system_id":"levelo_inurba_marseille","lat":43.25581,"lon":5.38238,"is_reserved":false,"is_disabled":false,"rental_uris":{"android":"levelo://app?vid=c480db0f-6982-4e1f-bd4f-5353d3357ace","ios":"levelo://app?vid=c480db0f-6982-4e1f-bd4f-5353d3357ace"},"vehicle_type_id":"4","last_reported":1729231985,"current_range_meters":37600,"station_id":"ce4bhih2rcd13ifvqfs0","pricing_plan_id":"cebpf4jnsgd1na2vs0mg"},{"bike_id":"9f5004db-a03b-400a-a82b-0f673ea3c88e","system_id":"levelo_inurba_marseille","lat":43.2558,"lon":5.3824,"is_reserved":false,"is_disabled":false,"rental_uris":{"android":"levelo://app?vid=9f5004db-a03b-400a-a82b-0f673ea3c88e","ios":"levelo://app?vid=9f5004db-a03b-400a-a82b-0f673ea3c88e"},"vehicle_type_id":"4","last_reported":1729231985,"current_range_meters":9200,"station_id":"ce4bhih2rcd13ifvqfs0","pricing_plan_id":"cebpf4jnsgd1na2vs0mg"},{"bike_id":"38706bf9-3b79-442f-9546-e032d556aede","system_id":"levelo_inurba_marseille","lat":43.31495,"lon":5.37297,"is_reserved":false,"is_disabled":false,"rental_uris":{"android":"levelo://app?vid=38706bf9-3b79-442f-9546-e032d556aede","ios":"levelo://app?vid=38706bf9-3b79-442f-9546-e032d556aede"},"vehicle_type_id":"4","last_reported":1729231985,"current_range_meters":39200,"station_id":"ce4bgt12rcd13ifvqcd0","pricing_plan_id":"cebpf4jnsgd1na2vs0mg"},{"bike_id":"fae86303-149c-453c-adb8-eb8fb6ab4fe4","system_id":"levelo_inurba_marseille","lat":43.29625,"lon":5.37175,"is_reserved":false,"is_disabled":false,"rental_uris":{"android":"levelo://app?vid=fae86303-149c-453c-adb8-eb8fb6ab4fe4","ios":"levelo://app?vid=fae86303-149c-453c-adb8-eb8fb6ab4fe4"},"vehicle_type_id":"4","last_reported":1729231985,"current_range_meters":33600,"station_id":"ce4bgnh2rcd13ifvqc0g","pricing_plan_id":"cebpf4jnsgd1na2vs0mg"},{"bike_id":"c245b7ae-41c8-4093-bb89-0702e6edf091","system_id":"levelo_inurba_marseille","lat":43.24079,"lon":5.37764,"is_reserved":false,"is_disabled":false,"rental_uris":{"android":"levelo://app?vid=c245b7ae-41c8-4093-bb89-0702e6edf091","ios":"levelo://app?vid=c245b7ae-41c8-4093-bb89-0702e6edf091"},"vehicle_type_id":"4","last_reported":1729231985,"current_range_meters":35200,"station_id":"ce4bhnp2rcd13ifvqgvg","pricing_plan_id":"cebpf4jnsgd1na2vs0mg"},{"bike_id":"27b83a41-d3f1-408f-a811-fa1bc17e05db","system_id":"levelo_inurba_marseille","lat":43.27378,"lon":5.36259,"is_reserved":false,"is_disabled":false,"rental_uris":{"android":"levelo://app?vid=27b83a41-d3f1-408f-a811-fa1bc17e05db","ios":"levelo://app?vid=27b83a41-d3f1-408f-a811-fa1bc17e05db"},"vehicle_type_id":"4","last_reported":1729231985,"current_range_meters":36800,"station_id":"ce4bhbh2rcd13ifvqeo0","pricing_plan_id":"cebpf4jnsgd1na2vs0mg"},{"bike_id":"01cbf671-4826-495e-a376-b47a0ddca874","system_id":"levelo_inurba_marseille","lat":43.32341,"lon":5.40626,"is_reserved":false,"is_disabled":false,"rental_uris":{"android":"levelo://app?vid=01cbf671-4826-495e-a376-b47a0ddca874","ios":"levelo://app?vid=01cbf671-4826-495e-a376-b47a0ddca874"},"vehicle_type_id":"4","last_reported":1729231985,"current_range_meters":9200,"station_id":"ce4bhq92rcd13ifvqhjg","pricing_plan_id":"cebpf4jnsgd1na2vs0mg"},{"bike_id":"25fb4af7-3723-43d3-ae45-244f6abd285e","system_id":"levelo_inurba_marseille","lat":43.30153,"lon":5.38079,"is_reserved":false,"is_disabled":false,"rental_uris":{"android":"levelo://app?vid=25fb4af7-3723-43d3-ae45-244f6abd285e","ios":"levelo://app?vid=25fb4af7-3723-43d3-ae45-244f6abd285e"},"vehicle_type_id":"4","last_reported":1729231985,"current_range_meters":35200,"station_id":"ce4bgjp2rcd13ifvqbh0","pricing_plan_id":"cebpf4jnsgd1na2vs0mg"},{"bike_id":"c55708b3-319e-4537-81dd-d1d8798081d6","system_id":"levelo_inurba_marseille","lat":43.27494,"lon":5.42452,"is_reserved":false,"is_disabled":false,"rental_uris":{"android":"levelo://app?vid=c55708b3-319e-4537-81dd-d1d8798081d6","ios":"levelo://app?vid=c55708b3-319e-4537-81dd-d1d8798081d6"},"vehicle_type_id":"4","last_reported":1729231985,"current_range_meters":28400,"station_id":"ce4bhn92rcd13ifvqgrg","pricing_plan_id":"cebpf4jnsgd1na2vs0mg"},{"bike_id":"913ebbab-7fea-43af-a0d1-a41807f6a491","system_id":"levelo_inurba_marseille","lat":43.29911,"lon":5.37484,"is_reserved":false,"is_disabled":false,"rental_uris":{"android":"levelo://app?vid=913ebbab-7fea-43af-a0d1-a41807f6a491","ios":"levelo://app?vid=913ebbab-7fea-43af-a0d1-a41807f6a491"},"vehicle_type_id":"4","last_reported":1729231985,"current_range_meters":26800,"station_id":"ce4bgjh2rcd13ifvqbg0","pricing_plan_id":"cebpf4jnsgd1na2vs0mg"},{"bike_id":"e3ca7803-aaa7-4ddf-8937-86afb5d1cee8","system_id":"levelo_inurba_marseille","lat":43.31713,"lon":5.43703,"is_reserved":false,"is_disabled":false,"rental_uris":{"android":"levelo://app?vid=e3ca7803-aaa7-4ddf-8937-86afb5d1cee8","ios":"levelo://app?vid=e3ca7803-aaa7-4ddf-8937-86afb5d1cee8"},"vehicle_type_id":"4","last_reported":1729231985,"current_range_meters":22400,"station_id":"ce4bhp92rcd13ifvqhcg","pricing_plan_id":"cebpf4jnsgd1na2vs0mg"},{"bike_id":"be6a465b-62d9-4cf8-8170-6a0c88bce8b4","system_id":"levelo_inurba_marseille","lat":43.29549,"lon":5.4228,"is_reserved":false,"is_disabled":false,"rental_uris":{"android":"levelo://app?vid=be6a465b-62d9-4cf8-8170-6a0c88bce8b4","ios":"levelo://app?vid=be6a465b-62d9-4cf8-8170-6a0c88bce8b4"},"vehicle_type_id":"4","last_reported":1729231985,"current_range_meters":31200,"station_id":"ce4bhph2rcd13ifvqhdg","pricing_plan_id":"cebpf4jnsgd1na2vs0mg"},{"bike_id":"c3d341cb-b075-4a76-8ce6-a19c6a141e8c","system_id":"levelo_inurba_marseille","lat":43.23153,"lon":5.4372,"is_reserved":false,"is_disabled":false,"rental_uris":{"android":"levelo://app?vid=c3d341cb-b075-4a76-8ce6-a19c6a141e8c","ios":"levelo://app?vid=c3d341cb-b075-4a76-8ce6-a19c6a141e8c"},"vehicle_type_id":"4","last_reported":1729231985,"current_range_meters":7200,"station_id":"ce4bhmp2rcd13ifvqgog","pricing_plan_id":"cebpf4jnsgd1na2vs0mg"},{"bike_id":"568ad7c3-61ab-4891-8036-e9ee4ec77a40","system_id":"levelo_inurba_marseille","lat":43.23184,"lon":5.399818,"is_reserved":false,"is_disabled":false,"rental_uris":{"android":"levelo://app?vid=568ad7c3-61ab-4891-8036-e9ee4ec77a40","ios":"levelo://app?vid=568ad7c3-61ab-4891-8036-e9ee4ec77a40"},"vehicle_type_id":"4","last_reported":1729231985,"current_range_meters":36800,"station_id":"ce4bhn12rcd13ifvqgqg","pricing_plan_id":"cebpf4jnsgd1na2vs0mg"},{"bike_id":"8e7da3db-b659-4ef9-9750-fcbdcaa68503","system_id":"levelo_inurba_marseille","lat":43.28927,"lon":5.39622,"is_reserved":false,"is_disabled":false,"rental_uris":{"android":"levelo://app?vid=8e7da3db-b659-4ef9-9750-fcbdcaa68503","ios":"levelo://app?vid=8e7da3db-b659-4ef9-9750-fcbdcaa68503"},"vehicle_type_id":"4","last_reported":1729231985,"current_range_meters":31200,"station_id":"ce4bh192rcd13ifvqdb0","pricing_plan_id":"cebpf4jnsgd1na2vs0mg"},{"bike_id":"212e9a89-97a6-41de-8a74-bc02c16f5c39","system_id":"levelo_inurba_marseille","lat":43.2408,"lon":5.3777,"is_reserved":false,"is_disabled":false,"rental_uris":{"android":"levelo://app?vid=212e9a89-97a6-41de-8a74-bc02c16f5c39","ios":"levelo://app?vid=212e9a89-97a6-41de-8a74-bc02c16f5c39"},"vehicle_type_id":"4","last_reported":1729231985,"current_range_meters":12400,"station_id":"ce4bhnp2rcd13ifvqgvg","pricing_plan_id":"cebpf4jnsgd1na2vs0mg"},{"bike_id":"3664398f-378f-46f2-bd12-30042ad8db9d","system_id":"levelo_inurba_marseille","lat":43.231854,"lon":5.399798,"is_reserved":false,"is_disabled":false,"rental_uris":{"android":"levelo://app?vid=3664398f-378f-46f2-bd12-30042ad8db9d","ios":"levelo://app?vid=3664398f-378f-46f2-bd12-30042ad8db9d"},"vehicle_type_id":"4","last_reported":1729231985,"current_range_meters":30800,"station_id":"ce4bhn12rcd13ifvqgqg","pricing_plan_id":"cebpf4jnsgd1na2vs0mg"},{"bike_id":"b149e82b-afb3-4de8-adff-774d74fb2117","system_id":"levelo_inurba_marseille","lat":43.2707,"lon":5.42282,"is_reserved":false,"is_disabled":false,"rental_uris":{"android":"levelo://app?vid=b149e82b-afb3-4de8-adff-774d74fb2117","ios":"levelo://app?vid=b149e82b-afb3-4de8-adff-774d74fb2117"},"vehicle_type_id":"4","last_reported":1729231985,"current_range_meters":26800,"station_id":"ce4bhk92rcd13ifvqgb0","pricing_plan_id":"cebpf4jnsgd1na2vs0mg"},{"bike_id":"3c0b4095-688f-4a0f-88cc-dfe9db2b3c79","system_id":"levelo_inurba_marseille","lat":43.29852,"lon":5.36288,"is_reserved":false,"is_disabled":false,"rental_uris":{"android":"levelo://app?vid=3c0b4095-688f-4a0f-88cc-dfe9db2b3c79","ios":"levelo://app?vid=3c0b4095-688f-4a0f-88cc-dfe9db2b3c79"},"vehicle_type_id":"4","last_reported":1729231985,"current_range_meters":24000,"station_id":"ce4bgpp2rcd13ifvqc3g","pricing_plan_id":"cebpf4jnsgd1na2vs0mg"},{"bike_id":"a9d80141-cb04-4f88-bcc5-9763572e3517","system_id":"levelo_inurba_marseille","lat":43.23194,"lon":5.35546,"is_reserved":false,"is_disabled":false,"rental_uris":{"android":"levelo://app?vid=a9d80141-cb04-4f88-bcc5-9763572e3517","ios":"levelo://app?vid=a9d80141-cb04-4f88-bcc5-9763572e3517"},"vehicle_type_id":"4","last_reported":1729231985,"current_range_meters":29600,"station_id":"ce4bhu92rcd13ifvqi70","pricing_plan_id":"cebpf4jnsgd1na2vs0mg"},{"bike_id":"3ab31a18-af13-40ac-ae62-308000937349","system_id":"levelo_inurba_marseille","lat":43.24079,"lon":5.37759,"is_reserved":false,"is_disabled":false,"rental_uris":{"android":"levelo://app?vid=3ab31a18-af13-40ac-ae62-308000937349","ios":"levelo://app?vid=3ab31a18-af13-40ac-ae62-308000937349"},"vehicle_type_id":"4","last_reported":1729231985,"current_range_meters":34000,"station_id":"ce4bhnp2rcd13ifvqgvg","pricing_plan_id":"cebpf4jnsgd1na2vs0mg"},{"bike_id":"af52aa78-d0b5-4bff-b51e-229383967bb3","system_id":"levelo_inurba_marseille","lat":43.23155,"lon":5.43723,"is_reserved":false,"is_disabled":false,"rental_uris":{"android":"levelo://app?vid=af52aa78-d0b5-4bff-b51e-229383967bb3","ios":"levelo://app?vid=af52aa78-d0b5-4bff-b51e-229383967bb3"},"vehicle_type_id":"4","last_reported":1729231985,"current_range_meters":28400,"station_id":"ce4bhmp2rcd13ifvqgog","pricing_plan_id":"cebpf4jnsgd1na2vs0mg"},{"bike_id":"3c7ca379-3006-4063-b9c5-3e4a38e7ba77","system_id":"levelo_inurba_marseille","lat":43.29043,"lon":5.39964,"is_reserved":false,"is_disabled":false,"rental_uris":{"android":"levelo://app?vid=3c7ca379-3006-4063-b9c5-3e4a38e7ba77","ios":"levelo://app?vid=3c7ca379-3006-4063-b9c5-3e4a38e7ba77"},"vehicle_type_id":"4","last_reported":1729231985,"current_range_meters":32800,"station_id":"ce4bh392rcd13ifvqdm0","pricing_plan_id":"cebpf4jnsgd1na2vs0mg"},{"bike_id":"15fb17a5-bc0d-4009-8884-9b183bbe30d2","system_id":"levelo_inurba_marseille","lat":43.28275,"lon":5.35082,"is_reserved":false,"is_disabled":false,"rental_uris":{"android":"levelo://app?vid=15fb17a5-bc0d-4009-8884-9b183bbe30d2","ios":"levelo://app?vid=15fb17a5-bc0d-4009-8884-9b183bbe30d2"},"vehicle_type_id":"4","last_reported":1729231985,"current_range_meters":36800,"station_id":"ce4bhbp2rcd13ifvqerg","pricing_plan_id":"cebpf4jnsgd1na2vs0mg"},{"bike_id":"58907822-02fb-4e74-b5ff-f2cf15328cf0","system_id":"levelo_inurba_marseille","lat":43.29808,"lon":5.38112,"is_reserved":false,"is_disabled":false,"rental_uris":{"android":"levelo://app?vid=58907822-02fb-4e74-b5ff-f2cf15328cf0","ios":"levelo://app?vid=58907822-02fb-4e74-b5ff-f2cf15328cf0"},"vehicle_type_id":"4","last_reported":1729231985,"current_range_meters":28000,"station_id":"ce4bgip2rcd13ifvqbb0","pricing_plan_id":"cebpf4jnsgd1na2vs0mg"},{"bike_id":"c9bf4f2f-c395-4348-a61a-af22ef7e335a","system_id":"levelo_inurba_marseille","lat":43.28617,"lon":5.351,"is_reserved":false,"is_disabled":false,"rental_uris":{"android":"levelo://app?vid=c9bf4f2f-c395-4348-a61a-af22ef7e335a","ios":"levelo://app?vid=c9bf4f2f-c395-4348-a61a-af22ef7e335a"},"vehicle_type_id":"4","last_reported":1729231985,"current_range_meters":21600,"station_id":"ce4bhch2rcd13ifvqeug","pricing_plan_id":"cebpf4jnsgd1na2vs0mg"},{"bike_id":"6e4e333b-836c-482b-82e6-9d51a678996a","system_id":"levelo_inurba_marseille","lat":43.33612,"lon":5.41037,"is_reserved":false,"is_disabled":false,"rental_uris":{"android":"levelo://app?vid=6e4e333b-836c-482b-82e6-9d51a678996a","ios":"levelo://app?vid=6e4e333b-836c-482b-82e6-9d51a678996a"},"vehicle_type_id":"4","last_reported":1729231985,"current_range_meters":7200,"station_id":"ce4bhqh2rcd13ifvqhmg","pricing_plan_id":"cebpf4jnsgd1na2vs0mg"},{"bike_id":"6be66b7c-723e-4b7b-b86d-4f415688f299","system_id":"levelo_inurba_marseille","lat":43.30542,"lon":5.37548,"is_reserved":false,"is_disabled":false,"rental_uris":{"android":"levelo://app?vid=6be66b7c-723e-4b7b-b86d-4f415688f299","ios":"levelo://app?vid=6be66b7c-723e-4b7b-b86d-4f415688f299"},