{"last_updated":1777301783,"ttl":60,"version":"2.2","data":{"bikes":[{"bike_id":"c35ef435-7351-4292-8bd0-8be9078d3a7d","system_id":"levelo_inurba_marseille","lat":43.3094,"lon":5.3905,"is_reserved":false,"is_disabled":true,"rental_uris":{"android":"levelo://app?vid=c35ef435-7351-4292-8bd0-8be9078d3a7d","ios":"levelo://app?vid=c35ef435-7351-4292-8bd0-8be9078d3a7d"},"vehicle_type_id":"4","last_reported":1777301783,"current_range_meters":2800,"station_id":"ce4bgup2rcd13ifvqco0","pricing_plan_id":"cebpf4jnsgd1na2vs0mg"},{"bike_id":"fd76ad82-6acb-49db-9558-0af2e50b6334","system_id":"levelo_inurba_marseille","lat":43.26204,"lon":5.37923,"is_reserved":false,"is_disabled":false,"rental_uris":{"android":"levelo://app?vid=fd76ad82-6acb-49db-9558-0af2e50b6334","ios":"levelo://app?vid=fd76ad82-6acb-49db-9558-0af2e50b6334"},"vehicle_type_id":"4","last_reported":1777301783,"current_range_meters":2800,"station_id":"ce4bhjp2rcd13ifvqg90","pricing_plan_id":"cebpf4jnsgd1na2vs0mg"},{"bike_id":"a2e61c29-3d88-4c0b-806f-a8d5b2e37b18","system_id":"levelo_inurba_marseille","lat":43.26557,"lon":5.37297,"is_reserved":false,"is_disabled":false,"rental_uris":{"android":"levelo://app?vid=a2e61c29-3d88-4c0b-806f-a8d5b2e37b18","ios":"levelo://app?vid=a2e61c29-3d88-4c0b-806f-a8d5b2e37b18"},"vehicle_type_id":"4","last_reported":1777301783,"current_range_meters":2800,"station_id":"ce4bhg12rcd13ifvqf70","pricing_plan_id":"cebpf4jnsgd1na2vs0mg"},{"bike_id":"7c9f8783-6387-4155-af60-d5f693b2f1a1","system_id":"levelo_inurba_marseille","lat":43.29485,"lon":5.43315,"is_reserved":false,"is_disabled":false,"rental_uris":{"android":"levelo://app?vid=7c9f8783-6387-4155-af60-d5f693b2f1a1","ios":"levelo://app?vid=7c9f8783-6387-4155-af60-d5f693b2f1a1"},"vehicle_type_id":"4","last_reported":1777301783,"current_range_meters":2800,"station_id":"st_d3j5ugp08ojc73fj9d10","pricing_plan_id":"cebpf4jnsgd1na2vs0mg"},{"bike_id":"494fd0fc-3b39-4504-a26b-321afbf22977","system_id":"levelo_inurba_marseille","lat":43.23862,"lon":5.38587,"is_reserved":false,"is_disabled":false,"rental_uris":{"android":"levelo://app?vid=494fd0fc-3b39-4504-a26b-321afbf22977","ios":"levelo://app?vid=494fd0fc-3b39-4504-a26b-321afbf22977"},"vehicle_type_id":"4","last_reported":1777301783,"current_range_meters":3200,"station_id":"","pricing_plan_id":"cebpf4jnsgd1na2vs0mg"},{"bike_id":"1fa7c290-baf4-43ed-aa99-7181dabef99e","system_id":"levelo_inurba_marseille","lat":43.33578,"lon":5.37513,"is_reserved":false,"is_disabled":false,"rental_uris":{"android":"levelo://app?vid=1fa7c290-baf4-43ed-aa99-7181dabef99e","ios":"levelo://app?vid=1fa7c290-baf4-43ed-aa99-7181dabef99e"},"vehicle_type_id":"4","last_reported":1777301783,"current_range_meters":3200,"station_id":"st_d46tts09ee8s73dlu43g","pricing_plan_id":"cebpf4jnsgd1na2vs0mg"},{"bike_id":"d4695f77-79a2-4435-9a24-68a12ba6c940","system_id":"levelo_inurba_marseille","lat":43.25818,"lon":5.41846,"is_reserved":false,"is_disabled":false,"rental_uris":{"android":"levelo://app?vid=d4695f77-79a2-4435-9a24-68a12ba6c940","ios":"levelo://app?vid=d4695f77-79a2-4435-9a24-68a12ba6c940"},"vehicle_type_id":"4","last_reported":1777301783,"current_range_meters":3200,"station_id":"","pricing_plan_id":"cebpf4jnsgd1na2vs0mg"},{"bike_id":"cf076e91-fc55-4599-a0ae-0e82a71d14eb","system_id":"levelo_inurba_marseille","lat":43.28997,"lon":5.35615,"is_reserved":false,"is_disabled":false,"rental_uris":{"android":"levelo://app?vid=cf076e91-fc55-4599-a0ae-0e82a71d14eb","ios":"levelo://app?vid=cf076e91-fc55-4599-a0ae-0e82a71d14eb"},"vehicle_type_id":"4","last_reported":1777301783,"current_range_meters":3200,"station_id":"ce4bhb92rcd13ifvqen0","pricing_plan_id":"cebpf4jnsgd1na2vs0mg"},{"bike_id":"bab8150e-8e03-476f-aefd-2a3747fe78d7","system_id":"levelo_inurba_marseille","lat":43.30595,"lon":5.39356,"is_reserved":false,"is_disabled":false,"rental_uris":{"android":"levelo://app?vid=bab8150e-8e03-476f-aefd-2a3747fe78d7","ios":"levelo://app?vid=bab8150e-8e03-476f-aefd-2a3747fe78d7"},"vehicle_type_id":"4","last_reported":1777301783,"current_range_meters":3600,"station_id":"ce4bh0p2rcd13ifvqd80","pricing_plan_id":"cebpf4jnsgd1na2vs0mg"},{"bike_id":"89f5655e-cd52-4fc7-aeb4-e83f93372a7d","system_id":"levelo_inurba_marseille","lat":43.28862,"lon":5.39307,"is_reserved":false,"is_disabled":false,"rental_uris":{"android":"levelo://app?vid=89f5655e-cd52-4fc7-aeb4-e83f93372a7d","ios":"levelo://app?vid=89f5655e-cd52-4fc7-aeb4-e83f93372a7d"},"vehicle_type_id":"4","last_reported":1777301783,"current_range_meters":3600,"station_id":"ce4bh2p2rcd13ifvqdi0","pricing_plan_id":"cebpf4jnsgd1na2vs0mg"},{"bike_id":"593310f2-e1f3-47ad-841b-8858f25eadcd","system_id":"levelo_inurba_marseille","lat":43.28696,"lon":5.37376,"is_reserved":false,"is_disabled":false,"rental_uris":{"android":"levelo://app?vid=593310f2-e1f3-47ad-841b-8858f25eadcd","ios":"levelo://app?vid=593310f2-e1f3-47ad-841b-8858f25eadcd"},"vehicle_type_id":"4","last_reported":1777301783,"current_range_meters":3600,"station_id":"ce4bh3p2rcd13ifvqdq0","pricing_plan_id":"cebpf4jnsgd1na2vs0mg"},{"bike_id":"3d4fd109-5d6d-477e-b986-08227caf85b4","system_id":"levelo_inurba_marseille","lat":43.26556,"lon":5.37287,"is_reserved":false,"is_disabled":false,"rental_uris":{"android":"levelo://app?vid=3d4fd109-5d6d-477e-b986-08227caf85b4","ios":"levelo://app?vid=3d4fd109-5d6d-477e-b986-08227caf85b4"},"vehicle_type_id":"4","last_reported":1777301783,"current_range_meters":3600,"station_id":"ce4bhg12rcd13ifvqf70","pricing_plan_id":"cebpf4jnsgd1na2vs0mg"},{"bike_id":"c1dee6cd-c41c-46fc-b6f5-3a15de45fe23","system_id":"levelo_inurba_marseille","lat":43.24947,"lon":5.40492,"is_reserved":false,"is_disabled":false,"rental_uris":{"android":"levelo://app?vid=c1dee6cd-c41c-46fc-b6f5-3a15de45fe23","ios":"levelo://app?vid=c1dee6cd-c41c-46fc-b6f5-3a15de45fe23"},"vehicle_type_id":"4","last_reported":1777301783,"current_range_meters":3600,"station_id":"st_d2ngiaodas8pm72gd1h0","pricing_plan_id":"cebpf4jnsgd1na2vs0mg"},{"bike_id":"a5d1c5f8-e551-41de-b7f3-a52119a1050b","system_id":"levelo_inurba_marseille","lat":43.27819,"lon":5.37426,"is_reserved":false,"is_disabled":false,"rental_uris":{"android":"levelo://app?vid=a5d1c5f8-e551-41de-b7f3-a52119a1050b","ios":"levelo://app?vid=a5d1c5f8-e551-41de-b7f3-a52119a1050b"},"vehicle_type_id":"4","last_reported":1777301783,"current_range_meters":3600,"station_id":"","pricing_plan_id":"cebpf4jnsgd1na2vs0mg"},{"bike_id":"aa97e32b-230f-4e0e-9f6f-d2bba94773f3","system_id":"levelo_inurba_marseille","lat":43.24393,"lon":5.37069,"is_reserved":false,"is_disabled":false,"rental_uris":{"android":"levelo://app?vid=aa97e32b-230f-4e0e-9f6f-d2bba94773f3","ios":"levelo://app?vid=aa97e32b-230f-4e0e-9f6f-d2bba94773f3"},"vehicle_type_id":"4","last_reported":1777301783,"current_range_meters":3600,"station_id":"ce4bhhh2rcd13ifvqfk0","pricing_plan_id":"cebpf4jnsgd1na2vs0mg"},{"bike_id":"58c4debc-1aca-427b-983f-0dbb1d3addec","system_id":"levelo_inurba_marseille","lat":43.28936,"lon":5.36632,"is_reserved":false,"is_disabled":false,"rental_uris":{"android":"levelo://app?vid=58c4debc-1aca-427b-983f-0dbb1d3addec","ios":"levelo://app?vid=58c4debc-1aca-427b-983f-0dbb1d3addec"},"vehicle_type_id":"4","last_reported":1777301783,"current_range_meters":3600,"station_id":"ce4bhap2rcd13ifvqek0","pricing_plan_id":"cebpf4jnsgd1na2vs0mg"},{"bike_id":"d84dad1f-3355-427c-a81e-a3f872caa973","system_id":"levelo_inurba_marseille","lat":43.28712,"lon":5.46687,"is_reserved":false,"is_disabled":false,"rental_uris":{"android":"levelo://app?vid=d84dad1f-3355-427c-a81e-a3f872caa973","ios":"levelo://app?vid=d84dad1f-3355-427c-a81e-a3f872caa973"},"vehicle_type_id":"4","last_reported":1777301783,"current_range_meters":4000,"station_id":"st_d6tc3vkotcvc738tfjhg","pricing_plan_id":"cebpf4jnsgd1na2vs0mg"},{"bike_id":"ba54c037-f92d-4268-aaf4-53c9f179da6a","system_id":"levelo_inurba_marseille","lat":43.33773,"lon":5.37471,"is_reserved":false,"is_disabled":false,"rental_uris":{"android":"levelo://app?vid=ba54c037-f92d-4268-aaf4-53c9f179da6a","ios":"levelo://app?vid=ba54c037-f92d-4268-aaf4-53c9f179da6a"},"vehicle_type_id":"4","last_reported":1777301783,"current_range_meters":4000,"station_id":"st_d46tts09ee8s73dlu43g","pricing_plan_id":"cebpf4jnsgd1na2vs0mg"},{"bike_id":"37af42d5-4ce7-4d5d-a5c2-36df1080b490","system_id":"levelo_inurba_marseille","lat":43.22562,"lon":5.41643,"is_reserved":false,"is_disabled":false,"rental_uris":{"android":"levelo://app?vid=37af42d5-4ce7-4d5d-a5c2-36df1080b490","ios":"levelo://app?vid=37af42d5-4ce7-4d5d-a5c2-36df1080b490"},"vehicle_type_id":"4","last_reported":1777301783,"current_range_meters":4000,"station_id":"st_d2o4gvlbi1j2169b742g","pricing_plan_id":"cebpf4jnsgd1na2vs0mg"},{"bike_id":"8bdbfb35-2980-4f85-bf2f-77b01b3a2b6e","system_id":"levelo_inurba_marseille","lat":43.31562,"lon":5.36909,"is_reserved":false,"is_disabled":false,"rental_uris":{"android":"levelo://app?vid=8bdbfb35-2980-4f85-bf2f-77b01b3a2b6e","ios":"levelo://app?vid=8bdbfb35-2980-4f85-bf2f-77b01b3a2b6e"},"vehicle_type_id":"4","last_reported":1777301783,"current_range_meters":4000,"station_id":"","pricing_plan_id":"cebpf4jnsgd1na2vs0mg"},{"bike_id":"0f310c52-14d2-4f1e-b4d7-12aed7df7f8b","system_id":"levelo_inurba_marseille","lat":43.26936,"lon":5.40277,"is_reserved":false,"is_disabled":false,"rental_uris":{"android":"levelo://app?vid=0f310c52-14d2-4f1e-b4d7-12aed7df7f8b","ios":"levelo://app?vid=0f310c52-14d2-4f1e-b4d7-12aed7df7f8b"},"vehicle_type_id":"4","last_reported":1777301783,"current_range_meters":4000,"station_id":"cjm6bp8fraef2m0cb0m0","pricing_plan_id":"cebpf4jnsgd1na2vs0mg"},{"bike_id":"6202ad6b-35d3-4de9-b951-171c183e0884","system_id":"levelo_inurba_marseille","lat":43.297988,"lon":5.404052,"is_reserved":false,"is_disabled":false,"rental_uris":{"android":"levelo://app?vid=6202ad6b-35d3-4de9-b951-171c183e0884","ios":"levelo://app?vid=6202ad6b-35d3-4de9-b951-171c183e0884"},"vehicle_type_id":"4","last_reported":1777301783,"current_range_meters":4000,"station_id":"ce4bh112rcd13ifvqd90","pricing_plan_id":"cebpf4jnsgd1na2vs0mg"},{"bike_id":"d1063a8e-a667-4f9b-9166-4b2ea1244e5f","system_id":"levelo_inurba_marseille","lat":43.24773,"lon":5.3748,"is_reserved":false,"is_disabled":false,"rental_uris":{"android":"levelo://app?vid=d1063a8e-a667-4f9b-9166-4b2ea1244e5f","ios":"levelo://app?vid=d1063a8e-a667-4f9b-9166-4b2ea1244e5f"},"vehicle_type_id":"4","last_reported":1777301783,"current_range_meters":4000,"station_id":"ce4bhgh2rcd13ifvqfb0","pricing_plan_id":"cebpf4jnsgd1na2vs0mg"},{"bike_id":"7917a9d5-4ac9-40bd-8834-5d3047c76c9d","system_id":"levelo_inurba_marseille","lat":43.32497,"lon":5.40755,"is_reserved":false,"is_disabled":false,"rental_uris":{"android":"levelo://app?vid=7917a9d5-4ac9-40bd-8834-5d3047c76c9d","ios":"levelo://app?vid=7917a9d5-4ac9-40bd-8834-5d3047c76c9d"},"vehicle_type_id":"4","last_reported":1777301783,"current_range_meters":4000,"station_id":"","pricing_plan_id":"cebpf4jnsgd1na2vs0mg"},{"bike_id":"1e467ca0-2768-4108-a598-baca0cc991f8","system_id":"levelo_inurba_marseille","lat":43.27459,"lon":5.41435,"is_reserved":false,"is_disabled":true,"rental_uris":{"android":"levelo://app?vid=1e467ca0-2768-4108-a598-baca0cc991f8","ios":"levelo://app?vid=1e467ca0-2768-4108-a598-baca0cc991f8"},"vehicle_type_id":"4","last_reported":1777301783,"current_range_meters":4000,"station_id":"","pricing_plan_id":"cebpf4jnsgd1na2vs0mg"},{"bike_id":"8868d634-1dd6-46ea-92b0-ae431c0285e9","system_id":"levelo_inurba_marseille","lat":43.26206,"lon":5.37452,"is_reserved":false,"is_disabled":false,"rental_uris":{"android":"levelo://app?vid=8868d634-1dd6-46ea-92b0-ae431c0285e9","ios":"levelo://app?vid=8868d634-1dd6-46ea-92b0-ae431c0285e9"},"vehicle_type_id":"4","last_reported":1777301783,"current_range_meters":4000,"station_id":"ce4bhgp2rcd13ifvqfc0","pricing_plan_id":"cebpf4jnsgd1na2vs0mg"},{"bike_id":"3ebf2073-2253-49c6-94d3-0037cea8b0ea","system_id":"levelo_inurba_marseille","lat":43.29571,"lon":5.39986,"is_reserved":false,"is_disabled":false,"rental_uris":{"android":"levelo://app?vid=3ebf2073-2253-49c6-94d3-0037cea8b0ea","ios":"levelo://app?vid=3ebf2073-2253-49c6-94d3-0037cea8b0ea"},"vehicle_type_id":"4","last_reported":1777301783,"current_range_meters":4000,"station_id":"ce4bh312rcd13ifvqdj0","pricing_plan_id":"cebpf4jnsgd1na2vs0mg"},{"bike_id":"50fcb081-4b05-4355-adf3-07f022c0399c","system_id":"levelo_inurba_marseille","lat":43.30993,"lon":5.37913,"is_reserved":false,"is_disabled":false,"rental_uris":{"android":"levelo://app?vid=50fcb081-4b05-4355-adf3-07f022c0399c","ios":"levelo://app?vid=50fcb081-4b05-4355-adf3-07f022c0399c"},"vehicle_type_id":"4","last_reported":1777301783,"current_range_meters":4000,"station_id":"","pricing_plan_id":"cebpf4jnsgd1na2vs0mg"},{"bike_id":"359f0c8c-7c92-4cbc-8d37-35efc102af99","system_id":"levelo_inurba_marseille","lat":43.29519,"lon":5.39403,"is_reserved":false,"is_disabled":false,"rental_uris":{"android":"levelo://app?vid=359f0c8c-7c92-4cbc-8d37-35efc102af99","ios":"levelo://app?vid=359f0c8c-7c92-4cbc-8d37-35efc102af99"},"vehicle_type_id":"4","last_reported":1777301783,"current_range_meters":4000,"station_id":"ce4bh292rcd13ifvqdf0","pricing_plan_id":"cebpf4jnsgd1na2vs0mg"},{"bike_id":"362ba39c-4a32-4af4-959c-e9521ce7fcdc","system_id":"levelo_inurba_marseille","lat":43.26193,"lon":5.37448,"is_reserved":false,"is_disabled":false,"rental_uris":{"android":"levelo://app?vid=362ba39c-4a32-4af4-959c-e9521ce7fcdc","ios":"levelo://app?vid=362ba39c-4a32-4af4-959c-e9521ce7fcdc"},"vehicle_type_id":"4","last_reported":1777301783,"current_range_meters":4400,"station_id":"ce4bhgp2rcd13ifvqfc0","pricing_plan_id":"cebpf4jnsgd1na2vs0mg"},{"bike_id":"5676b1df-3102-49f0-94ea-6bd037dc90c9","system_id":"levelo_inurba_marseille","lat":43.31113,"lon":5.38103,"is_reserved":false,"is_disabled":false,"rental_uris":{"android":"levelo://app?vid=5676b1df-3102-49f0-94ea-6bd037dc90c9","ios":"levelo://app?vid=5676b1df-3102-49f0-94ea-6bd037dc90c9"},"vehicle_type_id":"4","last_reported":1777301783,"current_range_meters":4400,"station_id":"","pricing_plan_id":"cebpf4jnsgd1na2vs0mg"},{"bike_id":"b94b5f96-79f0-48ca-b92d-080a31da1387","system_id":"levelo_inurba_marseille","lat":43.24097,"lon":5.37702,"is_reserved":false,"is_disabled":false,"rental_uris":{"android":"levelo://app?vid=b94b5f96-79f0-48ca-b92d-080a31da1387","ios":"levelo://app?vid=b94b5f96-79f0-48ca-b92d-080a31da1387"},"vehicle_type_id":"4","last_reported":1777301783,"current_range_meters":4400,"station_id":"","pricing_plan_id":"cebpf4jnsgd1na2vs0mg"},{"bike_id":"162f3302-c2d8-48eb-ac4f-eee889efb8d8","system_id":"levelo_inurba_marseille","lat":43.2907,"lon":5.37171,"is_reserved":false,"is_disabled":false,"rental_uris":{"android":"levelo://app?vid=162f3302-c2d8-48eb-ac4f-eee889efb8d8","ios":"levelo://app?vid=162f3302-c2d8-48eb-ac4f-eee889efb8d8"},"vehicle_type_id":"4","last_reported":1777301783,"current_range_meters":4400,"station_id":"ce4bh5p2rcd13ifvqe4g","pricing_plan_id":"cebpf4jnsgd1na2vs0mg"},{"bike_id":"1f13452b-ac27-48ca-bbd2-1255b0865067","system_id":"levelo_inurba_marseille","lat":43.27852,"lon":5.37902,"is_reserved":false,"is_disabled":false,"rental_uris":{"android":"levelo://app?vid=1f13452b-ac27-48ca-bbd2-1255b0865067","ios":"levelo://app?vid=1f13452b-ac27-48ca-bbd2-1255b0865067"},"vehicle_type_id":"4","last_reported":1777301783,"current_range_meters":4400,"station_id":"","pricing_plan_id":"cebpf4jnsgd1na2vs0mg"},{"bike_id":"b5b27e7d-490b-4a8b-b8e4-8354ba236af2","system_id":"levelo_inurba_marseille","lat":43.270488,"lon":5.402474,"is_reserved":false,"is_disabled":false,"rental_uris":{"android":"levelo://app?vid=b5b27e7d-490b-4a8b-b8e4-8354ba236af2","ios":"levelo://app?vid=b5b27e7d-490b-4a8b-b8e4-8354ba236af2"},"vehicle_type_id":"4","last_reported":1777301783,"current_range_meters":4400,"station_id":"ce4bhjp2rcd13ifvqga0","pricing_plan_id":"cebpf4jnsgd1na2vs0mg"},{"bike_id":"fd583349-9e7d-4e5b-8155-1da1a7a44b99","system_id":"levelo_inurba_marseille","lat":43.27949,"lon":5.41036,"is_reserved":false,"is_disabled":false,"rental_uris":{"android":"levelo://app?vid=fd583349-9e7d-4e5b-8155-1da1a7a44b99","ios":"levelo://app?vid=fd583349-9e7d-4e5b-8155-1da1a7a44b99"},"vehicle_type_id":"4","last_reported":1777301783,"current_range_meters":4400,"station_id":"ce4bhnp2rcd13ifvqh0g","pricing_plan_id":"cebpf4jnsgd1na2vs0mg"},{"bike_id":"c6941364-0b3e-415d-827c-e48038694e60","system_id":"levelo_inurba_marseille","lat":43.30761,"lon":5.43554,"is_reserved":false,"is_disabled":false,"rental_uris":{"android":"levelo://app?vid=c6941364-0b3e-415d-827c-e48038694e60","ios":"levelo://app?vid=c6941364-0b3e-415d-827c-e48038694e60"},"vehicle_type_id":"4","last_reported":1777301783,"current_range_meters":4400,"station_id":"","pricing_plan_id":"cebpf4jnsgd1na2vs0mg"},{"bike_id":"857b7f5b-ed92-4444-9f3f-5af36e9d31a2","system_id":"levelo_inurba_marseille","lat":43.23785,"lon":5.3664,"is_reserved":false,"is_disabled":false,"rental_uris":{"android":"levelo://app?vid=857b7f5b-ed92-4444-9f3f-5af36e9d31a2","ios":"levelo://app?vid=857b7f5b-ed92-4444-9f3f-5af36e9d31a2"},"vehicle_type_id":"4","last_reported":1777301783,"current_range_meters":4400,"station_id":"st_d3nk18o9ro0c73en2l3g","pricing_plan_id":"cebpf4jnsgd1na2vs0mg"},{"bike_id":"867e4efb-03e8-466f-a027-d873140a375d","system_id":"levelo_inurba_marseille","lat":43.24815,"lon":5.37463,"is_reserved":false,"is_disabled":false,"rental_uris":{"android":"levelo://app?vid=867e4efb-03e8-466f-a027-d873140a375d","ios":"levelo://app?vid=867e4efb-03e8-466f-a027-d873140a375d"},"vehicle_type_id":"4","last_reported":1777301783,"current_range_meters":4400,"station_id":"ce4bhgh2rcd13ifvqfb0","pricing_plan_id":"cebpf4jnsgd1na2vs0mg"},{"bike_id":"e65a85a6-077f-4230-a4b8-10d703e9e104","system_id":"levelo_inurba_marseille","lat":43.28267,"lon":5.3506,"is_reserved":false,"is_disabled":false,"rental_uris":{"android":"levelo://app?vid=e65a85a6-077f-4230-a4b8-10d703e9e104","ios":"levelo://app?vid=e65a85a6-077f-4230-a4b8-10d703e9e104"},"vehicle_type_id":"4","last_reported":1777301783,"current_range_meters":4800,"station_id":"ce4bhbp2rcd13ifvqerg","pricing_plan_id":"cebpf4jnsgd1na2vs0mg"},{"bike_id":"e2a3db73-500b-4326-a0e8-79d951dbfb5b","system_id":"levelo_inurba_marseille","lat":43.30052,"lon":5.37931,"is_reserved":false,"is_disabled":false,"rental_uris":{"android":"levelo://app?vid=e2a3db73-500b-4326-a0e8-79d951dbfb5b","ios":"levelo://app?vid=e2a3db73-500b-4326-a0e8-79d951dbfb5b"},"vehicle_type_id":"4","last_reported":1777301783,"current_range_meters":4800,"station_id":"","pricing_plan_id":"cebpf4jnsgd1na2vs0mg"},{"bike_id":"dc335fc4-b208-4868-85ce-5c0cc3159a44","system_id":"levelo_inurba_marseille","lat":43.26053,"lon":5.37551,"is_reserved":false,"is_disabled":false,"rental_uris":{"android":"levelo://app?vid=dc335fc4-b208-4868-85ce-5c0cc3159a44","ios":"levelo://app?vid=dc335fc4-b208-4868-85ce-5c0cc3159a44"},"vehicle_type_id":"4","last_reported":1777301783,"current_range_meters":4800,"station_id":"ce4bhgh2rcd13ifvqfa0","pricing_plan_id":"cebpf4jnsgd1na2vs0mg"},{"bike_id":"3e7ceafe-7bea-4ce5-8f0f-7175e87014a5","system_id":"levelo_inurba_marseille","lat":43.294443,"lon":5.397458,"is_reserved":false,"is_disabled":false,"rental_uris":{"android":"levelo://app?vid=3e7ceafe-7bea-4ce5-8f0f-7175e87014a5","ios":"levelo://app?vid=3e7ceafe-7bea-4ce5-8f0f-7175e87014a5"},"vehicle_type_id":"4","last_reported":1777301783,"current_range_meters":4800,"station_id":"ce4bh3h2rcd13ifvqdo0","pricing_plan_id":"cebpf4jnsgd1na2vs0mg"},{"bike_id":"b0b71127-0186-446a-a86d-f400e2587a15","system_id":"levelo_inurba_marseille","lat":43.29583,"lon":5.37514,"is_reserved":false,"is_disabled":false,"rental_uris":{"android":"levelo://app?vid=b0b71127-0186-446a-a86d-f400e2587a15","ios":"levelo://app?vid=b0b71127-0186-446a-a86d-f400e2587a15"},"vehicle_type_id":"4","last_reported":1777301783,"current_range_meters":4800,"station_id":"ce4bgh92rcd13ifvqb50","pricing_plan_id":"cebpf4jnsgd1na2vs0mg"},{"bike_id":"35a6efba-6e56-4656-8dc6-121dcaca4930","system_id":"levelo_inurba_marseille","lat":43.25595,"lon":5.38614,"is_reserved":false,"is_disabled":false,"rental_uris":{"android":"levelo://app?vid=35a6efba-6e56-4656-8dc6-121dcaca4930","ios":"levelo://app?vid=35a6efba-6e56-4656-8dc6-121dcaca4930"},"vehicle_type_id":"4","last_reported":1777301783,"current_range_meters":4800,"station_id":"","pricing_plan_id":"cebpf4jnsgd1na2vs0mg"},{"bike_id":"2855b825-f1e6-41c2-ba0d-6fb8b9cfa245","system_id":"levelo_inurba_marseille","lat":43.308945,"lon":5.371917,"is_reserved":false,"is_disabled":false,"rental_uris":{"android":"levelo://app?vid=2855b825-f1e6-41c2-ba0d-6fb8b9cfa245","ios":"levelo://app?vid=2855b825-f1e6-41c2-ba0d-6fb8b9cfa245"},"vehicle_type_id":"4","last_reported":1777301783,"current_range_meters":4800,"station_id":"ce4bguh2rcd13ifvqckg","pricing_plan_id":"cebpf4jnsgd1na2vs0mg"},{"bike_id":"6f066b2b-4b7f-4ca0-84a2-8d5dcb3ecb45","system_id":"levelo_inurba_marseille","lat":43.29076,"lon":5.37158,"is_reserved":false,"is_disabled":false,"rental_uris":{"android":"levelo://app?vid=6f066b2b-4b7f-4ca0-84a2-8d5dcb3ecb45","ios":"levelo://app?vid=6f066b2b-4b7f-4ca0-84a2-8d5dcb3ecb45"},"vehicle_type_id":"4","last_reported":1777301783,"current_range_meters":5600,"station_id":"ce4bh5p2rcd13ifvqe4g","pricing_plan_id":"cebpf4jnsgd1na2vs0mg"},{"bike_id":"27cd71a7-0940-4415-a67f-21597fbf1cd9","system_id":"levelo_inurba_marseille","lat":43.34526,"lon":5.37784,"is_reserved":false,"is_disabled":false,"rental_uris":{"android":"levelo://app?vid=27cd71a7-0940-4415-a67f-21597fbf1cd9","ios":"levelo://app?vid=27cd71a7-0940-4415-a67f-21597fbf1cd9"},"vehicle_type_id":"4","last_reported":1777301783,"current_range_meters":5600,"station_id":"","pricing_plan_id":"cebpf4jnsgd1na2vs0mg"},{"bike_id":"ad06fbeb-2893-47bd-9310-693ccba410e9","system_id":"levelo_inurba_marseille","lat":43.28763,"lon":5.46823,"is_reserved":false,"is_disabled":false,"rental_uris":{"android":"levelo://app?vid=ad06fbeb-2893-47bd-9310-693ccba410e9","ios":"levelo://app?vid=ad06fbeb-2893-47bd-9310-693ccba410e9"},"vehicle_type_id":"4","last_reported":1777301783,"current_range_meters":5600,"station_id":"","pricing_plan_id":"cebpf4jnsgd1na2vs0mg"},{"bike_id":"2596dfd9-6653-4a3f-b8ae-a432e5510c76","system_id":"levelo_inurba_marseille","lat":43.28242,"lon":5.39065,"is_reserved":false,"is_disabled":true,"rental_uris":{"android":"levelo://app?vid=2596dfd9-6653-4a3f-b8ae-a432e5510c76","ios":"levelo://app?vid=2596dfd9-6653-4a3f-b8ae-a432e5510c76"},"vehicle_type_id":"4","last_reported":1777301783,"current_range_meters":5600,"station_id":"ce4bhn92rcd13ifvqgsg","pricing_plan_id":"cebpf4jnsgd1na2vs0mg"},{"bike_id":"cf4537a9-051c-4080-9a3f-93f632ce0082","system_id":"levelo_inurba_marseille","lat":43.337444,"lon":5.374475,"is_reserved":false,"is_disabled":false,"rental_uris":{"android":"levelo://app?vid=cf4537a9-051c-4080-9a3f-93f632ce0082","ios":"levelo://app?vid=cf4537a9-051c-4080-9a3f-93f632ce0082"},"vehicle_type_id":"4","last_reported":1777301783,"current_range_meters":5600,"station_id":"","pricing_plan_id":"cebpf4jnsgd1na2vs0mg"},{"bike_id":"bdab1e31-d7ea-4c8e-b3d6-57aabe73b361","system_id":"levelo_inurba_marseille","lat":43.28569,"lon":5.39513,"is_reserved":false,"is_disabled":true,"rental_uris":{"android":"levelo://app?vid=bdab1e31-d7ea-4c8e-b3d6-57aabe73b361","ios":"levelo://app?vid=bdab1e31-d7ea-4c8e-b3d6-57aabe73b361"},"vehicle_type_id":"4","last_reported":1777301783,"current_range_meters":5600,"station_id":"ce4bh292rcd13ifvqdg0","pricing_plan_id":"cebpf4jnsgd1na2vs0mg"},{"bike_id":"8c81c8db-cfa8-4213-85aa-baaa142f7800","system_id":"levelo_inurba_marseille","lat":43.2901,"lon":5.35609,"is_reserved":false,"is_disabled":false,"rental_uris":{"android":"levelo://app?vid=8c81c8db-cfa8-4213-85aa-baaa142f7800","ios":"levelo://app?vid=8c81c8db-cfa8-4213-85aa-baaa142f7800"},"vehicle_type_id":"4","last_reported":1777301783,"current_range_meters":5600,"station_id":"ce4bhb92rcd13ifvqen0","pricing_plan_id":"cebpf4jnsgd1na2vs0mg"},{"bike_id":"b21748b2-fb24-4ee6-8e6a-c7c61264faec","system_id":"levelo_inurba_marseille","lat":43.27418,"lon":5.42192,"is_reserved":false,"is_disabled":false,"rental_uris":{"android":"levelo://app?vid=b21748b2-fb24-4ee6-8e6a-c7c61264faec","ios":"levelo://app?vid=b21748b2-fb24-4ee6-8e6a-c7c61264faec"},"vehicle_type_id":"4","last_reported":1777301783,"current_range_meters":5600,"station_id":"","pricing_plan_id":"cebpf4jnsgd1na2vs0mg"},{"bike_id":"1b361867-bb8d-46ed-be4e-b1fca470c844","system_id":"levelo_inurba_marseille","lat":43.29977,"lon":5.37151,"is_reserved":false,"is_disabled":false,"rental_uris":{"android":"levelo://app?vid=1b361867-bb8d-46ed-be4e-b1fca470c844","ios":"levelo://app?vid=1b361867-bb8d-46ed-be4e-b1fca470c844"},"vehicle_type_id":"4","last_reported":1777301783,"current_range_meters":5600,"station_id":"ce4bgr92rcd13ifvqc7g","pricing_plan_id":"cebpf4jnsgd1na2vs0mg"},{"bike_id":"8cc55038-c67d-4744-8ef6-917b64c79e33","system_id":"levelo_inurba_marseille","lat":43.26562,"lon":5.37272,"is_reserved":false,"is_disabled":false,"rental_uris":{"android":"levelo://app?vid=8cc55038-c67d-4744-8ef6-917b64c79e33","ios":"levelo://app?vid=8cc55038-c67d-4744-8ef6-917b64c79e33"},"vehicle_type_id":"4","last_reported":1777301783,"current_range_meters":5600,"station_id":"ce4bhg12rcd13ifvqf70","pricing_plan_id":"cebpf4jnsgd1na2vs0mg"},{"bike_id":"33583e6d-0aff-4074-aa50-85776546590c","system_id":"levelo_inurba_marseille","lat":43.24393,"lon":5.37055,"is_reserved":false,"is_disabled":false,"rental_uris":{"android":"levelo://app?vid=33583e6d-0aff-4074-aa50-85776546590c","ios":"levelo://app?vid=33583e6d-0aff-4074-aa50-85776546590c"},"vehicle_type_id":"4","last_reported":1777301783,"current_range_meters":6000,"station_id":"ce4bhhh2rcd13ifvqfk0","pricing_plan_id":"cebpf4jnsgd1na2vs0mg"},{"bike_id":"259a7a87-95b3-4999-9e9e-b92ef28df776","system_id":"levelo_inurba_marseille","lat":43.24994,"lon":5.38939,"is_reserved":false,"is_disabled":false,"rental_uris":{"android":"levelo://app?vid=259a7a87-95b3-4999-9e9e-b92ef28df776","ios":"levelo://app?vid=259a7a87-95b3-4999-9e9e-b92ef28df776"},"vehicle_type_id":"4","last_reported":1777301783,"current_range_meters":6000,"station_id":"ce4bhgp2rcd13ifvqfd0","pricing_plan_id":"cebpf4jnsgd1na2vs0mg"},{"bike_id":"91e4eed8-7aa0-4ca6-bc8b-33ffc5693469","system_id":"levelo_inurba_marseille","lat":43.31334,"lon":5.37908,"is_reserved":false,"is_disabled":false,"rental_uris":{"android":"levelo://app?vid=91e4eed8-7aa0-4ca6-bc8b-33ffc5693469","ios":"levelo://app?vid=91e4eed8-7aa0-4ca6-bc8b-33ffc5693469"},"vehicle_type_id":"4","last_reported":1777301783,"current_range_meters":6000,"station_id":"","pricing_plan_id":"cebpf4jnsgd1na2vs0mg"},{"bike_id":"d2a170e9-4683-45e4-8ad8-6a20e503868b","system_id":"levelo_inurba_marseille","lat":43.2551,"lon":5.37659,"is_reserved":false,"is_disabled":false,"rental_uris":{"android":"levelo://app?vid=d2a170e9-4683-45e4-8ad8-6a20e503868b","ios":"levelo://app?vid=d2a170e9-4683-45e4-8ad8-6a20e503868b"},"vehicle_type_id":"4","last_reported":1777301783,"current_range_meters":6000,"station_id":"ce4bhh12rcd13ifvqff0","pricing_plan_id":"cebpf4jnsgd1na2vs0mg"},{"bike_id":"e6e0181d-d51b-42d7-93b1-7e8f4d00629c","system_id":"levelo_inurba_marseille","lat":43.29825,"lon":5.42036,"is_reserved":false,"is_disabled":true,"rental_uris":{"android":"levelo://app?vid=e6e0181d-d51b-42d7-93b1-7e8f4d00629c","ios":"levelo://app?vid=e6e0181d-d51b-42d7-93b1-7e8f4d00629c"},"vehicle_type_id":"4","last_reported":1777301783,"current_range_meters":6000,"station_id":"","pricing_plan_id":"cebpf4jnsgd1na2vs0mg"},{"bike_id":"a9335f62-4c73-44b2-8914-e3f52e6941ca","system_id":"levelo_inurba_marseille","lat":43.32113,"lon":5.36795,"is_reserved":false,"is_disabled":false,"rental_uris":{"android":"levelo://app?vid=a9335f62-4c73-44b2-8914-e3f52e6941ca","ios":"levelo://app?vid=a9335f62-4c73-44b2-8914-e3f52e6941ca"},"vehicle_type_id":"4","last_reported":1777301783,"current_range_meters":6000,"station_id":"ce4bhrh2rcd13ifvqhug","pricing_plan_id":"cebpf4jnsgd1na2vs0mg"},{"bike_id":"017d1404-0900-4621-8a62-5b5967f2a7ca","system_id":"levelo_inurba_marseille","lat":43.28421,"lon":5.35002,"is_reserved":false,"is_disabled":false,"rental_uris":{"android":"levelo://app?vid=017d1404-0900-4621-8a62-5b5967f2a7ca","ios":"levelo://app?vid=017d1404-0900-4621-8a62-5b5967f2a7ca"},"vehicle_type_id":"4","last_reported":1777301783,"current_range_meters":6000,"station_id":"ce4bhbh2rcd13ifvqepg","pricing_plan_id":"cebpf4jnsgd1na2vs0mg"},{"bike_id":"f76e2a44-b048-4463-845a-26d27dfb21c3","system_id":"levelo_inurba_marseille","lat":43.28879,"lon":5.37211,"is_reserved":false,"is_disabled":false,"rental_uris":{"android":"levelo://app?vid=f76e2a44-b048-4463-845a-26d27dfb21c3","ios":"levelo://app?vid=f76e2a44-b048-4463-845a-26d27dfb21c3"},"vehicle_type_id":"4","last_reported":1777301783,"current_range_meters":6000,"station_id":"","pricing_plan_id":"cebpf4jnsgd1na2vs0mg"},{"bike_id":"a86ec1c1-2d6e-4bd5-9425-8c90a698ef66","system_id":"levelo_inurba_marseille","lat":43.28926,"lon":5.38395,"is_reserved":false,"is_disabled":false,"rental_uris":{"android":"levelo://app?vid=a86ec1c1-2d6e-4bd5-9425-8c90a698ef66","ios":"levelo://app?vid=a86ec1c1-2d6e-4bd5-9425-8c90a698ef66"},"vehicle_type_id":"4","last_reported":1777301783,"current_range_meters":6000,"station_id":"ce4bh612rcd13ifvqe6g","pricing_plan_id":"cebpf4jnsgd1na2vs0mg"},{"bike_id":"706ecd89-bafe-46bb-8b99-a5d007005819","system_id":"levelo_inurba_marseille","lat":43.24816,"lon":5.37456,"is_reserved":false,"is_disabled":false,"rental_uris":{"android":"levelo://app?vid=706ecd89-bafe-46bb-8b99-a5d007005819","ios":"levelo://app?vid=706ecd89-bafe-46bb-8b99-a5d007005819"},"vehicle_type_id":"4","last_reported":1777301783,"current_range_meters":6400,"station_id":"ce4bhgh2rcd13ifvqfb0","pricing_plan_id":"cebpf4jnsgd1na2vs0mg"},{"bike_id":"5367fafd-42a5-4c52-bd35-5d85953af91c","system_id":"levelo_inurba_marseille","lat":43.30827,"lon":5.38108,"is_reserved":false,"is_disabled":true,"rental_uris":{"android":"levelo://app?vid=5367fafd-42a5-4c52-bd35-5d85953af91c","ios":"levelo://app?vid=5367fafd-42a5-4c52-bd35-5d85953af91c"},"vehicle_type_id":"4","last_reported":1777301783,"current_range_meters":6400,"station_id":"ce4bgt12rcd13ifvqce0","pricing_plan_id":"cebpf4jnsgd1na2vs0mg"},{"bike_id":"51c3c491-ef81-4e45-9e29-3e8d7708e3b0","system_id":"levelo_inurba_marseille","lat":43.26937,"lon":5.40251,"is_reserved":false,"is_disabled":false,"rental_uris":{"android":"levelo://app?vid=51c3c491-ef81-4e45-9e29-3e8d7708e3b0","ios":"levelo://app?vid=51c3c491-ef81-4e45-9e29-3e8d7708e3b0"},"vehicle_type_id":"4","last_reported":1777301783,"current_range_meters":6400,"station_id":"cjm6bp8fraef2m0cb0m0","pricing_plan_id":"cebpf4jnsgd1na2vs0mg"},{"bike_id":"85c60343-cd9e-448d-96b1-1fa8b4874025","system_id":"levelo_inurba_marseille","lat":43.2439,"lon":5.37042,"is_reserved":false,"is_disabled":false,"rental_uris":{"android":"levelo://app?vid=85c60343-cd9e-448d-96b1-1fa8b4874025","ios":"levelo://app?vid=85c60343-cd9e-448d-96b1-1fa8b4874025"},"vehicle_type_id":"4","last_reported":1777301783,"current_range_meters":6400,"station_id":"ce4bhhh2rcd13ifvqfk0","pricing_plan_id":"cebpf4jnsgd1na2vs0mg"},{"bike_id":"edde091c-bfc7-4d2c-82b3-cc4655160905","system_id":"levelo_inurba_marseille","lat":43.26783,"lon":5.39422,"is_reserved":false,"is_disabled":false,"rental_uris":{"android":"levelo://app?vid=edde091c-bfc7-4d2c-82b3-cc4655160905","ios":"levelo://app?vid=edde091c-bfc7-4d2c-82b3-cc4655160905"},"vehicle_type_id":"4","last_reported":1777301783,"current_range_meters":6400,"station_id":"ce4bhh12rcd13ifvqfg0","pricing_plan_id":"cebpf4jnsgd1na2vs0mg"},{"bike_id":"46498208-e03d-4598-bc2d-40b983123384","system_id":"levelo_inurba_marseille","lat":43.24999,"lon":5.38926,"is_reserved":false,"is_disabled":false,"rental_uris":{"android":"levelo://app?vid=46498208-e03d-4598-bc2d-40b983123384","ios":"levelo://app?vid=46498208-e03d-4598-bc2d-40b983123384"},"vehicle_type_id":"4","last_reported":1777301783,"current_range_meters":6400,"station_id":"ce4bhgp2rcd13ifvqfd0","pricing_plan_id":"cebpf4jnsgd1na2vs0mg"},{"bike_id":"6b5b9e45-67f3-4a64-a294-ead66e30dbef","system_id":"levelo_inurba_marseille","lat":43.24658,"lon":5.38158,"is_reserved":false,"is_disabled":false,"rental_uris":{"android":"levelo://app?vid=6b5b9e45-67f3-4a64-a294-ead66e30dbef","ios":"levelo://app?vid=6b5b9e45-67f3-4a64-a294-ead66e30dbef"},"vehicle_type_id":"4","last_reported":1777301783,"current_range_meters":6400,"station_id":"ce4bhih2rcd13ifvqfr0","pricing_plan_id":"cebpf4jnsgd1na2vs0mg"},{"bike_id":"ad26b8dc-edee-444c-8fc3-cb83169b331a","system_id":"levelo_inurba_marseille","lat":43.28161,"lon":5.42661,"is_reserved":false,"is_disabled":false,"rental_uris":{"android":"levelo://app?vid=ad26b8dc-edee-444c-8fc3-cb83169b331a","ios":"levelo://app?vid=ad26b8dc-edee-444c-8fc3-cb83169b331a"},"vehicle_type_id":"4","last_reported":1777301783,"current_range_meters":6400,"station_id":"ce4bhnh2rcd13ifvqgug","pricing_plan_id":"cebpf4jnsgd1na2vs0mg"},{"bike_id":"50f8bdff-b169-44f8-8920-840c94d5e30a","system_id":"levelo_inurba_marseille","lat":43.28485,"lon":5.48354,"is_reserved":false,"is_disabled":false,"rental_uris":{"android":"levelo://app?vid=50f8bdff-b169-44f8-8920-840c94d5e30a","ios":"levelo://app?vid=50f8bdff-b169-44f8-8920-840c94d5e30a"},"vehicle_type_id":"4","last_reported":1777301783,"current_range_meters":6400,"station_id":"","pricing_plan_id":"cebpf4jnsgd1na2vs0mg"},{"bike_id":"b26e1fbd-2338-4342-9209-c6a61c746d99","system_id":"levelo_inurba_marseille","lat":43.26672,"lon":5.38265,"is_reserved":false,"is_disabled":false,"rental_uris":{"android":"levelo://app?vid=b26e1fbd-2338-4342-9209-c6a61c746d99","ios":"levelo://app?vid=b26e1fbd-2338-4342-9209-c6a61c746d99"},"vehicle_type_id":"4","last_reported":1777301783,"current_range_meters":6400,"station_id":"ce4bhg92rcd13ifvqf90","pricing_plan_id":"cebpf4jnsgd1na2vs0mg"},{"bike_id":"db5661d1-0f87-4295-b397-bf48c1a2f0a0","system_id":"levelo_inurba_marseille","lat":43.24075,"lon":5.37758,"is_reserved":false,"is_disabled":false,"rental_uris":{"android":"levelo://app?vid=db5661d1-0f87-4295-b397-bf48c1a2f0a0","ios":"levelo://app?vid=db5661d1-0f87-4295-b397-bf48c1a2f0a0"},"vehicle_type_id":"4","last_reported":1777301783,"current_range_meters":6400,"station_id":"ce4bhnp2rcd13ifvqgvg","pricing_plan_id":"cebpf4jnsgd1na2vs0mg"},{"bike_id":"cac7f397-6b02-4ce2-9dfe-60fcfcf952e8","system_id":"levelo_inurba_marseille","lat":43.28346,"lon":5.38105,"is_reserved":false,"is_disabled":false,"rental_uris":{"android":"levelo://app?vid=cac7f397-6b02-4ce2-9dfe-60fcfcf952e8","ios":"levelo://app?vid=cac7f397-6b02-4ce2-9dfe-60fcfcf952e8"},"vehicle_type_id":"4","last_reported":1777301783,"current_range_meters":6400,"station_id":"ce4bh412rcd13ifvqdr0","pricing_plan_id":"cebpf4jnsgd1na2vs0mg"},{"bike_id":"d850bfe0-3010-4c7e-98ea-7ff8498f5e8a","system_id":"levelo_inurba_marseille","lat":43.28423,"lon":5.34979,"is_reserved":false,"is_disabled":false,"rental_uris":{"android":"levelo://app?vid=d850bfe0-3010-4c7e-98ea-7ff8498f5e8a","ios":"levelo://app?vid=d850bfe0-3010-4c7e-98ea-7ff8498f5e8a"},"vehicle_type_id":"4","last_reported":1777301783,"current_range_meters":6800,"station_id":"ce4bhbh2rcd13ifvqepg","pricing_plan_id":"cebpf4jnsgd1na2vs0mg"},{"bike_id":"8e77f3ba-38f8-4add-b61b-b2f308d4dba7","system_id":"levelo_inurba_marseille","lat":43.24665,"lon":5.38192,"is_reserved":false,"is_disabled":false,"rental_uris":{"android":"levelo://app?vid=8e77f3ba-38f8-4add-b61b-b2f308d4dba7","ios":"levelo://app?vid=8e77f3ba-38f8-4add-b61b-b2f308d4dba7"},"vehicle_type_id":"4","last_reported":1777301783,"current_range_meters":6800,"station_id":"ce4bhih2rcd13ifvqfr0","pricing_plan_id":"cebpf4jnsgd1na2vs0mg"},{"bike_id":"70e1d84f-1998-4b20-b742-0d37f97b8d4d","system_id":"levelo_inurba_marseille","lat":43.23154,"lon":5.43723,"is_reserved":false,"is_disabled":false,"rental_uris":{"android":"levelo://app?vid=70e1d84f-1998-4b20-b742-0d37f97b8d4d","ios":"levelo://app?vid=70e1d84f-1998-4b20-b742-0d37f97b8d4d"},"vehicle_type_id":"4","last_reported":1777301783,"current_range_meters":6800,"station_id":"ce4bhmp2rcd13ifvqgog","pricing_plan_id":"cebpf4jnsgd1na2vs0mg"},{"bike_id":"c14336fa-2d5d-48b6-863d-09b5884806aa","system_id":"levelo_inurba_marseille","lat":43.2898,"lon":5.37821,"is_reserved":false,"is_disabled":false,"rental_uris":{"android":"levelo://app?vid=c14336fa-2d5d-48b6-863d-09b5884806aa","ios":"levelo://app?vid=c14336fa-2d5d-48b6-863d-09b5884806aa"},"vehicle_type_id":"4","last_reported":1777301783,"current_range_meters":6800,"station_id":"ce4bh9p2rcd13ifvqed0","pricing_plan_id":"cebpf4jnsgd1na2vs0mg"},{"bike_id":"95fcacf0-7086-4a79-916d-eb3549d744d3","system_id":"levelo_inurba_marseille","lat":43.337444,"lon":5.374475,"is_reserved":false,"is_disabled":false,"rental_uris":{"android":"levelo://app?vid=95fcacf0-7086-4a79-916d-eb3549d744d3","ios":"levelo://app?vid=95fcacf0-7086-4a79-916d-eb3549d744d3"},"vehicle_type_id":"4","last_reported":1777301783,"current_range_meters":6800,"station_id":"","pricing_plan_id":"cebpf4jnsgd1na2vs0mg"},{"bike_id":"a20c828c-7e17-4850-9066-77d1ff8b1605","system_id":"levelo_inurba_marseille","lat":43.30545,"lon":5.36535,"is_reserved":false,"is_disabled":false,"rental_uris":{"android":"levelo://app?vid=a20c828c-7e17-4850-9066-77d1ff8b1605","ios":"levelo://app?vid=a20c828c-7e17-4850-9066-77d1ff8b1605"},"vehicle_type_id":"4","last_reported":1777301783,"current_range_meters":6800,"station_id":"ce4bgs12rcd13ifvqcag","pricing_plan_id":"cebpf4jnsgd1na2vs0mg"},{"bike_id":"df162395-0a92-4408-85ae-bdea3f7db3a8","system_id":"levelo_inurba_marseille","lat":43.25015,"lon":5.38928,"is_reserved":false,"is_disabled":false,"rental_uris":{"android":"levelo://app?vid=df162395-0a92-4408-85ae-bdea3f7db3a8","ios":"levelo://app?vid=df162395-0a92-4408-85ae-bdea3f7db3a8"},"vehicle_type_id":"4","last_reported":1777301783,"current_range_meters":7200,"station_id":"ce4bhgp2rcd13ifvqfd0","pricing_plan_id":"cebpf4jnsgd1na2vs0mg"},{"bike_id":"cbdc030d-96ff-4aca-8b1a-9db5aca44af1","system_id":"levelo_inurba_marseille","lat":43.2953,"lon":5.39408,"is_reserved":false,"is_disabled":false,"rental_uris":{"android":"levelo://app?vid=cbdc030d-96ff-4aca-8b1a-9db5aca44af1","ios":"levelo://app?vid=cbdc030d-96ff-4aca-8b1a-9db5aca44af1"},"vehicle_type_id":"4","last_reported":1777301783,"current_range_meters":7200,"station_id":"ce4bh292rcd13ifvqdf0","pricing_plan_id":"cebpf4jnsgd1na2vs0mg"},{"bike_id":"70ab68a7-f252-47fa-a529-01a3240781ee","system_id":"levelo_inurba_marseille","lat":43.23152,"lon":5.43724,"is_reserved":false,"is_disabled":false,"rental_uris":{"android":"levelo://app?vid=70ab68a7-f252-47fa-a529-01a3240781ee","ios":"levelo://app?vid=70ab68a7-f252-47fa-a529-01a3240781ee"},"vehicle_type_id":"4","last_reported":1777301783,"current_range_meters":7200,"station_id":"ce4bhmp2rcd13ifvqgog","pricing_plan_id":"cebpf4jnsgd1na2vs0mg"},{"bike_id":"6b9ceb44-f98b-4474-bf14-5e53602be7a5","system_id":"levelo_inurba_marseille","lat":43.33547,"lon":5.37463,"is_reserved":false,"is_disabled":false,"rental_uris":{"android":"levelo://app?vid=6b9ceb44-f98b-4474-bf14-5e53602be7a5","ios":"levelo://app?vid=6b9ceb44-f98b-4474-bf14-5e53602be7a5"},"vehicle_type_id":"4","last_reported":1777301783,"current_range_meters":7200,"station_id":"st_d46tts09ee8s73dlu43g","pricing_plan_id":"cebpf4jnsgd1na2vs0mg"},{"bike_id":"f4b52566-f13c-45cd-96d0-7184d69bec4a","system_id":"levelo_inurba_marseille","lat":43.30918,"lon":5.37226,"is_reserved":false,"is_disabled":false,"rental_uris":{"android":"levelo://app?vid=f4b52566-f13c-45cd-96d0-7184d69bec4a","ios":"levelo://app?vid=f4b52566-f13c-45cd-96d0-7184d69bec4a"},"vehicle_type_id":"4","last_reported":1777301783,"current_range_meters":7200,"station_id":"ce4bguh2rcd13ifvqckg","pricing_plan_id":"cebpf4jnsgd1na2vs0mg"},{"bike_id":"11effbb2-3489-4e85-aec9-0e018fcdcc03","system_id":"levelo_inurba_marseille","lat":43.23199,"lon":5.35548,"is_reserved":false,"is_disabled":false,"rental_uris":{"android":"levelo://app?vid=11effbb2-3489-4e85-aec9-0e018fcdcc03","ios":"levelo://app?vid=11effbb2-3489-4e85-aec9-0e018fcdcc03"},"vehicle_type_id":"4","last_reported":1777301783,"current_range_meters":7200,"station_id":"ce4bhu92rcd13ifvqi70","pricing_plan_id":"cebpf4jnsgd1na2vs0mg"},{"bike_id":"2e013045-b635-4629-a87d-995ec1628a85","system_id":"levelo_inurba_marseille","lat":43.32108,"lon":5.36785,"is_reserved":false,"is_disabled":false,"rental_uris":{"android":"levelo://app?vid=2e013045-b635-4629-a87d-995ec1628a85","ios":"levelo://app?vid=2e013045-b635-4629-a87d-995ec1628a85"},"vehicle_type_id":"4","last_reported":1777301783,"current_range_meters":7200,"station_id":"ce4bhrh2rcd13ifvqhug","pricing_plan_id":"cebpf4jnsgd1na2vs0mg"},{"bike_id":"168a85a4-0812-4c55-9746-476090c38669","system_id":"levelo_inurba_marseille","lat":43.29527,"lon":5.37508,"is_reserved":false,"is_disabled":false,"rental_uris":{"android":"levelo://app?vid=168a85a4-0812-4c55-9746-476090c38669","ios":"levelo://app?vid=168a85a4-0812-4c55-9746-476090c38669"},"vehicle_type_id":"4","last_reported":1777301783,"current_range_meters":7200,"station_id":"ce4bgkp2rcd13ifvqbmg","pricing_plan_id":"cebpf4jnsgd1na2vs0mg"},{"bike_id":"368192e9-2f3d-4859-9f94-e0538f6e8e98","system_id":"levelo_inurba_marseille","lat":43.24401,"lon":5.37054,"is_reserved":false,"is_disabled":false,"rental_uris":{"android":"levelo://app?vid=368192e9-2f3d-4859-9f94-e0538f6e8e98","ios":"levelo://app?vid=368192e9-2f3d-4859-9f94-e0538f6e8e98"},"vehicle_type_id":"4","last_reported":1777301783,"current_range_meters":7200,"station_id":"ce4bhhh2rcd13ifvqfk0","pricing_plan_id":"cebpf4jnsgd1na2vs0mg"},{"bike_id":"6f0f19b6-3469-4ec1-bc31-d582f6aada23","system_id":"levelo_inurba_marseille","lat":43.30084,"lon":5.39099,"is_reserved":false,"is_disabled":false,"rental_uris":{"android":"levelo://app?vid=6f0f19b6-3469-4ec1-bc31-d582f6aada23","ios":"levelo://app?vid=6f0f19b6-3469-4ec1-bc31-d582f6aada23"},"vehicle_type_id":"4","last_reported":1777301783,"current_range_meters":7200,"station_id":"ce4bh192rcd13ifvqdb0","pricing_plan_id":"cebpf4jnsgd1na2vs0mg"},{"bike_id":"282ffbf9-fbf3-4d44-bf2f-1929132e9e08","system_id":"levelo_inurba_marseille","lat":43.26559,"lon":5.37295,"is_reserved":false,"is_disabled":false,"rental_uris":{"android":"levelo://app?vid=282ffbf9-fbf3-4d44-bf2f-1929132e9e08","ios":"levelo://app?vid=282ffbf9-fbf3-4d44-bf2f-1929132e9e08"},"vehicle_type_id":"4","last_reported":1777301783,"current_range_meters":7200,"station_id":"ce4bhg12rcd13ifvqf70","pricing_plan_id":"cebpf4jnsgd1na2vs0mg"},{"bike_id":"07731b31-70d0-447a-b1b9-26504195125c","system_id":"levelo_inurba_marseille","lat":43.23153,"lon":5.43728,"is_reserved":false,"is_disabled":false,"rental_uris":{"android":"levelo://app?vid=07731b31-70d0-447a-b1b9-26504195125c","ios":"levelo://app?vid=07731b31-70d0-447a-b1b9-26504195125c"},"vehicle_type_id":"4","last_reported":1777301783,"current_range_meters":7200,"station_id":"ce4bhmp2rcd13ifvqgog","pricing_plan_id":"cebpf4jnsgd1na2vs0mg"},{"bike_id":"6c0e44b5-b4c6-4989-a0ec-b3c6d257ac1d","system_id":"levelo_inurba_marseille","lat":43.33186,"lon":5.37828,"is_reserved":false,"is_disabled":false,"rental_uris":{"android":"levelo://app?vid=6c0e44b5-b4c6-4989-a0ec-b3c6d257ac1d","ios":"levelo://app?vid=6c0e44b5-b4c6-4989-a0ec-b3c6d257ac1d"},"vehicle_type_id":"4","last_reported":1777301783,"current_range_meters":8000,"station_id":"","pricing_plan_id":"cebpf4jnsgd1na2vs0mg"},{"bike_id":"2f755aa1-105e-447f-807e-a8d37a45e600","system_id":"levelo_inurba_marseille","lat":43.28971,"lon":5.39276,"is_reserved":false,"is_disabled":false,"rental_uris":{"android":"levelo://app?vid=2f755aa1-105e-447f-807e-a8d37a45e600","ios":"levelo://app?vid=2f755aa1-105e-447f-807e-a8d37a45e600"},"vehicle_type_id":"4","last_reported":1777301783,"current_range_meters":8000,"station_id":"","pricing_plan_id":"cebpf4jnsgd1na2vs0mg"},{"bike_id":"8f13b61e-8a25-4927-8213-0f8d3090195b","system_id":"levelo_inurba_marseille","lat":43.28478,"lon":5.48395,"is_reserved":false,"is_disabled":false,"rental_uris":{"android":"levelo://app?vid=8f13b61e-8a25-4927-8213-0f8d3090195b","ios":"levelo://app?vid=8f13b61e-8a25-4927-8213-0f8d3090195b"},"vehicle_type_id":"4","last_reported":1777301783,"current_range_meters":8000,"station_id":"","pricing_plan_id":"cebpf4jnsgd1na2vs0mg"},{"bike_id":"e1ed0d6c-571b-47d3-bd40-eea4fd60ac4e","system_id":"levelo_inurba_marseille","lat":43.28733,"lon":5.37972,"is_reserved":false,"is_disabled":false,"rental_uris":{"android":"levelo://app?vid=e1ed0d6c-571b-47d3-bd40-eea4fd60ac4e","ios":"levelo://app?vid=e1ed0d6c-571b-47d3-bd40-eea4fd60ac4e"},"vehicle_type_id":"4","last_reported":1777301783,"current_range_meters":8000,"station_id":"ce4bh9p2rcd13ifvqec0","pricing_plan_id":"cebpf4jnsgd1na2vs0mg"},{"bike_id":"cdb742d8-2907-4054-a11e-c4d529782d87","system_id":"levelo_inurba_marseille","lat":43.24381,"lon":5.37049,"is_reserved":false,"is_disabled":false,"rental_uris":{"android":"levelo://app?vid=cdb742d8-2907-4054-a11e-c4d529782d87","ios":"levelo://app?vid=cdb742d8-2907-4054-a11e-c4d529782d87"},"vehicle_type_id":"4","last_reported":1777301783,"current_range_meters":8000,"station_id":"ce4bhhh2rcd13ifvqfk0","pricing_plan_id":"cebpf4jnsgd1na2vs0mg"},{"bike_id":"d91a79ea-757d-4fb0-822d-efffb3df9a9a","system_id":"levelo_inurba_marseille","lat":43.24647,"lon":5.38887,"is_reserved":false,"is_disabled":false,"rental_uris":{"android":"levelo://app?vid=d91a79ea-757d-4fb0-822d-efffb3df9a9a","ios":"levelo://app?vid=d91a79ea-757d-4fb0-822d-efffb3df9a9a"},"vehicle_type_id":"4","last_reported":1777301783,"current_range_meters":8000,"station_id":"","pricing_plan_id":"cebpf4jnsgd1na2vs0mg"},{"bike_id":"ba0c9479-857d-4a83-9108-02aaf0115a53","system_id":"levelo_inurba_marseille","lat":43.31162,"lon":5.38718,"is_reserved":false,"is_disabled":false,"rental_uris":{"android":"levelo://app?vid=ba0c9479-857d-4a83-9108-02aaf0115a53","ios":"levelo://app?vid=ba0c9479-857d-4a83-9108-02aaf0115a53"},"vehicle_type_id":"4","last_reported":1777301783,"current_range_meters":8000,"station_id":"ce4bgv12rcd13ifvqcp0","pricing_plan_id":"cebpf4jnsgd1na2vs0mg"},{"bike_id":"55ffa9cb-0e63-4320-8c55-2d765a24cf5f","system_id":"levelo_inurba_marseille","lat":43.24171,"lon":5.36404,"is_reserved":false,"is_disabled":false,"rental_uris":{"android":"levelo://app?vid=55ffa9cb-0e63-4320-8c55-2d765a24cf5f","ios":"levelo://app?vid=55ffa9cb-0e63-4320-8c55-2d765a24cf5f"},"vehicle_type_id":"4","last_reported":1777301783,"current_range_meters":8000,"station_id":"cpo36qri1sfpv3e86is0","pricing_plan_id":"cebpf4jnsgd1na2vs0mg"},{"bike_id":"21efecbc-6e82-48e3-b57d-699ce16b6e9c","system_id":"levelo_inurba_marseille","lat":43.2827,"lon":5.35069,"is_reserved":false,"is_disabled":false,"rental_uris":{"android":"levelo://app?vid=21efecbc-6e82-48e3-b57d-699ce16b6e9c","ios":"levelo://app?vid=21efecbc-6e82-48e3-b57d-699ce16b6e9c"},"vehicle_type_id":"4","last_reported":1777301783,"current_range_meters":8000,"station_id":"ce4bhbp2rcd13ifvqerg","pricing_plan_id":"cebpf4jnsgd1na2vs0mg"},{"bike_id":"0a5a3ac5-e405-4d55-b971-b42d5be0aa52","system_id":"levelo_inurba_marseille","lat":43.284,"lon":5.34993,"is_reserved":false,"is_disabled":false,"rental_uris":{"android":"levelo://app?vid=0a5a3ac5-e405-4d55-b971-b42d5be0aa52","ios":"levelo://app?vid=0a5a3ac5-e405-4d55-b971-b42d5be0aa52"},"vehicle_type_id":"4","last_reported":1777301783,"current_range_meters":8000,"station_id":"ce4bhbh2rcd13ifvqepg","pricing_plan_id":"cebpf4jnsgd1na2vs0mg"},{"bike_id":"2e1487b5-ffbe-4174-a3cb-5f2ca03b60ce","system_id":"levelo_inurba_marseille","lat":43.28478,"lon":5.4839,"is_reserved":false,"is_disabled":false,"rental_uris":{"android":"levelo://app?vid=2e1487b5-ffbe-4174-a3cb-5f2ca03b60ce","ios":"levelo://app?vid=2e1487b5-ffbe-4174-a3cb-5f2ca03b60ce"},"vehicle_type_id":"4","last_reported":1777301783,"current_range_meters":8000,"station_id":"st_d3svhcjqgbts73a3dn0g","pricing_plan_id":"cebpf4jnsgd1na2vs0mg"},{"bike_id":"ba6b79b9-6cc0-464a-8a85-713bc8bff666","system_id":"levelo_inurba_marseille","lat":43.23898,"lon":5.37459,"is_reserved":false,"is_disabled":false,"rental_uris":{"android":"levelo://app?vid=ba6b79b9-6cc0-464a-8a85-713bc8bff666","ios":"levelo://app?vid=ba6b79b9-6cc0-464a-8a85-713bc8bff666"},"vehicle_type_id":"4","last_reported":1777301783,"current_range_meters":8000,"station_id":"st_d6sm7csbq4hs73f8fpjg","pricing_plan_id":"cebpf4jnsgd1na2vs0mg"},{"bike_id":"6b8549bf-30d2-490f-8f61-d9ca43e4d06c","system_id":"levelo_inurba_marseille","lat":43.27026,"lon":5.40247,"is_reserved":false,"is_disabled":false,"rental_uris":{"android":"levelo://app?vid=6b8549bf-30d2-490f-8f61-d9ca43e4d06c","ios":"levelo://app?vid=6b8549bf-30d2-490f-8f61-d9ca43e4d06c"},"vehicle_type_id":"4","last_reported":1777301783,"current_range_meters":8000,"station_id":"ce4bhk92rcd13ifvqgc0","pricing_plan_id":"cebpf4jnsgd1na2vs0mg"},{"bike_id":"6e89aad6-72ab-463a-804e-337ff5d6447a","system_id":"levelo_inurba_marseille","lat":43.28273,"lon":5.35087,"is_reserved":false,"is_disabled":false,"rental_uris":{"android":"levelo://app?vid=6e89aad6-72ab-463a-804e-337ff5d6447a","ios":"levelo://app?vid=6e89aad6-72ab-463a-804e-337ff5d6447a"},"vehicle_type_id":"4","last_reported":1777301783,"current_range_meters":8000,"station_id":"ce4bhbp2rcd13ifvqerg","pricing_plan_id":"cebpf4jnsgd1na2vs0mg"},{"bike_id":"20390428-a7a1-452e-834a-56424711f53c","system_id":"levelo_inurba_marseille","lat":43.26486,"lon":5.39547,"is_reserved":false,"is_disabled":false,"rental_uris":{"android":"levelo://app?vid=20390428-a7a1-452e-834a-56424711f53c","ios":"levelo://app?vid=20390428-a7a1-452e-834a-56424711f53c"},"vehicle_type_id":"4","last_reported":1777301783,"current_range_meters":8000,"station_id":"ce4bhi12rcd13ifvqfq0","pricing_plan_id":"cebpf4jnsgd1na2vs0mg"},{"bike_id":"58ed6a13-d208-4ebb-82ad-8708a5bbec55","system_id":"levelo_inurba_marseille","lat":43.32117,"lon":5.36786,"is_reserved":false,"is_disabled":false,"rental_uris":{"android":"levelo://app?vid=58ed6a13-d208-4ebb-82ad-8708a5bbec55","ios":"levelo://app?vid=58ed6a13-d208-4ebb-82ad-8708a5bbec55"},"vehicle_type_id":"4","last_reported":1777301783,"current_range_meters":8000,"station_id":"ce4bhrh2rcd13ifvqhug","pricing_plan_id":"cebpf4jnsgd1na2vs0mg"},{"bike_id":"243abe38-124b-4994-aab9-dc1625b00f08","system_id":"levelo_inurba_marseille","lat":43.29569,"lon":5.39979,"is_reserved":false,"is_disabled":false,"rental_uris":{"android":"levelo://app?vid=243abe38-124b-4994-aab9-dc1625b00f08","ios":"levelo://app?vid=243abe38-124b-4994-aab9-dc1625b00f08"},"vehicle_type_id":"4","last_reported":1777301783,"current_range_meters":8000,"station_id":"ce4bh312rcd13ifvqdj0","pricing_plan_id":"cebpf4jnsgd1na2vs0mg"},{"bike_id":"bbd4b557-3184-4427-af74-50a1783bcb30","system_id":"levelo_inurba_marseille","lat":43.28616,"lon":5.35184,"is_reserved":false,"is_disabled":false,"rental_uris":{"android":"levelo://app?vid=bbd4b557-3184-4427-af74-50a1783bcb30","ios":"levelo://app?vid=bbd4b557-3184-4427-af74-50a1783bcb30"},"vehicle_type_id":"4","last_reported":1777301783,"current_range_meters":8000,"station_id":"ce4bhch2rcd13ifvqeug","pricing_plan_id":"cebpf4jnsgd1na2vs0mg"},{"bike_id":"900119c7-3b48-445f-a5c3-6bfef292e4ac","system_id":"levelo_inurba_marseille","lat":43.2927,"lon":5.36846,"is_reserved":false,"is_disabled":false,"rental_uris":{"android":"levelo://app?vid=900119c7-3b48-445f-a5c3-6bfef292e4ac","ios":"levelo://app?vid=900119c7-3b48-445f-a5c3-6bfef292e4ac"},"vehicle_type_id":"4","last_reported":1777301783,"current_range_meters":8000,"station_id":"ce4bhbp2rcd13ifvqesg","pricing_plan_id":"cebpf4jnsgd1na2vs0mg"},{"bike_id":"f78bf31c-df78-48c6-9a47-5c19da562946","system_id":"levelo_inurba_marseille","lat":43.30467,"lon":5.379,"is_reserved":false,"is_disabled":false,"rental_uris":{"android":"levelo://app?vid=f78bf31c-df78-48c6-9a47-5c19da562946","ios":"levelo://app?vid=f78bf31c-df78-48c6-9a47-5c19da562946"},"vehicle_type_id":"4","last_reported":1777301783,"current_range_meters":8400,"station_id":"ce4bgup2rcd13ifvqcn0","pricing_plan_id":"cebpf4jnsgd1na2vs0mg"},{"bike_id":"7d24a3ee-0eb9-47a1-8904-33af700bdc69","system_id":"levelo_inurba_marseille","lat":43.28479,"lon":5.48396,"is_reserved":false,"is_disabled":false,"rental_uris":{"android":"levelo://app?vid=7d24a3ee-0eb9-47a1-8904-33af700bdc69","ios":"levelo://app?vid=7d24a3ee-0eb9-47a1-8904-33af700bdc69"},"vehicle_type_id":"4","last_reported":1777301783,"current_range_meters":8400,"station_id":"st_d3svhcjqgbts73a3dn0g","pricing_plan_id":"cebpf4jnsgd1na2vs0mg"},{"bike_id":"633a7919-24b3-4ba2-b51c-27b65dc34870","system_id":"levelo_inurba_marseille","lat":43.26213,"lon":5.3744,"is_reserved":false,"is_disabled":false,"rental_uris":{"android":"levelo://app?vid=633a7919-24b3-4ba2-b51c-27b65dc34870","ios":"levelo://app?vid=633a7919-24b3-4ba2-b51c-27b65dc34870"},"vehicle_type_id":"4","last_reported":1777301783,"current_range_meters":8400,"station_id":"ce4bhgp2rcd13ifvqfc0","pricing_plan_id":"cebpf4jnsgd1na2vs0mg"},{"bike_id":"77161d15-2618-426d-b467-8652c253aeee","system_id":"levelo_inurba_marseille","lat":43.31166,"lon":5.39365,"is_reserved":false,"is_disabled":false,"rental_uris":{"android":"levelo://app?vid=77161d15-2618-426d-b467-8652c253aeee","ios":"levelo://app?vid=77161d15-2618-426d-b467-8652c253aeee"},"vehicle_type_id":"4","last_reported":1777301783,"current_range_meters":8400,"station_id":"","pricing_plan_id":"cebpf4jnsgd1na2vs0mg"},{"bike_id":"5425d619-84bc-411b-b45c-5e3a613c878c","system_id":"levelo_inurba_marseille","lat":43.30937,"lon":5.40144,"is_reserved":false,"is_disabled":false,"rental_uris":{"android":"levelo://app?vid=5425d619-84bc-411b-b45c-5e3a613c878c","ios":"levelo://app?vid=5425d619-84bc-411b-b45c-5e3a613c878c"},"vehicle_type_id":"4","last_reported":1777301783,"current_range_meters":8400,"station_id":"ce4bgvp2rcd13ifvqct0","pricing_plan_id":"cebpf4jnsgd1na2vs0mg"},{"bike_id":"1b0b0f4b-ac7c-4491-9221-fa854b3903a9","system_id":"levelo_inurba_marseille","lat":43.29038,"lon":5.35902,"is_reserved":false,"is_disabled":false,"rental_uris":{"android":"levelo://app?vid=1b0b0f4b-ac7c-4491-9221-fa854b3903a9","ios":"levelo://app?vid=1b0b0f4b-ac7c-4491-9221-fa854b3903a9"},"vehicle_type_id":"4","last_reported":1777301783,"current_range_meters":8400,"station_id":"ce4bha92rcd13ifvqeg0","pricing_plan_id":"cebpf4jnsgd1na2vs0mg"},{"bike_id":"bcb8e67c-9983-49b9-ba74-57344a2f3c31","system_id":"levelo_inurba_marseille","lat":43.31116,"lon":5.37761,"is_reserved":false,"is_disabled":false,"rental_uris":{"android":"levelo://app?vid=bcb8e67c-9983-49b9-ba74-57344a2f3c31","ios":"levelo://app?vid=bcb8e67c-9983-49b9-ba74-57344a2f3c31"},"vehicle_type_id":"4","last_reported":1777301783,"current_range_meters":8400,"station_id":"ce4bgt92rcd13ifvqcg0","pricing_plan_id":"cebpf4jnsgd1na2vs0mg"},{"bike_id":"40194553-a84c-4baf-816f-b3dd98ecba76","system_id":"levelo_inurba_marseille","lat":43.27939,"lon":5.41051,"is_reserved":false,"is_disabled":false,"rental_uris":{"android":"levelo://app?vid=40194553-a84c-4baf-816f-b3dd98ecba76","ios":"levelo://app?vid=40194553-a84c-4baf-816f-b3dd98ecba76"},"vehicle_type_id":"4","last_reported":1777301783,"current_range_meters":8400,"station_id":"ce4bhnp2rcd13ifvqh0g","pricing_plan_id":"cebpf4jnsgd1na2vs0mg"},{"bike_id":"dd590341-7511-4484-a775-ab80f8d34f5b","system_id":"levelo_inurba_marseille","lat":43.3054,"lon":5.3654,"is_reserved":false,"is_disabled":false,"rental_uris":{"android":"levelo://app?vid=dd590341-7511-4484-a775-ab80f8d34f5b","ios":"levelo://app?vid=dd590341-7511-4484-a775-ab80f8d34f5b"},"vehicle_type_id":"4","last_reported":1777301783,"current_range_meters":8400,"station_id":"ce4bgs12rcd13ifvqcag","pricing_plan_id":"cebpf4jnsgd1na2vs0mg"},{"bike_id":"1d51c702-75ba-494d-89c9-6b8c4379e860","system_id":"levelo_inurba_marseille","lat":43.31229,"lon":5.37845,"is_reserved":false,"is_disabled":false,"rental_uris":{"android":"levelo://app?vid=1d51c702-75ba-494d-89c9-6b8c4379e860","ios":"levelo://app?vid=1d51c702-75ba-494d-89c9-6b8c4379e860"},"vehicle_type_id":"4","last_reported":1777301783,"current_range_meters":8400,"station_id":"","pricing_plan_id":"cebpf4jnsgd1na2vs0mg"},{"bike_id":"ed25a454-52a8-4945-92c6-672abf802e4d","system_id":"levelo_inurba_marseille","lat":43.24381,"lon":5.37059,"is_reserved":false,"is_disabled":false,"rental_uris":{"android":"levelo://app?vid=ed25a454-52a8-4945-92c6-672abf802e4d","ios":"levelo://app?vid=ed25a454-52a8-4945-92c6-672abf802e4d"},"vehicle_type_id":"4","last_reported":1777301783,"current_range_meters":8400,"station_id":"ce4bhhh2rcd13ifvqfk0","pricing_plan_id":"cebpf4jnsgd1na2vs0mg"},{"bike_id":"268f816f-d3a7-4359-96bd-b8ce27f9e230","system_id":"levelo_inurba_marseille","lat":43.309336,"lon":5.40138,"is_reserved":false,"is_disabled":false,"rental_uris":{"android":"levelo://app?vid=268f816f-d3a7-4359-96bd-b8ce27f9e230","ios":"levelo://app?vid=268f816f-d3a7-4359-96bd-b8ce27f9e230"},"vehicle_type_id":"4","last_reported":1777301783,"current_range_meters":8400,"station_id":"ce4bgvp2rcd13ifvqct0","pricing_plan_id":"cebpf4jnsgd1na2vs0mg"},{"bike_id":"829c03c7-a994-40ae-9e22-8af33a6dc2e2","system_id":"levelo_inurba_marseille","lat":43.308121,"lon":5.381269,"is_reserved":false,"is_disabled":false,"rental_uris":{"android":"levelo://app?vid=829c03c7-a994-40ae-9e22-8af33a6dc2e2","ios":"levelo://app?vid=829c03c7-a994-40ae-9e22-8af33a6dc2e2"},"vehicle_type_id":"4","last_reported":1777301783,"current_range_meters":8400,"station_id":"ce4bgt12rcd13ifvqce0","pricing_plan_id":"cebpf4jnsgd1na2vs0mg"},{"bike_id":"7a7f1d4a-6820-4096-936a-045a7a73f119","system_id":"levelo_inurba_marseille","lat":43.27681,"lon":5.38864,"is_reserved":false,"is_disabled":false,"rental_uris":{"android":"levelo://app?vid=7a7f1d4a-6820-4096-936a-045a7a73f119","ios":"levelo://app?vid=7a7f1d4a-6820-4096-936a-045a7a73f119"},"vehicle_type_id":"4","last_reported":1777301783,"current_range_meters":8800,"station_id":"ce4bhi12rcd13ifvqfo0","pricing_plan_id":"cebpf4jnsgd1na2vs0mg"},{"bike_id":"a81e7873-8538-45aa-91fc-d0ac52b881da","system_id":"levelo_inurba_marseille","lat":43.32507,"lon":5.38277,"is_reserved":false,"is_disabled":false,"rental_uris":{"android":"levelo://app?vid=a81e7873-8538-45aa-91fc-d0ac52b881da","ios":"levelo://app?vid=a81e7873-8538-45aa-91fc-d0ac52b881da"},"vehicle_type_id":"4","last_reported":1777301783,"current_range_meters":8800,"station_id":"st_d4asgbiv49dc73anf9m0","pricing_plan_id":"cebpf4jnsgd1na2vs0mg"},{"bike_id":"e593377f-0b04-468e-be39-461905e9f322","system_id":"levelo_inurba_marseille","lat":43.2465,"lon":5.38906,"is_reserved":false,"is_disabled":false,"rental_uris":{"android":"levelo://app?vid=e593377f-0b04-468e-be39-461905e9f322","ios":"levelo://app?vid=e593377f-0b04-468e-be39-461905e9f322"},"vehicle_type_id":"4","last_reported":1777301783,"current_range_meters":8800,"station_id":"ce4bhg12rcd13ifvqf60","pricing_plan_id":"cebpf4jnsgd1na2vs0mg"},{"bike_id":"8d761791-abe3-4480-80c3-622e3add9a35","system_id":"levelo_inurba_marseille","lat":43.26667,"lon":5.38253,"is_reserved":false,"is_disabled":false,"rental_uris":{"android":"levelo://app?vid=8d761791-abe3-4480-80c3-622e3add9a35","ios":"levelo://app?vid=8d761791-abe3-4480-80c3-622e3add9a35"},"vehicle_type_id":"4","last_reported":1777301783,"current_range_meters":8800,"station_id":"ce4bhg92rcd13ifvqf90","pricing_plan_id":"cebpf4jnsgd1na2vs0mg"},{"bike_id":"709aaf54-7954-4772-87d8-207d9eb79746","system_id":"levelo_inurba_marseille","lat":43.24071,"lon":5.37768,"is_reserved":false,"is_disabled":false,"rental_uris":{"android":"levelo://app?vid=709aaf54-7954-4772-87d8-207d9eb79746","ios":"levelo://app?vid=709aaf54-7954-4772-87d8-207d9eb79746"},"vehicle_type_id":"4","last_reported":1777301783,"current_range_meters":8800,"station_id":"ce4bhnp2rcd13ifvqgvg","pricing_plan_id":"cebpf4jnsgd1na2vs0mg"},{"bike_id":"f40f981e-bc71-4234-9e60-367c83195fe5","system_id":"levelo_inurba_marseille","lat":43.29609,"lon":5.37725,"is_reserved":false,"is_disabled":false,"rental_uris":{"android":"levelo://app?vid=f40f981e-bc71-4234-9e60-367c83195fe5","ios":"levelo://app?vid=f40f981e-bc71-4234-9e60-367c83195fe5"},"vehicle_type_id":"4","last_reported":1777301783,"current_range_meters":8800,"station_id":"ce4bgi92rcd13ifvqb90","pricing_plan_id":"cebpf4jnsgd1na2vs0mg"},{"bike_id":"ed40de83-e2be-429e-b232-dd8232543d72","system_id":"levelo_inurba_marseille","lat":43.31369,"lon":5.39022,"is_reserved":false,"is_disabled":false,"rental_uris":{"android":"levelo://app?vid=ed40de83-e2be-429e-b232-dd8232543d72","ios":"levelo://app?vid=ed40de83-e2be-429e-b232-dd8232543d72"},"vehicle_type_id":"4","last_reported":1777301783,"current_range_meters":8800,"station_id":"","pricing_plan_id":"cebpf4jnsgd1na2vs0mg"},{"bike_id":"19b1a5ca-fd23-417b-9d04-385359be7bf6","system_id":"levelo_inurba_marseille","lat":43.29009,"lon":5.38152,"is_reserved":false,"is_disabled":false,"rental_uris":{"android":"levelo://app?vid=19b1a5ca-fd23-417b-9d04-385359be7bf6","ios":"levelo://app?vid=19b1a5ca-fd23-417b-9d04-385359be7bf6"},"vehicle_type_id":"4","last_reported":1777301783,"current_range_meters":8800,"station_id":"ce4bh4p2rcd13ifvqe1g","pricing_plan_id":"cebpf4jnsgd1na2vs0mg"},{"bike_id":"c010d38a-f08d-4815-bb29-be45179f594b","system_id":"levelo_inurba_marseille","lat":43.27993,"lon":5.41656,"is_reserved":false,"is_disabled":false,"rental_uris":{"android":"levelo://app?vid=c010d38a-f08d-4815-bb29-be45179f594b","ios":"levelo://app?vid=c010d38a-f08d-4815-bb29-be45179f594b"},"vehicle_type_id":"4","last_reported":1777301783,"current_range_meters":8800,"station_id":"ce4bho12rcd13ifvqh1g","pricing_plan_id":"cebpf4jnsgd1na2vs0mg"},{"bike_id":"486a6bd7-6877-47a7-872d-b6d92138ce35","system_id":"levelo_inurba_marseille","lat":43.28182,"lon":5.42625,"is_reserved":false,"is_disabled":false,"rental_uris":{"android":"levelo://app?vid=486a6bd7-6877-47a7-872d-b6d92138ce35","ios":"levelo://app?vid=486a6bd7-6877-47a7-872d-b6d92138ce35"},"vehicle_type_id":"4","last_reported":1777301783,"current_range_meters":8800,"station_id":"ce4bhnh2rcd13ifvqgug","pricing_plan_id":"cebpf4jnsgd1na2vs0mg"},{"bike_id":"d2bf1d8a-0f5c-484f-a10c-ea615389abb7","system_id":"levelo_inurba_marseille","lat":43.25579,"lon":5.38231,"is_reserved":false,"is_disabled":false,"rental_uris":{"android":"levelo://app?vid=d2bf1d8a-0f5c-484f-a10c-ea615389abb7","ios":"levelo://app?vid=d2bf1d8a-0f5c-484f-a10c-ea615389abb7"},"vehicle_type_id":"4","last_reported":1777301783,"current_range_meters":8800,"station_id":"ce4bhih2rcd13ifvqfs0","pricing_plan_id":"cebpf4jnsgd1na2vs0mg"},{"bike_id":"f55cce34-c1ae-4c40-8eeb-4a39a6ae75e1","system_id":"levelo_inurba_marseille","lat":43.27338,"lon":5.39075,"is_reserved":false,"is_disabled":false,"rental_uris":{"android":"levelo://app?vid=f55cce34-c1ae-4c40-8eeb-4a39a6ae75e1","ios":"levelo://app?vid=f55cce34-c1ae-4c40-8eeb-4a39a6ae75e1"},"vehicle_type_id":"4","last_reported":1777301783,"current_range_meters":8800,"station_id":"ce4bhgp2rcd13ifvqfe0","pricing_plan_id":"cebpf4jnsgd1na2vs0mg"},{"bike_id":"643b5ff6-da50-4497-869c-b5e1925bb622","system_id":"levelo_inurba_marseille","lat":43.28965,"lon":5.37825,"is_reserved":false,"is_disabled":false,"rental_uris":{"android":"levelo://app?vid=643b5ff6-da50-4497-869c-b5e1925bb622","ios":"levelo://app?vid=643b5ff6-da50-4497-869c-b5e1925bb622"},"vehicle_type_id":"4","last_reported":1777301783,"current_range_meters":8800,"station_id":"ce4bh9p2rcd13ifvqed0","pricing_plan_id":"cebpf4jnsgd1na2vs0mg"},{"bike_id":"a613ec48-8652-47ac-9246-dcfba5774b3a","system_id":"levelo_inurba_marseille","lat":43.24394,"lon":5.37074,"is_reserved":false,"is_disabled":false,"rental_uris":{"android":"levelo://app?vid=a613ec48-8652-47ac-9246-dcfba5774b3a","ios":"levelo://app?vid=a613ec48-8652-47ac-9246-dcfba5774b3a"},"vehicle_type_id":"4","last_reported":1777301783,"current_range_meters":8800,"station_id":"ce4bhhh2rcd13ifvqfk0","pricing_plan_id":"cebpf4jnsgd1na2vs0mg"},{"bike_id":"312799b7-bca9-4abf-91f7-76a61892299b","system_id":"levelo_inurba_marseille","lat":43.24077,"lon":5.37755,"is_reserved":false,"is_disabled":false,"rental_uris":{"android":"levelo://app?vid=312799b7-bca9-4abf-91f7-76a61892299b","ios":"levelo://app?vid=312799b7-bca9-4abf-91f7-76a61892299b"},"vehicle_type_id":"4","last_reported":1777301783,"current_range_meters":8800,"station_id":"ce4bhnp2rcd13ifvqgvg","pricing_plan_id":"cebpf4jnsgd1na2vs0mg"},{"bike_id":"511b6884-6d1a-4909-add3-762ec103ac5b","system_id":"levelo_inurba_marseille","lat":43.29018,"lon":5.35636,"is_reserved":false,"is_disabled":false,"rental_uris":{"android":"levelo://app?vid=511b6884-6d1a-4909-add3-762ec103ac5b","ios":"levelo://app?vid=511b6884-6d1a-4909-add3-762ec103ac5b"},"vehicle_type_id":"4","last_reported":1777301783,"current_range_meters":8800,"station_id":"ce4bhb92rcd13ifvqen0","pricing_plan_id":"cebpf4jnsgd1na2vs0mg"},{"bike_id":"baa55d1a-8e1e-46c2-9459-c2953120d083","system_id":"levelo_inurba_marseille","lat":43.28426,"lon":5.34982,"is_reserved":false,"is_disabled":false,"rental_uris":{"android":"levelo://app?vid=baa55d1a-8e1e-46c2-9459-c2953120d083","ios":"levelo://app?vid=baa55d1a-8e1e-46c2-9459-c2953120d083"},"vehicle_type_id":"4","last_reported":1777301783,"current_range_meters":9200,"station_id":"ce4bhbh2rcd13ifvqepg","pricing_plan_id":"cebpf4jnsgd1na2vs0mg"},{"bike_id":"3462feaa-c9a2-441c-b3a1-f70058c367e6","system_id":"levelo_inurba_marseille","lat":43.244,"lon":5.37064,"is_reserved":false,"is_disabled":false,"rental_uris":{"android":"levelo://app?vid=3462feaa-c9a2-441c-b3a1-f70058c367e6","ios":"levelo://app?vid=3462feaa-c9a2-441c-b3a1-f70058c367e6"},"vehicle_type_id":"4","last_reported":1777301783,"current_range_meters":9200,"station_id":"ce4bhhh2rcd13ifvqfk0","pricing_plan_id":"cebpf4jnsgd1na2vs0mg"},{"bike_id":"ae8ffb14-56c6-471a-b8f4-0ce51916ee23","system_id":"levelo_inurba_marseille","lat":43.31268,"lon":5.40185,"is_reserved":false,"is_disabled":false,"rental_uris":{"android":"levelo://app?vid=ae8ffb14-56c6-471a-b8f4-0ce51916ee23","ios":"levelo://app?vid=ae8ffb14-56c6-471a-b8f4-0ce51916ee23"},"vehicle_type_id":"4","last_reported":1777301783,"current_range_meters":9200,"station_id":"ce4bh092rcd13ifvqd30","pricing_plan_id":"cebpf4jnsgd1na2vs0mg"},{"bike_id":"0d4dfb01-63c5-4be7-bdb0-5163c6b2578c","system_id":"levelo_inurba_marseille","lat":43.31895,"lon":5.36841,"is_reserved":false,"is_disabled":false,"rental_uris":{"android":"levelo://app?vid=0d4dfb01-63c5-4be7-bdb0-5163c6b2578c","ios":"levelo://app?vid=0d4dfb01-63c5-4be7-bdb0-5163c6b2578c"},"vehicle_type_id":"4","last_reported":1777301783,"current_range_meters":9200,"station_id":"st_d6o2h0d0559c73evc1b0","pricing_plan_id":"cebpf4jnsgd1na2vs0mg"},{"bike_id":"f447fec5-f118-42c2-be2c-8ef32b6d20a2","system_id":"levelo_inurba_marseille","lat":43.25963,"lon":5.41685,"is_reserved":false,"is_disabled":false,"rental_uris":{"android":"levelo://app?vid=f447fec5-f118-42c2-be2c-8ef32b6d20a2","ios":"levelo://app?vid=f447fec5-f118-42c2-be2c-8ef32b6d20a2"},"vehicle_type_id":"4","last_reported":1777301783,"current_range_meters":9200,"station_id":"","pricing_plan_id":"cebpf4jnsgd1na2vs0mg"},{"bike_id":"7ae53c76-7e4a-4531-962e-ff94e76030c6","system_id":"levelo_inurba_marseille","lat":43.29301,"lon":5.37462,"is_reserved":false,"is_disabled":false,"rental_uris":{"android":"levelo://app?vid=7ae53c76-7e4a-4531-962e-ff94e76030c6","ios":"levelo://app?vid=7ae53c76-7e4a-4531-962e-ff94e76030c6"},"vehicle_type_id":"4","last_reported":1777301783,"current_range_meters":9200,"station_id":"ce4bgi12rcd13ifvqb70","pricing_plan_id":"cebpf4jnsgd1na2vs0mg"},{"bike_id":"8ac0bd5f-2f2a-4833-ada5-2e9beded5ddb","system_id":"levelo_inurba_marseille","lat":43.31497,"lon":5.39116,"is_reserved":false,"is_disabled":false,"rental_uris":{"android":"levelo://app?vid=8ac0bd5f-2f2a-4833-ada5-2e9beded5ddb","ios":"levelo://app?vid=8ac0bd5f-2f2a-4833-ada5-2e9beded5ddb"},"vehicle_type_id":"4","last_reported":1777301783,"current_range_meters":9200,"station_id":"","pricing_plan_id":"cebpf4jnsgd1na2vs0mg"},{"bike_id":"16d472fe-eb19-4acc-8aa8-94088ad37de6","system_id":"levelo_inurba_marseille","lat":43.35179,"lon":5.36434,"is_reserved":false,"is_disabled":false,"rental_uris":{"android":"levelo://app?vid=16d472fe-eb19-4acc-8aa8-94088ad37de6","ios":"levelo://app?vid=16d472fe-eb19-4acc-8aa8-94088ad37de6"},"vehicle_type_id":"4","last_reported":1777301783,"current_range_meters":9200,"station_id":"","pricing_plan_id":"cebpf4jnsgd1na2vs0mg"},{"bike_id":"b5088cd7-5e45-457a-ae9f-32446d67355c","system_id":"levelo_inurba_marseille","lat":43.32473,"lon":5.36544,"is_reserved":false,"is_disabled":false,"rental_uris":{"android":"levelo://app?vid=b5088cd7-5e45-457a-ae9f-32446d67355c","ios":"levelo://app?vid=b5088cd7-5e45-457a-ae9f-32446d67355c"},"vehicle_type_id":"4","last_reported":1777301783,"current_range_meters":9200,"station_id":"ce4bhs12rcd13ifvqhvg","pricing_plan_id":"cebpf4jnsgd1na2vs0mg"},{"bike_id":"e5cd69c7-9379-4379-93b8-62cf25a54177","system_id":"levelo_inurba_marseille","lat":43.337497,"lon":5.374492,"is_reserved":false,"is_disabled":false,"rental_uris":{"android":"levelo://app?vid=e5cd69c7-9379-4379-93b8-62cf25a54177","ios":"levelo://app?vid=e5cd69c7-9379-4379-93b8-62cf25a54177"},"vehicle_type_id":"4","last_reported":1777301783,"current_range_meters":9200,"station_id":"","pricing_plan_id":"cebpf4jnsgd1na2vs0mg"},{"bike_id":"a7ef47ae-ac7a-4811-8371-2ebdbd6eea38","system_id":"levelo_inurba_marseille","lat":43.21754,"lon":5.34599,"is_reserved":false,"is_disabled":false,"rental_uris":{"android":"levelo://app?vid=a7ef47ae-ac7a-4811-8371-2ebdbd6eea38","ios":"levelo://app?vid=a7ef47ae-ac7a-4811-8371-2ebdbd6eea38"},"vehicle_type_id":"4","last_reported":1777301783,"current_range_meters":9200,"station_id":"st_cvj6r9ubvosntc0bgbag","pricing_plan_id":"cebpf4jnsgd1na2vs0mg"},{"bike_id":"804ddd3a-15ae-4ceb-8a1d-22e4e7e857ed","system_id":"levelo_inurba_marseille","lat":43.30383,"lon":5.38951,"is_reserved":false,"is_disabled":false,"rental_uris":{"android":"levelo://app?vid=804ddd3a-15ae-4ceb-8a1d-22e4e7e857ed","ios":"levelo://app?vid=804ddd3a-15ae-4ceb-8a1d-22e4e7e857ed"},"vehicle_type_id":"4","last_reported":1777301783,"current_range_meters":9200,"station_id":"ce4bgk12rcd13ifvqbi0","pricing_plan_id":"cebpf4jnsgd1na2vs0mg"},{"bike_id":"9daae5fc-029a-4575-8080-71abfd7ee94e","system_id":"levelo_inurba_marseille","lat":43.21213,"lon":5.35112,"is_reserved":false,"is_disabled":false,"rental_uris":{"android":"levelo://app?vid=9daae5fc-029a-4575-8080-71abfd7ee94e","ios":"levelo://app?vid=9daae5fc-029a-4575-8080-71abfd7ee94e"},"vehicle_type_id":"4","last_reported":1777301783,"current_range_meters":9200,"station_id":"st_cvj6sg6p6f1abm77japg","pricing_plan_id":"cebpf4jnsgd1na2vs0mg"},{"bike_id":"88a0f582-80de-4d6f-aec4-8e4ea246f34a","system_id":"levelo_inurba_marseille","lat":43.30549,"lon":5.36774,"is_reserved":false,"is_disabled":false,"rental_uris":{"android":"levelo://app?vid=88a0f582-80de-4d6f-aec4-8e4ea246f34a","ios":"levelo://app?vid=88a0f582-80de-4d6f-aec4-8e4ea246f34a"},"vehicle_type_id":"4","last_reported":1777301783,"current_range_meters":9200,"station_id":"ce4bgrp2rcd13ifvqc9g","pricing_plan_id":"cebpf4jnsgd1na2vs0mg"},{"bike_id":"bed6db5e-5528-400f-a413-ad4f89dd386f","system_id":"levelo_inurba_marseille","lat":43.27372,"lon":5.36267,"is_reserved":false,"is_disabled":false,"rental_uris":{"android":"levelo://app?vid=bed6db5e-5528-400f-a413-ad4f89dd386f","ios":"levelo://app?vid=bed6db5e-5528-400f-a413-ad4f89dd386f"},"vehicle_type_id":"4","last_reported":1777301783,"current_range_meters":9200,"station_id":"ce4bhbh2rcd13ifvqeo0","pricing_plan_id":"cebpf4jnsgd1na2vs0mg"},{"bike_id":"a15c039d-dcd1-4a55-add3-1c3f0f1d12e3","system_id":"levelo_inurba_marseille","lat":43.28636,"lon":5.35129,"is_reserved":false,"is_disabled":false,"rental_uris":{"android":"levelo://app?vid=a15c039d-dcd1-4a55-add3-1c3f0f1d12e3","ios":"levelo://app?vid=a15c039d-dcd1-4a55-add3-1c3f0f1d12e3"},"vehicle_type_id":"4","last_reported":1777301783,"current_range_meters":9200,"station_id":"ce4bhch2rcd13ifvqeug","pricing_plan_id":"cebpf4jnsgd1na2vs0mg"},{"bike_id":"69f10419-0dd9-452e-9fce-25edd442a3e2","system_id":"levelo_inurba_marseille","lat":43.31173,"lon":5.38703,"is_reserved":false,"is_disabled":false,"rental_uris":{"android":"levelo://app?vid=69f10419-0dd9-452e-9fce-25edd442a3e2","ios":"levelo://app?vid=69f10419-0dd9-452e-9fce-25edd442a3e2"},"vehicle_type_id":"4","last_reported":1777301783,"current_range_meters":9200,"station_id":"ce4bgv12rcd13ifvqcp0","pricing_plan_id":"cebpf4jnsgd1na2vs0mg"},{"bike_id":"9b3daea3-0bbc-4aae-ab0c-0a33a59a8d59","system_id":"levelo_inurba_marseille","lat":43.30291,"lon":5.39214,"is_reserved":false,"is_disabled":false,"rental_uris":{"android":"levelo://app?vid=9b3daea3-0bbc-4aae-ab0c-0a33a59a8d59","ios":"levelo://app?vid=9b3daea3-0bbc-4aae-ab0c-0a33a59a8d59"},"vehicle_type_id":"4","last_reported":1777301783,"current_range_meters":9200,"station_id":"ce4bgkh2rcd13ifvqbk0","pricing_plan_id":"cebpf4jnsgd1na2vs0mg"},{"bike_id":"c04c42cf-36a4-4a3c-b656-dde2fe1bae7e","system_id":"levelo_inurba_marseille","lat":43.28574,"lon":5.40268,"is_reserved":false,"is_disabled":false,"rental_uris":{"android":"levelo://app?vid=c04c42cf-36a4-4a3c-b656-dde2fe1bae7e","ios":"levelo://app?vid=c04c42cf-36a4-4a3c-b656-dde2fe1bae7e"},"vehicle_type_id":"4","last_reported":1777301783,"current_range_meters":9200,"station_id":"","pricing_plan_id":"cebpf4jnsgd1na2vs0mg"},{"bike_id":"e78db4d8-c339-461c-9309-c71a9fca5854","system_id":"levelo_inurba_marseille","lat":43.28869,"lon":5.35835,"is_reserved":false,"is_disabled":false,"rental_uris":{"android":"levelo://app?vid=e78db4d8-c339-461c-9309-c71a9fca5854","ios":"levelo://app?vid=e78db4d8-c339-461c-9309-c71a9fca5854"},"vehicle_type_id":"4","last_reported":1777301783,"current_range_meters":9600,"station_id":"ce4bhb12rcd13ifvqem0","pricing_plan_id":"cebpf4jnsgd1na2vs0mg"},{"bike_id":"19af9a3c-5539-4472-a5a8-42eb3cf95ee3","system_id":"levelo_inurba_marseille","lat":43.29269,"lon":5.38452,"is_reserved":false,"is_disabled":false,"rental_uris":{"android":"levelo://app?vid=19af9a3c-5539-4472-a5a8-42eb3cf95ee3","ios":"levelo://app?vid=19af9a3c-5539-4472-a5a8-42eb3cf95ee3"},"vehicle_type_id":"4","last_reported":1777301783,"current_range_meters":9600,"station_id":"ce4bh692rcd13ifvqea0","pricing_plan_id":"cebpf4jnsgd1na2vs0mg"},{"bike_id":"697fb2a4-e494-4242-8576-17a670ff6a6a","system_id":"levelo_inurba_marseille","lat":43.31357,"lon":5.36725,"is_reserved":false,"is_disabled":false,"rental_uris":{"android":"levelo://app?vid=697fb2a4-e494-4242-8576-17a670ff6a6a","ios":"levelo://app?vid=697fb2a4-e494-4242-8576-17a670ff6a6a"},"vehicle_type_id":"4","last_reported":1777301783,"current_range_meters":9600,"station_id":"ce4bgr92rcd13ifvqc6g","pricing_plan_id":"cebpf4jnsgd1na2vs0mg"},{"bike_id":"9c3e13ef-f5ac-46d8-aa8d-d51602f7c726","system_id":"levelo_inurba_marseille","lat":43.25579,"lon":5.38235,"is_reserved":false,"is_disabled":false,"rental_uris":{"android":"levelo://app?vid=9c3e13ef-f5ac-46d8-aa8d-d51602f7c726","ios":"levelo://app?vid=9c3e13ef-f5ac-46d8-aa8d-d51602f7c726"},"vehicle_type_id":"4","last_reported":1777301783,"current_range_meters":9600,"station_id":"ce4bhih2rcd13ifvqfs0","pricing_plan_id":"cebpf4jnsgd1na2vs0mg"},{"bike_id":"7bc242ba-8c4b-47e5-89ca-cc1891fbad17","system_id":"levelo_inurba_marseille","lat":43.3082,"lon":5.38241,"is_reserved":false,"is_disabled":false,"rental_uris":{"android":"levelo://app?vid=7bc242ba-8c4b-47e5-89ca-cc1891fbad17","ios":"levelo://app?vid=7bc242ba-8c4b-47e5-89ca-cc1891fbad17"},"vehicle_type_id":"4","last_reported":1777301783,"current_range_meters":9600,"station_id":"","pricing_plan_id":"cebpf4jnsgd1na2vs0mg"},{"bike_id":"f0f7a970-becf-4880-a228-68946e69e276","system_id":"levelo_inurba_marseille","lat":43.28846,"lon":5.39321,"is_reserved":false,"is_disabled":false,"rental_uris":{"android":"levelo://app?vid=f0f7a970-becf-4880-a228-68946e69e276","ios":"levelo://app?vid=f0f7a970-becf-4880-a228-68946e69e276"},"vehicle_type_id":"4","last_reported":1777301783,"current_range_meters":9600,"station_id":"ce4bh2p2rcd13ifvqdi0","pricing_plan_id":"cebpf4jnsgd1na2vs0mg"},{"bike_id":"61066481-f8b0-42ad-802b-ad134997e95c","system_id":"levelo_inurba_marseille","lat":43.24624,"lon":5.43154,"is_reserved":false,"is_disabled":false,"rental_uris":{"android":"levelo://app?vid=61066481-f8b0-42ad-802b-ad134997e95c","ios":"levelo://app?vid=61066481-f8b0-42ad-802b-ad134997e95c"},"vehicle_type_id":"4","last_reported":1777301783,"current_range_meters":9600,"station_id":"st_d2m6c4gdas8pm72e190g","pricing_plan_id":"cebpf4jnsgd1na2vs0mg"},{"bike_id":"74929e98-c2e0-43cc-b447-0901251d01cb","system_id":"levelo_inurba_marseille","lat":43.2549,"lon":5.37677,"is_reserved":false,"is_disabled":false,"rental_uris":{"android":"levelo://app?vid=74929e98-c2e0-43cc-b447-0901251d01cb","ios":"levelo://app?vid=74929e98-c2e0-43cc-b447-0901251d01cb"},"vehicle_type_id":"4","last_reported":1777301783,"current_range_meters":9600,"station_id":"ce4bhh12rcd13ifvqff0","pricing_plan_id":"cebpf4jnsgd1na2vs0mg"},{"bike_id":"36080542-6349-4f50-a674-af97dd89998f","system_id":"levelo_inurba_marseille","lat":43.23895,"lon":5.37475,"is_reserved":false,"is_disabled":false,"rental_uris":{"android":"levelo://app?vid=36080542-6349-4f50-a674-af97dd89998f","ios":"levelo://app?vid=36080542-6349-4f50-a674-af97dd89998f"},"vehicle_type_id":"4","last_reported":1777301783,"current_range_meters":9600,"station_id":"st_d6sm7csbq4hs73f8fpjg","pricing_plan_id":"cebpf4jnsgd1na2vs0mg"},{"bike_id":"af61528c-c4cd-4018-bb75-912af67f81e6","system_id":"levelo_inurba_marseille","lat":43.27378,"lon":5.36248,"is_reserved":false,"is_disabled":false,"rental_uris":{"android":"levelo://app?vid=af61528c-c4cd-4018-bb75-912af67f81e6","ios":"levelo://app?vid=af61528c-c4cd-4018-bb75-912af67f81e6"},"vehicle_type_id":"4","last_reported":1777301783,"current_range_meters":9600,"station_id":"ce4bhbh2rcd13ifvqeo0","pricing_plan_id":"cebpf4jnsgd1na2vs0mg"},{"bike_id":"751035cd-3c7a-4a70-b121-59b94c7f8501","system_id":"levelo_inurba_marseille","lat":43.29594,"lon":5.37699,"is_reserved":false,"is_disabled":false,"rental_uris":{"android":"levelo://app?vid=751035cd-3c7a-4a70-b121-59b94c7f8501","ios":"levelo://app?vid=751035cd-3c7a-4a70-b121-59b94c7f8501"},"vehicle_type_id":"4","last_reported":1777301783,"current_range_meters":9600,"station_id":"ce4bgi92rcd13ifvqb90","pricing_plan_id":"cebpf4jnsgd1na2vs0mg"},{"bike_id":"5c490a3d-cfc0-4205-a8fb-3a3c9bf61b3b","system_id":"levelo_inurba_marseille","lat":43.31232,"lon":5.36796,"is_reserved":false,"is_disabled":false,"rental_uris":{"android":"levelo://app?vid=5c490a3d-cfc0-4205-a8fb-3a3c9bf61b3b","ios":"levelo://app?vid=5c490a3d-cfc0-4205-a8fb-3a3c9bf61b3b"},"vehicle_type_id":"4","last_reported":1777301783,"current_range_meters":9600,"station_id":"ce4bgl92rcd13ifvqbq0","pricing_plan_id":"cebpf4jnsgd1na2vs0mg"},{"bike_id":"58531717-4481-454d-8b8d-39158b11632d","system_id":"levelo_inurba_marseille","lat":43.29186,"lon":5.35824,"is_reserved":false,"is_disabled":false,"rental_uris":{"android":"levelo://app?vid=58531717-4481-454d-8b8d-39158b11632d","ios":"levelo://app?vid=58531717-4481-454d-8b8d-39158b11632d"},"vehicle_type_id":"4","last_reported":1777301783,"current_range_meters":9600,"station_id":"ce4bhb12rcd13ifvqel0","pricing_plan_id":"cebpf4jnsgd1na2vs0mg"},{"bike_id":"c9158e1e-e089-4ce2-ae82-04fb9bfd2598","system_id":"levelo_inurba_marseille","lat":43.26207,"lon":5.37441,"is_reserved":false,"is_disabled":false,"rental_uris":{"android":"levelo://app?vid=c9158e1e-e089-4ce2-ae82-04fb9bfd2598","ios":"levelo://app?vid=c9158e1e-e089-4ce2-ae82-04fb9bfd2598"},"vehicle_type_id":"4","last_reported":1777301783,"current_range_meters":9600,"station_id":"ce4bhgp2rcd13ifvqfc0","pricing_plan_id":"cebpf4jnsgd1na2vs0mg"},{"bike_id":"72abf62e-932a-415b-b521-2732bf33c432","system_id":"levelo_inurba_marseille","lat":43.32491,"lon":5.36546,"is_reserved":false,"is_disabled":false,"rental_uris":{"android":"levelo://app?vid=72abf62e-932a-415b-b521-2732bf33c432","ios":"levelo://app?vid=72abf62e-932a-415b-b521-2732bf33c432"},"vehicle_type_id":"4","last_reported":1777301783,"current_range_meters":9600,"station_id":"ce4bhs12rcd13ifvqhvg","pricing_plan_id":"cebpf4jnsgd1na2vs0mg"},{"bike_id":"9861770e-84af-426f-a058-23a6138a6f65","system_id":"levelo_inurba_marseille","lat":43.23185,"lon":5.35557,"is_reserved":false,"is_disabled":false,"rental_uris":{"android":"levelo://app?vid=9861770e-84af-426f-a058-23a6138a6f65","ios":"levelo://app?vid=9861770e-84af-426f-a058-23a6138a6f65"},"vehicle_type_id":"4","last_reported":1777301783,"current_range_meters":9600,"station_id":"ce4bhu92rcd13ifvqi70","pricing_plan_id":"cebpf4jnsgd1na2vs0mg"},{"bike_id":"76907408-a8ff-4688-9cbf-66e48bb415e8","system_id":"levelo_inurba_marseille","lat":43.28691,"lon":5.4668,"is_reserved":false,"is_disabled":false,"rental_uris":{"android":"levelo://app?vid=76907408-a8ff-4688-9cbf-66e48bb415e8","ios":"levelo://app?vid=76907408-a8ff-4688-9cbf-66e48bb415e8"},"vehicle_type_id":"4","last_reported":1777301783,"current_range_meters":9600,"station_id":"st_d6tc3vkotcvc738tfjhg","pricing_plan_id":"cebpf4jnsgd1na2vs0mg"},{"bike_id":"987eda33-b3ad-4fac-a63c-0e3ff496e921","system_id":"levelo_inurba_marseille","lat":43.32356,"lon":5.36749,"is_reserved":false,"is_disabled":false,"rental_uris":{"android":"levelo://app?vid=987eda33-b3ad-4fac-a63c-0e3ff496e921","ios":"levelo://app?vid=987eda33-b3ad-4fac-a63c-0e3ff496e921"},"vehicle_type_id":"4","last_reported":1777301783,"current_range_meters":9600,"station_id":"ce4bhsh2rcd13ifvqi2g","pricing_plan_id":"cebpf4jnsgd1na2vs0mg"},{"bike_id":"afde96ac-1493-4085-af72-e5da568a87fd","system_id":"levelo_inurba_marseille","lat":43.28481,"lon":5.48391,"is_reserved":false,"is_disabled":false,"rental_uris":{"android":"levelo://app?vid=afde96ac-1493-4085-af72-e5da568a87fd","ios":"levelo://app?vid=afde96ac-1493-4085-af72-e5da568a87fd"},"vehicle_type_id":"4","last_reported":1777301783,"current_range_meters":9600,"station_id":"st_d3svhcjqgbts73a3dn0g","pricing_plan_id":"cebpf4jnsgd1na2vs0mg"},{"bike_id":"66c6a4ee-4016-4b3e-9445-31a932fd54a7","system_id":"levelo_inurba_marseille","lat":43.30118,"lon":5.39836,"is_reserved":false,"is_disabled":false,"rental_uris":{"android":"levelo://app?vid=66c6a4ee-4016-4b3e-9445-31a932fd54a7","ios":"levelo://app?vid=66c6a4ee-4016-4b3e-9445-31a932fd54a7"},"vehicle_type_id":"4","last_reported":1777301783,"current_range_meters":9600,"station_id":"ce4bh0h2rcd13ifvqd40","pricing_plan_id":"cebpf4jnsgd1na2vs0mg"},{"bike_id":"b4b4d2b5-a928-4ea0-b562-b57bab88561a","system_id":"levelo_inurba_marseille","lat":43.29269,"lon":5.38437,"is_reserved":false,"is_disabled":false,"rental_uris":{"android":"levelo://app?vid=b4b4d2b5-a928-4ea0-b562-b57bab88561a","ios":"levelo://app?vid=b4b4d2b5-a928-4ea0-b562-b57bab88561a"},"vehicle_type_id":"4","last_reported":1777301783,"current_range_meters":9600,"station_id":"ce4bh692rcd13ifvqea0","pricing_plan_id":"cebpf4jnsgd1na2vs0mg"},{"bike_id":"ab73e7de-2811-460f-9788-6831c04db837","system_id":"levelo_inurba_marseille","lat":43.30454,"lon":5.37905,"is_reserved":false,"is_disabled":false,"rental_uris":{"android":"levelo://app?vid=ab73e7de-2811-460f-9788-6831c04db837","ios":"levelo://app?vid=ab73e7de-2811-460f-9788-6831c04db837"},"vehicle_type_id":"4","last_reported":1777301783,"current_range_meters":9600,"station_id":"ce4bgup2rcd13ifvqcn0","pricing_plan_id":"cebpf4jnsgd1na2vs0mg"},{"bike_id":"dc4f256b-dad1-4b0e-b0aa-70815278bacb","system_id":"levelo_inurba_marseille","lat":43.28967,"lon":5.39318,"is_reserved":false,"is_disabled":false,"rental_uris":{"android":"levelo://app?vid=dc4f256b-dad1-4b0e-b0aa-70815278bacb","ios":"levelo://app?vid=dc4f256b-dad1-4b0e-b0aa-70815278bacb"},"vehicle_type_id":"4","last_reported":1777301783,"current_range_meters":9600,"station_id":"","pricing_plan_id":"cebpf4jnsgd1na2vs0mg"},{"bike_id":"8b4e6bd3-1e82-4277-a45a-3a8abaa4e3ab","system_id":"levelo_inurba_marseille","lat":43.28485,"lon":5.48376,"is_reserved":false,"is_disabled":false,"rental_uris":{"android":"levelo://app?vid=8b4e6bd3-1e82-4277-a45a-3a8abaa4e3ab","ios":"levelo://app?vid=8b4e6bd3-1e82-4277-a45a-3a8abaa4e3ab"},"vehicle_type_id":"4","last_reported":1777301783,"current_range_meters":9600,"station_id":"","pricing_plan_id":"cebpf4jnsgd1na2vs0mg"},{"bike_id":"3cf26fe4-db96-49b5-bc58-4564bf731331","system_id":"levelo_inurba_marseille","lat":43.26845,"lon":5.40283,"is_reserved":false,"is_disabled":false,"rental_uris":{"android":"levelo://app?vid=3cf26fe4-db96-49b5-bc58-4564bf731331","ios":"levelo://app?vid=3cf26fe4-db96-49b5-bc58-4564bf731331"},"vehicle_type_id":"4","last_reported":1777301783,"current_range_meters":9600,"station_id":"","pricing_plan_id":"cebpf4jnsgd1na2vs0mg"},{"bike_id":"64276637-3e1c-443b-93ab-151270870127","system_id":"levelo_inurba_marseille","lat":43.23152,"lon":5.43723,"is_reserved":false,"is_disabled":false,"rental_uris":{"android":"levelo://app?vid=64276637-3e1c-443b-93ab-151270870127","ios":"levelo://app?vid=64276637-3e1c-443b-93ab-151270870127"},"vehicle_type_id":"4","last_reported":1777301783,"current_range_meters":9600,"station_id":"ce4bhmp2rcd13ifvqgog","pricing_plan_id":"cebpf4jnsgd1na2vs0mg"},{"bike_id":"ffd5c4f5-564f-4571-abe7-44df0387d92e","system_id":"levelo_inurba_marseille","lat":43.2876,"lon":5.37861,"is_reserved":false,"is_disabled":false,"rental_uris":{"android":"levelo://app?vid=ffd5c4f5-564f-4571-abe7-44df0387d92e","ios":"levelo://app?vid=ffd5c4f5-564f-4571-abe7-44df0387d92e"},"vehicle_type_id":"4","last_reported":1777301783,"current_range_meters":10000,"station_id":"","pricing_plan_id":"cebpf4jnsgd1na2vs0mg"},{"bike_id":"ca970bed-dff0-40b1-aa6e-d0db5b10d8ee","system_id":"levelo_inurba_marseille","lat":43.27425,"lon":5.394,"is_reserved":false,"is_disabled":true,"rental_uris":{"android":"levelo://app?vid=ca970bed-dff0-40b1-aa6e-d0db5b10d8ee","ios":"levelo://app?vid=ca970bed-dff0-40b1-aa6e-d0db5b10d8ee"},"vehicle_type_id":"4","last_reported":1777301783,"current_range_meters":10000,"station_id":"ce4bhdp2rcd13ifvqf20","pricing_plan_id":"cebpf4jnsgd1na2vs0mg"},{"bike_id":"dabc5e28-b9df-4b1a-affa-f2e365a8b45b","system_id":"levelo_inurba_marseille","lat":43.32111,"lon":5.36787,"is_reserved":false,"is_disabled":false,"rental_uris":{"android":"levelo://app?vid=dabc5e28-b9df-4b1a-affa-f2e365a8b45b","ios":"levelo://app?vid=dabc5e28-b9df-4b1a-affa-f2e365a8b45b"},"vehicle_type_id":"4","last_reported":1777301783,"current_range_meters":10000,"station_id":"ce4bhrh2rcd13ifvqhug","pricing_plan_id":"cebpf4jnsgd1na2vs0mg"},{"bike_id":"61ef9552-0ea5-4b0a-8ea0-76149927939f","system_id":"levelo_inurba_marseille","lat":43.28611,"lon":5.35089,"is_reserved":false,"is_disabled":false,"rental_uris":{"android":"levelo://app?vid=61ef9552-0ea5-4b0a-8ea0-76149927939f","ios":"levelo://app?vid=61ef9552-0ea5-4b0a-8ea0-76149927939f"},"vehicle_type_id":"4","last_reported":1777301783,"current_range_meters":10000,"station_id":"ce4bhch2rcd13ifvqeug","pricing_plan_id":"cebpf4jnsgd1na2vs0mg"},{"bike_id":"89b292ff-19a4-45e1-8050-c13116ae5eed","system_id":"levelo_inurba_marseille","lat":43.28976,"lon":5.37862,"is_reserved":false,"is_disabled":false,"rental_uris":{"android":"levelo://app?vid=89b292ff-19a4-45e1-8050-c13116ae5eed","ios":"levelo://app?vid=89b292ff-19a4-45e1-8050-c13116ae5eed"},"vehicle_type_id":"4","last_reported":1777301783,"current_range_meters":10000,"station_id":"","pricing_plan_id":"cebpf4jnsgd1na2vs0mg"},{"bike_id":"93480eab-73de-42fb-842b-e764295ed010","system_id":"levelo_inurba_marseille","lat":43.26798,"lon":5.3943,"is_reserved":false,"is_disabled":false,"rental_uris":{"android":"levelo://app?vid=93480eab-73de-42fb-842b-e764295ed010","ios":"levelo://app?vid=93480eab-73de-42fb-842b-e764295ed010"},"vehicle_type_id":"4","last_reported":1777301783,"current_range_meters":10000,"station_id":"ce4bhh12rcd13ifvqfg0","pricing_plan_id":"cebpf4jnsgd1na2vs0mg"},{"bike_id":"4470e9b0-5d96-4aee-9a22-d394cb29d060","system_id":"levelo_inurba_marseille","lat":43.3103,"lon":5.37162,"is_reserved":false,"is_disabled":false,"rental_uris":{"android":"levelo://app?vid=4470e9b0-5d96-4aee-9a22-d394cb29d060","ios":"levelo://app?vid=4470e9b0-5d96-4aee-9a22-d394cb29d060"},"vehicle_type_id":"4","last_reported":1777301783,"current_range_meters":10000,"station_id":"st_d4kl2rp97mjs73e7tdfg","pricing_plan_id":"cebpf4jnsgd1na2vs0mg"},{"bike_id":"eaacdb91-1c5b-4303-af36-dd942656ca09","system_id":"levelo_inurba_marseille","lat":43.25827,"lon":5.39434,"is_reserved":false,"is_disabled":false,"rental_uris":{"android":"levelo://app?vid=eaacdb91-1c5b-4303-af36-dd942656ca09","ios":"levelo://app?vid=eaacdb91-1c5b-4303-af36-dd942656ca09"},"vehicle_type_id":"4","last_reported":1777301783,"current_range_meters":10000,"station_id":"ce4bhip2rcd13ifvqft0","pricing_plan_id":"cebpf4jnsgd1na2vs0mg"},{"bike_id":"1f016d3d-9fe4-4abc-b992-a842e1174acb","system_id":"levelo_inurba_marseille","lat":43.24661,"lon":5.38161,"is_reserved":false,"is_disabled":false,"rental_uris":{"android":"levelo://app?vid=1f016d3d-9fe4-4abc-b992-a842e1174acb","ios":"levelo://app?vid=1f016d3d-9fe4-4abc-b992-a842e1174acb"},"vehicle_type_id":"4","last_reported":1777301783,"current_range_meters":10000,"station_id":"ce4bhih2rcd13ifvqfr0","pricing_plan_id":"cebpf4jnsgd1na2vs0mg"},{"bike_id":"81e52b6e-bff7-4875-a0d8-d533ea21c465","system_id":"levelo_inurba_marseille","lat":43.28132,"lon":5.42694,"is_reserved":false,"is_disabled":false,"rental_uris":{"android":"levelo://app?vid=81e52b6e-bff7-4875-a0d8-d533ea21c465","ios":"levelo://app?vid=81e52b6e-bff7-4875-a0d8-d533ea21c465"},"vehicle_type_id":"4","last_reported":1777301783,"current_range_meters":10000,"station_id":"ce4bhnh2rcd13ifvqgug","pricing_plan_id":"cebpf4jnsgd1na2vs0mg"},{"bike_id":"33ae2f51-d568-4f63-bfe1-57a7e56b13fe","system_id":"levelo_inurba_marseille","lat":43.30547,"lon":5.3668,"is_reserved":false,"is_disabled":false,"rental_uris":{"android":"levelo://app?vid=33ae2f51-d568-4f63-bfe1-57a7e56b13fe","ios":"levelo://app?vid=33ae2f51-d568-4f63-bfe1-57a7e56b13fe"},"vehicle_type_id":"4","last_reported":1777301783,"current_range_meters":10000,"station_id":"ce4bgrp2rcd13ifvqc9g","pricing_plan_id":"cebpf4jnsgd1na2vs0mg"},{"bike_id":"626afedd-d732-4bc8-be6f-6408a29380b2","system_id":"levelo_inurba_marseille","lat":43.21222,"lon":5.3507,"is_reserved":false,"is_disabled":false,"rental_uris":{"android":"levelo://app?vid=626afedd-d732-4bc8-be6f-6408a29380b2","ios":"levelo://app?vid=626afedd-d732-4bc8-be6f-6408a29380b2"},"vehicle_type_id":"4","last_reported":1777301783,"current_range_meters":10000,"station_id":"st_cvj6sg6p6f1abm77japg","pricing_plan_id":"cebpf4jnsgd1na2vs0mg"},{"bike_id":"ccc64b12-fba8-4953-9e4c-789c15629674","system_id":"levelo_inurba_marseille","lat":43.23193,"lon":5.3508,"is_reserved":false,"is_disabled":false,"rental_uris":{"android":"levelo://app?vid=ccc64b12-fba8-4953-9e4c-789c15629674","ios":"levelo://app?vid=ccc64b12-fba8-4953-9e4c-789c15629674"},"vehicle_type_id":"4","last_reported":1777301783,"current_range_meters":10000,"station_id":"","pricing_plan_id":"cebpf4jnsgd1na2vs0mg"},{"bike_id":"68ecf2f6-4ac5-45b8-9640-383e9e07a83c","system_id":"levelo_inurba_marseille","lat":43.24597,"lon":5.41588,"is_reserved":false,"is_disabled":false,"rental_uris":{"android":"levelo://app?vid=68ecf2f6-4ac5-45b8-9640-383e9e07a83c","ios":"levelo://app?vid=68ecf2f6-4ac5-45b8-9640-383e9e07a83c"},"vehicle_type_id":"4","last_reported":1777301783,"current_range_meters":10000,"station_id":"","pricing_plan_id":"cebpf4jnsgd1na2vs0mg"},{"bike_id":"f13c1412-9987-4b53-aa5c-79a6ecb2ba2d","system_id":"levelo_inurba_marseille","lat":43.3236,"lon":5.36678,"is_reserved":false,"is_disabled":false,"rental_uris":{"android":"levelo://app?vid=f13c1412-9987-4b53-aa5c-79a6ecb2ba2d","ios":"levelo://app?vid=f13c1412-9987-4b53-aa5c-79a6ecb2ba2d"},"vehicle_type_id":"4","last_reported":1777301783,"current_range_meters":10000,"station_id":"","pricing_plan_id":"cebpf4jnsgd1na2vs0mg"},{"bike_id":"f910f006-6469-4189-b18f-2d7d32e9f493","system_id":"levelo_inurba_marseille","lat":43.2315,"lon":5.43719,"is_reserved":false,"is_disabled":false,"rental_uris":{"android":"levelo://app?vid=f910f006-6469-4189-b18f-2d7d32e9f493","ios":"levelo://app?vid=f910f006-6469-4189-b18f-2d7d32e9f493"},"vehicle_type_id":"4","last_reported":1777301783,"current_range_meters":10000,"station_id":"ce4bhmp2rcd13ifvqgog","pricing_plan_id":"cebpf4jnsgd1na2vs0mg"},{"bike_id":"20111a87-41c4-4eaf-9fe8-f7469b02a4e4","system_id":"levelo_inurba_marseille","lat":43.30122,"lon":5.43167,"is_reserved":false,"is_disabled":false,"rental_uris":{"android":"levelo://app?vid=20111a87-41c4-4eaf-9fe8-f7469b02a4e4","ios":"levelo://app?vid=20111a87-41c4-4eaf-9fe8-f7469b02a4e4"},"vehicle_type_id":"4","last_reported":1777301783,"current_range_meters":10000,"station_id":"st_d3js3co5814s73ftftug","pricing_plan_id":"cebpf4jnsgd1na2vs0mg"},{"bike_id":"1a63ed86-01c3-463f-88a6-ebf0e2c92b7a","system_id":"levelo_inurba_marseille","lat":43.31216,"lon":5.36876,"is_reserved":false,"is_disabled":false,"rental_uris":{"android":"levelo://app?vid=1a63ed86-01c3-463f-88a6-ebf0e2c92b7a","ios":"levelo://app?vid=1a63ed86-01c3-463f-88a6-ebf0e2c92b7a"},"vehicle_type_id":"4","last_reported":1777301783,"current_range_meters":10000,"station_id":"ce4bgl92rcd13ifvqbq0","pricing_plan_id":"cebpf4jnsgd1na2vs0mg"},{"bike_id":"a0ef21e0-dbb4-4cc4-a433-65fbca0030a6","system_id":"levelo_inurba_marseille","lat":43.29267,"lon":5.38439,"is_reserved":false,"is_disabled":false,"rental_uris":{"android":"levelo://app?vid=a0ef21e0-dbb4-4cc4-a433-65fbca0030a6","ios":"levelo://app?vid=a0ef21e0-dbb4-4cc4-a433-65fbca0030a6"},"vehicle_type_id":"4","last_reported":1777301783,"current_range_meters":10000,"station_id":"ce4bh692rcd13ifvqea0","pricing_plan_id":"cebpf4jnsgd1na2vs0mg"},{"bike_id":"7eba9a86-f77b-415c-9cf2-4773ba6f35bb","system_id":"levelo_inurba_marseille","lat":43.233905,"lon":5.412475,"is_reserved":false,"is_disabled":false,"rental_uris":{"android":"levelo://app?vid=7eba9a86-f77b-415c-9cf2-4773ba6f35bb","ios":"levelo://app?vid=7eba9a86-f77b-415c-9cf2-4773ba6f35bb"},"vehicle_type_id":"4","last_reported":1777301783,"current_range_meters":10000,"station_id":"st_d75pvndhf9lc73cqq3eg","pricing_plan_id":"cebpf4jnsgd1na2vs0mg"},{"bike_id":"91e3392a-d47d-4633-8ab0-45bd13fde2da","system_id":"levelo_inurba_marseille","lat":43.28417,"lon":5.34982,"is_reserved":false,"is_disabled":false,"rental_uris":{"android":"levelo://app?vid=91e3392a-d47d-4633-8ab0-45bd13fde2da","ios":"levelo://app?vid=91e3392a-d47d-4633-8ab0-45bd13fde2da"},"vehicle_type_id":"4","last_reported":1777301783,"current_range_meters":10000,"station_id":"ce4bhbh2rcd13ifvqepg","pricing_plan_id":"cebpf4jnsgd1na2vs0mg"},{"bike_id":"01ecf72f-5b4f-41d9-948a-a39262256f17","system_id":"levelo_inurba_marseille","lat":43.23149,"lon":5.43708,"is_reserved":false,"is_disabled":false,"rental_uris":{"android":"levelo://app?vid=01ecf72f-5b4f-41d9-948a-a39262256f17","ios":"levelo://app?vid=01ecf72f-5b4f-41d9-948a-a39262256f17"},"vehicle_type_id":"4","last_reported":1777301783,"current_range_meters":10800,"station_id":"ce4bhmp2rcd13ifvqgog","pricing_plan_id":"cebpf4jnsgd1na2vs0mg"},{"bike_id":"4541a58b-5803-4873-8531-8182c7674429","system_id":"levelo_inurba_marseille","lat":43.28476,"lon":5.48417,"is_reserved":false,"is_disabled":false,"rental_uris":{"android":"levelo://app?vid=4541a58b-5803-4873-8531-8182c7674429","ios":"levelo://app?vid=4541a58b-5803-4873-8531-8182c7674429"},"vehicle_type_id":"4","last_reported":1777301783,"current_range_meters":10800,"station_id":"st_d3svhcjqgbts73a3dn0g","pricing_plan_id":"cebpf4jnsgd1na2vs0mg"},{"bike_id":"cdfeff56-771e-4643-8571-e1120854d547","system_id":"levelo_inurba_marseille","lat":43.2174,"lon":5.34635,"is_reserved":false,"is_disabled":false,"rental_uris":{"android":"levelo://app?vid=cdfeff56-771e-4643-8571-e1120854d547","ios":"levelo://app?vid=cdfeff56-771e-4643-8571-e1120854d547"},"vehicle_type_id":"4","last_reported":1777301783,"current_range_meters":10800,"station_id":"st_cvj6r9ubvosntc0bgbag","pricing_plan_id":"cebpf4jnsgd1na2vs0mg"},{"bike_id":"41552db6-8335-413f-87c6-ca50527dd868","system_id":"levelo_inurba_marseille","lat":43.30981,"lon":5.38111,"is_reserved":false,"is_disabled":false,"rental_uris":{"android":"levelo://app?vid=41552db6-8335-413f-87c6-ca50527dd868","ios":"levelo://app?vid=41552db6-8335-413f-87c6-ca50527dd868"},"vehicle_type_id":"4","last_reported":1777301783,"current_range_meters":10800,"station_id":"","pricing_plan_id":"cebpf4jnsgd1na2vs0mg"},{"bike_id":"23b9edcd-305b-48b3-b42b-c5b2d1a2cdca","system_id":"levelo_inurba_marseille","lat":43.27048,"lon":5.3865,"is_reserved":false,"is_disabled":false,"rental_uris":{"android":"levelo://app?vid=23b9edcd-305b-48b3-b42b-c5b2d1a2cdca","ios":"levelo://app?vid=23b9edcd-305b-48b3-b42b-c5b2d1a2cdca"},"vehicle_type_id":"4","last_reported":1777301783,"current_range_meters":10800,"station_id":"","pricing_plan_id":"cebpf4jnsgd1na2vs0mg"},{"bike_id":"94b1d427-102e-4c64-aa76-0c93e226150f","system_id":"levelo_inurba_marseille","lat":43.2848,"lon":5.48387,"is_reserved":false,"is_disabled":false,"rental_uris":{"android":"levelo://app?vid=94b1d427-102e-4c64-aa76-0c93e226150f","ios":"levelo://app?vid=94b1d427-102e-4c64-aa76-0c93e226150f"},"vehicle_type_id":"4","last_reported":1777301783,"current_range_meters":10800,"station_id":"st_d3svhcjqgbts73a3dn0g","pricing_plan_id":"cebpf4jnsgd1na2vs0mg"},{"bike_id":"cbe5a632-ef79-488e-9df3-052a3d653430","system_id":"levelo_inurba_marseille","lat":43.29254,"lon":5.37635,"is_reserved":false,"is_disabled":false,"rental_uris":{"android":"levelo://app?vid=cbe5a632-ef79-488e-9df3-052a3d653430","ios":"levelo://app?vid=cbe5a632-ef79-488e-9df3-052a3d653430"},"vehicle_type_id":"4","last_reported":1777301783,"current_range_meters":10800,"station_id":"ce4bgi12rcd13ifvqb80","pricing_plan_id":"cebpf4jnsgd1na2vs0mg"},{"bike_id":"42b7cc4f-783b-42cf-903e-35da95722ff0","system_id":"levelo_inurba_marseille","lat":43.24187,"lon":5.39741,"is_reserved":false,"is_disabled":false,"rental_uris":{"android":"levelo://app?vid=42b7cc4f-783b-42cf-903e-35da95722ff0","ios":"levelo://app?vid=42b7cc4f-783b-42cf-903e-35da95722ff0"},"vehicle_type_id":"4","last_reported":1777301783,"current_range_meters":10800,"station_id":"ce4bhn12rcd13ifvqgpg","pricing_plan_id":"cebpf4jnsgd1na2vs0mg"},{"bike_id":"6f946ca3-09f1-47da-a5f4-04711dcd079a","system_id":"levelo_inurba_marseille","lat":43.28484,"lon":5.38546,"is_reserved":false,"is_disabled":false,"rental_uris":{"android":"levelo://app?vid=6f946ca3-09f1-47da-a5f4-04711dcd079a","ios":"levelo://app?vid=6f946ca3-09f1-47da-a5f4-04711dcd079a"},"vehicle_type_id":"4","last_reported":1777301783,"current_range_meters":10800,"station_id":"ce4bh8p2rcd13ifvqeb0","pricing_plan_id":"cebpf4jnsgd1na2vs0mg"},{"bike_id":"8a7e888d-18b9-4100-989f-0d387e328357","system_id":"levelo_inurba_marseille","lat":43.28266,"lon":5.35063,"is_reserved":false,"is_disabled":false,"rental_uris":{"android":"levelo://app?vid=8a7e888d-18b9-4100-989f-0d387e328357","ios":"levelo://app?vid=8a7e888d-18b9-4100-989f-0d387e328357"},"vehicle_type_id":"4","last_reported":1777301783,"current_range_meters":10800,"station_id":"ce4bhbp2rcd13ifvqerg","pricing_plan_id":"cebpf4jnsgd1na2vs0mg"},{"bike_id":"77b8dc02-51af-44fd-a00a-7f7f390da885","system_id":"levelo_inurba_marseille","lat":43.27977,"lon":5.4165,"is_reserved":false,"is_disabled":false,"rental_uris":{"android":"levelo://app?vid=77b8dc02-51af-44fd-a00a-7f7f390da885","ios":"levelo://app?vid=77b8dc02-51af-44fd-a00a-7f7f390da885"},"vehicle_type_id":"4","last_reported":1777301783,"current_range_meters":10800,"station_id":"ce4bho12rcd13ifvqh1g","pricing_plan_id":"cebpf4jnsgd1na2vs0mg"},{"bike_id":"f13a84ba-7f91-4dec-b7cf-a4af721da0e0","system_id":"levelo_inurba_marseille","lat":43.315,"lon":5.36752,"is_reserved":false,"is_disabled":false,"rental_uris":{"android":"levelo://app?vid=f13a84ba-7f91-4dec-b7cf-a4af721da0e0","ios":"levelo://app?vid=f13a84ba-7f91-4dec-b7cf-a4af721da0e0"},