{"last_updated":1737738447,"ttl":60,"version":"2.2","data":{"bikes":[{"bike_id":"71025e83-daff-40eb-8f70-b8e1fc9300fb","system_id":"levelo_inurba_marseille","lat":43.22934,"lon":5.35378,"is_reserved":false,"is_disabled":false,"rental_uris":{"android":"levelo://app?vid=71025e83-daff-40eb-8f70-b8e1fc9300fb","ios":"levelo://app?vid=71025e83-daff-40eb-8f70-b8e1fc9300fb"},"vehicle_type_id":"4","last_reported":1737738447,"current_range_meters":38800,"station_id":"cpo3532slgdg3j2ikp40","pricing_plan_id":"cebpf4jnsgd1na2vs0mg"},{"bike_id":"5eda1586-7e21-48ee-9836-c3a779d53d6a","system_id":"levelo_inurba_marseille","lat":43.30533,"lon":5.3843,"is_reserved":false,"is_disabled":false,"rental_uris":{"android":"levelo://app?vid=5eda1586-7e21-48ee-9836-c3a779d53d6a","ios":"levelo://app?vid=5eda1586-7e21-48ee-9836-c3a779d53d6a"},"vehicle_type_id":"4","last_reported":1737738447,"current_range_meters":12000,"station_id":"ce4bgg92rcd13ifvqb30","pricing_plan_id":"cebpf4jnsgd1na2vs0mg"},{"bike_id":"6e159698-8e6a-4105-ae4a-1b840253888f","system_id":"levelo_inurba_marseille","lat":43.29302,"lon":5.3716,"is_reserved":false,"is_disabled":false,"rental_uris":{"android":"levelo://app?vid=6e159698-8e6a-4105-ae4a-1b840253888f","ios":"levelo://app?vid=6e159698-8e6a-4105-ae4a-1b840253888f"},"vehicle_type_id":"4","last_reported":1737738447,"current_range_meters":37600,"station_id":"ce4bgh92rcd13ifvqb40","pricing_plan_id":"cebpf4jnsgd1na2vs0mg"},{"bike_id":"519f03c0-45ea-44b4-8653-f4a27aeacdc8","system_id":"levelo_inurba_marseille","lat":43.27561,"lon":5.38437,"is_reserved":false,"is_disabled":false,"rental_uris":{"android":"levelo://app?vid=519f03c0-45ea-44b4-8653-f4a27aeacdc8","ios":"levelo://app?vid=519f03c0-45ea-44b4-8653-f4a27aeacdc8"},"vehicle_type_id":"4","last_reported":1737738447,"current_range_meters":34000,"station_id":"ce4bhh92rcd13ifvqfi0","pricing_plan_id":"cebpf4jnsgd1na2vs0mg"},{"bike_id":"b8616eb9-d9e4-460f-807e-1357c1bfc7f2","system_id":"levelo_inurba_marseille","lat":43.24385,"lon":5.37056,"is_reserved":false,"is_disabled":false,"rental_uris":{"android":"levelo://app?vid=b8616eb9-d9e4-460f-807e-1357c1bfc7f2","ios":"levelo://app?vid=b8616eb9-d9e4-460f-807e-1357c1bfc7f2"},"vehicle_type_id":"4","last_reported":1737738447,"current_range_meters":38800,"station_id":"ce4bhhh2rcd13ifvqfk0","pricing_plan_id":"cebpf4jnsgd1na2vs0mg"},{"bike_id":"c6101cb0-11be-4453-a374-275049348de7","system_id":"levelo_inurba_marseille","lat":43.28999,"lon":5.35607,"is_reserved":false,"is_disabled":false,"rental_uris":{"android":"levelo://app?vid=c6101cb0-11be-4453-a374-275049348de7","ios":"levelo://app?vid=c6101cb0-11be-4453-a374-275049348de7"},"vehicle_type_id":"4","last_reported":1737738447,"current_range_meters":30000,"station_id":"ce4bhb92rcd13ifvqen0","pricing_plan_id":"cebpf4jnsgd1na2vs0mg"},{"bike_id":"0793f05d-0029-4d54-a0fe-9c0436426db5","system_id":"levelo_inurba_marseille","lat":43.23197,"lon":5.35537,"is_reserved":false,"is_disabled":false,"rental_uris":{"android":"levelo://app?vid=0793f05d-0029-4d54-a0fe-9c0436426db5","ios":"levelo://app?vid=0793f05d-0029-4d54-a0fe-9c0436426db5"},"vehicle_type_id":"4","last_reported":1737738447,"current_range_meters":34800,"station_id":"ce4bhu92rcd13ifvqi70","pricing_plan_id":"cebpf4jnsgd1na2vs0mg"},{"bike_id":"6b767154-21df-4957-a6c8-120cbcec1f6f","system_id":"levelo_inurba_marseille","lat":43.25076,"lon":5.39521,"is_reserved":false,"is_disabled":false,"rental_uris":{"android":"levelo://app?vid=6b767154-21df-4957-a6c8-120cbcec1f6f","ios":"levelo://app?vid=6b767154-21df-4957-a6c8-120cbcec1f6f"},"vehicle_type_id":"4","last_reported":1737738447,"current_range_meters":8000,"station_id":"ce4bhm12rcd13ifvqgkg","pricing_plan_id":"cebpf4jnsgd1na2vs0mg"},{"bike_id":"4914872c-162c-4b5d-a9af-cff65f389580","system_id":"levelo_inurba_marseille","lat":43.2961,"lon":5.38125,"is_reserved":false,"is_disabled":true,"rental_uris":{"android":"levelo://app?vid=4914872c-162c-4b5d-a9af-cff65f389580","ios":"levelo://app?vid=4914872c-162c-4b5d-a9af-cff65f389580"},"vehicle_type_id":"4","last_reported":1737738447,"current_range_meters":0,"station_id":"ce4bgl12rcd13ifvqbo0","pricing_plan_id":"cebpf4jnsgd1na2vs0mg"},{"bike_id":"65bee745-3bec-475a-8891-dea6bde0e624","system_id":"levelo_inurba_marseille","lat":43.2985,"lon":5.36288,"is_reserved":false,"is_disabled":false,"rental_uris":{"android":"levelo://app?vid=65bee745-3bec-475a-8891-dea6bde0e624","ios":"levelo://app?vid=65bee745-3bec-475a-8891-dea6bde0e624"},"vehicle_type_id":"4","last_reported":1737738447,"current_range_meters":35600,"station_id":"ce4bgpp2rcd13ifvqc3g","pricing_plan_id":"cebpf4jnsgd1na2vs0mg"},{"bike_id":"78f1bcbe-297f-4d89-be9d-ff7c664d65b5","system_id":"levelo_inurba_marseille","lat":43.27189,"lon":5.40992,"is_reserved":false,"is_disabled":false,"rental_uris":{"android":"levelo://app?vid=78f1bcbe-297f-4d89-be9d-ff7c664d65b5","ios":"levelo://app?vid=78f1bcbe-297f-4d89-be9d-ff7c664d65b5"},"vehicle_type_id":"4","last_reported":1737738447,"current_range_meters":12800,"station_id":"ce4bhl12rcd13ifvqgf0","pricing_plan_id":"cebpf4jnsgd1na2vs0mg"},{"bike_id":"6e0e02f5-b0ae-450f-ad77-51511a2e44cf","system_id":"levelo_inurba_marseille","lat":43.309302,"lon":5.401474,"is_reserved":false,"is_disabled":true,"rental_uris":{"android":"levelo://app?vid=6e0e02f5-b0ae-450f-ad77-51511a2e44cf","ios":"levelo://app?vid=6e0e02f5-b0ae-450f-ad77-51511a2e44cf"},"vehicle_type_id":"4","last_reported":1737738447,"current_range_meters":24400,"station_id":"ce4bgvp2rcd13ifvqct0","pricing_plan_id":"cebpf4jnsgd1na2vs0mg"},{"bike_id":"637cf45d-cd8a-4700-9a5f-fca22f97ab8f","system_id":"levelo_inurba_marseille","lat":43.27561,"lon":5.38385,"is_reserved":false,"is_disabled":false,"rental_uris":{"android":"levelo://app?vid=637cf45d-cd8a-4700-9a5f-fca22f97ab8f","ios":"levelo://app?vid=637cf45d-cd8a-4700-9a5f-fca22f97ab8f"},"vehicle_type_id":"4","last_reported":1737738447,"current_range_meters":38800,"station_id":"ce4bhh92rcd13ifvqfi0","pricing_plan_id":"cebpf4jnsgd1na2vs0mg"},{"bike_id":"f5ea575a-09b7-4ee3-9efd-9c1584b55857","system_id":"levelo_inurba_marseille","lat":43.29861,"lon":5.39733,"is_reserved":false,"is_disabled":false,"rental_uris":{"android":"levelo://app?vid=f5ea575a-09b7-4ee3-9efd-9c1584b55857","ios":"levelo://app?vid=f5ea575a-09b7-4ee3-9efd-9c1584b55857"},"vehicle_type_id":"4","last_reported":1737738447,"current_range_meters":38400,"station_id":"ce4bh0h2rcd13ifvqd50","pricing_plan_id":"cebpf4jnsgd1na2vs0mg"},{"bike_id":"6df7f438-e9a2-4488-b4c5-ad9c2cc83bb9","system_id":"levelo_inurba_marseille","lat":43.2603,"lon":5.37554,"is_reserved":false,"is_disabled":false,"rental_uris":{"android":"levelo://app?vid=6df7f438-e9a2-4488-b4c5-ad9c2cc83bb9","ios":"levelo://app?vid=6df7f438-e9a2-4488-b4c5-ad9c2cc83bb9"},"vehicle_type_id":"4","last_reported":1737738447,"current_range_meters":32800,"station_id":"ce4bhgh2rcd13ifvqfa0","pricing_plan_id":"cebpf4jnsgd1na2vs0mg"},{"bike_id":"9c1ecc70-0c3b-42f1-88be-28e00afea0ec","system_id":"levelo_inurba_marseille","lat":43.31117,"lon":5.3777,"is_reserved":false,"is_disabled":false,"rental_uris":{"android":"levelo://app?vid=9c1ecc70-0c3b-42f1-88be-28e00afea0ec","ios":"levelo://app?vid=9c1ecc70-0c3b-42f1-88be-28e00afea0ec"},"vehicle_type_id":"4","last_reported":1737738447,"current_range_meters":12400,"station_id":"ce4bgt92rcd13ifvqcg0","pricing_plan_id":"cebpf4jnsgd1na2vs0mg"},{"bike_id":"e22ee28c-e819-4537-8740-5b1570bd468a","system_id":"levelo_inurba_marseille","lat":43.29968,"lon":5.38477,"is_reserved":false,"is_disabled":false,"rental_uris":{"android":"levelo://app?vid=e22ee28c-e819-4537-8740-5b1570bd468a","ios":"levelo://app?vid=e22ee28c-e819-4537-8740-5b1570bd468a"},"vehicle_type_id":"4","last_reported":1737738447,"current_range_meters":12800,"station_id":"ce4bgj92rcd13ifvqbd0","pricing_plan_id":"cebpf4jnsgd1na2vs0mg"},{"bike_id":"74923569-89fb-4aa8-8b28-8c805db3f8fe","system_id":"levelo_inurba_marseille","lat":43.29434,"lon":5.39759,"is_reserved":false,"is_disabled":false,"rental_uris":{"android":"levelo://app?vid=74923569-89fb-4aa8-8b28-8c805db3f8fe","ios":"levelo://app?vid=74923569-89fb-4aa8-8b28-8c805db3f8fe"},"vehicle_type_id":"4","last_reported":1737738447,"current_range_meters":23200,"station_id":"ce4bh3h2rcd13ifvqdo0","pricing_plan_id":"cebpf4jnsgd1na2vs0mg"},{"bike_id":"1b081f83-cf90-4dbe-9cfd-a3e1497b7b48","system_id":"levelo_inurba_marseille","lat":43.29542,"lon":5.38533,"is_reserved":false,"is_disabled":false,"rental_uris":{"android":"levelo://app?vid=1b081f83-cf90-4dbe-9cfd-a3e1497b7b48","ios":"levelo://app?vid=1b081f83-cf90-4dbe-9cfd-a3e1497b7b48"},"vehicle_type_id":"4","last_reported":1737738447,"current_range_meters":38800,"station_id":"ce4bgih2rcd13ifvqba0","pricing_plan_id":"cebpf4jnsgd1na2vs0mg"},{"bike_id":"6a0c52b0-f71a-4340-9332-80a77ea7e4fa","system_id":"levelo_inurba_marseille","lat":43.31763,"lon":5.39002,"is_reserved":false,"is_disabled":false,"rental_uris":{"android":"levelo://app?vid=6a0c52b0-f71a-4340-9332-80a77ea7e4fa","ios":"levelo://app?vid=6a0c52b0-f71a-4340-9332-80a77ea7e4fa"},"vehicle_type_id":"4","last_reported":1737738447,"current_range_meters":19200,"station_id":"ce4bhqp2rcd13ifvqhng","pricing_plan_id":"cebpf4jnsgd1na2vs0mg"},{"bike_id":"7ff41bb0-58bb-4e7a-856f-2a2aba66f15e","system_id":"levelo_inurba_marseille","lat":43.31711,"lon":5.43708,"is_reserved":false,"is_disabled":false,"rental_uris":{"android":"levelo://app?vid=7ff41bb0-58bb-4e7a-856f-2a2aba66f15e","ios":"levelo://app?vid=7ff41bb0-58bb-4e7a-856f-2a2aba66f15e"},"vehicle_type_id":"4","last_reported":1737738447,"current_range_meters":22000,"station_id":"ce4bhp92rcd13ifvqhcg","pricing_plan_id":"cebpf4jnsgd1na2vs0mg"},{"bike_id":"799818e8-263b-4acc-a4c0-b732b7fa92e7","system_id":"levelo_inurba_marseille","lat":43.32287,"lon":5.38266,"is_reserved":false,"is_disabled":false,"rental_uris":{"android":"levelo://app?vid=799818e8-263b-4acc-a4c0-b732b7fa92e7","ios":"levelo://app?vid=799818e8-263b-4acc-a4c0-b732b7fa92e7"},"vehicle_type_id":"4","last_reported":1737738447,"current_range_meters":39200,"station_id":"ce4bhr12rcd13ifvqhqg","pricing_plan_id":"cebpf4jnsgd1na2vs0mg"},{"bike_id":"6313f2f3-7ee2-4e24-89d9-3348b08aa15f","system_id":"levelo_inurba_marseille","lat":43.32653,"lon":5.40987,"is_reserved":false,"is_disabled":false,"rental_uris":{"android":"levelo://app?vid=6313f2f3-7ee2-4e24-89d9-3348b08aa15f","ios":"levelo://app?vid=6313f2f3-7ee2-4e24-89d9-3348b08aa15f"},"vehicle_type_id":"4","last_reported":1737738447,"current_range_meters":26000,"station_id":"ce4bhpp2rcd13ifvqhgg","pricing_plan_id":"cebpf4jnsgd1na2vs0mg"},{"bike_id":"7dafa7e7-757d-4898-abdf-cf5305599df2","system_id":"levelo_inurba_marseille","lat":43.29922,"lon":5.37467,"is_reserved":false,"is_disabled":false,"rental_uris":{"android":"levelo://app?vid=7dafa7e7-757d-4898-abdf-cf5305599df2","ios":"levelo://app?vid=7dafa7e7-757d-4898-abdf-cf5305599df2"},"vehicle_type_id":"4","last_reported":1737738447,"current_range_meters":38800,"station_id":"ce4bgjh2rcd13ifvqbg0","pricing_plan_id":"cebpf4jnsgd1na2vs0mg"},{"bike_id":"8cc9a8c0-1d21-4539-94e4-e2b715bca0ea","system_id":"levelo_inurba_marseille","lat":43.29203,"lon":5.39317,"is_reserved":false,"is_disabled":false,"rental_uris":{"android":"levelo://app?vid=8cc9a8c0-1d21-4539-94e4-e2b715bca0ea","ios":"levelo://app?vid=8cc9a8c0-1d21-4539-94e4-e2b715bca0ea"},"vehicle_type_id":"4","last_reported":1737738447,"current_range_meters":23200,"station_id":"ce4bh192rcd13ifvqdd0","pricing_plan_id":"cebpf4jnsgd1na2vs0mg"},{"bike_id":"c0a989d0-8a1c-474f-b36c-8104b5a7b61c","system_id":"levelo_inurba_marseille","lat":43.30437,"lon":5.38889,"is_reserved":false,"is_disabled":false,"rental_uris":{"android":"levelo://app?vid=c0a989d0-8a1c-474f-b36c-8104b5a7b61c","ios":"levelo://app?vid=c0a989d0-8a1c-474f-b36c-8104b5a7b61c"},"vehicle_type_id":"4","last_reported":1737738447,"current_range_meters":31200,"station_id":"ce4bgk12rcd13ifvqbi0","pricing_plan_id":"cebpf4jnsgd1na2vs0mg"},{"bike_id":"ccfc1707-653c-4955-82b1-4c46c7e45129","system_id":"levelo_inurba_marseille","lat":43.2901,"lon":5.35611,"is_reserved":false,"is_disabled":false,"rental_uris":{"android":"levelo://app?vid=ccfc1707-653c-4955-82b1-4c46c7e45129","ios":"levelo://app?vid=ccfc1707-653c-4955-82b1-4c46c7e45129"},"vehicle_type_id":"4","last_reported":1737738447,"current_range_meters":39200,"station_id":"ce4bhb92rcd13ifvqen0","pricing_plan_id":"cebpf4jnsgd1na2vs0mg"},{"bike_id":"b1b76465-1bc9-4b58-ba8c-98ad5fb52d10","system_id":"levelo_inurba_marseille","lat":43.29895,"lon":5.43675,"is_reserved":false,"is_disabled":false,"rental_uris":{"android":"levelo://app?vid=b1b76465-1bc9-4b58-ba8c-98ad5fb52d10","ios":"levelo://app?vid=b1b76465-1bc9-4b58-ba8c-98ad5fb52d10"},"vehicle_type_id":"4","last_reported":1737738447,"current_range_meters":38000,"station_id":"ce4bhpp2rcd13ifvqhfg","pricing_plan_id":"cebpf4jnsgd1na2vs0mg"},{"bike_id":"f24f4045-aa0f-4bfd-a60b-f7a7798072f9","system_id":"levelo_inurba_marseille","lat":43.29004,"lon":5.35611,"is_reserved":false,"is_disabled":true,"rental_uris":{"android":"levelo://app?vid=f24f4045-aa0f-4bfd-a60b-f7a7798072f9","ios":"levelo://app?vid=f24f4045-aa0f-4bfd-a60b-f7a7798072f9"},"vehicle_type_id":"4","last_reported":1737738447,"current_range_meters":2000,"station_id":"ce4bhb92rcd13ifvqen0","pricing_plan_id":"cebpf4jnsgd1na2vs0mg"},{"bike_id":"80595d64-a87a-41ff-ac84-28dcea51283a","system_id":"levelo_inurba_marseille","lat":43.32111,"lon":5.36766,"is_reserved":false,"is_disabled":false,"rental_uris":{"android":"levelo://app?vid=80595d64-a87a-41ff-ac84-28dcea51283a","ios":"levelo://app?vid=80595d64-a87a-41ff-ac84-28dcea51283a"},"vehicle_type_id":"4","last_reported":1737738447,"current_range_meters":29600,"station_id":"ce4bhrh2rcd13ifvqhug","pricing_plan_id":"cebpf4jnsgd1na2vs0mg"},{"bike_id":"c332eb18-da46-4418-bb01-a450cb74ad34","system_id":"levelo_inurba_marseille","lat":43.25112,"lon":5.40338,"is_reserved":false,"is_disabled":true,"rental_uris":{"android":"levelo://app?vid=c332eb18-da46-4418-bb01-a450cb74ad34","ios":"levelo://app?vid=c332eb18-da46-4418-bb01-a450cb74ad34"},"vehicle_type_id":"4","last_reported":1737738447,"current_range_meters":800,"station_id":"ce4bhlh2rcd13ifvqgig","pricing_plan_id":"cebpf4jnsgd1na2vs0mg"},{"bike_id":"7dac3dcc-5ae5-4ce6-982f-edc56f079adb","system_id":"levelo_inurba_marseille","lat":43.26811,"lon":5.40276,"is_reserved":false,"is_disabled":true,"rental_uris":{"android":"levelo://app?vid=7dac3dcc-5ae5-4ce6-982f-edc56f079adb","ios":"levelo://app?vid=7dac3dcc-5ae5-4ce6-982f-edc56f079adb"},"vehicle_type_id":"4","last_reported":1737738447,"current_range_meters":0,"station_id":"ce501612rcd8frsf0b60","pricing_plan_id":"cebpf4jnsgd1na2vs0mg"},{"bike_id":"0440750b-7f49-499b-a510-750365de11e4","system_id":"levelo_inurba_marseille","lat":43.31987,"lon":5.38134,"is_reserved":false,"is_disabled":false,"rental_uris":{"android":"levelo://app?vid=0440750b-7f49-499b-a510-750365de11e4","ios":"levelo://app?vid=0440750b-7f49-499b-a510-750365de11e4"},"vehicle_type_id":"4","last_reported":1737738447,"current_range_meters":24000,"station_id":"ce4bhr12rcd13ifvqhpg","pricing_plan_id":"cebpf4jnsgd1na2vs0mg"},{"bike_id":"c491b9d7-9629-4215-bdb7-4fec9c846c78","system_id":"levelo_inurba_marseille","lat":43.31748,"lon":5.39013,"is_reserved":false,"is_disabled":false,"rental_uris":{"android":"levelo://app?vid=c491b9d7-9629-4215-bdb7-4fec9c846c78","ios":"levelo://app?vid=c491b9d7-9629-4215-bdb7-4fec9c846c78"},"vehicle_type_id":"4","last_reported":1737738447,"current_range_meters":36400,"station_id":"ce4bhqp2rcd13ifvqhng","pricing_plan_id":"cebpf4jnsgd1na2vs0mg"},{"bike_id":"c232d1c2-2e46-423d-a2b1-40d3b09662dd","system_id":"levelo_inurba_marseille","lat":43.30314,"lon":5.39211,"is_reserved":false,"is_disabled":false,"rental_uris":{"android":"levelo://app?vid=c232d1c2-2e46-423d-a2b1-40d3b09662dd","ios":"levelo://app?vid=c232d1c2-2e46-423d-a2b1-40d3b09662dd"},"vehicle_type_id":"4","last_reported":1737738447,"current_range_meters":30400,"station_id":"ce4bgkh2rcd13ifvqbk0","pricing_plan_id":"cebpf4jnsgd1na2vs0mg"},{"bike_id":"e91204e9-d4fe-4e30-81a6-71464f86006e","system_id":"levelo_inurba_marseille","lat":43.29918,"lon":5.38128,"is_reserved":false,"is_disabled":true,"rental_uris":{"android":"levelo://app?vid=e91204e9-d4fe-4e30-81a6-71464f86006e","ios":"levelo://app?vid=e91204e9-d4fe-4e30-81a6-71464f86006e"},"vehicle_type_id":"4","last_reported":1737738447,"current_range_meters":38400,"station_id":"ce4bgj12rcd13ifvqbc0","pricing_plan_id":"cebpf4jnsgd1na2vs0mg"},{"bike_id":"80e0d6ee-7cca-41de-b7c0-08bf276c8980","system_id":"levelo_inurba_marseille","lat":43.29262,"lon":5.40911,"is_reserved":false,"is_disabled":false,"rental_uris":{"android":"levelo://app?vid=80e0d6ee-7cca-41de-b7c0-08bf276c8980","ios":"levelo://app?vid=80e0d6ee-7cca-41de-b7c0-08bf276c8980"},"vehicle_type_id":"4","last_reported":1737738447,"current_range_meters":38800,"station_id":"ce4bh192rcd13ifvqdc0","pricing_plan_id":"cebpf4jnsgd1na2vs0mg"},{"bike_id":"1ceb8c63-17a1-4dc2-90e1-9ee2c3d9f714","system_id":"levelo_inurba_marseille","lat":43.26938,"lon":5.40243,"is_reserved":false,"is_disabled":false,"rental_uris":{"android":"levelo://app?vid=1ceb8c63-17a1-4dc2-90e1-9ee2c3d9f714","ios":"levelo://app?vid=1ceb8c63-17a1-4dc2-90e1-9ee2c3d9f714"},"vehicle_type_id":"4","last_reported":1737738447,"current_range_meters":39200,"station_id":"cjm6bp8fraef2m0cb0m0","pricing_plan_id":"cebpf4jnsgd1na2vs0mg"},{"bike_id":"77be54b4-8ab4-423e-9087-b9ce774f0ebf","system_id":"levelo_inurba_marseille","lat":43.30207,"lon":5.39456,"is_reserved":false,"is_disabled":true,"rental_uris":{"android":"levelo://app?vid=77be54b4-8ab4-423e-9087-b9ce774f0ebf","ios":"levelo://app?vid=77be54b4-8ab4-423e-9087-b9ce774f0ebf"},"vehicle_type_id":"4","last_reported":1737738447,"current_range_meters":2000,"station_id":"ce4bh0p2rcd13ifvqd70","pricing_plan_id":"cebpf4jnsgd1na2vs0mg"},{"bike_id":"6d1c7757-cbfa-452f-8195-daacd34f212b","system_id":"levelo_inurba_marseille","lat":43.23066,"lon":5.35496,"is_reserved":false,"is_disabled":false,"rental_uris":{"android":"levelo://app?vid=6d1c7757-cbfa-452f-8195-daacd34f212b","ios":"levelo://app?vid=6d1c7757-cbfa-452f-8195-daacd34f212b"},"vehicle_type_id":"4","last_reported":1737738447,"current_range_meters":38800,"station_id":"cpo3342slgdg3j2ifvpg","pricing_plan_id":"cebpf4jnsgd1na2vs0mg"},{"bike_id":"b3b086a7-760a-47c6-92ff-a59abab0f0d9","system_id":"levelo_inurba_marseille","lat":43.2319,"lon":5.39989,"is_reserved":false,"is_disabled":true,"rental_uris":{"android":"levelo://app?vid=b3b086a7-760a-47c6-92ff-a59abab0f0d9","ios":"levelo://app?vid=b3b086a7-760a-47c6-92ff-a59abab0f0d9"},"vehicle_type_id":"4","last_reported":1737738447,"current_range_meters":1200,"station_id":"ce4bhn12rcd13ifvqgqg","pricing_plan_id":"cebpf4jnsgd1na2vs0mg"},{"bike_id":"4ad8fef8-001a-43f3-97cd-6292881adb6f","system_id":"levelo_inurba_marseille","lat":43.29031,"lon":5.39956,"is_reserved":false,"is_disabled":true,"rental_uris":{"android":"levelo://app?vid=4ad8fef8-001a-43f3-97cd-6292881adb6f","ios":"levelo://app?vid=4ad8fef8-001a-43f3-97cd-6292881adb6f"},"vehicle_type_id":"4","last_reported":1737738447,"current_range_meters":0,"station_id":"ce4bh392rcd13ifvqdm0","pricing_plan_id":"cebpf4jnsgd1na2vs0mg"},{"bike_id":"97a79533-09ce-475a-8fd9-1dc2e7293189","system_id":"levelo_inurba_marseille","lat":43.28154,"lon":5.42643,"is_reserved":false,"is_disabled":false,"rental_uris":{"android":"levelo://app?vid=97a79533-09ce-475a-8fd9-1dc2e7293189","ios":"levelo://app?vid=97a79533-09ce-475a-8fd9-1dc2e7293189"},"vehicle_type_id":"4","last_reported":1737738447,"current_range_meters":20800,"station_id":"ce4bhnh2rcd13ifvqgug","pricing_plan_id":"cebpf4jnsgd1na2vs0mg"},{"bike_id":"f253fc82-7ca1-4c38-a41a-566478bb536e","system_id":"levelo_inurba_marseille","lat":43.28043,"lon":5.36944,"is_reserved":false,"is_disabled":false,"rental_uris":{"android":"levelo://app?vid=f253fc82-7ca1-4c38-a41a-566478bb536e","ios":"levelo://app?vid=f253fc82-7ca1-4c38-a41a-566478bb536e"},"vehicle_type_id":"4","last_reported":1737738447,"current_range_meters":38800,"station_id":"ce4bha12rcd13ifvqef0","pricing_plan_id":"cebpf4jnsgd1na2vs0mg"},{"bike_id":"c287a3ed-5ab1-4fe0-a917-cf5ecb40f512","system_id":"levelo_inurba_marseille","lat":43.29268,"lon":5.38438,"is_reserved":false,"is_disabled":true,"rental_uris":{"android":"levelo://app?vid=c287a3ed-5ab1-4fe0-a917-cf5ecb40f512","ios":"levelo://app?vid=c287a3ed-5ab1-4fe0-a917-cf5ecb40f512"},"vehicle_type_id":"4","last_reported":1737738447,"current_range_meters":22000,"station_id":"ce4bh692rcd13ifvqea0","pricing_plan_id":"cebpf4jnsgd1na2vs0mg"},{"bike_id":"9838cc78-2b53-49d3-ae13-82df62c4fd64","system_id":"levelo_inurba_marseille","lat":43.28461,"lon":5.40932,"is_reserved":false,"is_disabled":true,"rental_uris":{"android":"levelo://app?vid=9838cc78-2b53-49d3-ae13-82df62c4fd64","ios":"levelo://app?vid=9838cc78-2b53-49d3-ae13-82df62c4fd64"},"vehicle_type_id":"4","last_reported":1737738447,"current_range_meters":400,"station_id":"","pricing_plan_id":"cebpf4jnsgd1na2vs0mg"},{"bike_id":"bf096a89-ee72-4f37-85bd-7b3cf9f0cb41","system_id":"levelo_inurba_marseille","lat":43.31936,"lon":5.3791,"is_reserved":false,"is_disabled":false,"rental_uris":{"android":"levelo://app?vid=bf096a89-ee72-4f37-85bd-7b3cf9f0cb41","ios":"levelo://app?vid=bf096a89-ee72-4f37-85bd-7b3cf9f0cb41"},"vehicle_type_id":"4","last_reported":1737738447,"current_range_meters":34800,"station_id":"","pricing_plan_id":"cebpf4jnsgd1na2vs0mg"},{"bike_id":"b1a31b37-3c6a-43de-ac18-6b6b299e2d44","system_id":"levelo_inurba_marseille","lat":43.2551,"lon":5.37642,"is_reserved":false,"is_disabled":false,"rental_uris":{"android":"levelo://app?vid=b1a31b37-3c6a-43de-ac18-6b6b299e2d44","ios":"levelo://app?vid=b1a31b37-3c6a-43de-ac18-6b6b299e2d44"},"vehicle_type_id":"4","last_reported":1737738447,"current_range_meters":7200,"station_id":"ce4bhh12rcd13ifvqff0","pricing_plan_id":"cebpf4jnsgd1na2vs0mg"},{"bike_id":"28147011-c67e-40a5-ada1-04f84de86554","system_id":"levelo_inurba_marseille","lat":43.32077,"lon":5.37454,"is_reserved":false,"is_disabled":true,"rental_uris":{"android":"levelo://app?vid=28147011-c67e-40a5-ada1-04f84de86554","ios":"levelo://app?vid=28147011-c67e-40a5-ada1-04f84de86554"},"vehicle_type_id":"4","last_reported":1737738447,"current_range_meters":800,"station_id":"","pricing_plan_id":"cebpf4jnsgd1na2vs0mg"},{"bike_id":"6e85593a-5c6f-467c-8d07-8905935a2781","system_id":"levelo_inurba_marseille","lat":43.29873,"lon":5.39738,"is_reserved":false,"is_disabled":false,"rental_uris":{"android":"levelo://app?vid=6e85593a-5c6f-467c-8d07-8905935a2781","ios":"levelo://app?vid=6e85593a-5c6f-467c-8d07-8905935a2781"},"vehicle_type_id":"4","last_reported":1737738447,"current_range_meters":15200,"station_id":"ce4bh0h2rcd13ifvqd50","pricing_plan_id":"cebpf4jnsgd1na2vs0mg"},{"bike_id":"8f868d3a-4ca0-4286-9472-18ff550a4cd1","system_id":"levelo_inurba_marseille","lat":43.24078,"lon":5.37752,"is_reserved":false,"is_disabled":false,"rental_uris":{"android":"levelo://app?vid=8f868d3a-4ca0-4286-9472-18ff550a4cd1","ios":"levelo://app?vid=8f868d3a-4ca0-4286-9472-18ff550a4cd1"},"vehicle_type_id":"4","last_reported":1737738447,"current_range_meters":32400,"station_id":"ce4bhnp2rcd13ifvqgvg","pricing_plan_id":"cebpf4jnsgd1na2vs0mg"},{"bike_id":"9b328994-47ac-41dd-bf1a-63ed25bb6723","system_id":"levelo_inurba_marseille","lat":43.29447,"lon":5.39738,"is_reserved":false,"is_disabled":false,"rental_uris":{"android":"levelo://app?vid=9b328994-47ac-41dd-bf1a-63ed25bb6723","ios":"levelo://app?vid=9b328994-47ac-41dd-bf1a-63ed25bb6723"},"vehicle_type_id":"4","last_reported":1737738447,"current_range_meters":38800,"station_id":"ce4bh3h2rcd13ifvqdo0","pricing_plan_id":"cebpf4jnsgd1na2vs0mg"},{"bike_id":"e6fed224-e420-4150-9f76-4b1a14407d3e","system_id":"levelo_inurba_marseille","lat":43.24167,"lon":5.36386,"is_reserved":false,"is_disabled":false,"rental_uris":{"android":"levelo://app?vid=e6fed224-e420-4150-9f76-4b1a14407d3e","ios":"levelo://app?vid=e6fed224-e420-4150-9f76-4b1a14407d3e"},"vehicle_type_id":"4","last_reported":1737738447,"current_range_meters":6400,"station_id":"cpo36qri1sfpv3e86is0","pricing_plan_id":"cebpf4jnsgd1na2vs0mg"},{"bike_id":"c276da85-c857-4b0d-8792-c2826228a14c","system_id":"levelo_inurba_marseille","lat":43.2395,"lon":5.36646,"is_reserved":false,"is_disabled":false,"rental_uris":{"android":"levelo://app?vid=c276da85-c857-4b0d-8792-c2826228a14c","ios":"levelo://app?vid=c276da85-c857-4b0d-8792-c2826228a14c"},"vehicle_type_id":"4","last_reported":1737738447,"current_range_meters":28800,"station_id":"ce4bhi12rcd13ifvqfp0","pricing_plan_id":"cebpf4jnsgd1na2vs0mg"},{"bike_id":"2068ce80-1659-42b4-945e-19e0e5710b37","system_id":"levelo_inurba_marseille","lat":43.29712,"lon":5.36631,"is_reserved":false,"is_disabled":true,"rental_uris":{"android":"levelo://app?vid=2068ce80-1659-42b4-945e-19e0e5710b37","ios":"levelo://app?vid=2068ce80-1659-42b4-945e-19e0e5710b37"},"vehicle_type_id":"4","last_reported":1737738447,"current_range_meters":37600,"station_id":"ce4bgn12rcd13ifvqbt0","pricing_plan_id":"cebpf4jnsgd1na2vs0mg"},{"bike_id":"867d41e1-ec2e-4484-a31e-d471983f0ab7","system_id":"levelo_inurba_marseille","lat":43.33397,"lon":5.40075,"is_reserved":false,"is_disabled":false,"rental_uris":{"android":"levelo://app?vid=867d41e1-ec2e-4484-a31e-d471983f0ab7","ios":"levelo://app?vid=867d41e1-ec2e-4484-a31e-d471983f0ab7"},"vehicle_type_id":"4","last_reported":1737738447,"current_range_meters":18000,"station_id":"","pricing_plan_id":"cebpf4jnsgd1na2vs0mg"},{"bike_id":"f677bccc-430a-4fa3-ba35-5ace5a253ef0","system_id":"levelo_inurba_marseille","lat":43.28733,"lon":5.36079,"is_reserved":false,"is_disabled":false,"rental_uris":{"android":"levelo://app?vid=f677bccc-430a-4fa3-ba35-5ace5a253ef0","ios":"levelo://app?vid=f677bccc-430a-4fa3-ba35-5ace5a253ef0"},"vehicle_type_id":"4","last_reported":1737738447,"current_range_meters":38800,"station_id":"cki0cbj6b192h4jlfktg","pricing_plan_id":"cebpf4jnsgd1na2vs0mg"},{"bike_id":"4a096e8f-a751-49a9-914d-b6802fe88b01","system_id":"levelo_inurba_marseille","lat":43.30429,"lon":5.38889,"is_reserved":false,"is_disabled":false,"rental_uris":{"android":"levelo://app?vid=4a096e8f-a751-49a9-914d-b6802fe88b01","ios":"levelo://app?vid=4a096e8f-a751-49a9-914d-b6802fe88b01"},"vehicle_type_id":"4","last_reported":1737738447,"current_range_meters":38800,"station_id":"ce4bgk12rcd13ifvqbi0","pricing_plan_id":"cebpf4jnsgd1na2vs0mg"},{"bike_id":"c2bc794a-e1ca-4f94-862d-4cbbd10a2d55","system_id":"levelo_inurba_marseille","lat":43.29007,"lon":5.3561,"is_reserved":false,"is_disabled":false,"rental_uris":{"android":"levelo://app?vid=c2bc794a-e1ca-4f94-862d-4cbbd10a2d55","ios":"levelo://app?vid=c2bc794a-e1ca-4f94-862d-4cbbd10a2d55"},"vehicle_type_id":"4","last_reported":1737738447,"current_range_meters":7200,"station_id":"ce4bhb92rcd13ifvqen0","pricing_plan_id":"cebpf4jnsgd1na2vs0mg"},{"bike_id":"25550bba-d80a-41d4-a2b9-d23dea26a22e","system_id":"levelo_inurba_marseille","lat":43.33021,"lon":5.39064,"is_reserved":false,"is_disabled":false,"rental_uris":{"android":"levelo://app?vid=25550bba-d80a-41d4-a2b9-d23dea26a22e","ios":"levelo://app?vid=25550bba-d80a-41d4-a2b9-d23dea26a22e"},"vehicle_type_id":"4","last_reported":1737738447,"current_range_meters":5600,"station_id":"ce4bhr92rcd13ifvqhrg","pricing_plan_id":"cebpf4jnsgd1na2vs0mg"},{"bike_id":"a11714f3-e1be-4a4b-9f4a-b0e117155248","system_id":"levelo_inurba_marseille","lat":43.31486,"lon":5.37312,"is_reserved":false,"is_disabled":false,"rental_uris":{"android":"levelo://app?vid=a11714f3-e1be-4a4b-9f4a-b0e117155248","ios":"levelo://app?vid=a11714f3-e1be-4a4b-9f4a-b0e117155248"},"vehicle_type_id":"4","last_reported":1737738447,"current_range_meters":10000,"station_id":"ce4bgt12rcd13ifvqcd0","pricing_plan_id":"cebpf4jnsgd1na2vs0mg"},{"bike_id":"358abbba-bcda-4dcf-ac9a-0dd24d997ac8","system_id":"levelo_inurba_marseille","lat":43.29454,"lon":5.39757,"is_reserved":false,"is_disabled":false,"rental_uris":{"android":"levelo://app?vid=358abbba-bcda-4dcf-ac9a-0dd24d997ac8","ios":"levelo://app?vid=358abbba-bcda-4dcf-ac9a-0dd24d997ac8"},"vehicle_type_id":"4","last_reported":1737738447,"current_range_meters":38800,"station_id":"ce4bh3h2rcd13ifvqdo0","pricing_plan_id":"cebpf4jnsgd1na2vs0mg"},{"bike_id":"6b358356-e9c1-4220-9959-a063813f1c64","system_id":"levelo_inurba_marseille","lat":43.3248,"lon":5.3659,"is_reserved":false,"is_disabled":false,"rental_uris":{"android":"levelo://app?vid=6b358356-e9c1-4220-9959-a063813f1c64","ios":"levelo://app?vid=6b358356-e9c1-4220-9959-a063813f1c64"},"vehicle_type_id":"4","last_reported":1737738447,"current_range_meters":21600,"station_id":"ce4bhs12rcd13ifvqhvg","pricing_plan_id":"cebpf4jnsgd1na2vs0mg"},{"bike_id":"1d6e0890-5e91-4afd-a86d-23bce9678ce7","system_id":"levelo_inurba_marseille","lat":43.2679,"lon":5.39409,"is_reserved":false,"is_disabled":false,"rental_uris":{"android":"levelo://app?vid=1d6e0890-5e91-4afd-a86d-23bce9678ce7","ios":"levelo://app?vid=1d6e0890-5e91-4afd-a86d-23bce9678ce7"},"vehicle_type_id":"4","last_reported":1737738447,"current_range_meters":32000,"station_id":"ce4bhh12rcd13ifvqfg0","pricing_plan_id":"cebpf4jnsgd1na2vs0mg"},{"bike_id":"347dd29e-9a9e-4a37-8ddd-6e2050aaff03","system_id":"levelo_inurba_marseille","lat":43.33737,"lon":5.39191,"is_reserved":false,"is_disabled":false,"rental_uris":{"android":"levelo://app?vid=347dd29e-9a9e-4a37-8ddd-6e2050aaff03","ios":"levelo://app?vid=347dd29e-9a9e-4a37-8ddd-6e2050aaff03"},"vehicle_type_id":"4","last_reported":1737738447,"current_range_meters":38000,"station_id":"ce4bhr92rcd13ifvqhsg","pricing_plan_id":"cebpf4jnsgd1na2vs0mg"},{"bike_id":"a106a956-8f9b-45e8-a7db-e8e3a51eab45","system_id":"levelo_inurba_marseille","lat":43.3171,"lon":5.43707,"is_reserved":false,"is_disabled":false,"rental_uris":{"android":"levelo://app?vid=a106a956-8f9b-45e8-a7db-e8e3a51eab45","ios":"levelo://app?vid=a106a956-8f9b-45e8-a7db-e8e3a51eab45"},"vehicle_type_id":"4","last_reported":1737738447,"current_range_meters":18800,"station_id":"ce4bhp92rcd13ifvqhcg","pricing_plan_id":"cebpf4jnsgd1na2vs0mg"},{"bike_id":"d7dbec56-3cb4-42dd-970e-b1e8e7b8f352","system_id":"levelo_inurba_marseille","lat":43.26671,"lon":5.38278,"is_reserved":false,"is_disabled":false,"rental_uris":{"android":"levelo://app?vid=d7dbec56-3cb4-42dd-970e-b1e8e7b8f352","ios":"levelo://app?vid=d7dbec56-3cb4-42dd-970e-b1e8e7b8f352"},"vehicle_type_id":"4","last_reported":1737738447,"current_range_meters":39200,"station_id":"ce4bhg92rcd13ifvqf90","pricing_plan_id":"cebpf4jnsgd1na2vs0mg"},{"bike_id":"ee425347-df5f-4730-9a1e-839c861481c0","system_id":"levelo_inurba_marseille","lat":43.28664,"lon":5.36343,"is_reserved":false,"is_disabled":false,"rental_uris":{"android":"levelo://app?vid=ee425347-df5f-4730-9a1e-839c861481c0","ios":"levelo://app?vid=ee425347-df5f-4730-9a1e-839c861481c0"},"vehicle_type_id":"4","last_reported":1737738447,"current_range_meters":30400,"station_id":"ce4bhah2rcd13ifvqej0","pricing_plan_id":"cebpf4jnsgd1na2vs0mg"},{"bike_id":"f8ea2046-cba1-432a-b3c5-e15c802e7278","system_id":"levelo_inurba_marseille","lat":43.23967,"lon":5.36627,"is_reserved":false,"is_disabled":false,"rental_uris":{"android":"levelo://app?vid=f8ea2046-cba1-432a-b3c5-e15c802e7278","ios":"levelo://app?vid=f8ea2046-cba1-432a-b3c5-e15c802e7278"},"vehicle_type_id":"4","last_reported":1737738447,"current_range_meters":33600,"station_id":"ce4bhi12rcd13ifvqfp0","pricing_plan_id":"cebpf4jnsgd1na2vs0mg"},{"bike_id":"39165181-b597-4a98-b841-df0811673e2b","system_id":"levelo_inurba_marseille","lat":43.28619,"lon":5.35103,"is_reserved":false,"is_disabled":false,"rental_uris":{"android":"levelo://app?vid=39165181-b597-4a98-b841-df0811673e2b","ios":"levelo://app?vid=39165181-b597-4a98-b841-df0811673e2b"},"vehicle_type_id":"4","last_reported":1737738447,"current_range_meters":7200,"station_id":"ce4bhch2rcd13ifvqeug","pricing_plan_id":"cebpf4jnsgd1na2vs0mg"},{"bike_id":"90b8a1b1-ad54-458d-9362-f5197bbdf048","system_id":"levelo_inurba_marseille","lat":43.22942,"lon":5.35373,"is_reserved":false,"is_disabled":false,"rental_uris":{"android":"levelo://app?vid=90b8a1b1-ad54-458d-9362-f5197bbdf048","ios":"levelo://app?vid=90b8a1b1-ad54-458d-9362-f5197bbdf048"},"vehicle_type_id":"4","last_reported":1737738447,"current_range_meters":38800,"station_id":"cpo3532slgdg3j2ikp40","pricing_plan_id":"cebpf4jnsgd1na2vs0mg"},{"bike_id":"3c11b3ae-daca-4746-9ef3-d8c9a83ee0e2","system_id":"levelo_inurba_marseille","lat":43.30829,"lon":5.366564,"is_reserved":false,"is_disabled":false,"rental_uris":{"android":"levelo://app?vid=3c11b3ae-daca-4746-9ef3-d8c9a83ee0e2","ios":"levelo://app?vid=3c11b3ae-daca-4746-9ef3-d8c9a83ee0e2"},"vehicle_type_id":"4","last_reported":1737738447,"current_range_meters":27600,"station_id":"ce4bhs12rcd13ifvqhvg","pricing_plan_id":"cebpf4jnsgd1na2vs0mg"},{"bike_id":"31bef50f-e464-4b71-8639-fa847ee5d165","system_id":"levelo_inurba_marseille","lat":43.2782,"lon":5.40699,"is_reserved":false,"is_disabled":false,"rental_uris":{"android":"levelo://app?vid=31bef50f-e464-4b71-8639-fa847ee5d165","ios":"levelo://app?vid=31bef50f-e464-4b71-8639-fa847ee5d165"},"vehicle_type_id":"4","last_reported":1737738447,"current_range_meters":18000,"station_id":"ce4bhnh2rcd13ifvqgtg","pricing_plan_id":"cebpf4jnsgd1na2vs0mg"},{"bike_id":"b57a8950-51d3-40ac-aae7-e29da7f5189a","system_id":"levelo_inurba_marseille","lat":43.28942,"lon":5.36643,"is_reserved":false,"is_disabled":false,"rental_uris":{"android":"levelo://app?vid=b57a8950-51d3-40ac-aae7-e29da7f5189a","ios":"levelo://app?vid=b57a8950-51d3-40ac-aae7-e29da7f5189a"},"vehicle_type_id":"4","last_reported":1737738447,"current_range_meters":29600,"station_id":"ce4bhap2rcd13ifvqek0","pricing_plan_id":"cebpf4jnsgd1na2vs0mg"},{"bike_id":"8ff962ea-81e9-4c03-98aa-b5a52cd9af1d","system_id":"levelo_inurba_marseille","lat":43.32481,"lon":5.36571,"is_reserved":false,"is_disabled":false,"rental_uris":{"android":"levelo://app?vid=8ff962ea-81e9-4c03-98aa-b5a52cd9af1d","ios":"levelo://app?vid=8ff962ea-81e9-4c03-98aa-b5a52cd9af1d"},"vehicle_type_id":"4","last_reported":1737738447,"current_range_meters":16800,"station_id":"ce4bhs12rcd13ifvqhvg","pricing_plan_id":"cebpf4jnsgd1na2vs0mg"},{"bike_id":"ffcd014f-487e-40c9-9d65-afa730d80dec","system_id":"levelo_inurba_marseille","lat":43.30783,"lon":5.38161,"is_reserved":false,"is_disabled":false,"rental_uris":{"android":"levelo://app?vid=ffcd014f-487e-40c9-9d65-afa730d80dec","ios":"levelo://app?vid=ffcd014f-487e-40c9-9d65-afa730d80dec"},"vehicle_type_id":"4","last_reported":1737738447,"current_range_meters":1200,"station_id":"ce4bgt12rcd13ifvqce0","pricing_plan_id":"cebpf4jnsgd1na2vs0mg"},{"bike_id":"c210faa8-2216-4d91-a628-483b723d5ef5","system_id":"levelo_inurba_marseille","lat":43.29477,"lon":5.37475,"is_reserved":false,"is_disabled":false,"rental_uris":{"android":"levelo://app?vid=c210faa8-2216-4d91-a628-483b723d5ef5","ios":"levelo://app?vid=c210faa8-2216-4d91-a628-483b723d5ef5"},"vehicle_type_id":"4","last_reported":1737738447,"current_range_meters":38800,"station_id":"ce4bhb12rcd13ifvqel0","pricing_plan_id":"cebpf4jnsgd1na2vs0mg"},{"bike_id":"ce90fea6-ff2a-4d0b-bd4f-45ced0acf4c0","system_id":"levelo_inurba_marseille","lat":43.323653,"lon":5.367537,"is_reserved":false,"is_disabled":false,"rental_uris":{"android":"levelo://app?vid=ce90fea6-ff2a-4d0b-bd4f-45ced0acf4c0","ios":"levelo://app?vid=ce90fea6-ff2a-4d0b-bd4f-45ced0acf4c0"},"vehicle_type_id":"4","last_reported":1737738447,"current_range_meters":8000,"station_id":"ce4bhsh2rcd13ifvqi2g","pricing_plan_id":"cebpf4jnsgd1na2vs0mg"},{"bike_id":"c95526c7-2007-4fdb-86c4-f2ea29dd5fb5","system_id":"levelo_inurba_marseille","lat":43.29267,"lon":5.38435,"is_reserved":false,"is_disabled":false,"rental_uris":{"android":"levelo://app?vid=c95526c7-2007-4fdb-86c4-f2ea29dd5fb5","ios":"levelo://app?vid=c95526c7-2007-4fdb-86c4-f2ea29dd5fb5"},"vehicle_type_id":"4","last_reported":1737738447,"current_range_meters":38800,"station_id":"ce4bh692rcd13ifvqea0","pricing_plan_id":"cebpf4jnsgd1na2vs0mg"},{"bike_id":"8609669b-68c7-4651-8463-8b069e6b3840","system_id":"levelo_inurba_marseille","lat":43.31986,"lon":5.38163,"is_reserved":false,"is_disabled":false,"rental_uris":{"android":"levelo://app?vid=8609669b-68c7-4651-8463-8b069e6b3840","ios":"levelo://app?vid=8609669b-68c7-4651-8463-8b069e6b3840"},"vehicle_type_id":"4","last_reported":1737738447,"current_range_meters":38400,"station_id":"ce4bhr12rcd13ifvqhpg","pricing_plan_id":"cebpf4jnsgd1na2vs0mg"},{"bike_id":"e04d6439-d3f0-49e1-ae5b-7959ba70aeaa","system_id":"levelo_inurba_marseille","lat":43.28033,"lon":5.36949,"is_reserved":false,"is_disabled":false,"rental_uris":{"android":"levelo://app?vid=e04d6439-d3f0-49e1-ae5b-7959ba70aeaa","ios":"levelo://app?vid=e04d6439-d3f0-49e1-ae5b-7959ba70aeaa"},"vehicle_type_id":"4","last_reported":1737738447,"current_range_meters":22400,"station_id":"ce4bha12rcd13ifvqef0","pricing_plan_id":"cebpf4jnsgd1na2vs0mg"},{"bike_id":"cf6285a9-f75c-4f38-bb8a-70ce67a4ee67","system_id":"levelo_inurba_marseille","lat":43.25827,"lon":5.39427,"is_reserved":false,"is_disabled":false,"rental_uris":{"android":"levelo://app?vid=cf6285a9-f75c-4f38-bb8a-70ce67a4ee67","ios":"levelo://app?vid=cf6285a9-f75c-4f38-bb8a-70ce67a4ee67"},"vehicle_type_id":"4","last_reported":1737738447,"current_range_meters":22400,"station_id":"ce4bhip2rcd13ifvqft0","pricing_plan_id":"cebpf4jnsgd1na2vs0mg"},{"bike_id":"78b03264-0c2d-45b5-9b0a-cf7cc454c0c6","system_id":"levelo_inurba_marseille","lat":43.32487,"lon":5.3655,"is_reserved":false,"is_disabled":false,"rental_uris":{"android":"levelo://app?vid=78b03264-0c2d-45b5-9b0a-cf7cc454c0c6","ios":"levelo://app?vid=78b03264-0c2d-45b5-9b0a-cf7cc454c0c6"},"vehicle_type_id":"4","last_reported":1737738447,"current_range_meters":36800,"station_id":"ce4bhs12rcd13ifvqhvg","pricing_plan_id":"cebpf4jnsgd1na2vs0mg"},{"bike_id":"0f1149fc-a9ba-46df-b87f-b0af2b1e5427","system_id":"levelo_inurba_marseille","lat":43.28562,"lon":5.39479,"is_reserved":false,"is_disabled":false,"rental_uris":{"android":"levelo://app?vid=0f1149fc-a9ba-46df-b87f-b0af2b1e5427","ios":"levelo://app?vid=0f1149fc-a9ba-46df-b87f-b0af2b1e5427"},"vehicle_type_id":"4","last_reported":1737738447,"current_range_meters":38800,"station_id":"ce4bh292rcd13ifvqdg0","pricing_plan_id":"cebpf4jnsgd1na2vs0mg"},{"bike_id":"95da5a23-1ac2-4b10-af43-f2b2c6a100ca","system_id":"levelo_inurba_marseille","lat":43.30429,"lon":5.38899,"is_reserved":false,"is_disabled":false,"rental_uris":{"android":"levelo://app?vid=95da5a23-1ac2-4b10-af43-f2b2c6a100ca","ios":"levelo://app?vid=95da5a23-1ac2-4b10-af43-f2b2c6a100ca"},"vehicle_type_id":"4","last_reported":1737738447,"current_range_meters":14000,"station_id":"ce4bgk12rcd13ifvqbi0","pricing_plan_id":"cebpf4jnsgd1na2vs0mg"},{"bike_id":"b88cebb6-0d80-403f-871e-116b9793c11e","system_id":"levelo_inurba_marseille","lat":43.31327,"lon":5.39695,"is_reserved":false,"is_disabled":false,"rental_uris":{"android":"levelo://app?vid=b88cebb6-0d80-403f-871e-116b9793c11e","ios":"levelo://app?vid=b88cebb6-0d80-403f-871e-116b9793c11e"},"vehicle_type_id":"4","last_reported":1737738447,"current_range_meters":27600,"station_id":"ce4bgvp2rcd13ifvqcu0","pricing_plan_id":"cebpf4jnsgd1na2vs0mg"},{"bike_id":"69f4792e-be06-47b3-ae58-6295eea84adb","system_id":"levelo_inurba_marseille","lat":43.27425,"lon":5.39426,"is_reserved":false,"is_disabled":false,"rental_uris":{"android":"levelo://app?vid=69f4792e-be06-47b3-ae58-6295eea84adb","ios":"levelo://app?vid=69f4792e-be06-47b3-ae58-6295eea84adb"},"vehicle_type_id":"4","last_reported":1737738447,"current_range_meters":11200,"station_id":"ce4bhdp2rcd13ifvqf20","pricing_plan_id":"cebpf4jnsgd1na2vs0mg"},{"bike_id":"85c4b304-0a15-4fc1-b75d-cfc16b5afe60","system_id":"levelo_inurba_marseille","lat":43.2295,"lon":5.35378,"is_reserved":false,"is_disabled":false,"rental_uris":{"android":"levelo://app?vid=85c4b304-0a15-4fc1-b75d-cfc16b5afe60","ios":"levelo://app?vid=85c4b304-0a15-4fc1-b75d-cfc16b5afe60"},"vehicle_type_id":"4","last_reported":1737738447,"current_range_meters":38800,"station_id":"cpo3532slgdg3j2ikp40","pricing_plan_id":"cebpf4jnsgd1na2vs0mg"},{"bike_id":"2e5719b7-44be-401a-8155-f09dadbef50e","system_id":"levelo_inurba_marseille","lat":43.28157,"lon":5.42641,"is_reserved":false,"is_disabled":true,"rental_uris":{"android":"levelo://app?vid=2e5719b7-44be-401a-8155-f09dadbef50e","ios":"levelo://app?vid=2e5719b7-44be-401a-8155-f09dadbef50e"},"vehicle_type_id":"4","last_reported":1737738447,"current_range_meters":2000,"station_id":"ce4bhnh2rcd13ifvqgug","pricing_plan_id":"cebpf4jnsgd1na2vs0mg"},{"bike_id":"4d0f5f2a-f13f-4c4a-b8b5-8662c81757a7","system_id":"levelo_inurba_marseille","lat":43.29516,"lon":5.39043,"is_reserved":false,"is_disabled":false,"rental_uris":{"android":"levelo://app?vid=4d0f5f2a-f13f-4c4a-b8b5-8662c81757a7","ios":"levelo://app?vid=4d0f5f2a-f13f-4c4a-b8b5-8662c81757a7"},"vehicle_type_id":"4","last_reported":1737738447,"current_range_meters":38800,"station_id":"ce4bh3p2rcd13ifvqdp0","pricing_plan_id":"cebpf4jnsgd1na2vs0mg"},{"bike_id":"447d8149-e914-460d-b229-c1860ee42347","system_id":"levelo_inurba_marseille","lat":43.30142,"lon":5.38773,"is_reserved":false,"is_disabled":false,"rental_uris":{"android":"levelo://app?vid=447d8149-e914-460d-b229-c1860ee42347","ios":"levelo://app?vid=447d8149-e914-460d-b229-c1860ee42347"},"vehicle_type_id":"4","last_reported":1737738447,"current_range_meters":26000,"station_id":"ce4bghh2rcd13ifvqb60","pricing_plan_id":"cebpf4jnsgd1na2vs0mg"},{"bike_id":"874d3dd9-2af1-4502-9cd4-90e69b0eb3cd","system_id":"levelo_inurba_marseille","lat":43.32112,"lon":5.3677,"is_reserved":false,"is_disabled":false,"rental_uris":{"android":"levelo://app?vid=874d3dd9-2af1-4502-9cd4-90e69b0eb3cd","ios":"levelo://app?vid=874d3dd9-2af1-4502-9cd4-90e69b0eb3cd"},"vehicle_type_id":"4","last_reported":1737738447,"current_range_meters":6800,"station_id":"ce4bhrh2rcd13ifvqhug","pricing_plan_id":"cebpf4jnsgd1na2vs0mg"},{"bike_id":"80a27ad3-149d-4d09-aa7e-c8e027a8aee3","system_id":"levelo_inurba_marseille","lat":43.29861,"lon":5.39739,"is_reserved":false,"is_disabled":false,"rental_uris":{"android":"levelo://app?vid=80a27ad3-149d-4d09-aa7e-c8e027a8aee3","ios":"levelo://app?vid=80a27ad3-149d-4d09-aa7e-c8e027a8aee3"},"vehicle_type_id":"4","last_reported":1737738447,"current_range_meters":31200,"station_id":"ce4bh0h2rcd13ifvqd50","pricing_plan_id":"cebpf4jnsgd1na2vs0mg"},{"bike_id":"b520512f-8986-49db-ae91-281fa694beb4","system_id":"levelo_inurba_marseille","lat":43.25584,"lon":5.38236,"is_reserved":false,"is_disabled":false,"rental_uris":{"android":"levelo://app?vid=b520512f-8986-49db-ae91-281fa694beb4","ios":"levelo://app?vid=b520512f-8986-49db-ae91-281fa694beb4"},"vehicle_type_id":"4","last_reported":1737738447,"current_range_meters":30400,"station_id":"ce4bhih2rcd13ifvqfs0","pricing_plan_id":"cebpf4jnsgd1na2vs0mg"},{"bike_id":"a581e17f-caa5-47d2-b86d-360af63b739b","system_id":"levelo_inurba_marseille","lat":43.29879,"lon":5.39724,"is_reserved":false,"is_disabled":false,"rental_uris":{"android":"levelo://app?vid=a581e17f-caa5-47d2-b86d-360af63b739b","ios":"levelo://app?vid=a581e17f-caa5-47d2-b86d-360af63b739b"},"vehicle_type_id":"4","last_reported":1737738447,"current_range_meters":36800,"station_id":"ce4bh0h2rcd13ifvqd50","pricing_plan_id":"cebpf4jnsgd1na2vs0mg"},{"bike_id":"185aa201-9d5e-4768-a82f-ee96c180b23d","system_id":"levelo_inurba_marseille","lat":43.32109,"lon":5.36771,"is_reserved":false,"is_disabled":false,"rental_uris":{"android":"levelo://app?vid=185aa201-9d5e-4768-a82f-ee96c180b23d","ios":"levelo://app?vid=185aa201-9d5e-4768-a82f-ee96c180b23d"},"vehicle_type_id":"4","last_reported":1737738447,"current_range_meters":6400,"station_id":"ce4bhrh2rcd13ifvqhug","pricing_plan_id":"cebpf4jnsgd1na2vs0mg"},{"bike_id":"e1d23d55-4d9e-4db2-bd6f-87d66fda33f6","system_id":"levelo_inurba_marseille","lat":43.32096,"lon":5.36742,"is_reserved":false,"is_disabled":false,"rental_uris":{"android":"levelo://app?vid=e1d23d55-4d9e-4db2-bd6f-87d66fda33f6","ios":"levelo://app?vid=e1d23d55-4d9e-4db2-bd6f-87d66fda33f6"},"vehicle_type_id":"4","last_reported":1737738447,"current_range_meters":36000,"station_id":"ce4bhrh2rcd13ifvqhug","pricing_plan_id":"cebpf4jnsgd1na2vs0mg"},{"bike_id":"fa8d78eb-e4d3-478c-924c-1bcea3e36896","system_id":"levelo_inurba_marseille","lat":43.27312,"lon":5.39091,"is_reserved":false,"is_disabled":false,"rental_uris":{"android":"levelo://app?vid=fa8d78eb-e4d3-478c-924c-1bcea3e36896","ios":"levelo://app?vid=fa8d78eb-e4d3-478c-924c-1bcea3e36896"},"vehicle_type_id":"4","last_reported":1737738447,"current_range_meters":38800,"station_id":"ce4bhgp2rcd13ifvqfe0","pricing_plan_id":"cebpf4jnsgd1na2vs0mg"},{"bike_id":"ad6a0216-e6d8-4963-89c0-be8181332d33","system_id":"levelo_inurba_marseille","lat":43.29621,"lon":5.37166,"is_reserved":false,"is_disabled":false,"rental_uris":{"android":"levelo://app?vid=ad6a0216-e6d8-4963-89c0-be8181332d33","ios":"levelo://app?vid=ad6a0216-e6d8-4963-89c0-be8181332d33"},"vehicle_type_id":"4","last_reported":1737738447,"current_range_meters":27600,"station_id":"ce4bgnh2rcd13ifvqc0g","pricing_plan_id":"cebpf4jnsgd1na2vs0mg"},{"bike_id":"5dd0112a-8fcd-405d-9ea1-564a759f0cff","system_id":"levelo_inurba_marseille","lat":43.29623,"lon":5.37172,"is_reserved":false,"is_disabled":false,"rental_uris":{"android":"levelo://app?vid=5dd0112a-8fcd-405d-9ea1-564a759f0cff","ios":"levelo://app?vid=5dd0112a-8fcd-405d-9ea1-564a759f0cff"},"vehicle_type_id":"4","last_reported":1737738447,"current_range_meters":36800,"station_id":"ce4bgnh2rcd13ifvqc0g","pricing_plan_id":"cebpf4jnsgd1na2vs0mg"},{"bike_id":"8063798a-16e0-46be-93c9-54aa88d6d615","system_id":"levelo_inurba_marseille","lat":43.31273,"lon":5.40179,"is_reserved":false,"is_disabled":false,"rental_uris":{"android":"levelo://app?vid=8063798a-16e0-46be-93c9-54aa88d6d615","ios":"levelo://app?vid=8063798a-16e0-46be-93c9-54aa88d6d615"},"vehicle_type_id":"4","last_reported":1737738447,"current_range_meters":27600,"station_id":"ce4bh092rcd13ifvqd30","pricing_plan_id":"cebpf4jnsgd1na2vs0mg"},{"bike_id":"0ce16c01-8962-4ee9-ba2e-4b7234efc387","system_id":"levelo_inurba_marseille","lat":43.30153,"lon":5.38079,"is_reserved":false,"is_disabled":true,"rental_uris":{"android":"levelo://app?vid=0ce16c01-8962-4ee9-ba2e-4b7234efc387","ios":"levelo://app?vid=0ce16c01-8962-4ee9-ba2e-4b7234efc387"},"vehicle_type_id":"4","last_reported":1737738447,"current_range_meters":1600,"station_id":"ce4bgjp2rcd13ifvqbh0","pricing_plan_id":"cebpf4jnsgd1na2vs0mg"},{"bike_id":"91be6530-820a-42a2-8802-0bdbe5f5b902","system_id":"levelo_inurba_marseille","lat":43.27665,"lon":5.38921,"is_reserved":false,"is_disabled":true,"rental_uris":{"android":"levelo://app?vid=91be6530-820a-42a2-8802-0bdbe5f5b902","ios":"levelo://app?vid=91be6530-820a-42a2-8802-0bdbe5f5b902"},"vehicle_type_id":"4","last_reported":1737738447,"current_range_meters":1200,"station_id":"ce4bhi12rcd13ifvqfo0","pricing_plan_id":"cebpf4jnsgd1na2vs0mg"},{"bike_id":"bb586b6e-8bd0-41e2-8e62-1f363670fe95","system_id":"levelo_inurba_marseille","lat":43.29525,"lon":5.39046,"is_reserved":false,"is_disabled":false,"rental_uris":{"android":"levelo://app?vid=bb586b6e-8bd0-41e2-8e62-1f363670fe95","ios":"levelo://app?vid=bb586b6e-8bd0-41e2-8e62-1f363670fe95"},"vehicle_type_id":"4","last_reported":1737738447,"current_range_meters":26800,"station_id":"ce4bh3p2rcd13ifvqdp0","pricing_plan_id":"cebpf4jnsgd1na2vs0mg"},{"bike_id":"b41651ca-4947-4fb0-a15b-092dc6e65f54","system_id":"levelo_inurba_marseille","lat":43.29706,"lon":5.3731,"is_reserved":false,"is_disabled":false,"rental_uris":{"android":"levelo://app?vid=b41651ca-4947-4fb0-a15b-092dc6e65f54","ios":"levelo://app?vid=b41651ca-4947-4fb0-a15b-092dc6e65f54"},"vehicle_type_id":"4","last_reported":1737738447,"current_range_meters":39200,"station_id":"ce4bgk12rcd13ifvqbj0","pricing_plan_id":"cebpf4jnsgd1na2vs0mg"},{"bike_id":"35614ed7-a0df-4792-bca2-a1978fcd9fab","system_id":"levelo_inurba_marseille","lat":43.30806,"lon":5.43516,"is_reserved":false,"is_disabled":false,"rental_uris":{"android":"levelo://app?vid=35614ed7-a0df-4792-bca2-a1978fcd9fab","ios":"levelo://app?vid=35614ed7-a0df-4792-bca2-a1978fcd9fab"},"vehicle_type_id":"4","last_reported":1737738447,"current_range_meters":38000,"station_id":"ce4bhph2rcd13ifvqheg","pricing_plan_id":"cebpf4jnsgd1na2vs0mg"},{"bike_id":"f0d72904-0bcc-4b55-bf5f-588b5c7eeae2","system_id":"levelo_inurba_marseille","lat":43.26573,"lon":5.39003,"is_reserved":false,"is_disabled":false,"rental_uris":{"android":"levelo://app?vid=f0d72904-0bcc-4b55-bf5f-588b5c7eeae2","ios":"levelo://app?vid=f0d72904-0bcc-4b55-bf5f-588b5c7eeae2"},"vehicle_type_id":"4","last_reported":1737738447,"current_range_meters":27600,"station_id":"ce4bhe12rcd13ifvqf30","pricing_plan_id":"cebpf4jnsgd1na2vs0mg"},{"bike_id":"f490dc58-3e59-458b-bf88-109282dc3794","system_id":"levelo_inurba_marseille","lat":43.30159,"lon":5.373337,"is_reserved":false,"is_disabled":false,"rental_uris":{"android":"levelo://app?vid=f490dc58-3e59-458b-bf88-109282dc3794","ios":"levelo://app?vid=f490dc58-3e59-458b-bf88-109282dc3794"},"vehicle_type_id":"4","last_reported":1737738447,"current_range_meters":9600,"station_id":"","pricing_plan_id":"cebpf4jnsgd1na2vs0mg"},{"bike_id":"7cea5488-2002-4229-bc99-836914b94071","system_id":"levelo_inurba_marseille","lat":43.29572,"lon":5.39984,"is_reserved":false,"is_disabled":false,"rental_uris":{"android":"levelo://app?vid=7cea5488-2002-4229-bc99-836914b94071","ios":"levelo://app?vid=7cea5488-2002-4229-bc99-836914b94071"},"vehicle_type_id":"4","last_reported":1737738447,"current_range_meters":27600,"station_id":"ce4bh312rcd13ifvqdj0","pricing_plan_id":"cebpf4jnsgd1na2vs0mg"},{"bike_id":"614069de-aa6c-4682-bdb4-b697111c134b","system_id":"levelo_inurba_marseille","lat":43.32288,"lon":5.38269,"is_reserved":false,"is_disabled":false,"rental_uris":{"android":"levelo://app?vid=614069de-aa6c-4682-bdb4-b697111c134b","ios":"levelo://app?vid=614069de-aa6c-4682-bdb4-b697111c134b"},"vehicle_type_id":"4","last_reported":1737738447,"current_range_meters":17600,"station_id":"ce4bhr12rcd13ifvqhqg","pricing_plan_id":"cebpf4jnsgd1na2vs0mg"},{"bike_id":"b9cd08a9-1581-4cbf-9421-3530dee5f2eb","system_id":"levelo_inurba_marseille","lat":43.26062,"lon":5.39398,"is_reserved":false,"is_disabled":false,"rental_uris":{"android":"levelo://app?vid=b9cd08a9-1581-4cbf-9421-3530dee5f2eb","ios":"levelo://app?vid=b9cd08a9-1581-4cbf-9421-3530dee5f2eb"},"vehicle_type_id":"4","last_reported":1737738447,"current_range_meters":38800,"station_id":"ce4bhh92rcd13ifvqfj0","pricing_plan_id":"cebpf4jnsgd1na2vs0mg"},{"bike_id":"6039f4d1-0b9f-42c4-90c7-63d1c20f7f45","system_id":"levelo_inurba_marseille","lat":43.25585,"lon":5.3823,"is_reserved":false,"is_disabled":false,"rental_uris":{"android":"levelo://app?vid=6039f4d1-0b9f-42c4-90c7-63d1c20f7f45","ios":"levelo://app?vid=6039f4d1-0b9f-42c4-90c7-63d1c20f7f45"},"vehicle_type_id":"4","last_reported":1737738447,"current_range_meters":23200,"station_id":"ce4bhih2rcd13ifvqfs0","pricing_plan_id":"cebpf4jnsgd1na2vs0mg"},{"bike_id":"f4f3e7ac-0023-4912-b256-31f60c64f2c8","system_id":"levelo_inurba_marseille","lat":43.31263,"lon":5.40173,"is_reserved":false,"is_disabled":false,"rental_uris":{"android":"levelo://app?vid=f4f3e7ac-0023-4912-b256-31f60c64f2c8","ios":"levelo://app?vid=f4f3e7ac-0023-4912-b256-31f60c64f2c8"},"vehicle_type_id":"4","last_reported":1737738447,"current_range_meters":14800,"station_id":"ce4bh092rcd13ifvqd30","pricing_plan_id":"cebpf4jnsgd1na2vs0mg"},{"bike_id":"89e0e4a1-4c7f-46fc-97d8-76383b4053ad","system_id":"levelo_inurba_marseille","lat":43.23194,"lon":5.39988,"is_reserved":false,"is_disabled":false,"rental_uris":{"android":"levelo://app?vid=89e0e4a1-4c7f-46fc-97d8-76383b4053ad","ios":"levelo://app?vid=89e0e4a1-4c7f-46fc-97d8-76383b4053ad"},"vehicle_type_id":"4","last_reported":1737738447,"current_range_meters":17600,"station_id":"ce4bhn12rcd13ifvqgqg","pricing_plan_id":"cebpf4jnsgd1na2vs0mg"},{"bike_id":"9863b7f9-4316-4322-9f6c-3cc66b0448e2","system_id":"levelo_inurba_marseille","lat":43.279439,"lon":5.389008,"is_reserved":false,"is_disabled":true,"rental_uris":{"android":"levelo://app?vid=9863b7f9-4316-4322-9f6c-3cc66b0448e2","ios":"levelo://app?vid=9863b7f9-4316-4322-9f6c-3cc66b0448e2"},"vehicle_type_id":"4","last_reported":1737738447,"current_range_meters":19600,"station_id":"","pricing_plan_id":"cebpf4jnsgd1na2vs0mg"},{"bike_id":"fee3c96a-16ca-4156-9101-a6fc44a51e07","system_id":"levelo_inurba_marseille","lat":43.28413,"lon":5.37524,"is_reserved":false,"is_disabled":false,"rental_uris":{"android":"levelo://app?vid=fee3c96a-16ca-4156-9101-a6fc44a51e07","ios":"levelo://app?vid=fee3c96a-16ca-4156-9101-a6fc44a51e07"},"vehicle_type_id":"4","last_reported":1737738447,"current_range_meters":22000,"station_id":"ce4bh412rcd13ifvqds0","pricing_plan_id":"cebpf4jnsgd1na2vs0mg"},{"bike_id":"fc76acc9-0a72-415c-91e1-03e342ba8faf","system_id":"levelo_inurba_marseille","lat":43.25867,"lon":5.39902,"is_reserved":false,"is_disabled":false,"rental_uris":{"android":"levelo://app?vid=fc76acc9-0a72-415c-91e1-03e342ba8faf","ios":"levelo://app?vid=fc76acc9-0a72-415c-91e1-03e342ba8faf"},"vehicle_type_id":"4","last_reported":1737738447,"current_range_meters":37600,"station_id":"ce4bhl92rcd13ifvqghg","pricing_plan_id":"cebpf4jnsgd1na2vs0mg"},{"bike_id":"581bbaf4-9275-47d2-9e08-1c457717c912","system_id":"levelo_inurba_marseille","lat":43.2791,"lon":5.38005,"is_reserved":false,"is_disabled":false,"rental_uris":{"android":"levelo://app?vid=581bbaf4-9275-47d2-9e08-1c457717c912","ios":"levelo://app?vid=581bbaf4-9275-47d2-9e08-1c457717c912"},"vehicle_type_id":"4","last_reported":1737738447,"current_range_meters":39200,"station_id":"ce4bhf92rcd13ifvqf50","pricing_plan_id":"cebpf4jnsgd1na2vs0mg"},{"bike_id":"db079136-84e0-4763-bb8c-3f648d9120bd","system_id":"levelo_inurba_marseille","lat":43.28487,"lon":5.38574,"is_reserved":false,"is_disabled":false,"rental_uris":{"android":"levelo://app?vid=db079136-84e0-4763-bb8c-3f648d9120bd","ios":"levelo://app?vid=db079136-84e0-4763-bb8c-3f648d9120bd"},"vehicle_type_id":"4","last_reported":1737738447,"current_range_meters":24000,"station_id":"ce4bh8p2rcd13ifvqeb0","pricing_plan_id":"cebpf4jnsgd1na2vs0mg"},{"bike_id":"a4f05d23-5453-47d8-bccb-077c729b02d8","system_id":"levelo_inurba_marseille","lat":43.28931,"lon":5.38401,"is_reserved":false,"is_disabled":true,"rental_uris":{"android":"levelo://app?vid=a4f05d23-5453-47d8-bccb-077c729b02d8","ios":"levelo://app?vid=a4f05d23-5453-47d8-bccb-077c729b02d8"},"vehicle_type_id":"4","last_reported":1737738447,"current_range_meters":1600,"station_id":"ce4bh612rcd13ifvqe6g","pricing_plan_id":"cebpf4jnsgd1na2vs0mg"},{"bike_id":"4cf9d4e6-d46a-492e-b079-96c25e995ea0","system_id":"levelo_inurba_marseille","lat":43.29901,"lon":5.39731,"is_reserved":false,"is_disabled":false,"rental_uris":{"android":"levelo://app?vid=4cf9d4e6-d46a-492e-b079-96c25e995ea0","ios":"levelo://app?vid=4cf9d4e6-d46a-492e-b079-96c25e995ea0"},"vehicle_type_id":"4","last_reported":1737738447,"current_range_meters":27600,"station_id":"ce4bh0h2rcd13ifvqd50","pricing_plan_id":"cebpf4jnsgd1na2vs0mg"},{"bike_id":"93382831-80eb-494c-8638-9cf564401f5f","system_id":"levelo_inurba_marseille","lat":43.28663,"lon":5.36356,"is_reserved":false,"is_disabled":false,"rental_uris":{"android":"levelo://app?vid=93382831-80eb-494c-8638-9cf564401f5f","ios":"levelo://app?vid=93382831-80eb-494c-8638-9cf564401f5f"},"vehicle_type_id":"4","last_reported":1737738447,"current_range_meters":24800,"station_id":"ce4bhah2rcd13ifvqej0","pricing_plan_id":"cebpf4jnsgd1na2vs0mg"},{"bike_id":"4f4bae91-7bab-4554-b444-70fddba46f58","system_id":"levelo_inurba_marseille","lat":43.27986,"lon":5.38738,"is_reserved":false,"is_disabled":false,"rental_uris":{"android":"levelo://app?vid=4f4bae91-7bab-4554-b444-70fddba46f58","ios":"levelo://app?vid=4f4bae91-7bab-4554-b444-70fddba46f58"},"vehicle_type_id":"4","last_reported":1737738447,"current_range_meters":36800,"station_id":"ce4bhg12rcd13ifvqf80","pricing_plan_id":"cebpf4jnsgd1na2vs0mg"},{"bike_id":"306cbc47-ce60-47e0-9bee-081327460b49","system_id":"levelo_inurba_marseille","lat":43.2738,"lon":5.36255,"is_reserved":false,"is_disabled":false,"rental_uris":{"android":"levelo://app?vid=306cbc47-ce60-47e0-9bee-081327460b49","ios":"levelo://app?vid=306cbc47-ce60-47e0-9bee-081327460b49"},"vehicle_type_id":"4","last_reported":1737738447,"current_range_meters":39200,"station_id":"ce4bhbh2rcd13ifvqeo0","pricing_plan_id":"cebpf4jnsgd1na2vs0mg"},{"bike_id":"aa1d8066-2b99-4958-bcb7-9f47bb1adc67","system_id":"levelo_inurba_marseille","lat":43.28931,"lon":5.38398,"is_reserved":false,"is_disabled":false,"rental_uris":{"android":"levelo://app?vid=aa1d8066-2b99-4958-bcb7-9f47bb1adc67","ios":"levelo://app?vid=aa1d8066-2b99-4958-bcb7-9f47bb1adc67"},"vehicle_type_id":"4","last_reported":1737738447,"current_range_meters":33200,"station_id":"ce4bh612rcd13ifvqe6g","pricing_plan_id":"cebpf4jnsgd1na2vs0mg"},{"bike_id":"37a8169f-f227-4bc0-9e8f-8b7176cb3bac","system_id":"levelo_inurba_marseille","lat":43.30136,"lon":5.38793,"is_reserved":false,"is_disabled":false,"rental_uris":{"android":"levelo://app?vid=37a8169f-f227-4bc0-9e8f-8b7176cb3bac","ios":"levelo://app?vid=37a8169f-f227-4bc0-9e8f-8b7176cb3bac"},"vehicle_type_id":"4","last_reported":1737738447,"current_range_meters":30000,"station_id":"ce4bghh2rcd13ifvqb60","pricing_plan_id":"cebpf4jnsgd1na2vs0mg"},{"bike_id":"cd5cbf42-56ec-4394-b24d-1ac352528116","system_id":"levelo_inurba_marseille","lat":43.28576,"lon":5.39495,"is_reserved":false,"is_disabled":false,"rental_uris":{"android":"levelo://app?vid=cd5cbf42-56ec-4394-b24d-1ac352528116","ios":"levelo://app?vid=cd5cbf42-56ec-4394-b24d-1ac352528116"},"vehicle_type_id":"4","last_reported":1737738447,"current_range_meters":22400,"station_id":"ce4bh292rcd13ifvqdg0","pricing_plan_id":"cebpf4jnsgd1na2vs0mg"},{"bike_id":"6f0e28ce-024f-4cd7-923a-80deb29961a7","system_id":"levelo_inurba_marseille","lat":43.33034,"lon":5.3903,"is_reserved":false,"is_disabled":false,"rental_uris":{"android":"levelo://app?vid=6f0e28ce-024f-4cd7-923a-80deb29961a7","ios":"levelo://app?vid=6f0e28ce-024f-4cd7-923a-80deb29961a7"},"vehicle_type_id":"4","last_reported":1737738447,"current_range_meters":34800,"station_id":"ce4bhr92rcd13ifvqhrg","pricing_plan_id":"cebpf4jnsgd1na2vs0mg"},{"bike_id":"6765b80f-109b-4245-a4de-d489673b4413","system_id":"levelo_inurba_marseille","lat":43.26938,"lon":5.40257,"is_reserved":false,"is_disabled":false,"rental_uris":{"android":"levelo://app?vid=6765b80f-109b-4245-a4de-d489673b4413","ios":"levelo://app?vid=6765b80f-109b-4245-a4de-d489673b4413"},"vehicle_type_id":"4","last_reported":1737738447,"current_range_meters":36000,"station_id":"cjm6bp8fraef2m0cb0m0","pricing_plan_id":"cebpf4jnsgd1na2vs0mg"},{"bike_id":"1e693100-5abe-4bda-91f6-ab18c0b58a8a","system_id":"levelo_inurba_marseille","lat":43.28931,"lon":5.36635,"is_reserved":false,"is_disabled":false,"rental_uris":{"android":"levelo://app?vid=1e693100-5abe-4bda-91f6-ab18c0b58a8a","ios":"levelo://app?vid=1e693100-5abe-4bda-91f6-ab18c0b58a8a"},"vehicle_type_id":"4","last_reported":1737738447,"current_range_meters":4800,"station_id":"ce4bhap2rcd13ifvqek0","pricing_plan_id":"cebpf4jnsgd1na2vs0mg"},{"bike_id":"7c78a755-c7f5-4f07-a96b-621451d47948","system_id":"levelo_inurba_marseille","lat":43.298966,"lon":5.436608,"is_reserved":false,"is_disabled":false,"rental_uris":{"android":"levelo://app?vid=7c78a755-c7f5-4f07-a96b-621451d47948","ios":"levelo://app?vid=7c78a755-c7f5-4f07-a96b-621451d47948"},"vehicle_type_id":"4","last_reported":1737738447,"current_range_meters":38800,"station_id":"ce4bhpp2rcd13ifvqhfg","pricing_plan_id":"cebpf4jnsgd1na2vs0mg"},{"bike_id":"32b6ca88-74ef-44ca-8cf1-8c56cd1b9220","system_id":"levelo_inurba_marseille","lat":43.2668,"lon":5.38268,"is_reserved":false,"is_disabled":false,"rental_uris":{"android":"levelo://app?vid=32b6ca88-74ef-44ca-8cf1-8c56cd1b9220","ios":"levelo://app?vid=32b6ca88-74ef-44ca-8cf1-8c56cd1b9220"},"vehicle_type_id":"4","last_reported":1737738447,"current_range_meters":7200,"station_id":"ce4bhg92rcd13ifvqf90","pricing_plan_id":"cebpf4jnsgd1na2vs0mg"},{"bike_id":"8d963bf5-5f75-4bfa-a62f-6d368eb6a9ac","system_id":"levelo_inurba_marseille","lat":43.2846,"lon":5.35895,"is_reserved":false,"is_disabled":false,"rental_uris":{"android":"levelo://app?vid=8d963bf5-5f75-4bfa-a62f-6d368eb6a9ac","ios":"levelo://app?vid=8d963bf5-5f75-4bfa-a62f-6d368eb6a9ac"},"vehicle_type_id":"4","last_reported":1737738447,"current_range_meters":16000,"station_id":"ce4bhah2rcd13ifvqei0","pricing_plan_id":"cebpf4jnsgd1na2vs0mg"},{"bike_id":"1ce63b83-b5b6-4fee-9be6-62bc79784f7d","system_id":"levelo_inurba_marseille","lat":43.29293,"lon":5.40095,"is_reserved":false,"is_disabled":true,"rental_uris":{"android":"levelo://app?vid=1ce63b83-b5b6-4fee-9be6-62bc79784f7d","ios":"levelo://app?vid=1ce63b83-b5b6-4fee-9be6-62bc79784f7d"},"vehicle_type_id":"4","last_reported":1737738447,"current_range_meters":1600,"station_id":"ce4bh312rcd13ifvqdk0","pricing_plan_id":"cebpf4jnsgd1na2vs0mg"},{"bike_id":"b11414a5-86e5-4af6-af22-fa55543d352b","system_id":"levelo_inurba_marseille","lat":43.24813,"lon":5.37451,"is_reserved":false,"is_disabled":false,"rental_uris":{"android":"levelo://app?vid=b11414a5-86e5-4af6-af22-fa55543d352b","ios":"levelo://app?vid=b11414a5-86e5-4af6-af22-fa55543d352b"},"vehicle_type_id":"4","last_reported":1737738447,"current_range_meters":28000,"station_id":"ce4bhgh2rcd13ifvqfb0","pricing_plan_id":"cebpf4jnsgd1na2vs0mg"},{"bike_id":"2ea3aa3d-568d-42dc-907e-294844187972","system_id":"levelo_inurba_marseille","lat":43.29596,"lon":5.38104,"is_reserved":false,"is_disabled":false,"rental_uris":{"android":"levelo://app?vid=2ea3aa3d-568d-42dc-907e-294844187972","ios":"levelo://app?vid=2ea3aa3d-568d-42dc-907e-294844187972"},"vehicle_type_id":"4","last_reported":1737738447,"current_range_meters":18000,"station_id":"ce4bgl12rcd13ifvqbo0","pricing_plan_id":"cebpf4jnsgd1na2vs0mg"},{"bike_id":"a3f3f908-3f4a-4bd6-91f0-30e68591191d","system_id":"levelo_inurba_marseille","lat":43.29279,"lon":5.36848,"is_reserved":false,"is_disabled":false,"rental_uris":{"android":"levelo://app?vid=a3f3f908-3f4a-4bd6-91f0-30e68591191d","ios":"levelo://app?vid=a3f3f908-3f4a-4bd6-91f0-30e68591191d"},"vehicle_type_id":"4","last_reported":1737738447,"current_range_meters":4800,"station_id":"ce4bhbp2rcd13ifvqesg","pricing_plan_id":"cebpf4jnsgd1na2vs0mg"},{"bike_id":"8160e829-3916-4077-828a-bc156b7d65cb","system_id":"levelo_inurba_marseille","lat":43.29711,"lon":5.37706,"is_reserved":false,"is_disabled":false,"rental_uris":{"android":"levelo://app?vid=8160e829-3916-4077-828a-bc156b7d65cb","ios":"levelo://app?vid=8160e829-3916-4077-828a-bc156b7d65cb"},"vehicle_type_id":"4","last_reported":1737738447,"current_range_meters":33600,"station_id":"ce4bgkh2rcd13ifvqbl0","pricing_plan_id":"cebpf4jnsgd1na2vs0mg"},{"bike_id":"4a13ea03-ec6c-4773-aab6-bf9a860cd9fc","system_id":"levelo_inurba_marseille","lat":43.27891,"lon":5.38007,"is_reserved":false,"is_disabled":false,"rental_uris":{"android":"levelo://app?vid=4a13ea03-ec6c-4773-aab6-bf9a860cd9fc","ios":"levelo://app?vid=4a13ea03-ec6c-4773-aab6-bf9a860cd9fc"},"vehicle_type_id":"4","last_reported":1737738447,"current_range_meters":38800,"station_id":"ce4bhf92rcd13ifvqf50","pricing_plan_id":"cebpf4jnsgd1na2vs0mg"},{"bike_id":"4ed0ee37-57fc-40d1-af2c-3c809c77eb99","system_id":"levelo_inurba_marseille","lat":43.2418,"lon":5.39722,"is_reserved":false,"is_disabled":false,"rental_uris":{"android":"levelo://app?vid=4ed0ee37-57fc-40d1-af2c-3c809c77eb99","ios":"levelo://app?vid=4ed0ee37-57fc-40d1-af2c-3c809c77eb99"},"vehicle_type_id":"4","last_reported":1737738447,"current_range_meters":38800,"station_id":"ce4bhn12rcd13ifvqgpg","pricing_plan_id":"cebpf4jnsgd1na2vs0mg"},{"bike_id":"dff31359-622b-44fa-8510-5de373a3e3ae","system_id":"levelo_inurba_marseille","lat":43.29685,"lon":5.37293,"is_reserved":false,"is_disabled":false,"rental_uris":{"android":"levelo://app?vid=dff31359-622b-44fa-8510-5de373a3e3ae","ios":"levelo://app?vid=dff31359-622b-44fa-8510-5de373a3e3ae"},"vehicle_type_id":"4","last_reported":1737738447,"current_range_meters":38800,"station_id":"ce4bgk12rcd13ifvqbj0","pricing_plan_id":"cebpf4jnsgd1na2vs0mg"},{"bike_id":"37b259fa-818e-4014-9a2b-19586202b058","system_id":"levelo_inurba_marseille","lat":43.32364,"lon":5.38881,"is_reserved":false,"is_disabled":false,"rental_uris":{"android":"levelo://app?vid=37b259fa-818e-4014-9a2b-19586202b058","ios":"levelo://app?vid=37b259fa-818e-4014-9a2b-19586202b058"},"vehicle_type_id":"4","last_reported":1737738447,"current_range_meters":20800,"station_id":"ce4bhqp2rcd13ifvqhog","pricing_plan_id":"cebpf4jnsgd1na2vs0mg"},{"bike_id":"f147bf4f-7cb4-4977-9cf9-688e0d525a71","system_id":"levelo_inurba_marseille","lat":43.29213,"lon":5.36073,"is_reserved":false,"is_disabled":false,"rental_uris":{"android":"levelo://app?vid=f147bf4f-7cb4-4977-9cf9-688e0d525a71","ios":"levelo://app?vid=f147bf4f-7cb4-4977-9cf9-688e0d525a71"},"vehicle_type_id":"4","last_reported":1737738447,"current_range_meters":28400,"station_id":"ce4bhbh2rcd13ifvqeqg","pricing_plan_id":"cebpf4jnsgd1na2vs0mg"},{"bike_id":"0f6f1f28-264c-42b7-9014-efb1bc5cfecb","system_id":"levelo_inurba_marseille","lat":43.29918,"lon":5.37458,"is_reserved":false,"is_disabled":false,"rental_uris":{"android":"levelo://app?vid=0f6f1f28-264c-42b7-9014-efb1bc5cfecb","ios":"levelo://app?vid=0f6f1f28-264c-42b7-9014-efb1bc5cfecb"},"vehicle_type_id":"4","last_reported":1737738447,"current_range_meters":38800,"station_id":"ce4bgjh2rcd13ifvqbg0","pricing_plan_id":"cebpf4jnsgd1na2vs0mg"},{"bike_id":"54b04d78-7b1f-4dbd-8cce-dfddd2980ad1","system_id":"levelo_inurba_marseille","lat":43.28726,"lon":5.36079,"is_reserved":false,"is_disabled":false,"rental_uris":{"android":"levelo://app?vid=54b04d78-7b1f-4dbd-8cce-dfddd2980ad1","ios":"levelo://app?vid=54b04d78-7b1f-4dbd-8cce-dfddd2980ad1"},"vehicle_type_id":"4","last_reported":1737738447,"current_range_meters":26000,"station_id":"cki0cbj6b192h4jlfktg","pricing_plan_id":"cebpf4jnsgd1na2vs0mg"},{"bike_id":"9c7b1e6c-f6a7-4443-915b-f81466fe1ec7","system_id":"levelo_inurba_marseille","lat":43.29368,"lon":5.38532,"is_reserved":false,"is_disabled":false,"rental_uris":{"android":"levelo://app?vid=9c7b1e6c-f6a7-4443-915b-f81466fe1ec7","ios":"levelo://app?vid=9c7b1e6c-f6a7-4443-915b-f81466fe1ec7"},"vehicle_type_id":"4","last_reported":1737738447,"current_range_meters":19200,"station_id":"","pricing_plan_id":"cebpf4jnsgd1na2vs0mg"},{"bike_id":"2d09f6c2-0a95-42dd-b273-6c37bca47794","system_id":"levelo_inurba_marseille","lat":43.29912,"lon":5.37465,"is_reserved":false,"is_disabled":false,"rental_uris":{"android":"levelo://app?vid=2d09f6c2-0a95-42dd-b273-6c37bca47794","ios":"levelo://app?vid=2d09f6c2-0a95-42dd-b273-6c37bca47794"},"vehicle_type_id":"4","last_reported":1737738447,"current_range_meters":38800,"station_id":"ce4bgjh2rcd13ifvqbg0","pricing_plan_id":"cebpf4jnsgd1na2vs0mg"},{"bike_id":"fe3679b4-09f6-4e41-9aae-9d00892cb93e","system_id":"levelo_inurba_marseille","lat":43.23194,"lon":5.35542,"is_reserved":false,"is_disabled":false,"rental_uris":{"android":"levelo://app?vid=fe3679b4-09f6-4e41-9aae-9d00892cb93e","ios":"levelo://app?vid=fe3679b4-09f6-4e41-9aae-9d00892cb93e"},"vehicle_type_id":"4","last_reported":1737738447,"current_range_meters":17200,"station_id":"ce4bhu92rcd13ifvqi70","pricing_plan_id":"cebpf4jnsgd1na2vs0mg"},{"bike_id":"0bcdf693-2b96-4ed8-983d-0d59ed7a47aa","system_id":"levelo_inurba_marseille","lat":43.28465,"lon":5.35892,"is_reserved":false,"is_disabled":false,"rental_uris":{"android":"levelo://app?vid=0bcdf693-2b96-4ed8-983d-0d59ed7a47aa","ios":"levelo://app?vid=0bcdf693-2b96-4ed8-983d-0d59ed7a47aa"},"vehicle_type_id":"4","last_reported":1737738447,"current_range_meters":30000,"station_id":"ce4bhah2rcd13ifvqei0","pricing_plan_id":"cebpf4jnsgd1na2vs0mg"},{"bike_id":"361df3b7-b4bf-490e-a350-cf54aede9d00","system_id":"levelo_inurba_marseille","lat":43.28411,"lon":5.37513,"is_reserved":false,"is_disabled":true,"rental_uris":{"android":"levelo://app?vid=361df3b7-b4bf-490e-a350-cf54aede9d00","ios":"levelo://app?vid=361df3b7-b4bf-490e-a350-cf54aede9d00"},"vehicle_type_id":"4","last_reported":1737738447,"current_range_meters":1200,"station_id":"ce4bh412rcd13ifvqds0","pricing_plan_id":"cebpf4jnsgd1na2vs0mg"},{"bike_id":"f7ddad90-1f96-4ff0-9b27-caff9eb32600","system_id":"levelo_inurba_marseille","lat":43.29425,"lon":5.38622,"is_reserved":false,"is_disabled":true,"rental_uris":{"android":"levelo://app?vid=f7ddad90-1f96-4ff0-9b27-caff9eb32600","ios":"levelo://app?vid=f7ddad90-1f96-4ff0-9b27-caff9eb32600"},"vehicle_type_id":"4","last_reported":1737738447,"current_range_meters":0,"station_id":"ce4bh2h2rcd13ifvqdh0","pricing_plan_id":"cebpf4jnsgd1na2vs0mg"},{"bike_id":"f1306753-0741-4054-bb1e-176ba35f7013","system_id":"levelo_inurba_marseille","lat":43.24809,"lon":5.37461,"is_reserved":false,"is_disabled":false,"rental_uris":{"android":"levelo://app?vid=f1306753-0741-4054-bb1e-176ba35f7013","ios":"levelo://app?vid=f1306753-0741-4054-bb1e-176ba35f7013"},"vehicle_type_id":"4","last_reported":1737738447,"current_range_meters":9600,"station_id":"ce4bhgh2rcd13ifvqfb0","pricing_plan_id":"cebpf4jnsgd1na2vs0mg"},{"bike_id":"02c32972-2589-4dd4-8b7a-da5539e1cade","system_id":"levelo_inurba_marseille","lat":43.31762,"lon":5.39008,"is_reserved":false,"is_disabled":false,"rental_uris":{"android":"levelo://app?vid=02c32972-2589-4dd4-8b7a-da5539e1cade","ios":"levelo://app?vid=02c32972-2589-4dd4-8b7a-da5539e1cade"},"vehicle_type_id":"4","last_reported":1737738447,"current_range_meters":38000,"station_id":"ce4bhqp2rcd13ifvqhng","pricing_plan_id":"cebpf4jnsgd1na2vs0mg"},{"bike_id":"52992c76-e8f1-43a9-8a4e-0d88bd811a27","system_id":"levelo_inurba_marseille","lat":43.29637,"lon":5.37175,"is_reserved":false,"is_disabled":false,"rental_uris":{"android":"levelo://app?vid=52992c76-e8f1-43a9-8a4e-0d88bd811a27","ios":"levelo://app?vid=52992c76-e8f1-43a9-8a4e-0d88bd811a27"},"vehicle_type_id":"4","last_reported":1737738447,"current_range_meters":28000,"station_id":"ce4bgnh2rcd13ifvqc0g","pricing_plan_id":"cebpf4jnsgd1na2vs0mg"},{"bike_id":"16cba4e1-cb10-44ef-b1a1-eca95385335f","system_id":"levelo_inurba_marseille","lat":43.28426,"lon":5.34982,"is_reserved":false,"is_disabled":true,"rental_uris":{"android":"levelo://app?vid=16cba4e1-cb10-44ef-b1a1-eca95385335f","ios":"levelo://app?vid=16cba4e1-cb10-44ef-b1a1-eca95385335f"},"vehicle_type_id":"4","last_reported":1737738447,"current_range_meters":21600,"station_id":"ce4bhbh2rcd13ifvqepg","pricing_plan_id":"cebpf4jnsgd1na2vs0mg"},{"bike_id":"09113e0e-d17e-4785-b873-facd77e99abc","system_id":"levelo_inurba_marseille","lat":43.28367,"lon":5.44384,"is_reserved":false,"is_disabled":false,"rental_uris":{"android":"levelo://app?vid=09113e0e-d17e-4785-b873-facd77e99abc","ios":"levelo://app?vid=09113e0e-d17e-4785-b873-facd77e99abc"},"vehicle_type_id":"4","last_reported":1737738447,"current_range_meters":27200,"station_id":"","pricing_plan_id":"cebpf4jnsgd1na2vs0mg"},{"bike_id":"1c220df8-3e17-41c1-bbcb-a0822862a9a7","system_id":"levelo_inurba_marseille","lat":43.29007,"lon":5.35619,"is_reserved":false,"is_disabled":false,"rental_uris":{"android":"levelo://app?vid=1c220df8-3e17-41c1-bbcb-a0822862a9a7","ios":"levelo://app?vid=1c220df8-3e17-41c1-bbcb-a0822862a9a7"},"vehicle_type_id":"4","last_reported":1737738447,"current_range_meters":16400,"station_id":"ce4bhb92rcd13ifvqen0","pricing_plan_id":"cebpf4jnsgd1na2vs0mg"},{"bike_id":"832de19d-d44c-4588-a792-d45111b42f85","system_id":"levelo_inurba_marseille","lat":43.29509,"lon":5.37522,"is_reserved":false,"is_disabled":false,"rental_uris":{"android":"levelo://app?vid=832de19d-d44c-4588-a792-d45111b42f85","ios":"levelo://app?vid=832de19d-d44c-4588-a792-d45111b42f85"},"vehicle_type_id":"4","last_reported":1737738447,"current_range_meters":6400,"station_id":"ce4bgkp2rcd13ifvqbmg","pricing_plan_id":"cebpf4jnsgd1na2vs0mg"},{"bike_id":"e718e80c-7f3e-47df-a59b-41a453f2413f","system_id":"levelo_inurba_marseille","lat":43.29046,"lon":5.39974,"is_reserved":false,"is_disabled":false,"rental_uris":{"android":"levelo://app?vid=e718e80c-7f3e-47df-a59b-41a453f2413f","ios":"levelo://app?vid=e718e80c-7f3e-47df-a59b-41a453f2413f"},"vehicle_type_id":"4","last_reported":1737738447,"current_range_meters":30800,"station_id":"ce4bh392rcd13ifvqdm0","pricing_plan_id":"cebpf4jnsgd1na2vs0mg"},{"bike_id":"d28d2efe-5411-4cd1-a049-27af9070d568","system_id":"levelo_inurba_marseille","lat":43.3009,"lon":5.39098,"is_reserved":false,"is_disabled":false,"rental_uris":{"android":"levelo://app?vid=d28d2efe-5411-4cd1-a049-27af9070d568","ios":"levelo://app?vid=d28d2efe-5411-4cd1-a049-27af9070d568"},"vehicle_type_id":"4","last_reported":1737738447,"current_range_meters":36400,"station_id":"ce4bh192rcd13ifvqdb0","pricing_plan_id":"cebpf4jnsgd1na2vs0mg"},{"bike_id":"1eb7fcae-d822-4c7d-98f3-f8cd2dea315a","system_id":"levelo_inurba_marseille","lat":43.29303,"lon":5.37469,"is_reserved":false,"is_disabled":false,"rental_uris":{"android":"levelo://app?vid=1eb7fcae-d822-4c7d-98f3-f8cd2dea315a","ios":"levelo://app?vid=1eb7fcae-d822-4c7d-98f3-f8cd2dea315a"},"vehicle_type_id":"4","last_reported":1737738447,"current_range_meters":35600,"station_id":"ce4bgi12rcd13ifvqb70","pricing_plan_id":"cebpf4jnsgd1na2vs0mg"},{"bike_id":"209a1569-01ac-4fff-97a7-34a29e8a68c2","system_id":"levelo_inurba_marseille","lat":43.32304,"lon":5.3824,"is_reserved":false,"is_disabled":false,"rental_uris":{"android":"levelo://app?vid=209a1569-01ac-4fff-97a7-34a29e8a68c2","ios":"levelo://app?vid=209a1569-01ac-4fff-97a7-34a29e8a68c2"},"vehicle_type_id":"4","last_reported":1737738447,"current_range_meters":39200,"station_id":"ce4bhr12rcd13ifvqhqg","pricing_plan_id":"cebpf4jnsgd1na2vs0mg"},{"bike_id":"dbaa0157-2080-4865-99fe-bc2ed3a5d647","system_id":"levelo_inurba_marseille","lat":43.29631,"lon":5.40597,"is_reserved":false,"is_disabled":false,"rental_uris":{"android":"levelo://app?vid=dbaa0157-2080-4865-99fe-bc2ed3a5d647","ios":"levelo://app?vid=dbaa0157-2080-4865-99fe-bc2ed3a5d647"},"vehicle_type_id":"4","last_reported":1737738447,"current_range_meters":32800,"station_id":"ce4bh0h2rcd13ifvqd60","pricing_plan_id":"cebpf4jnsgd1na2vs0mg"},{"bike_id":"45b366a6-6abc-4401-bb9e-1aee69db2cae","system_id":"levelo_inurba_marseille","lat":43.28088,"lon":5.39675,"is_reserved":false,"is_disabled":false,"rental_uris":{"android":"levelo://app?vid=45b366a6-6abc-4401-bb9e-1aee69db2cae","ios":"levelo://app?vid=45b366a6-6abc-4401-bb9e-1aee69db2cae"},"vehicle_type_id":"4","last_reported":1737738447,"current_range_meters":31200,"station_id":"ce4bho12rcd13ifvqh2g","pricing_plan_id":"cebpf4jnsgd1na2vs0mg"},{"bike_id":"df177b66-d6ab-4e90-8959-cc256de87127","system_id":"levelo_inurba_marseille","lat":43.24651,"lon":5.38895,"is_reserved":false,"is_disabled":false,"rental_uris":{"android":"levelo://app?vid=df177b66-d6ab-4e90-8959-cc256de87127","ios":"levelo://app?vid=df177b66-d6ab-4e90-8959-cc256de87127"},"vehicle_type_id":"4","last_reported":1737738447,"current_range_meters":34000,"station_id":"ce4bhg12rcd13ifvqf60","pricing_plan_id":"cebpf4jnsgd1na2vs0mg"},{"bike_id":"c80fc512-eca5-4179-ae09-199c78704c8f","system_id":"levelo_inurba_marseille","lat":43.2987,"lon":5.39732,"is_reserved":false,"is_disabled":false,"rental_uris":{"android":"levelo://app?vid=c80fc512-eca5-4179-ae09-199c78704c8f","ios":"levelo://app?vid=c80fc512-eca5-4179-ae09-199c78704c8f"},"vehicle_type_id":"4","last_reported":1737738447,"current_range_meters":20800,"station_id":"ce4bh0h2rcd13ifvqd50","pricing_plan_id":"cebpf4jnsgd1na2vs0mg"},{"bike_id":"421d447e-f137-48f8-b50a-3cef6ba73d00","system_id":"levelo_inurba_marseille","lat":43.32359,"lon":5.36787,"is_reserved":false,"is_disabled":false,"rental_uris":{"android":"levelo://app?vid=421d447e-f137-48f8-b50a-3cef6ba73d00","ios":"levelo://app?vid=421d447e-f137-48f8-b50a-3cef6ba73d00"},"vehicle_type_id":"4","last_reported":1737738447,"current_range_meters":9200,"station_id":"ce4bhsh2rcd13ifvqi2g","pricing_plan_id":"cebpf4jnsgd1na2vs0mg"},{"bike_id":"841a1767-078e-4378-8ef2-78843610d635","system_id":"levelo_inurba_marseille","lat":43.232,"lon":5.3556,"is_reserved":false,"is_disabled":false,"rental_uris":{"android":"levelo://app?vid=841a1767-078e-4378-8ef2-78843610d635","ios":"levelo://app?vid=841a1767-078e-4378-8ef2-78843610d635"},"vehicle_type_id":"4","last_reported":1737738447,"current_range_meters":10000,"station_id":"ce4bhu92rcd13ifvqi70","pricing_plan_id":"cebpf4jnsgd1na2vs0mg"},{"bike_id":"7f671d8a-d6f4-431d-942d-be91342ede70","system_id":"levelo_inurba_marseille","lat":43.28695,"lon":5.39978,"is_reserved":false,"is_disabled":true,"rental_uris":{"android":"levelo://app?vid=7f671d8a-d6f4-431d-942d-be91342ede70","ios":"levelo://app?vid=7f671d8a-d6f4-431d-942d-be91342ede70"},"vehicle_type_id":"4","last_reported":1737738447,"current_range_meters":0,"station_id":"ce4bho92rcd13ifvqh3g","pricing_plan_id":"cebpf4jnsgd1na2vs0mg"},{"bike_id":"9834e6e6-3f7d-42a4-b7db-1b6a1cc90ef9","system_id":"levelo_inurba_marseille","lat":43.30798,"lon":5.43521,"is_reserved":false,"is_disabled":false,"rental_uris":{"android":"levelo://app?vid=9834e6e6-3f7d-42a4-b7db-1b6a1cc90ef9","ios":"levelo://app?vid=9834e6e6-3f7d-42a4-b7db-1b6a1cc90ef9"},"vehicle_type_id":"4","last_reported":1737738447,"current_range_meters":38000,"station_id":"ce4bhph2rcd13ifvqheg","pricing_plan_id":"cebpf4jnsgd1na2vs0mg"},{"bike_id":"e3863bf6-db6a-4415-8ab9-ef40cbdd1705","system_id":"levelo_inurba_marseille","lat":43.31278,"lon":5.40164,"is_reserved":false,"is_disabled":false,"rental_uris":{"android":"levelo://app?vid=e3863bf6-db6a-4415-8ab9-ef40cbdd1705","ios":"levelo://app?vid=e3863bf6-db6a-4415-8ab9-ef40cbdd1705"},"vehicle_type_id":"4","last_reported":1737738447,"current_range_meters":36000,"station_id":"ce4bh092rcd13ifvqd30","pricing_plan_id":"cebpf4jnsgd1na2vs0mg"},{"bike_id":"a12ae140-7d40-4453-aee3-1f900eeb57d0","system_id":"levelo_inurba_marseille","lat":43.31723,"lon":5.424,"is_reserved":false,"is_disabled":false,"rental_uris":{"android":"levelo://app?vid=a12ae140-7d40-4453-aee3-1f900eeb57d0","ios":"levelo://app?vid=a12ae140-7d40-4453-aee3-1f900eeb57d0"},"vehicle_type_id":"4","last_reported":1737738447,"current_range_meters":39200,"station_id":"ce4bhp92rcd13ifvqhbg","pricing_plan_id":"cebpf4jnsgd1na2vs0mg"},{"bike_id":"afd53ee7-c48e-4c7a-9b64-51b0a9bab2be","system_id":"levelo_inurba_marseille","lat":43.29892,"lon":5.36382,"is_reserved":false,"is_disabled":false,"rental_uris":{"android":"levelo://app?vid=afd53ee7-c48e-4c7a-9b64-51b0a9bab2be","ios":"levelo://app?vid=afd53ee7-c48e-4c7a-9b64-51b0a9bab2be"},"vehicle_type_id":"4","last_reported":1737738447,"current_range_meters":28400,"station_id":"","pricing_plan_id":"cebpf4jnsgd1na2vs0mg"},{"bike_id":"e9020a46-61de-4306-b798-df4834758be2","system_id":"levelo_inurba_marseille","lat":43.2694,"lon":5.40244,"is_reserved":false,"is_disabled":false,"rental_uris":{"android":"levelo://app?vid=e9020a46-61de-4306-b798-df4834758be2","ios":"levelo://app?vid=e9020a46-61de-4306-b798-df4834758be2"},"vehicle_type_id":"4","last_reported":1737738447,"current_range_meters":20800,"station_id":"cjm6bp8fraef2m0cb0m0","pricing_plan_id":"cebpf4jnsgd1na2vs0mg"},{"bike_id":"4034a07b-ae03-4b25-906c-33b7649d1afd","system_id":"levelo_inurba_marseille","lat":43.29632,"lon":5.40622,"is_reserved":false,"is_disabled":true,"rental_uris":{"android":"levelo://app?vid=4034a07b-ae03-4b25-906c-33b7649d1afd","ios":"levelo://app?vid=4034a07b-ae03-4b25-906c-33b7649d1afd"},"vehicle_type_id":"4","last_reported":1737738447,"current_range_meters":1600,"station_id":"ce4bh0h2rcd13ifvqd60","pricing_plan_id":"cebpf4jnsgd1na2vs0mg"},{"bike_id":"0683b8fa-bf66-4a85-b23f-305b1ef8e2c5","system_id":"levelo_inurba_marseille","lat":43.29891,"lon":5.4367,"is_reserved":false,"is_disabled":true,"rental_uris":{"android":"levelo://app?vid=0683b8fa-bf66-4a85-b23f-305b1ef8e2c5","ios":"levelo://app?vid=0683b8fa-bf66-4a85-b23f-305b1ef8e2c5"},"vehicle_type_id":"4","last_reported":1737738447,"current_range_meters":0,"station_id":"ce4bhpp2rcd13ifvqhfg","pricing_plan_id":"cebpf4jnsgd1na2vs0mg"},{"bike_id":"ad08d0df-5cfc-45b4-8b4e-971898eef332","system_id":"levelo_inurba_marseille","lat":43.30807,"lon":5.38154,"is_reserved":false,"is_disabled":false,"rental_uris":{"android":"levelo://app?vid=ad08d0df-5cfc-45b4-8b4e-971898eef332","ios":"levelo://app?vid=ad08d0df-5cfc-45b4-8b4e-971898eef332"},"vehicle_type_id":"4","last_reported":1737738447,"current_range_meters":20800,"station_id":"ce4bgt12rcd13ifvqce0","pricing_plan_id":"cebpf4jnsgd1na2vs0mg"},{"bike_id":"3f615b0c-23e5-4340-8ed6-a7e5645fc723","system_id":"levelo_inurba_marseille","lat":43.28614,"lon":5.35103,"is_reserved":false,"is_disabled":false,"rental_uris":{"android":"levelo://app?vid=3f615b0c-23e5-4340-8ed6-a7e5645fc723","ios":"levelo://app?vid=3f615b0c-23e5-4340-8ed6-a7e5645fc723"},"vehicle_type_id":"4","last_reported":1737738447,"current_range_meters":14800,"station_id":"ce4bhch2rcd13ifvqeug","pricing_plan_id":"cebpf4jnsgd1na2vs0mg"},{"bike_id":"557a19c4-a680-4a23-846b-3d26b36f7d86","system_id":"levelo_inurba_marseille","lat":43.3111,"lon":5.37764,"is_reserved":false,"is_disabled":false,"rental_uris":{"android":"levelo://app?vid=557a19c4-a680-4a23-846b-3d26b36f7d86","ios":"levelo://app?vid=557a19c4-a680-4a23-846b-3d26b36f7d86"},"vehicle_type_id":"4","last_reported":1737738447,"current_range_meters":13600,"station_id":"ce4bgt92rcd13ifvqcg0","pricing_plan_id":"cebpf4jnsgd1na2vs0mg"},{"bike_id":"a329df6e-b6cb-4645-baac-6426c9cccc06","system_id":"levelo_inurba_marseille","lat":43.26684,"lon":5.38269,"is_reserved":false,"is_disabled":false,"rental_uris":{"android":"levelo://app?vid=a329df6e-b6cb-4645-baac-6426c9cccc06","ios":"levelo://app?vid=a329df6e-b6cb-4645-baac-6426c9cccc06"},"vehicle_type_id":"4","last_reported":1737738447,"current_range_meters":8800,"station_id":"ce4bhg92rcd13ifvqf90","pricing_plan_id":"cebpf4jnsgd1na2vs0mg"},{"bike_id":"51f7f456-5a16-4400-8685-5cf9ace42d0d","system_id":"levelo_inurba_marseille","lat":43.27372,"lon":5.36253,"is_reserved":false,"is_disabled":false,"rental_uris":{"android":"levelo://app?vid=51f7f456-5a16-4400-8685-5cf9ace42d0d","ios":"levelo://app?vid=51f7f456-5a16-4400-8685-5cf9ace42d0d"},"vehicle_type_id":"4","last_reported":1737738447,"current_range_meters":26000,"station_id":"ce4bhbh2rcd13ifvqeo0","pricing_plan_id":"cebpf4jnsgd1na2vs0mg"},{"bike_id":"78d4f20e-d7f1-4914-b87b-99aa5b196d3a","system_id":"levelo_inurba_marseille","lat":43.29873,"lon":5.39714,"is_reserved":false,"is_disabled":false,"rental_uris":{"android":"levelo://app?vid=78d4f20e-d7f1-4914-b87b-99aa5b196d3a","ios":"levelo://app?vid=78d4f20e-d7f1-4914-b87b-99aa5b196d3a"},"vehicle_type_id":"4","last_reported":1737738447,"current_range_meters":38800,"station_id":"ce4bh0h2rcd13ifvqd50","pricing_plan_id":"cebpf4jnsgd1na2vs0mg"},{"bike_id":"e4e54b6f-9b1a-4928-bf70-aea12798c57a","system_id":"levelo_inurba_marseille","lat":43.29532,"lon":5.38542,"is_reserved":false,"is_disabled":false,"rental_uris":{"android":"levelo://app?vid=e4e54b6f-9b1a-4928-bf70-aea12798c57a","ios":"levelo://app?vid=e4e54b6f-9b1a-4928-bf70-aea12798c57a"},"vehicle_type_id":"4","last_reported":1737738447,"current_range_meters":12400,"station_id":"ce4bgih2rcd13ifvqba0","pricing_plan_id":"cebpf4jnsgd1na2vs0mg"},{"bike_id":"9665d03d-19b4-4bf4-a5b5-33e9ee51734c","system_id":"levelo_inurba_marseille","lat":43.29535,"lon":5.39037,"is_reserved":false,"is_disabled":false,"rental_uris":{"android":"levelo://app?vid=9665d03d-19b4-4bf4-a5b5-33e9ee51734c","ios":"levelo://app?vid=9665d03d-19b4-4bf4-a5b5-33e9ee51734c"},"vehicle_type_id":"4","last_reported":1737738447,"current_range_meters":32400,"station_id":"ce4bh3p2rcd13ifvqdp0","pricing_plan_id":"cebpf4jnsgd1na2vs0mg"},{"bike_id":"ff30a90d-683a-48fc-832b-13a4635619af","system_id":"levelo_inurba_marseille","lat":43.311462,"lon":5.401265,"is_reserved":false,"is_disabled":false,"rental_uris":{"android":"levelo://app?vid=ff30a90d-683a-48fc-832b-13a4635619af","ios":"levelo://app?vid=ff30a90d-683a-48fc-832b-13a4635619af"},"vehicle_type_id":"4","last_reported":1737738447,"current_range_meters":33200,"station_id":"ce4bhpp2rcd13ifvqhgg","pricing_plan_id":"cebpf4jnsgd1na2vs0mg"},{"bike_id":"db26516d-4ecb-415a-9085-700f58bc376b","system_id":"levelo_inurba_marseille","lat":43.28854,"lon":5.35851,"is_reserved":false,"is_disabled":false,"rental_uris":{"android":"levelo://app?vid=db26516d-4ecb-415a-9085-700f58bc376b","ios":"levelo://app?vid=db26516d-4ecb-415a-9085-700f58bc376b"},"vehicle_type_id":"4","last_reported":1737738447,"current_range_meters":9600,"station_id":"ce4bhb12rcd13ifvqem0","pricing_plan_id":"cebpf4jnsgd1na2vs0mg"},{"bike_id":"a6c60ad2-e593-4b0c-8875-c82d98876de9","system_id":"levelo_inurba_marseille","lat":43.27176,"lon":5.40989,"is_reserved":false,"is_disabled":false,"rental_uris":{"android":"levelo://app?vid=a6c60ad2-e593-4b0c-8875-c82d98876de9","ios":"levelo://app?vid=a6c60ad2-e593-4b0c-8875-c82d98876de9"},"vehicle_type_id":"4","last_reported":1737738447,"current_range_meters":32400,"station_id":"ce4bhl12rcd13ifvqgf0","pricing_plan_id":"cebpf4jnsgd1na2vs0mg"},{"bike_id":"4e93830c-589f-413d-9c1d-ba2ee232cc2b","system_id":"levelo_inurba_marseille","lat":43.28415,"lon":5.37511,"is_reserved":false,"is_disabled":true,"rental_uris":{"android":"levelo://app?vid=4e93830c-589f-413d-9c1d-ba2ee232cc2b","ios":"levelo://app?vid=4e93830c-589f-413d-9c1d-ba2ee232cc2b"},"vehicle_type_id":"4","last_reported":1737738447,"current_range_meters":16000,"station_id":"ce4bh412rcd13ifvqds0","pricing_plan_id":"cebpf4jnsgd1na2vs0mg"},{"bike_id":"6f79bd79-eec4-462d-98f9-2006431fa0d0","system_id":"levelo_inurba_marseille","lat":43.30649,"lon":5.40105,"is_reserved":false,"is_disabled":false,"rental_uris":{"android":"levelo://app?vid=6f79bd79-eec4-462d-98f9-2006431fa0d0","ios":"levelo://app?vid=6f79bd79-eec4-462d-98f9-2006431fa0d0"},"vehicle_type_id":"4","last_reported":1737738447,"current_range_meters":4000,"station_id":"ce4bh112rcd13ifvqda0","pricing_plan_id":"cebpf4jnsgd1na2vs0mg"},{"bike_id":"033e3539-4f4c-4fa3-ad37-9f1909d3f28c","system_id":"levelo_inurba_marseille","lat":43.29806,"lon":5.40404,"is_reserved":false,"is_disabled":false,"rental_uris":{"android":"levelo://app?vid=033e3539-4f4c-4fa3-ad37-9f1909d3f28c","ios":"levelo://app?vid=033e3539-4f4c-4fa3-ad37-9f1909d3f28c"},"vehicle_type_id":"4","last_reported":1737738447,"current_range_meters":39200,"station_id":"ce4bh112rcd13ifvqd90","pricing_plan_id":"cebpf4jnsgd1na2vs0mg"},{"bike_id":"927e7b9b-e8ce-43fe-acf0-09527cf988dc","system_id":"levelo_inurba_marseille","lat":43.25873,"lon":5.39897,"is_reserved":false,"is_disabled":false,"rental_uris":{"android":"levelo://app?vid=927e7b9b-e8ce-43fe-acf0-09527cf988dc","ios":"levelo://app?vid=927e7b9b-e8ce-43fe-acf0-09527cf988dc"},"vehicle_type_id":"4","last_reported":1737738447,"current_range_meters":8400,"station_id":"ce4bhl92rcd13ifvqghg","pricing_plan_id":"cebpf4jnsgd1na2vs0mg"},{"bike_id":"4c4f250f-bd2f-4d27-9cb0-9af1e3584693","system_id":"levelo_inurba_marseille","lat":43.26677,"lon":5.38258,"is_reserved":false,"is_disabled":false,"rental_uris":{"android":"levelo://app?vid=4c4f250f-bd2f-4d27-9cb0-9af1e3584693","ios":"levelo://app?vid=4c4f250f-bd2f-4d27-9cb0-9af1e3584693"},"vehicle_type_id":"4","last_reported":1737738447,"current_range_meters":38000,"station_id":"ce4bhg92rcd13ifvqf90","pricing_plan_id":"cebpf4jnsgd1na2vs0mg"},{"bike_id":"d71be7d4-ac0d-4de5-b8b1-288b41851131","system_id":"levelo_inurba_marseille","lat":43.27926,"lon":5.38293,"is_reserved":false,"is_disabled":false,"rental_uris":{"android":"levelo://app?vid=d71be7d4-ac0d-4de5-b8b1-288b41851131","ios":"levelo://app?vid=d71be7d4-ac0d-4de5-b8b1-288b41851131"},"vehicle_type_id":"4","last_reported":1737738447,"current_range_meters":31200,"station_id":"ce4bhh92rcd13ifvqfi0","pricing_plan_id":"cebpf4jnsgd1na2vs0mg"},{"bike_id":"ab4d4a10-4127-4681-af00-e590f621d8c3","system_id":"levelo_inurba_marseille","lat":43.29619,"lon":5.377,"is_reserved":false,"is_disabled":false,"rental_uris":{"android":"levelo://app?vid=ab4d4a10-4127-4681-af00-e590f621d8c3","ios":"levelo://app?vid=ab4d4a10-4127-4681-af00-e590f621d8c3"},"vehicle_type_id":"4","last_reported":1737738447,"current_range_meters":24400,"station_id":"ce4bgi92rcd13ifvqb90","pricing_plan_id":"cebpf4jnsgd1na2vs0mg"},{"bike_id":"576b8657-d5e2-4d23-9b1e-461b2180cd28","system_id":"levelo_inurba_marseille","lat":43.2294,"lon":5.35382,"is_reserved":false,"is_disabled":false,"rental_uris":{"android":"levelo://app?vid=576b8657-d5e2-4d23-9b1e-461b2180cd28","ios":"levelo://app?vid=576b8657-d5e2-4d23-9b1e-461b2180cd28"},"vehicle_type_id":"4","last_reported":1737738447,"current_range_meters":38800,"station_id":"cpo3532slgdg3j2ikp40","pricing_plan_id":"cebpf4jnsgd1na2vs0mg"},{"bike_id":"e5ccdbd5-1745-4367-b1c1-773661a38615","system_id":"levelo_inurba_marseille","lat":43.29788,"lon":5.38117,"is_reserved":false,"is_disabled":false,"rental_uris":{"android":"levelo://app?vid=e5ccdbd5-1745-4367-b1c1-773661a38615","ios":"levelo://app?vid=e5ccdbd5-1745-4367-b1c1-773661a38615"},"vehicle_type_id":"4","last_reported":1737738447,"current_range_meters":6400,"station_id":"ce4bgip2rcd13ifvqbb0","pricing_plan_id":"cebpf4jnsgd1na2vs0mg"},{"bike_id":"f041db4d-e050-4720-aa3f-1546fb4bf6c3","system_id":"levelo_inurba_marseille","lat":43.273777,"lon":5.362566,"is_reserved":false,"is_disabled":false,"rental_uris":{"android":"levelo://app?vid=f041db4d-e050-4720-aa3f-1546fb4bf6c3","ios":"levelo://app?vid=f041db4d-e050-4720-aa3f-1546fb4bf6c3"},"vehicle_type_id":"4","last_reported":1737738447,"current_range_meters":38800,"station_id":"ce4bhbh2rcd13ifvqeo0","pricing_plan_id":"cebpf4jnsgd1na2vs0mg"},{"bike_id":"468d1abd-33d7-4f43-9ca3-3f80556db5cd","system_id":"levelo_inurba_marseille","lat":43.28565,"lon":5.39493,"is_reserved":false,"is_disabled":true,"rental_uris":{"android":"levelo://app?vid=468d1abd-33d7-4f43-9ca3-3f80556db5cd","ios":"levelo://app?vid=468d1abd-33d7-4f43-9ca3-3f80556db5cd"},"vehicle_type_id":"4","last_reported":1737738447,"current_range_meters":1200,"station_id":"ce4bh292rcd13ifvqdg0","pricing_plan_id":"cebpf4jnsgd1na2vs0mg"},{"bike_id":"aba9635a-2b11-43ff-81b3-7bb114eba0c8","system_id":"levelo_inurba_marseille","lat":43.30328,"lon":5.40441,"is_reserved":false,"is_disabled":true,"rental_uris":{"android":"levelo://app?vid=aba9635a-2b11-43ff-81b3-7bb114eba0c8","ios":"levelo://app?vid=aba9635a-2b11-43ff-81b3-7bb114eba0c8"},"vehicle_type_id":"4","last_reported":1737738447,"current_range_meters":400,"station_id":"ce4bh012rcd13ifvqd10","pricing_plan_id":"cebpf4jnsgd1na2vs0mg"},{"bike_id":"5296fbf6-4e75-4bf3-8108-dc4d439c6c34","system_id":"levelo_inurba_marseille","lat":43.28612,"lon":5.37062,"is_reserved":false,"is_disabled":false,"rental_uris":{"android":"levelo://app?vid=5296fbf6-4e75-4bf3-8108-dc4d439c6c34","ios":"levelo://app?vid=5296fbf6-4e75-4bf3-8108-dc4d439c6c34"},"vehicle_type_id":"4","last_reported":1737738447,"current_range_meters":22400,"station_id":"ce4bht12rcd13ifvqi60","pricing_plan_id":"cebpf4jnsgd1na2vs0mg"},{"bike_id":"cba32c36-5828-458c-812c-98c4ce920cca","system_id":"levelo_inurba_marseille","lat":43.30435,"lon":5.38894,"is_reserved":false,"is_disabled":false,"rental_uris":{"android":"levelo://app?vid=cba32c36-5828-458c-812c-98c4ce920cca","ios":"levelo://app?vid=cba32c36-5828-458c-812c-98c4ce920cca"},"vehicle_type_id":"4","last_reported":1737738447,"current_range_meters":21600,"station_id":"ce4bgk12rcd13ifvqbi0","pricing_plan_id":"cebpf4jnsgd1na2vs0mg"},{"bike_id":"283f31f4-bbc4-4b0a-972a-3af0a0cfa32b","system_id":"levelo_inurba_marseille","lat":43.29792,"lon":5.38109,"is_reserved":false,"is_disabled":false,"rental_uris":{"android":"levelo://app?vid=283f31f4-bbc4-4b0a-972a-3af0a0cfa32b","ios":"levelo://app?vid=283f31f4-bbc4-4b0a-972a-3af0a0cfa32b"},"vehicle_type_id":"4","last_reported":1737738447,"current_range_meters":6400,"station_id":"ce4bgip2rcd13ifvqbb0","pricing_plan_id":"cebpf4jnsgd1na2vs0mg"},{"bike_id":"a6ed32e1-5f77-48e1-a52f-af930b732239","system_id":"levelo_inurba_marseille","lat":43.31724,"lon":5.42399,"is_reserved":false,"is_disabled":false,"rental_uris":{"android":"levelo://app?vid=a6ed32e1-5f77-48e1-a52f-af930b732239","ios":"levelo://app?vid=a6ed32e1-5f77-48e1-a52f-af930b732239"},"vehicle_type_id":"4","last_reported":1737738447,"current_range_meters":38800,"station_id":"ce4bhp92rcd13ifvqhbg","pricing_plan_id":"cebpf4jnsgd1na2vs0mg"},{"bike_id":"b1f83aae-ce91-43c1-908a-3715b1c271cd","system_id":"levelo_inurba_marseille","lat":43.32376,"lon":5.38865,"is_reserved":false,"is_disabled":true,"rental_uris":{"android":"levelo://app?vid=b1f83aae-ce91-43c1-908a-3715b1c271cd","ios":"levelo://app?vid=b1f83aae-ce91-43c1-908a-3715b1c271cd"},"vehicle_type_id":"4","last_reported":1737738447,"current_range_meters":0,"station_id":"ce4bhqp2rcd13ifvqhog","pricing_plan_id":"cebpf4jnsgd1na2vs0mg"},{"bike_id":"8e684fe1-e823-4367-81c0-b3c2dedc805b","system_id":"levelo_inurba_marseille","lat":43.296269,"lon":5.371693,"is_reserved":false,"is_disabled":false,"rental_uris":{"android":"levelo://app?vid=8e684fe1-e823-4367-81c0-b3c2dedc805b","ios":"levelo://app?vid=8e684fe1-e823-4367-81c0-b3c2dedc805b"},"vehicle_type_id":"4","last_reported":1737738447,"current_range_meters":38800,"station_id":"ce4bgnh2rcd13ifvqc0g","pricing_plan_id":"cebpf4jnsgd1na2vs0mg"},{"bike_id":"d0ec6fdd-79b5-4eab-b41c-2270a2e2cc2a","system_id":"levelo_inurba_marseille","lat":43.28621,"lon":5.35107,"is_reserved":false,"is_disabled":false,"rental_uris":{"android":"levelo://app?vid=d0ec6fdd-79b5-4eab-b41c-2270a2e2cc2a","ios":"levelo://app?vid=d0ec6fdd-79b5-4eab-b41c-2270a2e2cc2a"},"vehicle_type_id":"4","last_reported":1737738447,"current_range_meters":30800,"station_id":"ce4bhch2rcd13ifvqeug","pricing_plan_id":"cebpf4jnsgd1na2vs0mg"},{"bike_id":"7a62623b-3351-4c09-8ada-d1ad6f796b1d","system_id":"levelo_inurba_marseille","lat":43.27936,"lon":5.41041,"is_reserved":false,"is_disabled":false,"rental_uris":{"android":"levelo://app?vid=7a62623b-3351-4c09-8ada-d1ad6f796b1d","ios":"levelo://app?vid=7a62623b-3351-4c09-8ada-d1ad6f796b1d"},"vehicle_type_id":"4","last_reported":1737738447,"current_range_meters":19600,"station_id":"ce4bhnp2rcd13ifvqh0g","pricing_plan_id":"cebpf4jnsgd1na2vs0mg"},{"bike_id":"a496b33c-2d9a-4a8d-9f35-27b8cde27e72","system_id":"levelo_inurba_marseille","lat":43.29526,"lon":5.38552,"is_reserved":false,"is_disabled":false,"rental_uris":{"android":"levelo://app?vid=a496b33c-2d9a-4a8d-9f35-27b8cde27e72","ios":"levelo://app?vid=a496b33c-2d9a-4a8d-9f35-27b8cde27e72"},"vehicle_type_id":"4","last_reported":1737738447,"current_range_meters":36400,"station_id":"ce4bgih2rcd13ifvqba0","pricing_plan_id":"cebpf4jnsgd1na2vs0mg"},{"bike_id":"e16734f2-1042-4d13-86c7-f08b92246302","system_id":"levelo_inurba_marseille","lat":43.25117,"lon":5.40324,"is_reserved":false,"is_disabled":false,"rental_uris":{"android":"levelo://app?vid=e16734f2-1042-4d13-86c7-f08b92246302","ios":"levelo://app?vid=e16734f2-1042-4d13-86c7-f08b92246302"},"vehicle_type_id":"4","last_reported":1737738447,"current_range_meters":8000,"station_id":"ce4bhlh2rcd13ifvqgig","pricing_plan_id":"cebpf4jnsgd1na2vs0mg"},{"bike_id":"447b8a66-f5d2-457d-bf9b-ac995915c91a","system_id":"levelo_inurba_marseille","lat":43.29865,"lon":5.42049,"is_reserved":false,"is_disabled":false,"rental_uris":{"android":"levelo://app?vid=447b8a66-f5d2-457d-bf9b-ac995915c91a","ios":"levelo://app?vid=447b8a66-f5d2-457d-bf9b-ac995915c91a"},"vehicle_type_id":"4","last_reported":1737738447,"current_range_meters":8400,"station_id":"","pricing_plan_id":"cebpf4jnsgd1na2vs0mg"},{"bike_id":"91efe6ba-6a0e-4e8b-9fca-14b75128f5d5","system_id":"levelo_inurba_marseille","lat":43.30353,"lon":5.40556,"is_reserved":false,"is_disabled":true,"rental_uris":{"android":"levelo://app?vid=91efe6ba-6a0e-4e8b-9fca-14b75128f5d5","ios":"levelo://app?vid=91efe6ba-6a0e-4e8b-9fca-14b75128f5d5"},"vehicle_type_id":"4","last_reported":1737738447,"current_range_meters":0,"station_id":"","pricing_plan_id":"cebpf4jnsgd1na2vs0mg"},{"bike_id":"385b05f4-cd67-4fc0-bab8-48a839de2db4","system_id":"levelo_inurba_marseille","lat":43.307,"lon":5.3703,"is_reserved":false,"is_disabled":true,"rental_uris":{"android":"levelo://app?vid=385b05f4-cd67-4fc0-bab8-48a839de2db4","ios":"levelo://app?vid=385b05f4-cd67-4fc0-bab8-48a839de2db4"},"vehicle_type_id":"4","last_reported":1737738447,"current_range_meters":800,"station_id":"","pricing_plan_id":"cebpf4jnsgd1na2vs0mg"},{"bike_id":"6fd73f4f-1954-4782-9e90-de7f65b3c67c","system_id":"levelo_inurba_marseille","lat":43.3176,"lon":5.3901,"is_reserved":false,"is_disabled":false,"rental_uris":{"android":"levelo://app?vid=6fd73f4f-1954-4782-9e90-de7f65b3c67c","ios":"levelo://app?vid=6fd73f4f-1954-4782-9e90-de7f65b3c67c"},"vehicle_type_id":"4","last_reported":1737738447,"current_range_meters":38800,"station_id":"ce4bhqp2rcd13ifvqhng","pricing_plan_id":"cebpf4jnsgd1na2vs0mg"},{"bike_id":"7db52b9f-ce79-4063-a90d-1d006402972c","system_id":"levelo_inurba_marseille","lat":43.3236,"lon":5.36754,"is_reserved":false,"is_disabled":false,"rental_uris":{"android":"levelo://app?vid=7db52b9f-ce79-4063-a90d-1d006402972c","ios":"levelo://app?vid=7db52b9f-ce79-4063-a90d-1d006402972c"},"vehicle_type_id":"4","last_reported":1737738447,"current_range_meters":22400,"station_id":"ce4bhsh2rcd13ifvqi2g","pricing_plan_id":"cebpf4jnsgd1na2vs0mg"},{"bike_id":"5c458abf-b6ec-4916-b634-e748e5a8944b","system_id":"levelo_inurba_marseille","lat":43.28607,"lon":5.35122,"is_reserved":false,"is_disabled":false,"rental_uris":{"android":"levelo://app?vid=5c458abf-b6ec-4916-b634-e748e5a8944b","ios":"levelo://app?vid=5c458abf-b6ec-4916-b634-e748e5a8944b"},"vehicle_type_id":"4","last_reported":1737738447,"current_range_meters":3600,"station_id":"ce4bhch2rcd13ifvqeug","pricing_plan_id":"cebpf4jnsgd1na2vs0mg"},{"bike_id":"a5096344-2895-410b-b4cc-2e3304c65292","system_id":"levelo_inurba_marseille","lat":43.26805,"lon":5.40276,"is_reserved":false,"is_disabled":true,"rental_uris":{"android":"levelo://app?vid=a5096344-2895-410b-b4cc-2e3304c65292","ios":"levelo://app?vid=a5096344-2895-410b-b4cc-2e3304c65292"},"vehicle_type_id":"4","last_reported":1737738447,"current_range_meters":1200,"station_id":"ce501612rcd8frsf0b60","pricing_plan_id":"cebpf4jnsgd1na2vs0mg"},{"bike_id":"57309b83-05b2-41b4-8354-d8a9957344ad","system_id":"levelo_inurba_marseille","lat":43.26505,"lon":5.39536,"is_reserved":false,"is_disabled":false,"rental_uris":{"android":"levelo://app?vid=57309b83-05b2-41b4-8354-d8a9957344ad","ios":"levelo://app?vid=57309b83-05b2-41b4-8354-d8a9957344ad"},"vehicle_type_id":"4","last_reported":1737738447,"current_range_meters":27600,"station_id":"ce4bhi12rcd13ifvqfq0","pricing_plan_id":"cebpf4jnsgd1na2vs0mg"},{"bike_id":"64c96386-6a0b-4966-88b2-34fcb78119d1","system_id":"levelo_inurba_marseille","lat":43.31085,"lon":5.42435,"is_reserved":false,"is_disabled":false,"rental_uris":{"android":"levelo://app?vid=64c96386-6a0b-4966-88b2-34fcb78119d1","ios":"levelo://app?vid=64c96386-6a0b-4966-88b2-34fcb78119d1"},"vehicle_type_id":"4","last_reported":1737738447,"current_range_meters":20000,"station_id":"ce4bhp92rcd13ifvqhag","pricing_plan_id":"cebpf4jnsgd1na2vs0mg"},{"bike_id":"7f29fcf4-afe8-47ae-a3bc-9c2c9a11a0e5","system_id":"levelo_inurba_marseille","lat":43.32481,"lon":5.36594,"is_reserved":false,"is_disabled":false,"rental_uris":{"android":"levelo://app?vid=7f29fcf4-afe8-47ae-a3bc-9c2c9a11a0e5","ios":"levelo://app?vid=7f29fcf4-afe8-47ae-a3bc-9c2c9a11a0e5"},"vehicle_type_id":"4","last_reported":1737738447,"current_range_meters":27200,"station_id":"ce4bhs12rcd13ifvqhvg","pricing_plan_id":"cebpf4jnsgd1na2vs0mg"},