{"last_updated":1730034828,"ttl":60,"version":"2.2","data":{"bikes":[{"bike_id":"46ca7a5a-b63f-4a23-af18-d368d3c3861e","system_id":"levelo_inurba_marseille","lat":43.27318,"lon":5.39084,"is_reserved":false,"is_disabled":false,"rental_uris":{"android":"levelo://app?vid=46ca7a5a-b63f-4a23-af18-d368d3c3861e","ios":"levelo://app?vid=46ca7a5a-b63f-4a23-af18-d368d3c3861e"},"vehicle_type_id":"4","last_reported":1730034828,"current_range_meters":33200,"station_id":"ce4bhgp2rcd13ifvqfe0","pricing_plan_id":"cebpf4jnsgd1na2vs0mg"},{"bike_id":"afcafc6c-ecc3-4f5c-a312-79b6f9633782","system_id":"levelo_inurba_marseille","lat":43.28415,"lon":5.34983,"is_reserved":false,"is_disabled":false,"rental_uris":{"android":"levelo://app?vid=afcafc6c-ecc3-4f5c-a312-79b6f9633782","ios":"levelo://app?vid=afcafc6c-ecc3-4f5c-a312-79b6f9633782"},"vehicle_type_id":"4","last_reported":1730034828,"current_range_meters":24800,"station_id":"ce4bhbh2rcd13ifvqepg","pricing_plan_id":"cebpf4jnsgd1na2vs0mg"},{"bike_id":"69f4165a-13a2-4bd8-b4d6-abfa25614867","system_id":"levelo_inurba_marseille","lat":43.26798,"lon":5.40259,"is_reserved":false,"is_disabled":false,"rental_uris":{"android":"levelo://app?vid=69f4165a-13a2-4bd8-b4d6-abfa25614867","ios":"levelo://app?vid=69f4165a-13a2-4bd8-b4d6-abfa25614867"},"vehicle_type_id":"4","last_reported":1730034828,"current_range_meters":38800,"station_id":"ce501612rcd8frsf0b60","pricing_plan_id":"cebpf4jnsgd1na2vs0mg"},{"bike_id":"8b704ae4-207e-4b31-99c9-aab4230230ac","system_id":"levelo_inurba_marseille","lat":43.27944,"lon":5.41059,"is_reserved":false,"is_disabled":false,"rental_uris":{"android":"levelo://app?vid=8b704ae4-207e-4b31-99c9-aab4230230ac","ios":"levelo://app?vid=8b704ae4-207e-4b31-99c9-aab4230230ac"},"vehicle_type_id":"4","last_reported":1730034828,"current_range_meters":36800,"station_id":"ce4bhnp2rcd13ifvqh0g","pricing_plan_id":"cebpf4jnsgd1na2vs0mg"},{"bike_id":"a94e9257-cbef-483c-811c-40ab9bcd944d","system_id":"levelo_inurba_marseille","lat":43.290283,"lon":5.386499,"is_reserved":false,"is_disabled":false,"rental_uris":{"android":"levelo://app?vid=a94e9257-cbef-483c-811c-40ab9bcd944d","ios":"levelo://app?vid=a94e9257-cbef-483c-811c-40ab9bcd944d"},"vehicle_type_id":"4","last_reported":1730034828,"current_range_meters":28800,"station_id":"ce4bh4p2rcd13ifvqe0g","pricing_plan_id":"cebpf4jnsgd1na2vs0mg"},{"bike_id":"556647e4-9c26-4576-bd8c-415461ddabd4","system_id":"levelo_inurba_marseille","lat":43.27568,"lon":5.38419,"is_reserved":false,"is_disabled":false,"rental_uris":{"android":"levelo://app?vid=556647e4-9c26-4576-bd8c-415461ddabd4","ios":"levelo://app?vid=556647e4-9c26-4576-bd8c-415461ddabd4"},"vehicle_type_id":"4","last_reported":1730034828,"current_range_meters":38400,"station_id":"ce4bhh92rcd13ifvqfi0","pricing_plan_id":"cebpf4jnsgd1na2vs0mg"},{"bike_id":"48660d12-eacc-4f93-a06c-04c2aa9e37e4","system_id":"levelo_inurba_marseille","lat":43.26802,"lon":5.40264,"is_reserved":false,"is_disabled":false,"rental_uris":{"android":"levelo://app?vid=48660d12-eacc-4f93-a06c-04c2aa9e37e4","ios":"levelo://app?vid=48660d12-eacc-4f93-a06c-04c2aa9e37e4"},"vehicle_type_id":"4","last_reported":1730034828,"current_range_meters":17600,"station_id":"ce501612rcd8frsf0b60","pricing_plan_id":"cebpf4jnsgd1na2vs0mg"},{"bike_id":"f3d5c86c-ab11-4ca3-aa72-c97ea732ed17","system_id":"levelo_inurba_marseille","lat":43.27323,"lon":5.39089,"is_reserved":false,"is_disabled":false,"rental_uris":{"android":"levelo://app?vid=f3d5c86c-ab11-4ca3-aa72-c97ea732ed17","ios":"levelo://app?vid=f3d5c86c-ab11-4ca3-aa72-c97ea732ed17"},"vehicle_type_id":"4","last_reported":1730034828,"current_range_meters":29600,"station_id":"ce4bhgp2rcd13ifvqfe0","pricing_plan_id":"cebpf4jnsgd1na2vs0mg"},{"bike_id":"3381cd79-1316-4c50-ad86-ee5056cd0e14","system_id":"levelo_inurba_marseille","lat":43.26061,"lon":5.39393,"is_reserved":false,"is_disabled":false,"rental_uris":{"android":"levelo://app?vid=3381cd79-1316-4c50-ad86-ee5056cd0e14","ios":"levelo://app?vid=3381cd79-1316-4c50-ad86-ee5056cd0e14"},"vehicle_type_id":"4","last_reported":1730034828,"current_range_meters":31200,"station_id":"ce4bhh92rcd13ifvqfj0","pricing_plan_id":"cebpf4jnsgd1na2vs0mg"},{"bike_id":"1ebff38b-6cf3-44c6-a2bf-cb5216b06de3","system_id":"levelo_inurba_marseille","lat":43.29562,"lon":5.37537,"is_reserved":false,"is_disabled":false,"rental_uris":{"android":"levelo://app?vid=1ebff38b-6cf3-44c6-a2bf-cb5216b06de3","ios":"levelo://app?vid=1ebff38b-6cf3-44c6-a2bf-cb5216b06de3"},"vehicle_type_id":"4","last_reported":1730034828,"current_range_meters":31200,"station_id":"ce4bgh92rcd13ifvqb50","pricing_plan_id":"cebpf4jnsgd1na2vs0mg"},{"bike_id":"cba112a0-44f4-4f47-a8fa-15542b39a456","system_id":"levelo_inurba_marseille","lat":43.23187,"lon":5.35551,"is_reserved":false,"is_disabled":false,"rental_uris":{"android":"levelo://app?vid=cba112a0-44f4-4f47-a8fa-15542b39a456","ios":"levelo://app?vid=cba112a0-44f4-4f47-a8fa-15542b39a456"},"vehicle_type_id":"4","last_reported":1730034828,"current_range_meters":24800,"station_id":"ce4bhu92rcd13ifvqi70","pricing_plan_id":"cebpf4jnsgd1na2vs0mg"},{"bike_id":"d3c00326-2053-4dfa-8f38-475bf5a8246c","system_id":"levelo_inurba_marseille","lat":43.2438,"lon":5.37054,"is_reserved":false,"is_disabled":false,"rental_uris":{"android":"levelo://app?vid=d3c00326-2053-4dfa-8f38-475bf5a8246c","ios":"levelo://app?vid=d3c00326-2053-4dfa-8f38-475bf5a8246c"},"vehicle_type_id":"4","last_reported":1730034828,"current_range_meters":32800,"station_id":"ce4bhhh2rcd13ifvqfk0","pricing_plan_id":"cebpf4jnsgd1na2vs0mg"},{"bike_id":"96e8a04e-eaaa-4c54-b7b2-d27222ec8868","system_id":"levelo_inurba_marseille","lat":43.24998,"lon":5.38913,"is_reserved":false,"is_disabled":false,"rental_uris":{"android":"levelo://app?vid=96e8a04e-eaaa-4c54-b7b2-d27222ec8868","ios":"levelo://app?vid=96e8a04e-eaaa-4c54-b7b2-d27222ec8868"},"vehicle_type_id":"4","last_reported":1730034828,"current_range_meters":8800,"station_id":"ce4bhgp2rcd13ifvqfd0","pricing_plan_id":"cebpf4jnsgd1na2vs0mg"},{"bike_id":"d97b91f4-e188-49a4-8c71-216ae6228de5","system_id":"levelo_inurba_marseille","lat":43.32657,"lon":5.40992,"is_reserved":false,"is_disabled":false,"rental_uris":{"android":"levelo://app?vid=d97b91f4-e188-49a4-8c71-216ae6228de5","ios":"levelo://app?vid=d97b91f4-e188-49a4-8c71-216ae6228de5"},"vehicle_type_id":"4","last_reported":1730034828,"current_range_meters":39200,"station_id":"ce4bhpp2rcd13ifvqhgg","pricing_plan_id":"cebpf4jnsgd1na2vs0mg"},{"bike_id":"ffd6c056-3121-4deb-98dd-7211a7f45235","system_id":"levelo_inurba_marseille","lat":43.3089,"lon":5.39655,"is_reserved":false,"is_disabled":false,"rental_uris":{"android":"levelo://app?vid=ffd6c056-3121-4deb-98dd-7211a7f45235","ios":"levelo://app?vid=ffd6c056-3121-4deb-98dd-7211a7f45235"},"vehicle_type_id":"4","last_reported":1730034828,"current_range_meters":39200,"station_id":"ce4bh012rcd13ifvqcv0","pricing_plan_id":"cebpf4jnsgd1na2vs0mg"},{"bike_id":"11e72fcd-b102-4650-b5f8-de942a84cb8e","system_id":"levelo_inurba_marseille","lat":43.27572,"lon":5.38421,"is_reserved":false,"is_disabled":false,"rental_uris":{"android":"levelo://app?vid=11e72fcd-b102-4650-b5f8-de942a84cb8e","ios":"levelo://app?vid=11e72fcd-b102-4650-b5f8-de942a84cb8e"},"vehicle_type_id":"4","last_reported":1730034828,"current_range_meters":28400,"station_id":"ce4bhh92rcd13ifvqfi0","pricing_plan_id":"cebpf4jnsgd1na2vs0mg"},{"bike_id":"27530483-123f-46ea-8d0b-d0a8be25f1fc","system_id":"levelo_inurba_marseille","lat":43.29975,"lon":5.38482,"is_reserved":false,"is_disabled":false,"rental_uris":{"android":"levelo://app?vid=27530483-123f-46ea-8d0b-d0a8be25f1fc","ios":"levelo://app?vid=27530483-123f-46ea-8d0b-d0a8be25f1fc"},"vehicle_type_id":"4","last_reported":1730034828,"current_range_meters":3200,"station_id":"ce4bgj92rcd13ifvqbd0","pricing_plan_id":"cebpf4jnsgd1na2vs0mg"},{"bike_id":"f85d1b72-3a8c-4a2a-864a-92a540d77af2","system_id":"levelo_inurba_marseille","lat":43.31267,"lon":5.40156,"is_reserved":false,"is_disabled":false,"rental_uris":{"android":"levelo://app?vid=f85d1b72-3a8c-4a2a-864a-92a540d77af2","ios":"levelo://app?vid=f85d1b72-3a8c-4a2a-864a-92a540d77af2"},"vehicle_type_id":"4","last_reported":1730034828,"current_range_meters":39200,"station_id":"ce4bh092rcd13ifvqd30","pricing_plan_id":"cebpf4jnsgd1na2vs0mg"},{"bike_id":"633bdd84-8a27-486c-8d5a-62bd9dd56f9f","system_id":"levelo_inurba_marseille","lat":43.26944,"lon":5.40244,"is_reserved":false,"is_disabled":false,"rental_uris":{"android":"levelo://app?vid=633bdd84-8a27-486c-8d5a-62bd9dd56f9f","ios":"levelo://app?vid=633bdd84-8a27-486c-8d5a-62bd9dd56f9f"},"vehicle_type_id":"4","last_reported":1730034828,"current_range_meters":38400,"station_id":"cjm6bp8fraef2m0cb0m0","pricing_plan_id":"cebpf4jnsgd1na2vs0mg"},{"bike_id":"92486913-3069-465a-9940-1f6062124ee2","system_id":"levelo_inurba_marseille","lat":43.2983,"lon":5.36273,"is_reserved":false,"is_disabled":false,"rental_uris":{"android":"levelo://app?vid=92486913-3069-465a-9940-1f6062124ee2","ios":"levelo://app?vid=92486913-3069-465a-9940-1f6062124ee2"},"vehicle_type_id":"4","last_reported":1730034828,"current_range_meters":39200,"station_id":"ce4bgpp2rcd13ifvqc3g","pricing_plan_id":"cebpf4jnsgd1na2vs0mg"},{"bike_id":"94008cea-95dd-4c3d-b32c-368ab2fae152","system_id":"levelo_inurba_marseille","lat":43.24179,"lon":5.39735,"is_reserved":false,"is_disabled":false,"rental_uris":{"android":"levelo://app?vid=94008cea-95dd-4c3d-b32c-368ab2fae152","ios":"levelo://app?vid=94008cea-95dd-4c3d-b32c-368ab2fae152"},"vehicle_type_id":"4","last_reported":1730034828,"current_range_meters":39200,"station_id":"ce4bhn12rcd13ifvqgpg","pricing_plan_id":"cebpf4jnsgd1na2vs0mg"},{"bike_id":"0c5cd99c-9f06-4e90-a5fc-6ff2c5bc4703","system_id":"levelo_inurba_marseille","lat":43.2693,"lon":5.38918,"is_reserved":false,"is_disabled":false,"rental_uris":{"android":"levelo://app?vid=0c5cd99c-9f06-4e90-a5fc-6ff2c5bc4703","ios":"levelo://app?vid=0c5cd99c-9f06-4e90-a5fc-6ff2c5bc4703"},"vehicle_type_id":"4","last_reported":1730034828,"current_range_meters":37600,"station_id":"ce4bhhh2rcd13ifvqfl0","pricing_plan_id":"cebpf4jnsgd1na2vs0mg"},{"bike_id":"01a627b4-6657-4788-a55a-864e03612018","system_id":"levelo_inurba_marseille","lat":43.26485,"lon":5.3955,"is_reserved":false,"is_disabled":false,"rental_uris":{"android":"levelo://app?vid=01a627b4-6657-4788-a55a-864e03612018","ios":"levelo://app?vid=01a627b4-6657-4788-a55a-864e03612018"},"vehicle_type_id":"4","last_reported":1730034828,"current_range_meters":25600,"station_id":"ce4bhi12rcd13ifvqfq0","pricing_plan_id":"cebpf4jnsgd1na2vs0mg"},{"bike_id":"4bb2af1f-de35-4901-82a6-f5624d380bf7","system_id":"levelo_inurba_marseille","lat":43.28478,"lon":5.38545,"is_reserved":false,"is_disabled":false,"rental_uris":{"android":"levelo://app?vid=4bb2af1f-de35-4901-82a6-f5624d380bf7","ios":"levelo://app?vid=4bb2af1f-de35-4901-82a6-f5624d380bf7"},"vehicle_type_id":"4","last_reported":1730034828,"current_range_meters":38800,"station_id":"ce4bh8p2rcd13ifvqeb0","pricing_plan_id":"cebpf4jnsgd1na2vs0mg"},{"bike_id":"23c5d7b7-57db-44da-99cb-79d34187b21f","system_id":"levelo_inurba_marseille","lat":43.28994,"lon":5.35608,"is_reserved":false,"is_disabled":false,"rental_uris":{"android":"levelo://app?vid=23c5d7b7-57db-44da-99cb-79d34187b21f","ios":"levelo://app?vid=23c5d7b7-57db-44da-99cb-79d34187b21f"},"vehicle_type_id":"4","last_reported":1730034828,"current_range_meters":36400,"station_id":"ce4bhb92rcd13ifvqen0","pricing_plan_id":"cebpf4jnsgd1na2vs0mg"},{"bike_id":"a402349c-2289-4512-8e06-ddedd18ccc18","system_id":"levelo_inurba_marseille","lat":43.27317,"lon":5.39095,"is_reserved":false,"is_disabled":false,"rental_uris":{"android":"levelo://app?vid=a402349c-2289-4512-8e06-ddedd18ccc18","ios":"levelo://app?vid=a402349c-2289-4512-8e06-ddedd18ccc18"},"vehicle_type_id":"4","last_reported":1730034828,"current_range_meters":12400,"station_id":"ce4bhgp2rcd13ifvqfe0","pricing_plan_id":"cebpf4jnsgd1na2vs0mg"},{"bike_id":"ff081f0c-ea21-431a-8d61-ad48db65fd3a","system_id":"levelo_inurba_marseille","lat":43.30344,"lon":5.4188,"is_reserved":false,"is_disabled":false,"rental_uris":{"android":"levelo://app?vid=ff081f0c-ea21-431a-8d61-ad48db65fd3a","ios":"levelo://app?vid=ff081f0c-ea21-431a-8d61-ad48db65fd3a"},"vehicle_type_id":"4","last_reported":1730034828,"current_range_meters":28800,"station_id":"ce4bhop2rcd13ifvqh7g","pricing_plan_id":"cebpf4jnsgd1na2vs0mg"},{"bike_id":"b3dddb20-083c-47eb-8f00-9a6e4abc0713","system_id":"levelo_inurba_marseille","lat":43.27898,"lon":5.38016,"is_reserved":false,"is_disabled":false,"rental_uris":{"android":"levelo://app?vid=b3dddb20-083c-47eb-8f00-9a6e4abc0713","ios":"levelo://app?vid=b3dddb20-083c-47eb-8f00-9a6e4abc0713"},"vehicle_type_id":"4","last_reported":1730034828,"current_range_meters":17200,"station_id":"ce4bhf92rcd13ifvqf50","pricing_plan_id":"cebpf4jnsgd1na2vs0mg"},{"bike_id":"b5996ff3-4e07-4fca-b670-42db5aa18e5d","system_id":"levelo_inurba_marseille","lat":43.29921,"lon":5.37498,"is_reserved":false,"is_disabled":false,"rental_uris":{"android":"levelo://app?vid=b5996ff3-4e07-4fca-b670-42db5aa18e5d","ios":"levelo://app?vid=b5996ff3-4e07-4fca-b670-42db5aa18e5d"},"vehicle_type_id":"4","last_reported":1730034828,"current_range_meters":30400,"station_id":"ce4bgjh2rcd13ifvqbg0","pricing_plan_id":"cebpf4jnsgd1na2vs0mg"},{"bike_id":"91a84928-1b47-45f2-826f-9c7968eeed3b","system_id":"levelo_inurba_marseille","lat":43.32361,"lon":5.38894,"is_reserved":false,"is_disabled":false,"rental_uris":{"android":"levelo://app?vid=91a84928-1b47-45f2-826f-9c7968eeed3b","ios":"levelo://app?vid=91a84928-1b47-45f2-826f-9c7968eeed3b"},"vehicle_type_id":"4","last_reported":1730034828,"current_range_meters":17200,"station_id":"ce4bhqp2rcd13ifvqhog","pricing_plan_id":"cebpf4jnsgd1na2vs0mg"},{"bike_id":"8ed0e600-52f7-4841-aa09-f2be0f0fd557","system_id":"levelo_inurba_marseille","lat":43.26806,"lon":5.40255,"is_reserved":false,"is_disabled":false,"rental_uris":{"android":"levelo://app?vid=8ed0e600-52f7-4841-aa09-f2be0f0fd557","ios":"levelo://app?vid=8ed0e600-52f7-4841-aa09-f2be0f0fd557"},"vehicle_type_id":"4","last_reported":1730034828,"current_range_meters":39200,"station_id":"ce501612rcd8frsf0b60","pricing_plan_id":"cebpf4jnsgd1na2vs0mg"},{"bike_id":"77bdee59-8b1a-4a67-a616-a0a4a9f1faaa","system_id":"levelo_inurba_marseille","lat":43.29169,"lon":5.37158,"is_reserved":false,"is_disabled":false,"rental_uris":{"android":"levelo://app?vid=77bdee59-8b1a-4a67-a616-a0a4a9f1faaa","ios":"levelo://app?vid=77bdee59-8b1a-4a67-a616-a0a4a9f1faaa"},"vehicle_type_id":"4","last_reported":1730034828,"current_range_meters":39200,"station_id":"ce4bha92rcd13ifvqeh0","pricing_plan_id":"cebpf4jnsgd1na2vs0mg"},{"bike_id":"26f7c35c-afee-4820-b451-761dcbf529a0","system_id":"levelo_inurba_marseille","lat":43.26205,"lon":5.3744,"is_reserved":false,"is_disabled":false,"rental_uris":{"android":"levelo://app?vid=26f7c35c-afee-4820-b451-761dcbf529a0","ios":"levelo://app?vid=26f7c35c-afee-4820-b451-761dcbf529a0"},"vehicle_type_id":"4","last_reported":1730034828,"current_range_meters":11200,"station_id":"ce4bhgp2rcd13ifvqfc0","pricing_plan_id":"cebpf4jnsgd1na2vs0mg"},{"bike_id":"b8b59812-7afe-47c0-9894-bde2533a587e","system_id":"levelo_inurba_marseille","lat":43.29786,"lon":5.38119,"is_reserved":false,"is_disabled":false,"rental_uris":{"android":"levelo://app?vid=b8b59812-7afe-47c0-9894-bde2533a587e","ios":"levelo://app?vid=b8b59812-7afe-47c0-9894-bde2533a587e"},"vehicle_type_id":"4","last_reported":1730034828,"current_range_meters":38800,"station_id":"ce4bgip2rcd13ifvqbb0","pricing_plan_id":"cebpf4jnsgd1na2vs0mg"},{"bike_id":"7696ed46-4fa6-491d-a353-98bd14d0e8dc","system_id":"levelo_inurba_marseille","lat":43.29849,"lon":5.36284,"is_reserved":false,"is_disabled":false,"rental_uris":{"android":"levelo://app?vid=7696ed46-4fa6-491d-a353-98bd14d0e8dc","ios":"levelo://app?vid=7696ed46-4fa6-491d-a353-98bd14d0e8dc"},"vehicle_type_id":"4","last_reported":1730034828,"current_range_meters":22400,"station_id":"ce4bgpp2rcd13ifvqc3g","pricing_plan_id":"cebpf4jnsgd1na2vs0mg"},{"bike_id":"5de0a329-7698-4bce-b772-88bd5818048d","system_id":"levelo_inurba_marseille","lat":43.26067,"lon":5.39391,"is_reserved":false,"is_disabled":false,"rental_uris":{"android":"levelo://app?vid=5de0a329-7698-4bce-b772-88bd5818048d","ios":"levelo://app?vid=5de0a329-7698-4bce-b772-88bd5818048d"},"vehicle_type_id":"4","last_reported":1730034828,"current_range_meters":32400,"station_id":"ce4bhh92rcd13ifvqfj0","pricing_plan_id":"cebpf4jnsgd1na2vs0mg"},{"bike_id":"27f39214-437b-402f-ba70-e8fd46f4e41b","system_id":"levelo_inurba_marseille","lat":43.28479,"lon":5.36927,"is_reserved":false,"is_disabled":false,"rental_uris":{"android":"levelo://app?vid=27f39214-437b-402f-ba70-e8fd46f4e41b","ios":"levelo://app?vid=27f39214-437b-402f-ba70-e8fd46f4e41b"},"vehicle_type_id":"4","last_reported":1730034828,"current_range_meters":19200,"station_id":"","pricing_plan_id":"cebpf4jnsgd1na2vs0mg"},{"bike_id":"5ed72901-e44e-460e-9669-5f1f8a6d2f53","system_id":"levelo_inurba_marseille","lat":43.28653,"lon":5.44467,"is_reserved":false,"is_disabled":false,"rental_uris":{"android":"levelo://app?vid=5ed72901-e44e-460e-9669-5f1f8a6d2f53","ios":"levelo://app?vid=5ed72901-e44e-460e-9669-5f1f8a6d2f53"},"vehicle_type_id":"4","last_reported":1730034828,"current_range_meters":9200,"station_id":"","pricing_plan_id":"cebpf4jnsgd1na2vs0mg"},{"bike_id":"844f79bf-a8ea-48db-965a-93aacfa5ea63","system_id":"levelo_inurba_marseille","lat":43.28462,"lon":5.35889,"is_reserved":false,"is_disabled":false,"rental_uris":{"android":"levelo://app?vid=844f79bf-a8ea-48db-965a-93aacfa5ea63","ios":"levelo://app?vid=844f79bf-a8ea-48db-965a-93aacfa5ea63"},"vehicle_type_id":"4","last_reported":1730034828,"current_range_meters":12800,"station_id":"ce4bhah2rcd13ifvqei0","pricing_plan_id":"cebpf4jnsgd1na2vs0mg"},{"bike_id":"e7360508-6978-487a-a79b-5e2dad5d0ea3","system_id":"levelo_inurba_marseille","lat":43.22932,"lon":5.35374,"is_reserved":false,"is_disabled":false,"rental_uris":{"android":"levelo://app?vid=e7360508-6978-487a-a79b-5e2dad5d0ea3","ios":"levelo://app?vid=e7360508-6978-487a-a79b-5e2dad5d0ea3"},"vehicle_type_id":"4","last_reported":1730034828,"current_range_meters":24800,"station_id":"cpo3532slgdg3j2ikp40","pricing_plan_id":"cebpf4jnsgd1na2vs0mg"},{"bike_id":"72fff3d2-f3e9-45aa-ae6a-0949dc559f0e","system_id":"levelo_inurba_marseille","lat":43.27055,"lon":5.40261,"is_reserved":false,"is_disabled":false,"rental_uris":{"android":"levelo://app?vid=72fff3d2-f3e9-45aa-ae6a-0949dc559f0e","ios":"levelo://app?vid=72fff3d2-f3e9-45aa-ae6a-0949dc559f0e"},"vehicle_type_id":"4","last_reported":1730034828,"current_range_meters":33200,"station_id":"ce4bhk92rcd13ifvqgc0","pricing_plan_id":"cebpf4jnsgd1na2vs0mg"},{"bike_id":"0a6d3b0a-4878-4436-843f-b04829c7eda5","system_id":"levelo_inurba_marseille","lat":43.28936,"lon":5.36636,"is_reserved":false,"is_disabled":false,"rental_uris":{"android":"levelo://app?vid=0a6d3b0a-4878-4436-843f-b04829c7eda5","ios":"levelo://app?vid=0a6d3b0a-4878-4436-843f-b04829c7eda5"},"vehicle_type_id":"4","last_reported":1730034828,"current_range_meters":26800,"station_id":"ce4bhap2rcd13ifvqek0","pricing_plan_id":"cebpf4jnsgd1na2vs0mg"},{"bike_id":"34c0b19e-e327-425b-bf09-25bec92dd9c4","system_id":"levelo_inurba_marseille","lat":43.293295,"lon":5.454689,"is_reserved":false,"is_disabled":false,"rental_uris":{"android":"levelo://app?vid=34c0b19e-e327-425b-bf09-25bec92dd9c4","ios":"levelo://app?vid=34c0b19e-e327-425b-bf09-25bec92dd9c4"},"vehicle_type_id":"4","last_reported":1730034828,"current_range_meters":4400,"station_id":"","pricing_plan_id":"cebpf4jnsgd1na2vs0mg"},{"bike_id":"445eb71c-4fcd-4fb3-bd44-0649e2389961","system_id":"levelo_inurba_marseille","lat":43.25941,"lon":5.40901,"is_reserved":false,"is_disabled":false,"rental_uris":{"android":"levelo://app?vid=445eb71c-4fcd-4fb3-bd44-0649e2389961","ios":"levelo://app?vid=445eb71c-4fcd-4fb3-bd44-0649e2389961"},"vehicle_type_id":"4","last_reported":1730034828,"current_range_meters":8400,"station_id":"ce4bhm92rcd13ifvqglg","pricing_plan_id":"cebpf4jnsgd1na2vs0mg"},{"bike_id":"31824086-a607-4f65-b7d7-e7c260d1fa8a","system_id":"levelo_inurba_marseille","lat":43.24657,"lon":5.38165,"is_reserved":false,"is_disabled":false,"rental_uris":{"android":"levelo://app?vid=31824086-a607-4f65-b7d7-e7c260d1fa8a","ios":"levelo://app?vid=31824086-a607-4f65-b7d7-e7c260d1fa8a"},"vehicle_type_id":"4","last_reported":1730034828,"current_range_meters":34800,"station_id":"ce4bhih2rcd13ifvqfr0","pricing_plan_id":"cebpf4jnsgd1na2vs0mg"},{"bike_id":"34f93e00-5029-4642-b0c4-0b8938f16f5d","system_id":"levelo_inurba_marseille","lat":43.31352,"lon":5.36734,"is_reserved":false,"is_disabled":false,"rental_uris":{"android":"levelo://app?vid=34f93e00-5029-4642-b0c4-0b8938f16f5d","ios":"levelo://app?vid=34f93e00-5029-4642-b0c4-0b8938f16f5d"},"vehicle_type_id":"4","last_reported":1730034828,"current_range_meters":31200,"station_id":"ce4bgr92rcd13ifvqc6g","pricing_plan_id":"cebpf4jnsgd1na2vs0mg"},{"bike_id":"990ab42c-5657-4836-8a93-855b90667f32","system_id":"levelo_inurba_marseille","lat":43.24806,"lon":5.37457,"is_reserved":false,"is_disabled":false,"rental_uris":{"android":"levelo://app?vid=990ab42c-5657-4836-8a93-855b90667f32","ios":"levelo://app?vid=990ab42c-5657-4836-8a93-855b90667f32"},"vehicle_type_id":"4","last_reported":1730034828,"current_range_meters":24800,"station_id":"ce4bhgh2rcd13ifvqfb0","pricing_plan_id":"cebpf4jnsgd1na2vs0mg"},{"bike_id":"147eff77-bab1-4575-bc14-cd2a917e6ee0","system_id":"levelo_inurba_marseille","lat":43.28702,"lon":5.39988,"is_reserved":false,"is_disabled":false,"rental_uris":{"android":"levelo://app?vid=147eff77-bab1-4575-bc14-cd2a917e6ee0","ios":"levelo://app?vid=147eff77-bab1-4575-bc14-cd2a917e6ee0"},"vehicle_type_id":"4","last_reported":1730034828,"current_range_meters":8400,"station_id":"ce4bho92rcd13ifvqh3g","pricing_plan_id":"cebpf4jnsgd1na2vs0mg"},{"bike_id":"e16ba0fb-c8f9-4074-a1c8-ad626ad5602f","system_id":"levelo_inurba_marseille","lat":43.26929,"lon":5.40249,"is_reserved":false,"is_disabled":false,"rental_uris":{"android":"levelo://app?vid=e16ba0fb-c8f9-4074-a1c8-ad626ad5602f","ios":"levelo://app?vid=e16ba0fb-c8f9-4074-a1c8-ad626ad5602f"},"vehicle_type_id":"4","last_reported":1730034828,"current_range_meters":38400,"station_id":"cjm6bp8fraef2m0cb0m0","pricing_plan_id":"cebpf4jnsgd1na2vs0mg"},{"bike_id":"0e1999de-b984-4f60-b291-f83e907cbd57","system_id":"levelo_inurba_marseille","lat":43.27304,"lon":5.39084,"is_reserved":false,"is_disabled":false,"rental_uris":{"android":"levelo://app?vid=0e1999de-b984-4f60-b291-f83e907cbd57","ios":"levelo://app?vid=0e1999de-b984-4f60-b291-f83e907cbd57"},"vehicle_type_id":"4","last_reported":1730034828,"current_range_meters":34800,"station_id":"ce4bhgp2rcd13ifvqfe0","pricing_plan_id":"cebpf4jnsgd1na2vs0mg"},{"bike_id":"516d2c7e-30e2-429a-adec-fbbadb0d1d0b","system_id":"levelo_inurba_marseille","lat":43.28618,"lon":5.351,"is_reserved":false,"is_disabled":false,"rental_uris":{"android":"levelo://app?vid=516d2c7e-30e2-429a-adec-fbbadb0d1d0b","ios":"levelo://app?vid=516d2c7e-30e2-429a-adec-fbbadb0d1d0b"},"vehicle_type_id":"4","last_reported":1730034828,"current_range_meters":32400,"station_id":"ce4bhch2rcd13ifvqeug","pricing_plan_id":"cebpf4jnsgd1na2vs0mg"},{"bike_id":"6875a1a6-32b9-4783-93f5-84a3a0c85f67","system_id":"levelo_inurba_marseille","lat":43.23069,"lon":5.35489,"is_reserved":false,"is_disabled":false,"rental_uris":{"android":"levelo://app?vid=6875a1a6-32b9-4783-93f5-84a3a0c85f67","ios":"levelo://app?vid=6875a1a6-32b9-4783-93f5-84a3a0c85f67"},"vehicle_type_id":"4","last_reported":1730034828,"current_range_meters":25600,"station_id":"cpo3342slgdg3j2ifvpg","pricing_plan_id":"cebpf4jnsgd1na2vs0mg"},{"bike_id":"4d119be0-f244-48af-924a-f5cd3481568e","system_id":"levelo_inurba_marseille","lat":43.30135,"lon":5.37414,"is_reserved":false,"is_disabled":false,"rental_uris":{"android":"levelo://app?vid=4d119be0-f244-48af-924a-f5cd3481568e","ios":"levelo://app?vid=4d119be0-f244-48af-924a-f5cd3481568e"},"vehicle_type_id":"4","last_reported":1730034828,"current_range_meters":37600,"station_id":"ce4bgs92rcd13ifvqcc0","pricing_plan_id":"cebpf4jnsgd1na2vs0mg"},{"bike_id":"b0c69a31-8df0-4543-be39-d450987138e1","system_id":"levelo_inurba_marseille","lat":43.27314,"lon":5.39081,"is_reserved":false,"is_disabled":false,"rental_uris":{"android":"levelo://app?vid=b0c69a31-8df0-4543-be39-d450987138e1","ios":"levelo://app?vid=b0c69a31-8df0-4543-be39-d450987138e1"},"vehicle_type_id":"4","last_reported":1730034828,"current_range_meters":33200,"station_id":"ce4bhgp2rcd13ifvqfe0","pricing_plan_id":"cebpf4jnsgd1na2vs0mg"},{"bike_id":"794d7bc8-d607-44de-a2b0-2a1fc45dca3e","system_id":"levelo_inurba_marseille","lat":43.25488,"lon":5.3765,"is_reserved":false,"is_disabled":false,"rental_uris":{"android":"levelo://app?vid=794d7bc8-d607-44de-a2b0-2a1fc45dca3e","ios":"levelo://app?vid=794d7bc8-d607-44de-a2b0-2a1fc45dca3e"},"vehicle_type_id":"4","last_reported":1730034828,"current_range_meters":22000,"station_id":"ce4bhh12rcd13ifvqff0","pricing_plan_id":"cebpf4jnsgd1na2vs0mg"},{"bike_id":"a628224d-b312-4b6f-8645-b5e77e9a3fd0","system_id":"levelo_inurba_marseille","lat":43.31082,"lon":5.42428,"is_reserved":false,"is_disabled":false,"rental_uris":{"android":"levelo://app?vid=a628224d-b312-4b6f-8645-b5e77e9a3fd0","ios":"levelo://app?vid=a628224d-b312-4b6f-8645-b5e77e9a3fd0"},"vehicle_type_id":"4","last_reported":1730034828,"current_range_meters":13600,"station_id":"ce4bhp92rcd13ifvqhag","pricing_plan_id":"cebpf4jnsgd1na2vs0mg"},{"bike_id":"272108ab-c66d-4277-b942-346fbf20d819","system_id":"levelo_inurba_marseille","lat":43.30355,"lon":5.41876,"is_reserved":false,"is_disabled":false,"rental_uris":{"android":"levelo://app?vid=272108ab-c66d-4277-b942-346fbf20d819","ios":"levelo://app?vid=272108ab-c66d-4277-b942-346fbf20d819"},"vehicle_type_id":"4","last_reported":1730034828,"current_range_meters":8000,"station_id":"ce4bhop2rcd13ifvqh7g","pricing_plan_id":"cebpf4jnsgd1na2vs0mg"},{"bike_id":"9bf2ab5d-f85c-4d9a-a1f6-70dc559d4a7f","system_id":"levelo_inurba_marseille","lat":43.26024,"lon":5.37548,"is_reserved":false,"is_disabled":false,"rental_uris":{"android":"levelo://app?vid=9bf2ab5d-f85c-4d9a-a1f6-70dc559d4a7f","ios":"levelo://app?vid=9bf2ab5d-f85c-4d9a-a1f6-70dc559d4a7f"},"vehicle_type_id":"4","last_reported":1730034828,"current_range_meters":37600,"station_id":"ce4bhgh2rcd13ifvqfa0","pricing_plan_id":"cebpf4jnsgd1na2vs0mg"},{"bike_id":"8fbb3d87-cdca-4c4a-859f-e70dea3485a5","system_id":"levelo_inurba_marseille","lat":43.27484,"lon":5.4246,"is_reserved":false,"is_disabled":false,"rental_uris":{"android":"levelo://app?vid=8fbb3d87-cdca-4c4a-859f-e70dea3485a5","ios":"levelo://app?vid=8fbb3d87-cdca-4c4a-859f-e70dea3485a5"},"vehicle_type_id":"4","last_reported":1730034828,"current_range_meters":33200,"station_id":"ce4bhn92rcd13ifvqgrg","pricing_plan_id":"cebpf4jnsgd1na2vs0mg"},{"bike_id":"cd7d907e-1fcd-47a9-ac4b-6ba095ac4b21","system_id":"levelo_inurba_marseille","lat":43.29916,"lon":5.37497,"is_reserved":false,"is_disabled":false,"rental_uris":{"android":"levelo://app?vid=cd7d907e-1fcd-47a9-ac4b-6ba095ac4b21","ios":"levelo://app?vid=cd7d907e-1fcd-47a9-ac4b-6ba095ac4b21"},"vehicle_type_id":"4","last_reported":1730034828,"current_range_meters":17200,"station_id":"ce4bgjh2rcd13ifvqbg0","pricing_plan_id":"cebpf4jnsgd1na2vs0mg"},{"bike_id":"1b8ed0b3-5590-45fd-a786-c2fb36e98bd1","system_id":"levelo_inurba_marseille","lat":43.2848,"lon":5.38418,"is_reserved":false,"is_disabled":false,"rental_uris":{"android":"levelo://app?vid=1b8ed0b3-5590-45fd-a786-c2fb36e98bd1","ios":"levelo://app?vid=1b8ed0b3-5590-45fd-a786-c2fb36e98bd1"},"vehicle_type_id":"4","last_reported":1730034828,"current_range_meters":35200,"station_id":"ce4bh512rcd13ifvqe3g","pricing_plan_id":"cebpf4jnsgd1na2vs0mg"},{"bike_id":"578318de-88f7-4659-ac74-d55fb8cd162d","system_id":"levelo_inurba_marseille","lat":43.28572,"lon":5.39501,"is_reserved":false,"is_disabled":false,"rental_uris":{"android":"levelo://app?vid=578318de-88f7-4659-ac74-d55fb8cd162d","ios":"levelo://app?vid=578318de-88f7-4659-ac74-d55fb8cd162d"},"vehicle_type_id":"4","last_reported":1730034828,"current_range_meters":30400,"station_id":"ce4bh292rcd13ifvqdg0","pricing_plan_id":"cebpf4jnsgd1na2vs0mg"},{"bike_id":"5739c41e-eaf0-48e2-ac00-e03ed7c853b7","system_id":"levelo_inurba_marseille","lat":43.29099,"lon":5.3814,"is_reserved":false,"is_disabled":false,"rental_uris":{"android":"levelo://app?vid=5739c41e-eaf0-48e2-ac00-e03ed7c853b7","ios":"levelo://app?vid=5739c41e-eaf0-48e2-ac00-e03ed7c853b7"},"vehicle_type_id":"4","last_reported":1730034828,"current_range_meters":24800,"station_id":"ce4bh512rcd13ifvqe2g","pricing_plan_id":"cebpf4jnsgd1na2vs0mg"},{"bike_id":"34468ad2-085e-4ff8-80ee-cceb22821fa7","system_id":"levelo_inurba_marseille","lat":43.301275,"lon":5.387933,"is_reserved":false,"is_disabled":false,"rental_uris":{"android":"levelo://app?vid=34468ad2-085e-4ff8-80ee-cceb22821fa7","ios":"levelo://app?vid=34468ad2-085e-4ff8-80ee-cceb22821fa7"},"vehicle_type_id":"4","last_reported":1730034828,"current_range_meters":37600,"station_id":"ce4bghh2rcd13ifvqb60","pricing_plan_id":"cebpf4jnsgd1na2vs0mg"},{"bike_id":"cae5512b-eeb1-4b21-8d8f-d8841b2677f3","system_id":"levelo_inurba_marseille","lat":43.24175,"lon":5.39733,"is_reserved":false,"is_disabled":false,"rental_uris":{"android":"levelo://app?vid=cae5512b-eeb1-4b21-8d8f-d8841b2677f3","ios":"levelo://app?vid=cae5512b-eeb1-4b21-8d8f-d8841b2677f3"},"vehicle_type_id":"4","last_reported":1730034828,"current_range_meters":20000,"station_id":"ce4bhn12rcd13ifvqgpg","pricing_plan_id":"cebpf4jnsgd1na2vs0mg"},{"bike_id":"8336a68f-a6b7-469a-8ff3-53c22ae88180","system_id":"levelo_inurba_marseille","lat":43.29975,"lon":5.37177,"is_reserved":false,"is_disabled":false,"rental_uris":{"android":"levelo://app?vid=8336a68f-a6b7-469a-8ff3-53c22ae88180","ios":"levelo://app?vid=8336a68f-a6b7-469a-8ff3-53c22ae88180"},"vehicle_type_id":"4","last_reported":1730034828,"current_range_meters":22400,"station_id":"ce4bgr92rcd13ifvqc7g","pricing_plan_id":"cebpf4jnsgd1na2vs0mg"},{"bike_id":"cd8988cf-34e0-4cd8-92c1-67d3cd8c964e","system_id":"levelo_inurba_marseille","lat":43.23959,"lon":5.3663,"is_reserved":false,"is_disabled":false,"rental_uris":{"android":"levelo://app?vid=cd8988cf-34e0-4cd8-92c1-67d3cd8c964e","ios":"levelo://app?vid=cd8988cf-34e0-4cd8-92c1-67d3cd8c964e"},"vehicle_type_id":"4","last_reported":1730034828,"current_range_meters":16400,"station_id":"ce4bhi12rcd13ifvqfp0","pricing_plan_id":"cebpf4jnsgd1na2vs0mg"},{"bike_id":"58bf05d7-0814-449c-ae98-94b44029fc0a","system_id":"levelo_inurba_marseille","lat":43.27839,"lon":5.39226,"is_reserved":false,"is_disabled":false,"rental_uris":{"android":"levelo://app?vid=58bf05d7-0814-449c-ae98-94b44029fc0a","ios":"levelo://app?vid=58bf05d7-0814-449c-ae98-94b44029fc0a"},"vehicle_type_id":"4","last_reported":1730034828,"current_range_meters":16000,"station_id":"ce4bhjp2rcd13ifvqga0","pricing_plan_id":"cebpf4jnsgd1na2vs0mg"},{"bike_id":"8300f4af-3b29-4c7d-8ec8-48620780b31d","system_id":"levelo_inurba_marseille","lat":43.26932,"lon":5.38907,"is_reserved":false,"is_disabled":false,"rental_uris":{"android":"levelo://app?vid=8300f4af-3b29-4c7d-8ec8-48620780b31d","ios":"levelo://app?vid=8300f4af-3b29-4c7d-8ec8-48620780b31d"},"vehicle_type_id":"4","last_reported":1730034828,"current_range_meters":28800,"station_id":"ce4bhhh2rcd13ifvqfl0","pricing_plan_id":"cebpf4jnsgd1na2vs0mg"},{"bike_id":"ef136fa5-257b-4ee5-bd73-f0de7405e6ba","system_id":"levelo_inurba_marseille","lat":43.24538,"lon":5.39525,"is_reserved":false,"is_disabled":false,"rental_uris":{"android":"levelo://app?vid=ef136fa5-257b-4ee5-bd73-f0de7405e6ba","ios":"levelo://app?vid=ef136fa5-257b-4ee5-bd73-f0de7405e6ba"},"vehicle_type_id":"4","last_reported":1730034828,"current_range_meters":24800,"station_id":"ce4bhlp2rcd13ifvqgjg","pricing_plan_id":"cebpf4jnsgd1na2vs0mg"},{"bike_id":"ca45949b-df01-4bad-9b31-2f0055c3b9a4","system_id":"levelo_inurba_marseille","lat":43.32363,"lon":5.38882,"is_reserved":false,"is_disabled":false,"rental_uris":{"android":"levelo://app?vid=ca45949b-df01-4bad-9b31-2f0055c3b9a4","ios":"levelo://app?vid=ca45949b-df01-4bad-9b31-2f0055c3b9a4"},"vehicle_type_id":"4","last_reported":1730034828,"current_range_meters":30800,"station_id":"ce4bhqp2rcd13ifvqhog","pricing_plan_id":"cebpf4jnsgd1na2vs0mg"},{"bike_id":"67d33dda-8872-42e4-81a7-a7fb36b0d7be","system_id":"levelo_inurba_marseille","lat":43.29959,"lon":5.41316,"is_reserved":false,"is_disabled":false,"rental_uris":{"android":"levelo://app?vid=67d33dda-8872-42e4-81a7-a7fb36b0d7be","ios":"levelo://app?vid=67d33dda-8872-42e4-81a7-a7fb36b0d7be"},"vehicle_type_id":"4","last_reported":1730034828,"current_range_meters":37600,"station_id":"ce4bhp12rcd13ifvqh9g","pricing_plan_id":"cebpf4jnsgd1na2vs0mg"},{"bike_id":"65bbbc38-f821-4a59-ae0f-5a06f57c77e3","system_id":"levelo_inurba_marseille","lat":43.27809,"lon":5.40704,"is_reserved":false,"is_disabled":false,"rental_uris":{"android":"levelo://app?vid=65bbbc38-f821-4a59-ae0f-5a06f57c77e3","ios":"levelo://app?vid=65bbbc38-f821-4a59-ae0f-5a06f57c77e3"},"vehicle_type_id":"4","last_reported":1730034828,"current_range_meters":30800,"station_id":"ce4bhnh2rcd13ifvqgtg","pricing_plan_id":"cebpf4jnsgd1na2vs0mg"},{"bike_id":"9488ca84-aa5e-4311-bde9-38d634703444","system_id":"levelo_inurba_marseille","lat":43.32477,"lon":5.36559,"is_reserved":false,"is_disabled":false,"rental_uris":{"android":"levelo://app?vid=9488ca84-aa5e-4311-bde9-38d634703444","ios":"levelo://app?vid=9488ca84-aa5e-4311-bde9-38d634703444"},"vehicle_type_id":"4","last_reported":1730034828,"current_range_meters":37600,"station_id":"ce4bhs12rcd13ifvqhvg","pricing_plan_id":"cebpf4jnsgd1na2vs0mg"},{"bike_id":"5809a0b6-4a3c-4116-a401-5ea44791b160","system_id":"levelo_inurba_marseille","lat":43.26681,"lon":5.38275,"is_reserved":false,"is_disabled":false,"rental_uris":{"android":"levelo://app?vid=5809a0b6-4a3c-4116-a401-5ea44791b160","ios":"levelo://app?vid=5809a0b6-4a3c-4116-a401-5ea44791b160"},"vehicle_type_id":"4","last_reported":1730034828,"current_range_meters":29600,"station_id":"ce4bhg92rcd13ifvqf90","pricing_plan_id":"cebpf4jnsgd1na2vs0mg"},{"bike_id":"e5e817e3-05ee-42a0-97b8-792b18b2b2d7","system_id":"levelo_inurba_marseille","lat":43.324831,"lon":5.36574,"is_reserved":false,"is_disabled":false,"rental_uris":{"android":"levelo://app?vid=e5e817e3-05ee-42a0-97b8-792b18b2b2d7","ios":"levelo://app?vid=e5e817e3-05ee-42a0-97b8-792b18b2b2d7"},"vehicle_type_id":"4","last_reported":1730034828,"current_range_meters":24400,"station_id":"ce4bhs12rcd13ifvqhvg","pricing_plan_id":"cebpf4jnsgd1na2vs0mg"},{"bike_id":"e145adb6-5aa2-4b11-96d2-eb3a71fb3ad1","system_id":"levelo_inurba_marseille","lat":43.29838,"lon":5.36274,"is_reserved":false,"is_disabled":false,"rental_uris":{"android":"levelo://app?vid=e145adb6-5aa2-4b11-96d2-eb3a71fb3ad1","ios":"levelo://app?vid=e145adb6-5aa2-4b11-96d2-eb3a71fb3ad1"},"vehicle_type_id":"4","last_reported":1730034828,"current_range_meters":8000,"station_id":"ce4bgpp2rcd13ifvqc3g","pricing_plan_id":"cebpf4jnsgd1na2vs0mg"},{"bike_id":"d39756c5-3e64-4211-9f44-1d5c9d245905","system_id":"levelo_inurba_marseille","lat":43.28615,"lon":5.35106,"is_reserved":false,"is_disabled":false,"rental_uris":{"android":"levelo://app?vid=d39756c5-3e64-4211-9f44-1d5c9d245905","ios":"levelo://app?vid=d39756c5-3e64-4211-9f44-1d5c9d245905"},"vehicle_type_id":"4","last_reported":1730034828,"current_range_meters":20400,"station_id":"ce4bhch2rcd13ifvqeug","pricing_plan_id":"cebpf4jnsgd1na2vs0mg"},{"bike_id":"601916c5-3274-4e01-863c-d96df39ce3b1","system_id":"levelo_inurba_marseille","lat":43.26553,"lon":5.39008,"is_reserved":false,"is_disabled":false,"rental_uris":{"android":"levelo://app?vid=601916c5-3274-4e01-863c-d96df39ce3b1","ios":"levelo://app?vid=601916c5-3274-4e01-863c-d96df39ce3b1"},"vehicle_type_id":"4","last_reported":1730034828,"current_range_meters":36400,"station_id":"ce4bhe12rcd13ifvqf30","pricing_plan_id":"cebpf4jnsgd1na2vs0mg"},{"bike_id":"8cc8e2bd-1a76-4116-acbf-0db80cae781e","system_id":"levelo_inurba_marseille","lat":43.27944,"lon":5.41036,"is_reserved":false,"is_disabled":false,"rental_uris":{"android":"levelo://app?vid=8cc8e2bd-1a76-4116-acbf-0db80cae781e","ios":"levelo://app?vid=8cc8e2bd-1a76-4116-acbf-0db80cae781e"},"vehicle_type_id":"4","last_reported":1730034828,"current_range_meters":16800,"station_id":"ce4bhnp2rcd13ifvqh0g","pricing_plan_id":"cebpf4jnsgd1na2vs0mg"},{"bike_id":"1fafbe93-2ba4-4077-bfcf-7b3992b30a25","system_id":"levelo_inurba_marseille","lat":43.29552,"lon":5.42283,"is_reserved":false,"is_disabled":false,"rental_uris":{"android":"levelo://app?vid=1fafbe93-2ba4-4077-bfcf-7b3992b30a25","ios":"levelo://app?vid=1fafbe93-2ba4-4077-bfcf-7b3992b30a25"},"vehicle_type_id":"4","last_reported":1730034828,"current_range_meters":38800,"station_id":"ce4bhph2rcd13ifvqhdg","pricing_plan_id":"cebpf4jnsgd1na2vs0mg"},{"bike_id":"1e8ce419-e8b7-422c-80d3-8c98225ca070","system_id":"levelo_inurba_marseille","lat":43.26782,"lon":5.39413,"is_reserved":false,"is_disabled":false,"rental_uris":{"android":"levelo://app?vid=1e8ce419-e8b7-422c-80d3-8c98225ca070","ios":"levelo://app?vid=1e8ce419-e8b7-422c-80d3-8c98225ca070"},"vehicle_type_id":"4","last_reported":1730034828,"current_range_meters":30800,"station_id":"ce4bhh12rcd13ifvqfg0","pricing_plan_id":"cebpf4jnsgd1na2vs0mg"},{"bike_id":"b0c7ce4f-cf48-4b13-99b1-24dbbfafc315","system_id":"levelo_inurba_marseille","lat":43.27807,"lon":5.40708,"is_reserved":false,"is_disabled":false,"rental_uris":{"android":"levelo://app?vid=b0c7ce4f-cf48-4b13-99b1-24dbbfafc315","ios":"levelo://app?vid=b0c7ce4f-cf48-4b13-99b1-24dbbfafc315"},"vehicle_type_id":"4","last_reported":1730034828,"current_range_meters":34000,"station_id":"ce4bhnh2rcd13ifvqgtg","pricing_plan_id":"cebpf4jnsgd1na2vs0mg"},{"bike_id":"e113f747-4daa-44f7-a218-9e030daa2565","system_id":"levelo_inurba_marseille","lat":43.32105,"lon":5.36773,"is_reserved":false,"is_disabled":false,"rental_uris":{"android":"levelo://app?vid=e113f747-4daa-44f7-a218-9e030daa2565","ios":"levelo://app?vid=e113f747-4daa-44f7-a218-9e030daa2565"},"vehicle_type_id":"4","last_reported":1730034828,"current_range_meters":26000,"station_id":"ce4bhrh2rcd13ifvqhug","pricing_plan_id":"cebpf4jnsgd1na2vs0mg"},{"bike_id":"871a104a-6c98-460a-ab1c-e06eeddb4dc4","system_id":"levelo_inurba_marseille","lat":43.29303,"lon":5.37461,"is_reserved":false,"is_disabled":false,"rental_uris":{"android":"levelo://app?vid=871a104a-6c98-460a-ab1c-e06eeddb4dc4","ios":"levelo://app?vid=871a104a-6c98-460a-ab1c-e06eeddb4dc4"},"vehicle_type_id":"4","last_reported":1730034828,"current_range_meters":10800,"station_id":"ce4bgi12rcd13ifvqb70","pricing_plan_id":"cebpf4jnsgd1na2vs0mg"},{"bike_id":"4cb54fe2-6aa3-4b51-89f9-1a40a399762b","system_id":"levelo_inurba_marseille","lat":43.29619,"lon":5.37162,"is_reserved":false,"is_disabled":false,"rental_uris":{"android":"levelo://app?vid=4cb54fe2-6aa3-4b51-89f9-1a40a399762b","ios":"levelo://app?vid=4cb54fe2-6aa3-4b51-89f9-1a40a399762b"},"vehicle_type_id":"4","last_reported":1730034828,"current_range_meters":19600,"station_id":"ce4bgnh2rcd13ifvqc0g","pricing_plan_id":"cebpf4jnsgd1na2vs0mg"},{"bike_id":"9fd56fad-5f3d-42b4-b491-7b57b76bc0cf","system_id":"levelo_inurba_marseille","lat":43.27808,"lon":5.40712,"is_reserved":false,"is_disabled":false,"rental_uris":{"android":"levelo://app?vid=9fd56fad-5f3d-42b4-b491-7b57b76bc0cf","ios":"levelo://app?vid=9fd56fad-5f3d-42b4-b491-7b57b76bc0cf"},"vehicle_type_id":"4","last_reported":1730034828,"current_range_meters":23200,"station_id":"ce4bhnh2rcd13ifvqgtg","pricing_plan_id":"cebpf4jnsgd1na2vs0mg"},{"bike_id":"e55243b9-f96d-4ad0-b458-cff243e1874f","system_id":"levelo_inurba_marseille","lat":43.30782,"lon":5.37645,"is_reserved":false,"is_disabled":false,"rental_uris":{"android":"levelo://app?vid=e55243b9-f96d-4ad0-b458-cff243e1874f","ios":"levelo://app?vid=e55243b9-f96d-4ad0-b458-cff243e1874f"},"vehicle_type_id":"4","last_reported":1730034828,"current_range_meters":12000,"station_id":"ce4bgv92rcd13ifvqcq0","pricing_plan_id":"cebpf4jnsgd1na2vs0mg"},{"bike_id":"b74ec415-3b01-4bbe-95ce-e44ed8a199fb","system_id":"levelo_inurba_marseille","lat":43.295607,"lon":5.375239,"is_reserved":false,"is_disabled":false,"rental_uris":{"android":"levelo://app?vid=b74ec415-3b01-4bbe-95ce-e44ed8a199fb","ios":"levelo://app?vid=b74ec415-3b01-4bbe-95ce-e44ed8a199fb"},"vehicle_type_id":"4","last_reported":1730034828,"current_range_meters":27200,"station_id":"ce4bhbh2rcd13ifvqeo0","pricing_plan_id":"cebpf4jnsgd1na2vs0mg"},{"bike_id":"5a2d1918-7e6a-420e-a9df-05b810a51d70","system_id":"levelo_inurba_marseille","lat":43.28939,"lon":5.36402,"is_reserved":false,"is_disabled":false,"rental_uris":{"android":"levelo://app?vid=5a2d1918-7e6a-420e-a9df-05b810a51d70","ios":"levelo://app?vid=5a2d1918-7e6a-420e-a9df-05b810a51d70"},"vehicle_type_id":"4","last_reported":1730034828,"current_range_meters":16400,"station_id":"ce4bhc92rcd13ifvqetg","pricing_plan_id":"cebpf4jnsgd1na2vs0mg"},{"bike_id":"744bde82-bd02-445d-b711-6cd860d3c3d0","system_id":"levelo_inurba_marseille","lat":43.30417,"lon":5.41288,"is_reserved":false,"is_disabled":false,"rental_uris":{"android":"levelo://app?vid=744bde82-bd02-445d-b711-6cd860d3c3d0","ios":"levelo://app?vid=744bde82-bd02-445d-b711-6cd860d3c3d0"},"vehicle_type_id":"4","last_reported":1730034828,"current_range_meters":35200,"station_id":"ce4bhop2rcd13ifvqh8g","pricing_plan_id":"cebpf4jnsgd1na2vs0mg"},{"bike_id":"c1896d1c-f4d3-431f-be00-17bea34feb0d","system_id":"levelo_inurba_marseille","lat":43.31492,"lon":5.37305,"is_reserved":false,"is_disabled":false,"rental_uris":{"android":"levelo://app?vid=c1896d1c-f4d3-431f-be00-17bea34feb0d","ios":"levelo://app?vid=c1896d1c-f4d3-431f-be00-17bea34feb0d"},"vehicle_type_id":"4","last_reported":1730034828,"current_range_meters":29600,"station_id":"ce4bgt12rcd13ifvqcd0","pricing_plan_id":"cebpf4jnsgd1na2vs0mg"},{"bike_id":"9896e097-62f9-4e4f-96e1-6893a8daf0a3","system_id":"levelo_inurba_marseille","lat":43.28611,"lon":5.35098,"is_reserved":false,"is_disabled":false,"rental_uris":{"android":"levelo://app?vid=9896e097-62f9-4e4f-96e1-6893a8daf0a3","ios":"levelo://app?vid=9896e097-62f9-4e4f-96e1-6893a8daf0a3"},"vehicle_type_id":"4","last_reported":1730034828,"current_range_meters":32800,"station_id":"ce4bhch2rcd13ifvqeug","pricing_plan_id":"cebpf4jnsgd1na2vs0mg"},{"bike_id":"76655054-c5bb-403b-83de-851da69c462b","system_id":"levelo_inurba_marseille","lat":43.30412,"lon":5.4128,"is_reserved":false,"is_disabled":false,"rental_uris":{"android":"levelo://app?vid=76655054-c5bb-403b-83de-851da69c462b","ios":"levelo://app?vid=76655054-c5bb-403b-83de-851da69c462b"},"vehicle_type_id":"4","last_reported":1730034828,"current_range_meters":26800,"station_id":"ce4bhop2rcd13ifvqh8g","pricing_plan_id":"cebpf4jnsgd1na2vs0mg"},{"bike_id":"c7a84629-ad2f-4f02-94d1-beeeb0f40850","system_id":"levelo_inurba_marseille","lat":43.28269,"lon":5.35064,"is_reserved":false,"is_disabled":false,"rental_uris":{"android":"levelo://app?vid=c7a84629-ad2f-4f02-94d1-beeeb0f40850","ios":"levelo://app?vid=c7a84629-ad2f-4f02-94d1-beeeb0f40850"},"vehicle_type_id":"4","last_reported":1730034828,"current_range_meters":27600,"station_id":"ce4bhbp2rcd13ifvqerg","pricing_plan_id":"cebpf4jnsgd1na2vs0mg"},{"bike_id":"c65417d6-6622-4395-b76f-feb2f4595473","system_id":"levelo_inurba_marseille","lat":43.25723,"lon":5.41102,"is_reserved":false,"is_disabled":false,"rental_uris":{"android":"levelo://app?vid=c65417d6-6622-4395-b76f-feb2f4595473","ios":"levelo://app?vid=c65417d6-6622-4395-b76f-feb2f4595473"},"vehicle_type_id":"4","last_reported":1730034828,"current_range_meters":39200,"station_id":"ce4bhkp2rcd13ifvqgd0","pricing_plan_id":"cebpf4jnsgd1na2vs0mg"},{"bike_id":"59b14ac1-6727-405c-b0bb-714f48fe8e26","system_id":"levelo_inurba_marseille","lat":43.26056,"lon":5.39394,"is_reserved":false,"is_disabled":false,"rental_uris":{"android":"levelo://app?vid=59b14ac1-6727-405c-b0bb-714f48fe8e26","ios":"levelo://app?vid=59b14ac1-6727-405c-b0bb-714f48fe8e26"},"vehicle_type_id":"4","last_reported":1730034828,"current_range_meters":6000,"station_id":"ce4bha12rcd13ifvqef0","pricing_plan_id":"cebpf4jnsgd1na2vs0mg"},{"bike_id":"d7ff7165-6d5c-4f76-865c-b2ea1a2a3c7a","system_id":"levelo_inurba_marseille","lat":43.27492,"lon":5.42458,"is_reserved":false,"is_disabled":false,"rental_uris":{"android":"levelo://app?vid=d7ff7165-6d5c-4f76-865c-b2ea1a2a3c7a","ios":"levelo://app?vid=d7ff7165-6d5c-4f76-865c-b2ea1a2a3c7a"},"vehicle_type_id":"4","last_reported":1730034828,"current_range_meters":38800,"station_id":"ce4bhn92rcd13ifvqgrg","pricing_plan_id":"cebpf4jnsgd1na2vs0mg"},{"bike_id":"900de23d-3c3d-4847-b27f-01df80bfbfc5","system_id":"levelo_inurba_marseille","lat":43.29622,"lon":5.37151,"is_reserved":false,"is_disabled":false,"rental_uris":{"android":"levelo://app?vid=900de23d-3c3d-4847-b27f-01df80bfbfc5","ios":"levelo://app?vid=900de23d-3c3d-4847-b27f-01df80bfbfc5"},"vehicle_type_id":"4","last_reported":1730034828,"current_range_meters":25200,"station_id":"ce4bgnh2rcd13ifvqc0g","pricing_plan_id":"cebpf4jnsgd1na2vs0mg"},{"bike_id":"da41005b-3fbd-4389-9128-80ea7e3c96a4","system_id":"levelo_inurba_marseille","lat":43.26947,"lon":5.38636,"is_reserved":false,"is_disabled":false,"rental_uris":{"android":"levelo://app?vid=da41005b-3fbd-4389-9128-80ea7e3c96a4","ios":"levelo://app?vid=da41005b-3fbd-4389-9128-80ea7e3c96a4"},"vehicle_type_id":"4","last_reported":1730034828,"current_range_meters":37600,"station_id":"ce4bhh92rcd13ifvqfh0","pricing_plan_id":"cebpf4jnsgd1na2vs0mg"},{"bike_id":"b54a1450-a5e2-4400-8ed0-f6ad27dc90fa","system_id":"levelo_inurba_marseille","lat":43.27308,"lon":5.39091,"is_reserved":false,"is_disabled":false,"rental_uris":{"android":"levelo://app?vid=b54a1450-a5e2-4400-8ed0-f6ad27dc90fa","ios":"levelo://app?vid=b54a1450-a5e2-4400-8ed0-f6ad27dc90fa"},"vehicle_type_id":"4","last_reported":1730034828,"current_range_meters":13600,"station_id":"ce4bhgp2rcd13ifvqfe0","pricing_plan_id":"cebpf4jnsgd1na2vs0mg"},{"bike_id":"cdf30e4f-ed11-4b00-80bd-f88cd5c9547c","system_id":"levelo_inurba_marseille","lat":43.2961,"lon":5.37736,"is_reserved":false,"is_disabled":false,"rental_uris":{"android":"levelo://app?vid=cdf30e4f-ed11-4b00-80bd-f88cd5c9547c","ios":"levelo://app?vid=cdf30e4f-ed11-4b00-80bd-f88cd5c9547c"},"vehicle_type_id":"4","last_reported":1730034828,"current_range_meters":20800,"station_id":"ce4bgi92rcd13ifvqb90","pricing_plan_id":"cebpf4jnsgd1na2vs0mg"},{"bike_id":"82bad05c-5c93-4d77-8736-9fe9cd98889f","system_id":"levelo_inurba_marseille","lat":43.30319,"lon":5.369,"is_reserved":false,"is_disabled":false,"rental_uris":{"android":"levelo://app?vid=82bad05c-5c93-4d77-8736-9fe9cd98889f","ios":"levelo://app?vid=82bad05c-5c93-4d77-8736-9fe9cd98889f"},"vehicle_type_id":"4","last_reported":1730034828,"current_range_meters":39200,"station_id":"ce4bgqh2rcd13ifvqc5g","pricing_plan_id":"cebpf4jnsgd1na2vs0mg"},{"bike_id":"699d89fb-138d-42e9-a6ba-13cfb0109c2c","system_id":"levelo_inurba_marseille","lat":43.28072,"lon":5.39662,"is_reserved":false,"is_disabled":false,"rental_uris":{"android":"levelo://app?vid=699d89fb-138d-42e9-a6ba-13cfb0109c2c","ios":"levelo://app?vid=699d89fb-138d-42e9-a6ba-13cfb0109c2c"},"vehicle_type_id":"4","last_reported":1730034828,"current_range_meters":6400,"station_id":"ce4bho12rcd13ifvqh2g","pricing_plan_id":"cebpf4jnsgd1na2vs0mg"},{"bike_id":"eb67505f-ebbb-428f-9b8a-12c941266af7","system_id":"levelo_inurba_marseille","lat":43.29567,"lon":5.37524,"is_reserved":false,"is_disabled":false,"rental_uris":{"android":"levelo://app?vid=eb67505f-ebbb-428f-9b8a-12c941266af7","ios":"levelo://app?vid=eb67505f-ebbb-428f-9b8a-12c941266af7"},"vehicle_type_id":"4","last_reported":1730034828,"current_range_meters":28000,"station_id":"ce4bgh92rcd13ifvqb50","pricing_plan_id":"cebpf4jnsgd1na2vs0mg"},{"bike_id":"263f93c9-144a-4508-b60e-cbaf71ba2571","system_id":"levelo_inurba_marseille","lat":43.24184,"lon":5.39721,"is_reserved":false,"is_disabled":false,"rental_uris":{"android":"levelo://app?vid=263f93c9-144a-4508-b60e-cbaf71ba2571","ios":"levelo://app?vid=263f93c9-144a-4508-b60e-cbaf71ba2571"},"vehicle_type_id":"4","last_reported":1730034828,"current_range_meters":37600,"station_id":"ce4bhn12rcd13ifvqgpg","pricing_plan_id":"cebpf4jnsgd1na2vs0mg"},{"bike_id":"f9dd0103-b045-4d3e-97f0-feaf4a2d3923","system_id":"levelo_inurba_marseille","lat":43.24998,"lon":5.38914,"is_reserved":false,"is_disabled":false,"rental_uris":{"android":"levelo://app?vid=f9dd0103-b045-4d3e-97f0-feaf4a2d3923","ios":"levelo://app?vid=f9dd0103-b045-4d3e-97f0-feaf4a2d3923"},"vehicle_type_id":"4","last_reported":1730034828,"current_range_meters":38800,"station_id":"ce4bhgp2rcd13ifvqfd0","pricing_plan_id":"cebpf4jnsgd1na2vs0mg"},{"bike_id":"4d49d52d-785d-411e-b344-5872062c1849","system_id":"levelo_inurba_marseille","lat":43.23049,"lon":5.35489,"is_reserved":false,"is_disabled":false,"rental_uris":{"android":"levelo://app?vid=4d49d52d-785d-411e-b344-5872062c1849","ios":"levelo://app?vid=4d49d52d-785d-411e-b344-5872062c1849"},"vehicle_type_id":"4","last_reported":1730034828,"current_range_meters":24800,"station_id":"cpo3342slgdg3j2ifvpg","pricing_plan_id":"cebpf4jnsgd1na2vs0mg"},{"bike_id":"2f70d2d1-f7b5-4bfa-a8e1-435dfce5c288","system_id":"levelo_inurba_marseille","lat":43.2815,"lon":5.42647,"is_reserved":false,"is_disabled":false,"rental_uris":{"android":"levelo://app?vid=2f70d2d1-f7b5-4bfa-a8e1-435dfce5c288","ios":"levelo://app?vid=2f70d2d1-f7b5-4bfa-a8e1-435dfce5c288"},"vehicle_type_id":"4","last_reported":1730034828,"current_range_meters":39200,"station_id":"ce4bhnh2rcd13ifvqgug","pricing_plan_id":"cebpf4jnsgd1na2vs0mg"},{"bike_id":"c7493202-7ba4-4657-a88f-5b1ffe0cc379","system_id":"levelo_inurba_marseille","lat":43.25725,"lon":5.41101,"is_reserved":false,"is_disabled":false,"rental_uris":{"android":"levelo://app?vid=c7493202-7ba4-4657-a88f-5b1ffe0cc379","ios":"levelo://app?vid=c7493202-7ba4-4657-a88f-5b1ffe0cc379"},"vehicle_type_id":"4","last_reported":1730034828,"current_range_meters":37600,"station_id":"ce4bhkp2rcd13ifvqgd0","pricing_plan_id":"cebpf4jnsgd1na2vs0mg"},{"bike_id":"fdb7a2ea-1502-497e-9330-45cbda59e4b8","system_id":"levelo_inurba_marseille","lat":43.25932,"lon":5.40907,"is_reserved":false,"is_disabled":false,"rental_uris":{"android":"levelo://app?vid=fdb7a2ea-1502-497e-9330-45cbda59e4b8","ios":"levelo://app?vid=fdb7a2ea-1502-497e-9330-45cbda59e4b8"},"vehicle_type_id":"4","last_reported":1730034828,"current_range_meters":38000,"station_id":"ce4bhm92rcd13ifvqglg","pricing_plan_id":"cebpf4jnsgd1na2vs0mg"},{"bike_id":"66573150-901d-4315-999f-1bdf296e6efc","system_id":"levelo_inurba_marseille","lat":43.28843,"lon":5.35863,"is_reserved":false,"is_disabled":false,"rental_uris":{"android":"levelo://app?vid=66573150-901d-4315-999f-1bdf296e6efc","ios":"levelo://app?vid=66573150-901d-4315-999f-1bdf296e6efc"},"vehicle_type_id":"4","last_reported":1730034828,"current_range_meters":38800,"station_id":"ce4bhb12rcd13ifvqem0","pricing_plan_id":"cebpf4jnsgd1na2vs0mg"},{"bike_id":"d282a728-cdf9-4ffc-a0c9-d5c280b9a876","system_id":"levelo_inurba_marseille","lat":43.29288,"lon":5.37445,"is_reserved":false,"is_disabled":false,"rental_uris":{"android":"levelo://app?vid=d282a728-cdf9-4ffc-a0c9-d5c280b9a876","ios":"levelo://app?vid=d282a728-cdf9-4ffc-a0c9-d5c280b9a876"},"vehicle_type_id":"4","last_reported":1730034828,"current_range_meters":26800,"station_id":"ce4bgi12rcd13ifvqb70","pricing_plan_id":"cebpf4jnsgd1na2vs0mg"},{"bike_id":"7a723d88-02b3-4905-8f70-4b634c51f36c","system_id":"levelo_inurba_marseille","lat":43.29675,"lon":5.37291,"is_reserved":false,"is_disabled":false,"rental_uris":{"android":"levelo://app?vid=7a723d88-02b3-4905-8f70-4b634c51f36c","ios":"levelo://app?vid=7a723d88-02b3-4905-8f70-4b634c51f36c"},"vehicle_type_id":"4","last_reported":1730034828,"current_range_meters":38800,"station_id":"ce4bgk12rcd13ifvqbj0","pricing_plan_id":"cebpf4jnsgd1na2vs0mg"},{"bike_id":"8e05c1c9-c561-470b-83c7-44b67333075d","system_id":"levelo_inurba_marseille","lat":43.29278,"lon":5.38441,"is_reserved":false,"is_disabled":false,"rental_uris":{"android":"levelo://app?vid=8e05c1c9-c561-470b-83c7-44b67333075d","ios":"levelo://app?vid=8e05c1c9-c561-470b-83c7-44b67333075d"},"vehicle_type_id":"4","last_reported":1730034828,"current_range_meters":36800,"station_id":"ce4bh692rcd13ifvqea0","pricing_plan_id":"cebpf4jnsgd1na2vs0mg"},{"bike_id":"0ecf5e07-d4ac-4f2c-bd1b-3acf9f99ddc6","system_id":"levelo_inurba_marseille","lat":43.26025,"lon":5.37554,"is_reserved":false,"is_disabled":false,"rental_uris":{"android":"levelo://app?vid=0ecf5e07-d4ac-4f2c-bd1b-3acf9f99ddc6","ios":"levelo://app?vid=0ecf5e07-d4ac-4f2c-bd1b-3acf9f99ddc6"},"vehicle_type_id":"4","last_reported":1730034828,"current_range_meters":36400,"station_id":"ce4bhgh2rcd13ifvqfa0","pricing_plan_id":"cebpf4jnsgd1na2vs0mg"},{"bike_id":"67afa27e-68f9-408d-b78e-74323c879a53","system_id":"levelo_inurba_marseille","lat":43.29219,"lon":5.36066,"is_reserved":false,"is_disabled":false,"rental_uris":{"android":"levelo://app?vid=67afa27e-68f9-408d-b78e-74323c879a53","ios":"levelo://app?vid=67afa27e-68f9-408d-b78e-74323c879a53"},"vehicle_type_id":"4","last_reported":1730034828,"current_range_meters":30800,"station_id":"ce4bhbh2rcd13ifvqeqg","pricing_plan_id":"cebpf4jnsgd1na2vs0mg"},{"bike_id":"618a1dca-35f9-4a03-9e8a-d8ff55bd9493","system_id":"levelo_inurba_marseille","lat":43.26029,"lon":5.37544,"is_reserved":false,"is_disabled":false,"rental_uris":{"android":"levelo://app?vid=618a1dca-35f9-4a03-9e8a-d8ff55bd9493","ios":"levelo://app?vid=618a1dca-35f9-4a03-9e8a-d8ff55bd9493"},"vehicle_type_id":"4","last_reported":1730034828,"current_range_meters":32800,"station_id":"ce4bhgh2rcd13ifvqfa0","pricing_plan_id":"cebpf4jnsgd1na2vs0mg"},{"bike_id":"488036ca-7994-4e23-a5d9-e4b3ac45f05e","system_id":"levelo_inurba_marseille","lat":43.29167,"lon":5.37161,"is_reserved":false,"is_disabled":false,"rental_uris":{"android":"levelo://app?vid=488036ca-7994-4e23-a5d9-e4b3ac45f05e","ios":"levelo://app?vid=488036ca-7994-4e23-a5d9-e4b3ac45f05e"},"vehicle_type_id":"4","last_reported":1730034828,"current_range_meters":34800,"station_id":"ce4bha92rcd13ifvqeh0","pricing_plan_id":"cebpf4jnsgd1na2vs0mg"},{"bike_id":"8d1224ea-8c67-414f-8e8e-8dff85dd0343","system_id":"levelo_inurba_marseille","lat":43.24999,"lon":5.38929,"is_reserved":false,"is_disabled":false,"rental_uris":{"android":"levelo://app?vid=8d1224ea-8c67-414f-8e8e-8dff85dd0343","ios":"levelo://app?vid=8d1224ea-8c67-414f-8e8e-8dff85dd0343"},"vehicle_type_id":"4","last_reported":1730034828,"current_range_meters":36800,"station_id":"ce4bhgp2rcd13ifvqfd0","pricing_plan_id":"cebpf4jnsgd1na2vs0mg"},{"bike_id":"9befed88-9f8c-464c-b07b-093bd97066bb","system_id":"levelo_inurba_marseille","lat":43.29805,"lon":5.37136,"is_reserved":false,"is_disabled":false,"rental_uris":{"android":"levelo://app?vid=9befed88-9f8c-464c-b07b-093bd97066bb","ios":"levelo://app?vid=9befed88-9f8c-464c-b07b-093bd97066bb"},"vehicle_type_id":"4","last_reported":1730034828,"current_range_meters":19600,"station_id":"","pricing_plan_id":"cebpf4jnsgd1na2vs0mg"},{"bike_id":"f37e3b02-a49c-4c4e-b112-f9c8c24edf90","system_id":"levelo_inurba_marseille","lat":43.2319,"lon":5.35552,"is_reserved":false,"is_disabled":false,"rental_uris":{"android":"levelo://app?vid=f37e3b02-a49c-4c4e-b112-f9c8c24edf90","ios":"levelo://app?vid=f37e3b02-a49c-4c4e-b112-f9c8c24edf90"},"vehicle_type_id":"4","last_reported":1730034828,"current_range_meters":16400,"station_id":"ce4bhu92rcd13ifvqi70","pricing_plan_id":"cebpf4jnsgd1na2vs0mg"},{"bike_id":"601b34eb-bb27-49aa-bc78-4cf12d6bde95","system_id":"levelo_inurba_marseille","lat":43.28267,"lon":5.35062,"is_reserved":false,"is_disabled":false,"rental_uris":{"android":"levelo://app?vid=601b34eb-bb27-49aa-bc78-4cf12d6bde95","ios":"levelo://app?vid=601b34eb-bb27-49aa-bc78-4cf12d6bde95"},"vehicle_type_id":"4","last_reported":1730034828,"current_range_meters":26000,"station_id":"ce4bhbp2rcd13ifvqerg","pricing_plan_id":"cebpf4jnsgd1na2vs0mg"},{"bike_id":"0d4750a3-7744-4292-8e16-53a361b49b54","system_id":"levelo_inurba_marseille","lat":43.29878,"lon":5.39734,"is_reserved":false,"is_disabled":false,"rental_uris":{"android":"levelo://app?vid=0d4750a3-7744-4292-8e16-53a361b49b54","ios":"levelo://app?vid=0d4750a3-7744-4292-8e16-53a361b49b54"},"vehicle_type_id":"4","last_reported":1730034828,"current_range_meters":23200,"station_id":"ce4bh0h2rcd13ifvqd50","pricing_plan_id":"cebpf4jnsgd1na2vs0mg"},{"bike_id":"95fd31be-1268-4609-a09d-9283ad286b90","system_id":"levelo_inurba_marseille","lat":43.30139,"lon":5.37412,"is_reserved":false,"is_disabled":false,"rental_uris":{"android":"levelo://app?vid=95fd31be-1268-4609-a09d-9283ad286b90","ios":"levelo://app?vid=95fd31be-1268-4609-a09d-9283ad286b90"},"vehicle_type_id":"4","last_reported":1730034828,"current_range_meters":30800,"station_id":"ce4bgs92rcd13ifvqcc0","pricing_plan_id":"cebpf4jnsgd1na2vs0mg"},{"bike_id":"b34006c4-4a8d-41be-95d1-471c5cd262f4","system_id":"levelo_inurba_marseille","lat":43.29193,"lon":5.35799,"is_reserved":false,"is_disabled":false,"rental_uris":{"android":"levelo://app?vid=b34006c4-4a8d-41be-95d1-471c5cd262f4","ios":"levelo://app?vid=b34006c4-4a8d-41be-95d1-471c5cd262f4"},"vehicle_type_id":"4","last_reported":1730034828,"current_range_meters":39200,"station_id":"ce4bhb12rcd13ifvqel0","pricing_plan_id":"cebpf4jnsgd1na2vs0mg"},{"bike_id":"30f9030b-a4d1-428c-bde4-b8523711d6e1","system_id":"levelo_inurba_marseille","lat":43.27567,"lon":5.38421,"is_reserved":false,"is_disabled":false,"rental_uris":{"android":"levelo://app?vid=30f9030b-a4d1-428c-bde4-b8523711d6e1","ios":"levelo://app?vid=30f9030b-a4d1-428c-bde4-b8523711d6e1"},"vehicle_type_id":"4","last_reported":1730034828,"current_range_meters":27200,"station_id":"ce4bhh92rcd13ifvqfi0","pricing_plan_id":"cebpf4jnsgd1na2vs0mg"},{"bike_id":"dad2718b-ffdf-4024-8a84-70e058921ae1","system_id":"levelo_inurba_marseille","lat":43.26052,"lon":5.39395,"is_reserved":false,"is_disabled":false,"rental_uris":{"android":"levelo://app?vid=dad2718b-ffdf-4024-8a84-70e058921ae1","ios":"levelo://app?vid=dad2718b-ffdf-4024-8a84-70e058921ae1"},"vehicle_type_id":"4","last_reported":1730034828,"current_range_meters":28000,"station_id":"ce4bhh92rcd13ifvqfj0","pricing_plan_id":"cebpf4jnsgd1na2vs0mg"},{"bike_id":"5c8d47df-cace-44d5-9922-d4ea86fc841f","system_id":"levelo_inurba_marseille","lat":43.23958,"lon":5.36636,"is_reserved":false,"is_disabled":false,"rental_uris":{"android":"levelo://app?vid=5c8d47df-cace-44d5-9922-d4ea86fc841f","ios":"levelo://app?vid=5c8d47df-cace-44d5-9922-d4ea86fc841f"},"vehicle_type_id":"4","last_reported":1730034828,"current_range_meters":38000,"station_id":"ce4bhi12rcd13ifvqfp0","pricing_plan_id":"cebpf4jnsgd1na2vs0mg"},{"bike_id":"0fdb2ecc-d21a-4e23-b94c-5ce92646afa6","system_id":"levelo_inurba_marseille","lat":43.27674,"lon":5.38877,"is_reserved":false,"is_disabled":false,"rental_uris":{"android":"levelo://app?vid=0fdb2ecc-d21a-4e23-b94c-5ce92646afa6","ios":"levelo://app?vid=0fdb2ecc-d21a-4e23-b94c-5ce92646afa6"},"vehicle_type_id":"4","last_reported":1730034828,"current_range_meters":16000,"station_id":"ce4bhi12rcd13ifvqfo0","pricing_plan_id":"cebpf4jnsgd1na2vs0mg"},{"bike_id":"872bf1d7-f852-4002-8545-4ba28e44ca4c","system_id":"levelo_inurba_marseille","lat":43.27494,"lon":5.42454,"is_reserved":false,"is_disabled":false,"rental_uris":{"android":"levelo://app?vid=872bf1d7-f852-4002-8545-4ba28e44ca4c","ios":"levelo://app?vid=872bf1d7-f852-4002-8545-4ba28e44ca4c"},"vehicle_type_id":"4","last_reported":1730034828,"current_range_meters":24400,"station_id":"ce4bhn92rcd13ifvqgrg","pricing_plan_id":"cebpf4jnsgd1na2vs0mg"},{"bike_id":"7c415667-afd5-4e51-88b5-a0f16e35d58c","system_id":"levelo_inurba_marseille","lat":43.27489,"lon":5.42462,"is_reserved":false,"is_disabled":false,"rental_uris":{"android":"levelo://app?vid=7c415667-afd5-4e51-88b5-a0f16e35d58c","ios":"levelo://app?vid=7c415667-afd5-4e51-88b5-a0f16e35d58c"},"vehicle_type_id":"4","last_reported":1730034828,"current_range_meters":27200,"station_id":"ce4bhn92rcd13ifvqgrg","pricing_plan_id":"cebpf4jnsgd1na2vs0mg"},{"bike_id":"63dffe58-b321-4992-b66b-9f28a3e3e3b4","system_id":"levelo_inurba_marseille","lat":43.29955,"lon":5.41325,"is_reserved":false,"is_disabled":false,"rental_uris":{"android":"levelo://app?vid=63dffe58-b321-4992-b66b-9f28a3e3e3b4","ios":"levelo://app?vid=63dffe58-b321-4992-b66b-9f28a3e3e3b4"},"vehicle_type_id":"4","last_reported":1730034828,"current_range_meters":39200,"station_id":"ce4bhp12rcd13ifvqh9g","pricing_plan_id":"cebpf4jnsgd1na2vs0mg"},{"bike_id":"8d41ddb8-2ca2-4155-b132-8b550bbf1a15","system_id":"levelo_inurba_marseille","lat":43.31358,"lon":5.38487,"is_reserved":false,"is_disabled":false,"rental_uris":{"android":"levelo://app?vid=8d41ddb8-2ca2-4155-b132-8b550bbf1a15","ios":"levelo://app?vid=8d41ddb8-2ca2-4155-b132-8b550bbf1a15"},"vehicle_type_id":"4","last_reported":1730034828,"current_range_meters":18800,"station_id":"ce4bgt92rcd13ifvqcf0","pricing_plan_id":"cebpf4jnsgd1na2vs0mg"},{"bike_id":"a3e0d9da-5427-4778-8249-427ccd80d981","system_id":"levelo_inurba_marseille","lat":43.29551,"lon":5.42283,"is_reserved":false,"is_disabled":false,"rental_uris":{"android":"levelo://app?vid=a3e0d9da-5427-4778-8249-427ccd80d981","ios":"levelo://app?vid=a3e0d9da-5427-4778-8249-427ccd80d981"},"vehicle_type_id":"4","last_reported":1730034828,"current_range_meters":38800,"station_id":"ce4bhph2rcd13ifvqhdg","pricing_plan_id":"cebpf4jnsgd1na2vs0mg"},{"bike_id":"b3395865-638c-409f-8ba5-b009807c2e9a","system_id":"levelo_inurba_marseille","lat":43.29939,"lon":5.36543,"is_reserved":false,"is_disabled":false,"rental_uris":{"android":"levelo://app?vid=b3395865-638c-409f-8ba5-b009807c2e9a","ios":"levelo://app?vid=b3395865-638c-409f-8ba5-b009807c2e9a"},"vehicle_type_id":"4","last_reported":1730034828,"current_range_meters":36000,"station_id":"ce4bgm92rcd13ifvqbr0","pricing_plan_id":"cebpf4jnsgd1na2vs0mg"},{"bike_id":"abdd2cf5-d26a-4344-864b-200120e36d8e","system_id":"levelo_inurba_marseille","lat":43.29367,"lon":5.37833,"is_reserved":false,"is_disabled":false,"rental_uris":{"android":"levelo://app?vid=abdd2cf5-d26a-4344-864b-200120e36d8e","ios":"levelo://app?vid=abdd2cf5-d26a-4344-864b-200120e36d8e"},"vehicle_type_id":"4","last_reported":1730034828,"current_range_meters":22400,"station_id":"ce4bgjh2rcd13ifvqbf0","pricing_plan_id":"cebpf4jnsgd1na2vs0mg"},{"bike_id":"6f9e59ee-2fd2-40ba-8a01-989a81017f1d","system_id":"levelo_inurba_marseille","lat":43.30137,"lon":5.37415,"is_reserved":false,"is_disabled":false,"rental_uris":{"android":"levelo://app?vid=6f9e59ee-2fd2-40ba-8a01-989a81017f1d","ios":"levelo://app?vid=6f9e59ee-2fd2-40ba-8a01-989a81017f1d"},"vehicle_type_id":"4","last_reported":1730034828,"current_range_meters":36400,"station_id":"ce4bgs92rcd13ifvqcc0","pricing_plan_id":"cebpf4jnsgd1na2vs0mg"},{"bike_id":"b4348c01-0050-43c0-9d00-efd0ac088090","system_id":"levelo_inurba_marseille","lat":43.3148,"lon":5.373,"is_reserved":false,"is_disabled":false,"rental_uris":{"android":"levelo://app?vid=b4348c01-0050-43c0-9d00-efd0ac088090","ios":"levelo://app?vid=b4348c01-0050-43c0-9d00-efd0ac088090"},"vehicle_type_id":"4","last_reported":1730034828,"current_range_meters":36800,"station_id":"ce4bgt12rcd13ifvqcd0","pricing_plan_id":"cebpf4jnsgd1na2vs0mg"},{"bike_id":"5604f902-d665-4480-8f09-22894ce91f7e","system_id":"levelo_inurba_marseille","lat":43.28999,"lon":5.35613,"is_reserved":false,"is_disabled":false,"rental_uris":{"android":"levelo://app?vid=5604f902-d665-4480-8f09-22894ce91f7e","ios":"levelo://app?vid=5604f902-d665-4480-8f09-22894ce91f7e"},"vehicle_type_id":"4","last_reported":1730034828,"current_range_meters":11200,"station_id":"ce4bhb92rcd13ifvqen0","pricing_plan_id":"cebpf4jnsgd1na2vs0mg"},{"bike_id":"0a8f76cc-76e5-49dd-a5c6-ca2a8c60c54d","system_id":"levelo_inurba_marseille","lat":43.31485,"lon":5.37315,"is_reserved":false,"is_disabled":false,"rental_uris":{"android":"levelo://app?vid=0a8f76cc-76e5-49dd-a5c6-ca2a8c60c54d","ios":"levelo://app?vid=0a8f76cc-76e5-49dd-a5c6-ca2a8c60c54d"},"vehicle_type_id":"4","last_reported":1730034828,"current_range_meters":17600,"station_id":"ce4bgt12rcd13ifvqcd0","pricing_plan_id":"cebpf4jnsgd1na2vs0mg"},{"bike_id":"d8d619c6-7301-4ff3-a605-7c1e2e08b62e","system_id":"levelo_inurba_marseille","lat":43.28033,"lon":5.36941,"is_reserved":false,"is_disabled":false,"rental_uris":{"android":"levelo://app?vid=d8d619c6-7301-4ff3-a605-7c1e2e08b62e","ios":"levelo://app?vid=d8d619c6-7301-4ff3-a605-7c1e2e08b62e"},"vehicle_type_id":"4","last_reported":1730034828,"current_range_meters":39200,"station_id":"ce4bha12rcd13ifvqef0","pricing_plan_id":"cebpf4jnsgd1na2vs0mg"},{"bike_id":"95e7afa4-c095-4a38-9d83-79e1e4f6eebd","system_id":"levelo_inurba_marseille","lat":43.2993,"lon":5.36555,"is_reserved":false,"is_disabled":false,"rental_uris":{"android":"levelo://app?vid=95e7afa4-c095-4a38-9d83-79e1e4f6eebd","ios":"levelo://app?vid=95e7afa4-c095-4a38-9d83-79e1e4f6eebd"},"vehicle_type_id":"4","last_reported":1730034828,"current_range_meters":38400,"station_id":"ce4bgm92rcd13ifvqbr0","pricing_plan_id":"cebpf4jnsgd1na2vs0mg"},{"bike_id":"2fdd8efd-807f-43c0-a5f8-acb8d352d834","system_id":"levelo_inurba_marseille","lat":43.32365,"lon":5.38884,"is_reserved":false,"is_disabled":false,"rental_uris":{"android":"levelo://app?vid=2fdd8efd-807f-43c0-a5f8-acb8d352d834","ios":"levelo://app?vid=2fdd8efd-807f-43c0-a5f8-acb8d352d834"},"vehicle_type_id":"4","last_reported":1730034828,"current_range_meters":4400,"station_id":"ce4bhqp2rcd13ifvqhog","pricing_plan_id":"cebpf4jnsgd1na2vs0mg"},{"bike_id":"43df6f01-ce4c-441f-bf0c-95fe2920d7eb","system_id":"levelo_inurba_marseille","lat":43.26561,"lon":5.38998,"is_reserved":false,"is_disabled":false,"rental_uris":{"android":"levelo://app?vid=43df6f01-ce4c-441f-bf0c-95fe2920d7eb","ios":"levelo://app?vid=43df6f01-ce4c-441f-bf0c-95fe2920d7eb"},"vehicle_type_id":"4","last_reported":1730034828,"current_range_meters":28000,"station_id":"ce4bhe12rcd13ifvqf30","pricing_plan_id":"cebpf4jnsgd1na2vs0mg"},{"bike_id":"e9c7b5fa-e3f0-48a7-823a-f6a491cd8ef0","system_id":"levelo_inurba_marseille","lat":43.28149,"lon":5.42642,"is_reserved":false,"is_disabled":false,"rental_uris":{"android":"levelo://app?vid=e9c7b5fa-e3f0-48a7-823a-f6a491cd8ef0","ios":"levelo://app?vid=e9c7b5fa-e3f0-48a7-823a-f6a491cd8ef0"},"vehicle_type_id":"4","last_reported":1730034828,"current_range_meters":39200,"station_id":"ce4bhnh2rcd13ifvqgug","pricing_plan_id":"cebpf4jnsgd1na2vs0mg"},{"bike_id":"c480ee70-1357-4825-93fb-f50d007932e7","system_id":"levelo_inurba_marseille","lat":43.27054,"lon":5.40252,"is_reserved":false,"is_disabled":false,"rental_uris":{"android":"levelo://app?vid=c480ee70-1357-4825-93fb-f50d007932e7","ios":"levelo://app?vid=c480ee70-1357-4825-93fb-f50d007932e7"},"vehicle_type_id":"4","last_reported":1730034828,"current_range_meters":37600,"station_id":"ce4bhk92rcd13ifvqgc0","pricing_plan_id":"cebpf4jnsgd1na2vs0mg"},{"bike_id":"d8f505d6-798a-4749-a258-19819e87b361","system_id":"levelo_inurba_marseille","lat":43.28619,"lon":5.35108,"is_reserved":false,"is_disabled":false,"rental_uris":{"android":"levelo://app?vid=d8f505d6-798a-4749-a258-19819e87b361","ios":"levelo://app?vid=d8f505d6-798a-4749-a258-19819e87b361"},"vehicle_type_id":"4","last_reported":1730034828,"current_range_meters":36000,"station_id":"ce4bhch2rcd13ifvqeug","pricing_plan_id":"cebpf4jnsgd1na2vs0mg"},{"bike_id":"de1cb2e8-5b82-4389-92ad-3386beb7b82f","system_id":"levelo_inurba_marseille","lat":43.29306,"lon":5.37181,"is_reserved":false,"is_disabled":false,"rental_uris":{"android":"levelo://app?vid=de1cb2e8-5b82-4389-92ad-3386beb7b82f","ios":"levelo://app?vid=de1cb2e8-5b82-4389-92ad-3386beb7b82f"},"vehicle_type_id":"4","last_reported":1730034828,"current_range_meters":28800,"station_id":"ce4bgh92rcd13ifvqb40","pricing_plan_id":"cebpf4jnsgd1na2vs0mg"},{"bike_id":"ef57adbe-bff3-4d54-9e89-06dd32561fed","system_id":"levelo_inurba_marseille","lat":43.28351,"lon":5.38096,"is_reserved":false,"is_disabled":false,"rental_uris":{"android":"levelo://app?vid=ef57adbe-bff3-4d54-9e89-06dd32561fed","ios":"levelo://app?vid=ef57adbe-bff3-4d54-9e89-06dd32561fed"},"vehicle_type_id":"4","last_reported":1730034828,"current_range_meters":8800,"station_id":"ce4bh412rcd13ifvqdr0","pricing_plan_id":"cebpf4jnsgd1na2vs0mg"},{"bike_id":"e80a5f67-0975-4267-8c19-ab6f64077366","system_id":"levelo_inurba_marseille","lat":43.31269,"lon":5.40184,"is_reserved":false,"is_disabled":false,"rental_uris":{"android":"levelo://app?vid=e80a5f67-0975-4267-8c19-ab6f64077366","ios":"levelo://app?vid=e80a5f67-0975-4267-8c19-ab6f64077366"},"vehicle_type_id":"4","last_reported":1730034828,"current_range_meters":39200,"station_id":"ce4bh092rcd13ifvqd30","pricing_plan_id":"cebpf4jnsgd1na2vs0mg"},{"bike_id":"764364f0-86a2-4166-8605-314636f3daef","system_id":"levelo_inurba_marseille","lat":43.29843,"lon":5.36275,"is_reserved":false,"is_disabled":false,"rental_uris":{"android":"levelo://app?vid=764364f0-86a2-4166-8605-314636f3daef","ios":"levelo://app?vid=764364f0-86a2-4166-8605-314636f3daef"},"vehicle_type_id":"4","last_reported":1730034828,"current_range_meters":38000,"station_id":"ce4bgpp2rcd13ifvqc3g","pricing_plan_id":"cebpf4jnsgd1na2vs0mg"},{"bike_id":"d4b0d68a-ae82-42a1-b0da-b39254ee1044","system_id":"levelo_inurba_marseille","lat":43.23199,"lon":5.35547,"is_reserved":false,"is_disabled":false,"rental_uris":{"android":"levelo://app?vid=d4b0d68a-ae82-42a1-b0da-b39254ee1044","ios":"levelo://app?vid=d4b0d68a-ae82-42a1-b0da-b39254ee1044"},"vehicle_type_id":"4","last_reported":1730034828,"current_range_meters":10800,"station_id":"ce4bhu92rcd13ifvqi70","pricing_plan_id":"cebpf4jnsgd1na2vs0mg"},{"bike_id":"8aff352e-7f5a-4e1a-bd64-3ca565abc93a","system_id":"levelo_inurba_marseille","lat":43.26552,"lon":5.37283,"is_reserved":false,"is_disabled":false,"rental_uris":{"android":"levelo://app?vid=8aff352e-7f5a-4e1a-bd64-3ca565abc93a","ios":"levelo://app?vid=8aff352e-7f5a-4e1a-bd64-3ca565abc93a"},"vehicle_type_id":"4","last_reported":1730034828,"current_range_meters":14400,"station_id":"ce4bhg12rcd13ifvqf70","pricing_plan_id":"cebpf4jnsgd1na2vs0mg"},{"bike_id":"7cdd88d2-5824-40fa-8faf-90ef733261c2","system_id":"levelo_inurba_marseille","lat":43.23961,"lon":5.36652,"is_reserved":false,"is_disabled":false,"rental_uris":{"android":"levelo://app?vid=7cdd88d2-5824-40fa-8faf-90ef733261c2","ios":"levelo://app?vid=7cdd88d2-5824-40fa-8faf-90ef733261c2"},"vehicle_type_id":"4","last_reported":1730034828,"current_range_meters":16800,"station_id":"ce4bhi12rcd13ifvqfp0","pricing_plan_id":"cebpf4jnsgd1na2vs0mg"},{"bike_id":"25824153-b4b3-483b-b4a4-390dc16890cc","system_id":"levelo_inurba_marseille","lat":43.2799,"lon":5.40014,"is_reserved":false,"is_disabled":false,"rental_uris":{"android":"levelo://app?vid=25824153-b4b3-483b-b4a4-390dc16890cc","ios":"levelo://app?vid=25824153-b4b3-483b-b4a4-390dc16890cc"},"vehicle_type_id":"4","last_reported":1730034828,"current_range_meters":37600,"station_id":"ce4bho92rcd13ifvqh4g","pricing_plan_id":"cebpf4jnsgd1na2vs0mg"},{"bike_id":"d93f5d66-5801-405e-8177-d8044aa5543d","system_id":"levelo_inurba_marseille","lat":43.28156,"lon":5.42639,"is_reserved":false,"is_disabled":false,"rental_uris":{"android":"levelo://app?vid=d93f5d66-5801-405e-8177-d8044aa5543d","ios":"levelo://app?vid=d93f5d66-5801-405e-8177-d8044aa5543d"},"vehicle_type_id":"4","last_reported":1730034828,"current_range_meters":6800,"station_id":"ce4bhnh2rcd13ifvqgug","pricing_plan_id":"cebpf4jnsgd1na2vs0mg"},{"bike_id":"8a7ea3b3-7c19-4f13-a31a-07202c98e2c3","system_id":"levelo_inurba_marseille","lat":43.32476,"lon":5.36558,"is_reserved":false,"is_disabled":false,"rental_uris":{"android":"levelo://app?vid=8a7ea3b3-7c19-4f13-a31a-07202c98e2c3","ios":"levelo://app?vid=8a7ea3b3-7c19-4f13-a31a-07202c98e2c3"},"vehicle_type_id":"4","last_reported":1730034828,"current_range_meters":21600,"station_id":"ce4bhs12rcd13ifvqhvg","pricing_plan_id":"cebpf4jnsgd1na2vs0mg"},{"bike_id":"04518ea9-c53f-40a3-80da-3e58bba4a32f","system_id":"levelo_inurba_marseille","lat":43.2293,"lon":5.35377,"is_reserved":false,"is_disabled":false,"rental_uris":{"android":"levelo://app?vid=04518ea9-c53f-40a3-80da-3e58bba4a32f","ios":"levelo://app?vid=04518ea9-c53f-40a3-80da-3e58bba4a32f"},"vehicle_type_id":"4","last_reported":1730034828,"current_range_meters":27600,"station_id":"cpo3532slgdg3j2ikp40","pricing_plan_id":"cebpf4jnsgd1na2vs0mg"},{"bike_id":"944a1341-d5b0-4573-9e40-38a85c06908c","system_id":"levelo_inurba_marseille","lat":43.28928,"lon":5.36631,"is_reserved":false,"is_disabled":false,"rental_uris":{"android":"levelo://app?vid=944a1341-d5b0-4573-9e40-38a85c06908c","ios":"levelo://app?vid=944a1341-d5b0-4573-9e40-38a85c06908c"},"vehicle_type_id":"4","last_reported":1730034828,"current_range_meters":30800,"station_id":"ce4bhap2rcd13ifvqek0","pricing_plan_id":"cebpf4jnsgd1na2vs0mg"},{"bike_id":"37715975-b7d7-45ae-87a1-9fd2bf4e6777","system_id":"levelo_inurba_marseille","lat":43.23959,"lon":5.36639,"is_reserved":false,"is_disabled":false,"rental_uris":{"android":"levelo://app?vid=37715975-b7d7-45ae-87a1-9fd2bf4e6777","ios":"levelo://app?vid=37715975-b7d7-45ae-87a1-9fd2bf4e6777"},"vehicle_type_id":"4","last_reported":1730034828,"current_range_meters":8400,"station_id":"ce4bhi12rcd13ifvqfp0","pricing_plan_id":"cebpf4jnsgd1na2vs0mg"},{"bike_id":"a929bb97-02ec-400c-aafd-a4d93e575497","system_id":"levelo_inurba_marseille","lat":43.24172,"lon":5.36396,"is_reserved":false,"is_disabled":false,"rental_uris":{"android":"levelo://app?vid=a929bb97-02ec-400c-aafd-a4d93e575497","ios":"levelo://app?vid=a929bb97-02ec-400c-aafd-a4d93e575497"},"vehicle_type_id":"4","last_reported":1730034828,"current_range_meters":29600,"station_id":"cpo36qri1sfpv3e86is0","pricing_plan_id":"cebpf4jnsgd1na2vs0mg"},{"bike_id":"1a504bb3-387b-4e83-ae89-5c5ddfebd1d6","system_id":"levelo_inurba_marseille","lat":43.26929,"lon":5.38913,"is_reserved":false,"is_disabled":false,"rental_uris":{"android":"levelo://app?vid=1a504bb3-387b-4e83-ae89-5c5ddfebd1d6","ios":"levelo://app?vid=1a504bb3-387b-4e83-ae89-5c5ddfebd1d6"},"vehicle_type_id":"4","last_reported":1730034828,"current_range_meters":38800,"station_id":"ce4bhhh2rcd13ifvqfl0","pricing_plan_id":"cebpf4jnsgd1na2vs0mg"},{"bike_id":"6495af04-c874-4345-ae15-2fb517b868e4","system_id":"levelo_inurba_marseille","lat":43.30538,"lon":5.36525,"is_reserved":false,"is_disabled":false,"rental_uris":{"android":"levelo://app?vid=6495af04-c874-4345-ae15-2fb517b868e4","ios":"levelo://app?vid=6495af04-c874-4345-ae15-2fb517b868e4"},"vehicle_type_id":"4","last_reported":1730034828,"current_range_meters":28400,"station_id":"ce4bgs12rcd13ifvqcag","pricing_plan_id":"cebpf4jnsgd1na2vs0mg"},{"bike_id":"01a8e98b-5b3e-425b-8bde-b143fe7810a1","system_id":"levelo_inurba_marseille","lat":43.265638,"lon":5.389978,"is_reserved":false,"is_disabled":false,"rental_uris":{"android":"levelo://app?vid=01a8e98b-5b3e-425b-8bde-b143fe7810a1","ios":"levelo://app?vid=01a8e98b-5b3e-425b-8bde-b143fe7810a1"},"vehicle_type_id":"4","last_reported":1730034828,"current_range_meters":26800,"station_id":"ce4bhe12rcd13ifvqf30","pricing_plan_id":"cebpf4jnsgd1na2vs0mg"},{"bike_id":"b9be62ac-3e13-4e50-b692-f947c9248f83","system_id":"levelo_inurba_marseille","lat":43.30417,"lon":5.41281,"is_reserved":false,"is_disabled":false,"rental_uris":{"android":"levelo://app?vid=b9be62ac-3e13-4e50-b692-f947c9248f83","ios":"levelo://app?vid=b9be62ac-3e13-4e50-b692-f947c9248f83"},"vehicle_type_id":"4","last_reported":1730034828,"current_range_meters":24800,"station_id":"ce4bhop2rcd13ifvqh8g","pricing_plan_id":"cebpf4jnsgd1na2vs0mg"},{"bike_id":"1ee34a22-122a-45ae-a6f6-df542fc6f10d","system_id":"levelo_inurba_marseille","lat":43.3054,"lon":5.36696,"is_reserved":false,"is_disabled":false,"rental_uris":{"android":"levelo://app?vid=1ee34a22-122a-45ae-a6f6-df542fc6f10d","ios":"levelo://app?vid=1ee34a22-122a-45ae-a6f6-df542fc6f10d"},"vehicle_type_id":"4","last_reported":1730034828,"current_range_meters":27600,"station_id":"ce4bgrp2rcd13ifvqc9g","pricing_plan_id":"cebpf4jnsgd1na2vs0mg"},{"bike_id":"396b02c8-3bf6-444d-ba51-1cc84b771be6","system_id":"levelo_inurba_marseille","lat":43.30533,"lon":5.36532,"is_reserved":false,"is_disabled":false,"rental_uris":{"android":"levelo://app?vid=396b02c8-3bf6-444d-ba51-1cc84b771be6","ios":"levelo://app?vid=396b02c8-3bf6-444d-ba51-1cc84b771be6"},"vehicle_type_id":"4","last_reported":1730034828,"current_range_meters":36800,"station_id":"ce4bgs12rcd13ifvqcag","pricing_plan_id":"cebpf4jnsgd1na2vs0mg"},{"bike_id":"6e45bd55-8d3d-47a0-ae26-852c24ebcb13","system_id":"levelo_inurba_marseille","lat":43.2781,"lon":5.40704,"is_reserved":false,"is_disabled":false,"rental_uris":{"android":"levelo://app?vid=6e45bd55-8d3d-47a0-ae26-852c24ebcb13","ios":"levelo://app?vid=6e45bd55-8d3d-47a0-ae26-852c24ebcb13"},"vehicle_type_id":"4","last_reported":1730034828,"current_range_meters":39200,"station_id":"ce4bhnh2rcd13ifvqgtg","pricing_plan_id":"cebpf4jnsgd1na2vs0mg"},{"bike_id":"69bf52f0-431d-4a1d-88aa-b1ec63f1f38c","system_id":"levelo_inurba_marseille","lat":43.29933,"lon":5.36533,"is_reserved":false,"is_disabled":false,"rental_uris":{"android":"levelo://app?vid=69bf52f0-431d-4a1d-88aa-b1ec63f1f38c","ios":"levelo://app?vid=69bf52f0-431d-4a1d-88aa-b1ec63f1f38c"},"vehicle_type_id":"4","last_reported":1730034828,"current_range_meters":34800,"station_id":"ce4bgm92rcd13ifvqbr0","pricing_plan_id":"cebpf4jnsgd1na2vs0mg"},{"bike_id":"e89316dc-a19a-469f-a9cd-dc00b495757e","system_id":"levelo_inurba_marseille","lat":43.27429,"lon":5.40661,"is_reserved":false,"is_disabled":false,"rental_uris":{"android":"levelo://app?vid=e89316dc-a19a-469f-a9cd-dc00b495757e","ios":"levelo://app?vid=e89316dc-a19a-469f-a9cd-dc00b495757e"},"vehicle_type_id":"4","last_reported":1730034828,"current_range_meters":9600,"station_id":"","pricing_plan_id":"cebpf4jnsgd1na2vs0mg"},{"bike_id":"9bd13758-eaa9-47d7-bf79-6c0e8c9219b5","system_id":"levelo_inurba_marseille","lat":43.29847,"lon":5.36275,"is_reserved":false,"is_disabled":false,"rental_uris":{"android":"levelo://app?vid=9bd13758-eaa9-47d7-bf79-6c0e8c9219b5","ios":"levelo://app?vid=9bd13758-eaa9-47d7-bf79-6c0e8c9219b5"},"vehicle_type_id":"4","last_reported":1730034828,"current_range_meters":28800,"station_id":"ce4bgpp2rcd13ifvqc3g","pricing_plan_id":"cebpf4jnsgd1na2vs0mg"},{"bike_id":"81e500be-3ff6-45b1-af40-237783c8efb0","system_id":"levelo_inurba_marseille","lat":43.27806,"lon":5.40714,"is_reserved":false,"is_disabled":false,"rental_uris":{"android":"levelo://app?vid=81e500be-3ff6-45b1-af40-237783c8efb0","ios":"levelo://app?vid=81e500be-3ff6-45b1-af40-237783c8efb0"},"vehicle_type_id":"4","last_reported":1730034828,"current_range_meters":15200,"station_id":"ce4bhnh2rcd13ifvqgtg","pricing_plan_id":"cebpf4jnsgd1na2vs0mg"},{"bike_id":"a765b3f8-4221-47ca-9a13-729a2950b4ae","system_id":"levelo_inurba_marseille","lat":43.29972,"lon":5.37168,"is_reserved":false,"is_disabled":false,"rental_uris":{"android":"levelo://app?vid=a765b3f8-4221-47ca-9a13-729a2950b4ae","ios":"levelo://app?vid=a765b3f8-4221-47ca-9a13-729a2950b4ae"},"vehicle_type_id":"4","last_reported":1730034828,"current_range_meters":8800,"station_id":"ce4bgr92rcd13ifvqc7g","pricing_plan_id":"cebpf4jnsgd1na2vs0mg"},{"bike_id":"7b3b741d-a094-426f-91d3-b81d9fa8a93e","system_id":"levelo_inurba_marseille","lat":43.2806,"lon":5.40988,"is_reserved":false,"is_disabled":false,"rental_uris":{"android":"levelo://app?vid=7b3b741d-a094-426f-91d3-b81d9fa8a93e","ios":"levelo://app?vid=7b3b741d-a094-426f-91d3-b81d9fa8a93e"},"vehicle_type_id":"4","last_reported":1730034828,"current_range_meters":16400,"station_id":"","pricing_plan_id":"cebpf4jnsgd1na2vs0mg"},{"bike_id":"fa30867d-31fd-449d-bf86-f380d61b29ca","system_id":"levelo_inurba_marseille","lat":43.28421,"lon":5.34977,"is_reserved":false,"is_disabled":false,"rental_uris":{"android":"levelo://app?vid=fa30867d-31fd-449d-bf86-f380d61b29ca","ios":"levelo://app?vid=fa30867d-31fd-449d-bf86-f380d61b29ca"},"vehicle_type_id":"4","last_reported":1730034828,"current_range_meters":31200,"station_id":"ce4bhbh2rcd13ifvqepg","pricing_plan_id":"cebpf4jnsgd1na2vs0mg"},{"bike_id":"137017f7-8f2b-4f74-8d6b-17ce7a96853f","system_id":"levelo_inurba_marseille","lat":43.26679,"lon":5.38275,"is_reserved":false,"is_disabled":false,"rental_uris":{"android":"levelo://app?vid=137017f7-8f2b-4f74-8d6b-17ce7a96853f","ios":"levelo://app?vid=137017f7-8f2b-4f74-8d6b-17ce7a96853f"},"vehicle_type_id":"4","last_reported":1730034828,"current_range_meters":14800,"station_id":"ce4bhg92rcd13ifvqf90","pricing_plan_id":"cebpf4jnsgd1na2vs0mg"},{"bike_id":"d8ee650a-d3a8-4135-a06c-ed80a904e08d","system_id":"levelo_inurba_marseille","lat":43.28615,"lon":5.35105,"is_reserved":false,"is_disabled":false,"rental_uris":{"android":"levelo://app?vid=d8ee650a-d3a8-4135-a06c-ed80a904e08d","ios":"levelo://app?vid=d8ee650a-d3a8-4135-a06c-ed80a904e08d"},"vehicle_type_id":"4","last_reported":1730034828,"current_range_meters":19600,"station_id":"ce4bhch2rcd13ifvqeug","pricing_plan_id":"cebpf4jnsgd1na2vs0mg"},{"bike_id":"c129abeb-ed1b-43ac-a9e8-2572d10d02cb","system_id":"levelo_inurba_marseille","lat":43.29576,"lon":5.36739,"is_reserved":false,"is_disabled":false,"rental_uris":{"android":"levelo://app?vid=c129abeb-ed1b-43ac-a9e8-2572d10d02cb","ios":"levelo://app?vid=c129abeb-ed1b-43ac-a9e8-2572d10d02cb"},"vehicle_type_id":"4","last_reported":1730034828,"current_range_meters":37600,"station_id":"ce4bgph2rcd13ifvqc2g","pricing_plan_id":"cebpf4jnsgd1na2vs0mg"},{"bike_id":"ddd08def-886d-4437-9f94-da321ebddfed","system_id":"levelo_inurba_marseille","lat":43.30598,"lon":5.37222,"is_reserved":false,"is_disabled":false,"rental_uris":{"android":"levelo://app?vid=ddd08def-886d-4437-9f94-da321ebddfed","ios":"levelo://app?vid=ddd08def-886d-4437-9f94-da321ebddfed"},"vehicle_type_id":"4","last_reported":1730034828,"current_range_meters":32400,"station_id":"ce4bgqh2rcd13ifvqc4g","pricing_plan_id":"cebpf4jnsgd1na2vs0mg"},{"bike_id":"661fdbea-ac0f-46c7-8d8f-ff5b2fc3d24f","system_id":"levelo_inurba_marseille","lat":43.29004,"lon":5.35618,"is_reserved":false,"is_disabled":false,"rental_uris":{"android":"levelo://app?vid=661fdbea-ac0f-46c7-8d8f-ff5b2fc3d24f","ios":"levelo://app?vid=661fdbea-ac0f-46c7-8d8f-ff5b2fc3d24f"},"vehicle_type_id":"4","last_reported":1730034828,"current_range_meters":30000,"station_id":"ce4bhb92rcd13ifvqen0","pricing_plan_id":"cebpf4jnsgd1na2vs0mg"},{"bike_id":"9d8a8e85-1dcf-449a-9dd2-898e6f1c7b5d","system_id":"levelo_inurba_marseille","lat":43.28151,"lon":5.42647,"is_reserved":false,"is_disabled":false,"rental_uris":{"android":"levelo://app?vid=9d8a8e85-1dcf-449a-9dd2-898e6f1c7b5d","ios":"levelo://app?vid=9d8a8e85-1dcf-449a-9dd2-898e6f1c7b5d"},"vehicle_type_id":"4","last_reported":1730034828,"current_range_meters":28400,"station_id":"ce4bhnh2rcd13ifvqgug","pricing_plan_id":"cebpf4jnsgd1na2vs0mg"},{"bike_id":"ac3f4b9d-fe38-4f7c-8b6b-b01a12ec939f","system_id":"levelo_inurba_marseille","lat":43.26204,"lon":5.37924,"is_reserved":false,"is_disabled":false,"rental_uris":{"android":"levelo://app?vid=ac3f4b9d-fe38-4f7c-8b6b-b01a12ec939f","ios":"levelo://app?vid=ac3f4b9d-fe38-4f7c-8b6b-b01a12ec939f"},"vehicle_type_id":"4","last_reported":1730034828,"current_range_meters":39200,"station_id":"ce4bhjp2rcd13ifvqg90","pricing_plan_id":"cebpf4jnsgd1na2vs0mg"},{"bike_id":"4f40e012-ea5b-4575-9527-1f943967bef1","system_id":"levelo_inurba_marseille","lat":43.23969,"lon":5.36633,"is_reserved":false,"is_disabled":false,"rental_uris":{"android":"levelo://app?vid=4f40e012-ea5b-4575-9527-1f943967bef1","ios":"levelo://app?vid=4f40e012-ea5b-4575-9527-1f943967bef1"},"vehicle_type_id":"4","last_reported":1730034828,"current_range_meters":17200,"station_id":"ce4bhi12rcd13ifvqfp0","pricing_plan_id":"cebpf4jnsgd1na2vs0mg"},{"bike_id":"4d18fdf7-40fd-43b3-89ca-7d0f38bd83c5","system_id":"levelo_inurba_marseille","lat":43.3246,"lon":5.36544,"is_reserved":false,"is_disabled":false,"rental_uris":{"android":"levelo://app?vid=4d18fdf7-40fd-43b3-89ca-7d0f38bd83c5","ios":"levelo://app?vid=4d18fdf7-40fd-43b3-89ca-7d0f38bd83c5"},"vehicle_type_id":"4","last_reported":1730034828,"current_range_meters":22400,"station_id":"ce4bhs12rcd13ifvqhvg","pricing_plan_id":"cebpf4jnsgd1na2vs0mg"},{"bike_id":"ec544e73-f03c-418a-b19e-58778fa8a67d","system_id":"levelo_inurba_marseille","lat":43.23189,"lon":5.35548,"is_reserved":false,"is_disabled":false,"rental_uris":{"android":"levelo://app?vid=ec544e73-f03c-418a-b19e-58778fa8a67d","ios":"levelo://app?vid=ec544e73-f03c-418a-b19e-58778fa8a67d"},"vehicle_type_id":"4","last_reported":1730034828,"current_range_meters":39200,"station_id":"ce4bhu92rcd13ifvqi70","pricing_plan_id":"cebpf4jnsgd1na2vs0mg"},{"bike_id":"0d2dad77-65b4-495d-a554-fbe297a6bfa9","system_id":"levelo_inurba_marseille","lat":43.2893,"lon":5.36628,"is_reserved":false,"is_disabled":false,"rental_uris":{"android":"levelo://app?vid=0d2dad77-65b4-495d-a554-fbe297a6bfa9","ios":"levelo://app?vid=0d2dad77-65b4-495d-a554-fbe297a6bfa9"},"vehicle_type_id":"4","last_reported":1730034828,"current_range_meters":34000,"station_id":"ce4bhap2rcd13ifvqek0","pricing_plan_id":"cebpf4jnsgd1na2vs0mg"},{"bike_id":"17b630e3-0caf-43f1-aa74-1acd14e49eec","system_id":"levelo_inurba_marseille","lat":43.250863,"lon":5.39533,"is_reserved":false,"is_disabled":false,"rental_uris":{"android":"levelo://app?vid=17b630e3-0caf-43f1-aa74-1acd14e49eec","ios":"levelo://app?vid=17b630e3-0caf-43f1-aa74-1acd14e49eec"},"vehicle_type_id":"4","last_reported":1730034828,"current_range_meters":24400,"station_id":"ce4bhm12rcd13ifvqgkg","pricing_plan_id":"cebpf4jnsgd1na2vs0mg"},{"bike_id":"4fce8218-6bfc-440b-b108-5cf1b5e5e58a","system_id":"levelo_inurba_marseille","lat":43.23192,"lon":5.35552,"is_reserved":false,"is_disabled":false,"rental_uris":{"android":"levelo://app?vid=4fce8218-6bfc-440b-b108-5cf1b5e5e58a","ios":"levelo://app?vid=4fce8218-6bfc-440b-b108-5cf1b5e5e58a"},"vehicle_type_id":"4","last_reported":1730034828,"current_range_meters":39200,"station_id":"ce4bhu92rcd13ifvqi70","pricing_plan_id":"cebpf4jnsgd1na2vs0mg"},{"bike_id":"e2082c5c-9f16-465d-a177-6cb759129b32","system_id":"levelo_inurba_marseille","lat":43.30134,"lon":5.37421,"is_reserved":false,"is_disabled":false,"rental_uris":{"android":"levelo://app?vid=e2082c5c-9f16-465d-a177-6cb759129b32","ios":"levelo://app?vid=e2082c5c-9f16-465d-a177-6cb759129b32"},"vehicle_type_id":"4","last_reported":1730034828,"current_range_meters":38000,"station_id":"ce4bgs92rcd13ifvqcc0","pricing_plan_id":"cebpf4jnsgd1na2vs0mg"},{"bike_id":"6b10aa57-a20f-4a52-8be5-7f69bd4f0e4a","system_id":"levelo_inurba_marseille","lat":43.24648,"lon":5.38887,"is_reserved":false,"is_disabled":false,"rental_uris":{"android":"levelo://app?vid=6b10aa57-a20f-4a52-8be5-7f69bd4f0e4a","ios":"levelo://app?vid=6b10aa57-a20f-4a52-8be5-7f69bd4f0e4a"},"vehicle_type_id":"4","last_reported":1730034828,"current_range_meters":36400,"station_id":"ce4bhg12rcd13ifvqf60","pricing_plan_id":"cebpf4jnsgd1na2vs0mg"},{"bike_id":"3119b666-b043-466d-b44b-94fc7abaa02b","system_id":"levelo_inurba_marseille","lat":43.30137,"lon":5.37418,"is_reserved":false,"is_disabled":false,"rental_uris":{"android":"levelo://app?vid=3119b666-b043-466d-b44b-94fc7abaa02b","ios":"levelo://app?vid=3119b666-b043-466d-b44b-94fc7abaa02b"},"vehicle_type_id":"4","last_reported":1730034828,"current_range_meters":23200,"station_id":"ce4bgs92rcd13ifvqcc0","pricing_plan_id":"cebpf4jnsgd1na2vs0mg"},{"bike_id":"a64c9bae-96b6-4749-b19c-ac41d1700858","system_id":"levelo_inurba_marseille","lat":43.27491,"lon":5.42466,"is_reserved":false,"is_disabled":false,"rental_uris":{"android":"levelo://app?vid=a64c9bae-96b6-4749-b19c-ac41d1700858","ios":"levelo://app?vid=a64c9bae-96b6-4749-b19c-ac41d1700858"},"vehicle_type_id":"4","last_reported":1730034828,"current_range_meters":29600,"station_id":"ce4bhn92rcd13ifvqgrg","pricing_plan_id":"cebpf4jnsgd1na2vs0mg"},{"bike_id":"e3b79c64-cc5a-4854-98c8-277b6904b600","system_id":"levelo_inurba_marseille","lat":43.29909,"lon":5.38137,"is_reserved":false,"is_disabled":false,"rental_uris":{"android":"levelo://app?vid=e3b79c64-cc5a-4854-98c8-277b6904b600","ios":"levelo://app?vid=e3b79c64-cc5a-4854-98c8-277b6904b600"},"vehicle_type_id":"4","last_reported":1730034828,"current_range_meters":29600,"station_id":"ce4bgj12rcd13ifvqbc0","pricing_plan_id":"cebpf4jnsgd1na2vs0mg"},{"bike_id":"f3747e28-2618-4e97-bc72-875896e662f8","system_id":"levelo_inurba_marseille","lat":43.29009,"lon":5.35616,"is_reserved":false,"is_disabled":false,"rental_uris":{"android":"levelo://app?vid=f3747e28-2618-4e97-bc72-875896e662f8","ios":"levelo://app?vid=f3747e28-2618-4e97-bc72-875896e662f8"},"vehicle_type_id":"4","last_reported":1730034828,"current_range_meters":9200,"station_id":"ce4bhb92rcd13ifvqen0","pricing_plan_id":"cebpf4jnsgd1na2vs0mg"},{"bike_id":"a637ddb5-b9e8-4510-912c-1884ad257272","system_id":"levelo_inurba_marseille","lat":43.26806,"lon":5.40264,"is_reserved":false,"is_disabled":false,"rental_uris":{"android":"levelo://app?vid=a637ddb5-b9e8-4510-912c-1884ad257272","ios":"levelo://app?vid=a637ddb5-b9e8-4510-912c-1884ad257272"},"vehicle_type_id":"4","last_reported":1730034828,"current_range_meters":34000,"station_id":"ce501612rcd8frsf0b60","pricing_plan_id":"cebpf4jnsgd1na2vs0mg"},{"bike_id":"85ac3782-a481-4c19-82eb-99e53814c534","system_id":"levelo_inurba_marseille","lat":43.29961,"lon":5.41314,"is_reserved":false,"is_disabled":false,"rental_uris":{"android":"levelo://app?vid=85ac3782-a481-4c19-82eb-99e53814c534","ios":"levelo://app?vid=85ac3782-a481-4c19-82eb-99e53814c534"},"vehicle_type_id":"4","last_reported":1730034828,"current_range_meters":36800,"station_id":"ce4bhp12rcd13ifvqh9g","pricing_plan_id":"cebpf4jnsgd1na2vs0mg"},{"bike_id":"8f730c73-8a18-4565-87ef-83750b3ea66a","system_id":"levelo_inurba_marseille","lat":43.25001,"lon":5.38921,"is_reserved":false,"is_disabled":false,"rental_uris":{"android":"levelo://app?vid=8f730c73-8a18-4565-87ef-83750b3ea66a","ios":"levelo://app?vid=8f730c73-8a18-4565-87ef-83750b3ea66a"},"vehicle_type_id":"4","last_reported":1730034828,"current_range_meters":31200,"station_id":"ce4bhgp2rcd13ifvqfd0","pricing_plan_id":"cebpf4jnsgd1na2vs0mg"},{"bike_id":"7af0d532-f314-459d-aee5-f126a8ca0f1d","system_id":"levelo_inurba_marseille","lat":43.22932,"lon":5.35372,"is_reserved":false,"is_disabled":false,"rental_uris":{"android":"levelo://app?vid=7af0d532-f314-459d-aee5-f126a8ca0f1d","ios":"levelo://app?vid=7af0d532-f314-459d-aee5-f126a8ca0f1d"},"vehicle_type_id":"4","last_reported":1730034828,"current_range_meters":8000,"station_id":"cpo3532slgdg3j2ikp40","pricing_plan_id":"cebpf4jnsgd1na2vs0mg"},{"bike_id":"2d830caa-b02f-49b3-ade7-bd7ddef5abda","system_id":"levelo_inurba_marseille","lat":43.27814,"lon":5.40719,"is_reserved":false,"is_disabled":false,"rental_uris":{"android":"levelo://app?vid=2d830caa-b02f-49b3-ade7-bd7ddef5abda","ios":"levelo://app?vid=2d830caa-b02f-49b3-ade7-bd7ddef5abda"},"vehicle_type_id":"4","last_reported":1730034828,"current_range_meters":38800,"station_id":"ce4bhnh2rcd13ifvqgtg","pricing_plan_id":"cebpf4jnsgd1na2vs0mg"},{"bike_id":"726c41b7-0612-492f-8ed2-37123ff1474f","system_id":"levelo_inurba_marseille","lat":43.31096,"lon":5.40093,"is_reserved":false,"is_disabled":false,"rental_uris":{"android":"levelo://app?vid=726c41b7-0612-492f-8ed2-37123ff1474f","ios":"levelo://app?vid=726c41b7-0612-492f-8ed2-37123ff1474f"},"vehicle_type_id":"4","last_reported":1730034828,"current_range_meters":14400,"station_id":"","pricing_plan_id":"cebpf4jnsgd1na2vs0mg"},{"bike_id":"c059b18a-c78b-49a8-94ee-98d314b4324e","system_id":"levelo_inurba_marseille","lat":43.26798,"lon":5.40257,"is_reserved":false,"is_disabled":false,"rental_uris":{"android":"levelo://app?vid=c059b18a-c78b-49a8-94ee-98d314b4324e","ios":"levelo://app?vid=c059b18a-c78b-49a8-94ee-98d314b4324e"},"vehicle_type_id":"4","last_reported":1730034828,"current_range_meters":22000,"station_id":"ce501612rcd8frsf0b60","pricing_plan_id":"cebpf4jnsgd1na2vs0mg"},{"bike_id":"b41fa1df-0ff5-4311-912d-ce8cc0c4ef8d","system_id":"levelo_inurba_marseille","lat":43.25931,"lon":5.40909,"is_reserved":false,"is_disabled":false,"rental_uris":{"android":"levelo://app?vid=b41fa1df-0ff5-4311-912d-ce8cc0c4ef8d","ios":"levelo://app?vid=b41fa1df-0ff5-4311-912d-ce8cc0c4ef8d"},"vehicle_type_id":"4","last_reported":1730034828,"current_range_meters":38000,"station_id":"ce4bhm92rcd13ifvqglg","pricing_plan_id":"cebpf4jnsgd1na2vs0mg"},{"bike_id":"5f309689-e017-4833-b270-af2713a13570","system_id":"levelo_inurba_marseille","lat":43.283,"lon":5.35043,"is_reserved":false,"is_disabled":false,"rental_uris":{"android":"levelo://app?vid=5f309689-e017-4833-b270-af2713a13570","ios":"levelo://app?vid=5f309689-e017-4833-b270-af2713a13570"},"vehicle_type_id":"4","last_reported":1730034828,"current_range_meters":37600,"station_id":"ce4bhbp2rcd13ifvqerg","pricing_plan_id":"cebpf4jnsgd1na2vs0mg"},{"bike_id":"eb4ceb8c-d00b-4397-b1fa-e20c7c1466c9","system_id":"levelo_inurba_marseille","lat":43.28997,"lon":5.35609,"is_reserved":false,"is_disabled":false,"rental_uris":{"android":"levelo://app?vid=eb4ceb8c-d00b-4397-b1fa-e20c7c1466c9","ios":"levelo://app?vid=eb4ceb8c-d00b-4397-b1fa-e20c7c1466c9"},"vehicle_type_id":"4","last_reported":1730034828,"current_range_meters":12800,"station_id":"ce4bhb92rcd13ifvqen0","pricing_plan_id":"cebpf4jnsgd1na2vs0mg"},{"bike_id":"8687337e-95e3-440d-810d-d0d1a04c1c73","system_id":"levelo_inurba_marseille","lat":43.28935,"lon":5.36625,"is_reserved":false,"is_disabled":false,"rental_uris":{"android":"levelo://app?vid=8687337e-95e3-440d-810d-d0d1a04c1c73","ios":"levelo://app?vid=8687337e-95e3-440d-810d-d0d1a04c1c73"},"vehicle_type_id":"4","last_reported":1730034828,"current_range_meters":13600,"station_id":"ce4bhap2rcd13ifvqek0","pricing_plan_id":"cebpf4jnsgd1na2vs0mg"},{"bike_id":"3e669126-6a72-4839-8fed-ebcac01e2a13","system_id":"levelo_inurba_marseille","lat":43.30313,"lon":5.36902,"is_reserved":false,"is_disabled":false,"rental_uris":{"android":"levelo://app?vid=3e669126-6a72-4839-8fed-ebcac01e2a13","ios":"levelo://app?vid=3e669126-6a72-4839-8fed-ebcac01e2a13"},"vehicle_type_id":"4","last_reported":1730034828,"current_range_meters":22800,"station_id":"ce4bgqh2rcd13ifvqc5g","pricing_plan_id":"cebpf4jnsgd1na2vs0mg"},{"bike_id":"1f4dd623-1984-456b-aeb1-05ef9d3fd652","system_id":"levelo_inurba_marseille","lat":43.29032,"lon":5.38661,"is_reserved":false,"is_disabled":false,"rental_uris":{"android":"levelo://app?vid=1f4dd623-1984-456b-aeb1-05ef9d3fd652","ios":"levelo://app?vid=1f4dd623-1984-456b-aeb1-05ef9d3fd652"},"vehicle_type_id":"4","last_reported":1730034828,"current_range_meters":19600,"station_id":"ce4bh4p2rcd13ifvqe0g","pricing_plan_id":"cebpf4jnsgd1na2vs0mg"},{"bike_id":"13d0d843-77d7-462d-87b4-44a56e4e6f32","system_id":"levelo_inurba_marseille","lat":43.22925,"lon":5.35378,"is_reserved":false,"is_disabled":false,"rental_uris":{"android":"levelo://app?vid=13d0d843-77d7-462d-87b4-44a56e4e6f32","ios":"levelo://app?vid=13d0d843-77d7-462d-87b4-44a56e4e6f32"},"vehicle_type_id":"4","last_reported":1730034828,"current_range_meters":19600,"station_id":"cpo3532slgdg3j2ikp40","pricing_plan_id":"cebpf4jnsgd1na2vs0mg"},{"bike_id":"d4daaf4c-da62-4a32-bd7f-3443b04f913e","system_id":"levelo_inurba_marseille","lat":43.26926,"lon":5.38912,"is_reserved":false,"is_disabled":false,"rental_uris":{"android":"levelo://app?vid=d4daaf4c-da62-4a32-bd7f-3443b04f913e","ios":"levelo://app?vid=d4daaf4c-da62-4a32-bd7f-3443b04f913e"},"vehicle_type_id":"4","last_reported":1730034828,"current_range_meters":36400,"station_id":"ce4bhhh2rcd13ifvqfl0","pricing_plan_id":"cebpf4jnsgd1na2vs0mg"},{"bike_id":"054e6880-9c02-4a6c-b074-e380851e9b71","system_id":"levelo_inurba_marseille","lat":43.26063,"lon":5.39391,"is_reserved":false,"is_disabled":false,"rental_uris":{"android":"levelo://app?vid=054e6880-9c02-4a6c-b074-e380851e9b71","ios":"levelo://app?vid=054e6880-9c02-4a6c-b074-e380851e9b71"},"vehicle_type_id":"4","last_reported":1730034828,"current_range_meters":36800,"station_id":"ce4bhh92rcd13ifvqfj0","pricing_plan_id":"cebpf4jnsgd1na2vs0mg"},{"bike_id":"84ad21ae-626e-4de9-b386-4c9d63f77e9f","system_id":"levelo_inurba_marseille","lat":43.26557,"lon":5.373,"is_reserved":false,"is_disabled":false,"rental_uris":{"android":"levelo://app?vid=84ad21ae-626e-4de9-b386-4c9d63f77e9f","ios":"levelo://app?vid=84ad21ae-626e-4de9-b386-4c9d63f77e9f"},"vehicle_type_id":"4","last_reported":1730034828,"current_range_meters":25600,"station_id":"ce4bhg12rcd13ifvqf70","pricing_plan_id":"cebpf4jnsgd1na2vs0mg"},{"bike_id":"e49103e6-4dc1-498f-8c5c-9341215d0efa","system_id":"levelo_inurba_marseille","lat":43.26936,"lon":5.38922,"is_reserved":false,"is_disabled":false,"rental_uris":{"android":"levelo://app?vid=e49103e6-4dc1-498f-8c5c-9341215d0efa","ios":"levelo://app?vid=e49103e6-4dc1-498f-8c5c-9341215d0efa"},"vehicle_type_id":"4","last_reported":1730034828,"current_range_meters":19600,"station_id":"ce4bhhh2rcd13ifvqfl0","pricing_plan_id":"cebpf4jnsgd1na2vs0mg"},{"bike_id":"4edc0e7b-846f-42d2-bf75-6ed9a6e6eba8","system_id":"levelo_inurba_marseille","lat":43.26934,"lon":5.40245,"is_reserved":false,"is_disabled":false,"rental_uris":{"android":"levelo://app?vid=4edc0e7b-846f-42d2-bf75-6ed9a6e6eba8","ios":"levelo://app?vid=4edc0e7b-846f-42d2-bf75-6ed9a6e6eba8"},"vehicle_type_id":"4","last_reported":1730034828,"current_range_meters":22000,"station_id":"cjm6bp8fraef2m0cb0m0","pricing_plan_id":"cebpf4jnsgd1na2vs0mg"},{"bike_id":"d4eb6c36-42ff-44da-981c-85ef11854886","system_id":"levelo_inurba_marseille","lat":43.29713,"lon":5.36616,"is_reserved":false,"is_disabled":false,"rental_uris":{"android":"levelo://app?vid=d4eb6c36-42ff-44da-981c-85ef11854886","ios":"levelo://app?vid=d4eb6c36-42ff-44da-981c-85ef11854886"},"vehicle_type_id":"4","last_reported":1730034828,"current_range_meters":39200,"station_id":"ce4bgn12rcd13ifvqbt0","pricing_plan_id":"cebpf4jnsgd1na2vs0mg"},{"bike_id":"8857b64b-d22c-4616-9a88-662d4d97cb82","system_id":"levelo_inurba_marseille","lat":43.27485,"lon":5.42465,"is_reserved":false,"is_disabled":false,"rental_uris":{"android":"levelo://app?vid=8857b64b-d22c-4616-9a88-662d4d97cb82","ios":"levelo://app?vid=8857b64b-d22c-4616-9a88-662d4d97cb82"},"vehicle_type_id":"4","last_reported":1730034828,"current_range_meters":11200,"station_id":"ce4bhn92rcd13ifvqgrg","pricing_plan_id":"cebpf4jnsgd1na2vs0mg"},{"bike_id":"c4aa21cf-3dd9-40b8-aaf2-5af4430b6c61","system_id":"levelo_inurba_marseille","lat":43.30413,"lon":5.41291,"is_reserved":false,"is_disabled":false,"rental_uris":{"android":"levelo://app?vid=c4aa21cf-3dd9-40b8-aaf2-5af4430b6c61","ios":"levelo://app?vid=c4aa21cf-3dd9-40b8-aaf2-5af4430b6c61"},"vehicle_type_id":"4","last_reported":1730034828,"current_range_meters":36800,"station_id":"ce4bhop2rcd13ifvqh8g","pricing_plan_id":"cebpf4jnsgd1na2vs0mg"},{"bike_id":"173ae2e8-1af3-43b8-97fb-aedb1c1d05c7","system_id":"levelo_inurba_marseille","lat":43.32477,"lon":5.36556,"is_reserved":false,"is_disabled":false,"rental_uris":{"android":"levelo://app?vid=173ae2e8-1af3-43b8-97fb-aedb1c1d05c7","ios":"levelo://app?vid=173ae2e8-1af3-43b8-97fb-aedb1c1d05c7"},"vehicle_type_id":"4","last_reported":1730034828,"current_range_meters":21600,"station_id":"ce4bhs12rcd13ifvqhvg","pricing_plan_id":"cebpf4jnsgd1na2vs0mg"},{"bike_id":"222c7149-682d-4a46-909a-a35b14615e11","system_id":"levelo_inurba_marseille","lat":43.267838,"lon":5.39412,"is_reserved":false,"is_disabled":false,"rental_uris":{"android":"levelo://app?vid=222c7149-682d-4a46-909a-a35b14615e11","ios":"levelo://app?vid=222c7149-682d-4a46-909a-a35b14615e11"},"vehicle_type_id":"4","last_reported":1730034828,"current_range_meters":28000,"station_id":"ce4bhh12rcd13ifvqfg0","pricing_plan_id":"cebpf4jnsgd1na2vs0mg"},