{"last_updated":1759133760,"ttl":60,"version":"2.2","data":{"bikes":[{"bike_id":"a4addced-6266-4a3b-a486-6d872e930fc7","system_id":"levelo_inurba_marseille","lat":43.231566,"lon":5.437205,"is_reserved":false,"is_disabled":false,"rental_uris":{"android":"levelo://app?vid=a4addced-6266-4a3b-a486-6d872e930fc7","ios":"levelo://app?vid=a4addced-6266-4a3b-a486-6d872e930fc7"},"vehicle_type_id":"4","last_reported":1759133760,"current_range_meters":2800,"station_id":"ce4bhmp2rcd13ifvqgog","pricing_plan_id":"cebpf4jnsgd1na2vs0mg"},{"bike_id":"d81ded3a-66df-4bd6-834a-c7578078c8c1","system_id":"levelo_inurba_marseille","lat":43.32475,"lon":5.36565,"is_reserved":false,"is_disabled":false,"rental_uris":{"android":"levelo://app?vid=d81ded3a-66df-4bd6-834a-c7578078c8c1","ios":"levelo://app?vid=d81ded3a-66df-4bd6-834a-c7578078c8c1"},"vehicle_type_id":"4","last_reported":1759133760,"current_range_meters":2800,"station_id":"ce4bhs12rcd13ifvqhvg","pricing_plan_id":"cebpf4jnsgd1na2vs0mg"},{"bike_id":"28072a77-eefd-4cfa-bd68-7696e02f507d","system_id":"levelo_inurba_marseille","lat":43.32437,"lon":5.36871,"is_reserved":false,"is_disabled":false,"rental_uris":{"android":"levelo://app?vid=28072a77-eefd-4cfa-bd68-7696e02f507d","ios":"levelo://app?vid=28072a77-eefd-4cfa-bd68-7696e02f507d"},"vehicle_type_id":"4","last_reported":1759133760,"current_range_meters":3200,"station_id":"","pricing_plan_id":"cebpf4jnsgd1na2vs0mg"},{"bike_id":"eeb6eb61-1797-45f5-8070-822c4c416097","system_id":"levelo_inurba_marseille","lat":43.33023,"lon":5.39027,"is_reserved":false,"is_disabled":false,"rental_uris":{"android":"levelo://app?vid=eeb6eb61-1797-45f5-8070-822c4c416097","ios":"levelo://app?vid=eeb6eb61-1797-45f5-8070-822c4c416097"},"vehicle_type_id":"4","last_reported":1759133760,"current_range_meters":3200,"station_id":"ce4bhr92rcd13ifvqhrg","pricing_plan_id":"cebpf4jnsgd1na2vs0mg"},{"bike_id":"282d933b-36a9-440f-9bd8-58d90b63777c","system_id":"levelo_inurba_marseille","lat":43.27218,"lon":5.39173,"is_reserved":false,"is_disabled":false,"rental_uris":{"android":"levelo://app?vid=282d933b-36a9-440f-9bd8-58d90b63777c","ios":"levelo://app?vid=282d933b-36a9-440f-9bd8-58d90b63777c"},"vehicle_type_id":"4","last_reported":1759133760,"current_range_meters":3200,"station_id":"ce4bhhp2rcd13ifvqfm0","pricing_plan_id":"cebpf4jnsgd1na2vs0mg"},{"bike_id":"01bf55f2-4ac6-46f6-8504-3267bf31e1a6","system_id":"levelo_inurba_marseille","lat":43.2973,"lon":5.381787,"is_reserved":false,"is_disabled":false,"rental_uris":{"android":"levelo://app?vid=01bf55f2-4ac6-46f6-8504-3267bf31e1a6","ios":"levelo://app?vid=01bf55f2-4ac6-46f6-8504-3267bf31e1a6"},"vehicle_type_id":"4","last_reported":1759133760,"current_range_meters":3600,"station_id":"","pricing_plan_id":"cebpf4jnsgd1na2vs0mg"},{"bike_id":"2314db7f-7d5f-40dc-88c0-74ad6ec0dbdf","system_id":"levelo_inurba_marseille","lat":43.23154,"lon":5.43701,"is_reserved":false,"is_disabled":false,"rental_uris":{"android":"levelo://app?vid=2314db7f-7d5f-40dc-88c0-74ad6ec0dbdf","ios":"levelo://app?vid=2314db7f-7d5f-40dc-88c0-74ad6ec0dbdf"},"vehicle_type_id":"4","last_reported":1759133760,"current_range_meters":3600,"station_id":"ce4bhmp2rcd13ifvqgog","pricing_plan_id":"cebpf4jnsgd1na2vs0mg"},{"bike_id":"826aa570-ad64-48c7-a02b-4520700056d4","system_id":"levelo_inurba_marseille","lat":43.33722,"lon":5.39195,"is_reserved":false,"is_disabled":false,"rental_uris":{"android":"levelo://app?vid=826aa570-ad64-48c7-a02b-4520700056d4","ios":"levelo://app?vid=826aa570-ad64-48c7-a02b-4520700056d4"},"vehicle_type_id":"4","last_reported":1759133760,"current_range_meters":4000,"station_id":"ce4bhr92rcd13ifvqhsg","pricing_plan_id":"cebpf4jnsgd1na2vs0mg"},{"bike_id":"c63680bb-3f8d-4cf7-b7b9-10a98eb19ff1","system_id":"levelo_inurba_marseille","lat":43.2792,"lon":5.39578,"is_reserved":false,"is_disabled":false,"rental_uris":{"android":"levelo://app?vid=c63680bb-3f8d-4cf7-b7b9-10a98eb19ff1","ios":"levelo://app?vid=c63680bb-3f8d-4cf7-b7b9-10a98eb19ff1"},"vehicle_type_id":"4","last_reported":1759133760,"current_range_meters":4000,"station_id":"ce4bhf92rcd13ifvqf40","pricing_plan_id":"cebpf4jnsgd1na2vs0mg"},{"bike_id":"588bb5c6-d90f-4edd-b1de-2d2164a39c00","system_id":"levelo_inurba_marseille","lat":43.32913,"lon":5.39078,"is_reserved":false,"is_disabled":true,"rental_uris":{"android":"levelo://app?vid=588bb5c6-d90f-4edd-b1de-2d2164a39c00","ios":"levelo://app?vid=588bb5c6-d90f-4edd-b1de-2d2164a39c00"},"vehicle_type_id":"4","last_reported":1759133760,"current_range_meters":4000,"station_id":"","pricing_plan_id":"cebpf4jnsgd1na2vs0mg"},{"bike_id":"b42f9fb5-6b2f-4229-8246-9cbc5a8b1897","system_id":"levelo_inurba_marseille","lat":43.24994,"lon":5.38932,"is_reserved":false,"is_disabled":false,"rental_uris":{"android":"levelo://app?vid=b42f9fb5-6b2f-4229-8246-9cbc5a8b1897","ios":"levelo://app?vid=b42f9fb5-6b2f-4229-8246-9cbc5a8b1897"},"vehicle_type_id":"4","last_reported":1759133760,"current_range_meters":4000,"station_id":"ce4bhgp2rcd13ifvqfd0","pricing_plan_id":"cebpf4jnsgd1na2vs0mg"},{"bike_id":"af6699f3-bd42-4899-a0fb-5d3594fe7d97","system_id":"levelo_inurba_marseille","lat":43.264969,"lon":5.395376,"is_reserved":false,"is_disabled":false,"rental_uris":{"android":"levelo://app?vid=af6699f3-bd42-4899-a0fb-5d3594fe7d97","ios":"levelo://app?vid=af6699f3-bd42-4899-a0fb-5d3594fe7d97"},"vehicle_type_id":"4","last_reported":1759133760,"current_range_meters":4400,"station_id":"ce4bhi12rcd13ifvqfq0","pricing_plan_id":"cebpf4jnsgd1na2vs0mg"},{"bike_id":"934ea1ec-b7f6-49a1-9efa-287317d4eb22","system_id":"levelo_inurba_marseille","lat":43.29048,"lon":5.35914,"is_reserved":false,"is_disabled":false,"rental_uris":{"android":"levelo://app?vid=934ea1ec-b7f6-49a1-9efa-287317d4eb22","ios":"levelo://app?vid=934ea1ec-b7f6-49a1-9efa-287317d4eb22"},"vehicle_type_id":"4","last_reported":1759133760,"current_range_meters":4400,"station_id":"","pricing_plan_id":"cebpf4jnsgd1na2vs0mg"},{"bike_id":"3de72932-d9ce-4631-94cb-2b72f35bf02c","system_id":"levelo_inurba_marseille","lat":43.24995,"lon":5.38932,"is_reserved":false,"is_disabled":false,"rental_uris":{"android":"levelo://app?vid=3de72932-d9ce-4631-94cb-2b72f35bf02c","ios":"levelo://app?vid=3de72932-d9ce-4631-94cb-2b72f35bf02c"},"vehicle_type_id":"4","last_reported":1759133760,"current_range_meters":4400,"station_id":"ce4bhgp2rcd13ifvqfd0","pricing_plan_id":"cebpf4jnsgd1na2vs0mg"},{"bike_id":"3a7e0236-40c7-4972-a39f-6a56736eae16","system_id":"levelo_inurba_marseille","lat":43.29033,"lon":5.39995,"is_reserved":false,"is_disabled":false,"rental_uris":{"android":"levelo://app?vid=3a7e0236-40c7-4972-a39f-6a56736eae16","ios":"levelo://app?vid=3a7e0236-40c7-4972-a39f-6a56736eae16"},"vehicle_type_id":"4","last_reported":1759133760,"current_range_meters":4800,"station_id":"ce4bh392rcd13ifvqdm0","pricing_plan_id":"cebpf4jnsgd1na2vs0mg"},{"bike_id":"813fb7db-d6de-4f04-a428-243d67159294","system_id":"levelo_inurba_marseille","lat":43.29227,"lon":5.36056,"is_reserved":false,"is_disabled":false,"rental_uris":{"android":"levelo://app?vid=813fb7db-d6de-4f04-a428-243d67159294","ios":"levelo://app?vid=813fb7db-d6de-4f04-a428-243d67159294"},"vehicle_type_id":"4","last_reported":1759133760,"current_range_meters":5600,"station_id":"ce4bhbh2rcd13ifvqeqg","pricing_plan_id":"cebpf4jnsgd1na2vs0mg"},{"bike_id":"720623f7-9148-4a0e-ade4-a205c6fa44f0","system_id":"levelo_inurba_marseille","lat":43.289852,"lon":5.429034,"is_reserved":false,"is_disabled":false,"rental_uris":{"android":"levelo://app?vid=720623f7-9148-4a0e-ade4-a205c6fa44f0","ios":"levelo://app?vid=720623f7-9148-4a0e-ade4-a205c6fa44f0"},"vehicle_type_id":"4","last_reported":1759133760,"current_range_meters":5600,"station_id":"","pricing_plan_id":"cebpf4jnsgd1na2vs0mg"},{"bike_id":"052c06a8-072c-4fdf-910d-86607040530c","system_id":"levelo_inurba_marseille","lat":43.305412,"lon":5.366988,"is_reserved":false,"is_disabled":false,"rental_uris":{"android":"levelo://app?vid=052c06a8-072c-4fdf-910d-86607040530c","ios":"levelo://app?vid=052c06a8-072c-4fdf-910d-86607040530c"},"vehicle_type_id":"4","last_reported":1759133760,"current_range_meters":6400,"station_id":"ce4bgrp2rcd13ifvqc9g","pricing_plan_id":"cebpf4jnsgd1na2vs0mg"},{"bike_id":"58520c78-57a6-4deb-b831-69142a28d88e","system_id":"levelo_inurba_marseille","lat":43.23144,"lon":5.43709,"is_reserved":false,"is_disabled":false,"rental_uris":{"android":"levelo://app?vid=58520c78-57a6-4deb-b831-69142a28d88e","ios":"levelo://app?vid=58520c78-57a6-4deb-b831-69142a28d88e"},"vehicle_type_id":"4","last_reported":1759133760,"current_range_meters":6400,"station_id":"ce4bhmp2rcd13ifvqgog","pricing_plan_id":"cebpf4jnsgd1na2vs0mg"},{"bike_id":"77b61108-c487-457d-b03d-d884a2993f6a","system_id":"levelo_inurba_marseille","lat":43.24943,"lon":5.40481,"is_reserved":false,"is_disabled":false,"rental_uris":{"android":"levelo://app?vid=77b61108-c487-457d-b03d-d884a2993f6a","ios":"levelo://app?vid=77b61108-c487-457d-b03d-d884a2993f6a"},"vehicle_type_id":"4","last_reported":1759133760,"current_range_meters":6400,"station_id":"st_d2ngiaodas8pm72gd1h0","pricing_plan_id":"cebpf4jnsgd1na2vs0mg"},{"bike_id":"695662ab-65fe-4c59-81b6-3dceb9f5066d","system_id":"levelo_inurba_marseille","lat":43.2558,"lon":5.38245,"is_reserved":false,"is_disabled":false,"rental_uris":{"android":"levelo://app?vid=695662ab-65fe-4c59-81b6-3dceb9f5066d","ios":"levelo://app?vid=695662ab-65fe-4c59-81b6-3dceb9f5066d"},"vehicle_type_id":"4","last_reported":1759133760,"current_range_meters":6400,"station_id":"ce4bhih2rcd13ifvqfs0","pricing_plan_id":"cebpf4jnsgd1na2vs0mg"},{"bike_id":"40eea3ca-68c4-4126-a639-f69049241bad","system_id":"levelo_inurba_marseille","lat":43.26717,"lon":5.40172,"is_reserved":false,"is_disabled":true,"rental_uris":{"android":"levelo://app?vid=40eea3ca-68c4-4126-a639-f69049241bad","ios":"levelo://app?vid=40eea3ca-68c4-4126-a639-f69049241bad"},"vehicle_type_id":"4","last_reported":1759133760,"current_range_meters":6800,"station_id":"","pricing_plan_id":"cebpf4jnsgd1na2vs0mg"},{"bike_id":"079b9803-05df-4785-ad52-7e5160aaa81b","system_id":"levelo_inurba_marseille","lat":43.32482,"lon":5.36555,"is_reserved":false,"is_disabled":false,"rental_uris":{"android":"levelo://app?vid=079b9803-05df-4785-ad52-7e5160aaa81b","ios":"levelo://app?vid=079b9803-05df-4785-ad52-7e5160aaa81b"},"vehicle_type_id":"4","last_reported":1759133760,"current_range_meters":6800,"station_id":"ce4bhs12rcd13ifvqhvg","pricing_plan_id":"cebpf4jnsgd1na2vs0mg"},{"bike_id":"ce1ed0e0-64d5-4613-a22c-9fc89766f6a4","system_id":"levelo_inurba_marseille","lat":43.29603,"lon":5.37718,"is_reserved":false,"is_disabled":false,"rental_uris":{"android":"levelo://app?vid=ce1ed0e0-64d5-4613-a22c-9fc89766f6a4","ios":"levelo://app?vid=ce1ed0e0-64d5-4613-a22c-9fc89766f6a4"},"vehicle_type_id":"4","last_reported":1759133760,"current_range_meters":6800,"station_id":"ce4bgi92rcd13ifvqb90","pricing_plan_id":"cebpf4jnsgd1na2vs0mg"},{"bike_id":"537b1cf7-d2a9-4237-a785-85994c79c9d1","system_id":"levelo_inurba_marseille","lat":43.29572,"lon":5.39962,"is_reserved":false,"is_disabled":false,"rental_uris":{"android":"levelo://app?vid=537b1cf7-d2a9-4237-a785-85994c79c9d1","ios":"levelo://app?vid=537b1cf7-d2a9-4237-a785-85994c79c9d1"},"vehicle_type_id":"4","last_reported":1759133760,"current_range_meters":6800,"station_id":"ce4bh312rcd13ifvqdj0","pricing_plan_id":"cebpf4jnsgd1na2vs0mg"},{"bike_id":"b57ae7e2-7764-477a-ab19-0ca69410ede9","system_id":"levelo_inurba_marseille","lat":43.2315,"lon":5.43723,"is_reserved":false,"is_disabled":false,"rental_uris":{"android":"levelo://app?vid=b57ae7e2-7764-477a-ab19-0ca69410ede9","ios":"levelo://app?vid=b57ae7e2-7764-477a-ab19-0ca69410ede9"},"vehicle_type_id":"4","last_reported":1759133760,"current_range_meters":6800,"station_id":"ce4bhmp2rcd13ifvqgog","pricing_plan_id":"cebpf4jnsgd1na2vs0mg"},{"bike_id":"32e0e07e-f353-4330-9611-2fe531fce5df","system_id":"levelo_inurba_marseille","lat":43.27495,"lon":5.42446,"is_reserved":false,"is_disabled":false,"rental_uris":{"android":"levelo://app?vid=32e0e07e-f353-4330-9611-2fe531fce5df","ios":"levelo://app?vid=32e0e07e-f353-4330-9611-2fe531fce5df"},"vehicle_type_id":"4","last_reported":1759133760,"current_range_meters":6800,"station_id":"ce4bhn92rcd13ifvqgrg","pricing_plan_id":"cebpf4jnsgd1na2vs0mg"},{"bike_id":"4374b62d-f325-4370-9a52-73e508643767","system_id":"levelo_inurba_marseille","lat":43.32107,"lon":5.36765,"is_reserved":false,"is_disabled":false,"rental_uris":{"android":"levelo://app?vid=4374b62d-f325-4370-9a52-73e508643767","ios":"levelo://app?vid=4374b62d-f325-4370-9a52-73e508643767"},"vehicle_type_id":"4","last_reported":1759133760,"current_range_meters":6800,"station_id":"ce4bhrh2rcd13ifvqhug","pricing_plan_id":"cebpf4jnsgd1na2vs0mg"},{"bike_id":"846b9ad1-a37c-4e96-83a1-cfe56d80f0d2","system_id":"levelo_inurba_marseille","lat":43.26269,"lon":5.39844,"is_reserved":false,"is_disabled":false,"rental_uris":{"android":"levelo://app?vid=846b9ad1-a37c-4e96-83a1-cfe56d80f0d2","ios":"levelo://app?vid=846b9ad1-a37c-4e96-83a1-cfe56d80f0d2"},"vehicle_type_id":"4","last_reported":1759133760,"current_range_meters":6800,"station_id":"","pricing_plan_id":"cebpf4jnsgd1na2vs0mg"},{"bike_id":"1d988d48-4abb-4636-977c-34358db2fd33","system_id":"levelo_inurba_marseille","lat":43.30899,"lon":5.3685,"is_reserved":false,"is_disabled":false,"rental_uris":{"android":"levelo://app?vid=1d988d48-4abb-4636-977c-34358db2fd33","ios":"levelo://app?vid=1d988d48-4abb-4636-977c-34358db2fd33"},"vehicle_type_id":"4","last_reported":1759133760,"current_range_meters":7200,"station_id":"ce4bgn92rcd13ifvqbvg","pricing_plan_id":"cebpf4jnsgd1na2vs0mg"},{"bike_id":"7e2add7a-a4fa-4689-be99-1cb5580fe5be","system_id":"levelo_inurba_marseille","lat":43.23149,"lon":5.43721,"is_reserved":false,"is_disabled":false,"rental_uris":{"android":"levelo://app?vid=7e2add7a-a4fa-4689-be99-1cb5580fe5be","ios":"levelo://app?vid=7e2add7a-a4fa-4689-be99-1cb5580fe5be"},"vehicle_type_id":"4","last_reported":1759133760,"current_range_meters":7200,"station_id":"ce4bhmp2rcd13ifvqgog","pricing_plan_id":"cebpf4jnsgd1na2vs0mg"},{"bike_id":"3caa0b5e-993b-49a7-a8d5-103625367070","system_id":"levelo_inurba_marseille","lat":43.231624,"lon":5.437388,"is_reserved":false,"is_disabled":false,"rental_uris":{"android":"levelo://app?vid=3caa0b5e-993b-49a7-a8d5-103625367070","ios":"levelo://app?vid=3caa0b5e-993b-49a7-a8d5-103625367070"},"vehicle_type_id":"4","last_reported":1759133760,"current_range_meters":7200,"station_id":"ce4bhmp2rcd13ifvqgog","pricing_plan_id":"cebpf4jnsgd1na2vs0mg"},{"bike_id":"699c52f8-fda0-473f-a930-c54b05bb27f1","system_id":"levelo_inurba_marseille","lat":43.26589,"lon":5.39043,"is_reserved":false,"is_disabled":false,"rental_uris":{"android":"levelo://app?vid=699c52f8-fda0-473f-a930-c54b05bb27f1","ios":"levelo://app?vid=699c52f8-fda0-473f-a930-c54b05bb27f1"},"vehicle_type_id":"4","last_reported":1759133760,"current_range_meters":7200,"station_id":"ce4bhe12rcd13ifvqf30","pricing_plan_id":"cebpf4jnsgd1na2vs0mg"},{"bike_id":"ec1905ab-9e0d-45d0-ac09-6a27173e211e","system_id":"levelo_inurba_marseille","lat":43.25109,"lon":5.40319,"is_reserved":false,"is_disabled":false,"rental_uris":{"android":"levelo://app?vid=ec1905ab-9e0d-45d0-ac09-6a27173e211e","ios":"levelo://app?vid=ec1905ab-9e0d-45d0-ac09-6a27173e211e"},"vehicle_type_id":"4","last_reported":1759133760,"current_range_meters":6400,"station_id":"ce4bhlh2rcd13ifvqgig","pricing_plan_id":"cebpf4jnsgd1na2vs0mg"},{"bike_id":"8ce72daa-da19-4468-b750-5258ca6351c8","system_id":"levelo_inurba_marseille","lat":43.31339,"lon":5.36721,"is_reserved":false,"is_disabled":false,"rental_uris":{"android":"levelo://app?vid=8ce72daa-da19-4468-b750-5258ca6351c8","ios":"levelo://app?vid=8ce72daa-da19-4468-b750-5258ca6351c8"},"vehicle_type_id":"4","last_reported":1759133760,"current_range_meters":8000,"station_id":"ce4bgr92rcd13ifvqc6g","pricing_plan_id":"cebpf4jnsgd1na2vs0mg"},{"bike_id":"bace4886-a317-4722-82a0-089598a10f3f","system_id":"levelo_inurba_marseille","lat":43.2409,"lon":5.37725,"is_reserved":false,"is_disabled":false,"rental_uris":{"android":"levelo://app?vid=bace4886-a317-4722-82a0-089598a10f3f","ios":"levelo://app?vid=bace4886-a317-4722-82a0-089598a10f3f"},"vehicle_type_id":"4","last_reported":1759133760,"current_range_meters":8000,"station_id":"ce4bhnp2rcd13ifvqgvg","pricing_plan_id":"cebpf4jnsgd1na2vs0mg"},{"bike_id":"4c02c545-ad59-45b1-9b9c-d3678a5922c7","system_id":"levelo_inurba_marseille","lat":43.337444,"lon":5.374475,"is_reserved":false,"is_disabled":false,"rental_uris":{"android":"levelo://app?vid=4c02c545-ad59-45b1-9b9c-d3678a5922c7","ios":"levelo://app?vid=4c02c545-ad59-45b1-9b9c-d3678a5922c7"},"vehicle_type_id":"4","last_reported":1759133760,"current_range_meters":8000,"station_id":"","pricing_plan_id":"cebpf4jnsgd1na2vs0mg"},{"bike_id":"c097f066-7651-435e-913f-a8a7838aba88","system_id":"levelo_inurba_marseille","lat":43.33722,"lon":5.37459,"is_reserved":false,"is_disabled":false,"rental_uris":{"android":"levelo://app?vid=c097f066-7651-435e-913f-a8a7838aba88","ios":"levelo://app?vid=c097f066-7651-435e-913f-a8a7838aba88"},"vehicle_type_id":"4","last_reported":1759133760,"current_range_meters":8000,"station_id":"","pricing_plan_id":"cebpf4jnsgd1na2vs0mg"},{"bike_id":"b62b219e-732d-4120-ad2f-e7d3f511b3bd","system_id":"levelo_inurba_marseille","lat":43.31339,"lon":5.36735,"is_reserved":false,"is_disabled":false,"rental_uris":{"android":"levelo://app?vid=b62b219e-732d-4120-ad2f-e7d3f511b3bd","ios":"levelo://app?vid=b62b219e-732d-4120-ad2f-e7d3f511b3bd"},"vehicle_type_id":"4","last_reported":1759133760,"current_range_meters":8000,"station_id":"ce4bgr92rcd13ifvqc6g","pricing_plan_id":"cebpf4jnsgd1na2vs0mg"},{"bike_id":"c16dc229-4229-4dbb-a3e5-0f60b32fb440","system_id":"levelo_inurba_marseille","lat":43.24064,"lon":5.37719,"is_reserved":false,"is_disabled":false,"rental_uris":{"android":"levelo://app?vid=c16dc229-4229-4dbb-a3e5-0f60b32fb440","ios":"levelo://app?vid=c16dc229-4229-4dbb-a3e5-0f60b32fb440"},"vehicle_type_id":"4","last_reported":1759133760,"current_range_meters":8000,"station_id":"ce4bhnp2rcd13ifvqgvg","pricing_plan_id":"cebpf4jnsgd1na2vs0mg"},{"bike_id":"03350417-1098-4d6c-b8fe-9e64358744bf","system_id":"levelo_inurba_marseille","lat":43.332,"lon":5.41321,"is_reserved":false,"is_disabled":false,"rental_uris":{"android":"levelo://app?vid=03350417-1098-4d6c-b8fe-9e64358744bf","ios":"levelo://app?vid=03350417-1098-4d6c-b8fe-9e64358744bf"},"vehicle_type_id":"4","last_reported":1759133760,"current_range_meters":8000,"station_id":"","pricing_plan_id":"cebpf4jnsgd1na2vs0mg"},{"bike_id":"5f7ca2cd-1bbf-4bcf-aa46-5dac96fb545d","system_id":"levelo_inurba_marseille","lat":43.32479,"lon":5.36561,"is_reserved":false,"is_disabled":false,"rental_uris":{"android":"levelo://app?vid=5f7ca2cd-1bbf-4bcf-aa46-5dac96fb545d","ios":"levelo://app?vid=5f7ca2cd-1bbf-4bcf-aa46-5dac96fb545d"},"vehicle_type_id":"4","last_reported":1759133760,"current_range_meters":7200,"station_id":"ce4bhs12rcd13ifvqhvg","pricing_plan_id":"cebpf4jnsgd1na2vs0mg"},{"bike_id":"92f32335-9bc9-42db-b48b-10c77ea9b2d7","system_id":"levelo_inurba_marseille","lat":43.24077,"lon":5.37722,"is_reserved":false,"is_disabled":false,"rental_uris":{"android":"levelo://app?vid=92f32335-9bc9-42db-b48b-10c77ea9b2d7","ios":"levelo://app?vid=92f32335-9bc9-42db-b48b-10c77ea9b2d7"},"vehicle_type_id":"4","last_reported":1759133760,"current_range_meters":8400,"station_id":"ce4bhnp2rcd13ifvqgvg","pricing_plan_id":"cebpf4jnsgd1na2vs0mg"},{"bike_id":"99f8e706-cfb0-4eb6-929e-527298f2a0db","system_id":"levelo_inurba_marseille","lat":43.2835,"lon":5.376504,"is_reserved":false,"is_disabled":false,"rental_uris":{"android":"levelo://app?vid=99f8e706-cfb0-4eb6-929e-527298f2a0db","ios":"levelo://app?vid=99f8e706-cfb0-4eb6-929e-527298f2a0db"},"vehicle_type_id":"4","last_reported":1759133760,"current_range_meters":8400,"station_id":"","pricing_plan_id":"cebpf4jnsgd1na2vs0mg"},{"bike_id":"6d98ab21-1faa-4b15-97b2-a1dd6f53a5a7","system_id":"levelo_inurba_marseille","lat":43.274072,"lon":5.393633,"is_reserved":false,"is_disabled":false,"rental_uris":{"android":"levelo://app?vid=6d98ab21-1faa-4b15-97b2-a1dd6f53a5a7","ios":"levelo://app?vid=6d98ab21-1faa-4b15-97b2-a1dd6f53a5a7"},"vehicle_type_id":"4","last_reported":1759133760,"current_range_meters":8400,"station_id":"ce4bhdp2rcd13ifvqf20","pricing_plan_id":"cebpf4jnsgd1na2vs0mg"},{"bike_id":"d16f46f5-3d43-4933-b088-bc397093924a","system_id":"levelo_inurba_marseille","lat":43.29843,"lon":5.36287,"is_reserved":false,"is_disabled":false,"rental_uris":{"android":"levelo://app?vid=d16f46f5-3d43-4933-b088-bc397093924a","ios":"levelo://app?vid=d16f46f5-3d43-4933-b088-bc397093924a"},"vehicle_type_id":"4","last_reported":1759133760,"current_range_meters":8400,"station_id":"ce4bgpp2rcd13ifvqc3g","pricing_plan_id":"cebpf4jnsgd1na2vs0mg"},{"bike_id":"0b71318d-3a4b-43c5-8455-705c6297a1d6","system_id":"levelo_inurba_marseille","lat":43.2927,"lon":5.36842,"is_reserved":false,"is_disabled":false,"rental_uris":{"android":"levelo://app?vid=0b71318d-3a4b-43c5-8455-705c6297a1d6","ios":"levelo://app?vid=0b71318d-3a4b-43c5-8455-705c6297a1d6"},"vehicle_type_id":"4","last_reported":1759133760,"current_range_meters":8400,"station_id":"ce4bhbp2rcd13ifvqesg","pricing_plan_id":"cebpf4jnsgd1na2vs0mg"},{"bike_id":"e254d7bf-19d8-4099-8210-8c0dd3fc6ec2","system_id":"levelo_inurba_marseille","lat":43.26681,"lon":5.38268,"is_reserved":false,"is_disabled":false,"rental_uris":{"android":"levelo://app?vid=e254d7bf-19d8-4099-8210-8c0dd3fc6ec2","ios":"levelo://app?vid=e254d7bf-19d8-4099-8210-8c0dd3fc6ec2"},"vehicle_type_id":"4","last_reported":1759133760,"current_range_meters":8400,"station_id":"ce4bhg92rcd13ifvqf90","pricing_plan_id":"cebpf4jnsgd1na2vs0mg"},{"bike_id":"9eb63064-8c09-4277-8e6f-a642efdef232","system_id":"levelo_inurba_marseille","lat":43.29042,"lon":5.39961,"is_reserved":false,"is_disabled":false,"rental_uris":{"android":"levelo://app?vid=9eb63064-8c09-4277-8e6f-a642efdef232","ios":"levelo://app?vid=9eb63064-8c09-4277-8e6f-a642efdef232"},"vehicle_type_id":"4","last_reported":1759133760,"current_range_meters":8800,"station_id":"ce4bh392rcd13ifvqdm0","pricing_plan_id":"cebpf4jnsgd1na2vs0mg"},{"bike_id":"c9916796-5f07-4d22-aceb-87882fb08ac5","system_id":"levelo_inurba_marseille","lat":43.305953,"lon":5.365505,"is_reserved":false,"is_disabled":false,"rental_uris":{"android":"levelo://app?vid=c9916796-5f07-4d22-aceb-87882fb08ac5","ios":"levelo://app?vid=c9916796-5f07-4d22-aceb-87882fb08ac5"},"vehicle_type_id":"4","last_reported":1759133760,"current_range_meters":8800,"station_id":"ce4bgs12rcd13ifvqcag","pricing_plan_id":"cebpf4jnsgd1na2vs0mg"},{"bike_id":"ade00133-316a-486b-ad8e-40009b44a891","system_id":"levelo_inurba_marseille","lat":43.26699,"lon":5.38224,"is_reserved":false,"is_disabled":false,"rental_uris":{"android":"levelo://app?vid=ade00133-316a-486b-ad8e-40009b44a891","ios":"levelo://app?vid=ade00133-316a-486b-ad8e-40009b44a891"},"vehicle_type_id":"4","last_reported":1759133760,"current_range_meters":8800,"station_id":"ce4bhg92rcd13ifvqf90","pricing_plan_id":"cebpf4jnsgd1na2vs0mg"},{"bike_id":"c8e478da-50f8-4f1b-b799-afac140d9065","system_id":"levelo_inurba_marseille","lat":43.305504,"lon":5.36565,"is_reserved":false,"is_disabled":false,"rental_uris":{"android":"levelo://app?vid=c8e478da-50f8-4f1b-b799-afac140d9065","ios":"levelo://app?vid=c8e478da-50f8-4f1b-b799-afac140d9065"},"vehicle_type_id":"4","last_reported":1759133760,"current_range_meters":8800,"station_id":"ce4bgi92rcd13ifvqb90","pricing_plan_id":"cebpf4jnsgd1na2vs0mg"},{"bike_id":"ee96a502-9b76-492e-840a-498b02aefe72","system_id":"levelo_inurba_marseille","lat":43.32357,"lon":5.39211,"is_reserved":false,"is_disabled":false,"rental_uris":{"android":"levelo://app?vid=ee96a502-9b76-492e-840a-498b02aefe72","ios":"levelo://app?vid=ee96a502-9b76-492e-840a-498b02aefe72"},"vehicle_type_id":"4","last_reported":1759133760,"current_range_meters":8800,"station_id":"","pricing_plan_id":"cebpf4jnsgd1na2vs0mg"},{"bike_id":"c39bfd52-1b20-4e4b-9f31-c272b661e0d7","system_id":"levelo_inurba_marseille","lat":43.308006,"lon":5.381561,"is_reserved":false,"is_disabled":false,"rental_uris":{"android":"levelo://app?vid=c39bfd52-1b20-4e4b-9f31-c272b661e0d7","ios":"levelo://app?vid=c39bfd52-1b20-4e4b-9f31-c272b661e0d7"},"vehicle_type_id":"4","last_reported":1759133760,"current_range_meters":8800,"station_id":"ce4bgt12rcd13ifvqce0","pricing_plan_id":"cebpf4jnsgd1na2vs0mg"},{"bike_id":"13fc6e71-747c-4716-ac34-f55fd611ca5a","system_id":"levelo_inurba_marseille","lat":43.29621,"lon":5.37159,"is_reserved":false,"is_disabled":false,"rental_uris":{"android":"levelo://app?vid=13fc6e71-747c-4716-ac34-f55fd611ca5a","ios":"levelo://app?vid=13fc6e71-747c-4716-ac34-f55fd611ca5a"},"vehicle_type_id":"4","last_reported":1759133760,"current_range_meters":8800,"station_id":"ce4bgnh2rcd13ifvqc0g","pricing_plan_id":"cebpf4jnsgd1na2vs0mg"},{"bike_id":"710dfcf0-04c4-4704-89b7-56dbb8103e66","system_id":"levelo_inurba_marseille","lat":43.29063,"lon":5.37142,"is_reserved":false,"is_disabled":true,"rental_uris":{"android":"levelo://app?vid=710dfcf0-04c4-4704-89b7-56dbb8103e66","ios":"levelo://app?vid=710dfcf0-04c4-4704-89b7-56dbb8103e66"},"vehicle_type_id":"4","last_reported":1759133760,"current_range_meters":8800,"station_id":"ce4bh5p2rcd13ifvqe4g","pricing_plan_id":"cebpf4jnsgd1na2vs0mg"},{"bike_id":"258ab053-1083-4ca9-a32a-1e85f085fc22","system_id":"levelo_inurba_marseille","lat":43.337444,"lon":5.374475,"is_reserved":false,"is_disabled":false,"rental_uris":{"android":"levelo://app?vid=258ab053-1083-4ca9-a32a-1e85f085fc22","ios":"levelo://app?vid=258ab053-1083-4ca9-a32a-1e85f085fc22"},"vehicle_type_id":"4","last_reported":1759133760,"current_range_meters":8800,"station_id":"","pricing_plan_id":"cebpf4jnsgd1na2vs0mg"},{"bike_id":"52dd35c8-b4d9-4df7-9721-a8456d5250be","system_id":"levelo_inurba_marseille","lat":43.24086,"lon":5.37751,"is_reserved":false,"is_disabled":false,"rental_uris":{"android":"levelo://app?vid=52dd35c8-b4d9-4df7-9721-a8456d5250be","ios":"levelo://app?vid=52dd35c8-b4d9-4df7-9721-a8456d5250be"},"vehicle_type_id":"4","last_reported":1759133760,"current_range_meters":9200,"station_id":"ce4bhnp2rcd13ifvqgvg","pricing_plan_id":"cebpf4jnsgd1na2vs0mg"},{"bike_id":"8360fe96-8a6b-4a67-9ba4-0ef948b002e1","system_id":"levelo_inurba_marseille","lat":43.250056,"lon":5.389129,"is_reserved":false,"is_disabled":true,"rental_uris":{"android":"levelo://app?vid=8360fe96-8a6b-4a67-9ba4-0ef948b002e1","ios":"levelo://app?vid=8360fe96-8a6b-4a67-9ba4-0ef948b002e1"},"vehicle_type_id":"4","last_reported":1759133760,"current_range_meters":9200,"station_id":"ce4bhgp2rcd13ifvqfd0","pricing_plan_id":"cebpf4jnsgd1na2vs0mg"},{"bike_id":"afb3a0b1-c807-4eff-8fb4-4964910f49c8","system_id":"levelo_inurba_marseille","lat":43.21741,"lon":5.346,"is_reserved":false,"is_disabled":true,"rental_uris":{"android":"levelo://app?vid=afb3a0b1-c807-4eff-8fb4-4964910f49c8","ios":"levelo://app?vid=afb3a0b1-c807-4eff-8fb4-4964910f49c8"},"vehicle_type_id":"4","last_reported":1759133760,"current_range_meters":9200,"station_id":"st_cvj6r9ubvosntc0bgbag","pricing_plan_id":"cebpf4jnsgd1na2vs0mg"},{"bike_id":"484467f1-2aa4-4269-83fe-aca6e922e06e","system_id":"levelo_inurba_marseille","lat":43.24555,"lon":5.423183,"is_reserved":false,"is_disabled":false,"rental_uris":{"android":"levelo://app?vid=484467f1-2aa4-4269-83fe-aca6e922e06e","ios":"levelo://app?vid=484467f1-2aa4-4269-83fe-aca6e922e06e"},"vehicle_type_id":"4","last_reported":1759133760,"current_range_meters":9200,"station_id":"","pricing_plan_id":"cebpf4jnsgd1na2vs0mg"},{"bike_id":"8b353c9e-13c5-42ee-a76f-ccbd6269a3dc","system_id":"levelo_inurba_marseille","lat":43.30424,"lon":5.366666,"is_reserved":false,"is_disabled":false,"rental_uris":{"android":"levelo://app?vid=8b353c9e-13c5-42ee-a76f-ccbd6269a3dc","ios":"levelo://app?vid=8b353c9e-13c5-42ee-a76f-ccbd6269a3dc"},"vehicle_type_id":"4","last_reported":1759133760,"current_range_meters":9600,"station_id":"","pricing_plan_id":"cebpf4jnsgd1na2vs0mg"},{"bike_id":"f4c53ff4-73a4-4134-bb3f-bbf464878afb","system_id":"levelo_inurba_marseille","lat":43.24194,"lon":5.3639,"is_reserved":false,"is_disabled":true,"rental_uris":{"android":"levelo://app?vid=f4c53ff4-73a4-4134-bb3f-bbf464878afb","ios":"levelo://app?vid=f4c53ff4-73a4-4134-bb3f-bbf464878afb"},"vehicle_type_id":"4","last_reported":1759133760,"current_range_meters":9600,"station_id":"cpo36qri1sfpv3e86is0","pricing_plan_id":"cebpf4jnsgd1na2vs0mg"},{"bike_id":"a21dd3ef-7e71-4822-9a53-623946768f95","system_id":"levelo_inurba_marseille","lat":43.260315,"lon":5.375409,"is_reserved":false,"is_disabled":false,"rental_uris":{"android":"levelo://app?vid=a21dd3ef-7e71-4822-9a53-623946768f95","ios":"levelo://app?vid=a21dd3ef-7e71-4822-9a53-623946768f95"},"vehicle_type_id":"4","last_reported":1759133760,"current_range_meters":9600,"station_id":"ce4bhgh2rcd13ifvqfa0","pricing_plan_id":"cebpf4jnsgd1na2vs0mg"},{"bike_id":"e3fe1c25-77d6-4c99-a172-35c670f24da9","system_id":"levelo_inurba_marseille","lat":43.28609,"lon":5.35101,"is_reserved":false,"is_disabled":true,"rental_uris":{"android":"levelo://app?vid=e3fe1c25-77d6-4c99-a172-35c670f24da9","ios":"levelo://app?vid=e3fe1c25-77d6-4c99-a172-35c670f24da9"},"vehicle_type_id":"4","last_reported":1759133760,"current_range_meters":9600,"station_id":"ce4bhch2rcd13ifvqeug","pricing_plan_id":"cebpf4jnsgd1na2vs0mg"},{"bike_id":"1dad2113-89e2-44fc-a0b6-ddd6a09baff1","system_id":"levelo_inurba_marseille","lat":43.337444,"lon":5.374475,"is_reserved":false,"is_disabled":false,"rental_uris":{"android":"levelo://app?vid=1dad2113-89e2-44fc-a0b6-ddd6a09baff1","ios":"levelo://app?vid=1dad2113-89e2-44fc-a0b6-ddd6a09baff1"},"vehicle_type_id":"4","last_reported":1759133760,"current_range_meters":9600,"station_id":"","pricing_plan_id":"cebpf4jnsgd1na2vs0mg"},{"bike_id":"2c6518be-b3f0-42d2-93c9-c1de9e54885f","system_id":"levelo_inurba_marseille","lat":43.29227,"lon":5.38219,"is_reserved":false,"is_disabled":false,"rental_uris":{"android":"levelo://app?vid=2c6518be-b3f0-42d2-93c9-c1de9e54885f","ios":"levelo://app?vid=2c6518be-b3f0-42d2-93c9-c1de9e54885f"},"vehicle_type_id":"4","last_reported":1759133760,"current_range_meters":10000,"station_id":"","pricing_plan_id":"cebpf4jnsgd1na2vs0mg"},{"bike_id":"3cb1dae7-6bcd-41e5-b1b7-c1d25c751a99","system_id":"levelo_inurba_marseille","lat":43.337635,"lon":5.374385,"is_reserved":false,"is_disabled":false,"rental_uris":{"android":"levelo://app?vid=3cb1dae7-6bcd-41e5-b1b7-c1d25c751a99","ios":"levelo://app?vid=3cb1dae7-6bcd-41e5-b1b7-c1d25c751a99"},"vehicle_type_id":"4","last_reported":1759133760,"current_range_meters":10000,"station_id":"","pricing_plan_id":"cebpf4jnsgd1na2vs0mg"},{"bike_id":"d58ddcbe-70d7-4259-abad-73cc43b8b8b9","system_id":"levelo_inurba_marseille","lat":43.230513,"lon":5.354934,"is_reserved":false,"is_disabled":true,"rental_uris":{"android":"levelo://app?vid=d58ddcbe-70d7-4259-abad-73cc43b8b8b9","ios":"levelo://app?vid=d58ddcbe-70d7-4259-abad-73cc43b8b8b9"},"vehicle_type_id":"4","last_reported":1759133760,"current_range_meters":10000,"station_id":"cpo3342slgdg3j2ifvpg","pricing_plan_id":"cebpf4jnsgd1na2vs0mg"},{"bike_id":"5fe7f407-3191-4d84-bcf8-5bce6d58e56d","system_id":"levelo_inurba_marseille","lat":43.229271,"lon":5.35368,"is_reserved":false,"is_disabled":false,"rental_uris":{"android":"levelo://app?vid=5fe7f407-3191-4d84-bcf8-5bce6d58e56d","ios":"levelo://app?vid=5fe7f407-3191-4d84-bcf8-5bce6d58e56d"},"vehicle_type_id":"4","last_reported":1759133760,"current_range_meters":10000,"station_id":"cpo3532slgdg3j2ikp40","pricing_plan_id":"cebpf4jnsgd1na2vs0mg"},{"bike_id":"60ad53a9-07b6-4a56-99b0-02ed35588634","system_id":"levelo_inurba_marseille","lat":43.31349,"lon":5.36844,"is_reserved":false,"is_disabled":false,"rental_uris":{"android":"levelo://app?vid=60ad53a9-07b6-4a56-99b0-02ed35588634","ios":"levelo://app?vid=60ad53a9-07b6-4a56-99b0-02ed35588634"},"vehicle_type_id":"4","last_reported":1759133760,"current_range_meters":10000,"station_id":"","pricing_plan_id":"cebpf4jnsgd1na2vs0mg"},{"bike_id":"a9f7f3ef-0730-4c02-a0ce-cef86cc09ab6","system_id":"levelo_inurba_marseille","lat":43.21747,"lon":5.34606,"is_reserved":false,"is_disabled":false,"rental_uris":{"android":"levelo://app?vid=a9f7f3ef-0730-4c02-a0ce-cef86cc09ab6","ios":"levelo://app?vid=a9f7f3ef-0730-4c02-a0ce-cef86cc09ab6"},"vehicle_type_id":"4","last_reported":1759133760,"current_range_meters":10000,"station_id":"st_cvj6r9ubvosntc0bgbag","pricing_plan_id":"cebpf4jnsgd1na2vs0mg"},{"bike_id":"81259658-6d51-4b3d-be38-018c2d5f28d5","system_id":"levelo_inurba_marseille","lat":43.24068,"lon":5.37738,"is_reserved":false,"is_disabled":false,"rental_uris":{"android":"levelo://app?vid=81259658-6d51-4b3d-be38-018c2d5f28d5","ios":"levelo://app?vid=81259658-6d51-4b3d-be38-018c2d5f28d5"},"vehicle_type_id":"4","last_reported":1759133760,"current_range_meters":10000,"station_id":"ce4bhnp2rcd13ifvqgvg","pricing_plan_id":"cebpf4jnsgd1na2vs0mg"},{"bike_id":"ab9336e9-8f38-4089-b433-ea6bf9417e4f","system_id":"levelo_inurba_marseille","lat":43.30597,"lon":5.37223,"is_reserved":false,"is_disabled":false,"rental_uris":{"android":"levelo://app?vid=ab9336e9-8f38-4089-b433-ea6bf9417e4f","ios":"levelo://app?vid=ab9336e9-8f38-4089-b433-ea6bf9417e4f"},"vehicle_type_id":"4","last_reported":1759133760,"current_range_meters":10000,"station_id":"ce4bgqh2rcd13ifvqc4g","pricing_plan_id":"cebpf4jnsgd1na2vs0mg"},{"bike_id":"20c1c77a-f4d0-45da-bf37-9dfdc8268d18","system_id":"levelo_inurba_marseille","lat":43.319926,"lon":5.381537,"is_reserved":false,"is_disabled":false,"rental_uris":{"android":"levelo://app?vid=20c1c77a-f4d0-45da-bf37-9dfdc8268d18","ios":"levelo://app?vid=20c1c77a-f4d0-45da-bf37-9dfdc8268d18"},"vehicle_type_id":"4","last_reported":1759133760,"current_range_meters":10800,"station_id":"ce4bhr12rcd13ifvqhpg","pricing_plan_id":"cebpf4jnsgd1na2vs0mg"},{"bike_id":"aef170f6-3306-46fe-9dab-25f26114ab13","system_id":"levelo_inurba_marseille","lat":43.323826,"lon":5.367433,"is_reserved":false,"is_disabled":false,"rental_uris":{"android":"levelo://app?vid=aef170f6-3306-46fe-9dab-25f26114ab13","ios":"levelo://app?vid=aef170f6-3306-46fe-9dab-25f26114ab13"},"vehicle_type_id":"4","last_reported":1759133760,"current_range_meters":10800,"station_id":"ce4bhsh2rcd13ifvqi2g","pricing_plan_id":"cebpf4jnsgd1na2vs0mg"},{"bike_id":"e7a07ee7-ff27-4e97-adec-6f7b9b9085bf","system_id":"levelo_inurba_marseille","lat":43.28859,"lon":5.42511,"is_reserved":false,"is_disabled":false,"rental_uris":{"android":"levelo://app?vid=e7a07ee7-ff27-4e97-adec-6f7b9b9085bf","ios":"levelo://app?vid=e7a07ee7-ff27-4e97-adec-6f7b9b9085bf"},"vehicle_type_id":"4","last_reported":1759133760,"current_range_meters":10800,"station_id":"st_d3b462108ojc7389ooeg","pricing_plan_id":"cebpf4jnsgd1na2vs0mg"},{"bike_id":"d7d09523-34bb-44d2-9695-02f0abea9b47","system_id":"levelo_inurba_marseille","lat":43.297401,"lon":5.378932,"is_reserved":false,"is_disabled":false,"rental_uris":{"android":"levelo://app?vid=d7d09523-34bb-44d2-9695-02f0abea9b47","ios":"levelo://app?vid=d7d09523-34bb-44d2-9695-02f0abea9b47"},"vehicle_type_id":"4","last_reported":1759133760,"current_range_meters":10800,"station_id":"","pricing_plan_id":"cebpf4jnsgd1na2vs0mg"},{"bike_id":"e5cca1d3-7b83-4815-adc1-45ead40eb28d","system_id":"levelo_inurba_marseille","lat":43.320951,"lon":5.367735,"is_reserved":false,"is_disabled":false,"rental_uris":{"android":"levelo://app?vid=e5cca1d3-7b83-4815-adc1-45ead40eb28d","ios":"levelo://app?vid=e5cca1d3-7b83-4815-adc1-45ead40eb28d"},"vehicle_type_id":"4","last_reported":1759133760,"current_range_meters":10800,"station_id":"ce4bhrh2rcd13ifvqhug","pricing_plan_id":"cebpf4jnsgd1na2vs0mg"},{"bike_id":"5fb6bf0d-5e73-4899-9dcb-6a9a1fa6134a","system_id":"levelo_inurba_marseille","lat":43.33607,"lon":5.41032,"is_reserved":false,"is_disabled":false,"rental_uris":{"android":"levelo://app?vid=5fb6bf0d-5e73-4899-9dcb-6a9a1fa6134a","ios":"levelo://app?vid=5fb6bf0d-5e73-4899-9dcb-6a9a1fa6134a"},"vehicle_type_id":"4","last_reported":1759133760,"current_range_meters":10800,"station_id":"ce4bhqh2rcd13ifvqhmg","pricing_plan_id":"cebpf4jnsgd1na2vs0mg"},{"bike_id":"1fb98619-8f4d-4574-bac5-fc95c603abea","system_id":"levelo_inurba_marseille","lat":43.34139,"lon":5.40895,"is_reserved":false,"is_disabled":false,"rental_uris":{"android":"levelo://app?vid=1fb98619-8f4d-4574-bac5-fc95c603abea","ios":"levelo://app?vid=1fb98619-8f4d-4574-bac5-fc95c603abea"},"vehicle_type_id":"4","last_reported":1759133760,"current_range_meters":11200,"station_id":"ce4bhqh2rcd13ifvqhlg","pricing_plan_id":"cebpf4jnsgd1na2vs0mg"},{"bike_id":"ee1d9288-526f-4ae6-9e3f-076938e1fc58","system_id":"levelo_inurba_marseille","lat":43.25084,"lon":5.39522,"is_reserved":false,"is_disabled":false,"rental_uris":{"android":"levelo://app?vid=ee1d9288-526f-4ae6-9e3f-076938e1fc58","ios":"levelo://app?vid=ee1d9288-526f-4ae6-9e3f-076938e1fc58"},"vehicle_type_id":"4","last_reported":1759133760,"current_range_meters":10800,"station_id":"ce4bhm12rcd13ifvqgkg","pricing_plan_id":"cebpf4jnsgd1na2vs0mg"},{"bike_id":"bfc5bab3-8a4a-4295-9b61-e3b3c733b634","system_id":"levelo_inurba_marseille","lat":43.24083,"lon":5.377545,"is_reserved":false,"is_disabled":false,"rental_uris":{"android":"levelo://app?vid=bfc5bab3-8a4a-4295-9b61-e3b3c733b634","ios":"levelo://app?vid=bfc5bab3-8a4a-4295-9b61-e3b3c733b634"},"vehicle_type_id":"4","last_reported":1759133760,"current_range_meters":11200,"station_id":"ce4bhnp2rcd13ifvqgvg","pricing_plan_id":"cebpf4jnsgd1na2vs0mg"},{"bike_id":"618551a8-756f-4dc8-ac2c-35a55ebf5057","system_id":"levelo_inurba_marseille","lat":43.284895,"lon":5.385717,"is_reserved":false,"is_disabled":false,"rental_uris":{"android":"levelo://app?vid=618551a8-756f-4dc8-ac2c-35a55ebf5057","ios":"levelo://app?vid=618551a8-756f-4dc8-ac2c-35a55ebf5057"},"vehicle_type_id":"4","last_reported":1759133760,"current_range_meters":10800,"station_id":"ce4bh8p2rcd13ifvqeb0","pricing_plan_id":"cebpf4jnsgd1na2vs0mg"},{"bike_id":"eaccc7e1-4cde-49c3-a901-4d03b0835636","system_id":"levelo_inurba_marseille","lat":43.24072,"lon":5.37757,"is_reserved":false,"is_disabled":false,"rental_uris":{"android":"levelo://app?vid=eaccc7e1-4cde-49c3-a901-4d03b0835636","ios":"levelo://app?vid=eaccc7e1-4cde-49c3-a901-4d03b0835636"},"vehicle_type_id":"4","last_reported":1759133760,"current_range_meters":11200,"station_id":"ce4bhnp2rcd13ifvqgvg","pricing_plan_id":"cebpf4jnsgd1na2vs0mg"},{"bike_id":"35e8f722-b82a-4247-beb8-7e2827829ce6","system_id":"levelo_inurba_marseille","lat":43.32405,"lon":5.3911,"is_reserved":false,"is_disabled":false,"rental_uris":{"android":"levelo://app?vid=35e8f722-b82a-4247-beb8-7e2827829ce6","ios":"levelo://app?vid=35e8f722-b82a-4247-beb8-7e2827829ce6"},"vehicle_type_id":"4","last_reported":1759133760,"current_range_meters":11200,"station_id":"","pricing_plan_id":"cebpf4jnsgd1na2vs0mg"},{"bike_id":"c8956137-335c-4ace-8361-651c509e6c8a","system_id":"levelo_inurba_marseille","lat":43.27495,"lon":5.42452,"is_reserved":false,"is_disabled":false,"rental_uris":{"android":"levelo://app?vid=c8956137-335c-4ace-8361-651c509e6c8a","ios":"levelo://app?vid=c8956137-335c-4ace-8361-651c509e6c8a"},"vehicle_type_id":"4","last_reported":1759133760,"current_range_meters":11200,"station_id":"ce4bhn92rcd13ifvqgrg","pricing_plan_id":"cebpf4jnsgd1na2vs0mg"},{"bike_id":"8a0f4c94-43c6-4e93-92b4-86809304b98c","system_id":"levelo_inurba_marseille","lat":43.30142,"lon":5.37409,"is_reserved":false,"is_disabled":false,"rental_uris":{"android":"levelo://app?vid=8a0f4c94-43c6-4e93-92b4-86809304b98c","ios":"levelo://app?vid=8a0f4c94-43c6-4e93-92b4-86809304b98c"},"vehicle_type_id":"4","last_reported":1759133760,"current_range_meters":11200,"station_id":"ce4bgs92rcd13ifvqcc0","pricing_plan_id":"cebpf4jnsgd1na2vs0mg"},{"bike_id":"c2816559-486d-429d-a124-699442bf00af","system_id":"levelo_inurba_marseille","lat":43.32501,"lon":5.3656,"is_reserved":false,"is_disabled":false,"rental_uris":{"android":"levelo://app?vid=c2816559-486d-429d-a124-699442bf00af","ios":"levelo://app?vid=c2816559-486d-429d-a124-699442bf00af"},"vehicle_type_id":"4","last_reported":1759133760,"current_range_meters":11200,"station_id":"ce4bhs12rcd13ifvqhvg","pricing_plan_id":"cebpf4jnsgd1na2vs0mg"},{"bike_id":"e5378695-fba9-432a-9cfb-3b5b05e40fec","system_id":"levelo_inurba_marseille","lat":43.337986,"lon":5.374304,"is_reserved":false,"is_disabled":false,"rental_uris":{"android":"levelo://app?vid=e5378695-fba9-432a-9cfb-3b5b05e40fec","ios":"levelo://app?vid=e5378695-fba9-432a-9cfb-3b5b05e40fec"},"vehicle_type_id":"4","last_reported":1759133760,"current_range_meters":11200,"station_id":"","pricing_plan_id":"cebpf4jnsgd1na2vs0mg"},{"bike_id":"32be1559-2215-427f-bee5-7a0451a5266a","system_id":"levelo_inurba_marseille","lat":43.24054,"lon":5.37769,"is_reserved":false,"is_disabled":false,"rental_uris":{"android":"levelo://app?vid=32be1559-2215-427f-bee5-7a0451a5266a","ios":"levelo://app?vid=32be1559-2215-427f-bee5-7a0451a5266a"},"vehicle_type_id":"4","last_reported":1759133760,"current_range_meters":11600,"station_id":"ce4bhnp2rcd13ifvqgvg","pricing_plan_id":"cebpf4jnsgd1na2vs0mg"},{"bike_id":"bcd11a31-1d3d-4960-95fe-9154926751b4","system_id":"levelo_inurba_marseille","lat":43.24072,"lon":5.37755,"is_reserved":false,"is_disabled":false,"rental_uris":{"android":"levelo://app?vid=bcd11a31-1d3d-4960-95fe-9154926751b4","ios":"levelo://app?vid=bcd11a31-1d3d-4960-95fe-9154926751b4"},"vehicle_type_id":"4","last_reported":1759133760,"current_range_meters":11600,"station_id":"ce4bhnp2rcd13ifvqgvg","pricing_plan_id":"cebpf4jnsgd1na2vs0mg"},{"bike_id":"668a5b19-6455-4810-aedc-eb87dbfdbe3e","system_id":"levelo_inurba_marseille","lat":43.33609,"lon":5.41034,"is_reserved":false,"is_disabled":false,"rental_uris":{"android":"levelo://app?vid=668a5b19-6455-4810-aedc-eb87dbfdbe3e","ios":"levelo://app?vid=668a5b19-6455-4810-aedc-eb87dbfdbe3e"},"vehicle_type_id":"4","last_reported":1759133760,"current_range_meters":11600,"station_id":"ce4bhqh2rcd13ifvqhmg","pricing_plan_id":"cebpf4jnsgd1na2vs0mg"},{"bike_id":"2ce37526-f3cb-41ea-9b47-c9862d982941","system_id":"levelo_inurba_marseille","lat":43.29583,"lon":5.36733,"is_reserved":false,"is_disabled":false,"rental_uris":{"android":"levelo://app?vid=2ce37526-f3cb-41ea-9b47-c9862d982941","ios":"levelo://app?vid=2ce37526-f3cb-41ea-9b47-c9862d982941"},"vehicle_type_id":"4","last_reported":1759133760,"current_range_meters":12000,"station_id":"ce4bgph2rcd13ifvqc2g","pricing_plan_id":"cebpf4jnsgd1na2vs0mg"},{"bike_id":"33f7e39a-63d4-4845-a01d-b658c3e7c2ce","system_id":"levelo_inurba_marseille","lat":43.23183,"lon":5.3999,"is_reserved":false,"is_disabled":false,"rental_uris":{"android":"levelo://app?vid=33f7e39a-63d4-4845-a01d-b658c3e7c2ce","ios":"levelo://app?vid=33f7e39a-63d4-4845-a01d-b658c3e7c2ce"},"vehicle_type_id":"4","last_reported":1759133760,"current_range_meters":12400,"station_id":"ce4bhn12rcd13ifvqgqg","pricing_plan_id":"cebpf4jnsgd1na2vs0mg"},{"bike_id":"320b3e04-41e9-4e33-a652-09aa9b7906cd","system_id":"levelo_inurba_marseille","lat":43.33603,"lon":5.41031,"is_reserved":false,"is_disabled":false,"rental_uris":{"android":"levelo://app?vid=320b3e04-41e9-4e33-a652-09aa9b7906cd","ios":"levelo://app?vid=320b3e04-41e9-4e33-a652-09aa9b7906cd"},"vehicle_type_id":"4","last_reported":1759133760,"current_range_meters":12000,"station_id":"ce4bhqh2rcd13ifvqhmg","pricing_plan_id":"cebpf4jnsgd1na2vs0mg"},{"bike_id":"92da9164-3279-4241-b2e1-cacc10e94bcd","system_id":"levelo_inurba_marseille","lat":43.24944,"lon":5.40488,"is_reserved":false,"is_disabled":false,"rental_uris":{"android":"levelo://app?vid=92da9164-3279-4241-b2e1-cacc10e94bcd","ios":"levelo://app?vid=92da9164-3279-4241-b2e1-cacc10e94bcd"},"vehicle_type_id":"4","last_reported":1759133760,"current_range_meters":12000,"station_id":"st_d2ngiaodas8pm72gd1h0","pricing_plan_id":"cebpf4jnsgd1na2vs0mg"},{"bike_id":"aa06939c-c009-46e5-82d7-4d677c4e33e5","system_id":"levelo_inurba_marseille","lat":43.29969,"lon":5.37182,"is_reserved":false,"is_disabled":false,"rental_uris":{"android":"levelo://app?vid=aa06939c-c009-46e5-82d7-4d677c4e33e5","ios":"levelo://app?vid=aa06939c-c009-46e5-82d7-4d677c4e33e5"},"vehicle_type_id":"4","last_reported":1759133760,"current_range_meters":11600,"station_id":"ce4bgr92rcd13ifvqc7g","pricing_plan_id":"cebpf4jnsgd1na2vs0mg"},{"bike_id":"4822dd99-56ec-44f6-a9b9-ee0ae5dcc1bf","system_id":"levelo_inurba_marseille","lat":43.30009,"lon":5.39994,"is_reserved":false,"is_disabled":false,"rental_uris":{"android":"levelo://app?vid=4822dd99-56ec-44f6-a9b9-ee0ae5dcc1bf","ios":"levelo://app?vid=4822dd99-56ec-44f6-a9b9-ee0ae5dcc1bf"},"vehicle_type_id":"4","last_reported":1759133760,"current_range_meters":12000,"station_id":"ce4bh0h2rcd13ifvqd40","pricing_plan_id":"cebpf4jnsgd1na2vs0mg"},{"bike_id":"9c4235da-d3d0-4056-aa6b-c6aa6e8e7367","system_id":"levelo_inurba_marseille","lat":43.30683,"lon":5.37483,"is_reserved":false,"is_disabled":false,"rental_uris":{"android":"levelo://app?vid=9c4235da-d3d0-4056-aa6b-c6aa6e8e7367","ios":"levelo://app?vid=9c4235da-d3d0-4056-aa6b-c6aa6e8e7367"},"vehicle_type_id":"4","last_reported":1759133760,"current_range_meters":12000,"station_id":"","pricing_plan_id":"cebpf4jnsgd1na2vs0mg"},{"bike_id":"6617a11f-1e07-463f-8239-3ea7de871097","system_id":"levelo_inurba_marseille","lat":43.24071,"lon":5.37746,"is_reserved":false,"is_disabled":false,"rental_uris":{"android":"levelo://app?vid=6617a11f-1e07-463f-8239-3ea7de871097","ios":"levelo://app?vid=6617a11f-1e07-463f-8239-3ea7de871097"},"vehicle_type_id":"4","last_reported":1759133760,"current_range_meters":12000,"station_id":"ce4bhnp2rcd13ifvqgvg","pricing_plan_id":"cebpf4jnsgd1na2vs0mg"},{"bike_id":"f060d515-f268-4371-95a2-f04eea0ad05f","system_id":"levelo_inurba_marseille","lat":43.246295,"lon":5.431485,"is_reserved":false,"is_disabled":false,"rental_uris":{"android":"levelo://app?vid=f060d515-f268-4371-95a2-f04eea0ad05f","ios":"levelo://app?vid=f060d515-f268-4371-95a2-f04eea0ad05f"},"vehicle_type_id":"4","last_reported":1759133760,"current_range_meters":12000,"station_id":"st_d2m6c4gdas8pm72e190g","pricing_plan_id":"cebpf4jnsgd1na2vs0mg"},{"bike_id":"e0e9194b-710d-4981-ad65-ba5929d7512b","system_id":"levelo_inurba_marseille","lat":43.306022,"lon":5.384559,"is_reserved":false,"is_disabled":false,"rental_uris":{"android":"levelo://app?vid=e0e9194b-710d-4981-ad65-ba5929d7512b","ios":"levelo://app?vid=e0e9194b-710d-4981-ad65-ba5929d7512b"},"vehicle_type_id":"4","last_reported":1759133760,"current_range_meters":12400,"station_id":"","pricing_plan_id":"cebpf4jnsgd1na2vs0mg"},{"bike_id":"e082e7fa-26cc-4f5d-8f47-444032b456a5","system_id":"levelo_inurba_marseille","lat":43.23965,"lon":5.36636,"is_reserved":false,"is_disabled":false,"rental_uris":{"android":"levelo://app?vid=e082e7fa-26cc-4f5d-8f47-444032b456a5","ios":"levelo://app?vid=e082e7fa-26cc-4f5d-8f47-444032b456a5"},"vehicle_type_id":"4","last_reported":1759133760,"current_range_meters":12000,"station_id":"ce4bhi12rcd13ifvqfp0","pricing_plan_id":"cebpf4jnsgd1na2vs0mg"},{"bike_id":"94afa5f2-4c77-4f59-a1ca-9456dcc637d4","system_id":"levelo_inurba_marseille","lat":43.26789,"lon":5.39416,"is_reserved":false,"is_disabled":false,"rental_uris":{"android":"levelo://app?vid=94afa5f2-4c77-4f59-a1ca-9456dcc637d4","ios":"levelo://app?vid=94afa5f2-4c77-4f59-a1ca-9456dcc637d4"},"vehicle_type_id":"4","last_reported":1759133760,"current_range_meters":12400,"station_id":"ce4bhh12rcd13ifvqfg0","pricing_plan_id":"cebpf4jnsgd1na2vs0mg"},{"bike_id":"80b98ce0-3233-47ce-84db-722943723d1e","system_id":"levelo_inurba_marseille","lat":43.269329,"lon":5.38928,"is_reserved":false,"is_disabled":false,"rental_uris":{"android":"levelo://app?vid=80b98ce0-3233-47ce-84db-722943723d1e","ios":"levelo://app?vid=80b98ce0-3233-47ce-84db-722943723d1e"},"vehicle_type_id":"4","last_reported":1759133760,"current_range_meters":12400,"station_id":"","pricing_plan_id":"cebpf4jnsgd1na2vs0mg"},{"bike_id":"0c9de558-bd89-4a96-822a-e0d89ff41c26","system_id":"levelo_inurba_marseille","lat":43.29048,"lon":5.39926,"is_reserved":false,"is_disabled":false,"rental_uris":{"android":"levelo://app?vid=0c9de558-bd89-4a96-822a-e0d89ff41c26","ios":"levelo://app?vid=0c9de558-bd89-4a96-822a-e0d89ff41c26"},"vehicle_type_id":"4","last_reported":1759133760,"current_range_meters":12400,"station_id":"ce4bh392rcd13ifvqdm0","pricing_plan_id":"cebpf4jnsgd1na2vs0mg"},{"bike_id":"4c4ffaa1-bc32-4d17-a9af-026784f81e15","system_id":"levelo_inurba_marseille","lat":43.29714,"lon":5.36608,"is_reserved":false,"is_disabled":false,"rental_uris":{"android":"levelo://app?vid=4c4ffaa1-bc32-4d17-a9af-026784f81e15","ios":"levelo://app?vid=4c4ffaa1-bc32-4d17-a9af-026784f81e15"},"vehicle_type_id":"4","last_reported":1759133760,"current_range_meters":12400,"station_id":"ce4bgn12rcd13ifvqbt0","pricing_plan_id":"cebpf4jnsgd1na2vs0mg"},{"bike_id":"f82ae351-2e5f-48d1-bb02-e7435214f363","system_id":"levelo_inurba_marseille","lat":43.26026,"lon":5.37546,"is_reserved":false,"is_disabled":false,"rental_uris":{"android":"levelo://app?vid=f82ae351-2e5f-48d1-bb02-e7435214f363","ios":"levelo://app?vid=f82ae351-2e5f-48d1-bb02-e7435214f363"},"vehicle_type_id":"4","last_reported":1759133760,"current_range_meters":12000,"station_id":"ce4bhgh2rcd13ifvqfa0","pricing_plan_id":"cebpf4jnsgd1na2vs0mg"},{"bike_id":"2dd2ea87-e401-44f9-ac32-a534d3fa425e","system_id":"levelo_inurba_marseille","lat":43.32532,"lon":5.41441,"is_reserved":false,"is_disabled":false,"rental_uris":{"android":"levelo://app?vid=2dd2ea87-e401-44f9-ac32-a534d3fa425e","ios":"levelo://app?vid=2dd2ea87-e401-44f9-ac32-a534d3fa425e"},"vehicle_type_id":"4","last_reported":1759133760,"current_range_meters":12400,"station_id":"ce4bhq12rcd13ifvqhhg","pricing_plan_id":"cebpf4jnsgd1na2vs0mg"},{"bike_id":"ee6406f7-9f33-4935-a835-0f3904e54bc4","system_id":"levelo_inurba_marseille","lat":43.31875,"lon":5.37317,"is_reserved":false,"is_disabled":false,"rental_uris":{"android":"levelo://app?vid=ee6406f7-9f33-4935-a835-0f3904e54bc4","ios":"levelo://app?vid=ee6406f7-9f33-4935-a835-0f3904e54bc4"},"vehicle_type_id":"4","last_reported":1759133760,"current_range_meters":12800,"station_id":"ce4bgt12rcd13ifvqcd0","pricing_plan_id":"cebpf4jnsgd1na2vs0mg"},{"bike_id":"259e45f2-586a-4c54-8656-5a19101242e7","system_id":"levelo_inurba_marseille","lat":43.23133,"lon":5.43698,"is_reserved":false,"is_disabled":false,"rental_uris":{"android":"levelo://app?vid=259e45f2-586a-4c54-8656-5a19101242e7","ios":"levelo://app?vid=259e45f2-586a-4c54-8656-5a19101242e7"},"vehicle_type_id":"4","last_reported":1759133760,"current_range_meters":12800,"station_id":"ce4bhmp2rcd13ifvqgog","pricing_plan_id":"cebpf4jnsgd1na2vs0mg"},{"bike_id":"a21e82aa-f681-443c-990a-6d6f94666e8a","system_id":"levelo_inurba_marseille","lat":43.306089,"lon":5.372402,"is_reserved":false,"is_disabled":false,"rental_uris":{"android":"levelo://app?vid=a21e82aa-f681-443c-990a-6d6f94666e8a","ios":"levelo://app?vid=a21e82aa-f681-443c-990a-6d6f94666e8a"},"vehicle_type_id":"4","last_reported":1759133760,"current_range_meters":12800,"station_id":"ce4bgqh2rcd13ifvqc4g","pricing_plan_id":"cebpf4jnsgd1na2vs0mg"},{"bike_id":"5a608b60-4abc-4d69-b149-2a4a53712f5d","system_id":"levelo_inurba_marseille","lat":43.23151,"lon":5.43723,"is_reserved":false,"is_disabled":false,"rental_uris":{"android":"levelo://app?vid=5a608b60-4abc-4d69-b149-2a4a53712f5d","ios":"levelo://app?vid=5a608b60-4abc-4d69-b149-2a4a53712f5d"},"vehicle_type_id":"4","last_reported":1759133760,"current_range_meters":13600,"station_id":"ce4bhmp2rcd13ifvqgog","pricing_plan_id":"cebpf4jnsgd1na2vs0mg"},{"bike_id":"6598f298-83be-4e81-9bad-8513cc82aaa9","system_id":"levelo_inurba_marseille","lat":43.23148,"lon":5.43712,"is_reserved":false,"is_disabled":false,"rental_uris":{"android":"levelo://app?vid=6598f298-83be-4e81-9bad-8513cc82aaa9","ios":"levelo://app?vid=6598f298-83be-4e81-9bad-8513cc82aaa9"},"vehicle_type_id":"4","last_reported":1759133760,"current_range_meters":13600,"station_id":"ce4bhmp2rcd13ifvqgog","pricing_plan_id":"cebpf4jnsgd1na2vs0mg"},{"bike_id":"ca8b55f6-b10a-4821-a516-d0fff08c8977","system_id":"levelo_inurba_marseille","lat":43.240744,"lon":5.377572,"is_reserved":false,"is_disabled":false,"rental_uris":{"android":"levelo://app?vid=ca8b55f6-b10a-4821-a516-d0fff08c8977","ios":"levelo://app?vid=ca8b55f6-b10a-4821-a516-d0fff08c8977"},"vehicle_type_id":"4","last_reported":1759133760,"current_range_meters":13600,"station_id":"ce4bhnp2rcd13ifvqgvg","pricing_plan_id":"cebpf4jnsgd1na2vs0mg"},{"bike_id":"9b4f4d66-027c-4943-abdc-43736a5de892","system_id":"levelo_inurba_marseille","lat":43.24071,"lon":5.37753,"is_reserved":false,"is_disabled":false,"rental_uris":{"android":"levelo://app?vid=9b4f4d66-027c-4943-abdc-43736a5de892","ios":"levelo://app?vid=9b4f4d66-027c-4943-abdc-43736a5de892"},"vehicle_type_id":"4","last_reported":1759133760,"current_range_meters":13600,"station_id":"ce4bhnp2rcd13ifvqgvg","pricing_plan_id":"cebpf4jnsgd1na2vs0mg"},{"bike_id":"8e22cf14-b2b4-4b09-90a7-6c182d85a696","system_id":"levelo_inurba_marseille","lat":43.3059,"lon":5.36634,"is_reserved":false,"is_disabled":false,"rental_uris":{"android":"levelo://app?vid=8e22cf14-b2b4-4b09-90a7-6c182d85a696","ios":"levelo://app?vid=8e22cf14-b2b4-4b09-90a7-6c182d85a696"},"vehicle_type_id":"4","last_reported":1759133760,"current_range_meters":13600,"station_id":"","pricing_plan_id":"cebpf4jnsgd1na2vs0mg"},{"bike_id":"a02cb57c-79c6-4727-919f-351bec1f6168","system_id":"levelo_inurba_marseille","lat":43.27491,"lon":5.42448,"is_reserved":false,"is_disabled":false,"rental_uris":{"android":"levelo://app?vid=a02cb57c-79c6-4727-919f-351bec1f6168","ios":"levelo://app?vid=a02cb57c-79c6-4727-919f-351bec1f6168"},"vehicle_type_id":"4","last_reported":1759133760,"current_range_meters":13600,"station_id":"ce4bhn92rcd13ifvqgrg","pricing_plan_id":"cebpf4jnsgd1na2vs0mg"},{"bike_id":"563ff7c0-c68d-4432-ae92-a01b12ab44f1","system_id":"levelo_inurba_marseille","lat":43.27839,"lon":5.3921,"is_reserved":false,"is_disabled":false,"rental_uris":{"android":"levelo://app?vid=563ff7c0-c68d-4432-ae92-a01b12ab44f1","ios":"levelo://app?vid=563ff7c0-c68d-4432-ae92-a01b12ab44f1"},"vehicle_type_id":"4","last_reported":1759133760,"current_range_meters":13600,"station_id":"ce4bhjp2rcd13ifvqga0","pricing_plan_id":"cebpf4jnsgd1na2vs0mg"},{"bike_id":"ea59b303-6900-42ad-9e79-5b0f95bedd6c","system_id":"levelo_inurba_marseille","lat":43.30438,"lon":5.36922,"is_reserved":false,"is_disabled":false,"rental_uris":{"android":"levelo://app?vid=ea59b303-6900-42ad-9e79-5b0f95bedd6c","ios":"levelo://app?vid=ea59b303-6900-42ad-9e79-5b0f95bedd6c"},"vehicle_type_id":"4","last_reported":1759133760,"current_range_meters":14000,"station_id":"","pricing_plan_id":"cebpf4jnsgd1na2vs0mg"},{"bike_id":"6b205b81-c3e6-44f0-9d0e-eeb6393ccb11","system_id":"levelo_inurba_marseille","lat":43.30311,"lon":5.36898,"is_reserved":false,"is_disabled":false,"rental_uris":{"android":"levelo://app?vid=6b205b81-c3e6-44f0-9d0e-eeb6393ccb11","ios":"levelo://app?vid=6b205b81-c3e6-44f0-9d0e-eeb6393ccb11"},"vehicle_type_id":"4","last_reported":1759133760,"current_range_meters":14000,"station_id":"ce4bgqh2rcd13ifvqc5g","pricing_plan_id":"cebpf4jnsgd1na2vs0mg"},{"bike_id":"7f46228e-4ed4-4fb2-9b7c-2773cead13c2","system_id":"levelo_inurba_marseille","lat":43.24173,"lon":5.36398,"is_reserved":false,"is_disabled":true,"rental_uris":{"android":"levelo://app?vid=7f46228e-4ed4-4fb2-9b7c-2773cead13c2","ios":"levelo://app?vid=7f46228e-4ed4-4fb2-9b7c-2773cead13c2"},"vehicle_type_id":"4","last_reported":1759133760,"current_range_meters":14000,"station_id":"cpo36qri1sfpv3e86is0","pricing_plan_id":"cebpf4jnsgd1na2vs0mg"},{"bike_id":"1df5d214-d1c3-4d6c-8859-3e373c21604f","system_id":"levelo_inurba_marseille","lat":43.33731,"lon":5.39181,"is_reserved":false,"is_disabled":false,"rental_uris":{"android":"levelo://app?vid=1df5d214-d1c3-4d6c-8859-3e373c21604f","ios":"levelo://app?vid=1df5d214-d1c3-4d6c-8859-3e373c21604f"},"vehicle_type_id":"4","last_reported":1759133760,"current_range_meters":13600,"station_id":"ce4bhr92rcd13ifvqhsg","pricing_plan_id":"cebpf4jnsgd1na2vs0mg"},{"bike_id":"a07a513e-e5a9-4481-8592-d991379bc662","system_id":"levelo_inurba_marseille","lat":43.33735,"lon":5.37481,"is_reserved":false,"is_disabled":false,"rental_uris":{"android":"levelo://app?vid=a07a513e-e5a9-4481-8592-d991379bc662","ios":"levelo://app?vid=a07a513e-e5a9-4481-8592-d991379bc662"},"vehicle_type_id":"4","last_reported":1759133760,"current_range_meters":14000,"station_id":"","pricing_plan_id":"cebpf4jnsgd1na2vs0mg"},{"bike_id":"8c0227e3-55e8-4994-aa0c-9b6ee99b7e26","system_id":"levelo_inurba_marseille","lat":43.23052,"lon":5.35513,"is_reserved":false,"is_disabled":false,"rental_uris":{"android":"levelo://app?vid=8c0227e3-55e8-4994-aa0c-9b6ee99b7e26","ios":"levelo://app?vid=8c0227e3-55e8-4994-aa0c-9b6ee99b7e26"},"vehicle_type_id":"4","last_reported":1759133760,"current_range_meters":14400,"station_id":"cpo3342slgdg3j2ifvpg","pricing_plan_id":"cebpf4jnsgd1na2vs0mg"},{"bike_id":"7c8b5011-31f8-4088-9a42-2d262d396819","system_id":"levelo_inurba_marseille","lat":43.2315,"lon":5.43722,"is_reserved":false,"is_disabled":false,"rental_uris":{"android":"levelo://app?vid=7c8b5011-31f8-4088-9a42-2d262d396819","ios":"levelo://app?vid=7c8b5011-31f8-4088-9a42-2d262d396819"},"vehicle_type_id":"4","last_reported":1759133760,"current_range_meters":14000,"station_id":"ce4bhmp2rcd13ifvqgog","pricing_plan_id":"cebpf4jnsgd1na2vs0mg"},{"bike_id":"9f853afc-898d-4bd7-b188-2517a9b38bf4","system_id":"levelo_inurba_marseille","lat":43.3014,"lon":5.37427,"is_reserved":false,"is_disabled":false,"rental_uris":{"android":"levelo://app?vid=9f853afc-898d-4bd7-b188-2517a9b38bf4","ios":"levelo://app?vid=9f853afc-898d-4bd7-b188-2517a9b38bf4"},"vehicle_type_id":"4","last_reported":1759133760,"current_range_meters":14400,"station_id":"ce4bgs92rcd13ifvqcc0","pricing_plan_id":"cebpf4jnsgd1na2vs0mg"},{"bike_id":"7dc10ae7-7366-4aef-afb3-946c513f88ef","system_id":"levelo_inurba_marseille","lat":43.279973,"lon":5.3641,"is_reserved":false,"is_disabled":false,"rental_uris":{"android":"levelo://app?vid=7dc10ae7-7366-4aef-afb3-946c513f88ef","ios":"levelo://app?vid=7dc10ae7-7366-4aef-afb3-946c513f88ef"},"vehicle_type_id":"4","last_reported":1759133760,"current_range_meters":14400,"station_id":"ce4bha12rcd13ifvqef0","pricing_plan_id":"cebpf4jnsgd1na2vs0mg"},{"bike_id":"f27d0041-78bf-476d-9ca1-6eee9e1a446f","system_id":"levelo_inurba_marseille","lat":43.28697,"lon":5.37397,"is_reserved":false,"is_disabled":false,"rental_uris":{"android":"levelo://app?vid=f27d0041-78bf-476d-9ca1-6eee9e1a446f","ios":"levelo://app?vid=f27d0041-78bf-476d-9ca1-6eee9e1a446f"},"vehicle_type_id":"4","last_reported":1759133760,"current_range_meters":14000,"station_id":"ce4bh3p2rcd13ifvqdq0","pricing_plan_id":"cebpf4jnsgd1na2vs0mg"},{"bike_id":"8c986307-df22-41f8-9c2d-42ccabc665aa","system_id":"levelo_inurba_marseille","lat":43.30213,"lon":5.366337,"is_reserved":false,"is_disabled":false,"rental_uris":{"android":"levelo://app?vid=8c986307-df22-41f8-9c2d-42ccabc665aa","ios":"levelo://app?vid=8c986307-df22-41f8-9c2d-42ccabc665aa"},"vehicle_type_id":"4","last_reported":1759133760,"current_range_meters":14400,"station_id":"ce4bgrh2rcd13ifvqc8g","pricing_plan_id":"cebpf4jnsgd1na2vs0mg"},{"bike_id":"bc5b9e06-5213-45b1-aa18-aa7f6a34a6b7","system_id":"levelo_inurba_marseille","lat":43.334184,"lon":5.410203,"is_reserved":false,"is_disabled":false,"rental_uris":{"android":"levelo://app?vid=bc5b9e06-5213-45b1-aa18-aa7f6a34a6b7","ios":"levelo://app?vid=bc5b9e06-5213-45b1-aa18-aa7f6a34a6b7"},"vehicle_type_id":"4","last_reported":1759133760,"current_range_meters":14400,"station_id":"ce4bhqh2rcd13ifvqhmg","pricing_plan_id":"cebpf4jnsgd1na2vs0mg"},{"bike_id":"a63906d9-70e3-4694-a19f-f783d775e9bb","system_id":"levelo_inurba_marseille","lat":43.312778,"lon":5.373943,"is_reserved":false,"is_disabled":false,"rental_uris":{"android":"levelo://app?vid=a63906d9-70e3-4694-a19f-f783d775e9bb","ios":"levelo://app?vid=a63906d9-70e3-4694-a19f-f783d775e9bb"},"vehicle_type_id":"4","last_reported":1759133760,"current_range_meters":14400,"station_id":"","pricing_plan_id":"cebpf4jnsgd1na2vs0mg"},{"bike_id":"0dc592f1-d9bc-49ef-a88e-1b2533fb2bbc","system_id":"levelo_inurba_marseille","lat":43.2927,"lon":5.36854,"is_reserved":false,"is_disabled":false,"rental_uris":{"android":"levelo://app?vid=0dc592f1-d9bc-49ef-a88e-1b2533fb2bbc","ios":"levelo://app?vid=0dc592f1-d9bc-49ef-a88e-1b2533fb2bbc"},"vehicle_type_id":"4","last_reported":1759133760,"current_range_meters":14800,"station_id":"ce4bhbp2rcd13ifvqesg","pricing_plan_id":"cebpf4jnsgd1na2vs0mg"},{"bike_id":"bd1e0cae-2855-429e-9c08-2261d3e1705d","system_id":"levelo_inurba_marseille","lat":43.27492,"lon":5.42454,"is_reserved":false,"is_disabled":false,"rental_uris":{"android":"levelo://app?vid=bd1e0cae-2855-429e-9c08-2261d3e1705d","ios":"levelo://app?vid=bd1e0cae-2855-429e-9c08-2261d3e1705d"},"vehicle_type_id":"4","last_reported":1759133760,"current_range_meters":14800,"station_id":"ce4bhn92rcd13ifvqgrg","pricing_plan_id":"cebpf4jnsgd1na2vs0mg"},{"bike_id":"9f8016d4-7cfd-4da9-98fe-979484415ac7","system_id":"levelo_inurba_marseille","lat":43.30541,"lon":5.36703,"is_reserved":false,"is_disabled":false,"rental_uris":{"android":"levelo://app?vid=9f8016d4-7cfd-4da9-98fe-979484415ac7","ios":"levelo://app?vid=9f8016d4-7cfd-4da9-98fe-979484415ac7"},"vehicle_type_id":"4","last_reported":1759133760,"current_range_meters":14800,"station_id":"ce4bgrp2rcd13ifvqc9g","pricing_plan_id":"cebpf4jnsgd1na2vs0mg"},{"bike_id":"5a6a6a29-4238-465b-8bc9-56e9149f03e6","system_id":"levelo_inurba_marseille","lat":43.29089,"lon":5.3815,"is_reserved":false,"is_disabled":false,"rental_uris":{"android":"levelo://app?vid=5a6a6a29-4238-465b-8bc9-56e9149f03e6","ios":"levelo://app?vid=5a6a6a29-4238-465b-8bc9-56e9149f03e6"},"vehicle_type_id":"4","last_reported":1759133760,"current_range_meters":14400,"station_id":"ce4bh512rcd13ifvqe2g","pricing_plan_id":"cebpf4jnsgd1na2vs0mg"},{"bike_id":"dfe8803a-8f87-4fe3-8650-8b9acfc09fb2","system_id":"levelo_inurba_marseille","lat":43.26214,"lon":5.37435,"is_reserved":false,"is_disabled":false,"rental_uris":{"android":"levelo://app?vid=dfe8803a-8f87-4fe3-8650-8b9acfc09fb2","ios":"levelo://app?vid=dfe8803a-8f87-4fe3-8650-8b9acfc09fb2"},"vehicle_type_id":"4","last_reported":1759133760,"current_range_meters":14800,"station_id":"ce4bhgp2rcd13ifvqfc0","pricing_plan_id":"cebpf4jnsgd1na2vs0mg"},{"bike_id":"c627b34a-8e81-4438-af3b-4fd0aab1c160","system_id":"levelo_inurba_marseille","lat":43.2966,"lon":5.36001,"is_reserved":false,"is_disabled":false,"rental_uris":{"android":"levelo://app?vid=c627b34a-8e81-4438-af3b-4fd0aab1c160","ios":"levelo://app?vid=c627b34a-8e81-4438-af3b-4fd0aab1c160"},"vehicle_type_id":"4","last_reported":1759133760,"current_range_meters":14800,"station_id":"","pricing_plan_id":"cebpf4jnsgd1na2vs0mg"},{"bike_id":"6208b55e-5829-429c-bbd4-b74a6a76be82","system_id":"levelo_inurba_marseille","lat":43.33604,"lon":5.41015,"is_reserved":false,"is_disabled":false,"rental_uris":{"android":"levelo://app?vid=6208b55e-5829-429c-bbd4-b74a6a76be82","ios":"levelo://app?vid=6208b55e-5829-429c-bbd4-b74a6a76be82"},"vehicle_type_id":"4","last_reported":1759133760,"current_range_meters":15200,"station_id":"ce4bhqh2rcd13ifvqhmg","pricing_plan_id":"cebpf4jnsgd1na2vs0mg"},{"bike_id":"0030cf69-75f8-4719-a372-efc52bdb748a","system_id":"levelo_inurba_marseille","lat":43.328646,"lon":5.45353,"is_reserved":false,"is_disabled":false,"rental_uris":{"android":"levelo://app?vid=0030cf69-75f8-4719-a372-efc52bdb748a","ios":"levelo://app?vid=0030cf69-75f8-4719-a372-efc52bdb748a"},"vehicle_type_id":"4","last_reported":1759133760,"current_range_meters":15200,"station_id":"","pricing_plan_id":"cebpf4jnsgd1na2vs0mg"},{"bike_id":"dc0e4970-2a89-4556-a3c1-0eecb81fbb93","system_id":"levelo_inurba_marseille","lat":43.33607,"lon":5.4103,"is_reserved":false,"is_disabled":false,"rental_uris":{"android":"levelo://app?vid=dc0e4970-2a89-4556-a3c1-0eecb81fbb93","ios":"levelo://app?vid=dc0e4970-2a89-4556-a3c1-0eecb81fbb93"},"vehicle_type_id":"4","last_reported":1759133760,"current_range_meters":15200,"station_id":"ce4bhqh2rcd13ifvqhmg","pricing_plan_id":"cebpf4jnsgd1na2vs0mg"},{"bike_id":"aa123961-c527-4db0-9350-7d548f67905a","system_id":"levelo_inurba_marseille","lat":43.27946,"lon":5.38753,"is_reserved":false,"is_disabled":false,"rental_uris":{"android":"levelo://app?vid=aa123961-c527-4db0-9350-7d548f67905a","ios":"levelo://app?vid=aa123961-c527-4db0-9350-7d548f67905a"},"vehicle_type_id":"4","last_reported":1759133760,"current_range_meters":15200,"station_id":"ce4bh492rcd13ifvqdvg","pricing_plan_id":"cebpf4jnsgd1na2vs0mg"},{"bike_id":"ba1cfbb3-555c-4e6c-85db-b50e9395062e","system_id":"levelo_inurba_marseille","lat":43.246877,"lon":5.381936,"is_reserved":false,"is_disabled":false,"rental_uris":{"android":"levelo://app?vid=ba1cfbb3-555c-4e6c-85db-b50e9395062e","ios":"levelo://app?vid=ba1cfbb3-555c-4e6c-85db-b50e9395062e"},"vehicle_type_id":"4","last_reported":1759133760,"current_range_meters":15200,"station_id":"","pricing_plan_id":"cebpf4jnsgd1na2vs0mg"},{"bike_id":"10baf174-97c7-4514-95bf-33ba4deb3e4f","system_id":"levelo_inurba_marseille","lat":43.211953,"lon":5.350739,"is_reserved":false,"is_disabled":true,"rental_uris":{"android":"levelo://app?vid=10baf174-97c7-4514-95bf-33ba4deb3e4f","ios":"levelo://app?vid=10baf174-97c7-4514-95bf-33ba4deb3e4f"},"vehicle_type_id":"4","last_reported":1759133760,"current_range_meters":15200,"station_id":"st_cvj6sg6p6f1abm77japg","pricing_plan_id":"cebpf4jnsgd1na2vs0mg"},{"bike_id":"ce5e157e-4ef2-4c41-9b3b-54d3eecbfa45","system_id":"levelo_inurba_marseille","lat":43.225355,"lon":5.348444,"is_reserved":false,"is_disabled":false,"rental_uris":{"android":"levelo://app?vid=ce5e157e-4ef2-4c41-9b3b-54d3eecbfa45","ios":"levelo://app?vid=ce5e157e-4ef2-4c41-9b3b-54d3eecbfa45"},"vehicle_type_id":"4","last_reported":1759133760,"current_range_meters":15200,"station_id":"","pricing_plan_id":"cebpf4jnsgd1na2vs0mg"},{"bike_id":"aebf0e68-ba27-412a-9ce2-11cc42127dee","system_id":"levelo_inurba_marseille","lat":43.337444,"lon":5.374475,"is_reserved":false,"is_disabled":false,"rental_uris":{"android":"levelo://app?vid=aebf0e68-ba27-412a-9ce2-11cc42127dee","ios":"levelo://app?vid=aebf0e68-ba27-412a-9ce2-11cc42127dee"},"vehicle_type_id":"4","last_reported":1759133760,"current_range_meters":15200,"station_id":"","pricing_plan_id":"cebpf4jnsgd1na2vs0mg"},{"bike_id":"385fa573-6758-43e7-a2f4-f27be30ea572","system_id":"levelo_inurba_marseille","lat":43.321093,"lon":5.367698,"is_reserved":false,"is_disabled":false,"rental_uris":{"android":"levelo://app?vid=385fa573-6758-43e7-a2f4-f27be30ea572","ios":"levelo://app?vid=385fa573-6758-43e7-a2f4-f27be30ea572"},"vehicle_type_id":"4","last_reported":1759133760,"current_range_meters":16000,"station_id":"ce4bhrh2rcd13ifvqhug","pricing_plan_id":"cebpf4jnsgd1na2vs0mg"},{"bike_id":"1a04738a-bd05-4e7f-b716-ba8d78a51904","system_id":"levelo_inurba_marseille","lat":43.286997,"lon":5.393176,"is_reserved":false,"is_disabled":false,"rental_uris":{"android":"levelo://app?vid=1a04738a-bd05-4e7f-b716-ba8d78a51904","ios":"levelo://app?vid=1a04738a-bd05-4e7f-b716-ba8d78a51904"},"vehicle_type_id":"4","last_reported":1759133760,"current_range_meters":16000,"station_id":"","pricing_plan_id":"cebpf4jnsgd1na2vs0mg"},{"bike_id":"56d6a008-a903-4bd5-8ee3-1cec5d05c634","system_id":"levelo_inurba_marseille","lat":43.31749,"lon":5.39024,"is_reserved":false,"is_disabled":false,"rental_uris":{"android":"levelo://app?vid=56d6a008-a903-4bd5-8ee3-1cec5d05c634","ios":"levelo://app?vid=56d6a008-a903-4bd5-8ee3-1cec5d05c634"},"vehicle_type_id":"4","last_reported":1759133760,"current_range_meters":16000,"station_id":"ce4bhqp2rcd13ifvqhng","pricing_plan_id":"cebpf4jnsgd1na2vs0mg"},{"bike_id":"a840344c-1dcc-404a-863b-d6c02052a09e","system_id":"levelo_inurba_marseille","lat":43.24386,"lon":5.37053,"is_reserved":false,"is_disabled":false,"rental_uris":{"android":"levelo://app?vid=a840344c-1dcc-404a-863b-d6c02052a09e","ios":"levelo://app?vid=a840344c-1dcc-404a-863b-d6c02052a09e"},"vehicle_type_id":"4","last_reported":1759133760,"current_range_meters":16000,"station_id":"ce4bhhh2rcd13ifvqfk0","pricing_plan_id":"cebpf4jnsgd1na2vs0mg"},{"bike_id":"799c3baf-23f3-4f39-a4a8-95303ac8c516","system_id":"levelo_inurba_marseille","lat":43.25943,"lon":5.409,"is_reserved":false,"is_disabled":false,"rental_uris":{"android":"levelo://app?vid=799c3baf-23f3-4f39-a4a8-95303ac8c516","ios":"levelo://app?vid=799c3baf-23f3-4f39-a4a8-95303ac8c516"},"vehicle_type_id":"4","last_reported":1759133760,"current_range_meters":16000,"station_id":"ce4bhm92rcd13ifvqglg","pricing_plan_id":"cebpf4jnsgd1na2vs0mg"},{"bike_id":"6ef86d80-c793-4394-b0e0-1422e47b4e67","system_id":"levelo_inurba_marseille","lat":43.25937,"lon":5.40899,"is_reserved":false,"is_disabled":false,"rental_uris":{"android":"levelo://app?vid=6ef86d80-c793-4394-b0e0-1422e47b4e67","ios":"levelo://app?vid=6ef86d80-c793-4394-b0e0-1422e47b4e67"},"vehicle_type_id":"4","last_reported":1759133760,"current_range_meters":16000,"station_id":"ce4bhm92rcd13ifvqglg","pricing_plan_id":"cebpf4jnsgd1na2vs0mg"},{"bike_id":"0d9c40ec-031a-4831-b45d-0985976c931c","system_id":"levelo_inurba_marseille","lat":43.24081,"lon":5.3774,"is_reserved":false,"is_disabled":false,"rental_uris":{"android":"levelo://app?vid=0d9c40ec-031a-4831-b45d-0985976c931c","ios":"levelo://app?vid=0d9c40ec-031a-4831-b45d-0985976c931c"},"vehicle_type_id":"4","last_reported":1759133760,"current_range_meters":16400,"station_id":"ce4bhnp2rcd13ifvqgvg","pricing_plan_id":"cebpf4jnsgd1na2vs0mg"},{"bike_id":"78edd212-3bd8-4a45-bced-089e3907902a","system_id":"levelo_inurba_marseille","lat":43.327379,"lon":5.423768,"is_reserved":false,"is_disabled":false,"rental_uris":{"android":"levelo://app?vid=78edd212-3bd8-4a45-bced-089e3907902a","ios":"levelo://app?vid=78edd212-3bd8-4a45-bced-089e3907902a"},"vehicle_type_id":"4","last_reported":1759133760,"current_range_meters":16400,"station_id":"","pricing_plan_id":"cebpf4jnsgd1na2vs0mg"},{"bike_id":"4348b5e0-69d6-4737-aa5f-3e487399916c","system_id":"levelo_inurba_marseille","lat":43.241754,"lon":5.397222,"is_reserved":false,"is_disabled":false,"rental_uris":{"android":"levelo://app?vid=4348b5e0-69d6-4737-aa5f-3e487399916c","ios":"levelo://app?vid=4348b5e0-69d6-4737-aa5f-3e487399916c"},"vehicle_type_id":"4","last_reported":1759133760,"current_range_meters":16400,"station_id":"ce4bhn12rcd13ifvqgpg","pricing_plan_id":"cebpf4jnsgd1na2vs0mg"},{"bike_id":"e27e1b84-fcb9-4229-ab17-6ab0cecb8bea","system_id":"levelo_inurba_marseille","lat":43.301426,"lon":5.373946,"is_reserved":false,"is_disabled":false,"rental_uris":{"android":"levelo://app?vid=e27e1b84-fcb9-4229-ab17-6ab0cecb8bea","ios":"levelo://app?vid=e27e1b84-fcb9-4229-ab17-6ab0cecb8bea"},"vehicle_type_id":"4","last_reported":1759133760,"current_range_meters":16400,"station_id":"ce4bgs92rcd13ifvqcc0","pricing_plan_id":"cebpf4jnsgd1na2vs0mg"},{"bike_id":"91658db2-d6ae-4346-bb4d-02353c95c4ab","system_id":"levelo_inurba_marseille","lat":43.24081,"lon":5.37755,"is_reserved":false,"is_disabled":false,"rental_uris":{"android":"levelo://app?vid=91658db2-d6ae-4346-bb4d-02353c95c4ab","ios":"levelo://app?vid=91658db2-d6ae-4346-bb4d-02353c95c4ab"},"vehicle_type_id":"4","last_reported":1759133760,"current_range_meters":16400,"station_id":"ce4bhnp2rcd13ifvqgvg","pricing_plan_id":"cebpf4jnsgd1na2vs0mg"},{"bike_id":"8cbcf5e7-b804-4925-bbed-5f57e8580ccf","system_id":"levelo_inurba_marseille","lat":43.31519,"lon":5.36803,"is_reserved":false,"is_disabled":false,"rental_uris":{"android":"levelo://app?vid=8cbcf5e7-b804-4925-bbed-5f57e8580ccf","ios":"levelo://app?vid=8cbcf5e7-b804-4925-bbed-5f57e8580ccf"},"vehicle_type_id":"4","last_reported":1759133760,"current_range_meters":16400,"station_id":"","pricing_plan_id":"cebpf4jnsgd1na2vs0mg"},{"bike_id":"051eb41f-71c0-452f-8a8e-387b983bfecf","system_id":"levelo_inurba_marseille","lat":43.32222,"lon":5.36918,"is_reserved":false,"is_disabled":false,"rental_uris":{"android":"levelo://app?vid=051eb41f-71c0-452f-8a8e-387b983bfecf","ios":"levelo://app?vid=051eb41f-71c0-452f-8a8e-387b983bfecf"},"vehicle_type_id":"4","last_reported":1759133760,"current_range_meters":16400,"station_id":"","pricing_plan_id":"cebpf4jnsgd1na2vs0mg"},{"bike_id":"7b024d28-6256-4492-a6bb-f45363516be3","system_id":"levelo_inurba_marseille","lat":43.30271,"lon":5.37719,"is_reserved":false,"is_disabled":false,"rental_uris":{"android":"levelo://app?vid=7b024d28-6256-4492-a6bb-f45363516be3","ios":"levelo://app?vid=7b024d28-6256-4492-a6bb-f45363516be3"},"vehicle_type_id":"4","last_reported":1759133760,"current_range_meters":16400,"station_id":"ce4bguh2rcd13ifvqcj0","pricing_plan_id":"cebpf4jnsgd1na2vs0mg"},{"bike_id":"9dab0dbb-99ad-48b0-9a34-3531b7753743","system_id":"levelo_inurba_marseille","lat":43.2927,"lon":5.36847,"is_reserved":false,"is_disabled":false,"rental_uris":{"android":"levelo://app?vid=9dab0dbb-99ad-48b0-9a34-3531b7753743","ios":"levelo://app?vid=9dab0dbb-99ad-48b0-9a34-3531b7753743"},"vehicle_type_id":"4","last_reported":1759133760,"current_range_meters":16400,"station_id":"ce4bhbp2rcd13ifvqesg","pricing_plan_id":"cebpf4jnsgd1na2vs0mg"},{"bike_id":"5a915109-04f7-4d8f-a4b5-d66c9c44b349","system_id":"levelo_inurba_marseille","lat":43.2959,"lon":5.37672,"is_reserved":false,"is_disabled":true,"rental_uris":{"android":"levelo://app?vid=5a915109-04f7-4d8f-a4b5-d66c9c44b349","ios":"levelo://app?vid=5a915109-04f7-4d8f-a4b5-d66c9c44b349"},"vehicle_type_id":"4","last_reported":1759133760,"current_range_meters":16400,"station_id":"","pricing_plan_id":"cebpf4jnsgd1na2vs0mg"},{"bike_id":"46eeeac6-ae5a-48cb-b2c3-6907016efbe2","system_id":"levelo_inurba_marseille","lat":43.30889,"lon":5.37218,"is_reserved":false,"is_disabled":false,"rental_uris":{"android":"levelo://app?vid=46eeeac6-ae5a-48cb-b2c3-6907016efbe2","ios":"levelo://app?vid=46eeeac6-ae5a-48cb-b2c3-6907016efbe2"},"vehicle_type_id":"4","last_reported":1759133760,"current_range_meters":16400,"station_id":"ce4bguh2rcd13ifvqckg","pricing_plan_id":"cebpf4jnsgd1na2vs0mg"},{"bike_id":"904a2447-c517-4f66-b10b-611abaa09843","system_id":"levelo_inurba_marseille","lat":43.25903,"lon":5.40874,"is_reserved":false,"is_disabled":false,"rental_uris":{"android":"levelo://app?vid=904a2447-c517-4f66-b10b-611abaa09843","ios":"levelo://app?vid=904a2447-c517-4f66-b10b-611abaa09843"},"vehicle_type_id":"4","last_reported":1759133760,"current_range_meters":16400,"station_id":"ce4bhm92rcd13ifvqglg","pricing_plan_id":"cebpf4jnsgd1na2vs0mg"},{"bike_id":"99ce2063-5dfb-4ed3-a4a6-8fc3a54c4890","system_id":"levelo_inurba_marseille","lat":43.337444,"lon":5.374475,"is_reserved":false,"is_disabled":false,"rental_uris":{"android":"levelo://app?vid=99ce2063-5dfb-4ed3-a4a6-8fc3a54c4890","ios":"levelo://app?vid=99ce2063-5dfb-4ed3-a4a6-8fc3a54c4890"},"vehicle_type_id":"4","last_reported":1759133760,"current_range_meters":16400,"station_id":"","pricing_plan_id":"cebpf4jnsgd1na2vs0mg"},{"bike_id":"c622f243-50cc-4435-98ad-aaac51ff224a","system_id":"levelo_inurba_marseille","lat":43.337681,"lon":5.374399,"is_reserved":false,"is_disabled":false,"rental_uris":{"android":"levelo://app?vid=c622f243-50cc-4435-98ad-aaac51ff224a","ios":"levelo://app?vid=c622f243-50cc-4435-98ad-aaac51ff224a"},"vehicle_type_id":"4","last_reported":1759133760,"current_range_meters":16800,"station_id":"","pricing_plan_id":"cebpf4jnsgd1na2vs0mg"},{"bike_id":"872b098e-8d73-4e68-9657-856be53a7655","system_id":"levelo_inurba_marseille","lat":43.30898,"lon":5.36852,"is_reserved":false,"is_disabled":false,"rental_uris":{"android":"levelo://app?vid=872b098e-8d73-4e68-9657-856be53a7655","ios":"levelo://app?vid=872b098e-8d73-4e68-9657-856be53a7655"},"vehicle_type_id":"4","last_reported":1759133760,"current_range_meters":16800,"station_id":"ce4bgn92rcd13ifvqbvg","pricing_plan_id":"cebpf4jnsgd1na2vs0mg"},{"bike_id":"0b228ae1-a233-4edc-a739-700c62a5dad9","system_id":"levelo_inurba_marseille","lat":43.30247,"lon":5.40107,"is_reserved":false,"is_disabled":true,"rental_uris":{"android":"levelo://app?vid=0b228ae1-a233-4edc-a739-700c62a5dad9","ios":"levelo://app?vid=0b228ae1-a233-4edc-a739-700c62a5dad9"},"vehicle_type_id":"4","last_reported":1759133760,"current_range_meters":16800,"station_id":"ce4bgvh2rcd13ifvqcs0","pricing_plan_id":"cebpf4jnsgd1na2vs0mg"},{"bike_id":"a3218ff1-ef4d-4462-9572-d2e598439d8c","system_id":"levelo_inurba_marseille","lat":43.27969,"lon":5.38758,"is_reserved":false,"is_disabled":false,"rental_uris":{"android":"levelo://app?vid=a3218ff1-ef4d-4462-9572-d2e598439d8c","ios":"levelo://app?vid=a3218ff1-ef4d-4462-9572-d2e598439d8c"},"vehicle_type_id":"4","last_reported":1759133760,"current_range_meters":16400,"station_id":"ce4bhg12rcd13ifvqf80","pricing_plan_id":"cebpf4jnsgd1na2vs0mg"},{"bike_id":"0d1d350e-713f-4f34-917e-689c22a4b2f6","system_id":"levelo_inurba_marseille","lat":43.29036,"lon":5.375582,"is_reserved":false,"is_disabled":false,"rental_uris":{"android":"levelo://app?vid=0d1d350e-713f-4f34-917e-689c22a4b2f6","ios":"levelo://app?vid=0d1d350e-713f-4f34-917e-689c22a4b2f6"},"vehicle_type_id":"4","last_reported":1759133760,"current_range_meters":16400,"station_id":"ce4bh692rcd13ifvqe90","pricing_plan_id":"cebpf4jnsgd1na2vs0mg"},{"bike_id":"c158efd5-5d91-48dc-b5c3-823d20415e5a","system_id":"levelo_inurba_marseille","lat":43.2962,"lon":5.37161,"is_reserved":false,"is_disabled":false,"rental_uris":{"android":"levelo://app?vid=c158efd5-5d91-48dc-b5c3-823d20415e5a","ios":"levelo://app?vid=c158efd5-5d91-48dc-b5c3-823d20415e5a"},"vehicle_type_id":"4","last_reported":1759133760,"current_range_meters":16800,"station_id":"ce4bgnh2rcd13ifvqc0g","pricing_plan_id":"cebpf4jnsgd1na2vs0mg"},{"bike_id":"b4859515-0f4d-4b58-8912-37b1a0978e3d","system_id":"levelo_inurba_marseille","lat":43.29,"lon":5.35615,"is_reserved":false,"is_disabled":false,"rental_uris":{"android":"levelo://app?vid=b4859515-0f4d-4b58-8912-37b1a0978e3d","ios":"levelo://app?vid=b4859515-0f4d-4b58-8912-37b1a0978e3d"},"vehicle_type_id":"4","last_reported":1759133760,"current_range_meters":16400,"station_id":"ce4bhb92rcd13ifvqen0","pricing_plan_id":"cebpf4jnsgd1na2vs0mg"},{"bike_id":"00b3c5d5-9ad5-4872-b372-089fa3a04914","system_id":"levelo_inurba_marseille","lat":43.286376,"lon":5.354934,"is_reserved":false,"is_disabled":false,"rental_uris":{"android":"levelo://app?vid=00b3c5d5-9ad5-4872-b372-089fa3a04914","ios":"levelo://app?vid=00b3c5d5-9ad5-4872-b372-089fa3a04914"},"vehicle_type_id":"4","last_reported":1759133760,"current_range_meters":16800,"station_id":"","pricing_plan_id":"cebpf4jnsgd1na2vs0mg"},{"bike_id":"d310fb3c-51fd-428a-947a-97a053af481f","system_id":"levelo_inurba_marseille","lat":43.31362,"lon":5.36724,"is_reserved":false,"is_disabled":false,"rental_uris":{"android":"levelo://app?vid=d310fb3c-51fd-428a-947a-97a053af481f","ios":"levelo://app?vid=d310fb3c-51fd-428a-947a-97a053af481f"},"vehicle_type_id":"4","last_reported":1759133760,"current_range_meters":16800,"station_id":"ce4bgr92rcd13ifvqc6g","pricing_plan_id":"cebpf4jnsgd1na2vs0mg"},{"bike_id":"92662833-c6ac-4b02-b7df-1638b54b1972","system_id":"levelo_inurba_marseille","lat":43.33742,"lon":5.37449,"is_reserved":false,"is_disabled":false,"rental_uris":{"android":"levelo://app?vid=92662833-c6ac-4b02-b7df-1638b54b1972","ios":"levelo://app?vid=92662833-c6ac-4b02-b7df-1638b54b1972"},"vehicle_type_id":"4","last_reported":1759133760,"current_range_meters":16800,"station_id":"","pricing_plan_id":"cebpf4jnsgd1na2vs0mg"},{"bike_id":"f8d78e5f-60e1-4623-939f-49e76ff16505","system_id":"levelo_inurba_marseille","lat":43.33742,"lon":5.37448,"is_reserved":false,"is_disabled":false,"rental_uris":{"android":"levelo://app?vid=f8d78e5f-60e1-4623-939f-49e76ff16505","ios":"levelo://app?vid=f8d78e5f-60e1-4623-939f-49e76ff16505"},"vehicle_type_id":"4","last_reported":1759133760,"current_range_meters":16800,"station_id":"","pricing_plan_id":"cebpf4jnsgd1na2vs0mg"},{"bike_id":"35674f30-45d2-4192-a400-f0f8445d4437","system_id":"levelo_inurba_marseille","lat":43.31067,"lon":5.40088,"is_reserved":false,"is_disabled":false,"rental_uris":{"android":"levelo://app?vid=35674f30-45d2-4192-a400-f0f8445d4437","ios":"levelo://app?vid=35674f30-45d2-4192-a400-f0f8445d4437"},"vehicle_type_id":"4","last_reported":1759133760,"current_range_meters":17200,"station_id":"","pricing_plan_id":"cebpf4jnsgd1na2vs0mg"},{"bike_id":"6fcc86a5-9345-4ef2-a6f7-af47c7be1ed1","system_id":"levelo_inurba_marseille","lat":43.29677,"lon":5.372949,"is_reserved":false,"is_disabled":false,"rental_uris":{"android":"levelo://app?vid=6fcc86a5-9345-4ef2-a6f7-af47c7be1ed1","ios":"levelo://app?vid=6fcc86a5-9345-4ef2-a6f7-af47c7be1ed1"},"vehicle_type_id":"4","last_reported":1759133760,"current_range_meters":16800,"station_id":"ce4bgk12rcd13ifvqbj0","pricing_plan_id":"cebpf4jnsgd1na2vs0mg"},{"bike_id":"96520869-d013-4e0c-a355-f7bbd728ba84","system_id":"levelo_inurba_marseille","lat":43.323649,"lon":5.367496,"is_reserved":false,"is_disabled":false,"rental_uris":{"android":"levelo://app?vid=96520869-d013-4e0c-a355-f7bbd728ba84","ios":"levelo://app?vid=96520869-d013-4e0c-a355-f7bbd728ba84"},"vehicle_type_id":"4","last_reported":1759133760,"current_range_meters":17200,"station_id":"ce4bhsh2rcd13ifvqi2g","pricing_plan_id":"cebpf4jnsgd1na2vs0mg"},{"bike_id":"18dd01b8-81c6-48d0-97a5-6aa730792d80","system_id":"levelo_inurba_marseille","lat":43.274932,"lon":5.424601,"is_reserved":false,"is_disabled":false,"rental_uris":{"android":"levelo://app?vid=18dd01b8-81c6-48d0-97a5-6aa730792d80","ios":"levelo://app?vid=18dd01b8-81c6-48d0-97a5-6aa730792d80"},"vehicle_type_id":"4","last_reported":1759133760,"current_range_meters":17200,"station_id":"ce4bhn92rcd13ifvqgrg","pricing_plan_id":"cebpf4jnsgd1na2vs0mg"},{"bike_id":"738a51a6-02d0-4def-8f3f-9c82f6a6dd05","system_id":"levelo_inurba_marseille","lat":43.323667,"lon":5.367318,"is_reserved":false,"is_disabled":false,"rental_uris":{"android":"levelo://app?vid=738a51a6-02d0-4def-8f3f-9c82f6a6dd05","ios":"levelo://app?vid=738a51a6-02d0-4def-8f3f-9c82f6a6dd05"},"vehicle_type_id":"4","last_reported":1759133760,"current_range_meters":17200,"station_id":"ce4bhsh2rcd13ifvqi2g","pricing_plan_id":"cebpf4jnsgd1na2vs0mg"},{"bike_id":"c66e069d-0ffb-450c-a1e3-2c05aff1f87b","system_id":"levelo_inurba_marseille","lat":43.28416,"lon":5.35004,"is_reserved":false,"is_disabled":false,"rental_uris":{"android":"levelo://app?vid=c66e069d-0ffb-450c-a1e3-2c05aff1f87b","ios":"levelo://app?vid=c66e069d-0ffb-450c-a1e3-2c05aff1f87b"},"vehicle_type_id":"4","last_reported":1759133760,"current_range_meters":17200,"station_id":"ce4bhbh2rcd13ifvqepg","pricing_plan_id":"cebpf4jnsgd1na2vs0mg"},{"bike_id":"56ca0258-bee9-4eb2-b3c5-63b5cd0b9e67","system_id":"levelo_inurba_marseille","lat":43.33737,"lon":5.37445,"is_reserved":false,"is_disabled":false,"rental_uris":{"android":"levelo://app?vid=56ca0258-bee9-4eb2-b3c5-63b5cd0b9e67","ios":"levelo://app?vid=56ca0258-bee9-4eb2-b3c5-63b5cd0b9e67"},"vehicle_type_id":"4","last_reported":1759133760,"current_range_meters":17200,"station_id":"","pricing_plan_id":"cebpf4jnsgd1na2vs0mg"},{"bike_id":"c64842eb-0f04-44f0-ab7e-8a910d80de06","system_id":"levelo_inurba_marseille","lat":43.308963,"lon":5.36843,"is_reserved":false,"is_disabled":false,"rental_uris":{"android":"levelo://app?vid=c64842eb-0f04-44f0-ab7e-8a910d80de06","ios":"levelo://app?vid=c64842eb-0f04-44f0-ab7e-8a910d80de06"},"vehicle_type_id":"4","last_reported":1759133760,"current_range_meters":17600,"station_id":"ce4bgn92rcd13ifvqbvg","pricing_plan_id":"cebpf4jnsgd1na2vs0mg"},{"bike_id":"d48aecbf-fbb8-4a01-989e-943a70b920d5","system_id":"levelo_inurba_marseille","lat":43.313314,"lon":5.371009,"is_reserved":false,"is_disabled":false,"rental_uris":{"android":"levelo://app?vid=d48aecbf-fbb8-4a01-989e-943a70b920d5","ios":"levelo://app?vid=d48aecbf-fbb8-4a01-989e-943a70b920d5"},"vehicle_type_id":"4","last_reported":1759133760,"current_range_meters":17600,"station_id":"","pricing_plan_id":"cebpf4jnsgd1na2vs0mg"},{"bike_id":"92dc3970-9545-445c-9030-b987f1953781","system_id":"levelo_inurba_marseille","lat":43.29605,"lon":5.38096,"is_reserved":false,"is_disabled":false,"rental_uris":{"android":"levelo://app?vid=92dc3970-9545-445c-9030-b987f1953781","ios":"levelo://app?vid=92dc3970-9545-445c-9030-b987f1953781"},"vehicle_type_id":"4","last_reported":1759133760,"current_range_meters":17600,"station_id":"ce4bgl12rcd13ifvqbo0","pricing_plan_id":"cebpf4jnsgd1na2vs0mg"},{"bike_id":"a05bd468-c6b8-49b8-ade3-15e52e32f754","system_id":"levelo_inurba_marseille","lat":43.24065,"lon":5.37752,"is_reserved":false,"is_disabled":false,"rental_uris":{"android":"levelo://app?vid=a05bd468-c6b8-49b8-ade3-15e52e32f754","ios":"levelo://app?vid=a05bd468-c6b8-49b8-ade3-15e52e32f754"},"vehicle_type_id":"4","last_reported":1759133760,"current_range_meters":17600,"station_id":"ce4bhnp2rcd13ifvqgvg","pricing_plan_id":"cebpf4jnsgd1na2vs0mg"},{"bike_id":"74898dc7-8c2d-4900-a548-e66777267953","system_id":"levelo_inurba_marseille","lat":43.27565,"lon":5.35944,"is_reserved":false,"is_disabled":false,"rental_uris":{"android":"levelo://app?vid=74898dc7-8c2d-4900-a548-e66777267953","ios":"levelo://app?vid=74898dc7-8c2d-4900-a548-e66777267953"},"vehicle_type_id":"4","last_reported":1759133760,"current_range_meters":17600,"station_id":"","pricing_plan_id":"cebpf4jnsgd1na2vs0mg"},{"bike_id":"6ca7f74e-0578-429c-8d66-5e02da2e17f6","system_id":"levelo_inurba_marseille","lat":43.30939,"lon":5.37259,"is_reserved":false,"is_disabled":false,"rental_uris":{"android":"levelo://app?vid=6ca7f74e-0578-429c-8d66-5e02da2e17f6","ios":"levelo://app?vid=6ca7f74e-0578-429c-8d66-5e02da2e17f6"},"vehicle_type_id":"4","last_reported":1759133760,"current_range_meters":17600,"station_id":"","pricing_plan_id":"cebpf4jnsgd1na2vs0mg"},{"bike_id":"09dc7070-767f-485c-8bab-bf9eefcad225","system_id":"levelo_inurba_marseille","lat":43.29452,"lon":5.38065,"is_reserved":false,"is_disabled":false,"rental_uris":{"android":"levelo://app?vid=09dc7070-767f-485c-8bab-bf9eefcad225","ios":"levelo://app?vid=09dc7070-767f-485c-8bab-bf9eefcad225"},"vehicle_type_id":"4","last_reported":1759133760,"current_range_meters":17600,"station_id":"","pricing_plan_id":"cebpf4jnsgd1na2vs0mg"},{"bike_id":"e76396fa-541d-4bc8-a025-c97cc8a90fee","system_id":"levelo_inurba_marseille","lat":43.23133,"lon":5.43669,"is_reserved":false,"is_disabled":false,"rental_uris":{"android":"levelo://app?vid=e76396fa-541d-4bc8-a025-c97cc8a90fee","ios":"levelo://app?vid=e76396fa-541d-4bc8-a025-c97cc8a90fee"},"vehicle_type_id":"4","last_reported":1759133760,"current_range_meters":17600,"station_id":"ce4bhmp2rcd13ifvqgog","pricing_plan_id":"cebpf4jnsgd1na2vs0mg"},{"bike_id":"23060896-6333-463c-a762-0dd3fb9f3d7b","system_id":"levelo_inurba_marseille","lat":43.24084,"lon":5.37771,"is_reserved":false,"is_disabled":false,"rental_uris":{"android":"levelo://app?vid=23060896-6333-463c-a762-0dd3fb9f3d7b","ios":"levelo://app?vid=23060896-6333-463c-a762-0dd3fb9f3d7b"},"vehicle_type_id":"4","last_reported":1759133760,"current_range_meters":17600,"station_id":"ce4bhnp2rcd13ifvqgvg","pricing_plan_id":"cebpf4jnsgd1na2vs0mg"},{"bike_id":"fb370b30-a194-4833-bdb8-856e7a2a298d","system_id":"levelo_inurba_marseille","lat":43.24177,"lon":5.39729,"is_reserved":false,"is_disabled":false,"rental_uris":{"android":"levelo://app?vid=fb370b30-a194-4833-bdb8-856e7a2a298d","ios":"levelo://app?vid=fb370b30-a194-4833-bdb8-856e7a2a298d"},"vehicle_type_id":"4","last_reported":1759133760,"current_range_meters":17600,"station_id":"ce4bhn12rcd13ifvqgpg","pricing_plan_id":"cebpf4jnsgd1na2vs0mg"},{"bike_id":"5c3b4228-b227-402c-a874-06485013760e","system_id":"levelo_inurba_marseille","lat":43.23147,"lon":5.43713,"is_reserved":false,"is_disabled":false,"rental_uris":{"android":"levelo://app?vid=5c3b4228-b227-402c-a874-06485013760e","ios":"levelo://app?vid=5c3b4228-b227-402c-a874-06485013760e"},"vehicle_type_id":"4","last_reported":1759133760,"current_range_meters":17600,"station_id":"ce4bhmp2rcd13ifvqgog","pricing_plan_id":"cebpf4jnsgd1na2vs0mg"},{"bike_id":"f453343e-5f20-4752-b723-0f1797af29d2","system_id":"levelo_inurba_marseille","lat":43.2315,"lon":5.4371,"is_reserved":false,"is_disabled":false,"rental_uris":{"android":"levelo://app?vid=f453343e-5f20-4752-b723-0f1797af29d2","ios":"levelo://app?vid=f453343e-5f20-4752-b723-0f1797af29d2"},"vehicle_type_id":"4","last_reported":1759133760,"current_range_meters":17600,"station_id":"ce4bhmp2rcd13ifvqgog","pricing_plan_id":"cebpf4jnsgd1na2vs0mg"},{"bike_id":"14065bff-c1d8-40b0-86dc-372110002d24","system_id":"levelo_inurba_marseille","lat":43.25108,"lon":5.40324,"is_reserved":false,"is_disabled":false,"rental_uris":{"android":"levelo://app?vid=14065bff-c1d8-40b0-86dc-372110002d24","ios":"levelo://app?vid=14065bff-c1d8-40b0-86dc-372110002d24"},"vehicle_type_id":"4","last_reported":1759133760,"current_range_meters":18000,"station_id":"ce4bhlh2rcd13ifvqgig","pricing_plan_id":"cebpf4jnsgd1na2vs0mg"},{"bike_id":"16839028-4773-4892-9cee-c6f17209ceea","system_id":"levelo_inurba_marseille","lat":43.30608,"lon":5.37228,"is_reserved":false,"is_disabled":false,"rental_uris":{"android":"levelo://app?vid=16839028-4773-4892-9cee-c6f17209ceea","ios":"levelo://app?vid=16839028-4773-4892-9cee-c6f17209ceea"},"vehicle_type_id":"4","last_reported":1759133760,"current_range_meters":17600,"station_id":"ce4bgqh2rcd13ifvqc4g","pricing_plan_id":"cebpf4jnsgd1na2vs0mg"},{"bike_id":"f11d13b2-3fb1-4881-bf70-a7de55eef17d","system_id":"levelo_inurba_marseille","lat":43.29582,"lon":5.36747,"is_reserved":false,"is_disabled":false,"rental_uris":{"android":"levelo://app?vid=f11d13b2-3fb1-4881-bf70-a7de55eef17d","ios":"levelo://app?vid=f11d13b2-3fb1-4881-bf70-a7de55eef17d"},"vehicle_type_id":"4","last_reported":1759133760,"current_range_meters":18000,"station_id":"ce4bgph2rcd13ifvqc2g","pricing_plan_id":"cebpf4jnsgd1na2vs0mg"},{"bike_id":"f44df0c8-3c0a-4103-982e-900169d96e81","system_id":"levelo_inurba_marseille","lat":43.32093,"lon":5.36779,"is_reserved":false,"is_disabled":false,"rental_uris":{"android":"levelo://app?vid=f44df0c8-3c0a-4103-982e-900169d96e81","ios":"levelo://app?vid=f44df0c8-3c0a-4103-982e-900169d96e81"},"vehicle_type_id":"4","last_reported":1759133760,"current_range_meters":18000,"station_id":"ce4bhrh2rcd13ifvqhug","pricing_plan_id":"cebpf4jnsgd1na2vs0mg"},{"bike_id":"13604148-437a-4148-9ed9-019ca4e03ec3","system_id":"levelo_inurba_marseille","lat":43.246333,"lon":5.431393,"is_reserved":false,"is_disabled":false,"rental_uris":{"android":"levelo://app?vid=13604148-437a-4148-9ed9-019ca4e03ec3","ios":"levelo://app?vid=13604148-437a-4148-9ed9-019ca4e03ec3"},"vehicle_type_id":"4","last_reported":1759133760,"current_range_meters":18000,"station_id":"st_d2m6c4gdas8pm72e190g","pricing_plan_id":"cebpf4jnsgd1na2vs0mg"},{"bike_id":"7430697d-64ff-4ce7-a22c-5eca8c3d21e4","system_id":"levelo_inurba_marseille","lat":43.25011,"lon":5.38932,"is_reserved":false,"is_disabled":false,"rental_uris":{"android":"levelo://app?vid=7430697d-64ff-4ce7-a22c-5eca8c3d21e4","ios":"levelo://app?vid=7430697d-64ff-4ce7-a22c-5eca8c3d21e4"},"vehicle_type_id":"4","last_reported":1759133760,"current_range_meters":18000,"station_id":"ce4bhgp2rcd13ifvqfd0","pricing_plan_id":"cebpf4jnsgd1na2vs0mg"},{"bike_id":"f2b04485-1e5c-4e85-a90c-728f234809d6","system_id":"levelo_inurba_marseille","lat":43.23155,"lon":5.43705,"is_reserved":false,"is_disabled":false,"rental_uris":{"android":"levelo://app?vid=f2b04485-1e5c-4e85-a90c-728f234809d6","ios":"levelo://app?vid=f2b04485-1e5c-4e85-a90c-728f234809d6"},"vehicle_type_id":"4","last_reported":1759133760,"current_range_meters":18000,"station_id":"ce4bhmp2rcd13ifvqgog","pricing_plan_id":"cebpf4jnsgd1na2vs0mg"},{"bike_id":"472ee532-77ff-4d7d-8b4b-121f9de88fe6","system_id":"levelo_inurba_marseille","lat":43.24548,"lon":5.39537,"is_reserved":false,"is_disabled":true,"rental_uris":{"android":"levelo://app?vid=472ee532-77ff-4d7d-8b4b-121f9de88fe6","ios":"levelo://app?vid=472ee532-77ff-4d7d-8b4b-121f9de88fe6"},"vehicle_type_id":"4","last_reported":1759133760,"current_range_meters":18800,"station_id":"ce4bhlp2rcd13ifvqgjg","pricing_plan_id":"cebpf4jnsgd1na2vs0mg"},{"bike_id":"7bb1a9d6-e543-4f0c-9890-a0a92e415c72","system_id":"levelo_inurba_marseille","lat":43.27501,"lon":5.42449,"is_reserved":false,"is_disabled":false,"rental_uris":{"android":"levelo://app?vid=7bb1a9d6-e543-4f0c-9890-a0a92e415c72","ios":"levelo://app?vid=7bb1a9d6-e543-4f0c-9890-a0a92e415c72"},"vehicle_type_id":"4","last_reported":1759133760,"current_range_meters":18800,"station_id":"ce4bhn92rcd13ifvqgrg","pricing_plan_id":"cebpf4jnsgd1na2vs0mg"},{"bike_id":"5be2e6ec-cddb-4f11-8e69-6e0523256ec7","system_id":"levelo_inurba_marseille","lat":43.29917,"lon":5.3746,"is_reserved":false,"is_disabled":false,"rental_uris":{"android":"levelo://app?vid=5be2e6ec-cddb-4f11-8e69-6e0523256ec7","ios":"levelo://app?vid=5be2e6ec-cddb-4f11-8e69-6e0523256ec7"},"vehicle_type_id":"4","last_reported":1759133760,"current_range_meters":18800,"station_id":"ce4bgjh2rcd13ifvqbg0","pricing_plan_id":"cebpf4jnsgd1na2vs0mg"},{"bike_id":"463c595e-bacc-4795-bc47-ee32036bc33a","system_id":"levelo_inurba_marseille","lat":43.31357,"lon":5.3672,"is_reserved":false,"is_disabled":false,"rental_uris":{"android":"levelo://app?vid=463c595e-bacc-4795-bc47-ee32036bc33a","ios":"levelo://app?vid=463c595e-bacc-4795-bc47-ee32036bc33a"},"vehicle_type_id":"4","last_reported":1759133760,"current_range_meters":18800,"station_id":"ce4bgr92rcd13ifvqc6g","pricing_plan_id":"cebpf4jnsgd1na2vs0mg"},{"bike_id":"d55a55dc-4b29-4c44-8b82-e09c04bbd661","system_id":"levelo_inurba_marseille","lat":43.290632,"lon":5.371552,"is_reserved":false,"is_disabled":true,"rental_uris":{"android":"levelo://app?vid=d55a55dc-4b29-4c44-8b82-e09c04bbd661","ios":"levelo://app?vid=d55a55dc-4b29-4c44-8b82-e09c04bbd661"},"vehicle_type_id":"4","last_reported":1759133760,"current_range_meters":18800,"station_id":"ce4bh5p2rcd13ifvqe4g","pricing_plan_id":"cebpf4jnsgd1na2vs0mg"},{"bike_id":"33c22d45-451e-4404-877b-8de38f6e4e67","system_id":"levelo_inurba_marseille","lat":43.298682,"lon":5.376595,"is_reserved":false,"is_disabled":true,"rental_uris":{"android":"levelo://app?vid=33c22d45-451e-4404-877b-8de38f6e4e67","ios":"levelo://app?vid=33c22d45-451e-4404-877b-8de38f6e4e67"},"vehicle_type_id":"4","last_reported":1759133760,"current_range_meters":18800,"station_id":"","pricing_plan_id":"cebpf4jnsgd1na2vs0mg"},{"bike_id":"c8a5d420-8b10-41e7-aaf6-885c38b28c49","system_id":"levelo_inurba_marseille","lat":43.24168,"lon":5.36389,"is_reserved":false,"is_disabled":false,"rental_uris":{"android":"levelo://app?vid=c8a5d420-8b10-41e7-aaf6-885c38b28c49","ios":"levelo://app?vid=c8a5d420-8b10-41e7-aaf6-885c38b28c49"},"vehicle_type_id":"4","last_reported":1759133760,"current_range_meters":18800,"station_id":"cpo36qri1sfpv3e86is0","pricing_plan_id":"cebpf4jnsgd1na2vs0mg"},{"bike_id":"8c1aaf6a-8e5e-4d43-a152-105ef3126416","system_id":"levelo_inurba_marseille","lat":43.31364,"lon":5.36694,"is_reserved":false,"is_disabled":false,"rental_uris":{"android":"levelo://app?vid=8c1aaf6a-8e5e-4d43-a152-105ef3126416","ios":"levelo://app?vid=8c1aaf6a-8e5e-4d43-a152-105ef3126416"},"vehicle_type_id":"4","last_reported":1759133760,"current_range_meters":18800,"station_id":"ce4bgr92rcd13ifvqc6g","pricing_plan_id":"cebpf4jnsgd1na2vs0mg"},{"bike_id":"17bbf4dd-fba9-4826-8c7d-9be0609a6e2f","system_id":"levelo_inurba_marseille","lat":43.31127,"lon":5.37739,"is_reserved":false,"is_disabled":false,"rental_uris":{"android":"levelo://app?vid=17bbf4dd-fba9-4826-8c7d-9be0609a6e2f","ios":"levelo://app?vid=17bbf4dd-fba9-4826-8c7d-9be0609a6e2f"},"vehicle_type_id":"4","last_reported":1759133760,"current_range_meters":18800,"station_id":"ce4bgt92rcd13ifvqcg0","pricing_plan_id":"cebpf4jnsgd1na2vs0mg"},{"bike_id":"d2f46c9e-a53c-42a7-ad54-fd7c896f4565","system_id":"levelo_inurba_marseille","lat":43.33797,"lon":5.37428,"is_reserved":false,"is_disabled":false,"rental_uris":{"android":"levelo://app?vid=d2f46c9e-a53c-42a7-ad54-fd7c896f4565","ios":"levelo://app?vid=d2f46c9e-a53c-42a7-ad54-fd7c896f4565"},"vehicle_type_id":"4","last_reported":1759133760,"current_range_meters":18800,"station_id":"","pricing_plan_id":"cebpf4jnsgd1na2vs0mg"},{"bike_id":"c47f5c3e-1ff3-43b7-b740-1c081ef57305","system_id":"levelo_inurba_marseille","lat":43.296089,"lon":5.377258,"is_reserved":false,"is_disabled":false,"rental_uris":{"android":"levelo://app?vid=c47f5c3e-1ff3-43b7-b740-1c081ef57305","ios":"levelo://app?vid=c47f5c3e-1ff3-43b7-b740-1c081ef57305"},"vehicle_type_id":"4","last_reported":1759133760,"current_range_meters":19200,"station_id":"","pricing_plan_id":"cebpf4jnsgd1na2vs0mg"},{"bike_id":"fd2a5718-9cc7-49a8-8736-9d27562f8ced","system_id":"levelo_inurba_marseille","lat":43.25007,"lon":5.38915,"is_reserved":false,"is_disabled":true,"rental_uris":{"android":"levelo://app?vid=fd2a5718-9cc7-49a8-8736-9d27562f8ced","ios":"levelo://app?vid=fd2a5718-9cc7-49a8-8736-9d27562f8ced"},"vehicle_type_id":"4","last_reported":1759133760,"current_range_meters":19200,"station_id":"ce4bhgp2rcd13ifvqfd0","pricing_plan_id":"cebpf4jnsgd1na2vs0mg"},{"bike_id":"f9574d5b-4a67-43fc-9668-2c2e41a8a8b8","system_id":"levelo_inurba_marseille","lat":43.23148,"lon":5.43715,"is_reserved":false,"is_disabled":false,"rental_uris":{"android":"levelo://app?vid=f9574d5b-4a67-43fc-9668-2c2e41a8a8b8","ios":"levelo://app?vid=f9574d5b-4a67-43fc-9668-2c2e41a8a8b8"},"vehicle_type_id":"4","last_reported":1759133760,"current_range_meters":19200,"station_id":"ce4bhmp2rcd13ifvqgog","pricing_plan_id":"cebpf4jnsgd1na2vs0mg"},{"bike_id":"f752559e-e357-41d0-b0e1-06afd32411be","system_id":"levelo_inurba_marseille","lat":43.27466,"lon":5.40776,"is_reserved":false,"is_disabled":false,"rental_uris":{"android":"levelo://app?vid=f752559e-e357-41d0-b0e1-06afd32411be","ios":"levelo://app?vid=f752559e-e357-41d0-b0e1-06afd32411be"},"vehicle_type_id":"4","last_reported":1759133760,"current_range_meters":19200,"station_id":"","pricing_plan_id":"cebpf4jnsgd1na2vs0mg"},{"bike_id":"4e86af77-d5ed-4c99-98f9-052caca24cd7","system_id":"levelo_inurba_marseille","lat":43.27491,"lon":5.42447,"is_reserved":false,"is_disabled":false,"rental_uris":{"android":"levelo://app?vid=4e86af77-d5ed-4c99-98f9-052caca24cd7","ios":"levelo://app?vid=4e86af77-d5ed-4c99-98f9-052caca24cd7"},"vehicle_type_id":"4","last_reported":1759133760,"current_range_meters":19200,"station_id":"ce4bhn92rcd13ifvqgrg","pricing_plan_id":"cebpf4jnsgd1na2vs0mg"},{"bike_id":"4fa9c6ee-6d49-4332-bdb9-a8b3c9280421","system_id":"levelo_inurba_marseille","lat":43.23801,"lon":5.43057,"is_reserved":false,"is_disabled":false,"rental_uris":{"android":"levelo://app?vid=4fa9c6ee-6d49-4332-bdb9-a8b3c9280421","ios":"levelo://app?vid=4fa9c6ee-6d49-4332-bdb9-a8b3c9280421"},"vehicle_type_id":"4","last_reported":1759133760,"current_range_meters":19200,"station_id":"","pricing_plan_id":"cebpf4jnsgd1na2vs0mg"},{"bike_id":"1bc13d09-8bed-49ae-98e4-a4715f47808e","system_id":"levelo_inurba_marseille","lat":43.29616,"lon":5.37171,"is_reserved":false,"is_disabled":false,"rental_uris":{"android":"levelo://app?vid=1bc13d09-8bed-49ae-98e4-a4715f47808e","ios":"levelo://app?vid=1bc13d09-8bed-49ae-98e4-a4715f47808e"},"vehicle_type_id":"4","last_reported":1759133760,"current_range_meters":18800,"station_id":"ce4bgnh2rcd13ifvqc0g","pricing_plan_id":"cebpf4jnsgd1na2vs0mg"},{"bike_id":"22f7d1c6-b362-4b5d-89d5-bc00cbe70f31","system_id":"levelo_inurba_marseille","lat":43.24649,"lon":5.38893,"is_reserved":false,"is_disabled":false,"rental_uris":{"android":"levelo://app?vid=22f7d1c6-b362-4b5d-89d5-bc00cbe70f31","ios":"levelo://app?vid=22f7d1c6-b362-4b5d-89d5-bc00cbe70f31"},"vehicle_type_id":"4","last_reported":1759133760,"current_range_meters":19200,"station_id":"ce4bhg12rcd13ifvqf60","pricing_plan_id":"cebpf4jnsgd1na2vs0mg"},