{"last_updated":1731791223,"ttl":60,"version":"2.2","data":{"bikes":[{"bike_id":"ea97ca90-4204-406d-8300-27e5b90379a8","system_id":"levelo_inurba_marseille","lat":43.28001,"lon":5.40004,"is_reserved":false,"is_disabled":false,"rental_uris":{"android":"levelo://app?vid=ea97ca90-4204-406d-8300-27e5b90379a8","ios":"levelo://app?vid=ea97ca90-4204-406d-8300-27e5b90379a8"},"vehicle_type_id":"4","last_reported":1731791223,"current_range_meters":8400,"station_id":"ce4bho92rcd13ifvqh4g","pricing_plan_id":"cebpf4jnsgd1na2vs0mg"},{"bike_id":"414ea9d3-8fc7-409c-9975-f3f0b0506d45","system_id":"levelo_inurba_marseille","lat":43.29254,"lon":5.38451,"is_reserved":false,"is_disabled":false,"rental_uris":{"android":"levelo://app?vid=414ea9d3-8fc7-409c-9975-f3f0b0506d45","ios":"levelo://app?vid=414ea9d3-8fc7-409c-9975-f3f0b0506d45"},"vehicle_type_id":"4","last_reported":1731791223,"current_range_meters":10800,"station_id":"ce4bh692rcd13ifvqea0","pricing_plan_id":"cebpf4jnsgd1na2vs0mg"},{"bike_id":"23517016-5f11-49c4-a773-3b04c9368a80","system_id":"levelo_inurba_marseille","lat":43.308502,"lon":5.40117,"is_reserved":false,"is_disabled":false,"rental_uris":{"android":"levelo://app?vid=23517016-5f11-49c4-a773-3b04c9368a80","ios":"levelo://app?vid=23517016-5f11-49c4-a773-3b04c9368a80"},"vehicle_type_id":"4","last_reported":1731791223,"current_range_meters":9200,"station_id":"ce4bgvp2rcd13ifvqct0","pricing_plan_id":"cebpf4jnsgd1na2vs0mg"},{"bike_id":"d08d4de5-af18-489e-a2b2-cd7b52ede183","system_id":"levelo_inurba_marseille","lat":43.29593,"lon":5.38098,"is_reserved":false,"is_disabled":false,"rental_uris":{"android":"levelo://app?vid=d08d4de5-af18-489e-a2b2-cd7b52ede183","ios":"levelo://app?vid=d08d4de5-af18-489e-a2b2-cd7b52ede183"},"vehicle_type_id":"4","last_reported":1731791223,"current_range_meters":23200,"station_id":"ce4bgl12rcd13ifvqbo0","pricing_plan_id":"cebpf4jnsgd1na2vs0mg"},{"bike_id":"9b60f41a-b94e-4bb8-9525-0ae3fa240c17","system_id":"levelo_inurba_marseille","lat":43.29417,"lon":5.38625,"is_reserved":false,"is_disabled":false,"rental_uris":{"android":"levelo://app?vid=9b60f41a-b94e-4bb8-9525-0ae3fa240c17","ios":"levelo://app?vid=9b60f41a-b94e-4bb8-9525-0ae3fa240c17"},"vehicle_type_id":"4","last_reported":1731791223,"current_range_meters":2800,"station_id":"ce4bh2h2rcd13ifvqdh0","pricing_plan_id":"cebpf4jnsgd1na2vs0mg"},{"bike_id":"e9dc7148-4e84-4145-9525-5130b5de7cd1","system_id":"levelo_inurba_marseille","lat":43.29795,"lon":5.371,"is_reserved":false,"is_disabled":false,"rental_uris":{"android":"levelo://app?vid=e9dc7148-4e84-4145-9525-5130b5de7cd1","ios":"levelo://app?vid=e9dc7148-4e84-4145-9525-5130b5de7cd1"},"vehicle_type_id":"4","last_reported":1731791223,"current_range_meters":38000,"station_id":"ce4bgop2rcd13ifvqc1g","pricing_plan_id":"cebpf4jnsgd1na2vs0mg"},{"bike_id":"4224a320-1425-4b6d-b5cf-93c1c741a48e","system_id":"levelo_inurba_marseille","lat":43.29735,"lon":5.36976,"is_reserved":false,"is_disabled":false,"rental_uris":{"android":"levelo://app?vid=4224a320-1425-4b6d-b5cf-93c1c741a48e","ios":"levelo://app?vid=4224a320-1425-4b6d-b5cf-93c1c741a48e"},"vehicle_type_id":"4","last_reported":1731791223,"current_range_meters":3200,"station_id":"ce4bgop2rcd13ifvqc1g","pricing_plan_id":"cebpf4jnsgd1na2vs0mg"},{"bike_id":"0e556473-d2a0-4595-9173-960a3ab82c97","system_id":"levelo_inurba_marseille","lat":43.29257,"lon":5.38427,"is_reserved":false,"is_disabled":false,"rental_uris":{"android":"levelo://app?vid=0e556473-d2a0-4595-9173-960a3ab82c97","ios":"levelo://app?vid=0e556473-d2a0-4595-9173-960a3ab82c97"},"vehicle_type_id":"4","last_reported":1731791223,"current_range_meters":7200,"station_id":"ce4bh692rcd13ifvqea0","pricing_plan_id":"cebpf4jnsgd1na2vs0mg"},{"bike_id":"fe7748b6-9d91-4994-bdd2-fe51f904eb01","system_id":"levelo_inurba_marseille","lat":43.29959,"lon":5.37378,"is_reserved":false,"is_disabled":false,"rental_uris":{"android":"levelo://app?vid=fe7748b6-9d91-4994-bdd2-fe51f904eb01","ios":"levelo://app?vid=fe7748b6-9d91-4994-bdd2-fe51f904eb01"},"vehicle_type_id":"4","last_reported":1731791223,"current_range_meters":20800,"station_id":"ce4bgjh2rcd13ifvqbg0","pricing_plan_id":"cebpf4jnsgd1na2vs0mg"},{"bike_id":"45c178a2-06a1-4784-9547-3194078b2f63","system_id":"levelo_inurba_marseille","lat":43.286972,"lon":5.373831,"is_reserved":false,"is_disabled":false,"rental_uris":{"android":"levelo://app?vid=45c178a2-06a1-4784-9547-3194078b2f63","ios":"levelo://app?vid=45c178a2-06a1-4784-9547-3194078b2f63"},"vehicle_type_id":"4","last_reported":1731791223,"current_range_meters":15200,"station_id":"ce4bh3p2rcd13ifvqdq0","pricing_plan_id":"cebpf4jnsgd1na2vs0mg"},{"bike_id":"0672d165-d197-4474-bbec-2df95543fd2f","system_id":"levelo_inurba_marseille","lat":43.29891,"lon":5.43658,"is_reserved":false,"is_disabled":false,"rental_uris":{"android":"levelo://app?vid=0672d165-d197-4474-bbec-2df95543fd2f","ios":"levelo://app?vid=0672d165-d197-4474-bbec-2df95543fd2f"},"vehicle_type_id":"4","last_reported":1731791223,"current_range_meters":10000,"station_id":"ce4bhpp2rcd13ifvqhfg","pricing_plan_id":"cebpf4jnsgd1na2vs0mg"},{"bike_id":"d9d8a7d9-cde4-4fab-ab69-fcee8fe6a6da","system_id":"levelo_inurba_marseille","lat":43.25026,"lon":5.38916,"is_reserved":false,"is_disabled":false,"rental_uris":{"android":"levelo://app?vid=d9d8a7d9-cde4-4fab-ab69-fcee8fe6a6da","ios":"levelo://app?vid=d9d8a7d9-cde4-4fab-ab69-fcee8fe6a6da"},"vehicle_type_id":"4","last_reported":1731791223,"current_range_meters":11200,"station_id":"ce4bhgp2rcd13ifvqfd0","pricing_plan_id":"cebpf4jnsgd1na2vs0mg"},{"bike_id":"083dbee0-0e04-4a5e-93ff-4f8789a778b7","system_id":"levelo_inurba_marseille","lat":43.22923,"lon":5.35384,"is_reserved":false,"is_disabled":false,"rental_uris":{"android":"levelo://app?vid=083dbee0-0e04-4a5e-93ff-4f8789a778b7","ios":"levelo://app?vid=083dbee0-0e04-4a5e-93ff-4f8789a778b7"},"vehicle_type_id":"4","last_reported":1731791223,"current_range_meters":38800,"station_id":"cpo3532slgdg3j2ikp40","pricing_plan_id":"cebpf4jnsgd1na2vs0mg"},{"bike_id":"2c72d59b-025f-443f-9848-64372eae2428","system_id":"levelo_inurba_marseille","lat":43.2804,"lon":5.36947,"is_reserved":false,"is_disabled":false,"rental_uris":{"android":"levelo://app?vid=2c72d59b-025f-443f-9848-64372eae2428","ios":"levelo://app?vid=2c72d59b-025f-443f-9848-64372eae2428"},"vehicle_type_id":"4","last_reported":1731791223,"current_range_meters":20000,"station_id":"ce4bha12rcd13ifvqef0","pricing_plan_id":"cebpf4jnsgd1na2vs0mg"},{"bike_id":"fa4d3d6b-2f22-40c0-b10a-f7a96055bc74","system_id":"levelo_inurba_marseille","lat":43.28705,"lon":5.37388,"is_reserved":false,"is_disabled":false,"rental_uris":{"android":"levelo://app?vid=fa4d3d6b-2f22-40c0-b10a-f7a96055bc74","ios":"levelo://app?vid=fa4d3d6b-2f22-40c0-b10a-f7a96055bc74"},"vehicle_type_id":"4","last_reported":1731791223,"current_range_meters":38800,"station_id":"ce4bh3p2rcd13ifvqdq0","pricing_plan_id":"cebpf4jnsgd1na2vs0mg"},{"bike_id":"5249eafd-b97e-4756-a528-b11e98c8cb97","system_id":"levelo_inurba_marseille","lat":43.24176,"lon":5.39732,"is_reserved":false,"is_disabled":false,"rental_uris":{"android":"levelo://app?vid=5249eafd-b97e-4756-a528-b11e98c8cb97","ios":"levelo://app?vid=5249eafd-b97e-4756-a528-b11e98c8cb97"},"vehicle_type_id":"4","last_reported":1731791223,"current_range_meters":38000,"station_id":"ce4bhn12rcd13ifvqgpg","pricing_plan_id":"cebpf4jnsgd1na2vs0mg"},{"bike_id":"ee6be0be-c608-4dde-9181-283b87b2fcb5","system_id":"levelo_inurba_marseille","lat":43.26552,"lon":5.37283,"is_reserved":false,"is_disabled":false,"rental_uris":{"android":"levelo://app?vid=ee6be0be-c608-4dde-9181-283b87b2fcb5","ios":"levelo://app?vid=ee6be0be-c608-4dde-9181-283b87b2fcb5"},"vehicle_type_id":"4","last_reported":1731791223,"current_range_meters":4000,"station_id":"ce4bhg12rcd13ifvqf70","pricing_plan_id":"cebpf4jnsgd1na2vs0mg"},{"bike_id":"4c167bc3-2964-4625-adc0-c92e539ad80f","system_id":"levelo_inurba_marseille","lat":43.28288,"lon":5.40792,"is_reserved":false,"is_disabled":false,"rental_uris":{"android":"levelo://app?vid=4c167bc3-2964-4625-adc0-c92e539ad80f","ios":"levelo://app?vid=4c167bc3-2964-4625-adc0-c92e539ad80f"},"vehicle_type_id":"4","last_reported":1731791223,"current_range_meters":38000,"station_id":"","pricing_plan_id":"cebpf4jnsgd1na2vs0mg"},{"bike_id":"55427a38-c132-414c-aa3f-10e35ee4dd0a","system_id":"levelo_inurba_marseille","lat":43.32112,"lon":5.36773,"is_reserved":false,"is_disabled":false,"rental_uris":{"android":"levelo://app?vid=55427a38-c132-414c-aa3f-10e35ee4dd0a","ios":"levelo://app?vid=55427a38-c132-414c-aa3f-10e35ee4dd0a"},"vehicle_type_id":"4","last_reported":1731791223,"current_range_meters":6800,"station_id":"ce4bhrh2rcd13ifvqhug","pricing_plan_id":"cebpf4jnsgd1na2vs0mg"},{"bike_id":"addde65d-338b-474e-bbcb-a31ebf5f7243","system_id":"levelo_inurba_marseille","lat":43.30909,"lon":5.36829,"is_reserved":false,"is_disabled":false,"rental_uris":{"android":"levelo://app?vid=addde65d-338b-474e-bbcb-a31ebf5f7243","ios":"levelo://app?vid=addde65d-338b-474e-bbcb-a31ebf5f7243"},"vehicle_type_id":"4","last_reported":1731791223,"current_range_meters":17200,"station_id":"ce4bgn92rcd13ifvqbvg","pricing_plan_id":"cebpf4jnsgd1na2vs0mg"},{"bike_id":"40a97675-88c7-4654-941f-612dc5d72fb0","system_id":"levelo_inurba_marseille","lat":43.31532,"lon":5.38022,"is_reserved":false,"is_disabled":false,"rental_uris":{"android":"levelo://app?vid=40a97675-88c7-4654-941f-612dc5d72fb0","ios":"levelo://app?vid=40a97675-88c7-4654-941f-612dc5d72fb0"},"vehicle_type_id":"4","last_reported":1731791223,"current_range_meters":38800,"station_id":"ce4bhsp2rcd13ifvqi50","pricing_plan_id":"cebpf4jnsgd1na2vs0mg"},{"bike_id":"6b0ea79e-cb12-4a50-9845-e4686b3cacc8","system_id":"levelo_inurba_marseille","lat":43.295751,"lon":5.399791,"is_reserved":false,"is_disabled":false,"rental_uris":{"android":"levelo://app?vid=6b0ea79e-cb12-4a50-9845-e4686b3cacc8","ios":"levelo://app?vid=6b0ea79e-cb12-4a50-9845-e4686b3cacc8"},"vehicle_type_id":"4","last_reported":1731791223,"current_range_meters":12400,"station_id":"","pricing_plan_id":"cebpf4jnsgd1na2vs0mg"},{"bike_id":"019bf444-b205-492f-9e02-03a9647a20a5","system_id":"levelo_inurba_marseille","lat":43.30089,"lon":5.39078,"is_reserved":false,"is_disabled":false,"rental_uris":{"android":"levelo://app?vid=019bf444-b205-492f-9e02-03a9647a20a5","ios":"levelo://app?vid=019bf444-b205-492f-9e02-03a9647a20a5"},"vehicle_type_id":"4","last_reported":1731791223,"current_range_meters":35200,"station_id":"ce4bh192rcd13ifvqdb0","pricing_plan_id":"cebpf4jnsgd1na2vs0mg"},{"bike_id":"859b157f-6cb6-43c0-9727-f11c0833ac83","system_id":"levelo_inurba_marseille","lat":43.29286,"lon":5.40124,"is_reserved":false,"is_disabled":false,"rental_uris":{"android":"levelo://app?vid=859b157f-6cb6-43c0-9727-f11c0833ac83","ios":"levelo://app?vid=859b157f-6cb6-43c0-9727-f11c0833ac83"},"vehicle_type_id":"4","last_reported":1731791223,"current_range_meters":8000,"station_id":"ce4bh312rcd13ifvqdk0","pricing_plan_id":"cebpf4jnsgd1na2vs0mg"},{"bike_id":"72499688-a320-4333-843e-c093213a74e4","system_id":"levelo_inurba_marseille","lat":43.23061,"lon":5.35493,"is_reserved":false,"is_disabled":false,"rental_uris":{"android":"levelo://app?vid=72499688-a320-4333-843e-c093213a74e4","ios":"levelo://app?vid=72499688-a320-4333-843e-c093213a74e4"},"vehicle_type_id":"4","last_reported":1731791223,"current_range_meters":8000,"station_id":"cpo3342slgdg3j2ifvpg","pricing_plan_id":"cebpf4jnsgd1na2vs0mg"},{"bike_id":"7cf438d8-b1d8-49cd-a040-7a7802b38a16","system_id":"levelo_inurba_marseille","lat":43.28104,"lon":5.37834,"is_reserved":false,"is_disabled":false,"rental_uris":{"android":"levelo://app?vid=7cf438d8-b1d8-49cd-a040-7a7802b38a16","ios":"levelo://app?vid=7cf438d8-b1d8-49cd-a040-7a7802b38a16"},"vehicle_type_id":"4","last_reported":1731791223,"current_range_meters":22800,"station_id":"ce4bha12rcd13ifvqee0","pricing_plan_id":"cebpf4jnsgd1na2vs0mg"},{"bike_id":"0e1d2e7a-8318-45fe-af1b-31857eb1aac8","system_id":"levelo_inurba_marseille","lat":43.23965,"lon":5.36615,"is_reserved":false,"is_disabled":false,"rental_uris":{"android":"levelo://app?vid=0e1d2e7a-8318-45fe-af1b-31857eb1aac8","ios":"levelo://app?vid=0e1d2e7a-8318-45fe-af1b-31857eb1aac8"},"vehicle_type_id":"4","last_reported":1731791223,"current_range_meters":27600,"station_id":"ce4bhi12rcd13ifvqfp0","pricing_plan_id":"cebpf4jnsgd1na2vs0mg"},{"bike_id":"edec2afd-2fd4-49bc-9cc6-2ff866afd30c","system_id":"levelo_inurba_marseille","lat":43.27176,"lon":5.40996,"is_reserved":false,"is_disabled":false,"rental_uris":{"android":"levelo://app?vid=edec2afd-2fd4-49bc-9cc6-2ff866afd30c","ios":"levelo://app?vid=edec2afd-2fd4-49bc-9cc6-2ff866afd30c"},"vehicle_type_id":"4","last_reported":1731791223,"current_range_meters":6400,"station_id":"ce4bhl12rcd13ifvqgf0","pricing_plan_id":"cebpf4jnsgd1na2vs0mg"},{"bike_id":"79b76398-f4aa-422b-b325-2360d07a8784","system_id":"levelo_inurba_marseille","lat":43.33724,"lon":5.39176,"is_reserved":false,"is_disabled":false,"rental_uris":{"android":"levelo://app?vid=79b76398-f4aa-422b-b325-2360d07a8784","ios":"levelo://app?vid=79b76398-f4aa-422b-b325-2360d07a8784"},"vehicle_type_id":"4","last_reported":1731791223,"current_range_meters":39200,"station_id":"ce4bhr92rcd13ifvqhsg","pricing_plan_id":"cebpf4jnsgd1na2vs0mg"},{"bike_id":"6954d931-1cf2-4337-bbd5-1c9ac3ae6e04","system_id":"levelo_inurba_marseille","lat":43.31367,"lon":5.38492,"is_reserved":false,"is_disabled":false,"rental_uris":{"android":"levelo://app?vid=6954d931-1cf2-4337-bbd5-1c9ac3ae6e04","ios":"levelo://app?vid=6954d931-1cf2-4337-bbd5-1c9ac3ae6e04"},"vehicle_type_id":"4","last_reported":1731791223,"current_range_meters":36800,"station_id":"ce4bgt92rcd13ifvqcf0","pricing_plan_id":"cebpf4jnsgd1na2vs0mg"},{"bike_id":"efd07578-0d87-479b-a620-d02e7740eb0d","system_id":"levelo_inurba_marseille","lat":43.243871,"lon":5.370633,"is_reserved":false,"is_disabled":false,"rental_uris":{"android":"levelo://app?vid=efd07578-0d87-479b-a620-d02e7740eb0d","ios":"levelo://app?vid=efd07578-0d87-479b-a620-d02e7740eb0d"},"vehicle_type_id":"4","last_reported":1731791223,"current_range_meters":38800,"station_id":"ce4bhhh2rcd13ifvqfk0","pricing_plan_id":"cebpf4jnsgd1na2vs0mg"},{"bike_id":"c9cf85b5-3581-49fc-9090-a790bc8179d5","system_id":"levelo_inurba_marseille","lat":43.28618,"lon":5.35105,"is_reserved":false,"is_disabled":false,"rental_uris":{"android":"levelo://app?vid=c9cf85b5-3581-49fc-9090-a790bc8179d5","ios":"levelo://app?vid=c9cf85b5-3581-49fc-9090-a790bc8179d5"},"vehicle_type_id":"4","last_reported":1731791223,"current_range_meters":6000,"station_id":"ce4bhch2rcd13ifvqeug","pricing_plan_id":"cebpf4jnsgd1na2vs0mg"},{"bike_id":"b6029c3b-1cc6-42b5-9f84-ba98b58b4c08","system_id":"levelo_inurba_marseille","lat":43.2694,"lon":5.40257,"is_reserved":false,"is_disabled":false,"rental_uris":{"android":"levelo://app?vid=b6029c3b-1cc6-42b5-9f84-ba98b58b4c08","ios":"levelo://app?vid=b6029c3b-1cc6-42b5-9f84-ba98b58b4c08"},"vehicle_type_id":"4","last_reported":1731791223,"current_range_meters":4400,"station_id":"cjm6bp8fraef2m0cb0m0","pricing_plan_id":"cebpf4jnsgd1na2vs0mg"},{"bike_id":"0f1530ea-5fe9-472e-85b8-bdba51b7256a","system_id":"levelo_inurba_marseille","lat":43.2693,"lon":5.38914,"is_reserved":false,"is_disabled":false,"rental_uris":{"android":"levelo://app?vid=0f1530ea-5fe9-472e-85b8-bdba51b7256a","ios":"levelo://app?vid=0f1530ea-5fe9-472e-85b8-bdba51b7256a"},"vehicle_type_id":"4","last_reported":1731791223,"current_range_meters":35600,"station_id":"ce4bhhh2rcd13ifvqfl0","pricing_plan_id":"cebpf4jnsgd1na2vs0mg"},{"bike_id":"51ec102e-6dd5-463f-9847-5d447546ad72","system_id":"levelo_inurba_marseille","lat":43.29416,"lon":5.38629,"is_reserved":false,"is_disabled":false,"rental_uris":{"android":"levelo://app?vid=51ec102e-6dd5-463f-9847-5d447546ad72","ios":"levelo://app?vid=51ec102e-6dd5-463f-9847-5d447546ad72"},"vehicle_type_id":"4","last_reported":1731791223,"current_range_meters":27600,"station_id":"ce4bh2h2rcd13ifvqdh0","pricing_plan_id":"cebpf4jnsgd1na2vs0mg"},{"bike_id":"3fcbe528-45e3-439d-80db-ce667e24fe73","system_id":"levelo_inurba_marseille","lat":43.23059,"lon":5.35494,"is_reserved":false,"is_disabled":false,"rental_uris":{"android":"levelo://app?vid=3fcbe528-45e3-439d-80db-ce667e24fe73","ios":"levelo://app?vid=3fcbe528-45e3-439d-80db-ce667e24fe73"},"vehicle_type_id":"4","last_reported":1731791223,"current_range_meters":20000,"station_id":"cpo3342slgdg3j2ifvpg","pricing_plan_id":"cebpf4jnsgd1na2vs0mg"},{"bike_id":"2c803c4f-3ad3-408c-97d3-3af4366e1183","system_id":"levelo_inurba_marseille","lat":43.29527,"lon":5.3854,"is_reserved":false,"is_disabled":false,"rental_uris":{"android":"levelo://app?vid=2c803c4f-3ad3-408c-97d3-3af4366e1183","ios":"levelo://app?vid=2c803c4f-3ad3-408c-97d3-3af4366e1183"},"vehicle_type_id":"4","last_reported":1731791223,"current_range_meters":27600,"station_id":"ce4bgih2rcd13ifvqba0","pricing_plan_id":"cebpf4jnsgd1na2vs0mg"},{"bike_id":"b2f45d15-d036-4f36-a361-a492e289342e","system_id":"levelo_inurba_marseille","lat":43.22933,"lon":5.35368,"is_reserved":false,"is_disabled":false,"rental_uris":{"android":"levelo://app?vid=b2f45d15-d036-4f36-a361-a492e289342e","ios":"levelo://app?vid=b2f45d15-d036-4f36-a361-a492e289342e"},"vehicle_type_id":"4","last_reported":1731791223,"current_range_meters":38000,"station_id":"cpo3532slgdg3j2ikp40","pricing_plan_id":"cebpf4jnsgd1na2vs0mg"},{"bike_id":"290520ae-ddd9-452e-818a-0f4b2d1e80ef","system_id":"levelo_inurba_marseille","lat":43.30148,"lon":5.38074,"is_reserved":false,"is_disabled":false,"rental_uris":{"android":"levelo://app?vid=290520ae-ddd9-452e-818a-0f4b2d1e80ef","ios":"levelo://app?vid=290520ae-ddd9-452e-818a-0f4b2d1e80ef"},"vehicle_type_id":"4","last_reported":1731791223,"current_range_meters":8800,"station_id":"ce4bgjp2rcd13ifvqbh0","pricing_plan_id":"cebpf4jnsgd1na2vs0mg"},{"bike_id":"6433ffb7-eb0c-42cb-baa9-7cf92698c980","system_id":"levelo_inurba_marseille","lat":43.28155,"lon":5.42645,"is_reserved":false,"is_disabled":false,"rental_uris":{"android":"levelo://app?vid=6433ffb7-eb0c-42cb-baa9-7cf92698c980","ios":"levelo://app?vid=6433ffb7-eb0c-42cb-baa9-7cf92698c980"},"vehicle_type_id":"4","last_reported":1731791223,"current_range_meters":35600,"station_id":"ce4bhnh2rcd13ifvqgug","pricing_plan_id":"cebpf4jnsgd1na2vs0mg"},{"bike_id":"db0085fb-8c79-4ddd-9c9c-5f619ed839e1","system_id":"levelo_inurba_marseille","lat":43.27615,"lon":5.36119,"is_reserved":false,"is_disabled":false,"rental_uris":{"android":"levelo://app?vid=db0085fb-8c79-4ddd-9c9c-5f619ed839e1","ios":"levelo://app?vid=db0085fb-8c79-4ddd-9c9c-5f619ed839e1"},"vehicle_type_id":"4","last_reported":1731791223,"current_range_meters":35600,"station_id":"ce4bgj92rcd13ifvqbe0","pricing_plan_id":"cebpf4jnsgd1na2vs0mg"},{"bike_id":"81b4aa9c-93d6-46a0-b3f3-133d7dfa2b4e","system_id":"levelo_inurba_marseille","lat":43.24809,"lon":5.3746,"is_reserved":false,"is_disabled":false,"rental_uris":{"android":"levelo://app?vid=81b4aa9c-93d6-46a0-b3f3-133d7dfa2b4e","ios":"levelo://app?vid=81b4aa9c-93d6-46a0-b3f3-133d7dfa2b4e"},"vehicle_type_id":"4","last_reported":1731791223,"current_range_meters":35200,"station_id":"ce4bhgh2rcd13ifvqfb0","pricing_plan_id":"cebpf4jnsgd1na2vs0mg"},{"bike_id":"6d6a0dde-c067-4493-bad2-5ee0d9b9474d","system_id":"levelo_inurba_marseille","lat":43.29294,"lon":5.37447,"is_reserved":false,"is_disabled":false,"rental_uris":{"android":"levelo://app?vid=6d6a0dde-c067-4493-bad2-5ee0d9b9474d","ios":"levelo://app?vid=6d6a0dde-c067-4493-bad2-5ee0d9b9474d"},"vehicle_type_id":"4","last_reported":1731791223,"current_range_meters":34800,"station_id":"ce4bgi12rcd13ifvqb70","pricing_plan_id":"cebpf4jnsgd1na2vs0mg"},{"bike_id":"7761c108-d771-4541-891e-8b1bb868bea3","system_id":"levelo_inurba_marseille","lat":43.31321,"lon":5.39694,"is_reserved":false,"is_disabled":false,"rental_uris":{"android":"levelo://app?vid=7761c108-d771-4541-891e-8b1bb868bea3","ios":"levelo://app?vid=7761c108-d771-4541-891e-8b1bb868bea3"},"vehicle_type_id":"4","last_reported":1731791223,"current_range_meters":23200,"station_id":"ce4bgvp2rcd13ifvqcu0","pricing_plan_id":"cebpf4jnsgd1na2vs0mg"},{"bike_id":"17c1da7f-753a-419e-b420-c5c13659a37e","system_id":"levelo_inurba_marseille","lat":43.31989,"lon":5.38147,"is_reserved":false,"is_disabled":false,"rental_uris":{"android":"levelo://app?vid=17c1da7f-753a-419e-b420-c5c13659a37e","ios":"levelo://app?vid=17c1da7f-753a-419e-b420-c5c13659a37e"},"vehicle_type_id":"4","last_reported":1731791223,"current_range_meters":12400,"station_id":"ce4bhr12rcd13ifvqhpg","pricing_plan_id":"cebpf4jnsgd1na2vs0mg"},{"bike_id":"b128a8d7-7942-4d37-9966-cfc17584ff0d","system_id":"levelo_inurba_marseille","lat":43.28063,"lon":5.40775,"is_reserved":false,"is_disabled":false,"rental_uris":{"android":"levelo://app?vid=b128a8d7-7942-4d37-9966-cfc17584ff0d","ios":"levelo://app?vid=b128a8d7-7942-4d37-9966-cfc17584ff0d"},"vehicle_type_id":"4","last_reported":1731791223,"current_range_meters":18000,"station_id":"","pricing_plan_id":"cebpf4jnsgd1na2vs0mg"},{"bike_id":"76115c9c-6a69-4b90-85b6-7213cbed9156","system_id":"levelo_inurba_marseille","lat":43.31166,"lon":5.38702,"is_reserved":false,"is_disabled":false,"rental_uris":{"android":"levelo://app?vid=76115c9c-6a69-4b90-85b6-7213cbed9156","ios":"levelo://app?vid=76115c9c-6a69-4b90-85b6-7213cbed9156"},"vehicle_type_id":"4","last_reported":1731791223,"current_range_meters":12400,"station_id":"ce4bgv12rcd13ifvqcp0","pricing_plan_id":"cebpf4jnsgd1na2vs0mg"},{"bike_id":"2423f2a9-c81e-48f6-8baa-d86e2049c321","system_id":"levelo_inurba_marseille","lat":43.29258,"lon":5.40926,"is_reserved":false,"is_disabled":false,"rental_uris":{"android":"levelo://app?vid=2423f2a9-c81e-48f6-8baa-d86e2049c321","ios":"levelo://app?vid=2423f2a9-c81e-48f6-8baa-d86e2049c321"},"vehicle_type_id":"4","last_reported":1731791223,"current_range_meters":26800,"station_id":"ce4bh192rcd13ifvqdc0","pricing_plan_id":"cebpf4jnsgd1na2vs0mg"},{"bike_id":"0d090cbd-7bd8-48ce-96b4-17fa666688e1","system_id":"levelo_inurba_marseille","lat":43.34147,"lon":5.40909,"is_reserved":false,"is_disabled":false,"rental_uris":{"android":"levelo://app?vid=0d090cbd-7bd8-48ce-96b4-17fa666688e1","ios":"levelo://app?vid=0d090cbd-7bd8-48ce-96b4-17fa666688e1"},"vehicle_type_id":"4","last_reported":1731791223,"current_range_meters":28400,"station_id":"ce4bhqh2rcd13ifvqhlg","pricing_plan_id":"cebpf4jnsgd1na2vs0mg"},{"bike_id":"5a1a1cde-2214-43b6-ab4f-c3336662f490","system_id":"levelo_inurba_marseille","lat":43.301788,"lon":5.387507,"is_reserved":false,"is_disabled":false,"rental_uris":{"android":"levelo://app?vid=5a1a1cde-2214-43b6-ab4f-c3336662f490","ios":"levelo://app?vid=5a1a1cde-2214-43b6-ab4f-c3336662f490"},"vehicle_type_id":"4","last_reported":1731791223,"current_range_meters":8400,"station_id":"ce4bghh2rcd13ifvqb60","pricing_plan_id":"cebpf4jnsgd1na2vs0mg"},{"bike_id":"5f4fcc2a-041d-4ee6-ad12-6841b42ade09","system_id":"levelo_inurba_marseille","lat":43.29723,"lon":5.36606,"is_reserved":false,"is_disabled":false,"rental_uris":{"android":"levelo://app?vid=5f4fcc2a-041d-4ee6-ad12-6841b42ade09","ios":"levelo://app?vid=5f4fcc2a-041d-4ee6-ad12-6841b42ade09"},"vehicle_type_id":"4","last_reported":1731791223,"current_range_meters":38800,"station_id":"ce4bgn12rcd13ifvqbt0","pricing_plan_id":"cebpf4jnsgd1na2vs0mg"},{"bike_id":"0b580216-b07f-4821-a19d-686462be0488","system_id":"levelo_inurba_marseille","lat":43.2293,"lon":5.35381,"is_reserved":false,"is_disabled":false,"rental_uris":{"android":"levelo://app?vid=0b580216-b07f-4821-a19d-686462be0488","ios":"levelo://app?vid=0b580216-b07f-4821-a19d-686462be0488"},"vehicle_type_id":"4","last_reported":1731791223,"current_range_meters":38000,"station_id":"cpo3532slgdg3j2ikp40","pricing_plan_id":"cebpf4jnsgd1na2vs0mg"},{"bike_id":"8ec12441-0a09-48b5-9b60-4ec15c08e11c","system_id":"levelo_inurba_marseille","lat":43.23185,"lon":5.39973,"is_reserved":false,"is_disabled":false,"rental_uris":{"android":"levelo://app?vid=8ec12441-0a09-48b5-9b60-4ec15c08e11c","ios":"levelo://app?vid=8ec12441-0a09-48b5-9b60-4ec15c08e11c"},"vehicle_type_id":"4","last_reported":1731791223,"current_range_meters":11600,"station_id":"ce4bhn12rcd13ifvqgqg","pricing_plan_id":"cebpf4jnsgd1na2vs0mg"},{"bike_id":"dc148b60-efee-45c2-af1f-26a46263cd7d","system_id":"levelo_inurba_marseille","lat":43.29832,"lon":5.36239,"is_reserved":false,"is_disabled":false,"rental_uris":{"android":"levelo://app?vid=dc148b60-efee-45c2-af1f-26a46263cd7d","ios":"levelo://app?vid=dc148b60-efee-45c2-af1f-26a46263cd7d"},"vehicle_type_id":"4","last_reported":1731791223,"current_range_meters":30000,"station_id":"ce4bgpp2rcd13ifvqc3g","pricing_plan_id":"cebpf4jnsgd1na2vs0mg"},{"bike_id":"92bebbcc-8a62-432f-9a27-74e5b8b2472e","system_id":"levelo_inurba_marseille","lat":43.27941,"lon":5.41045,"is_reserved":false,"is_disabled":false,"rental_uris":{"android":"levelo://app?vid=92bebbcc-8a62-432f-9a27-74e5b8b2472e","ios":"levelo://app?vid=92bebbcc-8a62-432f-9a27-74e5b8b2472e"},"vehicle_type_id":"4","last_reported":1731791223,"current_range_meters":34800,"station_id":"ce4bhnp2rcd13ifvqh0g","pricing_plan_id":"cebpf4jnsgd1na2vs0mg"},{"bike_id":"4138345b-cc1d-40b0-8916-e8013770729a","system_id":"levelo_inurba_marseille","lat":43.2465,"lon":5.38887,"is_reserved":false,"is_disabled":false,"rental_uris":{"android":"levelo://app?vid=4138345b-cc1d-40b0-8916-e8013770729a","ios":"levelo://app?vid=4138345b-cc1d-40b0-8916-e8013770729a"},"vehicle_type_id":"4","last_reported":1731791223,"current_range_meters":38800,"station_id":"ce4bhg12rcd13ifvqf60","pricing_plan_id":"cebpf4jnsgd1na2vs0mg"},{"bike_id":"dd43d69f-9afa-40e9-be53-1e91b14089f5","system_id":"levelo_inurba_marseille","lat":43.28474,"lon":5.38412,"is_reserved":false,"is_disabled":false,"rental_uris":{"android":"levelo://app?vid=dd43d69f-9afa-40e9-be53-1e91b14089f5","ios":"levelo://app?vid=dd43d69f-9afa-40e9-be53-1e91b14089f5"},"vehicle_type_id":"4","last_reported":1731791223,"current_range_meters":28400,"station_id":"ce4bh512rcd13ifvqe3g","pricing_plan_id":"cebpf4jnsgd1na2vs0mg"},{"bike_id":"d51206fb-a270-4cca-b43b-93bd0f713b17","system_id":"levelo_inurba_marseille","lat":43.30886,"lon":5.39654,"is_reserved":false,"is_disabled":false,"rental_uris":{"android":"levelo://app?vid=d51206fb-a270-4cca-b43b-93bd0f713b17","ios":"levelo://app?vid=d51206fb-a270-4cca-b43b-93bd0f713b17"},"vehicle_type_id":"4","last_reported":1731791223,"current_range_meters":26000,"station_id":"ce4bh012rcd13ifvqcv0","pricing_plan_id":"cebpf4jnsgd1na2vs0mg"},{"bike_id":"9c16e19f-b952-452f-b4fc-f2aa9d923631","system_id":"levelo_inurba_marseille","lat":43.31536,"lon":5.38034,"is_reserved":false,"is_disabled":false,"rental_uris":{"android":"levelo://app?vid=9c16e19f-b952-452f-b4fc-f2aa9d923631","ios":"levelo://app?vid=9c16e19f-b952-452f-b4fc-f2aa9d923631"},"vehicle_type_id":"4","last_reported":1731791223,"current_range_meters":39200,"station_id":"ce4bhsp2rcd13ifvqi50","pricing_plan_id":"cebpf4jnsgd1na2vs0mg"},{"bike_id":"ca8542a7-392d-4521-8203-879c6d07ae3f","system_id":"levelo_inurba_marseille","lat":43.30807,"lon":5.37005,"is_reserved":false,"is_disabled":false,"rental_uris":{"android":"levelo://app?vid=ca8542a7-392d-4521-8203-879c6d07ae3f","ios":"levelo://app?vid=ca8542a7-392d-4521-8203-879c6d07ae3f"},"vehicle_type_id":"4","last_reported":1731791223,"current_range_meters":32400,"station_id":"","pricing_plan_id":"cebpf4jnsgd1na2vs0mg"},{"bike_id":"bae81943-f1eb-4f58-8fe3-254cd012d472","system_id":"levelo_inurba_marseille","lat":43.25488,"lon":5.37647,"is_reserved":false,"is_disabled":false,"rental_uris":{"android":"levelo://app?vid=bae81943-f1eb-4f58-8fe3-254cd012d472","ios":"levelo://app?vid=bae81943-f1eb-4f58-8fe3-254cd012d472"},"vehicle_type_id":"4","last_reported":1731791223,"current_range_meters":38800,"station_id":"ce4bhh12rcd13ifvqff0","pricing_plan_id":"cebpf4jnsgd1na2vs0mg"},{"bike_id":"25506f71-5843-4ef4-a5ae-2628fab69e02","system_id":"levelo_inurba_marseille","lat":43.28161,"lon":5.4265,"is_reserved":false,"is_disabled":false,"rental_uris":{"android":"levelo://app?vid=25506f71-5843-4ef4-a5ae-2628fab69e02","ios":"levelo://app?vid=25506f71-5843-4ef4-a5ae-2628fab69e02"},"vehicle_type_id":"4","last_reported":1731791223,"current_range_meters":28400,"station_id":"ce4bhnh2rcd13ifvqgug","pricing_plan_id":"cebpf4jnsgd1na2vs0mg"},{"bike_id":"ba57f1ef-3fbb-4816-9e62-2e0737689f5e","system_id":"levelo_inurba_marseille","lat":43.3361,"lon":5.41035,"is_reserved":false,"is_disabled":false,"rental_uris":{"android":"levelo://app?vid=ba57f1ef-3fbb-4816-9e62-2e0737689f5e","ios":"levelo://app?vid=ba57f1ef-3fbb-4816-9e62-2e0737689f5e"},"vehicle_type_id":"4","last_reported":1731791223,"current_range_meters":34800,"station_id":"ce4bhqh2rcd13ifvqhmg","pricing_plan_id":"cebpf4jnsgd1na2vs0mg"},{"bike_id":"eca8f630-3c82-4adc-91ac-e7f692c4d06a","system_id":"levelo_inurba_marseille","lat":43.29292,"lon":5.37444,"is_reserved":false,"is_disabled":false,"rental_uris":{"android":"levelo://app?vid=eca8f630-3c82-4adc-91ac-e7f692c4d06a","ios":"levelo://app?vid=eca8f630-3c82-4adc-91ac-e7f692c4d06a"},"vehicle_type_id":"4","last_reported":1731791223,"current_range_meters":10800,"station_id":"ce4bgi12rcd13ifvqb70","pricing_plan_id":"cebpf4jnsgd1na2vs0mg"},{"bike_id":"d0f41db2-5ef1-497c-893a-cd42bc49abfe","system_id":"levelo_inurba_marseille","lat":43.29455,"lon":5.3881,"is_reserved":false,"is_disabled":false,"rental_uris":{"android":"levelo://app?vid=d0f41db2-5ef1-497c-893a-cd42bc49abfe","ios":"levelo://app?vid=d0f41db2-5ef1-497c-893a-cd42bc49abfe"},"vehicle_type_id":"4","last_reported":1731791223,"current_range_meters":2800,"station_id":"","pricing_plan_id":"cebpf4jnsgd1na2vs0mg"},{"bike_id":"6bbf2659-8937-498f-bfe3-9c4da1857591","system_id":"levelo_inurba_marseille","lat":43.30309,"lon":5.36902,"is_reserved":false,"is_disabled":false,"rental_uris":{"android":"levelo://app?vid=6bbf2659-8937-498f-bfe3-9c4da1857591","ios":"levelo://app?vid=6bbf2659-8937-498f-bfe3-9c4da1857591"},"vehicle_type_id":"4","last_reported":1731791223,"current_range_meters":16400,"station_id":"ce4bgqh2rcd13ifvqc5g","pricing_plan_id":"cebpf4jnsgd1na2vs0mg"},{"bike_id":"461b8f01-20f2-4b5b-be2f-179315653034","system_id":"levelo_inurba_marseille","lat":43.27071,"lon":5.42277,"is_reserved":false,"is_disabled":false,"rental_uris":{"android":"levelo://app?vid=461b8f01-20f2-4b5b-be2f-179315653034","ios":"levelo://app?vid=461b8f01-20f2-4b5b-be2f-179315653034"},"vehicle_type_id":"4","last_reported":1731791223,"current_range_meters":28000,"station_id":"ce4bhk92rcd13ifvqgb0","pricing_plan_id":"cebpf4jnsgd1na2vs0mg"},{"bike_id":"3361414f-d1c9-4b52-abe5-f2b586dff41e","system_id":"levelo_inurba_marseille","lat":43.28573,"lon":5.39493,"is_reserved":false,"is_disabled":false,"rental_uris":{"android":"levelo://app?vid=3361414f-d1c9-4b52-abe5-f2b586dff41e","ios":"levelo://app?vid=3361414f-d1c9-4b52-abe5-f2b586dff41e"},"vehicle_type_id":"4","last_reported":1731791223,"current_range_meters":33600,"station_id":"ce4bh292rcd13ifvqdg0","pricing_plan_id":"cebpf4jnsgd1na2vs0mg"},{"bike_id":"12867844-fa2a-41b2-8d74-706d4ef15909","system_id":"levelo_inurba_marseille","lat":43.3376,"lon":5.37433,"is_reserved":false,"is_disabled":false,"rental_uris":{"android":"levelo://app?vid=12867844-fa2a-41b2-8d74-706d4ef15909","ios":"levelo://app?vid=12867844-fa2a-41b2-8d74-706d4ef15909"},"vehicle_type_id":"4","last_reported":1731791223,"current_range_meters":36800,"station_id":"","pricing_plan_id":"cebpf4jnsgd1na2vs0mg"},{"bike_id":"3455c789-2e35-4152-8de0-fa613ba872df","system_id":"levelo_inurba_marseille","lat":43.32363,"lon":5.38883,"is_reserved":false,"is_disabled":false,"rental_uris":{"android":"levelo://app?vid=3455c789-2e35-4152-8de0-fa613ba872df","ios":"levelo://app?vid=3455c789-2e35-4152-8de0-fa613ba872df"},"vehicle_type_id":"4","last_reported":1731791223,"current_range_meters":36400,"station_id":"ce4bhqp2rcd13ifvqhog","pricing_plan_id":"cebpf4jnsgd1na2vs0mg"},{"bike_id":"11b5a30d-31d5-4da0-8151-2d9df3456845","system_id":"levelo_inurba_marseille","lat":43.29416,"lon":5.38621,"is_reserved":false,"is_disabled":false,"rental_uris":{"android":"levelo://app?vid=11b5a30d-31d5-4da0-8151-2d9df3456845","ios":"levelo://app?vid=11b5a30d-31d5-4da0-8151-2d9df3456845"},"vehicle_type_id":"4","last_reported":1731791223,"current_range_meters":2000,"station_id":"ce4bh2h2rcd13ifvqdh0","pricing_plan_id":"cebpf4jnsgd1na2vs0mg"},{"bike_id":"fe734cae-2bee-46e8-b56e-e78538f27304","system_id":"levelo_inurba_marseille","lat":43.31164,"lon":5.38719,"is_reserved":false,"is_disabled":false,"rental_uris":{"android":"levelo://app?vid=fe734cae-2bee-46e8-b56e-e78538f27304","ios":"levelo://app?vid=fe734cae-2bee-46e8-b56e-e78538f27304"},"vehicle_type_id":"4","last_reported":1731791223,"current_range_meters":38800,"station_id":"ce4bgv12rcd13ifvqcp0","pricing_plan_id":"cebpf4jnsgd1na2vs0mg"},{"bike_id":"8631f2c5-135f-4c26-b729-19ac64347105","system_id":"levelo_inurba_marseille","lat":43.2904,"lon":5.3996,"is_reserved":false,"is_disabled":false,"rental_uris":{"android":"levelo://app?vid=8631f2c5-135f-4c26-b729-19ac64347105","ios":"levelo://app?vid=8631f2c5-135f-4c26-b729-19ac64347105"},"vehicle_type_id":"4","last_reported":1731791223,"current_range_meters":35600,"station_id":"ce4bh392rcd13ifvqdm0","pricing_plan_id":"cebpf4jnsgd1na2vs0mg"},{"bike_id":"c204da91-9bfb-4138-8a76-290657d1511e","system_id":"levelo_inurba_marseille","lat":43.29266,"lon":5.38443,"is_reserved":false,"is_disabled":false,"rental_uris":{"android":"levelo://app?vid=c204da91-9bfb-4138-8a76-290657d1511e","ios":"levelo://app?vid=c204da91-9bfb-4138-8a76-290657d1511e"},"vehicle_type_id":"4","last_reported":1731791223,"current_range_meters":12000,"station_id":"ce4bh692rcd13ifvqea0","pricing_plan_id":"cebpf4jnsgd1na2vs0mg"},{"bike_id":"e6e9757d-5a69-4d1a-bbb2-7a5d26ce265f","system_id":"levelo_inurba_marseille","lat":43.26563,"lon":5.39008,"is_reserved":false,"is_disabled":false,"rental_uris":{"android":"levelo://app?vid=e6e9757d-5a69-4d1a-bbb2-7a5d26ce265f","ios":"levelo://app?vid=e6e9757d-5a69-4d1a-bbb2-7a5d26ce265f"},"vehicle_type_id":"4","last_reported":1731791223,"current_range_meters":17600,"station_id":"ce4bhe12rcd13ifvqf30","pricing_plan_id":"cebpf4jnsgd1na2vs0mg"},{"bike_id":"89dddfc4-ec44-4327-b3aa-c350546d94f0","system_id":"levelo_inurba_marseille","lat":43.24814,"lon":5.3746,"is_reserved":false,"is_disabled":false,"rental_uris":{"android":"levelo://app?vid=89dddfc4-ec44-4327-b3aa-c350546d94f0","ios":"levelo://app?vid=89dddfc4-ec44-4327-b3aa-c350546d94f0"},"vehicle_type_id":"4","last_reported":1731791223,"current_range_meters":38800,"station_id":"ce4bhgh2rcd13ifvqfb0","pricing_plan_id":"cebpf4jnsgd1na2vs0mg"},{"bike_id":"b4f0c3a0-9b14-4375-8e12-6df631be02a7","system_id":"levelo_inurba_marseille","lat":43.27374,"lon":5.36255,"is_reserved":false,"is_disabled":false,"rental_uris":{"android":"levelo://app?vid=b4f0c3a0-9b14-4375-8e12-6df631be02a7","ios":"levelo://app?vid=b4f0c3a0-9b14-4375-8e12-6df631be02a7"},"vehicle_type_id":"4","last_reported":1731791223,"current_range_meters":38400,"station_id":"ce4bhbh2rcd13ifvqeo0","pricing_plan_id":"cebpf4jnsgd1na2vs0mg"},{"bike_id":"5d5505be-3a03-4d64-8ce2-797d9a3b3a5b","system_id":"levelo_inurba_marseille","lat":43.27813,"lon":5.40715,"is_reserved":false,"is_disabled":false,"rental_uris":{"android":"levelo://app?vid=5d5505be-3a03-4d64-8ce2-797d9a3b3a5b","ios":"levelo://app?vid=5d5505be-3a03-4d64-8ce2-797d9a3b3a5b"},"vehicle_type_id":"4","last_reported":1731791223,"current_range_meters":20000,"station_id":"ce4bhnh2rcd13ifvqgtg","pricing_plan_id":"cebpf4jnsgd1na2vs0mg"},{"bike_id":"6b76da8b-8346-4b5f-a49b-cdde5bffd08b","system_id":"levelo_inurba_marseille","lat":43.278185,"lon":5.407113,"is_reserved":false,"is_disabled":false,"rental_uris":{"android":"levelo://app?vid=6b76da8b-8346-4b5f-a49b-cdde5bffd08b","ios":"levelo://app?vid=6b76da8b-8346-4b5f-a49b-cdde5bffd08b"},"vehicle_type_id":"4","last_reported":1731791223,"current_range_meters":38800,"station_id":"ce4bhnh2rcd13ifvqgtg","pricing_plan_id":"cebpf4jnsgd1na2vs0mg"},{"bike_id":"39738305-7515-480c-a87b-e12a9743dd1a","system_id":"levelo_inurba_marseille","lat":43.28657,"lon":5.36352,"is_reserved":false,"is_disabled":false,"rental_uris":{"android":"levelo://app?vid=39738305-7515-480c-a87b-e12a9743dd1a","ios":"levelo://app?vid=39738305-7515-480c-a87b-e12a9743dd1a"},"vehicle_type_id":"4","last_reported":1731791223,"current_range_meters":23200,"station_id":"ce4bhah2rcd13ifvqej0","pricing_plan_id":"cebpf4jnsgd1na2vs0mg"},{"bike_id":"dec88b82-5e4b-42ee-8124-7a33d98cd88b","system_id":"levelo_inurba_marseille","lat":43.31084,"lon":5.40071,"is_reserved":false,"is_disabled":false,"rental_uris":{"android":"levelo://app?vid=dec88b82-5e4b-42ee-8124-7a33d98cd88b","ios":"levelo://app?vid=dec88b82-5e4b-42ee-8124-7a33d98cd88b"},"vehicle_type_id":"4","last_reported":1731791223,"current_range_meters":35600,"station_id":"ce4bhpp2rcd13ifvqhgg","pricing_plan_id":"cebpf4jnsgd1na2vs0mg"},{"bike_id":"baffc865-24a9-4285-b55a-b0850c7fb732","system_id":"levelo_inurba_marseille","lat":43.30423,"lon":5.38904,"is_reserved":false,"is_disabled":false,"rental_uris":{"android":"levelo://app?vid=baffc865-24a9-4285-b55a-b0850c7fb732","ios":"levelo://app?vid=baffc865-24a9-4285-b55a-b0850c7fb732"},"vehicle_type_id":"4","last_reported":1731791223,"current_range_meters":19600,"station_id":"ce4bgk12rcd13ifvqbi0","pricing_plan_id":"cebpf4jnsgd1na2vs0mg"},{"bike_id":"3997aca1-4804-4c65-bee8-764a9c6f2647","system_id":"levelo_inurba_marseille","lat":43.2872,"lon":5.3793,"is_reserved":false,"is_disabled":false,"rental_uris":{"android":"levelo://app?vid=3997aca1-4804-4c65-bee8-764a9c6f2647","ios":"levelo://app?vid=3997aca1-4804-4c65-bee8-764a9c6f2647"},"vehicle_type_id":"4","last_reported":1731791223,"current_range_meters":8400,"station_id":"ce4bh9p2rcd13ifvqec0","pricing_plan_id":"cebpf4jnsgd1na2vs0mg"},{"bike_id":"229a21f3-e57e-48a7-b1f1-ad0d31f9767a","system_id":"levelo_inurba_marseille","lat":43.24668,"lon":5.38164,"is_reserved":false,"is_disabled":false,"rental_uris":{"android":"levelo://app?vid=229a21f3-e57e-48a7-b1f1-ad0d31f9767a","ios":"levelo://app?vid=229a21f3-e57e-48a7-b1f1-ad0d31f9767a"},"vehicle_type_id":"4","last_reported":1731791223,"current_range_meters":8800,"station_id":"ce4bhih2rcd13ifvqfr0","pricing_plan_id":"cebpf4jnsgd1na2vs0mg"},{"bike_id":"70ca91eb-54e3-4a32-9ad8-0c7769e10c55","system_id":"levelo_inurba_marseille","lat":43.29789,"lon":5.39336,"is_reserved":false,"is_disabled":false,"rental_uris":{"android":"levelo://app?vid=70ca91eb-54e3-4a32-9ad8-0c7769e10c55","ios":"levelo://app?vid=70ca91eb-54e3-4a32-9ad8-0c7769e10c55"},"vehicle_type_id":"4","last_reported":1731791223,"current_range_meters":38800,"station_id":"chh1huq6cuj3fo74tm60","pricing_plan_id":"cebpf4jnsgd1na2vs0mg"},{"bike_id":"74da8a48-aba6-4d7f-bab7-bca75bb169ca","system_id":"levelo_inurba_marseille","lat":43.29034,"lon":5.38637,"is_reserved":false,"is_disabled":false,"rental_uris":{"android":"levelo://app?vid=74da8a48-aba6-4d7f-bab7-bca75bb169ca","ios":"levelo://app?vid=74da8a48-aba6-4d7f-bab7-bca75bb169ca"},"vehicle_type_id":"4","last_reported":1731791223,"current_range_meters":39200,"station_id":"ce4bh4p2rcd13ifvqe0g","pricing_plan_id":"cebpf4jnsgd1na2vs0mg"},{"bike_id":"e47cb853-ad63-404c-824d-56990a78d54e","system_id":"levelo_inurba_marseille","lat":43.308655,"lon":5.391817,"is_reserved":false,"is_disabled":false,"rental_uris":{"android":"levelo://app?vid=e47cb853-ad63-404c-824d-56990a78d54e","ios":"levelo://app?vid=e47cb853-ad63-404c-824d-56990a78d54e"},"vehicle_type_id":"4","last_reported":1731791223,"current_range_meters":25200,"station_id":"ce4bgup2rcd13ifvqco0","pricing_plan_id":"cebpf4jnsgd1na2vs0mg"},{"bike_id":"aac4a11e-78b9-47b9-a707-f636758c0e68","system_id":"levelo_inurba_marseille","lat":43.32108,"lon":5.36767,"is_reserved":false,"is_disabled":false,"rental_uris":{"android":"levelo://app?vid=aac4a11e-78b9-47b9-a707-f636758c0e68","ios":"levelo://app?vid=aac4a11e-78b9-47b9-a707-f636758c0e68"},"vehicle_type_id":"4","last_reported":1731791223,"current_range_meters":35600,"station_id":"ce4bhrh2rcd13ifvqhug","pricing_plan_id":"cebpf4jnsgd1na2vs0mg"},{"bike_id":"a700c3bb-0eef-4528-b9b6-2a443bdb0803","system_id":"levelo_inurba_marseille","lat":43.28614,"lon":5.35106,"is_reserved":false,"is_disabled":false,"rental_uris":{"android":"levelo://app?vid=a700c3bb-0eef-4528-b9b6-2a443bdb0803","ios":"levelo://app?vid=a700c3bb-0eef-4528-b9b6-2a443bdb0803"},"vehicle_type_id":"4","last_reported":1731791223,"current_range_meters":22400,"station_id":"ce4bhch2rcd13ifvqeug","pricing_plan_id":"cebpf4jnsgd1na2vs0mg"},{"bike_id":"c31f9e98-fa8f-4eb1-b096-1c7859065d15","system_id":"levelo_inurba_marseille","lat":43.31885,"lon":5.40726,"is_reserved":false,"is_disabled":false,"rental_uris":{"android":"levelo://app?vid=c31f9e98-fa8f-4eb1-b096-1c7859065d15","ios":"levelo://app?vid=c31f9e98-fa8f-4eb1-b096-1c7859065d15"},"vehicle_type_id":"4","last_reported":1731791223,"current_range_meters":38000,"station_id":"ce4bhq12rcd13ifvqhig","pricing_plan_id":"cebpf4jnsgd1na2vs0mg"},{"bike_id":"0cb31435-f2c3-4f3a-8687-c53eeaadbc2b","system_id":"levelo_inurba_marseille","lat":43.299643,"lon":5.38484,"is_reserved":false,"is_disabled":false,"rental_uris":{"android":"levelo://app?vid=0cb31435-f2c3-4f3a-8687-c53eeaadbc2b","ios":"levelo://app?vid=0cb31435-f2c3-4f3a-8687-c53eeaadbc2b"},"vehicle_type_id":"4","last_reported":1731791223,"current_range_meters":32000,"station_id":"ce4bgj92rcd13ifvqbd0","pricing_plan_id":"cebpf4jnsgd1na2vs0mg"},{"bike_id":"76702ce0-92fb-4f14-9f1c-6bfe77dc62cb","system_id":"levelo_inurba_marseille","lat":43.29525,"lon":5.38534,"is_reserved":false,"is_disabled":false,"rental_uris":{"android":"levelo://app?vid=76702ce0-92fb-4f14-9f1c-6bfe77dc62cb","ios":"levelo://app?vid=76702ce0-92fb-4f14-9f1c-6bfe77dc62cb"},"vehicle_type_id":"4","last_reported":1731791223,"current_range_meters":22000,"station_id":"ce4bgih2rcd13ifvqba0","pricing_plan_id":"cebpf4jnsgd1na2vs0mg"},{"bike_id":"fd3a2ced-8e47-42a1-90a9-56977da88fa5","system_id":"levelo_inurba_marseille","lat":43.29801,"lon":5.40414,"is_reserved":false,"is_disabled":false,"rental_uris":{"android":"levelo://app?vid=fd3a2ced-8e47-42a1-90a9-56977da88fa5","ios":"levelo://app?vid=fd3a2ced-8e47-42a1-90a9-56977da88fa5"},"vehicle_type_id":"4","last_reported":1731791223,"current_range_meters":37600,"station_id":"ce4bh112rcd13ifvqd90","pricing_plan_id":"cebpf4jnsgd1na2vs0mg"},{"bike_id":"08586d67-74a4-4b66-9b20-38b225f131c4","system_id":"levelo_inurba_marseille","lat":43.24663,"lon":5.38166,"is_reserved":false,"is_disabled":false,"rental_uris":{"android":"levelo://app?vid=08586d67-74a4-4b66-9b20-38b225f131c4","ios":"levelo://app?vid=08586d67-74a4-4b66-9b20-38b225f131c4"},"vehicle_type_id":"4","last_reported":1731791223,"current_range_meters":12000,"station_id":"ce4bhih2rcd13ifvqfr0","pricing_plan_id":"cebpf4jnsgd1na2vs0mg"},{"bike_id":"22729281-a652-4d0e-9935-de91a5d586ea","system_id":"levelo_inurba_marseille","lat":43.32039,"lon":5.41555,"is_reserved":false,"is_disabled":false,"rental_uris":{"android":"levelo://app?vid=22729281-a652-4d0e-9935-de91a5d586ea","ios":"levelo://app?vid=22729281-a652-4d0e-9935-de91a5d586ea"},"vehicle_type_id":"4","last_reported":1731791223,"current_range_meters":14800,"station_id":"ce4bhq92rcd13ifvqhkg","pricing_plan_id":"cebpf4jnsgd1na2vs0mg"},{"bike_id":"34f822c8-9b0a-4c4a-880b-89c4d5074865","system_id":"levelo_inurba_marseille","lat":43.28726,"lon":5.37937,"is_reserved":false,"is_disabled":false,"rental_uris":{"android":"levelo://app?vid=34f822c8-9b0a-4c4a-880b-89c4d5074865","ios":"levelo://app?vid=34f822c8-9b0a-4c4a-880b-89c4d5074865"},"vehicle_type_id":"4","last_reported":1731791223,"current_range_meters":26800,"station_id":"ce4bh9p2rcd13ifvqec0","pricing_plan_id":"cebpf4jnsgd1na2vs0mg"},{"bike_id":"9f92a7ac-738d-40f9-93b9-933c1f0ff525","system_id":"levelo_inurba_marseille","lat":43.32369,"lon":5.38885,"is_reserved":false,"is_disabled":false,"rental_uris":{"android":"levelo://app?vid=9f92a7ac-738d-40f9-93b9-933c1f0ff525","ios":"levelo://app?vid=9f92a7ac-738d-40f9-93b9-933c1f0ff525"},"vehicle_type_id":"4","last_reported":1731791223,"current_range_meters":23200,"station_id":"ce4bhqp2rcd13ifvqhog","pricing_plan_id":"cebpf4jnsgd1na2vs0mg"},{"bike_id":"53ef7869-1eba-4161-bb62-e938f80efd5a","system_id":"levelo_inurba_marseille","lat":43.28707,"lon":5.39988,"is_reserved":false,"is_disabled":false,"rental_uris":{"android":"levelo://app?vid=53ef7869-1eba-4161-bb62-e938f80efd5a","ios":"levelo://app?vid=53ef7869-1eba-4161-bb62-e938f80efd5a"},"vehicle_type_id":"4","last_reported":1731791223,"current_range_meters":26800,"station_id":"ce4bho92rcd13ifvqh3g","pricing_plan_id":"cebpf4jnsgd1na2vs0mg"},{"bike_id":"a06a46ac-98f8-4c59-8eaf-f414043da4f0","system_id":"levelo_inurba_marseille","lat":43.29419,"lon":5.38619,"is_reserved":false,"is_disabled":false,"rental_uris":{"android":"levelo://app?vid=a06a46ac-98f8-4c59-8eaf-f414043da4f0","ios":"levelo://app?vid=a06a46ac-98f8-4c59-8eaf-f414043da4f0"},"vehicle_type_id":"4","last_reported":1731791223,"current_range_meters":22800,"station_id":"ce4bh2h2rcd13ifvqdh0","pricing_plan_id":"cebpf4jnsgd1na2vs0mg"},{"bike_id":"15eaff80-5f21-4d58-8759-c993eda360b6","system_id":"levelo_inurba_marseille","lat":43.24164,"lon":5.36393,"is_reserved":false,"is_disabled":false,"rental_uris":{"android":"levelo://app?vid=15eaff80-5f21-4d58-8759-c993eda360b6","ios":"levelo://app?vid=15eaff80-5f21-4d58-8759-c993eda360b6"},"vehicle_type_id":"4","last_reported":1731791223,"current_range_meters":38800,"station_id":"cpo36qri1sfpv3e86is0","pricing_plan_id":"cebpf4jnsgd1na2vs0mg"},{"bike_id":"0073972d-a935-4059-b97f-8dd9efd6a6bc","system_id":"levelo_inurba_marseille","lat":43.29933,"lon":5.3653,"is_reserved":false,"is_disabled":false,"rental_uris":{"android":"levelo://app?vid=0073972d-a935-4059-b97f-8dd9efd6a6bc","ios":"levelo://app?vid=0073972d-a935-4059-b97f-8dd9efd6a6bc"},"vehicle_type_id":"4","last_reported":1731791223,"current_range_meters":38000,"station_id":"ce4bgm92rcd13ifvqbr0","pricing_plan_id":"cebpf4jnsgd1na2vs0mg"},{"bike_id":"3d4ac7a4-e488-4df8-a956-4da8057189bb","system_id":"levelo_inurba_marseille","lat":43.29535,"lon":5.3855,"is_reserved":false,"is_disabled":false,"rental_uris":{"android":"levelo://app?vid=3d4ac7a4-e488-4df8-a956-4da8057189bb","ios":"levelo://app?vid=3d4ac7a4-e488-4df8-a956-4da8057189bb"},"vehicle_type_id":"4","last_reported":1731791223,"current_range_meters":22000,"station_id":"ce4bgih2rcd13ifvqba0","pricing_plan_id":"cebpf4jnsgd1na2vs0mg"},{"bike_id":"d54f2dfa-2ad2-469a-8720-163ef98eb87d","system_id":"levelo_inurba_marseille","lat":43.25086,"lon":5.3951,"is_reserved":false,"is_disabled":false,"rental_uris":{"android":"levelo://app?vid=d54f2dfa-2ad2-469a-8720-163ef98eb87d","ios":"levelo://app?vid=d54f2dfa-2ad2-469a-8720-163ef98eb87d"},"vehicle_type_id":"4","last_reported":1731791223,"current_range_meters":22000,"station_id":"ce4bhm12rcd13ifvqgkg","pricing_plan_id":"cebpf4jnsgd1na2vs0mg"},{"bike_id":"a9cfb6a0-c3e0-4a3a-a448-63e7bbeb6e92","system_id":"levelo_inurba_marseille","lat":43.2926,"lon":5.38432,"is_reserved":false,"is_disabled":false,"rental_uris":{"android":"levelo://app?vid=a9cfb6a0-c3e0-4a3a-a448-63e7bbeb6e92","ios":"levelo://app?vid=a9cfb6a0-c3e0-4a3a-a448-63e7bbeb6e92"},"vehicle_type_id":"4","last_reported":1731791223,"current_range_meters":38800,"station_id":"ce4bh692rcd13ifvqea0","pricing_plan_id":"cebpf4jnsgd1na2vs0mg"},{"bike_id":"6d757fef-4f26-43f9-ac2c-ffab39bf7dae","system_id":"levelo_inurba_marseille","lat":43.32249,"lon":5.36901,"is_reserved":false,"is_disabled":false,"rental_uris":{"android":"levelo://app?vid=6d757fef-4f26-43f9-ac2c-ffab39bf7dae","ios":"levelo://app?vid=6d757fef-4f26-43f9-ac2c-ffab39bf7dae"},"vehicle_type_id":"4","last_reported":1731791223,"current_range_meters":18000,"station_id":"","pricing_plan_id":"cebpf4jnsgd1na2vs0mg"},{"bike_id":"d61ade2d-2a62-45c7-aa0c-ad3400ec0ddf","system_id":"levelo_inurba_marseille","lat":43.29555,"lon":5.42292,"is_reserved":false,"is_disabled":false,"rental_uris":{"android":"levelo://app?vid=d61ade2d-2a62-45c7-aa0c-ad3400ec0ddf","ios":"levelo://app?vid=d61ade2d-2a62-45c7-aa0c-ad3400ec0ddf"},"vehicle_type_id":"4","last_reported":1731791223,"current_range_meters":38800,"station_id":"ce4bhph2rcd13ifvqhdg","pricing_plan_id":"cebpf4jnsgd1na2vs0mg"},{"bike_id":"63d70b2c-d5c8-43c8-bc41-ffa1ecde2154","system_id":"levelo_inurba_marseille","lat":43.30134,"lon":5.3742,"is_reserved":false,"is_disabled":false,"rental_uris":{"android":"levelo://app?vid=63d70b2c-d5c8-43c8-bc41-ffa1ecde2154","ios":"levelo://app?vid=63d70b2c-d5c8-43c8-bc41-ffa1ecde2154"},"vehicle_type_id":"4","last_reported":1731791223,"current_range_meters":10000,"station_id":"ce4bgs92rcd13ifvqcc0","pricing_plan_id":"cebpf4jnsgd1na2vs0mg"},{"bike_id":"f6de490b-cefd-464b-bd8d-c908b2ff30fa","system_id":"levelo_inurba_marseille","lat":43.29314,"lon":5.37167,"is_reserved":false,"is_disabled":false,"rental_uris":{"android":"levelo://app?vid=f6de490b-cefd-464b-bd8d-c908b2ff30fa","ios":"levelo://app?vid=f6de490b-cefd-464b-bd8d-c908b2ff30fa"},"vehicle_type_id":"4","last_reported":1731791223,"current_range_meters":38400,"station_id":"ce4bgh92rcd13ifvqb40","pricing_plan_id":"cebpf4jnsgd1na2vs0mg"},{"bike_id":"f9ad07dd-9750-49b0-b9f2-a72d17cceaeb","system_id":"levelo_inurba_marseille","lat":43.29703,"lon":5.36599,"is_reserved":false,"is_disabled":false,"rental_uris":{"android":"levelo://app?vid=f9ad07dd-9750-49b0-b9f2-a72d17cceaeb","ios":"levelo://app?vid=f9ad07dd-9750-49b0-b9f2-a72d17cceaeb"},"vehicle_type_id":"4","last_reported":1731791223,"current_range_meters":38000,"station_id":"ce4bgn12rcd13ifvqbt0","pricing_plan_id":"cebpf4jnsgd1na2vs0mg"},{"bike_id":"ac8f50b0-40d9-47b2-95c0-f75aa3c61094","system_id":"levelo_inurba_marseille","lat":43.27314,"lon":5.39089,"is_reserved":false,"is_disabled":false,"rental_uris":{"android":"levelo://app?vid=ac8f50b0-40d9-47b2-95c0-f75aa3c61094","ios":"levelo://app?vid=ac8f50b0-40d9-47b2-95c0-f75aa3c61094"},"vehicle_type_id":"4","last_reported":1731791223,"current_range_meters":34800,"station_id":"ce4bhgp2rcd13ifvqfe0","pricing_plan_id":"cebpf4jnsgd1na2vs0mg"},{"bike_id":"38d7c5f6-d86a-479c-b008-f3af3d3c7c38","system_id":"levelo_inurba_marseille","lat":43.29618,"lon":5.37154,"is_reserved":false,"is_disabled":false,"rental_uris":{"android":"levelo://app?vid=38d7c5f6-d86a-479c-b008-f3af3d3c7c38","ios":"levelo://app?vid=38d7c5f6-d86a-479c-b008-f3af3d3c7c38"},"vehicle_type_id":"4","last_reported":1731791223,"current_range_meters":18800,"station_id":"ce4bgnh2rcd13ifvqc0g","pricing_plan_id":"cebpf4jnsgd1na2vs0mg"},{"bike_id":"3cb028b2-e9b4-4b5d-869e-e3723400af16","system_id":"levelo_inurba_marseille","lat":43.33024,"lon":5.39042,"is_reserved":false,"is_disabled":false,"rental_uris":{"android":"levelo://app?vid=3cb028b2-e9b4-4b5d-869e-e3723400af16","ios":"levelo://app?vid=3cb028b2-e9b4-4b5d-869e-e3723400af16"},"vehicle_type_id":"4","last_reported":1731791223,"current_range_meters":36000,"station_id":"ce4bhr92rcd13ifvqhrg","pricing_plan_id":"cebpf4jnsgd1na2vs0mg"},{"bike_id":"0ff43e2d-1432-4376-872d-198de1fdff0b","system_id":"levelo_inurba_marseille","lat":43.29277,"lon":5.40116,"is_reserved":false,"is_disabled":false,"rental_uris":{"android":"levelo://app?vid=0ff43e2d-1432-4376-872d-198de1fdff0b","ios":"levelo://app?vid=0ff43e2d-1432-4376-872d-198de1fdff0b"},"vehicle_type_id":"4","last_reported":1731791223,"current_range_meters":26000,"station_id":"ce4bh312rcd13ifvqdk0","pricing_plan_id":"cebpf4jnsgd1na2vs0mg"},{"bike_id":"3463f55e-bd13-4f74-a35c-67c7e21c2348","system_id":"levelo_inurba_marseille","lat":43.287109,"lon":5.377035,"is_reserved":false,"is_disabled":false,"rental_uris":{"android":"levelo://app?vid=3463f55e-bd13-4f74-a35c-67c7e21c2348","ios":"levelo://app?vid=3463f55e-bd13-4f74-a35c-67c7e21c2348"},"vehicle_type_id":"4","last_reported":1731791223,"current_range_meters":25600,"station_id":"","pricing_plan_id":"cebpf4jnsgd1na2vs0mg"},{"bike_id":"8a485606-2884-4480-b7ef-6988528b4cd6","system_id":"levelo_inurba_marseille","lat":43.30505,"lon":5.38087,"is_reserved":false,"is_disabled":false,"rental_uris":{"android":"levelo://app?vid=8a485606-2884-4480-b7ef-6988528b4cd6","ios":"levelo://app?vid=8a485606-2884-4480-b7ef-6988528b4cd6"},"vehicle_type_id":"4","last_reported":1731791223,"current_range_meters":18000,"station_id":"","pricing_plan_id":"cebpf4jnsgd1na2vs0mg"},{"bike_id":"a4e8e96c-867e-4521-9861-087b3f6c78bd","system_id":"levelo_inurba_marseille","lat":43.24994,"lon":5.38928,"is_reserved":false,"is_disabled":false,"rental_uris":{"android":"levelo://app?vid=a4e8e96c-867e-4521-9861-087b3f6c78bd","ios":"levelo://app?vid=a4e8e96c-867e-4521-9861-087b3f6c78bd"},"vehicle_type_id":"4","last_reported":1731791223,"current_range_meters":38800,"station_id":"ce4bhgp2rcd13ifvqfd0","pricing_plan_id":"cebpf4jnsgd1na2vs0mg"},{"bike_id":"1ece79d9-7ffd-41b5-a656-cdbcd837990c","system_id":"levelo_inurba_marseille","lat":43.32104,"lon":5.36771,"is_reserved":false,"is_disabled":false,"rental_uris":{"android":"levelo://app?vid=1ece79d9-7ffd-41b5-a656-cdbcd837990c","ios":"levelo://app?vid=1ece79d9-7ffd-41b5-a656-cdbcd837990c"},"vehicle_type_id":"4","last_reported":1731791223,"current_range_meters":14000,"station_id":"ce4bhrh2rcd13ifvqhug","pricing_plan_id":"cebpf4jnsgd1na2vs0mg"},{"bike_id":"34086fed-aa86-4e74-a4e7-9fb1ff2b340d","system_id":"levelo_inurba_marseille","lat":43.27178,"lon":5.40991,"is_reserved":false,"is_disabled":false,"rental_uris":{"android":"levelo://app?vid=34086fed-aa86-4e74-a4e7-9fb1ff2b340d","ios":"levelo://app?vid=34086fed-aa86-4e74-a4e7-9fb1ff2b340d"},"vehicle_type_id":"4","last_reported":1731791223,"current_range_meters":38400,"station_id":"ce4bhl12rcd13ifvqgf0","pricing_plan_id":"cebpf4jnsgd1na2vs0mg"},{"bike_id":"91211812-0a39-4027-a4d0-40d27d5846af","system_id":"levelo_inurba_marseille","lat":43.23965,"lon":5.36627,"is_reserved":false,"is_disabled":false,"rental_uris":{"android":"levelo://app?vid=91211812-0a39-4027-a4d0-40d27d5846af","ios":"levelo://app?vid=91211812-0a39-4027-a4d0-40d27d5846af"},"vehicle_type_id":"4","last_reported":1731791223,"current_range_meters":4400,"station_id":"ce4bhi12rcd13ifvqfp0","pricing_plan_id":"cebpf4jnsgd1na2vs0mg"},{"bike_id":"e5ffa32f-8c2c-4891-bd03-aea63bb2ea00","system_id":"levelo_inurba_marseille","lat":43.2958,"lon":5.39963,"is_reserved":false,"is_disabled":false,"rental_uris":{"android":"levelo://app?vid=e5ffa32f-8c2c-4891-bd03-aea63bb2ea00","ios":"levelo://app?vid=e5ffa32f-8c2c-4891-bd03-aea63bb2ea00"},"vehicle_type_id":"4","last_reported":1731791223,"current_range_meters":14400,"station_id":"ce4bh312rcd13ifvqdj0","pricing_plan_id":"cebpf4jnsgd1na2vs0mg"},{"bike_id":"9b99e18b-1cfb-49eb-9130-93a7c80e7907","system_id":"levelo_inurba_marseille","lat":43.24998,"lon":5.38925,"is_reserved":false,"is_disabled":false,"rental_uris":{"android":"levelo://app?vid=9b99e18b-1cfb-49eb-9130-93a7c80e7907","ios":"levelo://app?vid=9b99e18b-1cfb-49eb-9130-93a7c80e7907"},"vehicle_type_id":"4","last_reported":1731791223,"current_range_meters":38400,"station_id":"ce4bhgp2rcd13ifvqfd0","pricing_plan_id":"cebpf4jnsgd1na2vs0mg"},{"bike_id":"4f9aec25-ebfb-43bb-9e44-97a8b551a896","system_id":"levelo_inurba_marseille","lat":43.28724,"lon":5.37935,"is_reserved":false,"is_disabled":false,"rental_uris":{"android":"levelo://app?vid=4f9aec25-ebfb-43bb-9e44-97a8b551a896","ios":"levelo://app?vid=4f9aec25-ebfb-43bb-9e44-97a8b551a896"},"vehicle_type_id":"4","last_reported":1731791223,"current_range_meters":24400,"station_id":"ce4bh9p2rcd13ifvqec0","pricing_plan_id":"cebpf4jnsgd1na2vs0mg"},{"bike_id":"d4cf1962-c4fc-4987-82ad-e066e34a5012","system_id":"levelo_inurba_marseille","lat":43.34148,"lon":5.4091,"is_reserved":false,"is_disabled":false,"rental_uris":{"android":"levelo://app?vid=d4cf1962-c4fc-4987-82ad-e066e34a5012","ios":"levelo://app?vid=d4cf1962-c4fc-4987-82ad-e066e34a5012"},"vehicle_type_id":"4","last_reported":1731791223,"current_range_meters":38400,"station_id":"ce4bhqh2rcd13ifvqhlg","pricing_plan_id":"cebpf4jnsgd1na2vs0mg"},{"bike_id":"0876f4fa-3b80-4ef8-a397-bcdc65be4124","system_id":"levelo_inurba_marseille","lat":43.29888,"lon":5.43659,"is_reserved":false,"is_disabled":false,"rental_uris":{"android":"levelo://app?vid=0876f4fa-3b80-4ef8-a397-bcdc65be4124","ios":"levelo://app?vid=0876f4fa-3b80-4ef8-a397-bcdc65be4124"},"vehicle_type_id":"4","last_reported":1731791223,"current_range_meters":37600,"station_id":"ce4bhpp2rcd13ifvqhfg","pricing_plan_id":"cebpf4jnsgd1na2vs0mg"},{"bike_id":"55de28cf-e37c-4724-b81f-8a648780c5b9","system_id":"levelo_inurba_marseille","lat":43.23194,"lon":5.35549,"is_reserved":false,"is_disabled":false,"rental_uris":{"android":"levelo://app?vid=55de28cf-e37c-4724-b81f-8a648780c5b9","ios":"levelo://app?vid=55de28cf-e37c-4724-b81f-8a648780c5b9"},"vehicle_type_id":"4","last_reported":1731791223,"current_range_meters":38000,"station_id":"ce4bhu92rcd13ifvqi70","pricing_plan_id":"cebpf4jnsgd1na2vs0mg"},{"bike_id":"a69e25b5-614d-49f2-bc63-e4f5590313ff","system_id":"levelo_inurba_marseille","lat":43.2903,"lon":5.3865,"is_reserved":false,"is_disabled":false,"rental_uris":{"android":"levelo://app?vid=a69e25b5-614d-49f2-bc63-e4f5590313ff","ios":"levelo://app?vid=a69e25b5-614d-49f2-bc63-e4f5590313ff"},"vehicle_type_id":"4","last_reported":1731791223,"current_range_meters":3200,"station_id":"ce4bh4p2rcd13ifvqe0g","pricing_plan_id":"cebpf4jnsgd1na2vs0mg"},{"bike_id":"c54b8898-c1b0-4cb7-a9e9-04f22cb9fe6e","system_id":"levelo_inurba_marseille","lat":43.29301,"lon":5.37462,"is_reserved":false,"is_disabled":false,"rental_uris":{"android":"levelo://app?vid=c54b8898-c1b0-4cb7-a9e9-04f22cb9fe6e","ios":"levelo://app?vid=c54b8898-c1b0-4cb7-a9e9-04f22cb9fe6e"},"vehicle_type_id":"4","last_reported":1731791223,"current_range_meters":8000,"station_id":"ce4bgi12rcd13ifvqb70","pricing_plan_id":"cebpf4jnsgd1na2vs0mg"},{"bike_id":"39e33d68-b9b3-4e12-a717-5e4feea7bb47","system_id":"levelo_inurba_marseille","lat":43.27309,"lon":5.39078,"is_reserved":false,"is_disabled":false,"rental_uris":{"android":"levelo://app?vid=39e33d68-b9b3-4e12-a717-5e4feea7bb47","ios":"levelo://app?vid=39e33d68-b9b3-4e12-a717-5e4feea7bb47"},"vehicle_type_id":"4","last_reported":1731791223,"current_range_meters":27200,"station_id":"ce4bhgp2rcd13ifvqfe0","pricing_plan_id":"cebpf4jnsgd1na2vs0mg"},{"bike_id":"cc7eaf9b-2c4d-496e-a8c3-41a4a3313bb9","system_id":"levelo_inurba_marseille","lat":43.32659,"lon":5.40994,"is_reserved":false,"is_disabled":false,"rental_uris":{"android":"levelo://app?vid=cc7eaf9b-2c4d-496e-a8c3-41a4a3313bb9","ios":"levelo://app?vid=cc7eaf9b-2c4d-496e-a8c3-41a4a3313bb9"},"vehicle_type_id":"4","last_reported":1731791223,"current_range_meters":10800,"station_id":"ce4bhpp2rcd13ifvqhgg","pricing_plan_id":"cebpf4jnsgd1na2vs0mg"},{"bike_id":"aaaf8aae-53a7-46f2-bc5a-7b42ea1053b6","system_id":"levelo_inurba_marseille","lat":43.27822,"lon":5.40696,"is_reserved":false,"is_disabled":false,"rental_uris":{"android":"levelo://app?vid=aaaf8aae-53a7-46f2-bc5a-7b42ea1053b6","ios":"levelo://app?vid=aaaf8aae-53a7-46f2-bc5a-7b42ea1053b6"},"vehicle_type_id":"4","last_reported":1731791223,"current_range_meters":37600,"station_id":"ce4bhnh2rcd13ifvqgtg","pricing_plan_id":"cebpf4jnsgd1na2vs0mg"},{"bike_id":"7f72c520-37a4-4f2d-98ff-043f9f4682b0","system_id":"levelo_inurba_marseille","lat":43.276398,"lon":5.417041,"is_reserved":false,"is_disabled":false,"rental_uris":{"android":"levelo://app?vid=7f72c520-37a4-4f2d-98ff-043f9f4682b0","ios":"levelo://app?vid=7f72c520-37a4-4f2d-98ff-043f9f4682b0"},"vehicle_type_id":"4","last_reported":1731791223,"current_range_meters":7200,"station_id":"","pricing_plan_id":"cebpf4jnsgd1na2vs0mg"},{"bike_id":"f3fe112d-bf29-4621-a795-f193f2d2276c","system_id":"levelo_inurba_marseille","lat":43.24658,"lon":5.38166,"is_reserved":false,"is_disabled":false,"rental_uris":{"android":"levelo://app?vid=f3fe112d-bf29-4621-a795-f193f2d2276c","ios":"levelo://app?vid=f3fe112d-bf29-4621-a795-f193f2d2276c"},"vehicle_type_id":"4","last_reported":1731791223,"current_range_meters":19600,"station_id":"ce4bhih2rcd13ifvqfr0","pricing_plan_id":"cebpf4jnsgd1na2vs0mg"},{"bike_id":"2c3b3b11-d0b6-45aa-a6b9-de871248416c","system_id":"levelo_inurba_marseille","lat":43.3046,"lon":5.37903,"is_reserved":false,"is_disabled":false,"rental_uris":{"android":"levelo://app?vid=2c3b3b11-d0b6-45aa-a6b9-de871248416c","ios":"levelo://app?vid=2c3b3b11-d0b6-45aa-a6b9-de871248416c"},"vehicle_type_id":"4","last_reported":1731791223,"current_range_meters":24000,"station_id":"ce4bgqh2rcd13ifvqc5g","pricing_plan_id":"cebpf4jnsgd1na2vs0mg"},{"bike_id":"eb9a84f5-6092-4dc4-a3c0-a07efb437c77","system_id":"levelo_inurba_marseille","lat":43.33734,"lon":5.37439,"is_reserved":false,"is_disabled":false,"rental_uris":{"android":"levelo://app?vid=eb9a84f5-6092-4dc4-a3c0-a07efb437c77","ios":"levelo://app?vid=eb9a84f5-6092-4dc4-a3c0-a07efb437c77"},"vehicle_type_id":"4","last_reported":1731791223,"current_range_meters":8800,"station_id":"","pricing_plan_id":"cebpf4jnsgd1na2vs0mg"},{"bike_id":"1765268a-82de-4429-88fa-129dcab3cb43","system_id":"levelo_inurba_marseille","lat":43.29425,"lon":5.38597,"is_reserved":false,"is_disabled":false,"rental_uris":{"android":"levelo://app?vid=1765268a-82de-4429-88fa-129dcab3cb43","ios":"levelo://app?vid=1765268a-82de-4429-88fa-129dcab3cb43"},"vehicle_type_id":"4","last_reported":1731791223,"current_range_meters":29600,"station_id":"ce4bh2h2rcd13ifvqdh0","pricing_plan_id":"cebpf4jnsgd1na2vs0mg"},{"bike_id":"22ea48db-755d-43c3-a7d2-0beff01815d8","system_id":"levelo_inurba_marseille","lat":43.33763,"lon":5.37475,"is_reserved":false,"is_disabled":false,"rental_uris":{"android":"levelo://app?vid=22ea48db-755d-43c3-a7d2-0beff01815d8","ios":"levelo://app?vid=22ea48db-755d-43c3-a7d2-0beff01815d8"},"vehicle_type_id":"4","last_reported":1731791223,"current_range_meters":11200,"station_id":"","pricing_plan_id":"cebpf4jnsgd1na2vs0mg"},{"bike_id":"a1862017-f597-4949-a306-4d7c53cc8b86","system_id":"levelo_inurba_marseille","lat":43.24169,"lon":5.364,"is_reserved":false,"is_disabled":false,"rental_uris":{"android":"levelo://app?vid=a1862017-f597-4949-a306-4d7c53cc8b86","ios":"levelo://app?vid=a1862017-f597-4949-a306-4d7c53cc8b86"},"vehicle_type_id":"4","last_reported":1731791223,"current_range_meters":11200,"station_id":"cpo36qri1sfpv3e86is0","pricing_plan_id":"cebpf4jnsgd1na2vs0mg"},{"bike_id":"93d2376b-d24b-4c4a-bf7c-d9d7da5c25f0","system_id":"levelo_inurba_marseille","lat":43.23055,"lon":5.35493,"is_reserved":false,"is_disabled":false,"rental_uris":{"android":"levelo://app?vid=93d2376b-d24b-4c4a-bf7c-d9d7da5c25f0","ios":"levelo://app?vid=93d2376b-d24b-4c4a-bf7c-d9d7da5c25f0"},"vehicle_type_id":"4","last_reported":1731791223,"current_range_meters":15200,"station_id":"cpo3342slgdg3j2ifvpg","pricing_plan_id":"cebpf4jnsgd1na2vs0mg"},{"bike_id":"a6d9a551-0bd3-48fd-83a5-8659df18378e","system_id":"levelo_inurba_marseille","lat":43.29194,"lon":5.35807,"is_reserved":false,"is_disabled":false,"rental_uris":{"android":"levelo://app?vid=a6d9a551-0bd3-48fd-83a5-8659df18378e","ios":"levelo://app?vid=a6d9a551-0bd3-48fd-83a5-8659df18378e"},"vehicle_type_id":"4","last_reported":1731791223,"current_range_meters":31200,"station_id":"ce4bhb12rcd13ifvqel0","pricing_plan_id":"cebpf4jnsgd1na2vs0mg"},{"bike_id":"eb0b6258-25b5-4174-825d-16bccd206154","system_id":"levelo_inurba_marseille","lat":43.33022,"lon":5.39037,"is_reserved":false,"is_disabled":false,"rental_uris":{"android":"levelo://app?vid=eb0b6258-25b5-4174-825d-16bccd206154","ios":"levelo://app?vid=eb0b6258-25b5-4174-825d-16bccd206154"},"vehicle_type_id":"4","last_reported":1731791223,"current_range_meters":8000,"station_id":"ce4bhr92rcd13ifvqhrg","pricing_plan_id":"cebpf4jnsgd1na2vs0mg"},{"bike_id":"ca655f3b-8380-4045-b3f8-8acaa0e83ede","system_id":"levelo_inurba_marseille","lat":43.33739,"lon":5.37423,"is_reserved":false,"is_disabled":false,"rental_uris":{"android":"levelo://app?vid=ca655f3b-8380-4045-b3f8-8acaa0e83ede","ios":"levelo://app?vid=ca655f3b-8380-4045-b3f8-8acaa0e83ede"},"vehicle_type_id":"4","last_reported":1731791223,"current_range_meters":36000,"station_id":"","pricing_plan_id":"cebpf4jnsgd1na2vs0mg"},{"bike_id":"6bf80c24-b5e3-4666-830e-f26d5366d1fe","system_id":"levelo_inurba_marseille","lat":43.29258,"lon":5.38445,"is_reserved":false,"is_disabled":false,"rental_uris":{"android":"levelo://app?vid=6bf80c24-b5e3-4666-830e-f26d5366d1fe","ios":"levelo://app?vid=6bf80c24-b5e3-4666-830e-f26d5366d1fe"},"vehicle_type_id":"4","last_reported":1731791223,"current_range_meters":20800,"station_id":"ce4bh692rcd13ifvqea0","pricing_plan_id":"cebpf4jnsgd1na2vs0mg"},{"bike_id":"3bec9701-1266-4cd8-9789-f238163e8695","system_id":"levelo_inurba_marseille","lat":43.3248,"lon":5.36567,"is_reserved":false,"is_disabled":false,"rental_uris":{"android":"levelo://app?vid=3bec9701-1266-4cd8-9789-f238163e8695","ios":"levelo://app?vid=3bec9701-1266-4cd8-9789-f238163e8695"},"vehicle_type_id":"4","last_reported":1731791223,"current_range_meters":38800,"station_id":"ce4bhs12rcd13ifvqhvg","pricing_plan_id":"cebpf4jnsgd1na2vs0mg"},{"bike_id":"a6b8c285-acc9-4039-9531-1aae39136a33","system_id":"levelo_inurba_marseille","lat":43.312042,"lon":5.367348,"is_reserved":false,"is_disabled":false,"rental_uris":{"android":"levelo://app?vid=a6b8c285-acc9-4039-9531-1aae39136a33","ios":"levelo://app?vid=a6b8c285-acc9-4039-9531-1aae39136a33"},"vehicle_type_id":"4","last_reported":1731791223,"current_range_meters":13600,"station_id":"","pricing_plan_id":"cebpf4jnsgd1na2vs0mg"},{"bike_id":"04e579be-d930-46e5-bb29-40fdc45896e1","system_id":"levelo_inurba_marseille","lat":43.32639,"lon":5.36197,"is_reserved":false,"is_disabled":false,"rental_uris":{"android":"levelo://app?vid=04e579be-d930-46e5-bb29-40fdc45896e1","ios":"levelo://app?vid=04e579be-d930-46e5-bb29-40fdc45896e1"},"vehicle_type_id":"4","last_reported":1731791223,"current_range_meters":8400,"station_id":"","pricing_plan_id":"cebpf4jnsgd1na2vs0mg"},{"bike_id":"37b940f2-53f1-40b3-bcdc-a092eab2c248","system_id":"levelo_inurba_marseille","lat":43.24621,"lon":5.37357,"is_reserved":false,"is_disabled":false,"rental_uris":{"android":"levelo://app?vid=37b940f2-53f1-40b3-bcdc-a092eab2c248","ios":"levelo://app?vid=37b940f2-53f1-40b3-bcdc-a092eab2c248"},"vehicle_type_id":"4","last_reported":1731791223,"current_range_meters":28000,"station_id":"","pricing_plan_id":"cebpf4jnsgd1na2vs0mg"},{"bike_id":"5c254126-8805-4ed8-9520-9f63561143b3","system_id":"levelo_inurba_marseille","lat":43.24167,"lon":5.36401,"is_reserved":false,"is_disabled":false,"rental_uris":{"android":"levelo://app?vid=5c254126-8805-4ed8-9520-9f63561143b3","ios":"levelo://app?vid=5c254126-8805-4ed8-9520-9f63561143b3"},"vehicle_type_id":"4","last_reported":1731791223,"current_range_meters":19200,"station_id":"cpo36qri1sfpv3e86is0","pricing_plan_id":"cebpf4jnsgd1na2vs0mg"},{"bike_id":"9c96802b-0a6d-4700-ae8a-f9cac85739ba","system_id":"levelo_inurba_marseille","lat":43.26578,"lon":5.39009,"is_reserved":false,"is_disabled":false,"rental_uris":{"android":"levelo://app?vid=9c96802b-0a6d-4700-ae8a-f9cac85739ba","ios":"levelo://app?vid=9c96802b-0a6d-4700-ae8a-f9cac85739ba"},"vehicle_type_id":"4","last_reported":1731791223,"current_range_meters":26000,"station_id":"ce4bhe12rcd13ifvqf30","pricing_plan_id":"cebpf4jnsgd1na2vs0mg"},{"bike_id":"a1729bd1-9e1e-49fd-b8fc-91417500c65a","system_id":"levelo_inurba_marseille","lat":43.30318,"lon":5.36898,"is_reserved":false,"is_disabled":false,"rental_uris":{"android":"levelo://app?vid=a1729bd1-9e1e-49fd-b8fc-91417500c65a","ios":"levelo://app?vid=a1729bd1-9e1e-49fd-b8fc-91417500c65a"},"vehicle_type_id":"4","last_reported":1731791223,"current_range_meters":38000,"station_id":"ce4bgqh2rcd13ifvqc5g","pricing_plan_id":"cebpf4jnsgd1na2vs0mg"},{"bike_id":"a4202271-f2ec-4707-b6c1-348d5bba0ebb","system_id":"levelo_inurba_marseille","lat":43.29715,"lon":5.36606,"is_reserved":false,"is_disabled":false,"rental_uris":{"android":"levelo://app?vid=a4202271-f2ec-4707-b6c1-348d5bba0ebb","ios":"levelo://app?vid=a4202271-f2ec-4707-b6c1-348d5bba0ebb"},"vehicle_type_id":"4","last_reported":1731791223,"current_range_meters":24000,"station_id":"ce4bgn12rcd13ifvqbt0","pricing_plan_id":"cebpf4jnsgd1na2vs0mg"},{"bike_id":"776c19bb-9271-4d1b-b450-71b28ade05f5","system_id":"levelo_inurba_marseille","lat":43.23197,"lon":5.35551,"is_reserved":false,"is_disabled":false,"rental_uris":{"android":"levelo://app?vid=776c19bb-9271-4d1b-b450-71b28ade05f5","ios":"levelo://app?vid=776c19bb-9271-4d1b-b450-71b28ade05f5"},"vehicle_type_id":"4","last_reported":1731791223,"current_range_meters":38400,"station_id":"ce4bhu92rcd13ifvqi70","pricing_plan_id":"cebpf4jnsgd1na2vs0mg"},{"bike_id":"3731846e-2218-45f1-ac96-76a41185ff9d","system_id":"levelo_inurba_marseille","lat":43.24171,"lon":5.36405,"is_reserved":false,"is_disabled":false,"rental_uris":{"android":"levelo://app?vid=3731846e-2218-45f1-ac96-76a41185ff9d","ios":"levelo://app?vid=3731846e-2218-45f1-ac96-76a41185ff9d"},"vehicle_type_id":"4","last_reported":1731791223,"current_range_meters":38800,"station_id":"cpo36qri1sfpv3e86is0","pricing_plan_id":"cebpf4jnsgd1na2vs0mg"},{"bike_id":"76f4890c-957d-48ca-a3e0-c7a9a9d95cd2","system_id":"levelo_inurba_marseille","lat":43.31987,"lon":5.38144,"is_reserved":false,"is_disabled":false,"rental_uris":{"android":"levelo://app?vid=76f4890c-957d-48ca-a3e0-c7a9a9d95cd2","ios":"levelo://app?vid=76f4890c-957d-48ca-a3e0-c7a9a9d95cd2"},"vehicle_type_id":"4","last_reported":1731791223,"current_range_meters":32000,"station_id":"ce4bhr12rcd13ifvqhpg","pricing_plan_id":"cebpf4jnsgd1na2vs0mg"},{"bike_id":"9a81efe5-64a5-44fd-b94e-d8740b776f16","system_id":"levelo_inurba_marseille","lat":43.29029,"lon":5.38643,"is_reserved":false,"is_disabled":false,"rental_uris":{"android":"levelo://app?vid=9a81efe5-64a5-44fd-b94e-d8740b776f16","ios":"levelo://app?vid=9a81efe5-64a5-44fd-b94e-d8740b776f16"},"vehicle_type_id":"4","last_reported":1731791223,"current_range_meters":24800,"station_id":"ce4bh4p2rcd13ifvqe0g","pricing_plan_id":"cebpf4jnsgd1na2vs0mg"},{"bike_id":"b497c4c1-47c5-46df-89b4-3a0f01d4aeca","system_id":"levelo_inurba_marseille","lat":43.32114,"lon":5.36774,"is_reserved":false,"is_disabled":false,"rental_uris":{"android":"levelo://app?vid=b497c4c1-47c5-46df-89b4-3a0f01d4aeca","ios":"levelo://app?vid=b497c4c1-47c5-46df-89b4-3a0f01d4aeca"},"vehicle_type_id":"4","last_reported":1731791223,"current_range_meters":27200,"station_id":"ce4bhrh2rcd13ifvqhug","pricing_plan_id":"cebpf4jnsgd1na2vs0mg"},{"bike_id":"92ac4858-87d6-4ceb-8f6e-004635a816a8","system_id":"levelo_inurba_marseille","lat":43.27787,"lon":5.40722,"is_reserved":false,"is_disabled":false,"rental_uris":{"android":"levelo://app?vid=92ac4858-87d6-4ceb-8f6e-004635a816a8","ios":"levelo://app?vid=92ac4858-87d6-4ceb-8f6e-004635a816a8"},"vehicle_type_id":"4","last_reported":1731791223,"current_range_meters":30000,"station_id":"ce4bhnh2rcd13ifvqgtg","pricing_plan_id":"cebpf4jnsgd1na2vs0mg"},{"bike_id":"e58924dd-000f-4b56-aa1a-856debbf027f","system_id":"levelo_inurba_marseille","lat":43.2893,"lon":5.38392,"is_reserved":false,"is_disabled":false,"rental_uris":{"android":"levelo://app?vid=e58924dd-000f-4b56-aa1a-856debbf027f","ios":"levelo://app?vid=e58924dd-000f-4b56-aa1a-856debbf027f"},"vehicle_type_id":"4","last_reported":1731791223,"current_range_meters":31200,"station_id":"ce4bh612rcd13ifvqe6g","pricing_plan_id":"cebpf4jnsgd1na2vs0mg"},{"bike_id":"5837896b-5dca-4d49-b05e-cc1583710155","system_id":"levelo_inurba_marseille","lat":43.24994,"lon":5.38932,"is_reserved":false,"is_disabled":false,"rental_uris":{"android":"levelo://app?vid=5837896b-5dca-4d49-b05e-cc1583710155","ios":"levelo://app?vid=5837896b-5dca-4d49-b05e-cc1583710155"},"vehicle_type_id":"4","last_reported":1731791223,"current_range_meters":35200,"station_id":"ce4bhgp2rcd13ifvqfd0","pricing_plan_id":"cebpf4jnsgd1na2vs0mg"},{"bike_id":"89ce4fee-121d-463b-9c94-7b722e012d49","system_id":"levelo_inurba_marseille","lat":43.31718,"lon":5.37762,"is_reserved":false,"is_disabled":false,"rental_uris":{"android":"levelo://app?vid=89ce4fee-121d-463b-9c94-7b722e012d49","ios":"levelo://app?vid=89ce4fee-121d-463b-9c94-7b722e012d49"},"vehicle_type_id":"4","last_reported":1731791223,"current_range_meters":10000,"station_id":"ce4bgth2rcd13ifvqch0","pricing_plan_id":"cebpf4jnsgd1na2vs0mg"},{"bike_id":"a2b165e7-8d8d-4922-9ef2-c24fcea2bf58","system_id":"levelo_inurba_marseille","lat":43.2707,"lon":5.42279,"is_reserved":false,"is_disabled":false,"rental_uris":{"android":"levelo://app?vid=a2b165e7-8d8d-4922-9ef2-c24fcea2bf58","ios":"levelo://app?vid=a2b165e7-8d8d-4922-9ef2-c24fcea2bf58"},"vehicle_type_id":"4","last_reported":1731791223,"current_range_meters":4800,"station_id":"ce4bhk92rcd13ifvqgb0","pricing_plan_id":"cebpf4jnsgd1na2vs0mg"},{"bike_id":"4f072872-5e38-4a4b-9811-1d9e60a837c4","system_id":"levelo_inurba_marseille","lat":43.23072,"lon":5.35495,"is_reserved":false,"is_disabled":false,"rental_uris":{"android":"levelo://app?vid=4f072872-5e38-4a4b-9811-1d9e60a837c4","ios":"levelo://app?vid=4f072872-5e38-4a4b-9811-1d9e60a837c4"},"vehicle_type_id":"4","last_reported":1731791223,"current_range_meters":9600,"station_id":"cpo3342slgdg3j2ifvpg","pricing_plan_id":"cebpf4jnsgd1na2vs0mg"},{"bike_id":"63532acd-0e03-47a2-9de7-46e1913982b8","system_id":"levelo_inurba_marseille","lat":43.32109,"lon":5.36768,"is_reserved":false,"is_disabled":false,"rental_uris":{"android":"levelo://app?vid=63532acd-0e03-47a2-9de7-46e1913982b8","ios":"levelo://app?vid=63532acd-0e03-47a2-9de7-46e1913982b8"},"vehicle_type_id":"4","last_reported":1731791223,"current_range_meters":24400,"station_id":"ce4bhrh2rcd13ifvqhug","pricing_plan_id":"cebpf4jnsgd1na2vs0mg"},{"bike_id":"950bd119-7238-4348-b1c8-907e48c508ae","system_id":"levelo_inurba_marseille","lat":43.310638,"lon":5.381317,"is_reserved":false,"is_disabled":false,"rental_uris":{"android":"levelo://app?vid=950bd119-7238-4348-b1c8-907e48c508ae","ios":"levelo://app?vid=950bd119-7238-4348-b1c8-907e48c508ae"},"vehicle_type_id":"4","last_reported":1731791223,"current_range_meters":22800,"station_id":"","pricing_plan_id":"cebpf4jnsgd1na2vs0mg"},{"bike_id":"716deff2-644f-4891-837f-fd7c8996db74","system_id":"levelo_inurba_marseille","lat":43.31991,"lon":5.38166,"is_reserved":false,"is_disabled":false,"rental_uris":{"android":"levelo://app?vid=716deff2-644f-4891-837f-fd7c8996db74","ios":"levelo://app?vid=716deff2-644f-4891-837f-fd7c8996db74"},"vehicle_type_id":"4","last_reported":1731791223,"current_range_meters":20800,"station_id":"ce4bhr12rcd13ifvqhpg","pricing_plan_id":"cebpf4jnsgd1na2vs0mg"},{"bike_id":"322f86c8-7339-45f3-b7f7-76a1cb831db0","system_id":"levelo_inurba_marseille","lat":43.31715,"lon":5.37762,"is_reserved":false,"is_disabled":false,"rental_uris":{"android":"levelo://app?vid=322f86c8-7339-45f3-b7f7-76a1cb831db0","ios":"levelo://app?vid=322f86c8-7339-45f3-b7f7-76a1cb831db0"},"vehicle_type_id":"4","last_reported":1731791223,"current_range_meters":17200,"station_id":"ce4bgth2rcd13ifvqch0","pricing_plan_id":"cebpf4jnsgd1na2vs0mg"},{"bike_id":"538ff880-7009-4230-aa76-28de0d1a5a41","system_id":"levelo_inurba_marseille","lat":43.24381,"lon":5.37064,"is_reserved":false,"is_disabled":false,"rental_uris":{"android":"levelo://app?vid=538ff880-7009-4230-aa76-28de0d1a5a41","ios":"levelo://app?vid=538ff880-7009-4230-aa76-28de0d1a5a41"},"vehicle_type_id":"4","last_reported":1731791223,"current_range_meters":17600,"station_id":"ce4bhhh2rcd13ifvqfk0","pricing_plan_id":"cebpf4jnsgd1na2vs0mg"},{"bike_id":"dafff9fb-e5b8-4ee0-a483-d7dcfb46c847","system_id":"levelo_inurba_marseille","lat":43.29296,"lon":5.37453,"is_reserved":false,"is_disabled":false,"rental_uris":{"android":"levelo://app?vid=dafff9fb-e5b8-4ee0-a483-d7dcfb46c847","ios":"levelo://app?vid=dafff9fb-e5b8-4ee0-a483-d7dcfb46c847"},"vehicle_type_id":"4","last_reported":1731791223,"current_range_meters":2800,"station_id":"ce4bgi12rcd13ifvqb70","pricing_plan_id":"cebpf4jnsgd1na2vs0mg"},{"bike_id":"a84f5389-258d-4508-9c0f-32ee5d326b43","system_id":"levelo_inurba_marseille","lat":43.33767,"lon":5.37475,"is_reserved":false,"is_disabled":false,"rental_uris":{"android":"levelo://app?vid=a84f5389-258d-4508-9c0f-32ee5d326b43","ios":"levelo://app?vid=a84f5389-258d-4508-9c0f-32ee5d326b43"},"vehicle_type_id":"4","last_reported":1731791223,"current_range_meters":32800,"station_id":"","pricing_plan_id":"cebpf4jnsgd1na2vs0mg"},{"bike_id":"ed8cfcce-fcd3-4866-b7bb-3032e5fedbfd","system_id":"levelo_inurba_marseille","lat":43.3234,"lon":5.40626,"is_reserved":false,"is_disabled":false,"rental_uris":{"android":"levelo://app?vid=ed8cfcce-fcd3-4866-b7bb-3032e5fedbfd","ios":"levelo://app?vid=ed8cfcce-fcd3-4866-b7bb-3032e5fedbfd"},"vehicle_type_id":"4","last_reported":1731791223,"current_range_meters":29600,"station_id":"ce4bhq92rcd13ifvqhjg","pricing_plan_id":"cebpf4jnsgd1na2vs0mg"},{"bike_id":"36191937-43d8-437a-baf8-6bc88ac41e80","system_id":"levelo_inurba_marseille","lat":43.27943,"lon":5.41046,"is_reserved":false,"is_disabled":false,"rental_uris":{"android":"levelo://app?vid=36191937-43d8-437a-baf8-6bc88ac41e80","ios":"levelo://app?vid=36191937-43d8-437a-baf8-6bc88ac41e80"},"vehicle_type_id":"4","last_reported":1731791223,"current_range_meters":34000,"station_id":"ce4bhnp2rcd13ifvqh0g","pricing_plan_id":"cebpf4jnsgd1na2vs0mg"},{"bike_id":"9e0f703b-6e52-4347-b49d-e8bccd9d5b00","system_id":"levelo_inurba_marseille","lat":43.27183,"lon":5.40995,"is_reserved":false,"is_disabled":false,"rental_uris":{"android":"levelo://app?vid=9e0f703b-6e52-4347-b49d-e8bccd9d5b00","ios":"levelo://app?vid=9e0f703b-6e52-4347-b49d-e8bccd9d5b00"},"vehicle_type_id":"4","last_reported":1731791223,"current_range_meters":8000,"station_id":"ce4bhl12rcd13ifvqgf0","pricing_plan_id":"cebpf4jnsgd1na2vs0mg"},{"bike_id":"b5ce9235-4ffb-4d40-a9ab-7ab7ce5a79f6","system_id":"levelo_inurba_marseille","lat":43.2481,"lon":5.37454,"is_reserved":false,"is_disabled":false,"rental_uris":{"android":"levelo://app?vid=b5ce9235-4ffb-4d40-a9ab-7ab7ce5a79f6","ios":"levelo://app?vid=b5ce9235-4ffb-4d40-a9ab-7ab7ce5a79f6"},"vehicle_type_id":"4","last_reported":1731791223,"current_range_meters":38000,"station_id":"ce4bhgh2rcd13ifvqfb0","pricing_plan_id":"cebpf4jnsgd1na2vs0mg"},{"bike_id":"0bdc4ebb-8ae3-48a0-915a-ada36e03fd3e","system_id":"levelo_inurba_marseille","lat":43.27907,"lon":5.37994,"is_reserved":false,"is_disabled":false,"rental_uris":{"android":"levelo://app?vid=0bdc4ebb-8ae3-48a0-915a-ada36e03fd3e","ios":"levelo://app?vid=0bdc4ebb-8ae3-48a0-915a-ada36e03fd3e"},"vehicle_type_id":"4","last_reported":1731791223,"current_range_meters":38800,"station_id":"ce4bhf92rcd13ifvqf50","pricing_plan_id":"cebpf4jnsgd1na2vs0mg"},{"bike_id":"23dc3eca-7aa2-42ee-a821-5901eae129f9","system_id":"levelo_inurba_marseille","lat":43.32367,"lon":5.38884,"is_reserved":false,"is_disabled":false,"rental_uris":{"android":"levelo://app?vid=23dc3eca-7aa2-42ee-a821-5901eae129f9","ios":"levelo://app?vid=23dc3eca-7aa2-42ee-a821-5901eae129f9"},"vehicle_type_id":"4","last_reported":1731791223,"current_range_meters":7200,"station_id":"ce4bhqp2rcd13ifvqhog","pricing_plan_id":"cebpf4jnsgd1na2vs0mg"},{"bike_id":"ae7aa9df-9b30-4ca1-9d8c-301e689f0c14","system_id":"levelo_inurba_marseille","lat":43.33721,"lon":5.39183,"is_reserved":false,"is_disabled":false,"rental_uris":{"android":"levelo://app?vid=ae7aa9df-9b30-4ca1-9d8c-301e689f0c14","ios":"levelo://app?vid=ae7aa9df-9b30-4ca1-9d8c-301e689f0c14"},"vehicle_type_id":"4","last_reported":1731791223,"current_range_meters":34800,"station_id":"ce4bhr92rcd13ifvqhsg","pricing_plan_id":"cebpf4jnsgd1na2vs0mg"},{"bike_id":"6d6992bf-ade3-4a22-a168-306dafdc4544","system_id":"levelo_inurba_marseille","lat":43.24175,"lon":5.36395,"is_reserved":false,"is_disabled":false,"rental_uris":{"android":"levelo://app?vid=6d6992bf-ade3-4a22-a168-306dafdc4544","ios":"levelo://app?vid=6d6992bf-ade3-4a22-a168-306dafdc4544"},"vehicle_type_id":"4","last_reported":1731791223,"current_range_meters":32000,"station_id":"cpo36qri1sfpv3e86is0","pricing_plan_id":"cebpf4jnsgd1na2vs0mg"},{"bike_id":"074c6971-4ae7-4906-8673-1607af29a7e1","system_id":"levelo_inurba_marseille","lat":43.25092,"lon":5.39518,"is_reserved":false,"is_disabled":false,"rental_uris":{"android":"levelo://app?vid=074c6971-4ae7-4906-8673-1607af29a7e1","ios":"levelo://app?vid=074c6971-4ae7-4906-8673-1607af29a7e1"},"vehicle_type_id":"4","last_reported":1731791223,"current_range_meters":31200,"station_id":"ce4bhm12rcd13ifvqgkg","pricing_plan_id":"cebpf4jnsgd1na2vs0mg"},{"bike_id":"17969969-d259-461b-b03e-5c0bba5d26d7","system_id":"levelo_inurba_marseille","lat":43.24805,"lon":5.37446,"is_reserved":false,"is_disabled":false,"rental_uris":{"android":"levelo://app?vid=17969969-d259-461b-b03e-5c0bba5d26d7","ios":"levelo://app?vid=17969969-d259-461b-b03e-5c0bba5d26d7"},"vehicle_type_id":"4","last_reported":1731791223,"current_range_meters":38400,"station_id":"ce4bhgh2rcd13ifvqfb0","pricing_plan_id":"cebpf4jnsgd1na2vs0mg"},{"bike_id":"f7612cb9-64e6-456e-b407-47173cb6e342","system_id":"levelo_inurba_marseille","lat":43.28604,"lon":5.37066,"is_reserved":false,"is_disabled":false,"rental_uris":{"android":"levelo://app?vid=f7612cb9-64e6-456e-b407-47173cb6e342","ios":"levelo://app?vid=f7612cb9-64e6-456e-b407-47173cb6e342"},"vehicle_type_id":"4","last_reported":1731791223,"current_range_meters":8000,"station_id":"ce4bht12rcd13ifvqi60","pricing_plan_id":"cebpf4jnsgd1na2vs0mg"},{"bike_id":"26ac22d7-ee9b-4f59-8723-72278c4a171a","system_id":"levelo_inurba_marseille","lat":43.23196,"lon":5.39977,"is_reserved":false,"is_disabled":false,"rental_uris":{"android":"levelo://app?vid=26ac22d7-ee9b-4f59-8723-72278c4a171a","ios":"levelo://app?vid=26ac22d7-ee9b-4f59-8723-72278c4a171a"},"vehicle_type_id":"4","last_reported":1731791223,"current_range_meters":30800,"station_id":"ce4bhn12rcd13ifvqgqg","pricing_plan_id":"cebpf4jnsgd1na2vs0mg"},{"bike_id":"e6982e95-5924-4993-a2d9-2709f286aaea","system_id":"levelo_inurba_marseille","lat":43.29062,"lon":5.35901,"is_reserved":false,"is_disabled":false,"rental_uris":{"android":"levelo://app?vid=e6982e95-5924-4993-a2d9-2709f286aaea","ios":"levelo://app?vid=e6982e95-5924-4993-a2d9-2709f286aaea"},"vehicle_type_id":"4","last_reported":1731791223,"current_range_meters":25200,"station_id":"ce4bha92rcd13ifvqeg0","pricing_plan_id":"cebpf4jnsgd1na2vs0mg"},{"bike_id":"8b9d8db2-1d88-428b-8005-f18c16caea87","system_id":"levelo_inurba_marseille","lat":43.3059,"lon":5.39351,"is_reserved":false,"is_disabled":false,"rental_uris":{"android":"levelo://app?vid=8b9d8db2-1d88-428b-8005-f18c16caea87","ios":"levelo://app?vid=8b9d8db2-1d88-428b-8005-f18c16caea87"},"vehicle_type_id":"4","last_reported":1731791223,"current_range_meters":31200,"station_id":"ce4bh0p2rcd13ifvqd80","pricing_plan_id":"cebpf4jnsgd1na2vs0mg"},{"bike_id":"f977d484-43b9-4a08-9f25-946507f2ea63","system_id":"levelo_inurba_marseille","lat":43.3144,"lon":5.37401,"is_reserved":false,"is_disabled":false,"rental_uris":{"android":"levelo://app?vid=f977d484-43b9-4a08-9f25-946507f2ea63","ios":"levelo://app?vid=f977d484-43b9-4a08-9f25-946507f2ea63"},"vehicle_type_id":"4","last_reported":1731791223,"current_range_meters":22800,"station_id":"","pricing_plan_id":"cebpf4jnsgd1na2vs0mg"},{"bike_id":"e01cc651-aff2-4aec-b088-cd6c105accbf","system_id":"levelo_inurba_marseille","lat":43.31713,"lon":5.37759,"is_reserved":false,"is_disabled":false,"rental_uris":{"android":"levelo://app?vid=e01cc651-aff2-4aec-b088-cd6c105accbf","ios":"levelo://app?vid=e01cc651-aff2-4aec-b088-cd6c105accbf"},"vehicle_type_id":"4","last_reported":1731791223,"current_range_meters":28000,"station_id":"ce4bgth2rcd13ifvqch0","pricing_plan_id":"cebpf4jnsgd1na2vs0mg"},{"bike_id":"f4a61eed-bb37-452a-8346-0e727fddab89","system_id":"levelo_inurba_marseille","lat":43.29721,"lon":5.384,"is_reserved":false,"is_disabled":false,"rental_uris":{"android":"levelo://app?vid=f4a61eed-bb37-452a-8346-0e727fddab89","ios":"levelo://app?vid=f4a61eed-bb37-452a-8346-0e727fddab89"},"vehicle_type_id":"4","last_reported":1731791223,"current_range_meters":6000,"station_id":"","pricing_plan_id":"cebpf4jnsgd1na2vs0mg"},{"bike_id":"856f0bf4-af54-4392-a65e-0f87f5ed39a2","system_id":"levelo_inurba_marseille","lat":43.29303,"lon":5.37176,"is_reserved":false,"is_disabled":false,"rental_uris":{"android":"levelo://app?vid=856f0bf4-af54-4392-a65e-0f87f5ed39a2","ios":"levelo://app?vid=856f0bf4-af54-4392-a65e-0f87f5ed39a2"},"vehicle_type_id":"4","last_reported":1731791223,"current_range_meters":34000,"station_id":"ce4bgh92rcd13ifvqb40","pricing_plan_id":"cebpf4jnsgd1na2vs0mg"},{"bike_id":"4ee4605c-22f2-4532-b44d-f5fb03fd5142","system_id":"levelo_inurba_marseille","lat":43.30797,"lon":5.43519,"is_reserved":false,"is_disabled":false,"rental_uris":{"android":"levelo://app?vid=4ee4605c-22f2-4532-b44d-f5fb03fd5142","ios":"levelo://app?vid=4ee4605c-22f2-4532-b44d-f5fb03fd5142"},"vehicle_type_id":"4","last_reported":1731791223,"current_range_meters":12400,"station_id":"ce4bhph2rcd13ifvqheg","pricing_plan_id":"cebpf4jnsgd1na2vs0mg"},{"bike_id":"d12776dd-7ba2-49d7-a666-159758337c79","system_id":"levelo_inurba_marseille","lat":43.32478,"lon":5.36565,"is_reserved":false,"is_disabled":false,"rental_uris":{"android":"levelo://app?vid=d12776dd-7ba2-49d7-a666-159758337c79","ios":"levelo://app?vid=d12776dd-7ba2-49d7-a666-159758337c79"},"vehicle_type_id":"4","last_reported":1731791223,"current_range_meters":38800,"station_id":"ce4bhs12rcd13ifvqhvg","pricing_plan_id":"cebpf4jnsgd1na2vs0mg"},{"bike_id":"c3e05a7b-e07e-4018-a441-5bc2687302f2","system_id":"levelo_inurba_marseille","lat":43.27976,"lon":5.38745,"is_reserved":false,"is_disabled":false,"rental_uris":{"android":"levelo://app?vid=c3e05a7b-e07e-4018-a441-5bc2687302f2","ios":"levelo://app?vid=c3e05a7b-e07e-4018-a441-5bc2687302f2"},"vehicle_type_id":"4","last_reported":1731791223,"current_range_meters":0,"station_id":"ce4bhg12rcd13ifvqf80","pricing_plan_id":"cebpf4jnsgd1na2vs0mg"},{"bike_id":"d1f31fea-2af7-4cd5-8a57-78814e9dfb33","system_id":"levelo_inurba_marseille","lat":43.29417,"lon":5.38623,"is_reserved":false,"is_disabled":false,"rental_uris":{"android":"levelo://app?vid=d1f31fea-2af7-4cd5-8a57-78814e9dfb33","ios":"levelo://app?vid=d1f31fea-2af7-4cd5-8a57-78814e9dfb33"},"vehicle_type_id":"4","last_reported":1731791223,"current_range_meters":24000,"station_id":"ce4bh2h2rcd13ifvqdh0","pricing_plan_id":"cebpf4jnsgd1na2vs0mg"},{"bike_id":"de267b10-47af-4c8e-8267-a20d915789ad","system_id":"levelo_inurba_marseille","lat":43.28681,"lon":5.38662,"is_reserved":false,"is_disabled":false,"rental_uris":{"android":"levelo://app?vid=de267b10-47af-4c8e-8267-a20d915789ad","ios":"levelo://app?vid=de267b10-47af-4c8e-8267-a20d915789ad"},"vehicle_type_id":"4","last_reported":1731791223,"current_range_meters":31200,"station_id":"ce4bh492rcd13ifvqdug","pricing_plan_id":"cebpf4jnsgd1na2vs0mg"},{"bike_id":"8572e419-3029-4165-8faa-1833687de514","system_id":"levelo_inurba_marseille","lat":43.255463,"lon":5.394094,"is_reserved":false,"is_disabled":false,"rental_uris":{"android":"levelo://app?vid=8572e419-3029-4165-8faa-1833687de514","ios":"levelo://app?vid=8572e419-3029-4165-8faa-1833687de514"},"vehicle_type_id":"4","last_reported":1731791223,"current_range_meters":38800,"station_id":"ce4bhhp2rcd13ifvqfm0","pricing_plan_id":"cebpf4jnsgd1na2vs0mg"},{"bike_id":"022f478e-da93-4eda-9d1b-2d0e36905c07","system_id":"levelo_inurba_marseille","lat":43.33769,"lon":5.37441,"is_reserved":false,"is_disabled":false,"rental_uris":{"android":"levelo://app?vid=022f478e-da93-4eda-9d1b-2d0e36905c07","ios":"levelo://app?vid=022f478e-da93-4eda-9d1b-2d0e36905c07"},"vehicle_type_id":"4","last_reported":1731791223,"current_range_meters":15200,"station_id":"","pricing_plan_id":"cebpf4jnsgd1na2vs0mg"},{"bike_id":"1d860185-bbf0-49cd-8c85-44d7f5a92294","system_id":"levelo_inurba_marseille","lat":43.31684,"lon":5.40474,"is_reserved":false,"is_disabled":false,"rental_uris":{"android":"levelo://app?vid=1d860185-bbf0-49cd-8c85-44d7f5a92294","ios":"levelo://app?vid=1d860185-bbf0-49cd-8c85-44d7f5a92294"},"vehicle_type_id":"4","last_reported":1731791223,"current_range_meters":9600,"station_id":"ce4bh012rcd13ifvqd00","pricing_plan_id":"cebpf4jnsgd1na2vs0mg"},{"bike_id":"3c7108fb-85fe-43b6-95ce-e6a5e6d34b1a","system_id":"levelo_inurba_marseille","lat":43.33732,"lon":5.39176,"is_reserved":false,"is_disabled":false,"rental_uris":{"android":"levelo://app?vid=3c7108fb-85fe-43b6-95ce-e6a5e6d34b1a","ios":"levelo://app?vid=3c7108fb-85fe-43b6-95ce-e6a5e6d34b1a"},"vehicle_type_id":"4","last_reported":1731791223,"current_range_meters":30000,"station_id":"ce4bhr92rcd13ifvqhsg","pricing_plan_id":"cebpf4jnsgd1na2vs0mg"},{"bike_id":"a55b7fe4-9578-4c32-99bf-91569446968f","system_id":"levelo_inurba_marseille","lat":43.26955,"lon":5.38619,"is_reserved":false,"is_disabled":false,"rental_uris":{"android":"levelo://app?vid=a55b7fe4-9578-4c32-99bf-91569446968f","ios":"levelo://app?vid=a55b7fe4-9578-4c32-99bf-91569446968f"},"vehicle_type_id":"4","last_reported":1731791223,"current_range_meters":37600,"station_id":"ce4bhh92rcd13ifvqfh0","pricing_plan_id":"cebpf4jnsgd1na2vs0mg"},{"bike_id":"5e21c11e-d283-481d-bf8d-735b3372e52d","system_id":"levelo_inurba_marseille","lat":43.29713,"lon":5.36611,"is_reserved":false,"is_disabled":false,"rental_uris":{"android":"levelo://app?vid=5e21c11e-d283-481d-bf8d-735b3372e52d","ios":"levelo://app?vid=5e21c11e-d283-481d-bf8d-735b3372e52d"},"vehicle_type_id":"4","last_reported":1731791223,"current_range_meters":31200,"station_id":"ce4bgn12rcd13ifvqbt0","pricing_plan_id":"cebpf4jnsgd1na2vs0mg"},{"bike_id":"251d8918-1250-4853-9293-89ee39d3be92","system_id":"levelo_inurba_marseille","lat":43.33022,"lon":5.39038,"is_reserved":false,"is_disabled":false,"rental_uris":{"android":"levelo://app?vid=251d8918-1250-4853-9293-89ee39d3be92","ios":"levelo://app?vid=251d8918-1250-4853-9293-89ee39d3be92"},"vehicle_type_id":"4","last_reported":1731791223,"current_range_meters":35200,"station_id":"ce4bhr92rcd13ifvqhrg","pricing_plan_id":"cebpf4jnsgd1na2vs0mg"},{"bike_id":"d95b4d50-3556-45fe-8cbb-c33d5fd58715","system_id":"levelo_inurba_marseille","lat":43.32288,"lon":5.38272,"is_reserved":false,"is_disabled":false,"rental_uris":{"android":"levelo://app?vid=d95b4d50-3556-45fe-8cbb-c33d5fd58715","ios":"levelo://app?vid=d95b4d50-3556-45fe-8cbb-c33d5fd58715"},"vehicle_type_id":"4","last_reported":1731791223,"current_range_meters":20000,"station_id":"ce4bhr12rcd13ifvqhqg","pricing_plan_id":"cebpf4jnsgd1na2vs0mg"},{"bike_id":"809471e3-ec39-4f2b-b271-49c8263623d6","system_id":"levelo_inurba_marseille","lat":43.25004,"lon":5.3891,"is_reserved":false,"is_disabled":false,"rental_uris":{"android":"levelo://app?vid=809471e3-ec39-4f2b-b271-49c8263623d6","ios":"levelo://app?vid=809471e3-ec39-4f2b-b271-49c8263623d6"},"vehicle_type_id":"4","last_reported":1731791223,"current_range_meters":38800,"station_id":"ce4bhgp2rcd13ifvqfd0","pricing_plan_id":"cebpf4jnsgd1na2vs0mg"},{"bike_id":"e38964ce-b801-41ad-9e58-526e4ec26158","system_id":"levelo_inurba_marseille","lat":43.28935,"lon":5.36638,"is_reserved":false,"is_disabled":false,"rental_uris":{"android":"levelo://app?vid=e38964ce-b801-41ad-9e58-526e4ec26158","ios":"levelo://app?vid=e38964ce-b801-41ad-9e58-526e4ec26158"},"vehicle_type_id":"4","last_reported":1731791223,"current_range_meters":38000,"station_id":"ce4bhap2rcd13ifvqek0","pricing_plan_id":"cebpf4jnsgd1na2vs0mg"},{"bike_id":"e739c142-1582-47b1-8dca-d28c1adf5ac2","system_id":"levelo_inurba_marseille","lat":43.2942,"lon":5.38602,"is_reserved":false,"is_disabled":false,"rental_uris":{"android":"levelo://app?vid=e739c142-1582-47b1-8dca-d28c1adf5ac2","ios":"levelo://app?vid=e739c142-1582-47b1-8dca-d28c1adf5ac2"},"vehicle_type_id":"4","last_reported":1731791223,"current_range_meters":9200,"station_id":"ce4bh2h2rcd13ifvqdh0","pricing_plan_id":"cebpf4jnsgd1na2vs0mg"},{"bike_id":"9e5dc250-b6a5-41ce-8a87-894e843c1424","system_id":"levelo_inurba_marseille","lat":43.28036,"lon":5.36937,"is_reserved":false,"is_disabled":false,"rental_uris":{"android":"levelo://app?vid=9e5dc250-b6a5-41ce-8a87-894e843c1424","ios":"levelo://app?vid=9e5dc250-b6a5-41ce-8a87-894e843c1424"},"vehicle_type_id":"4","last_reported":1731791223,"current_range_meters":38800,"station_id":"ce4bha12rcd13ifvqef0","pricing_plan_id":"cebpf4jnsgd1na2vs0mg"},{"bike_id":"39c73ca0-9868-4267-a026-9af6d76ca39c","system_id":"levelo_inurba_marseille","lat":43.30877,"lon":5.39639,"is_reserved":false,"is_disabled":false,"rental_uris":{"android":"levelo://app?vid=39c73ca0-9868-4267-a026-9af6d76ca39c","ios":"levelo://app?vid=39c73ca0-9868-4267-a026-9af6d76ca39c"},"vehicle_type_id":"4","last_reported":1731791223,"current_range_meters":18800,"station_id":"ce4bh012rcd13ifvqcv0","pricing_plan_id":"cebpf4jnsgd1na2vs0mg"},{"bike_id":"71d52017-341a-4f4d-a7ae-ab5a1e66cbd1","system_id":"levelo_inurba_marseille","lat":43.24171,"lon":5.36399,"is_reserved":false,"is_disabled":false,"rental_uris":{"android":"levelo://app?vid=71d52017-341a-4f4d-a7ae-ab5a1e66cbd1","ios":"levelo://app?vid=71d52017-341a-4f4d-a7ae-ab5a1e66cbd1"},"vehicle_type_id":"4","last_reported":1731791223,"current_range_meters":31200,"station_id":"cpo36qri1sfpv3e86is0","pricing_plan_id":"cebpf4jnsgd1na2vs0mg"},{"bike_id":"92ae6e09-1f39-49c2-9455-cdbd4d0c4b63","system_id":"levelo_inurba_marseille","lat":43.29206,"lon":5.40017,"is_reserved":false,"is_disabled":false,"rental_uris":{"android":"levelo://app?vid=92ae6e09-1f39-49c2-9455-cdbd4d0c4b63","ios":"levelo://app?vid=92ae6e09-1f39-49c2-9455-cdbd4d0c4b63"},"vehicle_type_id":"4","last_reported":1731791223,"current_range_meters":17200,"station_id":"","pricing_plan_id":"cebpf4jnsgd1na2vs0mg"},{"bike_id":"220255fd-76ab-4c9b-bc31-970bf96431ab","system_id":"levelo_inurba_marseille","lat":43.2657,"lon":5.39,"is_reserved":false,"is_disabled":false,"rental_uris":{"android":"levelo://app?vid=220255fd-76ab-4c9b-bc31-970bf96431ab","ios":"levelo://app?vid=220255fd-76ab-4c9b-bc31-970bf96431ab"},"vehicle_type_id":"4","last_reported":1731791223,"current_range_meters":8800,"station_id":"ce4bhe12rcd13ifvqf30","pricing_plan_id":"cebpf4jnsgd1na2vs0mg"},{"bike_id":"442c0903-f40e-4bdf-be0d-6587cc076f59","system_id":"levelo_inurba_marseille","lat":43.23192,"lon":5.35555,"is_reserved":false,"is_disabled":false,"rental_uris":{"android":"levelo://app?vid=442c0903-f40e-4bdf-be0d-6587cc076f59","ios":"levelo://app?vid=442c0903-f40e-4bdf-be0d-6587cc076f59"},"vehicle_type_id":"4","last_reported":1731791223,"current_range_meters":38000,"station_id":"ce4bhu92rcd13ifvqi70","pricing_plan_id":"cebpf4jnsgd1na2vs0mg"},{"bike_id":"52a88814-c932-478e-8b01-bb24c5c2409b","system_id":"levelo_inurba_marseille","lat":43.29838,"lon":5.36268,"is_reserved":false,"is_disabled":false,"rental_uris":{"android":"levelo://app?vid=52a88814-c932-478e-8b01-bb24c5c2409b","ios":"levelo://app?vid=52a88814-c932-478e-8b01-bb24c5c2409b"},"vehicle_type_id":"4","last_reported":1731791223,"current_range_meters":36400,"station_id":"ce4bgpp2rcd13ifvqc3g","pricing_plan_id":"cebpf4jnsgd1na2vs0mg"},{"bike_id":"352fd9ba-61bf-45a6-ad17-7b8575a8d5e0","system_id":"levelo_inurba_marseille","lat":43.2904,"lon":5.39946,"is_reserved":false,"is_disabled":false,"rental_uris":{"android":"levelo://app?vid=352fd9ba-61bf-45a6-ad17-7b8575a8d5e0","ios":"levelo://app?vid=352fd9ba-61bf-45a6-ad17-7b8575a8d5e0"},"vehicle_type_id":"4","last_reported":1731791223,"current_range_meters":37600,"station_id":"ce4bh392rcd13ifvqdm0","pricing_plan_id":"cebpf4jnsgd1na2vs0mg"},{"bike_id":"f5d73c09-1996-4086-8bed-df60be97dc8b","system_id":"levelo_inurba_marseille","lat":43.28571,"lon":5.39491,"is_reserved":false,"is_disabled":false,"rental_uris":{"android":"levelo://app?vid=f5d73c09-1996-4086-8bed-df60be97dc8b","ios":"levelo://app?vid=f5d73c09-1996-4086-8bed-df60be97dc8b"},"vehicle_type_id":"4","last_reported":1731791223,"current_range_meters":6000,"station_id":"ce4bh292rcd13ifvqdg0","pricing_plan_id":"cebpf4jnsgd1na2vs0mg"},{"bike_id":"0014ac3e-d970-47a8-a191-acb93482f3f3","system_id":"levelo_inurba_marseille","lat":43.30888,"lon":5.39649,"is_reserved":false,"is_disabled":false,"rental_uris":{"android":"levelo://app?vid=0014ac3e-d970-47a8-a191-acb93482f3f3","ios":"levelo://app?vid=0014ac3e-d970-47a8-a191-acb93482f3f3"},"vehicle_type_id":"4","last_reported":1731791223,"current_range_meters":17200,"station_id":"ce4bh012rcd13ifvqcv0","pricing_plan_id":"cebpf4jnsgd1na2vs0mg"},{"bike_id":"1c4774a7-a2d4-4020-9a1a-c36e307e75d8","system_id":"levelo_inurba_marseille","lat":43.32361,"lon":5.38881,"is_reserved":false,"is_disabled":false,"rental_uris":{"android":"levelo://app?vid=1c4774a7-a2d4-4020-9a1a-c36e307e75d8","ios":"levelo://app?vid=1c4774a7-a2d4-4020-9a1a-c36e307e75d8"},"vehicle_type_id":"4","last_reported":1731791223,"current_range_meters":25200,"station_id":"ce4bhqp2rcd13ifvqhog","pricing_plan_id":"cebpf4jnsgd1na2vs0mg"},{"bike_id":"baa214aa-5892-49b8-a67f-426536bbc022","system_id":"levelo_inurba_marseille","lat":43.293027,"lon":5.371747,"is_reserved":false,"is_disabled":false,"rental_uris":{"android":"levelo://app?vid=baa214aa-5892-49b8-a67f-426536bbc022","ios":"levelo://app?vid=baa214aa-5892-49b8-a67f-426536bbc022"},"vehicle_type_id":"4","last_reported":1731791223,"current_range_meters":28800,"station_id":"ce4bgh92rcd13ifvqb40","pricing_plan_id":"cebpf4jnsgd1na2vs0mg"},{"bike_id":"e9ea7137-c022-41d2-9efd-4b40da370ac9","system_id":"levelo_inurba_marseille","lat":43.31081,"lon":5.4243,"is_reserved":false,"is_disabled":false,"rental_uris":{"android":"levelo://app?vid=e9ea7137-c022-41d2-9efd-4b40da370ac9","ios":"levelo://app?vid=e9ea7137-c022-41d2-9efd-4b40da370ac9"},"vehicle_type_id":"4","last_reported":1731791223,"current_range_meters":18800,"station_id":"ce4bhp92rcd13ifvqhag","pricing_plan_id":"cebpf4jnsgd1na2vs0mg"},{"bike_id":"ba4bc675-7475-480f-b1f9-99dc2fae23df","system_id":"levelo_inurba_marseille","lat":43.30183,"lon":5.36619,"is_reserved":false,"is_disabled":false,"rental_uris":{"android":"levelo://app?vid=ba4bc675-7475-480f-b1f9-99dc2fae23df","ios":"levelo://app?vid=ba4bc675-7475-480f-b1f9-99dc2fae23df"},"vehicle_type_id":"4","last_reported":1731791223,"current_range_meters":36800,"station_id":"ce4bgrh2rcd13ifvqc8g","pricing_plan_id":"cebpf4jnsgd1na2vs0mg"},{"bike_id":"5962e039-9036-4944-b5c6-f1a6c4a87b96","system_id":"levelo_inurba_marseille","lat":43.2803,"lon":5.36941,"is_reserved":false,"is_disabled":false,"rental_uris":{"android":"levelo://app?vid=5962e039-9036-4944-b5c6-f1a6c4a87b96","ios":"levelo://app?vid=5962e039-9036-4944-b5c6-f1a6c4a87b96"},"vehicle_type_id":"4","last_reported":1731791223,"current_range_meters":32000,"station_id":"ce4bha12rcd13ifvqef0","pricing_plan_id":"cebpf4jnsgd1na2vs0mg"},{"bike_id":"b067a117-7700-47f6-a0ab-416c6775c0d5","system_id":"levelo_inurba_marseille","lat":43.29294,"lon":5.37456,"is_reserved":false,"is_disabled":false,"rental_uris":{"android":"levelo://app?vid=b067a117-7700-47f6-a0ab-416c6775c0d5","ios":"levelo://app?vid=b067a117-7700-47f6-a0ab-416c6775c0d5"},"vehicle_type_id":"4","last_reported":1731791223,"current_range_meters":28000,"station_id":"ce4bgi12rcd13ifvqb70","pricing_plan_id":"cebpf4jnsgd1na2vs0mg"},{"bike_id":"26eebce4-05b7-470f-9f84-42602228e0e7","system_id":"levelo_inurba_marseille","lat":43.25577,"lon":5.38229,"is_reserved":false,"is_disabled":false,"rental_uris":{"android":"levelo://app?vid=26eebce4-05b7-470f-9f84-42602228e0e7","ios":"levelo://app?vid=26eebce4-05b7-470f-9f84-42602228e0e7"},"vehicle_type_id":"4","last_reported":1731791223,"current_range_meters":27200,"station_id":"ce4bhih2rcd13ifvqfs0","pricing_plan_id":"cebpf4jnsgd1na2vs0mg"},{"bike_id":"d5b6cb88-78c6-4af2-8156-957faefe852f","system_id":"levelo_inurba_marseille","lat":43.2893,"lon":5.38391,"is_reserved":false,"is_disabled":false,"rental_uris":{"android":"levelo://app?vid=d5b6cb88-78c6-4af2-8156-957faefe852f","ios":"levelo://app?vid=d5b6cb88-78c6-4af2-8156-957faefe852f"},