{"last_updated":1734620966,"ttl":60,"version":"2.2","data":{"bikes":[{"bike_id":"37db10fd-f58e-4f18-a5b2-5769e0e8c712","system_id":"levelo_inurba_marseille","lat":43.27066,"lon":5.42277,"is_reserved":false,"is_disabled":false,"rental_uris":{"android":"levelo://app?vid=37db10fd-f58e-4f18-a5b2-5769e0e8c712","ios":"levelo://app?vid=37db10fd-f58e-4f18-a5b2-5769e0e8c712"},"vehicle_type_id":"4","last_reported":1734620966,"current_range_meters":24000,"station_id":"ce4bhk92rcd13ifvqgb0","pricing_plan_id":"cebpf4jnsgd1na2vs0mg"},{"bike_id":"74dc27b5-e2a4-4b1e-9dc3-5894ac4bda0a","system_id":"levelo_inurba_marseille","lat":43.29773,"lon":5.3727,"is_reserved":false,"is_disabled":true,"rental_uris":{"android":"levelo://app?vid=74dc27b5-e2a4-4b1e-9dc3-5894ac4bda0a","ios":"levelo://app?vid=74dc27b5-e2a4-4b1e-9dc3-5894ac4bda0a"},"vehicle_type_id":"4","last_reported":1734620966,"current_range_meters":1200,"station_id":"","pricing_plan_id":"cebpf4jnsgd1na2vs0mg"},{"bike_id":"09fd0036-0a28-4cee-a0e7-e3a90fee4f51","system_id":"levelo_inurba_marseille","lat":43.28102,"lon":5.37836,"is_reserved":false,"is_disabled":false,"rental_uris":{"android":"levelo://app?vid=09fd0036-0a28-4cee-a0e7-e3a90fee4f51","ios":"levelo://app?vid=09fd0036-0a28-4cee-a0e7-e3a90fee4f51"},"vehicle_type_id":"4","last_reported":1734620966,"current_range_meters":2800,"station_id":"ce4bha12rcd13ifvqee0","pricing_plan_id":"cebpf4jnsgd1na2vs0mg"},{"bike_id":"7ed0cc27-e525-42ea-a982-aa498246f848","system_id":"levelo_inurba_marseille","lat":43.31224,"lon":5.36867,"is_reserved":false,"is_disabled":false,"rental_uris":{"android":"levelo://app?vid=7ed0cc27-e525-42ea-a982-aa498246f848","ios":"levelo://app?vid=7ed0cc27-e525-42ea-a982-aa498246f848"},"vehicle_type_id":"4","last_reported":1734620966,"current_range_meters":10000,"station_id":"ce4bgl92rcd13ifvqbq0","pricing_plan_id":"cebpf4jnsgd1na2vs0mg"},{"bike_id":"0416dd85-6b82-4181-8c04-ea55c6533084","system_id":"levelo_inurba_marseille","lat":43.27502,"lon":5.4245,"is_reserved":false,"is_disabled":false,"rental_uris":{"android":"levelo://app?vid=0416dd85-6b82-4181-8c04-ea55c6533084","ios":"levelo://app?vid=0416dd85-6b82-4181-8c04-ea55c6533084"},"vehicle_type_id":"4","last_reported":1734620966,"current_range_meters":24800,"station_id":"ce4bhn92rcd13ifvqgrg","pricing_plan_id":"cebpf4jnsgd1na2vs0mg"},{"bike_id":"0b3c962c-40d1-4375-b60d-644d72aaacf1","system_id":"levelo_inurba_marseille","lat":43.28012,"lon":5.40403,"is_reserved":false,"is_disabled":true,"rental_uris":{"android":"levelo://app?vid=0b3c962c-40d1-4375-b60d-644d72aaacf1","ios":"levelo://app?vid=0b3c962c-40d1-4375-b60d-644d72aaacf1"},"vehicle_type_id":"4","last_reported":1734620966,"current_range_meters":0,"station_id":"","pricing_plan_id":"cebpf4jnsgd1na2vs0mg"},{"bike_id":"7bbad6fe-fb12-4af7-b819-166d99e00066","system_id":"levelo_inurba_marseille","lat":43.27491,"lon":5.42455,"is_reserved":false,"is_disabled":false,"rental_uris":{"android":"levelo://app?vid=7bbad6fe-fb12-4af7-b819-166d99e00066","ios":"levelo://app?vid=7bbad6fe-fb12-4af7-b819-166d99e00066"},"vehicle_type_id":"4","last_reported":1734620966,"current_range_meters":33600,"station_id":"ce4bhn92rcd13ifvqgrg","pricing_plan_id":"cebpf4jnsgd1na2vs0mg"},{"bike_id":"19d60a5c-bc41-41e3-ab92-442bf2c302b1","system_id":"levelo_inurba_marseille","lat":43.23164,"lon":5.43708,"is_reserved":false,"is_disabled":false,"rental_uris":{"android":"levelo://app?vid=19d60a5c-bc41-41e3-ab92-442bf2c302b1","ios":"levelo://app?vid=19d60a5c-bc41-41e3-ab92-442bf2c302b1"},"vehicle_type_id":"4","last_reported":1734620966,"current_range_meters":38800,"station_id":"ce4bhmp2rcd13ifvqgog","pricing_plan_id":"cebpf4jnsgd1na2vs0mg"},{"bike_id":"dcbf223c-08db-4158-bd7c-5dbfea8b6812","system_id":"levelo_inurba_marseille","lat":43.28364,"lon":5.38626,"is_reserved":false,"is_disabled":false,"rental_uris":{"android":"levelo://app?vid=dcbf223c-08db-4158-bd7c-5dbfea8b6812","ios":"levelo://app?vid=dcbf223c-08db-4158-bd7c-5dbfea8b6812"},"vehicle_type_id":"4","last_reported":1734620966,"current_range_meters":36400,"station_id":"ce4bh492rcd13ifvqdvg","pricing_plan_id":"cebpf4jnsgd1na2vs0mg"},{"bike_id":"53216bc0-db19-436b-803c-24b87a4c95f3","system_id":"levelo_inurba_marseille","lat":43.32467,"lon":5.36586,"is_reserved":false,"is_disabled":false,"rental_uris":{"android":"levelo://app?vid=53216bc0-db19-436b-803c-24b87a4c95f3","ios":"levelo://app?vid=53216bc0-db19-436b-803c-24b87a4c95f3"},"vehicle_type_id":"4","last_reported":1734620966,"current_range_meters":39200,"station_id":"ce4bhs12rcd13ifvqhvg","pricing_plan_id":"cebpf4jnsgd1na2vs0mg"},{"bike_id":"23ef9141-55cc-4cda-b9d1-c70ee4f9d9d1","system_id":"levelo_inurba_marseille","lat":43.24814,"lon":5.37467,"is_reserved":false,"is_disabled":false,"rental_uris":{"android":"levelo://app?vid=23ef9141-55cc-4cda-b9d1-c70ee4f9d9d1","ios":"levelo://app?vid=23ef9141-55cc-4cda-b9d1-c70ee4f9d9d1"},"vehicle_type_id":"4","last_reported":1734620966,"current_range_meters":37600,"station_id":"ce4bhgh2rcd13ifvqfb0","pricing_plan_id":"cebpf4jnsgd1na2vs0mg"},{"bike_id":"71f5eaf4-b4f1-4fb8-9144-1ec41f037546","system_id":"levelo_inurba_marseille","lat":43.25082,"lon":5.39519,"is_reserved":false,"is_disabled":true,"rental_uris":{"android":"levelo://app?vid=71f5eaf4-b4f1-4fb8-9144-1ec41f037546","ios":"levelo://app?vid=71f5eaf4-b4f1-4fb8-9144-1ec41f037546"},"vehicle_type_id":"4","last_reported":1734620966,"current_range_meters":1200,"station_id":"ce4bhm12rcd13ifvqgkg","pricing_plan_id":"cebpf4jnsgd1na2vs0mg"},{"bike_id":"3417d897-84a9-44ba-81ef-40200cfed818","system_id":"levelo_inurba_marseille","lat":43.25728,"lon":5.41105,"is_reserved":false,"is_disabled":false,"rental_uris":{"android":"levelo://app?vid=3417d897-84a9-44ba-81ef-40200cfed818","ios":"levelo://app?vid=3417d897-84a9-44ba-81ef-40200cfed818"},"vehicle_type_id":"4","last_reported":1734620966,"current_range_meters":39200,"station_id":"ce4bhkp2rcd13ifvqgd0","pricing_plan_id":"cebpf4jnsgd1na2vs0mg"},{"bike_id":"53c5dd90-208e-4b14-9aec-3133385e99e3","system_id":"levelo_inurba_marseille","lat":43.29559,"lon":5.422952,"is_reserved":false,"is_disabled":false,"rental_uris":{"android":"levelo://app?vid=53c5dd90-208e-4b14-9aec-3133385e99e3","ios":"levelo://app?vid=53c5dd90-208e-4b14-9aec-3133385e99e3"},"vehicle_type_id":"4","last_reported":1734620966,"current_range_meters":38800,"station_id":"ce4bhph2rcd13ifvqhdg","pricing_plan_id":"cebpf4jnsgd1na2vs0mg"},{"bike_id":"b8ab8a40-a2b4-425d-a9ba-0fdbe3a77b74","system_id":"levelo_inurba_marseille","lat":43.31705,"lon":5.37756,"is_reserved":false,"is_disabled":false,"rental_uris":{"android":"levelo://app?vid=b8ab8a40-a2b4-425d-a9ba-0fdbe3a77b74","ios":"levelo://app?vid=b8ab8a40-a2b4-425d-a9ba-0fdbe3a77b74"},"vehicle_type_id":"4","last_reported":1734620966,"current_range_meters":32000,"station_id":"ce4bgth2rcd13ifvqch0","pricing_plan_id":"cebpf4jnsgd1na2vs0mg"},{"bike_id":"41d4d63c-1601-40b8-9c24-4e8eca1ea969","system_id":"levelo_inurba_marseille","lat":43.31709,"lon":5.37774,"is_reserved":false,"is_disabled":false,"rental_uris":{"android":"levelo://app?vid=41d4d63c-1601-40b8-9c24-4e8eca1ea969","ios":"levelo://app?vid=41d4d63c-1601-40b8-9c24-4e8eca1ea969"},"vehicle_type_id":"4","last_reported":1734620966,"current_range_meters":38800,"station_id":"ce4bgth2rcd13ifvqch0","pricing_plan_id":"cebpf4jnsgd1na2vs0mg"},{"bike_id":"62cc5a16-2562-4639-85b3-96bc9a8ba745","system_id":"levelo_inurba_marseille","lat":43.29845,"lon":5.36274,"is_reserved":false,"is_disabled":false,"rental_uris":{"android":"levelo://app?vid=62cc5a16-2562-4639-85b3-96bc9a8ba745","ios":"levelo://app?vid=62cc5a16-2562-4639-85b3-96bc9a8ba745"},"vehicle_type_id":"4","last_reported":1734620966,"current_range_meters":10000,"station_id":"ce4bgpp2rcd13ifvqc3g","pricing_plan_id":"cebpf4jnsgd1na2vs0mg"},{"bike_id":"9970f706-180e-4b27-86a9-75e9af0d42d0","system_id":"levelo_inurba_marseille","lat":43.29157,"lon":5.37165,"is_reserved":false,"is_disabled":false,"rental_uris":{"android":"levelo://app?vid=9970f706-180e-4b27-86a9-75e9af0d42d0","ios":"levelo://app?vid=9970f706-180e-4b27-86a9-75e9af0d42d0"},"vehicle_type_id":"4","last_reported":1734620966,"current_range_meters":32800,"station_id":"ce4bha92rcd13ifvqeh0","pricing_plan_id":"cebpf4jnsgd1na2vs0mg"},{"bike_id":"995f1084-11ed-4cef-94ec-27eaf8db281c","system_id":"levelo_inurba_marseille","lat":43.32656,"lon":5.40997,"is_reserved":false,"is_disabled":false,"rental_uris":{"android":"levelo://app?vid=995f1084-11ed-4cef-94ec-27eaf8db281c","ios":"levelo://app?vid=995f1084-11ed-4cef-94ec-27eaf8db281c"},"vehicle_type_id":"4","last_reported":1734620966,"current_range_meters":17600,"station_id":"ce4bhpp2rcd13ifvqhgg","pricing_plan_id":"cebpf4jnsgd1na2vs0mg"},{"bike_id":"d34bdf4f-71bc-4ae4-b273-f3852ddc692a","system_id":"levelo_inurba_marseille","lat":43.33756,"lon":5.37472,"is_reserved":false,"is_disabled":false,"rental_uris":{"android":"levelo://app?vid=d34bdf4f-71bc-4ae4-b273-f3852ddc692a","ios":"levelo://app?vid=d34bdf4f-71bc-4ae4-b273-f3852ddc692a"},"vehicle_type_id":"4","last_reported":1734620966,"current_range_meters":37600,"station_id":"","pricing_plan_id":"cebpf4jnsgd1na2vs0mg"},{"bike_id":"55adb4e4-505c-4d33-86f3-04a27697ef4b","system_id":"levelo_inurba_marseille","lat":43.29622,"lon":5.37726,"is_reserved":false,"is_disabled":false,"rental_uris":{"android":"levelo://app?vid=55adb4e4-505c-4d33-86f3-04a27697ef4b","ios":"levelo://app?vid=55adb4e4-505c-4d33-86f3-04a27697ef4b"},"vehicle_type_id":"4","last_reported":1734620966,"current_range_meters":10000,"station_id":"ce4bgi92rcd13ifvqb90","pricing_plan_id":"cebpf4jnsgd1na2vs0mg"},{"bike_id":"40030e3d-8b64-4209-87ea-e6976f210686","system_id":"levelo_inurba_marseille","lat":43.25724,"lon":5.41108,"is_reserved":false,"is_disabled":false,"rental_uris":{"android":"levelo://app?vid=40030e3d-8b64-4209-87ea-e6976f210686","ios":"levelo://app?vid=40030e3d-8b64-4209-87ea-e6976f210686"},"vehicle_type_id":"4","last_reported":1734620966,"current_range_meters":16800,"station_id":"ce4bhkp2rcd13ifvqgd0","pricing_plan_id":"cebpf4jnsgd1na2vs0mg"},{"bike_id":"0eaf1118-02cb-4d3d-9d85-1034499d14d6","system_id":"levelo_inurba_marseille","lat":43.29809,"lon":5.38092,"is_reserved":false,"is_disabled":false,"rental_uris":{"android":"levelo://app?vid=0eaf1118-02cb-4d3d-9d85-1034499d14d6","ios":"levelo://app?vid=0eaf1118-02cb-4d3d-9d85-1034499d14d6"},"vehicle_type_id":"4","last_reported":1734620966,"current_range_meters":29600,"station_id":"ce4bgip2rcd13ifvqbb0","pricing_plan_id":"cebpf4jnsgd1na2vs0mg"},{"bike_id":"f81c5ee8-ac89-4377-80a4-b08e012dcdf6","system_id":"levelo_inurba_marseille","lat":43.30934,"lon":5.37191,"is_reserved":false,"is_disabled":false,"rental_uris":{"android":"levelo://app?vid=f81c5ee8-ac89-4377-80a4-b08e012dcdf6","ios":"levelo://app?vid=f81c5ee8-ac89-4377-80a4-b08e012dcdf6"},"vehicle_type_id":"4","last_reported":1734620966,"current_range_meters":31200,"station_id":"ce4bguh2rcd13ifvqckg","pricing_plan_id":"cebpf4jnsgd1na2vs0mg"},{"bike_id":"6fee4b7e-fa4a-4fbc-b15c-212f0d7b11d5","system_id":"levelo_inurba_marseille","lat":43.31507,"lon":5.37327,"is_reserved":false,"is_disabled":false,"rental_uris":{"android":"levelo://app?vid=6fee4b7e-fa4a-4fbc-b15c-212f0d7b11d5","ios":"levelo://app?vid=6fee4b7e-fa4a-4fbc-b15c-212f0d7b11d5"},"vehicle_type_id":"4","last_reported":1734620966,"current_range_meters":37600,"station_id":"ce4bgt12rcd13ifvqcd0","pricing_plan_id":"cebpf4jnsgd1na2vs0mg"},{"bike_id":"b042baac-48e3-41d4-beca-2c2cc4a183f1","system_id":"levelo_inurba_marseille","lat":43.23196,"lon":5.35548,"is_reserved":false,"is_disabled":false,"rental_uris":{"android":"levelo://app?vid=b042baac-48e3-41d4-beca-2c2cc4a183f1","ios":"levelo://app?vid=b042baac-48e3-41d4-beca-2c2cc4a183f1"},"vehicle_type_id":"4","last_reported":1734620966,"current_range_meters":38800,"station_id":"ce4bhu92rcd13ifvqi70","pricing_plan_id":"cebpf4jnsgd1na2vs0mg"},{"bike_id":"321eeecd-0699-4d58-a723-3f502219b080","system_id":"levelo_inurba_marseille","lat":43.29795,"lon":5.38091,"is_reserved":false,"is_disabled":false,"rental_uris":{"android":"levelo://app?vid=321eeecd-0699-4d58-a723-3f502219b080","ios":"levelo://app?vid=321eeecd-0699-4d58-a723-3f502219b080"},"vehicle_type_id":"4","last_reported":1734620966,"current_range_meters":29600,"station_id":"ce4bgip2rcd13ifvqbb0","pricing_plan_id":"cebpf4jnsgd1na2vs0mg"},{"bike_id":"d546e0be-2ab8-4c5d-bf8b-2e223d02633b","system_id":"levelo_inurba_marseille","lat":43.29571,"lon":5.37519,"is_reserved":false,"is_disabled":false,"rental_uris":{"android":"levelo://app?vid=d546e0be-2ab8-4c5d-bf8b-2e223d02633b","ios":"levelo://app?vid=d546e0be-2ab8-4c5d-bf8b-2e223d02633b"},"vehicle_type_id":"4","last_reported":1734620966,"current_range_meters":34000,"station_id":"ce4bgh92rcd13ifvqb50","pricing_plan_id":"cebpf4jnsgd1na2vs0mg"},{"bike_id":"d8f5e76e-f9f7-4677-b4d2-89d449c9f02e","system_id":"levelo_inurba_marseille","lat":43.29895,"lon":5.4366,"is_reserved":false,"is_disabled":false,"rental_uris":{"android":"levelo://app?vid=d8f5e76e-f9f7-4677-b4d2-89d449c9f02e","ios":"levelo://app?vid=d8f5e76e-f9f7-4677-b4d2-89d449c9f02e"},"vehicle_type_id":"4","last_reported":1734620966,"current_range_meters":13600,"station_id":"ce4bhpp2rcd13ifvqhfg","pricing_plan_id":"cebpf4jnsgd1na2vs0mg"},{"bike_id":"acb939c6-3a0b-4e73-873f-30bd4c6e69bf","system_id":"levelo_inurba_marseille","lat":43.25826,"lon":5.39432,"is_reserved":false,"is_disabled":false,"rental_uris":{"android":"levelo://app?vid=acb939c6-3a0b-4e73-873f-30bd4c6e69bf","ios":"levelo://app?vid=acb939c6-3a0b-4e73-873f-30bd4c6e69bf"},"vehicle_type_id":"4","last_reported":1734620966,"current_range_meters":37600,"station_id":"ce4bhip2rcd13ifvqft0","pricing_plan_id":"cebpf4jnsgd1na2vs0mg"},{"bike_id":"102eca1f-ad01-48e0-b61d-071e2e44811e","system_id":"levelo_inurba_marseille","lat":43.28987,"lon":5.37822,"is_reserved":false,"is_disabled":false,"rental_uris":{"android":"levelo://app?vid=102eca1f-ad01-48e0-b61d-071e2e44811e","ios":"levelo://app?vid=102eca1f-ad01-48e0-b61d-071e2e44811e"},"vehicle_type_id":"4","last_reported":1734620966,"current_range_meters":6800,"station_id":"ce4bh9p2rcd13ifvqed0","pricing_plan_id":"cebpf4jnsgd1na2vs0mg"},{"bike_id":"33900208-cbcc-44c7-a93a-e8ccb167dd7c","system_id":"levelo_inurba_marseille","lat":43.25581,"lon":5.38231,"is_reserved":false,"is_disabled":true,"rental_uris":{"android":"levelo://app?vid=33900208-cbcc-44c7-a93a-e8ccb167dd7c","ios":"levelo://app?vid=33900208-cbcc-44c7-a93a-e8ccb167dd7c"},"vehicle_type_id":"4","last_reported":1734620966,"current_range_meters":0,"station_id":"ce4bhih2rcd13ifvqfs0","pricing_plan_id":"cebpf4jnsgd1na2vs0mg"},{"bike_id":"8b4920d6-214e-43cc-b27b-daa6f43700d0","system_id":"levelo_inurba_marseille","lat":43.27569,"lon":5.38425,"is_reserved":false,"is_disabled":false,"rental_uris":{"android":"levelo://app?vid=8b4920d6-214e-43cc-b27b-daa6f43700d0","ios":"levelo://app?vid=8b4920d6-214e-43cc-b27b-daa6f43700d0"},"vehicle_type_id":"4","last_reported":1734620966,"current_range_meters":34800,"station_id":"ce4bhh92rcd13ifvqfi0","pricing_plan_id":"cebpf4jnsgd1na2vs0mg"},{"bike_id":"03791382-2e0c-4a2d-9359-fa11009586c7","system_id":"levelo_inurba_marseille","lat":43.30957,"lon":5.39035,"is_reserved":false,"is_disabled":false,"rental_uris":{"android":"levelo://app?vid=03791382-2e0c-4a2d-9359-fa11009586c7","ios":"levelo://app?vid=03791382-2e0c-4a2d-9359-fa11009586c7"},"vehicle_type_id":"4","last_reported":1734620966,"current_range_meters":25200,"station_id":"ce4bgup2rcd13ifvqco0","pricing_plan_id":"cebpf4jnsgd1na2vs0mg"},{"bike_id":"4457e0b1-9294-4511-b7fe-968149e9c5b7","system_id":"levelo_inurba_marseille","lat":43.27684,"lon":5.38923,"is_reserved":false,"is_disabled":false,"rental_uris":{"android":"levelo://app?vid=4457e0b1-9294-4511-b7fe-968149e9c5b7","ios":"levelo://app?vid=4457e0b1-9294-4511-b7fe-968149e9c5b7"},"vehicle_type_id":"4","last_reported":1734620966,"current_range_meters":30800,"station_id":"ce4bhi12rcd13ifvqfo0","pricing_plan_id":"cebpf4jnsgd1na2vs0mg"},{"bike_id":"7d8b4789-db38-4881-a12e-8303c1c118b0","system_id":"levelo_inurba_marseille","lat":43.29609,"lon":5.37729,"is_reserved":false,"is_disabled":false,"rental_uris":{"android":"levelo://app?vid=7d8b4789-db38-4881-a12e-8303c1c118b0","ios":"levelo://app?vid=7d8b4789-db38-4881-a12e-8303c1c118b0"},"vehicle_type_id":"4","last_reported":1734620966,"current_range_meters":32000,"station_id":"ce4bgi92rcd13ifvqb90","pricing_plan_id":"cebpf4jnsgd1na2vs0mg"},{"bike_id":"a3cfe6ba-408b-4cb8-8873-2a05270022e1","system_id":"levelo_inurba_marseille","lat":43.30953,"lon":5.39039,"is_reserved":false,"is_disabled":false,"rental_uris":{"android":"levelo://app?vid=a3cfe6ba-408b-4cb8-8873-2a05270022e1","ios":"levelo://app?vid=a3cfe6ba-408b-4cb8-8873-2a05270022e1"},"vehicle_type_id":"4","last_reported":1734620966,"current_range_meters":30800,"station_id":"ce4bgup2rcd13ifvqco0","pricing_plan_id":"cebpf4jnsgd1na2vs0mg"},{"bike_id":"77592e58-7330-482c-98aa-1362dec7556c","system_id":"levelo_inurba_marseille","lat":43.30527,"lon":5.36546,"is_reserved":false,"is_disabled":false,"rental_uris":{"android":"levelo://app?vid=77592e58-7330-482c-98aa-1362dec7556c","ios":"levelo://app?vid=77592e58-7330-482c-98aa-1362dec7556c"},"vehicle_type_id":"4","last_reported":1734620966,"current_range_meters":38800,"station_id":"ce4bgs12rcd13ifvqcag","pricing_plan_id":"cebpf4jnsgd1na2vs0mg"},{"bike_id":"e130339d-b40c-4d8e-b88f-717c953e6ed8","system_id":"levelo_inurba_marseille","lat":43.30091,"lon":5.39071,"is_reserved":false,"is_disabled":false,"rental_uris":{"android":"levelo://app?vid=e130339d-b40c-4d8e-b88f-717c953e6ed8","ios":"levelo://app?vid=e130339d-b40c-4d8e-b88f-717c953e6ed8"},"vehicle_type_id":"4","last_reported":1734620966,"current_range_meters":24400,"station_id":"ce4bh192rcd13ifvqdb0","pricing_plan_id":"cebpf4jnsgd1na2vs0mg"},{"bike_id":"1d4ffc97-2f98-4d8f-95cc-fea408ee67ff","system_id":"levelo_inurba_marseille","lat":43.29704,"lon":5.3769,"is_reserved":false,"is_disabled":false,"rental_uris":{"android":"levelo://app?vid=1d4ffc97-2f98-4d8f-95cc-fea408ee67ff","ios":"levelo://app?vid=1d4ffc97-2f98-4d8f-95cc-fea408ee67ff"},"vehicle_type_id":"4","last_reported":1734620966,"current_range_meters":38800,"station_id":"ce4bgkh2rcd13ifvqbl0","pricing_plan_id":"cebpf4jnsgd1na2vs0mg"},{"bike_id":"ef2e42d7-adfb-4e08-8992-94a17c47e449","system_id":"levelo_inurba_marseille","lat":43.26201,"lon":5.3793,"is_reserved":false,"is_disabled":false,"rental_uris":{"android":"levelo://app?vid=ef2e42d7-adfb-4e08-8992-94a17c47e449","ios":"levelo://app?vid=ef2e42d7-adfb-4e08-8992-94a17c47e449"},"vehicle_type_id":"4","last_reported":1734620966,"current_range_meters":22400,"station_id":"ce4bhjp2rcd13ifvqg90","pricing_plan_id":"cebpf4jnsgd1na2vs0mg"},{"bike_id":"63cff5eb-1415-48a9-b127-707db35946f5","system_id":"levelo_inurba_marseille","lat":43.2782,"lon":5.39199,"is_reserved":false,"is_disabled":true,"rental_uris":{"android":"levelo://app?vid=63cff5eb-1415-48a9-b127-707db35946f5","ios":"levelo://app?vid=63cff5eb-1415-48a9-b127-707db35946f5"},"vehicle_type_id":"4","last_reported":1734620966,"current_range_meters":0,"station_id":"ce4bhjp2rcd13ifvqga0","pricing_plan_id":"cebpf4jnsgd1na2vs0mg"},{"bike_id":"06b03a71-2c60-49ac-ae36-76d0c0c37129","system_id":"levelo_inurba_marseille","lat":43.29908,"lon":5.37474,"is_reserved":false,"is_disabled":false,"rental_uris":{"android":"levelo://app?vid=06b03a71-2c60-49ac-ae36-76d0c0c37129","ios":"levelo://app?vid=06b03a71-2c60-49ac-ae36-76d0c0c37129"},"vehicle_type_id":"4","last_reported":1734620966,"current_range_meters":25200,"station_id":"ce4bgjh2rcd13ifvqbg0","pricing_plan_id":"cebpf4jnsgd1na2vs0mg"},{"bike_id":"c5d3dda4-9397-4823-9c8b-ea8eda2ab949","system_id":"levelo_inurba_marseille","lat":43.23968,"lon":5.36633,"is_reserved":false,"is_disabled":false,"rental_uris":{"android":"levelo://app?vid=c5d3dda4-9397-4823-9c8b-ea8eda2ab949","ios":"levelo://app?vid=c5d3dda4-9397-4823-9c8b-ea8eda2ab949"},"vehicle_type_id":"4","last_reported":1734620966,"current_range_meters":4000,"station_id":"ce4bhi12rcd13ifvqfp0","pricing_plan_id":"cebpf4jnsgd1na2vs0mg"},{"bike_id":"7fd59132-6ad1-4566-9810-9e39032f69c5","system_id":"levelo_inurba_marseille","lat":43.29194,"lon":5.39324,"is_reserved":false,"is_disabled":false,"rental_uris":{"android":"levelo://app?vid=7fd59132-6ad1-4566-9810-9e39032f69c5","ios":"levelo://app?vid=7fd59132-6ad1-4566-9810-9e39032f69c5"},"vehicle_type_id":"4","last_reported":1734620966,"current_range_meters":27600,"station_id":"ce4bh192rcd13ifvqdd0","pricing_plan_id":"cebpf4jnsgd1na2vs0mg"},{"bike_id":"0d4cf357-cd32-43d3-8971-89a7a2f06824","system_id":"levelo_inurba_marseille","lat":43.25573,"lon":5.38239,"is_reserved":false,"is_disabled":false,"rental_uris":{"android":"levelo://app?vid=0d4cf357-cd32-43d3-8971-89a7a2f06824","ios":"levelo://app?vid=0d4cf357-cd32-43d3-8971-89a7a2f06824"},"vehicle_type_id":"4","last_reported":1734620966,"current_range_meters":37600,"station_id":"ce4bhih2rcd13ifvqfs0","pricing_plan_id":"cebpf4jnsgd1na2vs0mg"},{"bike_id":"a697e6cb-007d-4133-920d-e2d51433e03a","system_id":"levelo_inurba_marseille","lat":43.27492,"lon":5.42455,"is_reserved":false,"is_disabled":true,"rental_uris":{"android":"levelo://app?vid=a697e6cb-007d-4133-920d-e2d51433e03a","ios":"levelo://app?vid=a697e6cb-007d-4133-920d-e2d51433e03a"},"vehicle_type_id":"4","last_reported":1734620966,"current_range_meters":0,"station_id":"ce4bhn92rcd13ifvqgrg","pricing_plan_id":"cebpf4jnsgd1na2vs0mg"},{"bike_id":"b11dec3c-37ae-4e5f-a182-7db8571c22d2","system_id":"levelo_inurba_marseille","lat":43.298972,"lon":5.436585,"is_reserved":false,"is_disabled":false,"rental_uris":{"android":"levelo://app?vid=b11dec3c-37ae-4e5f-a182-7db8571c22d2","ios":"levelo://app?vid=b11dec3c-37ae-4e5f-a182-7db8571c22d2"},"vehicle_type_id":"4","last_reported":1734620966,"current_range_meters":36400,"station_id":"ce4bhpp2rcd13ifvqhfg","pricing_plan_id":"cebpf4jnsgd1na2vs0mg"},{"bike_id":"d4aa1161-b39f-4e04-9b26-9b7a54962176","system_id":"levelo_inurba_marseille","lat":43.27618,"lon":5.36124,"is_reserved":false,"is_disabled":false,"rental_uris":{"android":"levelo://app?vid=d4aa1161-b39f-4e04-9b26-9b7a54962176","ios":"levelo://app?vid=d4aa1161-b39f-4e04-9b26-9b7a54962176"},"vehicle_type_id":"4","last_reported":1734620966,"current_range_meters":38800,"station_id":"ce4bgj92rcd13ifvqbe0","pricing_plan_id":"cebpf4jnsgd1na2vs0mg"},{"bike_id":"72492ff3-d3e5-4b81-822b-1d3357339451","system_id":"levelo_inurba_marseille","lat":43.29076,"lon":5.39903,"is_reserved":false,"is_disabled":true,"rental_uris":{"android":"levelo://app?vid=72492ff3-d3e5-4b81-822b-1d3357339451","ios":"levelo://app?vid=72492ff3-d3e5-4b81-822b-1d3357339451"},"vehicle_type_id":"4","last_reported":1734620966,"current_range_meters":35600,"station_id":"","pricing_plan_id":"cebpf4jnsgd1na2vs0mg"},{"bike_id":"c88ed8a1-c9ef-47b7-a222-f2860b9f30d3","system_id":"levelo_inurba_marseille","lat":43.29276,"lon":5.36848,"is_reserved":false,"is_disabled":false,"rental_uris":{"android":"levelo://app?vid=c88ed8a1-c9ef-47b7-a222-f2860b9f30d3","ios":"levelo://app?vid=c88ed8a1-c9ef-47b7-a222-f2860b9f30d3"},"vehicle_type_id":"4","last_reported":1734620966,"current_range_meters":37600,"station_id":"ce4bhbp2rcd13ifvqesg","pricing_plan_id":"cebpf4jnsgd1na2vs0mg"},{"bike_id":"79687aac-cb5f-4ae0-a99e-c60a9baa37ca","system_id":"levelo_inurba_marseille","lat":43.30952,"lon":5.39049,"is_reserved":false,"is_disabled":false,"rental_uris":{"android":"levelo://app?vid=79687aac-cb5f-4ae0-a99e-c60a9baa37ca","ios":"levelo://app?vid=79687aac-cb5f-4ae0-a99e-c60a9baa37ca"},"vehicle_type_id":"4","last_reported":1734620966,"current_range_meters":38800,"station_id":"ce4bgup2rcd13ifvqco0","pricing_plan_id":"cebpf4jnsgd1na2vs0mg"},{"bike_id":"11279ee7-29a0-485d-88ca-34d560f11dda","system_id":"levelo_inurba_marseille","lat":43.281506,"lon":5.426506,"is_reserved":false,"is_disabled":false,"rental_uris":{"android":"levelo://app?vid=11279ee7-29a0-485d-88ca-34d560f11dda","ios":"levelo://app?vid=11279ee7-29a0-485d-88ca-34d560f11dda"},"vehicle_type_id":"4","last_reported":1734620966,"current_range_meters":8000,"station_id":"ce4bhnh2rcd13ifvqgug","pricing_plan_id":"cebpf4jnsgd1na2vs0mg"},{"bike_id":"cbe6566f-3b00-488c-b400-79a984e5b2b2","system_id":"levelo_inurba_marseille","lat":43.29965,"lon":5.37176,"is_reserved":false,"is_disabled":false,"rental_uris":{"android":"levelo://app?vid=cbe6566f-3b00-488c-b400-79a984e5b2b2","ios":"levelo://app?vid=cbe6566f-3b00-488c-b400-79a984e5b2b2"},"vehicle_type_id":"4","last_reported":1734620966,"current_range_meters":39200,"station_id":"ce4bgr92rcd13ifvqc7g","pricing_plan_id":"cebpf4jnsgd1na2vs0mg"},{"bike_id":"92dbe881-4d12-4807-9474-87af83394dc5","system_id":"levelo_inurba_marseille","lat":43.31385,"lon":5.36719,"is_reserved":false,"is_disabled":false,"rental_uris":{"android":"levelo://app?vid=92dbe881-4d12-4807-9474-87af83394dc5","ios":"levelo://app?vid=92dbe881-4d12-4807-9474-87af83394dc5"},"vehicle_type_id":"4","last_reported":1734620966,"current_range_meters":33600,"station_id":"ce4bgr92rcd13ifvqc6g","pricing_plan_id":"cebpf4jnsgd1na2vs0mg"},{"bike_id":"78471806-92f3-4670-9c4a-cbf55d75e3f8","system_id":"levelo_inurba_marseille","lat":43.32494,"lon":5.36577,"is_reserved":false,"is_disabled":false,"rental_uris":{"android":"levelo://app?vid=78471806-92f3-4670-9c4a-cbf55d75e3f8","ios":"levelo://app?vid=78471806-92f3-4670-9c4a-cbf55d75e3f8"},"vehicle_type_id":"4","last_reported":1734620966,"current_range_meters":39200,"station_id":"ce4bhs12rcd13ifvqhvg","pricing_plan_id":"cebpf4jnsgd1na2vs0mg"},{"bike_id":"2bbc7d10-3954-4134-8bbc-e39263d18ca1","system_id":"levelo_inurba_marseille","lat":43.2743,"lon":5.39424,"is_reserved":false,"is_disabled":false,"rental_uris":{"android":"levelo://app?vid=2bbc7d10-3954-4134-8bbc-e39263d18ca1","ios":"levelo://app?vid=2bbc7d10-3954-4134-8bbc-e39263d18ca1"},"vehicle_type_id":"4","last_reported":1734620966,"current_range_meters":30800,"station_id":"ce4bhdp2rcd13ifvqf20","pricing_plan_id":"cebpf4jnsgd1na2vs0mg"},{"bike_id":"370b1eb6-4f45-4760-84c5-106172693f5d","system_id":"levelo_inurba_marseille","lat":43.23957,"lon":5.36641,"is_reserved":false,"is_disabled":false,"rental_uris":{"android":"levelo://app?vid=370b1eb6-4f45-4760-84c5-106172693f5d","ios":"levelo://app?vid=370b1eb6-4f45-4760-84c5-106172693f5d"},"vehicle_type_id":"4","last_reported":1734620966,"current_range_meters":27600,"station_id":"ce4bhi12rcd13ifvqfp0","pricing_plan_id":"cebpf4jnsgd1na2vs0mg"},{"bike_id":"114cd166-4241-43f9-87cb-854bf88a8614","system_id":"levelo_inurba_marseille","lat":43.32477,"lon":5.36575,"is_reserved":false,"is_disabled":false,"rental_uris":{"android":"levelo://app?vid=114cd166-4241-43f9-87cb-854bf88a8614","ios":"levelo://app?vid=114cd166-4241-43f9-87cb-854bf88a8614"},"vehicle_type_id":"4","last_reported":1734620966,"current_range_meters":6800,"station_id":"ce4bhs12rcd13ifvqhvg","pricing_plan_id":"cebpf4jnsgd1na2vs0mg"},{"bike_id":"782bcbf2-b7de-4b04-bebc-aaa0329dd90c","system_id":"levelo_inurba_marseille","lat":43.23188,"lon":5.35559,"is_reserved":false,"is_disabled":false,"rental_uris":{"android":"levelo://app?vid=782bcbf2-b7de-4b04-bebc-aaa0329dd90c","ios":"levelo://app?vid=782bcbf2-b7de-4b04-bebc-aaa0329dd90c"},"vehicle_type_id":"4","last_reported":1734620966,"current_range_meters":38800,"station_id":"ce4bhu92rcd13ifvqi70","pricing_plan_id":"cebpf4jnsgd1na2vs0mg"},{"bike_id":"f5b051f4-e217-4e3b-843c-052a74518124","system_id":"levelo_inurba_marseille","lat":43.299188,"lon":5.37465,"is_reserved":false,"is_disabled":false,"rental_uris":{"android":"levelo://app?vid=f5b051f4-e217-4e3b-843c-052a74518124","ios":"levelo://app?vid=f5b051f4-e217-4e3b-843c-052a74518124"},"vehicle_type_id":"4","last_reported":1734620966,"current_range_meters":22800,"station_id":"ce4bgjh2rcd13ifvqbg0","pricing_plan_id":"cebpf4jnsgd1na2vs0mg"},{"bike_id":"2f54f37a-f215-49a7-b2c4-de22e4c382a2","system_id":"levelo_inurba_marseille","lat":43.30427,"lon":5.39754,"is_reserved":false,"is_disabled":false,"rental_uris":{"android":"levelo://app?vid=2f54f37a-f215-49a7-b2c4-de22e4c382a2","ios":"levelo://app?vid=2f54f37a-f215-49a7-b2c4-de22e4c382a2"},"vehicle_type_id":"4","last_reported":1734620966,"current_range_meters":38800,"station_id":"ce4bh092rcd13ifvqd20","pricing_plan_id":"cebpf4jnsgd1na2vs0mg"},{"bike_id":"b6ef7654-9bbe-4bb8-b52c-88b5be1a2fc0","system_id":"levelo_inurba_marseille","lat":43.30603,"lon":5.37237,"is_reserved":false,"is_disabled":false,"rental_uris":{"android":"levelo://app?vid=b6ef7654-9bbe-4bb8-b52c-88b5be1a2fc0","ios":"levelo://app?vid=b6ef7654-9bbe-4bb8-b52c-88b5be1a2fc0"},"vehicle_type_id":"4","last_reported":1734620966,"current_range_meters":18000,"station_id":"ce4bgqh2rcd13ifvqc4g","pricing_plan_id":"cebpf4jnsgd1na2vs0mg"},{"bike_id":"96ff88dc-8cf7-4b0f-a345-fa00220da932","system_id":"levelo_inurba_marseille","lat":43.2742,"lon":5.42409,"is_reserved":false,"is_disabled":true,"rental_uris":{"android":"levelo://app?vid=96ff88dc-8cf7-4b0f-a345-fa00220da932","ios":"levelo://app?vid=96ff88dc-8cf7-4b0f-a345-fa00220da932"},"vehicle_type_id":"4","last_reported":1734620966,"current_range_meters":0,"station_id":"","pricing_plan_id":"cebpf4jnsgd1na2vs0mg"},{"bike_id":"d5c0e746-a9fa-4159-b28f-7d6a3cba6cea","system_id":"levelo_inurba_marseille","lat":43.243919,"lon":5.370691,"is_reserved":false,"is_disabled":false,"rental_uris":{"android":"levelo://app?vid=d5c0e746-a9fa-4159-b28f-7d6a3cba6cea","ios":"levelo://app?vid=d5c0e746-a9fa-4159-b28f-7d6a3cba6cea"},"vehicle_type_id":"4","last_reported":1734620966,"current_range_meters":14000,"station_id":"ce4bhhh2rcd13ifvqfk0","pricing_plan_id":"cebpf4jnsgd1na2vs0mg"},{"bike_id":"6c04df81-e09e-4c2a-b0c6-f6534a0d4dfd","system_id":"levelo_inurba_marseille","lat":43.24076,"lon":5.37759,"is_reserved":false,"is_disabled":false,"rental_uris":{"android":"levelo://app?vid=6c04df81-e09e-4c2a-b0c6-f6534a0d4dfd","ios":"levelo://app?vid=6c04df81-e09e-4c2a-b0c6-f6534a0d4dfd"},"vehicle_type_id":"4","last_reported":1734620966,"current_range_meters":32800,"station_id":"ce4bhnp2rcd13ifvqgvg","pricing_plan_id":"cebpf4jnsgd1na2vs0mg"},{"bike_id":"f6a0097d-208c-4ed5-9b7e-280c6a0f27f2","system_id":"levelo_inurba_marseille","lat":43.31267,"lon":5.40172,"is_reserved":false,"is_disabled":false,"rental_uris":{"android":"levelo://app?vid=f6a0097d-208c-4ed5-9b7e-280c6a0f27f2","ios":"levelo://app?vid=f6a0097d-208c-4ed5-9b7e-280c6a0f27f2"},"vehicle_type_id":"4","last_reported":1734620966,"current_range_meters":8400,"station_id":"ce4bh092rcd13ifvqd30","pricing_plan_id":"cebpf4jnsgd1na2vs0mg"},{"bike_id":"a2a605c8-f45e-4ab0-8cb5-731c77c85b78","system_id":"levelo_inurba_marseille","lat":43.27919,"lon":5.39585,"is_reserved":false,"is_disabled":false,"rental_uris":{"android":"levelo://app?vid=a2a605c8-f45e-4ab0-8cb5-731c77c85b78","ios":"levelo://app?vid=a2a605c8-f45e-4ab0-8cb5-731c77c85b78"},"vehicle_type_id":"4","last_reported":1734620966,"current_range_meters":24000,"station_id":"ce4bhf92rcd13ifvqf40","pricing_plan_id":"cebpf4jnsgd1na2vs0mg"},{"bike_id":"65332c14-8f41-4f1a-b711-08ad210242f2","system_id":"levelo_inurba_marseille","lat":43.295899,"lon":5.380983,"is_reserved":false,"is_disabled":false,"rental_uris":{"android":"levelo://app?vid=65332c14-8f41-4f1a-b711-08ad210242f2","ios":"levelo://app?vid=65332c14-8f41-4f1a-b711-08ad210242f2"},"vehicle_type_id":"4","last_reported":1734620966,"current_range_meters":36000,"station_id":"ce4bgl12rcd13ifvqbo0","pricing_plan_id":"cebpf4jnsgd1na2vs0mg"},{"bike_id":"02dc3d0e-8263-49ec-be81-b597afd7f5aa","system_id":"levelo_inurba_marseille","lat":43.23059,"lon":5.35493,"is_reserved":false,"is_disabled":false,"rental_uris":{"android":"levelo://app?vid=02dc3d0e-8263-49ec-be81-b597afd7f5aa","ios":"levelo://app?vid=02dc3d0e-8263-49ec-be81-b597afd7f5aa"},"vehicle_type_id":"4","last_reported":1734620966,"current_range_meters":6800,"station_id":"cpo3342slgdg3j2ifvpg","pricing_plan_id":"cebpf4jnsgd1na2vs0mg"},{"bike_id":"dabc11e5-2a8c-408a-bea8-b9245b335168","system_id":"levelo_inurba_marseille","lat":43.24074,"lon":5.37757,"is_reserved":false,"is_disabled":true,"rental_uris":{"android":"levelo://app?vid=dabc11e5-2a8c-408a-bea8-b9245b335168","ios":"levelo://app?vid=dabc11e5-2a8c-408a-bea8-b9245b335168"},"vehicle_type_id":"4","last_reported":1734620966,"current_range_meters":0,"station_id":"ce4bhnp2rcd13ifvqgvg","pricing_plan_id":"cebpf4jnsgd1na2vs0mg"},{"bike_id":"54192533-5d8e-4958-bceb-50e5da614992","system_id":"levelo_inurba_marseille","lat":43.33014,"lon":5.39043,"is_reserved":false,"is_disabled":false,"rental_uris":{"android":"levelo://app?vid=54192533-5d8e-4958-bceb-50e5da614992","ios":"levelo://app?vid=54192533-5d8e-4958-bceb-50e5da614992"},"vehicle_type_id":"4","last_reported":1734620966,"current_range_meters":38800,"station_id":"ce4bhr92rcd13ifvqhrg","pricing_plan_id":"cebpf4jnsgd1na2vs0mg"},{"bike_id":"44127e4e-8e84-4a38-89f7-8f4efb63f7a5","system_id":"levelo_inurba_marseille","lat":43.31198,"lon":5.36778,"is_reserved":false,"is_disabled":true,"rental_uris":{"android":"levelo://app?vid=44127e4e-8e84-4a38-89f7-8f4efb63f7a5","ios":"levelo://app?vid=44127e4e-8e84-4a38-89f7-8f4efb63f7a5"},"vehicle_type_id":"4","last_reported":1734620966,"current_range_meters":400,"station_id":"","pricing_plan_id":"cebpf4jnsgd1na2vs0mg"},{"bike_id":"115725e9-2396-4920-bdf7-28153c81bcaf","system_id":"levelo_inurba_marseille","lat":43.27496,"lon":5.42458,"is_reserved":false,"is_disabled":false,"rental_uris":{"android":"levelo://app?vid=115725e9-2396-4920-bdf7-28153c81bcaf","ios":"levelo://app?vid=115725e9-2396-4920-bdf7-28153c81bcaf"},"vehicle_type_id":"4","last_reported":1734620966,"current_range_meters":24800,"station_id":"ce4bhn92rcd13ifvqgrg","pricing_plan_id":"cebpf4jnsgd1na2vs0mg"},{"bike_id":"7479d725-59cb-48cf-a084-1b11e8db4e0c","system_id":"levelo_inurba_marseille","lat":43.28155,"lon":5.42674,"is_reserved":false,"is_disabled":false,"rental_uris":{"android":"levelo://app?vid=7479d725-59cb-48cf-a084-1b11e8db4e0c","ios":"levelo://app?vid=7479d725-59cb-48cf-a084-1b11e8db4e0c"},"vehicle_type_id":"4","last_reported":1734620966,"current_range_meters":38000,"station_id":"ce4bhnh2rcd13ifvqgug","pricing_plan_id":"cebpf4jnsgd1na2vs0mg"},{"bike_id":"6754465b-8ec1-4291-a363-dc0c75d1552e","system_id":"levelo_inurba_marseille","lat":43.24409,"lon":5.37074,"is_reserved":false,"is_disabled":false,"rental_uris":{"android":"levelo://app?vid=6754465b-8ec1-4291-a363-dc0c75d1552e","ios":"levelo://app?vid=6754465b-8ec1-4291-a363-dc0c75d1552e"},"vehicle_type_id":"4","last_reported":1734620966,"current_range_meters":34800,"station_id":"ce4bhhh2rcd13ifvqfk0","pricing_plan_id":"cebpf4jnsgd1na2vs0mg"},{"bike_id":"ec9ccacb-52f3-4e77-a8ae-bd921a28ef88","system_id":"levelo_inurba_marseille","lat":43.31202,"lon":5.36862,"is_reserved":false,"is_disabled":false,"rental_uris":{"android":"levelo://app?vid=ec9ccacb-52f3-4e77-a8ae-bd921a28ef88","ios":"levelo://app?vid=ec9ccacb-52f3-4e77-a8ae-bd921a28ef88"},"vehicle_type_id":"4","last_reported":1734620966,"current_range_meters":38800,"station_id":"ce4bgl92rcd13ifvqbq0","pricing_plan_id":"cebpf4jnsgd1na2vs0mg"},{"bike_id":"ab0a9a67-d6ed-4cea-95a7-debef0a5b99b","system_id":"levelo_inurba_marseille","lat":43.30412,"lon":5.39718,"is_reserved":false,"is_disabled":false,"rental_uris":{"android":"levelo://app?vid=ab0a9a67-d6ed-4cea-95a7-debef0a5b99b","ios":"levelo://app?vid=ab0a9a67-d6ed-4cea-95a7-debef0a5b99b"},"vehicle_type_id":"4","last_reported":1734620966,"current_range_meters":20400,"station_id":"ce4bh092rcd13ifvqd20","pricing_plan_id":"cebpf4jnsgd1na2vs0mg"},{"bike_id":"d2d7902a-c5f0-4030-9e3f-9c99744486f8","system_id":"levelo_inurba_marseille","lat":43.29066,"lon":5.37184,"is_reserved":false,"is_disabled":false,"rental_uris":{"android":"levelo://app?vid=d2d7902a-c5f0-4030-9e3f-9c99744486f8","ios":"levelo://app?vid=d2d7902a-c5f0-4030-9e3f-9c99744486f8"},"vehicle_type_id":"4","last_reported":1734620966,"current_range_meters":37600,"station_id":"ce4bh5p2rcd13ifvqe4g","pricing_plan_id":"cebpf4jnsgd1na2vs0mg"},{"bike_id":"ee39a4ff-b614-4dd2-956c-b384f0742800","system_id":"levelo_inurba_marseille","lat":43.32467,"lon":5.36569,"is_reserved":false,"is_disabled":false,"rental_uris":{"android":"levelo://app?vid=ee39a4ff-b614-4dd2-956c-b384f0742800","ios":"levelo://app?vid=ee39a4ff-b614-4dd2-956c-b384f0742800"},"vehicle_type_id":"4","last_reported":1734620966,"current_range_meters":39200,"station_id":"ce4bhs12rcd13ifvqhvg","pricing_plan_id":"cebpf4jnsgd1na2vs0mg"},{"bike_id":"dc467b3f-a89b-4e7e-8ef6-e864f473dc16","system_id":"levelo_inurba_marseille","lat":43.32333,"lon":5.40622,"is_reserved":false,"is_disabled":false,"rental_uris":{"android":"levelo://app?vid=dc467b3f-a89b-4e7e-8ef6-e864f473dc16","ios":"levelo://app?vid=dc467b3f-a89b-4e7e-8ef6-e864f473dc16"},"vehicle_type_id":"4","last_reported":1734620966,"current_range_meters":38800,"station_id":"ce4bhq92rcd13ifvqhjg","pricing_plan_id":"cebpf4jnsgd1na2vs0mg"},{"bike_id":"cd7b5a16-f32b-462e-bc1a-923b1c882c05","system_id":"levelo_inurba_marseille","lat":43.28719,"lon":5.37936,"is_reserved":false,"is_disabled":false,"rental_uris":{"android":"levelo://app?vid=cd7b5a16-f32b-462e-bc1a-923b1c882c05","ios":"levelo://app?vid=cd7b5a16-f32b-462e-bc1a-923b1c882c05"},"vehicle_type_id":"4","last_reported":1734620966,"current_range_meters":9200,"station_id":"ce4bh9p2rcd13ifvqec0","pricing_plan_id":"cebpf4jnsgd1na2vs0mg"},{"bike_id":"ebfaac6d-09cc-4a7d-86f1-a826a4bc243f","system_id":"levelo_inurba_marseille","lat":43.30432,"lon":5.39751,"is_reserved":false,"is_disabled":false,"rental_uris":{"android":"levelo://app?vid=ebfaac6d-09cc-4a7d-86f1-a826a4bc243f","ios":"levelo://app?vid=ebfaac6d-09cc-4a7d-86f1-a826a4bc243f"},"vehicle_type_id":"4","last_reported":1734620966,"current_range_meters":38400,"station_id":"ce4bh092rcd13ifvqd20","pricing_plan_id":"cebpf4jnsgd1na2vs0mg"},{"bike_id":"b3bec2b2-1f55-4aa9-bf02-40acba001163","system_id":"levelo_inurba_marseille","lat":43.29847,"lon":5.36274,"is_reserved":false,"is_disabled":false,"rental_uris":{"android":"levelo://app?vid=b3bec2b2-1f55-4aa9-bf02-40acba001163","ios":"levelo://app?vid=b3bec2b2-1f55-4aa9-bf02-40acba001163"},"vehicle_type_id":"4","last_reported":1734620966,"current_range_meters":38800,"station_id":"ce4bgpp2rcd13ifvqc3g","pricing_plan_id":"cebpf4jnsgd1na2vs0mg"},{"bike_id":"e9606422-c23d-4f08-b73c-b815fa90e5f8","system_id":"levelo_inurba_marseille","lat":43.32475,"lon":5.36576,"is_reserved":false,"is_disabled":false,"rental_uris":{"android":"levelo://app?vid=e9606422-c23d-4f08-b73c-b815fa90e5f8","ios":"levelo://app?vid=e9606422-c23d-4f08-b73c-b815fa90e5f8"},"vehicle_type_id":"4","last_reported":1734620966,"current_range_meters":24400,"station_id":"ce4bhs12rcd13ifvqhvg","pricing_plan_id":"cebpf4jnsgd1na2vs0mg"},{"bike_id":"0855ccf4-c4bf-4e2d-91fe-d844493d18ce","system_id":"levelo_inurba_marseille","lat":43.27995,"lon":5.40022,"is_reserved":false,"is_disabled":false,"rental_uris":{"android":"levelo://app?vid=0855ccf4-c4bf-4e2d-91fe-d844493d18ce","ios":"levelo://app?vid=0855ccf4-c4bf-4e2d-91fe-d844493d18ce"},"vehicle_type_id":"4","last_reported":1734620966,"current_range_meters":38800,"station_id":"ce4bho92rcd13ifvqh4g","pricing_plan_id":"cebpf4jnsgd1na2vs0mg"},{"bike_id":"e0c2eddf-4ba9-4754-b0b5-efd80badee74","system_id":"levelo_inurba_marseille","lat":43.25867,"lon":5.39437,"is_reserved":false,"is_disabled":true,"rental_uris":{"android":"levelo://app?vid=e0c2eddf-4ba9-4754-b0b5-efd80badee74","ios":"levelo://app?vid=e0c2eddf-4ba9-4754-b0b5-efd80badee74"},"vehicle_type_id":"4","last_reported":1734620966,"current_range_meters":0,"station_id":"","pricing_plan_id":"cebpf4jnsgd1na2vs0mg"},{"bike_id":"c8a9df44-c9a1-43c7-addd-475d94f4c5ab","system_id":"levelo_inurba_marseille","lat":43.27324,"lon":5.39098,"is_reserved":false,"is_disabled":true,"rental_uris":{"android":"levelo://app?vid=c8a9df44-c9a1-43c7-addd-475d94f4c5ab","ios":"levelo://app?vid=c8a9df44-c9a1-43c7-addd-475d94f4c5ab"},"vehicle_type_id":"4","last_reported":1734620966,"current_range_meters":0,"station_id":"ce4bhgp2rcd13ifvqfe0","pricing_plan_id":"cebpf4jnsgd1na2vs0mg"},{"bike_id":"c42346d2-8ead-422a-8711-e75dd0bf9da6","system_id":"levelo_inurba_marseille","lat":43.29905,"lon":5.38157,"is_reserved":false,"is_disabled":false,"rental_uris":{"android":"levelo://app?vid=c42346d2-8ead-422a-8711-e75dd0bf9da6","ios":"levelo://app?vid=c42346d2-8ead-422a-8711-e75dd0bf9da6"},"vehicle_type_id":"4","last_reported":1734620966,"current_range_meters":24000,"station_id":"ce4bgj12rcd13ifvqbc0","pricing_plan_id":"cebpf4jnsgd1na2vs0mg"},{"bike_id":"aebff4f6-fe4e-494c-9ec4-35d089f38eea","system_id":"levelo_inurba_marseille","lat":43.2815,"lon":5.42645,"is_reserved":false,"is_disabled":false,"rental_uris":{"android":"levelo://app?vid=aebff4f6-fe4e-494c-9ec4-35d089f38eea","ios":"levelo://app?vid=aebff4f6-fe4e-494c-9ec4-35d089f38eea"},"vehicle_type_id":"4","last_reported":1734620966,"current_range_meters":28000,"station_id":"ce4bhnh2rcd13ifvqgug","pricing_plan_id":"cebpf4jnsgd1na2vs0mg"},{"bike_id":"4f621623-13c3-4e91-92e9-1ed205342968","system_id":"levelo_inurba_marseille","lat":43.30882,"lon":5.39642,"is_reserved":false,"is_disabled":false,"rental_uris":{"android":"levelo://app?vid=4f621623-13c3-4e91-92e9-1ed205342968","ios":"levelo://app?vid=4f621623-13c3-4e91-92e9-1ed205342968"},"vehicle_type_id":"4","last_reported":1734620966,"current_range_meters":36400,"station_id":"ce4bh012rcd13ifvqcv0","pricing_plan_id":"cebpf4jnsgd1na2vs0mg"},{"bike_id":"f2a1d246-a6c1-426d-b4f9-6c0e5cd8282d","system_id":"levelo_inurba_marseille","lat":43.30191,"lon":5.39482,"is_reserved":false,"is_disabled":false,"rental_uris":{"android":"levelo://app?vid=f2a1d246-a6c1-426d-b4f9-6c0e5cd8282d","ios":"levelo://app?vid=f2a1d246-a6c1-426d-b4f9-6c0e5cd8282d"},"vehicle_type_id":"4","last_reported":1734620966,"current_range_meters":39200,"station_id":"ce4bh0p2rcd13ifvqd70","pricing_plan_id":"cebpf4jnsgd1na2vs0mg"},{"bike_id":"298b8445-2c9f-45b2-ac4e-9c28b3d5da22","system_id":"levelo_inurba_marseille","lat":43.31225,"lon":5.3688,"is_reserved":false,"is_disabled":false,"rental_uris":{"android":"levelo://app?vid=298b8445-2c9f-45b2-ac4e-9c28b3d5da22","ios":"levelo://app?vid=298b8445-2c9f-45b2-ac4e-9c28b3d5da22"},"vehicle_type_id":"4","last_reported":1734620966,"current_range_meters":35200,"station_id":"ce4bgl92rcd13ifvqbq0","pricing_plan_id":"cebpf4jnsgd1na2vs0mg"},{"bike_id":"0eef1e89-c422-468e-8e6c-a70b87079ea6","system_id":"levelo_inurba_marseille","lat":43.29303,"lon":5.37442,"is_reserved":false,"is_disabled":false,"rental_uris":{"android":"levelo://app?vid=0eef1e89-c422-468e-8e6c-a70b87079ea6","ios":"levelo://app?vid=0eef1e89-c422-468e-8e6c-a70b87079ea6"},"vehicle_type_id":"4","last_reported":1734620966,"current_range_meters":24400,"station_id":"ce4bgi12rcd13ifvqb70","pricing_plan_id":"cebpf4jnsgd1na2vs0mg"},{"bike_id":"22ae2ec4-4bf6-4591-b9d7-2b208675e8af","system_id":"levelo_inurba_marseille","lat":43.2952,"lon":5.37511,"is_reserved":false,"is_disabled":false,"rental_uris":{"android":"levelo://app?vid=22ae2ec4-4bf6-4591-b9d7-2b208675e8af","ios":"levelo://app?vid=22ae2ec4-4bf6-4591-b9d7-2b208675e8af"},"vehicle_type_id":"4","last_reported":1734620966,"current_range_meters":29600,"station_id":"ce4bgkp2rcd13ifvqbmg","pricing_plan_id":"cebpf4jnsgd1na2vs0mg"},{"bike_id":"6913cbcc-82f6-45f2-a24d-d06f3116c548","system_id":"levelo_inurba_marseille","lat":43.30943,"lon":5.3902,"is_reserved":false,"is_disabled":false,"rental_uris":{"android":"levelo://app?vid=6913cbcc-82f6-45f2-a24d-d06f3116c548","ios":"levelo://app?vid=6913cbcc-82f6-45f2-a24d-d06f3116c548"},"vehicle_type_id":"4","last_reported":1734620966,"current_range_meters":8000,"station_id":"ce4bgup2rcd13ifvqco0","pricing_plan_id":"cebpf4jnsgd1na2vs0mg"},{"bike_id":"40c9030d-4798-439e-a5eb-4dbac751a50c","system_id":"levelo_inurba_marseille","lat":43.29196,"lon":5.39325,"is_reserved":false,"is_disabled":false,"rental_uris":{"android":"levelo://app?vid=40c9030d-4798-439e-a5eb-4dbac751a50c","ios":"levelo://app?vid=40c9030d-4798-439e-a5eb-4dbac751a50c"},"vehicle_type_id":"4","last_reported":1734620966,"current_range_meters":37600,"station_id":"ce4bh192rcd13ifvqdd0","pricing_plan_id":"cebpf4jnsgd1na2vs0mg"},{"bike_id":"382d8c6e-4f14-43e4-91cf-e29e1c9ac5ce","system_id":"levelo_inurba_marseille","lat":43.29715,"lon":5.36618,"is_reserved":false,"is_disabled":false,"rental_uris":{"android":"levelo://app?vid=382d8c6e-4f14-43e4-91cf-e29e1c9ac5ce","ios":"levelo://app?vid=382d8c6e-4f14-43e4-91cf-e29e1c9ac5ce"},"vehicle_type_id":"4","last_reported":1734620966,"current_range_meters":29600,"station_id":"ce4bgn12rcd13ifvqbt0","pricing_plan_id":"cebpf4jnsgd1na2vs0mg"},{"bike_id":"30cf218e-0565-4b4d-b831-6b6e7547fc40","system_id":"levelo_inurba_marseille","lat":43.26806,"lon":5.40277,"is_reserved":false,"is_disabled":true,"rental_uris":{"android":"levelo://app?vid=30cf218e-0565-4b4d-b831-6b6e7547fc40","ios":"levelo://app?vid=30cf218e-0565-4b4d-b831-6b6e7547fc40"},"vehicle_type_id":"4","last_reported":1734620966,"current_range_meters":1200,"station_id":"ce501612rcd8frsf0b60","pricing_plan_id":"cebpf4jnsgd1na2vs0mg"},{"bike_id":"758d9dd9-873f-4545-ae28-835d9c50bf53","system_id":"levelo_inurba_marseille","lat":43.27076,"lon":5.4228,"is_reserved":false,"is_disabled":false,"rental_uris":{"android":"levelo://app?vid=758d9dd9-873f-4545-ae28-835d9c50bf53","ios":"levelo://app?vid=758d9dd9-873f-4545-ae28-835d9c50bf53"},"vehicle_type_id":"4","last_reported":1734620966,"current_range_meters":36400,"station_id":"ce4bhk92rcd13ifvqgb0","pricing_plan_id":"cebpf4jnsgd1na2vs0mg"},{"bike_id":"82184c6c-02ab-4506-879c-5f186eac192a","system_id":"levelo_inurba_marseille","lat":43.26023,"lon":5.37559,"is_reserved":false,"is_disabled":false,"rental_uris":{"android":"levelo://app?vid=82184c6c-02ab-4506-879c-5f186eac192a","ios":"levelo://app?vid=82184c6c-02ab-4506-879c-5f186eac192a"},"vehicle_type_id":"4","last_reported":1734620966,"current_range_meters":37600,"station_id":"ce4bhgh2rcd13ifvqfa0","pricing_plan_id":"cebpf4jnsgd1na2vs0mg"},{"bike_id":"48a93184-4a3b-412d-8567-4604f6481e7e","system_id":"levelo_inurba_marseille","lat":43.30464,"lon":5.3791,"is_reserved":false,"is_disabled":false,"rental_uris":{"android":"levelo://app?vid=48a93184-4a3b-412d-8567-4604f6481e7e","ios":"levelo://app?vid=48a93184-4a3b-412d-8567-4604f6481e7e"},"vehicle_type_id":"4","last_reported":1734620966,"current_range_meters":37600,"station_id":"ce4bgup2rcd13ifvqcn0","pricing_plan_id":"cebpf4jnsgd1na2vs0mg"},{"bike_id":"ee541765-428a-4bb1-bc90-f1a524fdccf5","system_id":"levelo_inurba_marseille","lat":43.31709,"lon":5.43705,"is_reserved":false,"is_disabled":false,"rental_uris":{"android":"levelo://app?vid=ee541765-428a-4bb1-bc90-f1a524fdccf5","ios":"levelo://app?vid=ee541765-428a-4bb1-bc90-f1a524fdccf5"},"vehicle_type_id":"4","last_reported":1734620966,"current_range_meters":38800,"station_id":"ce4bhp92rcd13ifvqhcg","pricing_plan_id":"cebpf4jnsgd1na2vs0mg"},{"bike_id":"17b2d2b0-9855-46b4-a478-0bd9c7277056","system_id":"levelo_inurba_marseille","lat":43.30915,"lon":5.37841,"is_reserved":false,"is_disabled":true,"rental_uris":{"android":"levelo://app?vid=17b2d2b0-9855-46b4-a478-0bd9c7277056","ios":"levelo://app?vid=17b2d2b0-9855-46b4-a478-0bd9c7277056"},"vehicle_type_id":"4","last_reported":1734620966,"current_range_meters":0,"station_id":"","pricing_plan_id":"cebpf4jnsgd1na2vs0mg"},{"bike_id":"69699e7b-91f5-44f7-b494-c278edf9698d","system_id":"levelo_inurba_marseille","lat":43.29539,"lon":5.39403,"is_reserved":false,"is_disabled":false,"rental_uris":{"android":"levelo://app?vid=69699e7b-91f5-44f7-b494-c278edf9698d","ios":"levelo://app?vid=69699e7b-91f5-44f7-b494-c278edf9698d"},"vehicle_type_id":"4","last_reported":1734620966,"current_range_meters":38000,"station_id":"ce4bh292rcd13ifvqdf0","pricing_plan_id":"cebpf4jnsgd1na2vs0mg"},{"bike_id":"d1626899-ccbb-47e9-9a44-22e5c9655409","system_id":"levelo_inurba_marseille","lat":43.3055,"lon":5.38431,"is_reserved":false,"is_disabled":false,"rental_uris":{"android":"levelo://app?vid=d1626899-ccbb-47e9-9a44-22e5c9655409","ios":"levelo://app?vid=d1626899-ccbb-47e9-9a44-22e5c9655409"},"vehicle_type_id":"4","last_reported":1734620966,"current_range_meters":38800,"station_id":"ce4bgg92rcd13ifvqb30","pricing_plan_id":"cebpf4jnsgd1na2vs0mg"},{"bike_id":"7bffcd7b-607f-4005-9803-c0e4872f8dc8","system_id":"levelo_inurba_marseille","lat":43.28417,"lon":5.34991,"is_reserved":false,"is_disabled":true,"rental_uris":{"android":"levelo://app?vid=7bffcd7b-607f-4005-9803-c0e4872f8dc8","ios":"levelo://app?vid=7bffcd7b-607f-4005-9803-c0e4872f8dc8"},"vehicle_type_id":"4","last_reported":1734620966,"current_range_meters":0,"station_id":"ce4bhbh2rcd13ifvqepg","pricing_plan_id":"cebpf4jnsgd1na2vs0mg"},{"bike_id":"37262ef4-1d23-481f-80ec-80ca4076f5b0","system_id":"levelo_inurba_marseille","lat":43.24391,"lon":5.37053,"is_reserved":false,"is_disabled":false,"rental_uris":{"android":"levelo://app?vid=37262ef4-1d23-481f-80ec-80ca4076f5b0","ios":"levelo://app?vid=37262ef4-1d23-481f-80ec-80ca4076f5b0"},"vehicle_type_id":"4","last_reported":1734620966,"current_range_meters":33200,"station_id":"ce4bhhh2rcd13ifvqfk0","pricing_plan_id":"cebpf4jnsgd1na2vs0mg"},{"bike_id":"86732044-58fd-45da-954f-a299c89100fd","system_id":"levelo_inurba_marseille","lat":43.30212,"lon":5.39467,"is_reserved":false,"is_disabled":false,"rental_uris":{"android":"levelo://app?vid=86732044-58fd-45da-954f-a299c89100fd","ios":"levelo://app?vid=86732044-58fd-45da-954f-a299c89100fd"},"vehicle_type_id":"4","last_reported":1734620966,"current_range_meters":34800,"station_id":"ce4bh0p2rcd13ifvqd70","pricing_plan_id":"cebpf4jnsgd1na2vs0mg"},{"bike_id":"bbcf5aa0-d854-4a62-9885-0d3c0ebf79aa","system_id":"levelo_inurba_marseille","lat":43.29961,"lon":5.38506,"is_reserved":false,"is_disabled":false,"rental_uris":{"android":"levelo://app?vid=bbcf5aa0-d854-4a62-9885-0d3c0ebf79aa","ios":"levelo://app?vid=bbcf5aa0-d854-4a62-9885-0d3c0ebf79aa"},"vehicle_type_id":"4","last_reported":1734620966,"current_range_meters":32400,"station_id":"ce4bgj92rcd13ifvqbd0","pricing_plan_id":"cebpf4jnsgd1na2vs0mg"},{"bike_id":"2befd9bb-2032-428e-a694-b05f887861b1","system_id":"levelo_inurba_marseille","lat":43.29924,"lon":5.36542,"is_reserved":false,"is_disabled":false,"rental_uris":{"android":"levelo://app?vid=2befd9bb-2032-428e-a694-b05f887861b1","ios":"levelo://app?vid=2befd9bb-2032-428e-a694-b05f887861b1"},"vehicle_type_id":"4","last_reported":1734620966,"current_range_meters":17200,"station_id":"ce4bgm92rcd13ifvqbr0","pricing_plan_id":"cebpf4jnsgd1na2vs0mg"},{"bike_id":"b9c99336-83f9-4c0c-a1ac-e4abd6119400","system_id":"levelo_inurba_marseille","lat":43.29863,"lon":5.39735,"is_reserved":false,"is_disabled":false,"rental_uris":{"android":"levelo://app?vid=b9c99336-83f9-4c0c-a1ac-e4abd6119400","ios":"levelo://app?vid=b9c99336-83f9-4c0c-a1ac-e4abd6119400"},"vehicle_type_id":"4","last_reported":1734620966,"current_range_meters":10000,"station_id":"ce4bh0h2rcd13ifvqd50","pricing_plan_id":"cebpf4jnsgd1na2vs0mg"},{"bike_id":"43eb1024-3b5b-4817-baab-0a1232de5541","system_id":"levelo_inurba_marseille","lat":43.30534,"lon":5.36531,"is_reserved":false,"is_disabled":false,"rental_uris":{"android":"levelo://app?vid=43eb1024-3b5b-4817-baab-0a1232de5541","ios":"levelo://app?vid=43eb1024-3b5b-4817-baab-0a1232de5541"},"vehicle_type_id":"4","last_reported":1734620966,"current_range_meters":17600,"station_id":"ce4bgs12rcd13ifvqcag","pricing_plan_id":"cebpf4jnsgd1na2vs0mg"},{"bike_id":"bfa6d597-90be-427f-9a48-fb74c1e9f660","system_id":"levelo_inurba_marseille","lat":43.29608,"lon":5.37729,"is_reserved":false,"is_disabled":false,"rental_uris":{"android":"levelo://app?vid=bfa6d597-90be-427f-9a48-fb74c1e9f660","ios":"levelo://app?vid=bfa6d597-90be-427f-9a48-fb74c1e9f660"},"vehicle_type_id":"4","last_reported":1734620966,"current_range_meters":34800,"station_id":"ce4bgi92rcd13ifvqb90","pricing_plan_id":"cebpf4jnsgd1na2vs0mg"},{"bike_id":"dc1535b0-6d16-4f66-a818-14a4a46dd509","system_id":"levelo_inurba_marseille","lat":43.30879,"lon":5.372,"is_reserved":false,"is_disabled":false,"rental_uris":{"android":"levelo://app?vid=dc1535b0-6d16-4f66-a818-14a4a46dd509","ios":"levelo://app?vid=dc1535b0-6d16-4f66-a818-14a4a46dd509"},"vehicle_type_id":"4","last_reported":1734620966,"current_range_meters":37600,"station_id":"ce4bguh2rcd13ifvqckg","pricing_plan_id":"cebpf4jnsgd1na2vs0mg"},{"bike_id":"a8205c76-f315-4298-a8e4-d1808f07a9ab","system_id":"levelo_inurba_marseille","lat":43.31068,"lon":5.38364,"is_reserved":false,"is_disabled":false,"rental_uris":{"android":"levelo://app?vid=a8205c76-f315-4298-a8e4-d1808f07a9ab","ios":"levelo://app?vid=a8205c76-f315-4298-a8e4-d1808f07a9ab"},"vehicle_type_id":"4","last_reported":1734620966,"current_range_meters":34800,"station_id":"ce4bgv92rcd13ifvqcr0","pricing_plan_id":"cebpf4jnsgd1na2vs0mg"},{"bike_id":"d204e1c1-da85-437b-9afe-2e23f3cf1fab","system_id":"levelo_inurba_marseille","lat":43.30309,"lon":5.36875,"is_reserved":false,"is_disabled":false,"rental_uris":{"android":"levelo://app?vid=d204e1c1-da85-437b-9afe-2e23f3cf1fab","ios":"levelo://app?vid=d204e1c1-da85-437b-9afe-2e23f3cf1fab"},"vehicle_type_id":"4","last_reported":1734620966,"current_range_meters":26000,"station_id":"ce4bgqh2rcd13ifvqc5g","pricing_plan_id":"cebpf4jnsgd1na2vs0mg"},{"bike_id":"405074bb-7988-4d4c-b3d9-0e0756acdbad","system_id":"levelo_inurba_marseille","lat":43.29846,"lon":5.36272,"is_reserved":false,"is_disabled":false,"rental_uris":{"android":"levelo://app?vid=405074bb-7988-4d4c-b3d9-0e0756acdbad","ios":"levelo://app?vid=405074bb-7988-4d4c-b3d9-0e0756acdbad"},"vehicle_type_id":"4","last_reported":1734620966,"current_range_meters":14800,"station_id":"ce4bgpp2rcd13ifvqc3g","pricing_plan_id":"cebpf4jnsgd1na2vs0mg"},{"bike_id":"27589c7b-1ff7-44e4-83f1-d7a65e77b5c9","system_id":"levelo_inurba_marseille","lat":43.32112,"lon":5.36768,"is_reserved":false,"is_disabled":false,"rental_uris":{"android":"levelo://app?vid=27589c7b-1ff7-44e4-83f1-d7a65e77b5c9","ios":"levelo://app?vid=27589c7b-1ff7-44e4-83f1-d7a65e77b5c9"},"vehicle_type_id":"4","last_reported":1734620966,"current_range_meters":29600,"station_id":"ce4bhrh2rcd13ifvqhug","pricing_plan_id":"cebpf4jnsgd1na2vs0mg"},{"bike_id":"9b4e8892-0a38-47e0-b669-2cacac85c950","system_id":"levelo_inurba_marseille","lat":43.30536,"lon":5.36554,"is_reserved":false,"is_disabled":false,"rental_uris":{"android":"levelo://app?vid=9b4e8892-0a38-47e0-b669-2cacac85c950","ios":"levelo://app?vid=9b4e8892-0a38-47e0-b669-2cacac85c950"},"vehicle_type_id":"4","last_reported":1734620966,"current_range_meters":4800,"station_id":"ce4bgs12rcd13ifvqcag","pricing_plan_id":"cebpf4jnsgd1na2vs0mg"},{"bike_id":"016009ff-c5b8-4760-85e7-d9cd55f8086c","system_id":"levelo_inurba_marseille","lat":43.28412,"lon":5.34994,"is_reserved":false,"is_disabled":false,"rental_uris":{"android":"levelo://app?vid=016009ff-c5b8-4760-85e7-d9cd55f8086c","ios":"levelo://app?vid=016009ff-c5b8-4760-85e7-d9cd55f8086c"},"vehicle_type_id":"4","last_reported":1734620966,"current_range_meters":28000,"station_id":"ce4bhbh2rcd13ifvqepg","pricing_plan_id":"cebpf4jnsgd1na2vs0mg"},{"bike_id":"d4a92d73-458f-4633-b078-8b09bedbb320","system_id":"levelo_inurba_marseille","lat":43.31325,"lon":5.39698,"is_reserved":false,"is_disabled":false,"rental_uris":{"android":"levelo://app?vid=d4a92d73-458f-4633-b078-8b09bedbb320","ios":"levelo://app?vid=d4a92d73-458f-4633-b078-8b09bedbb320"},"vehicle_type_id":"4","last_reported":1734620966,"current_range_meters":38800,"station_id":"ce4bgvp2rcd13ifvqcu0","pricing_plan_id":"cebpf4jnsgd1na2vs0mg"},{"bike_id":"9964367f-1028-4724-aa62-50251982452a","system_id":"levelo_inurba_marseille","lat":43.28853,"lon":5.35857,"is_reserved":false,"is_disabled":false,"rental_uris":{"android":"levelo://app?vid=9964367f-1028-4724-aa62-50251982452a","ios":"levelo://app?vid=9964367f-1028-4724-aa62-50251982452a"},"vehicle_type_id":"4","last_reported":1734620966,"current_range_meters":37600,"station_id":"ce4bhb12rcd13ifvqem0","pricing_plan_id":"cebpf4jnsgd1na2vs0mg"},{"bike_id":"2a12bde8-ca1e-4ca8-8cbb-8dbf9a638106","system_id":"levelo_inurba_marseille","lat":43.23193,"lon":5.35547,"is_reserved":false,"is_disabled":false,"rental_uris":{"android":"levelo://app?vid=2a12bde8-ca1e-4ca8-8cbb-8dbf9a638106","ios":"levelo://app?vid=2a12bde8-ca1e-4ca8-8cbb-8dbf9a638106"},"vehicle_type_id":"4","last_reported":1734620966,"current_range_meters":28800,"station_id":"ce4bhu92rcd13ifvqi70","pricing_plan_id":"cebpf4jnsgd1na2vs0mg"},{"bike_id":"e8213348-b35b-48e5-99ff-d8c9a6f92405","system_id":"levelo_inurba_marseille","lat":43.30101,"lon":5.39068,"is_reserved":false,"is_disabled":false,"rental_uris":{"android":"levelo://app?vid=e8213348-b35b-48e5-99ff-d8c9a6f92405","ios":"levelo://app?vid=e8213348-b35b-48e5-99ff-d8c9a6f92405"},"vehicle_type_id":"4","last_reported":1734620966,"current_range_meters":38800,"station_id":"ce4bh192rcd13ifvqdb0","pricing_plan_id":"cebpf4jnsgd1na2vs0mg"},{"bike_id":"dffe2b8c-c419-4106-b605-19f5b9522c3a","system_id":"levelo_inurba_marseille","lat":43.29309,"lon":5.37453,"is_reserved":false,"is_disabled":false,"rental_uris":{"android":"levelo://app?vid=dffe2b8c-c419-4106-b605-19f5b9522c3a","ios":"levelo://app?vid=dffe2b8c-c419-4106-b605-19f5b9522c3a"},"vehicle_type_id":"4","last_reported":1734620966,"current_range_meters":39200,"station_id":"ce4bgi12rcd13ifvqb70","pricing_plan_id":"cebpf4jnsgd1na2vs0mg"},{"bike_id":"fdeb4ccc-d850-402e-84ed-8ebecff29977","system_id":"levelo_inurba_marseille","lat":43.29725,"lon":5.37688,"is_reserved":false,"is_disabled":false,"rental_uris":{"android":"levelo://app?vid=fdeb4ccc-d850-402e-84ed-8ebecff29977","ios":"levelo://app?vid=fdeb4ccc-d850-402e-84ed-8ebecff29977"},"vehicle_type_id":"4","last_reported":1734620966,"current_range_meters":32800,"station_id":"ce4bgkh2rcd13ifvqbl0","pricing_plan_id":"cebpf4jnsgd1na2vs0mg"},{"bike_id":"f6d0dec7-e1b5-4800-b71e-6965515cabb2","system_id":"levelo_inurba_marseille","lat":43.2795,"lon":5.41049,"is_reserved":false,"is_disabled":false,"rental_uris":{"android":"levelo://app?vid=f6d0dec7-e1b5-4800-b71e-6965515cabb2","ios":"levelo://app?vid=f6d0dec7-e1b5-4800-b71e-6965515cabb2"},"vehicle_type_id":"4","last_reported":1734620966,"current_range_meters":12400,"station_id":"ce4bhnp2rcd13ifvqh0g","pricing_plan_id":"cebpf4jnsgd1na2vs0mg"},{"bike_id":"b002d028-e42c-46e2-93ce-a18a7a90546e","system_id":"levelo_inurba_marseille","lat":43.32265,"lon":5.38296,"is_reserved":false,"is_disabled":false,"rental_uris":{"android":"levelo://app?vid=b002d028-e42c-46e2-93ce-a18a7a90546e","ios":"levelo://app?vid=b002d028-e42c-46e2-93ce-a18a7a90546e"},"vehicle_type_id":"4","last_reported":1734620966,"current_range_meters":22800,"station_id":"ce4bhr12rcd13ifvqhqg","pricing_plan_id":"cebpf4jnsgd1na2vs0mg"},{"bike_id":"8d2d1fc5-8995-4400-8cfc-148fb6ed4a6d","system_id":"levelo_inurba_marseille","lat":43.27494,"lon":5.42459,"is_reserved":false,"is_disabled":true,"rental_uris":{"android":"levelo://app?vid=8d2d1fc5-8995-4400-8cfc-148fb6ed4a6d","ios":"levelo://app?vid=8d2d1fc5-8995-4400-8cfc-148fb6ed4a6d"},"vehicle_type_id":"4","last_reported":1734620966,"current_range_meters":0,"station_id":"ce4bhn92rcd13ifvqgrg","pricing_plan_id":"cebpf4jnsgd1na2vs0mg"},{"bike_id":"67890315-0bc2-415f-b3b2-4d8ca27768aa","system_id":"levelo_inurba_marseille","lat":43.27953,"lon":5.41042,"is_reserved":false,"is_disabled":false,"rental_uris":{"android":"levelo://app?vid=67890315-0bc2-415f-b3b2-4d8ca27768aa","ios":"levelo://app?vid=67890315-0bc2-415f-b3b2-4d8ca27768aa"},"vehicle_type_id":"4","last_reported":1734620966,"current_range_meters":38400,"station_id":"ce4bhnp2rcd13ifvqh0g","pricing_plan_id":"cebpf4jnsgd1na2vs0mg"},{"bike_id":"4f3a7383-9f75-4616-97fe-325efee203b8","system_id":"levelo_inurba_marseille","lat":43.29307,"lon":5.3716,"is_reserved":false,"is_disabled":false,"rental_uris":{"android":"levelo://app?vid=4f3a7383-9f75-4616-97fe-325efee203b8","ios":"levelo://app?vid=4f3a7383-9f75-4616-97fe-325efee203b8"},"vehicle_type_id":"4","last_reported":1734620966,"current_range_meters":38000,"station_id":"ce4bgh92rcd13ifvqb40","pricing_plan_id":"cebpf4jnsgd1na2vs0mg"},{"bike_id":"8c3371ec-79e8-41b5-9548-100ac417203a","system_id":"levelo_inurba_marseille","lat":43.28845,"lon":5.35852,"is_reserved":false,"is_disabled":false,"rental_uris":{"android":"levelo://app?vid=8c3371ec-79e8-41b5-9548-100ac417203a","ios":"levelo://app?vid=8c3371ec-79e8-41b5-9548-100ac417203a"},"vehicle_type_id":"4","last_reported":1734620966,"current_range_meters":31200,"station_id":"ce4bhb12rcd13ifvqem0","pricing_plan_id":"cebpf4jnsgd1na2vs0mg"},{"bike_id":"b44f9236-c33f-43b3-ab7e-0f32e9951c9e","system_id":"levelo_inurba_marseille","lat":43.23194,"lon":5.35554,"is_reserved":false,"is_disabled":false,"rental_uris":{"android":"levelo://app?vid=b44f9236-c33f-43b3-ab7e-0f32e9951c9e","ios":"levelo://app?vid=b44f9236-c33f-43b3-ab7e-0f32e9951c9e"},"vehicle_type_id":"4","last_reported":1734620966,"current_range_meters":10800,"station_id":"ce4bhu92rcd13ifvqi70","pricing_plan_id":"cebpf4jnsgd1na2vs0mg"},{"bike_id":"4620dcd9-c3a6-4871-8162-c4a28f6d33ca","system_id":"levelo_inurba_marseille","lat":43.31872,"lon":5.40737,"is_reserved":false,"is_disabled":true,"rental_uris":{"android":"levelo://app?vid=4620dcd9-c3a6-4871-8162-c4a28f6d33ca","ios":"levelo://app?vid=4620dcd9-c3a6-4871-8162-c4a28f6d33ca"},"vehicle_type_id":"4","last_reported":1734620966,"current_range_meters":9200,"station_id":"ce4bhq12rcd13ifvqhig","pricing_plan_id":"cebpf4jnsgd1na2vs0mg"},{"bike_id":"b086d76a-9ab7-477b-9b0f-d1add1000689","system_id":"levelo_inurba_marseille","lat":43.30141,"lon":5.38777,"is_reserved":false,"is_disabled":false,"rental_uris":{"android":"levelo://app?vid=b086d76a-9ab7-477b-9b0f-d1add1000689","ios":"levelo://app?vid=b086d76a-9ab7-477b-9b0f-d1add1000689"},"vehicle_type_id":"4","last_reported":1734620966,"current_range_meters":38000,"station_id":"ce4bghh2rcd13ifvqb60","pricing_plan_id":"cebpf4jnsgd1na2vs0mg"},{"bike_id":"38189c1a-1fea-4cb8-b62f-f8393fe110e8","system_id":"levelo_inurba_marseille","lat":43.30951,"lon":5.39033,"is_reserved":false,"is_disabled":false,"rental_uris":{"android":"levelo://app?vid=38189c1a-1fea-4cb8-b62f-f8393fe110e8","ios":"levelo://app?vid=38189c1a-1fea-4cb8-b62f-f8393fe110e8"},"vehicle_type_id":"4","last_reported":1734620966,"current_range_meters":24800,"station_id":"ce4bgup2rcd13ifvqco0","pricing_plan_id":"cebpf4jnsgd1na2vs0mg"},{"bike_id":"2edc8e2f-2556-4351-aeaf-7299a60616d6","system_id":"levelo_inurba_marseille","lat":43.24665,"lon":5.38171,"is_reserved":false,"is_disabled":false,"rental_uris":{"android":"levelo://app?vid=2edc8e2f-2556-4351-aeaf-7299a60616d6","ios":"levelo://app?vid=2edc8e2f-2556-4351-aeaf-7299a60616d6"},"vehicle_type_id":"4","last_reported":1734620966,"current_range_meters":36800,"station_id":"ce4bhih2rcd13ifvqfr0","pricing_plan_id":"cebpf4jnsgd1na2vs0mg"},{"bike_id":"afd33eab-5f85-4d45-852a-eb31f54a6ca6","system_id":"levelo_inurba_marseille","lat":43.31752,"lon":5.3902,"is_reserved":false,"is_disabled":false,"rental_uris":{"android":"levelo://app?vid=afd33eab-5f85-4d45-852a-eb31f54a6ca6","ios":"levelo://app?vid=afd33eab-5f85-4d45-852a-eb31f54a6ca6"},"vehicle_type_id":"4","last_reported":1734620966,"current_range_meters":9200,"station_id":"ce4bhqp2rcd13ifvqhng","pricing_plan_id":"cebpf4jnsgd1na2vs0mg"},{"bike_id":"789e786b-3e8c-44a9-855f-68715729e695","system_id":"levelo_inurba_marseille","lat":43.330272,"lon":5.390119,"is_reserved":false,"is_disabled":false,"rental_uris":{"android":"levelo://app?vid=789e786b-3e8c-44a9-855f-68715729e695","ios":"levelo://app?vid=789e786b-3e8c-44a9-855f-68715729e695"},"vehicle_type_id":"4","last_reported":1734620966,"current_range_meters":33200,"station_id":"ce4bhr92rcd13ifvqhrg","pricing_plan_id":"cebpf4jnsgd1na2vs0mg"},{"bike_id":"af958579-cc4d-44df-853f-d995a1a776b5","system_id":"levelo_inurba_marseille","lat":43.29847,"lon":5.36282,"is_reserved":false,"is_disabled":false,"rental_uris":{"android":"levelo://app?vid=af958579-cc4d-44df-853f-d995a1a776b5","ios":"levelo://app?vid=af958579-cc4d-44df-853f-d995a1a776b5"},"vehicle_type_id":"4","last_reported":1734620966,"current_range_meters":25200,"station_id":"ce4bgpp2rcd13ifvqc3g","pricing_plan_id":"cebpf4jnsgd1na2vs0mg"},{"bike_id":"ab7f8be8-59ed-4e7b-afd2-007373f878e3","system_id":"levelo_inurba_marseille","lat":43.272047,"lon":5.391818,"is_reserved":false,"is_disabled":false,"rental_uris":{"android":"levelo://app?vid=ab7f8be8-59ed-4e7b-afd2-007373f878e3","ios":"levelo://app?vid=ab7f8be8-59ed-4e7b-afd2-007373f878e3"},"vehicle_type_id":"4","last_reported":1734620966,"current_range_meters":18800,"station_id":"ce4bhhp2rcd13ifvqfm0","pricing_plan_id":"cebpf4jnsgd1na2vs0mg"},{"bike_id":"292b1d52-3761-4162-8c0c-9f8a3995a23e","system_id":"levelo_inurba_marseille","lat":43.2984,"lon":5.3627,"is_reserved":false,"is_disabled":false,"rental_uris":{"android":"levelo://app?vid=292b1d52-3761-4162-8c0c-9f8a3995a23e","ios":"levelo://app?vid=292b1d52-3761-4162-8c0c-9f8a3995a23e"},"vehicle_type_id":"4","last_reported":1734620966,"current_range_meters":20000,"station_id":"ce4bgpp2rcd13ifvqc3g","pricing_plan_id":"cebpf4jnsgd1na2vs0mg"},{"bike_id":"4546479c-96ba-4b7b-93be-17310f9dbf66","system_id":"levelo_inurba_marseille","lat":43.30909,"lon":5.36857,"is_reserved":false,"is_disabled":false,"rental_uris":{"android":"levelo://app?vid=4546479c-96ba-4b7b-93be-17310f9dbf66","ios":"levelo://app?vid=4546479c-96ba-4b7b-93be-17310f9dbf66"},"vehicle_type_id":"4","last_reported":1734620966,"current_range_meters":38000,"station_id":"ce4bgn92rcd13ifvqbvg","pricing_plan_id":"cebpf4jnsgd1na2vs0mg"},{"bike_id":"13dcd06c-9af0-4e97-93dd-f7110d153cc1","system_id":"levelo_inurba_marseille","lat":43.29856,"lon":5.36289,"is_reserved":false,"is_disabled":false,"rental_uris":{"android":"levelo://app?vid=13dcd06c-9af0-4e97-93dd-f7110d153cc1","ios":"levelo://app?vid=13dcd06c-9af0-4e97-93dd-f7110d153cc1"},"vehicle_type_id":"4","last_reported":1734620966,"current_range_meters":23200,"station_id":"ce4bgpp2rcd13ifvqc3g","pricing_plan_id":"cebpf4jnsgd1na2vs0mg"},{"bike_id":"9294b7c4-f950-43f8-8e30-fdbb56a51003","system_id":"levelo_inurba_marseille","lat":43.31481,"lon":5.36905,"is_reserved":false,"is_disabled":false,"rental_uris":{"android":"levelo://app?vid=9294b7c4-f950-43f8-8e30-fdbb56a51003","ios":"levelo://app?vid=9294b7c4-f950-43f8-8e30-fdbb56a51003"},"vehicle_type_id":"4","last_reported":1734620966,"current_range_meters":6000,"station_id":"","pricing_plan_id":"cebpf4jnsgd1na2vs0mg"},{"bike_id":"6e796cce-c0d3-4015-ab9a-8965b4775413","system_id":"levelo_inurba_marseille","lat":43.29614,"lon":5.37742,"is_reserved":false,"is_disabled":false,"rental_uris":{"android":"levelo://app?vid=6e796cce-c0d3-4015-ab9a-8965b4775413","ios":"levelo://app?vid=6e796cce-c0d3-4015-ab9a-8965b4775413"},"vehicle_type_id":"4","last_reported":1734620966,"current_range_meters":38800,"station_id":"ce4bgi92rcd13ifvqb90","pricing_plan_id":"cebpf4jnsgd1na2vs0mg"},{"bike_id":"a22ff1e1-2709-4d5d-bdce-1d2284ead1d1","system_id":"levelo_inurba_marseille","lat":43.29717,"lon":5.37692,"is_reserved":false,"is_disabled":false,"rental_uris":{"android":"levelo://app?vid=a22ff1e1-2709-4d5d-bdce-1d2284ead1d1","ios":"levelo://app?vid=a22ff1e1-2709-4d5d-bdce-1d2284ead1d1"},"vehicle_type_id":"4","last_reported":1734620966,"current_range_meters":38800,"station_id":"ce4bgkh2rcd13ifvqbl0","pricing_plan_id":"cebpf4jnsgd1na2vs0mg"},{"bike_id":"f2c05454-0877-4ac0-be03-f186aa8bd5e3","system_id":"levelo_inurba_marseille","lat":43.30426,"lon":5.39753,"is_reserved":false,"is_disabled":false,"rental_uris":{"android":"levelo://app?vid=f2c05454-0877-4ac0-be03-f186aa8bd5e3","ios":"levelo://app?vid=f2c05454-0877-4ac0-be03-f186aa8bd5e3"},"vehicle_type_id":"4","last_reported":1734620966,"current_range_meters":38000,"station_id":"ce4bh092rcd13ifvqd20","pricing_plan_id":"cebpf4jnsgd1na2vs0mg"},{"bike_id":"e76e6e8e-ce4b-4fe8-ac53-f7dbbe5cc2a8","system_id":"levelo_inurba_marseille","lat":43.30631,"lon":5.40099,"is_reserved":false,"is_disabled":false,"rental_uris":{"android":"levelo://app?vid=e76e6e8e-ce4b-4fe8-ac53-f7dbbe5cc2a8","ios":"levelo://app?vid=e76e6e8e-ce4b-4fe8-ac53-f7dbbe5cc2a8"},"vehicle_type_id":"4","last_reported":1734620966,"current_range_meters":23200,"station_id":"ce4bh112rcd13ifvqda0","pricing_plan_id":"cebpf4jnsgd1na2vs0mg"},{"bike_id":"929f4b0c-5e07-4948-8818-2541f606765c","system_id":"levelo_inurba_marseille","lat":43.3237,"lon":5.38881,"is_reserved":false,"is_disabled":false,"rental_uris":{"android":"levelo://app?vid=929f4b0c-5e07-4948-8818-2541f606765c","ios":"levelo://app?vid=929f4b0c-5e07-4948-8818-2541f606765c"},"vehicle_type_id":"4","last_reported":1734620966,"current_range_meters":30400,"station_id":"ce4bhqp2rcd13ifvqhog","pricing_plan_id":"cebpf4jnsgd1na2vs0mg"},{"bike_id":"6715ace7-353a-4ccb-9660-af23633d27d8","system_id":"levelo_inurba_marseille","lat":43.27614,"lon":5.36117,"is_reserved":false,"is_disabled":false,"rental_uris":{"android":"levelo://app?vid=6715ace7-353a-4ccb-9660-af23633d27d8","ios":"levelo://app?vid=6715ace7-353a-4ccb-9660-af23633d27d8"},"vehicle_type_id":"4","last_reported":1734620966,"current_range_meters":36400,"station_id":"ce4bgj92rcd13ifvqbe0","pricing_plan_id":"cebpf4jnsgd1na2vs0mg"},{"bike_id":"6ac937f1-6de1-4008-9e5e-4856e540182e","system_id":"levelo_inurba_marseille","lat":43.2667,"lon":5.38263,"is_reserved":false,"is_disabled":false,"rental_uris":{"android":"levelo://app?vid=6ac937f1-6de1-4008-9e5e-4856e540182e","ios":"levelo://app?vid=6ac937f1-6de1-4008-9e5e-4856e540182e"},"vehicle_type_id":"4","last_reported":1734620966,"current_range_meters":38800,"station_id":"ce4bhg92rcd13ifvqf90","pricing_plan_id":"cebpf4jnsgd1na2vs0mg"},{"bike_id":"f957ffa3-7b76-4b18-bb62-81627d313cf8","system_id":"levelo_inurba_marseille","lat":43.23195,"lon":5.35561,"is_reserved":false,"is_disabled":false,"rental_uris":{"android":"levelo://app?vid=f957ffa3-7b76-4b18-bb62-81627d313cf8","ios":"levelo://app?vid=f957ffa3-7b76-4b18-bb62-81627d313cf8"},"vehicle_type_id":"4","last_reported":1734620966,"current_range_meters":33600,"station_id":"ce4bhu92rcd13ifvqi70","pricing_plan_id":"cebpf4jnsgd1na2vs0mg"},{"bike_id":"8418e734-4fcd-4b94-951b-0d0ce81a5b83","system_id":"levelo_inurba_marseille","lat":43.2971,"lon":5.37286,"is_reserved":false,"is_disabled":false,"rental_uris":{"android":"levelo://app?vid=8418e734-4fcd-4b94-951b-0d0ce81a5b83","ios":"levelo://app?vid=8418e734-4fcd-4b94-951b-0d0ce81a5b83"},"vehicle_type_id":"4","last_reported":1734620966,"current_range_meters":36800,"station_id":"ce4bgk12rcd13ifvqbj0","pricing_plan_id":"cebpf4jnsgd1na2vs0mg"},{"bike_id":"1f190b2c-ae35-4267-a7f4-8ada899016b3","system_id":"levelo_inurba_marseille","lat":43.23149,"lon":5.43723,"is_reserved":false,"is_disabled":false,"rental_uris":{"android":"levelo://app?vid=1f190b2c-ae35-4267-a7f4-8ada899016b3","ios":"levelo://app?vid=1f190b2c-ae35-4267-a7f4-8ada899016b3"},"vehicle_type_id":"4","last_reported":1734620966,"current_range_meters":20400,"station_id":"ce4bhmp2rcd13ifvqgog","pricing_plan_id":"cebpf4jnsgd1na2vs0mg"},{"bike_id":"c6929287-9d23-42c4-8ce8-9ec0218d5220","system_id":"levelo_inurba_marseille","lat":43.29932,"lon":5.36547,"is_reserved":false,"is_disabled":false,"rental_uris":{"android":"levelo://app?vid=c6929287-9d23-42c4-8ce8-9ec0218d5220","ios":"levelo://app?vid=c6929287-9d23-42c4-8ce8-9ec0218d5220"},"vehicle_type_id":"4","last_reported":1734620966,"current_range_meters":17200,"station_id":"ce4bgm92rcd13ifvqbr0","pricing_plan_id":"cebpf4jnsgd1na2vs0mg"},{"bike_id":"a0ab432f-da66-45ee-bd4e-3bd41460fc75","system_id":"levelo_inurba_marseille","lat":43.308077,"lon":5.369343,"is_reserved":false,"is_disabled":false,"rental_uris":{"android":"levelo://app?vid=a0ab432f-da66-45ee-bd4e-3bd41460fc75","ios":"levelo://app?vid=a0ab432f-da66-45ee-bd4e-3bd41460fc75"},"vehicle_type_id":"4","last_reported":1734620966,"current_range_meters":26000,"station_id":"","pricing_plan_id":"cebpf4jnsgd1na2vs0mg"},{"bike_id":"5f4b6e58-a7e2-48d7-91fa-a3ada75a50df","system_id":"levelo_inurba_marseille","lat":43.29798,"lon":5.38105,"is_reserved":false,"is_disabled":false,"rental_uris":{"android":"levelo://app?vid=5f4b6e58-a7e2-48d7-91fa-a3ada75a50df","ios":"levelo://app?vid=5f4b6e58-a7e2-48d7-91fa-a3ada75a50df"},"vehicle_type_id":"4","last_reported":1734620966,"current_range_meters":38800,"station_id":"ce4bgip2rcd13ifvqbb0","pricing_plan_id":"cebpf4jnsgd1na2vs0mg"},{"bike_id":"952f83eb-ad58-4ab9-a7e6-a395c8612bbf","system_id":"levelo_inurba_marseille","lat":43.255,"lon":5.37632,"is_reserved":false,"is_disabled":true,"rental_uris":{"android":"levelo://app?vid=952f83eb-ad58-4ab9-a7e6-a395c8612bbf","ios":"levelo://app?vid=952f83eb-ad58-4ab9-a7e6-a395c8612bbf"},"vehicle_type_id":"4","last_reported":1734620966,"current_range_meters":0,"station_id":"ce4bhh12rcd13ifvqff0","pricing_plan_id":"cebpf4jnsgd1na2vs0mg"},{"bike_id":"9aed28d6-2cfa-4159-b544-fc7437958c77","system_id":"levelo_inurba_marseille","lat":43.27618,"lon":5.36121,"is_reserved":false,"is_disabled":false,"rental_uris":{"android":"levelo://app?vid=9aed28d6-2cfa-4159-b544-fc7437958c77","ios":"levelo://app?vid=9aed28d6-2cfa-4159-b544-fc7437958c77"},"vehicle_type_id":"4","last_reported":1734620966,"current_range_meters":38800,"station_id":"ce4bgj92rcd13ifvqbe0","pricing_plan_id":"cebpf4jnsgd1na2vs0mg"},{"bike_id":"c6fc1f35-949d-4dc4-925e-046f798f5cdb","system_id":"levelo_inurba_marseille","lat":43.30412,"lon":5.41289,"is_reserved":false,"is_disabled":false,"rental_uris":{"android":"levelo://app?vid=c6fc1f35-949d-4dc4-925e-046f798f5cdb","ios":"levelo://app?vid=c6fc1f35-949d-4dc4-925e-046f798f5cdb"},"vehicle_type_id":"4","last_reported":1734620966,"current_range_meters":39200,"station_id":"ce4bhop2rcd13ifvqh8g","pricing_plan_id":"cebpf4jnsgd1na2vs0mg"},{"bike_id":"ca52fe71-f14c-4024-b436-bbf0c3b41d44","system_id":"levelo_inurba_marseille","lat":43.29302,"lon":5.37158,"is_reserved":false,"is_disabled":false,"rental_uris":{"android":"levelo://app?vid=ca52fe71-f14c-4024-b436-bbf0c3b41d44","ios":"levelo://app?vid=ca52fe71-f14c-4024-b436-bbf0c3b41d44"},"vehicle_type_id":"4","last_reported":1734620966,"current_range_meters":5600,"station_id":"ce4bgh92rcd13ifvqb40","pricing_plan_id":"cebpf4jnsgd1na2vs0mg"},{"bike_id":"21caaf6b-fb2e-4bb9-a7c3-65c8a1c43c5c","system_id":"levelo_inurba_marseille","lat":43.31699,"lon":5.37776,"is_reserved":false,"is_disabled":false,"rental_uris":{"android":"levelo://app?vid=21caaf6b-fb2e-4bb9-a7c3-65c8a1c43c5c","ios":"levelo://app?vid=21caaf6b-fb2e-4bb9-a7c3-65c8a1c43c5c"},"vehicle_type_id":"4","last_reported":1734620966,"current_range_meters":16800,"station_id":"ce4bgth2rcd13ifvqch0","pricing_plan_id":"cebpf4jnsgd1na2vs0mg"},{"bike_id":"a1d9da79-9b8e-4d02-b286-660c2c848e1c","system_id":"levelo_inurba_marseille","lat":43.25872,"lon":5.39898,"is_reserved":false,"is_disabled":false,"rental_uris":{"android":"levelo://app?vid=a1d9da79-9b8e-4d02-b286-660c2c848e1c","ios":"levelo://app?vid=a1d9da79-9b8e-4d02-b286-660c2c848e1c"},"vehicle_type_id":"4","last_reported":1734620966,"current_range_meters":36800,"station_id":"ce4bhl92rcd13ifvqghg","pricing_plan_id":"cebpf4jnsgd1na2vs0mg"},{"bike_id":"4a208263-5683-4c02-b8c0-8842a35d3fff","system_id":"levelo_inurba_marseille","lat":43.30542,"lon":5.36548,"is_reserved":false,"is_disabled":false,"rental_uris":{"android":"levelo://app?vid=4a208263-5683-4c02-b8c0-8842a35d3fff","ios":"levelo://app?vid=4a208263-5683-4c02-b8c0-8842a35d3fff"},"vehicle_type_id":"4","last_reported":1734620966,"current_range_meters":38000,"station_id":"ce4bgs12rcd13ifvqcag","pricing_plan_id":"cebpf4jnsgd1na2vs0mg"},{"bike_id":"4f673463-2e61-458e-801a-0c4946c4b944","system_id":"levelo_inurba_marseille","lat":43.29617,"lon":5.37731,"is_reserved":false,"is_disabled":false,"rental_uris":{"android":"levelo://app?vid=4f673463-2e61-458e-801a-0c4946c4b944","ios":"levelo://app?vid=4f673463-2e61-458e-801a-0c4946c4b944"},"vehicle_type_id":"4","last_reported":1734620966,"current_range_meters":10800,"station_id":"ce4bgi92rcd13ifvqb90","pricing_plan_id":"cebpf4jnsgd1na2vs0mg"},{"bike_id":"13411e02-e30b-4d1e-a85a-92295b9629fe","system_id":"levelo_inurba_marseille","lat":43.27376,"lon":5.36257,"is_reserved":false,"is_disabled":false,"rental_uris":{"android":"levelo://app?vid=13411e02-e30b-4d1e-a85a-92295b9629fe","ios":"levelo://app?vid=13411e02-e30b-4d1e-a85a-92295b9629fe"},"vehicle_type_id":"4","last_reported":1734620966,"current_range_meters":33600,"station_id":"ce4bhbh2rcd13ifvqeo0","pricing_plan_id":"cebpf4jnsgd1na2vs0mg"},{"bike_id":"363d086f-2702-4ec3-90c7-27d7bcf5cb22","system_id":"levelo_inurba_marseille","lat":43.296193,"lon":5.377076,"is_reserved":false,"is_disabled":false,"rental_uris":{"android":"levelo://app?vid=363d086f-2702-4ec3-90c7-27d7bcf5cb22","ios":"levelo://app?vid=363d086f-2702-4ec3-90c7-27d7bcf5cb22"},"vehicle_type_id":"4","last_reported":1734620966,"current_range_meters":26000,"station_id":"ce4bgi92rcd13ifvqb90","pricing_plan_id":"cebpf4jnsgd1na2vs0mg"},{"bike_id":"6118b054-9ea6-4b9d-8593-36a69758efff","system_id":"levelo_inurba_marseille","lat":43.23202,"lon":5.35555,"is_reserved":false,"is_disabled":false,"rental_uris":{"android":"levelo://app?vid=6118b054-9ea6-4b9d-8593-36a69758efff","ios":"levelo://app?vid=6118b054-9ea6-4b9d-8593-36a69758efff"},"vehicle_type_id":"4","last_reported":1734620966,"current_range_meters":38400,"station_id":"ce4bhu92rcd13ifvqi70","pricing_plan_id":"cebpf4jnsgd1na2vs0mg"},{"bike_id":"f42b81cf-aa56-42a7-902e-236e678f249c","system_id":"levelo_inurba_marseille","lat":43.2558,"lon":5.3823,"is_reserved":false,"is_disabled":false,"rental_uris":{"android":"levelo://app?vid=f42b81cf-aa56-42a7-902e-236e678f249c","ios":"levelo://app?vid=f42b81cf-aa56-42a7-902e-236e678f249c"},"vehicle_type_id":"4","last_reported":1734620966,"current_range_meters":16000,"station_id":"ce4bhih2rcd13ifvqfs0","pricing_plan_id":"cebpf4jnsgd1na2vs0mg"},{"bike_id":"8edc54f2-44b0-49fd-8e9d-2d672c8f1c6a","system_id":"levelo_inurba_marseille","lat":43.32366,"lon":5.38893,"is_reserved":false,"is_disabled":false,"rental_uris":{"android":"levelo://app?vid=8edc54f2-44b0-49fd-8e9d-2d672c8f1c6a","ios":"levelo://app?vid=8edc54f2-44b0-49fd-8e9d-2d672c8f1c6a"},"vehicle_type_id":"4","last_reported":1734620966,"current_range_meters":29600,"station_id":"ce4bhqp2rcd13ifvqhog","pricing_plan_id":"cebpf4jnsgd1na2vs0mg"},{"bike_id":"9d2aefec-f4a3-4a23-a13a-c09b46ffe2e4","system_id":"levelo_inurba_marseille","lat":43.311647,"lon":5.367094,"is_reserved":false,"is_disabled":false,"rental_uris":{"android":"levelo://app?vid=9d2aefec-f4a3-4a23-a13a-c09b46ffe2e4","ios":"levelo://app?vid=9d2aefec-f4a3-4a23-a13a-c09b46ffe2e4"},"vehicle_type_id":"4","last_reported":1734620966,"current_range_meters":30400,"station_id":"","pricing_plan_id":"cebpf4jnsgd1na2vs0mg"},{"bike_id":"0fa6c2dd-92d4-4846-b86c-ad3137a47a7b","system_id":"levelo_inurba_marseille","lat":43.25717,"lon":5.41115,"is_reserved":false,"is_disabled":false,"rental_uris":{"android":"levelo://app?vid=0fa6c2dd-92d4-4846-b86c-ad3137a47a7b","ios":"levelo://app?vid=0fa6c2dd-92d4-4846-b86c-ad3137a47a7b"},"vehicle_type_id":"4","last_reported":1734620966,"current_range_meters":10000,"station_id":"ce4bhkp2rcd13ifvqgd0","pricing_plan_id":"cebpf4jnsgd1na2vs0mg"},{"bike_id":"fdb00e72-6d85-4d61-9e62-d139d7971bf0","system_id":"levelo_inurba_marseille","lat":43.26952,"lon":5.3864,"is_reserved":false,"is_disabled":false,"rental_uris":{"android":"levelo://app?vid=fdb00e72-6d85-4d61-9e62-d139d7971bf0","ios":"levelo://app?vid=fdb00e72-6d85-4d61-9e62-d139d7971bf0"},"vehicle_type_id":"4","last_reported":1734620966,"current_range_meters":38800,"station_id":"ce4bhh92rcd13ifvqfh0","pricing_plan_id":"cebpf4jnsgd1na2vs0mg"},{"bike_id":"41360683-0f69-4c62-8b87-4868ce57f8d5","system_id":"levelo_inurba_marseille","lat":43.314886,"lon":5.373074,"is_reserved":false,"is_disabled":false,"rental_uris":{"android":"levelo://app?vid=41360683-0f69-4c62-8b87-4868ce57f8d5","ios":"levelo://app?vid=41360683-0f69-4c62-8b87-4868ce57f8d5"},"vehicle_type_id":"4","last_reported":1734620966,"current_range_meters":38400,"station_id":"ce4bgt12rcd13ifvqcd0","pricing_plan_id":"cebpf4jnsgd1na2vs0mg"},{"bike_id":"a2eba22b-b0ee-4005-9bf3-576bb458d391","system_id":"levelo_inurba_marseille","lat":43.279651,"lon":5.387544,"is_reserved":false,"is_disabled":true,"rental_uris":{"android":"levelo://app?vid=a2eba22b-b0ee-4005-9bf3-576bb458d391","ios":"levelo://app?vid=a2eba22b-b0ee-4005-9bf3-576bb458d391"},"vehicle_type_id":"4","last_reported":1734620966,"current_range_meters":0,"station_id":"","pricing_plan_id":"cebpf4jnsgd1na2vs0mg"},{"bike_id":"e7e90ade-9fda-4e94-9481-ce28fb04e6bb","system_id":"levelo_inurba_marseille","lat":43.29573,"lon":5.37501,"is_reserved":false,"is_disabled":false,"rental_uris":{"android":"levelo://app?vid=e7e90ade-9fda-4e94-9481-ce28fb04e6bb","ios":"levelo://app?vid=e7e90ade-9fda-4e94-9481-ce28fb04e6bb"},"vehicle_type_id":"4","last_reported":1734620966,"current_range_meters":9600,"station_id":"ce4bgh92rcd13ifvqb50","pricing_plan_id":"cebpf4jnsgd1na2vs0mg"},{"bike_id":"71be5355-13e6-4b63-8116-cd52d8296a4a","system_id":"levelo_inurba_marseille","lat":43.30146,"lon":5.37427,"is_reserved":false,"is_disabled":false,"rental_uris":{"android":"levelo://app?vid=71be5355-13e6-4b63-8116-cd52d8296a4a","ios":"levelo://app?vid=71be5355-13e6-4b63-8116-cd52d8296a4a"},"vehicle_type_id":"4","last_reported":1734620966,"current_range_meters":31200,"station_id":"ce4bgs92rcd13ifvqcc0","pricing_plan_id":"cebpf4jnsgd1na2vs0mg"},{"bike_id":"6e868a60-9f88-474e-adb5-72cc44996f9b","system_id":"levelo_inurba_marseille","lat":43.2952,"lon":5.37503,"is_reserved":false,"is_disabled":true,"rental_uris":{"android":"levelo://app?vid=6e868a60-9f88-474e-adb5-72cc44996f9b","ios":"levelo://app?vid=6e868a60-9f88-474e-adb5-72cc44996f9b"},"vehicle_type_id":"4","last_reported":1734620966,"current_range_meters":0,"station_id":"ce4bgkp2rcd13ifvqbmg","pricing_plan_id":"cebpf4jnsgd1na2vs0mg"},{"bike_id":"f0377741-7cf6-450d-a6fd-153237b93a8a","system_id":"levelo_inurba_marseille","lat":43.25933,"lon":5.40913,"is_reserved":false,"is_disabled":false,"rental_uris":{"android":"levelo://app?vid=f0377741-7cf6-450d-a6fd-153237b93a8a","ios":"levelo://app?vid=f0377741-7cf6-450d-a6fd-153237b93a8a"},"vehicle_type_id":"4","last_reported":1734620966,"current_range_meters":17200,"station_id":"ce4bhm92rcd13ifvqglg","pricing_plan_id":"cebpf4jnsgd1na2vs0mg"},{"bike_id":"cc489add-156a-4b56-b2d4-9ae44b1ced14","system_id":"levelo_inurba_marseille","lat":43.27608,"lon":5.36118,"is_reserved":false,"is_disabled":false,"rental_uris":{"android":"levelo://app?vid=cc489add-156a-4b56-b2d4-9ae44b1ced14","ios":"levelo://app?vid=cc489add-156a-4b56-b2d4-9ae44b1ced14"},"vehicle_type_id":"4","last_reported":1734620966,"current_range_meters":36000,"station_id":"ce4bgj92rcd13ifvqbe0","pricing_plan_id":"cebpf4jnsgd1na2vs0mg"},{"bike_id":"7512eec1-8c58-4936-aa2a-8001940f51a4","system_id":"levelo_inurba_marseille","lat":43.33734,"lon":5.3919,"is_reserved":false,"is_disabled":false,"rental_uris":{"android":"levelo://app?vid=7512eec1-8c58-4936-aa2a-8001940f51a4","ios":"levelo://app?vid=7512eec1-8c58-4936-aa2a-8001940f51a4"},"vehicle_type_id":"4","last_reported":1734620966,"current_range_meters":38400,"station_id":"ce4bhr92rcd13ifvqhsg","pricing_plan_id":"cebpf4jnsgd1na2vs0mg"},{"bike_id":"ac7c5f56-daad-496c-965f-9103737000e8","system_id":"levelo_inurba_marseille","lat":43.2396,"lon":5.36668,"is_reserved":false,"is_disabled":false,"rental_uris":{"android":"levelo://app?vid=ac7c5f56-daad-496c-965f-9103737000e8","ios":"levelo://app?vid=ac7c5f56-daad-496c-965f-9103737000e8"},"vehicle_type_id":"4","last_reported":1734620966,"current_range_meters":38800,"station_id":"ce4bhi12rcd13ifvqfp0","pricing_plan_id":"cebpf4jnsgd1na2vs0mg"},{"bike_id":"50f3ea1e-8d3a-452b-9061-37af2efe02cc","system_id":"levelo_inurba_marseille","lat":43.31282,"lon":5.40187,"is_reserved":false,"is_disabled":false,"rental_uris":{"android":"levelo://app?vid=50f3ea1e-8d3a-452b-9061-37af2efe02cc","ios":"levelo://app?vid=50f3ea1e-8d3a-452b-9061-37af2efe02cc"},"vehicle_type_id":"4","last_reported":1734620966,"current_range_meters":29600,"station_id":"ce4bh092rcd13ifvqd30","pricing_plan_id":"cebpf4jnsgd1na2vs0mg"},{"bike_id":"29bb85d4-ff1e-4d95-845b-a5dbffe4223a","system_id":"levelo_inurba_marseille","lat":43.2943,"lon":5.3975,"is_reserved":false,"is_disabled":false,"rental_uris":{"android":"levelo://app?vid=29bb85d4-ff1e-4d95-845b-a5dbffe4223a","ios":"levelo://app?vid=29bb85d4-ff1e-4d95-845b-a5dbffe4223a"},"vehicle_type_id":"4","last_reported":1734620966,"current_range_meters":29600,"station_id":"ce4bh3h2rcd13ifvqdo0","pricing_plan_id":"cebpf4jnsgd1na2vs0mg"},{"bike_id":"0cef6d55-09da-4dff-80ee-facea058c7a5","system_id":"levelo_inurba_marseille","lat":43.30055,"lon":5.36969,"is_reserved":false,"is_disabled":false,"rental_uris":{"android":"levelo://app?vid=0cef6d55-09da-4dff-80ee-facea058c7a5","ios":"levelo://app?vid=0cef6d55-09da-4dff-80ee-facea058c7a5"},"vehicle_type_id":"4","last_reported":1734620966,"current_range_meters":32800,"station_id":"","pricing_plan_id":"cebpf4jnsgd1na2vs0mg"},{"bike_id":"97f0be8b-cfd1-44b2-822b-1d2e20ff83da","system_id":"levelo_inurba_marseille","lat":43.257141,"lon":5.394217,"is_reserved":false,"is_disabled":false,"rental_uris":{"android":"levelo://app?vid=97f0be8b-cfd1-44b2-822b-1d2e20ff83da","ios":"levelo://app?vid=97f0be8b-cfd1-44b2-822b-1d2e20ff83da"},"vehicle_type_id":"4","last_reported":1734620966,"current_range_meters":24000,"station_id":"ce4bhip2rcd13ifvqft0","pricing_plan_id":"cebpf4jnsgd1na2vs0mg"},{"bike_id":"dc9726d3-3768-484d-a2e6-04d42c546123","system_id":"levelo_inurba_marseille","lat":43.30429,"lon":5.39753,"is_reserved":false,"is_disabled":false,"rental_uris":{"android":"levelo://app?vid=dc9726d3-3768-484d-a2e6-04d42c546123","ios":"levelo://app?vid=dc9726d3-3768-484d-a2e6-04d42c546123"},"vehicle_type_id":"4","last_reported":1734620966,"current_range_meters":39200,"station_id":"ce4bh092rcd13ifvqd20","pricing_plan_id":"cebpf4jnsgd1na2vs0mg"},{"bike_id":"23a049cd-2a20-411e-a25c-f3e09482729c","system_id":"levelo_inurba_marseille","lat":43.30432,"lon":5.37346,"is_reserved":false,"is_disabled":false,"rental_uris":{"android":"levelo://app?vid=23a049cd-2a20-411e-a25c-f3e09482729c","ios":"levelo://app?vid=23a049cd-2a20-411e-a25c-f3e09482729c"},"vehicle_type_id":"4","last_reported":1734620966,"current_range_meters":37600,"station_id":"","pricing_plan_id":"cebpf4jnsgd1na2vs0mg"},{"bike_id":"8305ca7b-501e-4f92-8fc2-f2ba9ad70228","system_id":"levelo_inurba_marseille","lat":43.29578,"lon":5.36744,"is_reserved":false,"is_disabled":false,"rental_uris":{"android":"levelo://app?vid=8305ca7b-501e-4f92-8fc2-f2ba9ad70228","ios":"levelo://app?vid=8305ca7b-501e-4f92-8fc2-f2ba9ad70228"},"vehicle_type_id":"4","last_reported":1734620966,"current_range_meters":25200,"station_id":"ce4bgph2rcd13ifvqc2g","pricing_plan_id":"cebpf4jnsgd1na2vs0mg"},{"bike_id":"6fed509e-cb01-4dff-b4e7-f134a0dcb1ca","system_id":"levelo_inurba_marseille","lat":43.3053,"lon":5.36715,"is_reserved":false,"is_disabled":false,"rental_uris":{"android":"levelo://app?vid=6fed509e-cb01-4dff-b4e7-f134a0dcb1ca","ios":"levelo://app?vid=6fed509e-cb01-4dff-b4e7-f134a0dcb1ca"},"vehicle_type_id":"4","last_reported":1734620966,"current_range_meters":36800,"station_id":"ce4bgrp2rcd13ifvqc9g","pricing_plan_id":"cebpf4jnsgd1na2vs0mg"},{"bike_id":"0f7a92fb-da70-4bed-8ea4-23de9fe664f9","system_id":"levelo_inurba_marseille","lat":43.29684,"lon":5.37289,"is_reserved":false,"is_disabled":false,"rental_uris":{"android":"levelo://app?vid=0f7a92fb-da70-4bed-8ea4-23de9fe664f9","ios":"levelo://app?vid=0f7a92fb-da70-4bed-8ea4-23de9fe664f9"},"vehicle_type_id":"4","last_reported":1734620966,"current_range_meters":38000,"station_id":"ce4bgk12rcd13ifvqbj0","pricing_plan_id":"cebpf4jnsgd1na2vs0mg"},{"bike_id":"0abfa48c-7453-4c29-913b-7b35275351bb","system_id":"levelo_inurba_marseille","lat":43.30206,"lon":5.39463,"is_reserved":false,"is_disabled":false,"rental_uris":{"android":"levelo://app?vid=0abfa48c-7453-4c29-913b-7b35275351bb","ios":"levelo://app?vid=0abfa48c-7453-4c29-913b-7b35275351bb"},"vehicle_type_id":"4","last_reported":1734620966,"current_range_meters":19200,"station_id":"ce4bh0p2rcd13ifvqd70","pricing_plan_id":"cebpf4jnsgd1na2vs0mg"},{"bike_id":"864f397f-7e17-44a8-862d-a9c8016c50f5","system_id":"levelo_inurba_marseille","lat":43.28375,"lon":5.38638,"is_reserved":false,"is_disabled":false,"rental_uris":{"android":"levelo://app?vid=864f397f-7e17-44a8-862d-a9c8016c50f5","ios":"levelo://app?vid=864f397f-7e17-44a8-862d-a9c8016c50f5"},"vehicle_type_id":"4","last_reported":1734620966,"current_range_meters":39200,"station_id":"ce4bh492rcd13ifvqdvg","pricing_plan_id":"cebpf4jnsgd1na2vs0mg"},{"bike_id":"7b305c6f-361b-46c6-bcc8-6b2d9fd084fa","system_id":"levelo_inurba_marseille","lat":43.28119,"lon":5.4422,"is_reserved":false,"is_disabled":true,"rental_uris":{"android":"levelo://app?vid=7b305c6f-361b-46c6-bcc8-6b2d9fd084fa","ios":"levelo://app?vid=7b305c6f-361b-46c6-bcc8-6b2d9fd084fa"},"vehicle_type_id":"4","last_reported":1734620966,"current_range_meters":0,"station_id":"","pricing_plan_id":"cebpf4jnsgd1na2vs0mg"},{"bike_id":"741ea4b3-763d-4684-9cc9-4d777e722653","system_id":"levelo_inurba_marseille","lat":43.31352,"lon":5.36727,"is_reserved":false,"is_disabled":false,"rental_uris":{"android":"levelo://app?vid=741ea4b3-763d-4684-9cc9-4d777e722653","ios":"levelo://app?vid=741ea4b3-763d-4684-9cc9-4d777e722653"},"vehicle_type_id":"4","last_reported":1734620966,"current_range_meters":34800,"station_id":"ce4bgr92rcd13ifvqc6g","pricing_plan_id":"cebpf4jnsgd1na2vs0mg"},{"bike_id":"fc748833-fea4-4aa6-ae10-0f19609af86f","system_id":"levelo_inurba_marseille","lat":43.27966,"lon":5.38751,"is_reserved":false,"is_disabled":false,"rental_uris":{"android":"levelo://app?vid=fc748833-fea4-4aa6-ae10-0f19609af86f","ios":"levelo://app?vid=fc748833-fea4-4aa6-ae10-0f19609af86f"},"vehicle_type_id":"4","last_reported":1734620966,"current_range_meters":16800,"station_id":"ce4bhg12rcd13ifvqf80","pricing_plan_id":"cebpf4jnsgd1na2vs0mg"},{"bike_id":"c81d12c0-b3b4-4b91-a004-bb72046d4aaa","system_id":"levelo_inurba_marseille","lat":43.29936,"lon":5.3751,"is_reserved":false,"is_disabled":false,"rental_uris":{"android":"levelo://app?vid=c81d12c0-b3b4-4b91-a004-bb72046d4aaa","ios":"levelo://app?vid=c81d12c0-b3b4-4b91-a004-bb72046d4aaa"},"vehicle_type_id":"4","last_reported":1734620966,"current_range_meters":24400,"station_id":"ce4bgjh2rcd13ifvqbg0","pricing_plan_id":"cebpf4jnsgd1na2vs0mg"},{"bike_id":"da1c712e-e268-45e9-b9a9-87233dc860db","system_id":"levelo_inurba_marseille","lat":43.30644,"lon":5.40096,"is_reserved":false,"is_disabled":false,"rental_uris":{"android":"levelo://app?vid=da1c712e-e268-45e9-b9a9-87233dc860db","ios":"levelo://app?vid=da1c712e-e268-45e9-b9a9-87233dc860db"},"vehicle_type_id":"4","last_reported":1734620966,"current_range_meters":38000,"station_id":"ce4bh112rcd13ifvqda0","pricing_plan_id":"cebpf4jnsgd1na2vs0mg"},{"bike_id":"58460439-34c4-4ffd-a810-879458f6621a","system_id":"levelo_inurba_marseille","lat":43.23177,"lon":5.39966,"is_reserved":false,"is_disabled":false,"rental_uris":{"android":"levelo://app?vid=58460439-34c4-4ffd-a810-879458f6621a","ios":"levelo://app?vid=58460439-34c4-4ffd-a810-879458f6621a"},"vehicle_type_id":"4","last_reported":1734620966,"current_range_meters":24800,"station_id":"ce4bhn12rcd13ifvqgqg","pricing_plan_id":"cebpf4jnsgd1na2vs0mg"},{"bike_id":"df2bf2aa-dff9-475f-91c3-5688aec4bd4e","system_id":"levelo_inurba_marseille","lat":43.29845,"lon":5.36275,"is_reserved":false,"is_disabled":false,"rental_uris":{"android":"levelo://app?vid=df2bf2aa-dff9-475f-91c3-5688aec4bd4e","ios":"levelo://app?vid=df2bf2aa-dff9-475f-91c3-5688aec4bd4e"},"vehicle_type_id":"4","last_reported":1734620966,"current_range_meters":20400,"station_id":"ce4bgpp2rcd13ifvqc3g","pricing_plan_id":"cebpf4jnsgd1na2vs0mg"},{"bike_id":"77d10735-f2fa-4540-9cdc-117dc74de97c","system_id":"levelo_inurba_marseille","lat":43.29043,"lon":5.39955,"is_reserved":false,"is_disabled":true,"rental_uris":{"android":"levelo://app?vid=77d10735-f2fa-4540-9cdc-117dc74de97c","ios":"levelo://app?vid=77d10735-f2fa-4540-9cdc-117dc74de97c"},"vehicle_type_id":"4","last_reported":1734620966,"current_range_meters":38800,"station_id":"","pricing_plan_id":"cebpf4jnsgd1na2vs0mg"},{"bike_id":"9294d6b0-fed7-4037-9b1b-84647759102b","system_id":"levelo_inurba_marseille","lat":43.31492,"lon":5.37314,"is_reserved":false,"is_disabled":false,"rental_uris":{"android":"levelo://app?vid=9294d6b0-fed7-4037-9b1b-84647759102b","ios":"levelo://app?vid=9294d6b0-fed7-4037-9b1b-84647759102b"},"vehicle_type_id":"4","last_reported":1734620966,"current_range_meters":35200,"station_id":"ce4bgt12rcd13ifvqcd0","pricing_plan_id":"cebpf4jnsgd1na2vs0mg"},{"bike_id":"09d34042-63e3-4a8f-b213-632e26854054","system_id":"levelo_inurba_marseille","lat":43.31707,"lon":5.3774,"is_reserved":false,"is_disabled":false,"rental_uris":{"android":"levelo://app?vid=09d34042-63e3-4a8f-b213-632e26854054","ios":"levelo://app?vid=09d34042-63e3-4a8f-b213-632e26854054"},"vehicle_type_id":"4","last_reported":1734620966,"current_range_meters":24800,"station_id":"ce4bgth2rcd13ifvqch0","pricing_plan_id":"cebpf4jnsgd1na2vs0mg"},{"bike_id":"f274e70f-b1ac-4a38-a033-2675297b1a10","system_id":"levelo_inurba_marseille","lat":43.297255,"lon":5.376825,"is_reserved":false,"is_disabled":false,"rental_uris":{"android":"levelo://app?vid=f274e70f-b1ac-4a38-a033-2675297b1a10","ios":"levelo://app?vid=f274e70f-b1ac-4a38-a033-2675297b1a10"},"vehicle_type_id":"4","last_reported":1734620966,"current_range_meters":38800,"station_id":"ce4bgkh2rcd13ifvqbl0","pricing_plan_id":"cebpf4jnsgd1na2vs0mg"},{"bike_id":"bf54f44d-b7f2-4d0d-887e-1c061d8f9937","system_id":"levelo_inurba_marseille","lat":43.28443,"lon":5.39209,"is_reserved":false,"is_disabled":false,"rental_uris":{"android":"levelo://app?vid=bf54f44d-b7f2-4d0d-887e-1c061d8f9937","ios":"levelo://app?vid=bf54f44d-b7f2-4d0d-887e-1c061d8f9937"},"vehicle_type_id":"4","last_reported":1734620966,"current_range_meters":20800,"station_id":"ce4bhoh2rcd13ifvqh5g","pricing_plan_id":"cebpf4jnsgd1na2vs0mg"},{"bike_id":"cef3f6c9-addc-40de-a83a-ea1371059652","system_id":"levelo_inurba_marseille","lat":43.27215,"lon":5.39188,"is_reserved":false,"is_disabled":true,"rental_uris":{"android":"levelo://app?vid=cef3f6c9-addc-40de-a83a-ea1371059652","ios":"levelo://app?vid=cef3f6c9-addc-40de-a83a-ea1371059652"},"vehicle_type_id":"4","last_reported":1734620966,"current_range_meters":1200,"station_id":"ce4bhhp2rcd13ifvqfm0","pricing_plan_id":"cebpf4jnsgd1na2vs0mg"},{"bike_id":"ee6ac156-8bfd-48b0-9e4a-f3895b68e85b","system_id":"levelo_inurba_marseille","lat":43.3095,"lon":5.39045,"is_reserved":false,"is_disabled":false,"rental_uris":{"android":"levelo://app?vid=ee6ac156-8bfd-48b0-9e4a-f3895b68e85b","ios":"levelo://app?vid=ee6ac156-8bfd-48b0-9e4a-f3895b68e85b"},"vehicle_type_id":"4","last_reported":1734620966,"current_range_meters":8400,"station_id":"ce4bgup2rcd13ifvqco0","pricing_plan_id":"cebpf4jnsgd1na2vs0mg"},{"bike_id":"cef70b40-f4f4-4f71-9eed-dd818da31745","system_id":"levelo_inurba_marseille","lat":43.25494,"lon":5.37651,"is_reserved":false,"is_disabled":false,"rental_uris":{"android":"levelo://app?vid=cef70b40-f4f4-4f71-9eed-dd818da31745","ios":"levelo://app?vid=cef70b40-f4f4-4f71-9eed-dd818da31745"},"vehicle_type_id":"4","last_reported":1734620966,"current_range_meters":39200,"station_id":"ce4bhh12rcd13ifvqff0","pricing_plan_id":"cebpf4jnsgd1na2vs0mg"},{"bike_id":"2676afe2-801f-4c94-9901-348bd3b213ea","system_id":"levelo_inurba_marseille","lat":43.29549,"lon":5.42286,"is_reserved":false,"is_disabled":true,"rental_uris":{"android":"levelo://app?vid=2676afe2-801f-4c94-9901-348bd3b213ea","ios":"levelo://app?vid=2676afe2-801f-4c94-9901-348bd3b213ea"},"vehicle_type_id":"4","last_reported":1734620966,"current_range_meters":38800,"station_id":"ce4bhph2rcd13ifvqhdg","pricing_plan_id":"cebpf4jnsgd1na2vs0mg"},{"bike_id":"82a7a090-6259-4115-ad21-cfd09e5160d5","system_id":"levelo_inurba_marseille","lat":43.24668,"lon":5.38176,"is_reserved":false,"is_disabled":false,"rental_uris":{"android":"levelo://app?vid=82a7a090-6259-4115-ad21-cfd09e5160d5","ios":"levelo://app?vid=82a7a090-6259-4115-ad21-cfd09e5160d5"},"vehicle_type_id":"4","last_reported":1734620966,"current_range_meters":16000,"station_id":"ce4bhih2rcd13ifvqfr0","pricing_plan_id":"cebpf4jnsgd1na2vs0mg"},{"bike_id":"8ff7e688-ae57-478d-a282-9e21c179ac58","system_id":"levelo_inurba_marseille","lat":43.27374,"lon":5.36261,"is_reserved":false,"is_disabled":false,"rental_uris":{"android":"levelo://app?vid=8ff7e688-ae57-478d-a282-9e21c179ac58","ios":"levelo://app?vid=8ff7e688-ae57-478d-a282-9e21c179ac58"},"vehicle_type_id":"4","last_reported":1734620966,"current_range_meters":36000,"station_id":"ce4bhbh2rcd13ifvqeo0","pricing_plan_id":"cebpf4jnsgd1na2vs0mg"},{"bike_id":"9ef98668-2e81-4a1d-8235-e3e03ad8f4a9","system_id":"levelo_inurba_marseille","lat":43.26684,"lon":5.38269,"is_reserved":false,"is_disabled":false,"rental_uris":{"android":"levelo://app?vid=9ef98668-2e81-4a1d-8235-e3e03ad8f4a9","ios":"levelo://app?vid=9ef98668-2e81-4a1d-8235-e3e03ad8f4a9"},"vehicle_type_id":"4","last_reported":1734620966,"current_range_meters":38800,"station_id":"ce4bhg92rcd13ifvqf90","pricing_plan_id":"cebpf4jnsgd1na2vs0mg"},{"bike_id":"014a7622-968e-4045-8ff4-83da871b3bcc","system_id":"levelo_inurba_marseille","lat":43.2859,"lon":5.39491,"is_reserved":false,"is_disabled":false,"rental_uris":{"android":"levelo://app?vid=014a7622-968e-4045-8ff4-83da871b3bcc","ios":"levelo://app?vid=014a7622-968e-4045-8ff4-83da871b3bcc"},"vehicle_type_id":"4","last_reported":1734620966,"current_range_meters":34000,"station_id":"ce4bh292rcd13ifvqdg0","pricing_plan_id":"cebpf4jnsgd1na2vs0mg"},{"bike_id":"347daf21-6262-4719-bc03-c1ee9c636f3e","system_id":"levelo_inurba_marseille","lat":43.27612,"lon":5.36112,"is_reserved":false,"is_disabled":false,"rental_uris":{"android":"levelo://app?vid=347daf21-6262-4719-bc03-c1ee9c636f3e","ios":"levelo://app?vid=347daf21-6262-4719-bc03-c1ee9c636f3e"},"vehicle_type_id":"4","last_reported":1734620966,"current_range_meters":25200,"station_id":"ce4bgj92rcd13ifvqbe0","pricing_plan_id":"cebpf4jnsgd1na2vs0mg"},{"bike_id":"f9c71d20-51f9-4360-8661-1dc6849cbaf3","system_id":"levelo_inurba_marseille","lat":43.27918,"lon":5.39586,"is_reserved":false,"is_disabled":false,"rental_uris":{"android":"levelo://app?vid=f9c71d20-51f9-4360-8661-1dc6849cbaf3","ios":"levelo://app?vid=f9c71d20-51f9-4360-8661-1dc6849cbaf3"},"vehicle_type_id":"4","last_reported":1734620966,"current_range_meters":38800,"station_id":"ce4bhf92rcd13ifvqf40","pricing_plan_id":"cebpf4jnsgd1na2vs0mg"},{"bike_id":"e52724c7-61fd-4baf-afe8-5018e4f02828","system_id":"levelo_inurba_marseille","lat":43.2408,"lon":5.37753,"is_reserved":false,"is_disabled":false,"rental_uris":{"android":"levelo://app?vid=e52724c7-61fd-4baf-afe8-5018e4f02828","ios":"levelo://app?vid=e52724c7-61fd-4baf-afe8-5018e4f02828"},"vehicle_type_id":"4","last_reported":1734620966,"current_range_meters":19600,"station_id":"ce4bhnp2rcd13ifvqgvg","pricing_plan_id":"cebpf4jnsgd1na2vs0mg"},{"bike_id":"1c4127b9-486f-41b4-8296-37dda68e98bf","system_id":"levelo_inurba_marseille","lat":43.23172,"lon":5.35576,"is_reserved":false,"is_disabled":false,"rental_uris":{"android":"levelo://app?vid=1c4127b9-486f-41b4-8296-37dda68e98bf","ios":"levelo://app?vid=1c4127b9-486f-41b4-8296-37dda68e98bf"},"vehicle_type_id":"4","last_reported":1734620966,"current_range_meters":31200,"station_id":"ce4bhu92rcd13ifvqi70","pricing_plan_id":"cebpf4jnsgd1na2vs0mg"},