{"last_updated":1729008661,"ttl":60,"version":"2.2","data":{"bikes":[{"bike_id":"ca19aae3-ddc9-46d5-8241-83affcfa7618","system_id":"levelo_inurba_marseille","lat":43.25936,"lon":5.4092,"is_reserved":false,"is_disabled":false,"rental_uris":{"android":"levelo://app?vid=ca19aae3-ddc9-46d5-8241-83affcfa7618","ios":"levelo://app?vid=ca19aae3-ddc9-46d5-8241-83affcfa7618"},"vehicle_type_id":"4","last_reported":1729008661,"current_range_meters":11600,"station_id":"ce4bhm92rcd13ifvqglg","pricing_plan_id":"cebpf4jnsgd1na2vs0mg"},{"bike_id":"a6a2764e-93c1-4937-a5b3-ce5eddadc731","system_id":"levelo_inurba_marseille","lat":43.290018,"lon":5.366303,"is_reserved":false,"is_disabled":false,"rental_uris":{"android":"levelo://app?vid=a6a2764e-93c1-4937-a5b3-ce5eddadc731","ios":"levelo://app?vid=a6a2764e-93c1-4937-a5b3-ce5eddadc731"},"vehicle_type_id":"4","last_reported":1729008661,"current_range_meters":16000,"station_id":"ce4bhap2rcd13ifvqek0","pricing_plan_id":"cebpf4jnsgd1na2vs0mg"},{"bike_id":"5b8bec90-acc7-4c0d-b242-ec78f9ed9240","system_id":"levelo_inurba_marseille","lat":43.33025,"lon":5.39047,"is_reserved":false,"is_disabled":false,"rental_uris":{"android":"levelo://app?vid=5b8bec90-acc7-4c0d-b242-ec78f9ed9240","ios":"levelo://app?vid=5b8bec90-acc7-4c0d-b242-ec78f9ed9240"},"vehicle_type_id":"4","last_reported":1729008661,"current_range_meters":30000,"station_id":"ce4bhr92rcd13ifvqhrg","pricing_plan_id":"cebpf4jnsgd1na2vs0mg"},{"bike_id":"5530ede2-9c21-4ee0-add1-b28457187dc5","system_id":"levelo_inurba_marseille","lat":43.28011,"lon":5.4002,"is_reserved":false,"is_disabled":false,"rental_uris":{"android":"levelo://app?vid=5530ede2-9c21-4ee0-add1-b28457187dc5","ios":"levelo://app?vid=5530ede2-9c21-4ee0-add1-b28457187dc5"},"vehicle_type_id":"4","last_reported":1729008661,"current_range_meters":38400,"station_id":"ce4bho92rcd13ifvqh4g","pricing_plan_id":"cebpf4jnsgd1na2vs0mg"},{"bike_id":"d666b878-8c6a-46ea-a928-48676fd31d18","system_id":"levelo_inurba_marseille","lat":43.27941,"lon":5.41048,"is_reserved":false,"is_disabled":false,"rental_uris":{"android":"levelo://app?vid=d666b878-8c6a-46ea-a928-48676fd31d18","ios":"levelo://app?vid=d666b878-8c6a-46ea-a928-48676fd31d18"},"vehicle_type_id":"4","last_reported":1729008661,"current_range_meters":16000,"station_id":"ce4bhnp2rcd13ifvqh0g","pricing_plan_id":"cebpf4jnsgd1na2vs0mg"},{"bike_id":"a0be5a5d-3d1e-4cf9-837a-faf4e08f616f","system_id":"levelo_inurba_marseille","lat":43.2293,"lon":5.35378,"is_reserved":false,"is_disabled":false,"rental_uris":{"android":"levelo://app?vid=a0be5a5d-3d1e-4cf9-837a-faf4e08f616f","ios":"levelo://app?vid=a0be5a5d-3d1e-4cf9-837a-faf4e08f616f"},"vehicle_type_id":"4","last_reported":1729008661,"current_range_meters":8400,"station_id":"cpo3532slgdg3j2ikp40","pricing_plan_id":"cebpf4jnsgd1na2vs0mg"},{"bike_id":"ac990160-74ea-4e89-9d54-6c4fa8644bd0","system_id":"levelo_inurba_marseille","lat":43.31713,"lon":5.43707,"is_reserved":false,"is_disabled":false,"rental_uris":{"android":"levelo://app?vid=ac990160-74ea-4e89-9d54-6c4fa8644bd0","ios":"levelo://app?vid=ac990160-74ea-4e89-9d54-6c4fa8644bd0"},"vehicle_type_id":"4","last_reported":1729008661,"current_range_meters":28400,"station_id":"ce4bhp92rcd13ifvqhcg","pricing_plan_id":"cebpf4jnsgd1na2vs0mg"},{"bike_id":"7bd1195a-4333-40e4-838b-4175e9390356","system_id":"levelo_inurba_marseille","lat":43.31703,"lon":5.40466,"is_reserved":false,"is_disabled":false,"rental_uris":{"android":"levelo://app?vid=7bd1195a-4333-40e4-838b-4175e9390356","ios":"levelo://app?vid=7bd1195a-4333-40e4-838b-4175e9390356"},"vehicle_type_id":"4","last_reported":1729008661,"current_range_meters":14800,"station_id":"ce4bh012rcd13ifvqd00","pricing_plan_id":"cebpf4jnsgd1na2vs0mg"},{"bike_id":"5554a15a-3e77-4957-960a-9fd3bb5c6cef","system_id":"levelo_inurba_marseille","lat":43.31992,"lon":5.38166,"is_reserved":false,"is_disabled":false,"rental_uris":{"android":"levelo://app?vid=5554a15a-3e77-4957-960a-9fd3bb5c6cef","ios":"levelo://app?vid=5554a15a-3e77-4957-960a-9fd3bb5c6cef"},"vehicle_type_id":"4","last_reported":1729008661,"current_range_meters":2800,"station_id":"ce4bhr12rcd13ifvqhpg","pricing_plan_id":"cebpf4jnsgd1na2vs0mg"},{"bike_id":"20f1c327-598d-4952-9e41-7377fded1138","system_id":"levelo_inurba_marseille","lat":43.24388,"lon":5.37058,"is_reserved":false,"is_disabled":false,"rental_uris":{"android":"levelo://app?vid=20f1c327-598d-4952-9e41-7377fded1138","ios":"levelo://app?vid=20f1c327-598d-4952-9e41-7377fded1138"},"vehicle_type_id":"4","last_reported":1729008661,"current_range_meters":20800,"station_id":"ce4bhhh2rcd13ifvqfk0","pricing_plan_id":"cebpf4jnsgd1na2vs0mg"},{"bike_id":"3668da75-c41f-466b-8262-09a17c054d21","system_id":"levelo_inurba_marseille","lat":43.31081,"lon":5.42432,"is_reserved":false,"is_disabled":false,"rental_uris":{"android":"levelo://app?vid=3668da75-c41f-466b-8262-09a17c054d21","ios":"levelo://app?vid=3668da75-c41f-466b-8262-09a17c054d21"},"vehicle_type_id":"4","last_reported":1729008661,"current_range_meters":8800,"station_id":"ce4bhp92rcd13ifvqhag","pricing_plan_id":"cebpf4jnsgd1na2vs0mg"},{"bike_id":"fde3dc27-6e54-4787-9b5d-e958f1c11e5b","system_id":"levelo_inurba_marseille","lat":43.29532,"lon":5.38543,"is_reserved":false,"is_disabled":false,"rental_uris":{"android":"levelo://app?vid=fde3dc27-6e54-4787-9b5d-e958f1c11e5b","ios":"levelo://app?vid=fde3dc27-6e54-4787-9b5d-e958f1c11e5b"},"vehicle_type_id":"4","last_reported":1729008661,"current_range_meters":38800,"station_id":"ce4bgih2rcd13ifvqba0","pricing_plan_id":"cebpf4jnsgd1na2vs0mg"},{"bike_id":"0d709b04-13aa-4fc7-a575-c70a83cf3926","system_id":"levelo_inurba_marseille","lat":43.28423,"lon":5.34985,"is_reserved":false,"is_disabled":false,"rental_uris":{"android":"levelo://app?vid=0d709b04-13aa-4fc7-a575-c70a83cf3926","ios":"levelo://app?vid=0d709b04-13aa-4fc7-a575-c70a83cf3926"},"vehicle_type_id":"4","last_reported":1729008661,"current_range_meters":21600,"station_id":"ce4bhbh2rcd13ifvqepg","pricing_plan_id":"cebpf4jnsgd1na2vs0mg"},{"bike_id":"c7f035eb-3cac-49b2-b676-826d22e8cf70","system_id":"levelo_inurba_marseille","lat":43.308,"lon":5.38146,"is_reserved":false,"is_disabled":false,"rental_uris":{"android":"levelo://app?vid=c7f035eb-3cac-49b2-b676-826d22e8cf70","ios":"levelo://app?vid=c7f035eb-3cac-49b2-b676-826d22e8cf70"},"vehicle_type_id":"4","last_reported":1729008661,"current_range_meters":24400,"station_id":"ce4bgt12rcd13ifvqce0","pricing_plan_id":"cebpf4jnsgd1na2vs0mg"},{"bike_id":"4b29ea64-7a12-43ba-ae2f-97eff0c12de8","system_id":"levelo_inurba_marseille","lat":43.32365,"lon":5.38879,"is_reserved":false,"is_disabled":false,"rental_uris":{"android":"levelo://app?vid=4b29ea64-7a12-43ba-ae2f-97eff0c12de8","ios":"levelo://app?vid=4b29ea64-7a12-43ba-ae2f-97eff0c12de8"},"vehicle_type_id":"4","last_reported":1729008661,"current_range_meters":32000,"station_id":"ce4bhqp2rcd13ifvqhog","pricing_plan_id":"cebpf4jnsgd1na2vs0mg"},{"bike_id":"d52ffa24-6f2b-4755-8f1a-39fecd1e8a52","system_id":"levelo_inurba_marseille","lat":43.28614,"lon":5.35106,"is_reserved":false,"is_disabled":false,"rental_uris":{"android":"levelo://app?vid=d52ffa24-6f2b-4755-8f1a-39fecd1e8a52","ios":"levelo://app?vid=d52ffa24-6f2b-4755-8f1a-39fecd1e8a52"},"vehicle_type_id":"4","last_reported":1729008661,"current_range_meters":8800,"station_id":"ce4bhch2rcd13ifvqeug","pricing_plan_id":"cebpf4jnsgd1na2vs0mg"},{"bike_id":"028d28d3-52c8-471d-8589-34096c9d2490","system_id":"levelo_inurba_marseille","lat":43.30417,"lon":5.4129,"is_reserved":false,"is_disabled":false,"rental_uris":{"android":"levelo://app?vid=028d28d3-52c8-471d-8589-34096c9d2490","ios":"levelo://app?vid=028d28d3-52c8-471d-8589-34096c9d2490"},"vehicle_type_id":"4","last_reported":1729008661,"current_range_meters":8800,"station_id":"ce4bhop2rcd13ifvqh8g","pricing_plan_id":"cebpf4jnsgd1na2vs0mg"},{"bike_id":"6d7c45b9-7a41-4bb1-8b90-9904177ad792","system_id":"levelo_inurba_marseille","lat":43.28613,"lon":5.35106,"is_reserved":false,"is_disabled":false,"rental_uris":{"android":"levelo://app?vid=6d7c45b9-7a41-4bb1-8b90-9904177ad792","ios":"levelo://app?vid=6d7c45b9-7a41-4bb1-8b90-9904177ad792"},"vehicle_type_id":"4","last_reported":1729008661,"current_range_meters":20400,"station_id":"ce4bhch2rcd13ifvqeug","pricing_plan_id":"cebpf4jnsgd1na2vs0mg"},{"bike_id":"9cf71220-ead5-413c-a359-5e709dd47dd2","system_id":"levelo_inurba_marseille","lat":43.32368,"lon":5.38881,"is_reserved":false,"is_disabled":false,"rental_uris":{"android":"levelo://app?vid=9cf71220-ead5-413c-a359-5e709dd47dd2","ios":"levelo://app?vid=9cf71220-ead5-413c-a359-5e709dd47dd2"},"vehicle_type_id":"4","last_reported":1729008661,"current_range_meters":24800,"station_id":"ce4bhqp2rcd13ifvqhog","pricing_plan_id":"cebpf4jnsgd1na2vs0mg"},{"bike_id":"5fc47c39-dabc-4f82-9a2a-bae9e0ead10c","system_id":"levelo_inurba_marseille","lat":43.31116,"lon":5.37772,"is_reserved":false,"is_disabled":false,"rental_uris":{"android":"levelo://app?vid=5fc47c39-dabc-4f82-9a2a-bae9e0ead10c","ios":"levelo://app?vid=5fc47c39-dabc-4f82-9a2a-bae9e0ead10c"},"vehicle_type_id":"4","last_reported":1729008661,"current_range_meters":36000,"station_id":"ce4bgt92rcd13ifvqcg0","pricing_plan_id":"cebpf4jnsgd1na2vs0mg"},{"bike_id":"280fd458-4554-44d8-9556-3aaced609a57","system_id":"levelo_inurba_marseille","lat":43.2439,"lon":5.37056,"is_reserved":false,"is_disabled":false,"rental_uris":{"android":"levelo://app?vid=280fd458-4554-44d8-9556-3aaced609a57","ios":"levelo://app?vid=280fd458-4554-44d8-9556-3aaced609a57"},"vehicle_type_id":"4","last_reported":1729008661,"current_range_meters":38800,"station_id":"ce4bhhh2rcd13ifvqfk0","pricing_plan_id":"cebpf4jnsgd1na2vs0mg"},{"bike_id":"abbffdf3-ff6a-4da1-91df-ef5d1453acc4","system_id":"levelo_inurba_marseille","lat":43.32107,"lon":5.36782,"is_reserved":false,"is_disabled":false,"rental_uris":{"android":"levelo://app?vid=abbffdf3-ff6a-4da1-91df-ef5d1453acc4","ios":"levelo://app?vid=abbffdf3-ff6a-4da1-91df-ef5d1453acc4"},"vehicle_type_id":"4","last_reported":1729008661,"current_range_meters":38800,"station_id":"ce4bhrh2rcd13ifvqhug","pricing_plan_id":"cebpf4jnsgd1na2vs0mg"},{"bike_id":"05adb47d-1266-4e21-ab38-5e328a4b3445","system_id":"levelo_inurba_marseille","lat":43.322998,"lon":5.381496,"is_reserved":false,"is_disabled":false,"rental_uris":{"android":"levelo://app?vid=05adb47d-1266-4e21-ab38-5e328a4b3445","ios":"levelo://app?vid=05adb47d-1266-4e21-ab38-5e328a4b3445"},"vehicle_type_id":"4","last_reported":1729008661,"current_range_meters":23200,"station_id":"","pricing_plan_id":"cebpf4jnsgd1na2vs0mg"},{"bike_id":"cc590ac7-d554-4557-85b0-88dacf5967a5","system_id":"levelo_inurba_marseille","lat":43.30885,"lon":5.3966,"is_reserved":false,"is_disabled":false,"rental_uris":{"android":"levelo://app?vid=cc590ac7-d554-4557-85b0-88dacf5967a5","ios":"levelo://app?vid=cc590ac7-d554-4557-85b0-88dacf5967a5"},"vehicle_type_id":"4","last_reported":1729008661,"current_range_meters":36000,"station_id":"ce4bh012rcd13ifvqcv0","pricing_plan_id":"cebpf4jnsgd1na2vs0mg"},{"bike_id":"f61f5020-9a98-430b-af24-9548f2ac9198","system_id":"levelo_inurba_marseille","lat":43.24393,"lon":5.3707,"is_reserved":false,"is_disabled":false,"rental_uris":{"android":"levelo://app?vid=f61f5020-9a98-430b-af24-9548f2ac9198","ios":"levelo://app?vid=f61f5020-9a98-430b-af24-9548f2ac9198"},"vehicle_type_id":"4","last_reported":1729008661,"current_range_meters":31200,"station_id":"ce4bhhh2rcd13ifvqfk0","pricing_plan_id":"cebpf4jnsgd1na2vs0mg"},{"bike_id":"ce6f8676-a881-45c2-8305-3226f12080a0","system_id":"levelo_inurba_marseille","lat":43.28087,"lon":5.39662,"is_reserved":false,"is_disabled":false,"rental_uris":{"android":"levelo://app?vid=ce6f8676-a881-45c2-8305-3226f12080a0","ios":"levelo://app?vid=ce6f8676-a881-45c2-8305-3226f12080a0"},"vehicle_type_id":"4","last_reported":1729008661,"current_range_meters":27600,"station_id":"ce4bho12rcd13ifvqh2g","pricing_plan_id":"cebpf4jnsgd1na2vs0mg"},{"bike_id":"c0670d96-b06e-446b-a07e-6b5eeebc59d7","system_id":"levelo_inurba_marseille","lat":43.274948,"lon":5.424466,"is_reserved":false,"is_disabled":false,"rental_uris":{"android":"levelo://app?vid=c0670d96-b06e-446b-a07e-6b5eeebc59d7","ios":"levelo://app?vid=c0670d96-b06e-446b-a07e-6b5eeebc59d7"},"vehicle_type_id":"4","last_reported":1729008661,"current_range_meters":11600,"station_id":"ce4bhn92rcd13ifvqgrg","pricing_plan_id":"cebpf4jnsgd1na2vs0mg"},{"bike_id":"ed7724a9-368a-4f52-bebb-acb055371064","system_id":"levelo_inurba_marseille","lat":43.25583,"lon":5.38227,"is_reserved":false,"is_disabled":false,"rental_uris":{"android":"levelo://app?vid=ed7724a9-368a-4f52-bebb-acb055371064","ios":"levelo://app?vid=ed7724a9-368a-4f52-bebb-acb055371064"},"vehicle_type_id":"4","last_reported":1729008661,"current_range_meters":12000,"station_id":"ce4bhih2rcd13ifvqfs0","pricing_plan_id":"cebpf4jnsgd1na2vs0mg"},{"bike_id":"a0d3d324-fa7e-4417-aee7-85012ecab44e","system_id":"levelo_inurba_marseille","lat":43.34194,"lon":5.44504,"is_reserved":false,"is_disabled":false,"rental_uris":{"android":"levelo://app?vid=a0d3d324-fa7e-4417-aee7-85012ecab44e","ios":"levelo://app?vid=a0d3d324-fa7e-4417-aee7-85012ecab44e"},"vehicle_type_id":"4","last_reported":1729008661,"current_range_meters":23200,"station_id":"","pricing_plan_id":"cebpf4jnsgd1na2vs0mg"},{"bike_id":"89f7d7e9-8ec9-4953-954d-0f8dec458996","system_id":"levelo_inurba_marseille","lat":43.29198,"lon":5.35799,"is_reserved":false,"is_disabled":false,"rental_uris":{"android":"levelo://app?vid=89f7d7e9-8ec9-4953-954d-0f8dec458996","ios":"levelo://app?vid=89f7d7e9-8ec9-4953-954d-0f8dec458996"},"vehicle_type_id":"4","last_reported":1729008661,"current_range_meters":12000,"station_id":"ce4bhb12rcd13ifvqel0","pricing_plan_id":"cebpf4jnsgd1na2vs0mg"},{"bike_id":"fa53596d-3f64-497f-afba-bff5e03998fd","system_id":"levelo_inurba_marseille","lat":43.2926,"lon":5.40908,"is_reserved":false,"is_disabled":false,"rental_uris":{"android":"levelo://app?vid=fa53596d-3f64-497f-afba-bff5e03998fd","ios":"levelo://app?vid=fa53596d-3f64-497f-afba-bff5e03998fd"},"vehicle_type_id":"4","last_reported":1729008661,"current_range_meters":34000,"station_id":"ce4bh192rcd13ifvqdc0","pricing_plan_id":"cebpf4jnsgd1na2vs0mg"},{"bike_id":"52f79488-82a8-4ae8-ad58-27d91d161bf2","system_id":"levelo_inurba_marseille","lat":43.284228,"lon":5.349891,"is_reserved":false,"is_disabled":false,"rental_uris":{"android":"levelo://app?vid=52f79488-82a8-4ae8-ad58-27d91d161bf2","ios":"levelo://app?vid=52f79488-82a8-4ae8-ad58-27d91d161bf2"},"vehicle_type_id":"4","last_reported":1729008661,"current_range_meters":4400,"station_id":"ce4bhbh2rcd13ifvqepg","pricing_plan_id":"cebpf4jnsgd1na2vs0mg"},{"bike_id":"0994d7f0-fa2e-480f-b967-2b1e1b476b78","system_id":"levelo_inurba_marseille","lat":43.2319,"lon":5.35556,"is_reserved":false,"is_disabled":false,"rental_uris":{"android":"levelo://app?vid=0994d7f0-fa2e-480f-b967-2b1e1b476b78","ios":"levelo://app?vid=0994d7f0-fa2e-480f-b967-2b1e1b476b78"},"vehicle_type_id":"4","last_reported":1729008661,"current_range_meters":26000,"station_id":"ce4bhu92rcd13ifvqi70","pricing_plan_id":"cebpf4jnsgd1na2vs0mg"},{"bike_id":"4d423de8-5e22-441a-8848-ae5dc9d8eb39","system_id":"levelo_inurba_marseille","lat":43.33726,"lon":5.37455,"is_reserved":false,"is_disabled":false,"rental_uris":{"android":"levelo://app?vid=4d423de8-5e22-441a-8848-ae5dc9d8eb39","ios":"levelo://app?vid=4d423de8-5e22-441a-8848-ae5dc9d8eb39"},"vehicle_type_id":"4","last_reported":1729008661,"current_range_meters":9600,"station_id":"","pricing_plan_id":"cebpf4jnsgd1na2vs0mg"},{"bike_id":"8d7e6ebd-32ae-47fa-bb37-b1fca1a3f366","system_id":"levelo_inurba_marseille","lat":43.28029,"lon":5.36941,"is_reserved":false,"is_disabled":false,"rental_uris":{"android":"levelo://app?vid=8d7e6ebd-32ae-47fa-bb37-b1fca1a3f366","ios":"levelo://app?vid=8d7e6ebd-32ae-47fa-bb37-b1fca1a3f366"},"vehicle_type_id":"4","last_reported":1729008661,"current_range_meters":12800,"station_id":"ce4bha12rcd13ifvqef0","pricing_plan_id":"cebpf4jnsgd1na2vs0mg"},{"bike_id":"8f1473c8-5614-4fe5-9a08-5f8d5d6a0adb","system_id":"levelo_inurba_marseille","lat":43.32108,"lon":5.36778,"is_reserved":false,"is_disabled":false,"rental_uris":{"android":"levelo://app?vid=8f1473c8-5614-4fe5-9a08-5f8d5d6a0adb","ios":"levelo://app?vid=8f1473c8-5614-4fe5-9a08-5f8d5d6a0adb"},"vehicle_type_id":"4","last_reported":1729008661,"current_range_meters":26000,"station_id":"ce4bhrh2rcd13ifvqhug","pricing_plan_id":"cebpf4jnsgd1na2vs0mg"},{"bike_id":"c0319fa4-256d-453e-9614-164a8855d202","system_id":"levelo_inurba_marseille","lat":43.28041,"lon":5.36938,"is_reserved":false,"is_disabled":false,"rental_uris":{"android":"levelo://app?vid=c0319fa4-256d-453e-9614-164a8855d202","ios":"levelo://app?vid=c0319fa4-256d-453e-9614-164a8855d202"},"vehicle_type_id":"4","last_reported":1729008661,"current_range_meters":16000,"station_id":"ce4bha12rcd13ifvqef0","pricing_plan_id":"cebpf4jnsgd1na2vs0mg"},{"bike_id":"bd391cf2-447e-4a41-af6b-1e995770300a","system_id":"levelo_inurba_marseille","lat":43.23196,"lon":5.35547,"is_reserved":false,"is_disabled":false,"rental_uris":{"android":"levelo://app?vid=bd391cf2-447e-4a41-af6b-1e995770300a","ios":"levelo://app?vid=bd391cf2-447e-4a41-af6b-1e995770300a"},"vehicle_type_id":"4","last_reported":1729008661,"current_range_meters":2800,"station_id":"ce4bhu92rcd13ifvqi70","pricing_plan_id":"cebpf4jnsgd1na2vs0mg"},{"bike_id":"138bd2ca-c4ff-4dab-9e15-1a9906b30021","system_id":"levelo_inurba_marseille","lat":43.25587,"lon":5.38232,"is_reserved":false,"is_disabled":false,"rental_uris":{"android":"levelo://app?vid=138bd2ca-c4ff-4dab-9e15-1a9906b30021","ios":"levelo://app?vid=138bd2ca-c4ff-4dab-9e15-1a9906b30021"},"vehicle_type_id":"4","last_reported":1729008661,"current_range_meters":24800,"station_id":"ce4bhih2rcd13ifvqfs0","pricing_plan_id":"cebpf4jnsgd1na2vs0mg"},{"bike_id":"525a115c-34fb-431e-86bf-f4d4fad46c25","system_id":"levelo_inurba_marseille","lat":43.24544,"lon":5.39523,"is_reserved":false,"is_disabled":false,"rental_uris":{"android":"levelo://app?vid=525a115c-34fb-431e-86bf-f4d4fad46c25","ios":"levelo://app?vid=525a115c-34fb-431e-86bf-f4d4fad46c25"},"vehicle_type_id":"4","last_reported":1729008661,"current_range_meters":3600,"station_id":"ce4bhlp2rcd13ifvqgjg","pricing_plan_id":"cebpf4jnsgd1na2vs0mg"},{"bike_id":"a8f3e4b8-497c-40e3-8574-9c0ea96f2fd8","system_id":"levelo_inurba_marseille","lat":43.31756,"lon":5.39017,"is_reserved":false,"is_disabled":false,"rental_uris":{"android":"levelo://app?vid=a8f3e4b8-497c-40e3-8574-9c0ea96f2fd8","ios":"levelo://app?vid=a8f3e4b8-497c-40e3-8574-9c0ea96f2fd8"},"vehicle_type_id":"4","last_reported":1729008661,"current_range_meters":30400,"station_id":"ce4bhqp2rcd13ifvqhng","pricing_plan_id":"cebpf4jnsgd1na2vs0mg"},{"bike_id":"c21cf082-2db2-4cac-8a92-e9d74a662d0e","system_id":"levelo_inurba_marseille","lat":43.30887,"lon":5.39657,"is_reserved":false,"is_disabled":false,"rental_uris":{"android":"levelo://app?vid=c21cf082-2db2-4cac-8a92-e9d74a662d0e","ios":"levelo://app?vid=c21cf082-2db2-4cac-8a92-e9d74a662d0e"},"vehicle_type_id":"4","last_reported":1729008661,"current_range_meters":38400,"station_id":"ce4bh012rcd13ifvqcv0","pricing_plan_id":"cebpf4jnsgd1na2vs0mg"},{"bike_id":"1d7243af-83cb-4d47-b263-1b1f356427dc","system_id":"levelo_inurba_marseille","lat":43.28039,"lon":5.36955,"is_reserved":false,"is_disabled":false,"rental_uris":{"android":"levelo://app?vid=1d7243af-83cb-4d47-b263-1b1f356427dc","ios":"levelo://app?vid=1d7243af-83cb-4d47-b263-1b1f356427dc"},"vehicle_type_id":"4","last_reported":1729008661,"current_range_meters":24000,"station_id":"ce4bha12rcd13ifvqef0","pricing_plan_id":"cebpf4jnsgd1na2vs0mg"},{"bike_id":"e084d3b6-fcfe-4f8b-9130-92054313ed0a","system_id":"levelo_inurba_marseille","lat":43.32365,"lon":5.38883,"is_reserved":false,"is_disabled":false,"rental_uris":{"android":"levelo://app?vid=e084d3b6-fcfe-4f8b-9130-92054313ed0a","ios":"levelo://app?vid=e084d3b6-fcfe-4f8b-9130-92054313ed0a"},"vehicle_type_id":"4","last_reported":1729008661,"current_range_meters":4800,"station_id":"ce4bhqp2rcd13ifvqhog","pricing_plan_id":"cebpf4jnsgd1na2vs0mg"},{"bike_id":"534fb479-7f25-4623-b5f6-73159ad7e03a","system_id":"levelo_inurba_marseille","lat":43.26212,"lon":5.37439,"is_reserved":false,"is_disabled":false,"rental_uris":{"android":"levelo://app?vid=534fb479-7f25-4623-b5f6-73159ad7e03a","ios":"levelo://app?vid=534fb479-7f25-4623-b5f6-73159ad7e03a"},"vehicle_type_id":"4","last_reported":1729008661,"current_range_meters":30400,"station_id":"ce4bhgp2rcd13ifvqfc0","pricing_plan_id":"cebpf4jnsgd1na2vs0mg"},{"bike_id":"2140b6a3-5118-4150-823e-9225aeb56201","system_id":"levelo_inurba_marseille","lat":43.231956,"lon":5.355475,"is_reserved":false,"is_disabled":false,"rental_uris":{"android":"levelo://app?vid=2140b6a3-5118-4150-823e-9225aeb56201","ios":"levelo://app?vid=2140b6a3-5118-4150-823e-9225aeb56201"},"vehicle_type_id":"4","last_reported":1729008661,"current_range_meters":8400,"station_id":"ce4bhu92rcd13ifvqi70","pricing_plan_id":"cebpf4jnsgd1na2vs0mg"},{"bike_id":"aea151f5-2f8e-42fa-96b0-36f5231470bc","system_id":"levelo_inurba_marseille","lat":43.30643,"lon":5.40104,"is_reserved":false,"is_disabled":false,"rental_uris":{"android":"levelo://app?vid=aea151f5-2f8e-42fa-96b0-36f5231470bc","ios":"levelo://app?vid=aea151f5-2f8e-42fa-96b0-36f5231470bc"},"vehicle_type_id":"4","last_reported":1729008661,"current_range_meters":22800,"station_id":"ce4bh112rcd13ifvqda0","pricing_plan_id":"cebpf4jnsgd1na2vs0mg"},{"bike_id":"b9aafc66-3c0e-4261-a303-2fa90f872e20","system_id":"levelo_inurba_marseille","lat":43.28275,"lon":5.35074,"is_reserved":false,"is_disabled":false,"rental_uris":{"android":"levelo://app?vid=b9aafc66-3c0e-4261-a303-2fa90f872e20","ios":"levelo://app?vid=b9aafc66-3c0e-4261-a303-2fa90f872e20"},"vehicle_type_id":"4","last_reported":1729008661,"current_range_meters":36000,"station_id":"ce4bhbp2rcd13ifvqerg","pricing_plan_id":"cebpf4jnsgd1na2vs0mg"},{"bike_id":"88045875-502e-4fac-a4b2-4a2f10ca8308","system_id":"levelo_inurba_marseille","lat":43.27941,"lon":5.41046,"is_reserved":false,"is_disabled":false,"rental_uris":{"android":"levelo://app?vid=88045875-502e-4fac-a4b2-4a2f10ca8308","ios":"levelo://app?vid=88045875-502e-4fac-a4b2-4a2f10ca8308"},"vehicle_type_id":"4","last_reported":1729008661,"current_range_meters":4800,"station_id":"ce4bhnp2rcd13ifvqh0g","pricing_plan_id":"cebpf4jnsgd1na2vs0mg"},{"bike_id":"9211fb81-b800-4742-8a6b-97e66712b56d","system_id":"levelo_inurba_marseille","lat":43.24653,"lon":5.38895,"is_reserved":false,"is_disabled":false,"rental_uris":{"android":"levelo://app?vid=9211fb81-b800-4742-8a6b-97e66712b56d","ios":"levelo://app?vid=9211fb81-b800-4742-8a6b-97e66712b56d"},"vehicle_type_id":"4","last_reported":1729008661,"current_range_meters":14000,"station_id":"ce4bhg12rcd13ifvqf60","pricing_plan_id":"cebpf4jnsgd1na2vs0mg"},{"bike_id":"cee8f694-7608-4f6b-b687-1b37f6f50356","system_id":"levelo_inurba_marseille","lat":43.28039,"lon":5.36949,"is_reserved":false,"is_disabled":false,"rental_uris":{"android":"levelo://app?vid=cee8f694-7608-4f6b-b687-1b37f6f50356","ios":"levelo://app?vid=cee8f694-7608-4f6b-b687-1b37f6f50356"},"vehicle_type_id":"4","last_reported":1729008661,"current_range_meters":12400,"station_id":"ce4bha12rcd13ifvqef0","pricing_plan_id":"cebpf4jnsgd1na2vs0mg"},{"bike_id":"679f4f3c-0203-4f7d-9836-538010d8d024","system_id":"levelo_inurba_marseille","lat":43.28033,"lon":5.36948,"is_reserved":false,"is_disabled":false,"rental_uris":{"android":"levelo://app?vid=679f4f3c-0203-4f7d-9836-538010d8d024","ios":"levelo://app?vid=679f4f3c-0203-4f7d-9836-538010d8d024"},"vehicle_type_id":"4","last_reported":1729008661,"current_range_meters":5600,"station_id":"ce4bha12rcd13ifvqef0","pricing_plan_id":"cebpf4jnsgd1na2vs0mg"},{"bike_id":"08a911ec-ce5a-4ced-a6b0-aa79294606c1","system_id":"levelo_inurba_marseille","lat":43.31173,"lon":5.38716,"is_reserved":false,"is_disabled":false,"rental_uris":{"android":"levelo://app?vid=08a911ec-ce5a-4ced-a6b0-aa79294606c1","ios":"levelo://app?vid=08a911ec-ce5a-4ced-a6b0-aa79294606c1"},"vehicle_type_id":"4","last_reported":1729008661,"current_range_meters":26800,"station_id":"ce4bgv12rcd13ifvqcp0","pricing_plan_id":"cebpf4jnsgd1na2vs0mg"},{"bike_id":"1acff708-777d-49d2-9726-edc79c4f014d","system_id":"levelo_inurba_marseille","lat":43.248123,"lon":5.374666,"is_reserved":false,"is_disabled":false,"rental_uris":{"android":"levelo://app?vid=1acff708-777d-49d2-9726-edc79c4f014d","ios":"levelo://app?vid=1acff708-777d-49d2-9726-edc79c4f014d"},"vehicle_type_id":"4","last_reported":1729008661,"current_range_meters":39200,"station_id":"ce4bhgh2rcd13ifvqfb0","pricing_plan_id":"cebpf4jnsgd1na2vs0mg"},{"bike_id":"89211ee2-076f-4df3-92bd-cd8885f2e76d","system_id":"levelo_inurba_marseille","lat":43.23194,"lon":5.35555,"is_reserved":false,"is_disabled":false,"rental_uris":{"android":"levelo://app?vid=89211ee2-076f-4df3-92bd-cd8885f2e76d","ios":"levelo://app?vid=89211ee2-076f-4df3-92bd-cd8885f2e76d"},"vehicle_type_id":"4","last_reported":1729008661,"current_range_meters":39200,"station_id":"ce4bhu92rcd13ifvqi70","pricing_plan_id":"cebpf4jnsgd1na2vs0mg"},{"bike_id":"174c21c7-8d74-4b8b-8600-dbf70f4125ee","system_id":"levelo_inurba_marseille","lat":43.2457,"lon":5.4161,"is_reserved":false,"is_disabled":false,"rental_uris":{"android":"levelo://app?vid=174c21c7-8d74-4b8b-8600-dbf70f4125ee","ios":"levelo://app?vid=174c21c7-8d74-4b8b-8600-dbf70f4125ee"},"vehicle_type_id":"4","last_reported":1729008661,"current_range_meters":3200,"station_id":"","pricing_plan_id":"cebpf4jnsgd1na2vs0mg"},{"bike_id":"9dabbb9f-2820-49db-acc7-73662a324005","system_id":"levelo_inurba_marseille","lat":43.33732,"lon":5.39196,"is_reserved":false,"is_disabled":false,"rental_uris":{"android":"levelo://app?vid=9dabbb9f-2820-49db-acc7-73662a324005","ios":"levelo://app?vid=9dabbb9f-2820-49db-acc7-73662a324005"},"vehicle_type_id":"4","last_reported":1729008661,"current_range_meters":36800,"station_id":"ce4bhr92rcd13ifvqhsg","pricing_plan_id":"cebpf4jnsgd1na2vs0mg"},{"bike_id":"6d0ddd77-20e3-41ec-acd8-7cd4878054ba","system_id":"levelo_inurba_marseille","lat":43.28769,"lon":5.3793,"is_reserved":false,"is_disabled":false,"rental_uris":{"android":"levelo://app?vid=6d0ddd77-20e3-41ec-acd8-7cd4878054ba","ios":"levelo://app?vid=6d0ddd77-20e3-41ec-acd8-7cd4878054ba"},"vehicle_type_id":"4","last_reported":1729008661,"current_range_meters":28000,"station_id":"ce4bh9p2rcd13ifvqec0","pricing_plan_id":"cebpf4jnsgd1na2vs0mg"},{"bike_id":"7e4ca2f2-8d39-419d-b548-e4ee229d40b3","system_id":"levelo_inurba_marseille","lat":43.29611,"lon":5.37722,"is_reserved":false,"is_disabled":false,"rental_uris":{"android":"levelo://app?vid=7e4ca2f2-8d39-419d-b548-e4ee229d40b3","ios":"levelo://app?vid=7e4ca2f2-8d39-419d-b548-e4ee229d40b3"},"vehicle_type_id":"4","last_reported":1729008661,"current_range_meters":10800,"station_id":"ce4bgi92rcd13ifvqb90","pricing_plan_id":"cebpf4jnsgd1na2vs0mg"},{"bike_id":"510c4fda-6ab1-4c8f-9ea8-e98e4504751e","system_id":"levelo_inurba_marseille","lat":43.33722,"lon":5.39176,"is_reserved":false,"is_disabled":false,"rental_uris":{"android":"levelo://app?vid=510c4fda-6ab1-4c8f-9ea8-e98e4504751e","ios":"levelo://app?vid=510c4fda-6ab1-4c8f-9ea8-e98e4504751e"},"vehicle_type_id":"4","last_reported":1729008661,"current_range_meters":6000,"station_id":"ce4bhr92rcd13ifvqhsg","pricing_plan_id":"cebpf4jnsgd1na2vs0mg"},{"bike_id":"f6b8b82d-7920-40dc-a3bc-91a0173a456c","system_id":"levelo_inurba_marseille","lat":43.290375,"lon":5.399643,"is_reserved":false,"is_disabled":false,"rental_uris":{"android":"levelo://app?vid=f6b8b82d-7920-40dc-a3bc-91a0173a456c","ios":"levelo://app?vid=f6b8b82d-7920-40dc-a3bc-91a0173a456c"},"vehicle_type_id":"4","last_reported":1729008661,"current_range_meters":6000,"station_id":"ce4bh392rcd13ifvqdm0","pricing_plan_id":"cebpf4jnsgd1na2vs0mg"},{"bike_id":"05768fcd-4c88-46a5-a28b-8fab8f860baa","system_id":"levelo_inurba_marseille","lat":43.27813,"lon":5.40699,"is_reserved":false,"is_disabled":false,"rental_uris":{"android":"levelo://app?vid=05768fcd-4c88-46a5-a28b-8fab8f860baa","ios":"levelo://app?vid=05768fcd-4c88-46a5-a28b-8fab8f860baa"},"vehicle_type_id":"4","last_reported":1729008661,"current_range_meters":38400,"station_id":"ce4bhnh2rcd13ifvqgtg","pricing_plan_id":"cebpf4jnsgd1na2vs0mg"},{"bike_id":"3b101a28-71fb-44f3-abb3-e1e2cdad1aff","system_id":"levelo_inurba_marseille","lat":43.25531,"lon":5.382047,"is_reserved":false,"is_disabled":false,"rental_uris":{"android":"levelo://app?vid=3b101a28-71fb-44f3-abb3-e1e2cdad1aff","ios":"levelo://app?vid=3b101a28-71fb-44f3-abb3-e1e2cdad1aff"},"vehicle_type_id":"4","last_reported":1729008661,"current_range_meters":12000,"station_id":"ce4bgi12rcd13ifvqb70","pricing_plan_id":"cebpf4jnsgd1na2vs0mg"},{"bike_id":"7ecc4e59-f655-440f-a02c-102c552cb4c0","system_id":"levelo_inurba_marseille","lat":43.29579,"lon":5.36736,"is_reserved":false,"is_disabled":false,"rental_uris":{"android":"levelo://app?vid=7ecc4e59-f655-440f-a02c-102c552cb4c0","ios":"levelo://app?vid=7ecc4e59-f655-440f-a02c-102c552cb4c0"},"vehicle_type_id":"4","last_reported":1729008661,"current_range_meters":34000,"station_id":"ce4bgph2rcd13ifvqc2g","pricing_plan_id":"cebpf4jnsgd1na2vs0mg"},{"bike_id":"ff96eee3-1ac8-4888-9ae7-e4b6cc8154af","system_id":"levelo_inurba_marseille","lat":43.33739,"lon":5.3746,"is_reserved":false,"is_disabled":false,"rental_uris":{"android":"levelo://app?vid=ff96eee3-1ac8-4888-9ae7-e4b6cc8154af","ios":"levelo://app?vid=ff96eee3-1ac8-4888-9ae7-e4b6cc8154af"},"vehicle_type_id":"4","last_reported":1729008661,"current_range_meters":33200,"station_id":"","pricing_plan_id":"cebpf4jnsgd1na2vs0mg"},{"bike_id":"94111028-32ad-4f04-8fdb-c07fe04340a0","system_id":"levelo_inurba_marseille","lat":43.311432,"lon":5.388214,"is_reserved":false,"is_disabled":false,"rental_uris":{"android":"levelo://app?vid=94111028-32ad-4f04-8fdb-c07fe04340a0","ios":"levelo://app?vid=94111028-32ad-4f04-8fdb-c07fe04340a0"},"vehicle_type_id":"4","last_reported":1729008661,"current_range_meters":12800,"station_id":"ce4bh0h2rcd13ifvqd60","pricing_plan_id":"cebpf4jnsgd1na2vs0mg"},{"bike_id":"e4bc4f29-487f-4b6e-9b0d-0fc2991b838f","system_id":"levelo_inurba_marseille","lat":43.25492,"lon":5.37649,"is_reserved":false,"is_disabled":false,"rental_uris":{"android":"levelo://app?vid=e4bc4f29-487f-4b6e-9b0d-0fc2991b838f","ios":"levelo://app?vid=e4bc4f29-487f-4b6e-9b0d-0fc2991b838f"},"vehicle_type_id":"4","last_reported":1729008661,"current_range_meters":20800,"station_id":"ce4bhh12rcd13ifvqff0","pricing_plan_id":"cebpf4jnsgd1na2vs0mg"},{"bike_id":"bb8d20fc-f314-479b-a3e2-49a631bb7fac","system_id":"levelo_inurba_marseille","lat":43.30592,"lon":5.39358,"is_reserved":false,"is_disabled":false,"rental_uris":{"android":"levelo://app?vid=bb8d20fc-f314-479b-a3e2-49a631bb7fac","ios":"levelo://app?vid=bb8d20fc-f314-479b-a3e2-49a631bb7fac"},"vehicle_type_id":"4","last_reported":1729008661,"current_range_meters":2800,"station_id":"ce4bh0p2rcd13ifvqd80","pricing_plan_id":"cebpf4jnsgd1na2vs0mg"},{"bike_id":"f3441ff6-118e-4184-8319-c9ce42e423a8","system_id":"levelo_inurba_marseille","lat":43.27938,"lon":5.41043,"is_reserved":false,"is_disabled":false,"rental_uris":{"android":"levelo://app?vid=f3441ff6-118e-4184-8319-c9ce42e423a8","ios":"levelo://app?vid=f3441ff6-118e-4184-8319-c9ce42e423a8"},"vehicle_type_id":"4","last_reported":1729008661,"current_range_meters":18000,"station_id":"ce4bhnp2rcd13ifvqh0g","pricing_plan_id":"cebpf4jnsgd1na2vs0mg"},{"bike_id":"1302ede2-aa53-48a8-bf6f-a50f53724ef6","system_id":"levelo_inurba_marseille","lat":43.25494,"lon":5.37649,"is_reserved":false,"is_disabled":false,"rental_uris":{"android":"levelo://app?vid=1302ede2-aa53-48a8-bf6f-a50f53724ef6","ios":"levelo://app?vid=1302ede2-aa53-48a8-bf6f-a50f53724ef6"},"vehicle_type_id":"4","last_reported":1729008661,"current_range_meters":16400,"station_id":"ce4bhh12rcd13ifvqff0","pricing_plan_id":"cebpf4jnsgd1na2vs0mg"},{"bike_id":"518eae26-0512-481d-a6d0-d16cfd19fb16","system_id":"levelo_inurba_marseille","lat":43.27814,"lon":5.40716,"is_reserved":false,"is_disabled":false,"rental_uris":{"android":"levelo://app?vid=518eae26-0512-481d-a6d0-d16cfd19fb16","ios":"levelo://app?vid=518eae26-0512-481d-a6d0-d16cfd19fb16"},"vehicle_type_id":"4","last_reported":1729008661,"current_range_meters":12000,"station_id":"ce4bhnh2rcd13ifvqgtg","pricing_plan_id":"cebpf4jnsgd1na2vs0mg"},{"bike_id":"b3703aea-fc93-4bee-81e1-e90ce9fdb056","system_id":"levelo_inurba_marseille","lat":43.28117,"lon":5.42255,"is_reserved":false,"is_disabled":false,"rental_uris":{"android":"levelo://app?vid=b3703aea-fc93-4bee-81e1-e90ce9fdb056","ios":"levelo://app?vid=b3703aea-fc93-4bee-81e1-e90ce9fdb056"},"vehicle_type_id":"4","last_reported":1729008661,"current_range_meters":28400,"station_id":"ce4bhnh2rcd13ifvqgug","pricing_plan_id":"cebpf4jnsgd1na2vs0mg"},{"bike_id":"ba9d2cf5-c040-4eb0-9d36-0ddc7e62d3d9","system_id":"levelo_inurba_marseille","lat":43.28002,"lon":5.40013,"is_reserved":false,"is_disabled":false,"rental_uris":{"android":"levelo://app?vid=ba9d2cf5-c040-4eb0-9d36-0ddc7e62d3d9","ios":"levelo://app?vid=ba9d2cf5-c040-4eb0-9d36-0ddc7e62d3d9"},"vehicle_type_id":"4","last_reported":1729008661,"current_range_meters":15200,"station_id":"ce4bho92rcd13ifvqh4g","pricing_plan_id":"cebpf4jnsgd1na2vs0mg"},{"bike_id":"292b9425-1372-40d4-bf0a-fe57aa779a41","system_id":"levelo_inurba_marseille","lat":43.23063,"lon":5.35495,"is_reserved":false,"is_disabled":false,"rental_uris":{"android":"levelo://app?vid=292b9425-1372-40d4-bf0a-fe57aa779a41","ios":"levelo://app?vid=292b9425-1372-40d4-bf0a-fe57aa779a41"},"vehicle_type_id":"4","last_reported":1729008661,"current_range_meters":32800,"station_id":"cpo3342slgdg3j2ifvpg","pricing_plan_id":"cebpf4jnsgd1na2vs0mg"},{"bike_id":"a17a7da4-4ab2-482d-93e2-a3284b84672b","system_id":"levelo_inurba_marseille","lat":43.24163,"lon":5.3639,"is_reserved":false,"is_disabled":false,"rental_uris":{"android":"levelo://app?vid=a17a7da4-4ab2-482d-93e2-a3284b84672b","ios":"levelo://app?vid=a17a7da4-4ab2-482d-93e2-a3284b84672b"},"vehicle_type_id":"4","last_reported":1729008661,"current_range_meters":37600,"station_id":"cpo36qri1sfpv3e86is0","pricing_plan_id":"cebpf4jnsgd1na2vs0mg"},{"bike_id":"d5bf46b2-4de6-4807-987c-333f67dd07e1","system_id":"levelo_inurba_marseille","lat":43.32659,"lon":5.40995,"is_reserved":false,"is_disabled":false,"rental_uris":{"android":"levelo://app?vid=d5bf46b2-4de6-4807-987c-333f67dd07e1","ios":"levelo://app?vid=d5bf46b2-4de6-4807-987c-333f67dd07e1"},"vehicle_type_id":"4","last_reported":1729008661,"current_range_meters":28000,"station_id":"ce4bhpp2rcd13ifvqhgg","pricing_plan_id":"cebpf4jnsgd1na2vs0mg"},{"bike_id":"29afb763-a193-4256-a4be-26ad3e26cecf","system_id":"levelo_inurba_marseille","lat":43.286975,"lon":5.39984,"is_reserved":false,"is_disabled":false,"rental_uris":{"android":"levelo://app?vid=29afb763-a193-4256-a4be-26ad3e26cecf","ios":"levelo://app?vid=29afb763-a193-4256-a4be-26ad3e26cecf"},"vehicle_type_id":"4","last_reported":1729008661,"current_range_meters":33600,"station_id":"ce4bho92rcd13ifvqh3g","pricing_plan_id":"cebpf4jnsgd1na2vs0mg"},{"bike_id":"cc3bdc0e-e04f-491e-b471-eedf132ca4bb","system_id":"levelo_inurba_marseille","lat":43.24809,"lon":5.37462,"is_reserved":false,"is_disabled":false,"rental_uris":{"android":"levelo://app?vid=cc3bdc0e-e04f-491e-b471-eedf132ca4bb","ios":"levelo://app?vid=cc3bdc0e-e04f-491e-b471-eedf132ca4bb"},"vehicle_type_id":"4","last_reported":1729008661,"current_range_meters":20400,"station_id":"ce4bhgh2rcd13ifvqfb0","pricing_plan_id":"cebpf4jnsgd1na2vs0mg"},{"bike_id":"41b32122-31d6-4d54-a1f9-3fe786ee07d2","system_id":"levelo_inurba_marseille","lat":43.28155,"lon":5.42642,"is_reserved":false,"is_disabled":false,"rental_uris":{"android":"levelo://app?vid=41b32122-31d6-4d54-a1f9-3fe786ee07d2","ios":"levelo://app?vid=41b32122-31d6-4d54-a1f9-3fe786ee07d2"},"vehicle_type_id":"4","last_reported":1729008661,"current_range_meters":20000,"station_id":"ce4bhnh2rcd13ifvqgug","pricing_plan_id":"cebpf4jnsgd1na2vs0mg"},{"bike_id":"6dfc548a-f1d7-4469-af4c-b22067e8702b","system_id":"levelo_inurba_marseille","lat":43.273721,"lon":5.362632,"is_reserved":false,"is_disabled":false,"rental_uris":{"android":"levelo://app?vid=6dfc548a-f1d7-4469-af4c-b22067e8702b","ios":"levelo://app?vid=6dfc548a-f1d7-4469-af4c-b22067e8702b"},"vehicle_type_id":"4","last_reported":1729008661,"current_range_meters":26000,"station_id":"ce4bhbh2rcd13ifvqepg","pricing_plan_id":"cebpf4jnsgd1na2vs0mg"},{"bike_id":"e42a5c5b-19d2-48bc-8dfc-c8514ef28621","system_id":"levelo_inurba_marseille","lat":43.24169,"lon":5.36399,"is_reserved":false,"is_disabled":false,"rental_uris":{"android":"levelo://app?vid=e42a5c5b-19d2-48bc-8dfc-c8514ef28621","ios":"levelo://app?vid=e42a5c5b-19d2-48bc-8dfc-c8514ef28621"},"vehicle_type_id":"4","last_reported":1729008661,"current_range_meters":25200,"station_id":"cpo36qri1sfpv3e86is0","pricing_plan_id":"cebpf4jnsgd1na2vs0mg"},{"bike_id":"5023dace-6afb-4d71-ad8b-14698f23e18f","system_id":"levelo_inurba_marseille","lat":43.27424,"lon":5.39419,"is_reserved":false,"is_disabled":false,"rental_uris":{"android":"levelo://app?vid=5023dace-6afb-4d71-ad8b-14698f23e18f","ios":"levelo://app?vid=5023dace-6afb-4d71-ad8b-14698f23e18f"},"vehicle_type_id":"4","last_reported":1729008661,"current_range_meters":32800,"station_id":"ce4bhdp2rcd13ifvqf20","pricing_plan_id":"cebpf4jnsgd1na2vs0mg"},{"bike_id":"8c743dfd-4d21-459e-bd89-3c0bf685bc88","system_id":"levelo_inurba_marseille","lat":43.25502,"lon":5.37653,"is_reserved":false,"is_disabled":false,"rental_uris":{"android":"levelo://app?vid=8c743dfd-4d21-459e-bd89-3c0bf685bc88","ios":"levelo://app?vid=8c743dfd-4d21-459e-bd89-3c0bf685bc88"},"vehicle_type_id":"4","last_reported":1729008661,"current_range_meters":8800,"station_id":"ce4bhh12rcd13ifvqff0","pricing_plan_id":"cebpf4jnsgd1na2vs0mg"},{"bike_id":"d06f24f3-1961-4c39-8b26-c72733863fe9","system_id":"levelo_inurba_marseille","lat":43.33781,"lon":5.37443,"is_reserved":false,"is_disabled":false,"rental_uris":{"android":"levelo://app?vid=d06f24f3-1961-4c39-8b26-c72733863fe9","ios":"levelo://app?vid=d06f24f3-1961-4c39-8b26-c72733863fe9"},"vehicle_type_id":"4","last_reported":1729008661,"current_range_meters":24000,"station_id":"","pricing_plan_id":"cebpf4jnsgd1na2vs0mg"},{"bike_id":"440d1160-e0c7-4a4e-bea7-c5d290f2cd3e","system_id":"levelo_inurba_marseille","lat":43.31715,"lon":5.37758,"is_reserved":false,"is_disabled":false,"rental_uris":{"android":"levelo://app?vid=440d1160-e0c7-4a4e-bea7-c5d290f2cd3e","ios":"levelo://app?vid=440d1160-e0c7-4a4e-bea7-c5d290f2cd3e"},"vehicle_type_id":"4","last_reported":1729008661,"current_range_meters":27600,"station_id":"ce4bgth2rcd13ifvqch0","pricing_plan_id":"cebpf4jnsgd1na2vs0mg"},{"bike_id":"ae29a4d3-43f1-4cc7-a9f3-c165558ad83a","system_id":"levelo_inurba_marseille","lat":43.27377,"lon":5.36251,"is_reserved":false,"is_disabled":false,"rental_uris":{"android":"levelo://app?vid=ae29a4d3-43f1-4cc7-a9f3-c165558ad83a","ios":"levelo://app?vid=ae29a4d3-43f1-4cc7-a9f3-c165558ad83a"},"vehicle_type_id":"4","last_reported":1729008661,"current_range_meters":19200,"station_id":"ce4bhbh2rcd13ifvqeo0","pricing_plan_id":"cebpf4jnsgd1na2vs0mg"},{"bike_id":"b3540a48-b930-4f1f-8764-644ac9839ef9","system_id":"levelo_inurba_marseille","lat":43.27618,"lon":5.3612,"is_reserved":false,"is_disabled":false,"rental_uris":{"android":"levelo://app?vid=b3540a48-b930-4f1f-8764-644ac9839ef9","ios":"levelo://app?vid=b3540a48-b930-4f1f-8764-644ac9839ef9"},"vehicle_type_id":"4","last_reported":1729008661,"current_range_meters":38800,"station_id":"ce4bgj92rcd13ifvqbe0","pricing_plan_id":"cebpf4jnsgd1na2vs0mg"},{"bike_id":"afef9986-b3c5-416a-977b-5d0d8301a574","system_id":"levelo_inurba_marseille","lat":43.28416,"lon":5.37512,"is_reserved":false,"is_disabled":false,"rental_uris":{"android":"levelo://app?vid=afef9986-b3c5-416a-977b-5d0d8301a574","ios":"levelo://app?vid=afef9986-b3c5-416a-977b-5d0d8301a574"},"vehicle_type_id":"4","last_reported":1729008661,"current_range_meters":8800,"station_id":"ce4bh412rcd13ifvqds0","pricing_plan_id":"cebpf4jnsgd1na2vs0mg"},{"bike_id":"d41309ab-1a1f-4395-acaa-455483c3f8e1","system_id":"levelo_inurba_marseille","lat":43.23195,"lon":5.3555,"is_reserved":false,"is_disabled":false,"rental_uris":{"android":"levelo://app?vid=d41309ab-1a1f-4395-acaa-455483c3f8e1","ios":"levelo://app?vid=d41309ab-1a1f-4395-acaa-455483c3f8e1"},"vehicle_type_id":"4","last_reported":1729008661,"current_range_meters":32000,"station_id":"ce4bhu92rcd13ifvqi70","pricing_plan_id":"cebpf4jnsgd1na2vs0mg"},{"bike_id":"ee770770-e780-43bb-8257-08fed5dd38b0","system_id":"levelo_inurba_marseille","lat":43.29584,"lon":5.37502,"is_reserved":false,"is_disabled":false,"rental_uris":{"android":"levelo://app?vid=ee770770-e780-43bb-8257-08fed5dd38b0","ios":"levelo://app?vid=ee770770-e780-43bb-8257-08fed5dd38b0"},"vehicle_type_id":"4","last_reported":1729008661,"current_range_meters":36400,"station_id":"ce4bgh92rcd13ifvqb50","pricing_plan_id":"cebpf4jnsgd1na2vs0mg"},{"bike_id":"6836dd33-5b8b-48d4-bbb0-1cc71c9e5e6e","system_id":"levelo_inurba_marseille","lat":43.29527,"lon":5.39035,"is_reserved":false,"is_disabled":false,"rental_uris":{"android":"levelo://app?vid=6836dd33-5b8b-48d4-bbb0-1cc71c9e5e6e","ios":"levelo://app?vid=6836dd33-5b8b-48d4-bbb0-1cc71c9e5e6e"},"vehicle_type_id":"4","last_reported":1729008661,"current_range_meters":12000,"station_id":"ce4bh3p2rcd13ifvqdp0","pricing_plan_id":"cebpf4jnsgd1na2vs0mg"},{"bike_id":"9d1e6ffb-1f03-4d2b-9f1f-a1f0d4d9ccc7","system_id":"levelo_inurba_marseille","lat":43.28619,"lon":5.35105,"is_reserved":false,"is_disabled":false,"rental_uris":{"android":"levelo://app?vid=9d1e6ffb-1f03-4d2b-9f1f-a1f0d4d9ccc7","ios":"levelo://app?vid=9d1e6ffb-1f03-4d2b-9f1f-a1f0d4d9ccc7"},"vehicle_type_id":"4","last_reported":1729008661,"current_range_meters":6400,"station_id":"ce4bhch2rcd13ifvqeug","pricing_plan_id":"cebpf4jnsgd1na2vs0mg"},{"bike_id":"f83dcdb9-999b-4694-b01b-026d4a069601","system_id":"levelo_inurba_marseille","lat":43.33028,"lon":5.39045,"is_reserved":false,"is_disabled":false,"rental_uris":{"android":"levelo://app?vid=f83dcdb9-999b-4694-b01b-026d4a069601","ios":"levelo://app?vid=f83dcdb9-999b-4694-b01b-026d4a069601"},"vehicle_type_id":"4","last_reported":1729008661,"current_range_meters":16800,"station_id":"ce4bhr92rcd13ifvqhrg","pricing_plan_id":"cebpf4jnsgd1na2vs0mg"},{"bike_id":"15554aa1-1808-49ff-aca0-95ae34d39d3e","system_id":"levelo_inurba_marseille","lat":43.29032,"lon":5.38649,"is_reserved":false,"is_disabled":false,"rental_uris":{"android":"levelo://app?vid=15554aa1-1808-49ff-aca0-95ae34d39d3e","ios":"levelo://app?vid=15554aa1-1808-49ff-aca0-95ae34d39d3e"},"vehicle_type_id":"4","last_reported":1729008661,"current_range_meters":27600,"station_id":"ce4bh4p2rcd13ifvqe0g","pricing_plan_id":"cebpf4jnsgd1na2vs0mg"},{"bike_id":"2a7b2b19-9295-4550-9274-8112dcba3879","system_id":"levelo_inurba_marseille","lat":43.29933,"lon":5.36553,"is_reserved":false,"is_disabled":false,"rental_uris":{"android":"levelo://app?vid=2a7b2b19-9295-4550-9274-8112dcba3879","ios":"levelo://app?vid=2a7b2b19-9295-4550-9274-8112dcba3879"},"vehicle_type_id":"4","last_reported":1729008661,"current_range_meters":39200,"station_id":"ce4bgm92rcd13ifvqbr0","pricing_plan_id":"cebpf4jnsgd1na2vs0mg"},{"bike_id":"e21ca78b-5816-4bc8-acaf-5dd1789439b5","system_id":"levelo_inurba_marseille","lat":43.27621,"lon":5.36103,"is_reserved":false,"is_disabled":false,"rental_uris":{"android":"levelo://app?vid=e21ca78b-5816-4bc8-acaf-5dd1789439b5","ios":"levelo://app?vid=e21ca78b-5816-4bc8-acaf-5dd1789439b5"},"vehicle_type_id":"4","last_reported":1729008661,"current_range_meters":10800,"station_id":"ce4bgj92rcd13ifvqbe0","pricing_plan_id":"cebpf4jnsgd1na2vs0mg"},{"bike_id":"1af2813b-98a0-4b62-aaf8-89652b30f639","system_id":"levelo_inurba_marseille","lat":43.22933,"lon":5.35381,"is_reserved":false,"is_disabled":false,"rental_uris":{"android":"levelo://app?vid=1af2813b-98a0-4b62-aaf8-89652b30f639","ios":"levelo://app?vid=1af2813b-98a0-4b62-aaf8-89652b30f639"},"vehicle_type_id":"4","last_reported":1729008661,"current_range_meters":29600,"station_id":"cpo3532slgdg3j2ikp40","pricing_plan_id":"cebpf4jnsgd1na2vs0mg"},{"bike_id":"bc0699b1-aa0e-4f14-a860-71b1d94b792f","system_id":"levelo_inurba_marseille","lat":43.31003,"lon":5.40176,"is_reserved":false,"is_disabled":false,"rental_uris":{"android":"levelo://app?vid=bc0699b1-aa0e-4f14-a860-71b1d94b792f","ios":"levelo://app?vid=bc0699b1-aa0e-4f14-a860-71b1d94b792f"},"vehicle_type_id":"4","last_reported":1729008661,"current_range_meters":16400,"station_id":"ce4bho92rcd13ifvqh3g","pricing_plan_id":"cebpf4jnsgd1na2vs0mg"},{"bike_id":"d3274309-34a5-40b8-98e1-12e49045599c","system_id":"levelo_inurba_marseille","lat":43.26944,"lon":5.40248,"is_reserved":false,"is_disabled":false,"rental_uris":{"android":"levelo://app?vid=d3274309-34a5-40b8-98e1-12e49045599c","ios":"levelo://app?vid=d3274309-34a5-40b8-98e1-12e49045599c"},"vehicle_type_id":"4","last_reported":1729008661,"current_range_meters":35600,"station_id":"cjm6bp8fraef2m0cb0m0","pricing_plan_id":"cebpf4jnsgd1na2vs0mg"},{"bike_id":"f93454e1-a669-4c63-a4ca-b572042c7971","system_id":"levelo_inurba_marseille","lat":43.23192,"lon":5.35558,"is_reserved":false,"is_disabled":false,"rental_uris":{"android":"levelo://app?vid=f93454e1-a669-4c63-a4ca-b572042c7971","ios":"levelo://app?vid=f93454e1-a669-4c63-a4ca-b572042c7971"},"vehicle_type_id":"4","last_reported":1729008661,"current_range_meters":24800,"station_id":"ce4bhu92rcd13ifvqi70","pricing_plan_id":"cebpf4jnsgd1na2vs0mg"},{"bike_id":"2e302c37-c395-4c9d-86c7-5f785cbd6d3e","system_id":"levelo_inurba_marseille","lat":43.28404,"lon":5.37534,"is_reserved":false,"is_disabled":false,"rental_uris":{"android":"levelo://app?vid=2e302c37-c395-4c9d-86c7-5f785cbd6d3e","ios":"levelo://app?vid=2e302c37-c395-4c9d-86c7-5f785cbd6d3e"},"vehicle_type_id":"4","last_reported":1729008661,"current_range_meters":10000,"station_id":"ce4bh412rcd13ifvqds0","pricing_plan_id":"cebpf4jnsgd1na2vs0mg"},{"bike_id":"69fafa31-45eb-4bca-b546-521d013e0d22","system_id":"levelo_inurba_marseille","lat":43.301361,"lon":5.387768,"is_reserved":false,"is_disabled":false,"rental_uris":{"android":"levelo://app?vid=69fafa31-45eb-4bca-b546-521d013e0d22","ios":"levelo://app?vid=69fafa31-45eb-4bca-b546-521d013e0d22"},"vehicle_type_id":"4","last_reported":1729008661,"current_range_meters":6000,"station_id":"ce4bghh2rcd13ifvqb60","pricing_plan_id":"cebpf4jnsgd1na2vs0mg"},{"bike_id":"3da3802f-84a7-469b-9e2e-87f188851b35","system_id":"levelo_inurba_marseille","lat":43.246261,"lon":5.388527,"is_reserved":false,"is_disabled":false,"rental_uris":{"android":"levelo://app?vid=3da3802f-84a7-469b-9e2e-87f188851b35","ios":"levelo://app?vid=3da3802f-84a7-469b-9e2e-87f188851b35"},"vehicle_type_id":"4","last_reported":1729008661,"current_range_meters":18000,"station_id":"ce4bhg12rcd13ifvqf60","pricing_plan_id":"cebpf4jnsgd1na2vs0mg"},{"bike_id":"7286acb0-9127-4b43-b8cd-dc188a425d03","system_id":"levelo_inurba_marseille","lat":43.262569,"lon":5.374683,"is_reserved":false,"is_disabled":false,"rental_uris":{"android":"levelo://app?vid=7286acb0-9127-4b43-b8cd-dc188a425d03","ios":"levelo://app?vid=7286acb0-9127-4b43-b8cd-dc188a425d03"},"vehicle_type_id":"4","last_reported":1729008661,"current_range_meters":22000,"station_id":"ce4bhgp2rcd13ifvqfc0","pricing_plan_id":"cebpf4jnsgd1na2vs0mg"},{"bike_id":"ce104e7c-791c-4050-aae9-94b7ca34bfa7","system_id":"levelo_inurba_marseille","lat":43.28266,"lon":5.3506,"is_reserved":false,"is_disabled":false,"rental_uris":{"android":"levelo://app?vid=ce104e7c-791c-4050-aae9-94b7ca34bfa7","ios":"levelo://app?vid=ce104e7c-791c-4050-aae9-94b7ca34bfa7"},"vehicle_type_id":"4","last_reported":1729008661,"current_range_meters":4000,"station_id":"ce4bhbp2rcd13ifvqerg","pricing_plan_id":"cebpf4jnsgd1na2vs0mg"},{"bike_id":"167a3dcd-afcd-457e-8998-67360ace43c0","system_id":"levelo_inurba_marseille","lat":43.3375,"lon":5.37436,"is_reserved":false,"is_disabled":false,"rental_uris":{"android":"levelo://app?vid=167a3dcd-afcd-457e-8998-67360ace43c0","ios":"levelo://app?vid=167a3dcd-afcd-457e-8998-67360ace43c0"},"vehicle_type_id":"4","last_reported":1729008661,"current_range_meters":33600,"station_id":"","pricing_plan_id":"cebpf4jnsgd1na2vs0mg"},{"bike_id":"34336996-4f06-4c73-b08b-380d4d919926","system_id":"levelo_inurba_marseille","lat":43.28262,"lon":5.35072,"is_reserved":false,"is_disabled":false,"rental_uris":{"android":"levelo://app?vid=34336996-4f06-4c73-b08b-380d4d919926","ios":"levelo://app?vid=34336996-4f06-4c73-b08b-380d4d919926"},"vehicle_type_id":"4","last_reported":1729008661,"current_range_meters":18800,"station_id":"ce4bhbp2rcd13ifvqerg","pricing_plan_id":"cebpf4jnsgd1na2vs0mg"},{"bike_id":"6c15eadd-31b5-4b6b-963b-02668f9518f2","system_id":"levelo_inurba_marseille","lat":43.28044,"lon":5.36957,"is_reserved":false,"is_disabled":false,"rental_uris":{"android":"levelo://app?vid=6c15eadd-31b5-4b6b-963b-02668f9518f2","ios":"levelo://app?vid=6c15eadd-31b5-4b6b-963b-02668f9518f2"},"vehicle_type_id":"4","last_reported":1729008661,"current_range_meters":23200,"station_id":"ce4bha12rcd13ifvqef0","pricing_plan_id":"cebpf4jnsgd1na2vs0mg"},{"bike_id":"ce1c086a-1cb5-49f0-a4d8-f1c7351c516d","system_id":"levelo_inurba_marseille","lat":43.29606,"lon":5.37007,"is_reserved":false,"is_disabled":false,"rental_uris":{"android":"levelo://app?vid=ce1c086a-1cb5-49f0-a4d8-f1c7351c516d","ios":"levelo://app?vid=ce1c086a-1cb5-49f0-a4d8-f1c7351c516d"},"vehicle_type_id":"4","last_reported":1729008661,"current_range_meters":25200,"station_id":"ce4bgip2rcd13ifvqbb0","pricing_plan_id":"cebpf4jnsgd1na2vs0mg"},{"bike_id":"2ae7cb6e-e949-4f32-b410-0e62af4ecc02","system_id":"levelo_inurba_marseille","lat":43.23184,"lon":5.39986,"is_reserved":false,"is_disabled":false,"rental_uris":{"android":"levelo://app?vid=2ae7cb6e-e949-4f32-b410-0e62af4ecc02","ios":"levelo://app?vid=2ae7cb6e-e949-4f32-b410-0e62af4ecc02"},"vehicle_type_id":"4","last_reported":1729008661,"current_range_meters":16000,"station_id":"ce4bhn12rcd13ifvqgqg","pricing_plan_id":"cebpf4jnsgd1na2vs0mg"},{"bike_id":"594a4989-b3d5-47fd-971b-7d192eaba61a","system_id":"levelo_inurba_marseille","lat":43.30266,"lon":5.39618,"is_reserved":false,"is_disabled":false,"rental_uris":{"android":"levelo://app?vid=594a4989-b3d5-47fd-971b-7d192eaba61a","ios":"levelo://app?vid=594a4989-b3d5-47fd-971b-7d192eaba61a"},"vehicle_type_id":"4","last_reported":1729008661,"current_range_meters":35600,"station_id":"ce4bh0p2rcd13ifvqd70","pricing_plan_id":"cebpf4jnsgd1na2vs0mg"},{"bike_id":"1b87c42d-7c50-4b92-8a66-53344aea6fcd","system_id":"levelo_inurba_marseille","lat":43.29896,"lon":5.4367,"is_reserved":false,"is_disabled":false,"rental_uris":{"android":"levelo://app?vid=1b87c42d-7c50-4b92-8a66-53344aea6fcd","ios":"levelo://app?vid=1b87c42d-7c50-4b92-8a66-53344aea6fcd"},"vehicle_type_id":"4","last_reported":1729008661,"current_range_meters":27200,"station_id":"ce4bhpp2rcd13ifvqhfg","pricing_plan_id":"cebpf4jnsgd1na2vs0mg"},{"bike_id":"879b1a98-eda8-4bb4-8af2-efd640cfd21f","system_id":"levelo_inurba_marseille","lat":43.26215,"lon":5.37442,"is_reserved":false,"is_disabled":false,"rental_uris":{"android":"levelo://app?vid=879b1a98-eda8-4bb4-8af2-efd640cfd21f","ios":"levelo://app?vid=879b1a98-eda8-4bb4-8af2-efd640cfd21f"},"vehicle_type_id":"4","last_reported":1729008661,"current_range_meters":19600,"station_id":"ce4bhgp2rcd13ifvqfc0","pricing_plan_id":"cebpf4jnsgd1na2vs0mg"},{"bike_id":"151d66a8-e88e-4e0e-8a5c-60bde24a82c3","system_id":"levelo_inurba_marseille","lat":43.29913,"lon":5.3815,"is_reserved":false,"is_disabled":false,"rental_uris":{"android":"levelo://app?vid=151d66a8-e88e-4e0e-8a5c-60bde24a82c3","ios":"levelo://app?vid=151d66a8-e88e-4e0e-8a5c-60bde24a82c3"},"vehicle_type_id":"4","last_reported":1729008661,"current_range_meters":800,"station_id":"ce4bgj12rcd13ifvqbc0","pricing_plan_id":"cebpf4jnsgd1na2vs0mg"},{"bike_id":"176c51f8-dbe6-4a14-9671-48f1da4ce89a","system_id":"levelo_inurba_marseille","lat":43.2803,"lon":5.36952,"is_reserved":false,"is_disabled":false,"rental_uris":{"android":"levelo://app?vid=176c51f8-dbe6-4a14-9671-48f1da4ce89a","ios":"levelo://app?vid=176c51f8-dbe6-4a14-9671-48f1da4ce89a"},"vehicle_type_id":"4","last_reported":1729008661,"current_range_meters":7200,"station_id":"ce4bha12rcd13ifvqef0","pricing_plan_id":"cebpf4jnsgd1na2vs0mg"},{"bike_id":"a58c3542-f6d0-4988-8088-2dce3882d18f","system_id":"levelo_inurba_marseille","lat":43.2942,"lon":5.38607,"is_reserved":false,"is_disabled":false,"rental_uris":{"android":"levelo://app?vid=a58c3542-f6d0-4988-8088-2dce3882d18f","ios":"levelo://app?vid=a58c3542-f6d0-4988-8088-2dce3882d18f"},"vehicle_type_id":"4","last_reported":1729008661,"current_range_meters":9200,"station_id":"ce4bh2h2rcd13ifvqdh0","pricing_plan_id":"cebpf4jnsgd1na2vs0mg"},{"bike_id":"2763180d-dd30-4753-a655-60be1ec63f6a","system_id":"levelo_inurba_marseille","lat":43.27289,"lon":5.38552,"is_reserved":false,"is_disabled":false,"rental_uris":{"android":"levelo://app?vid=2763180d-dd30-4753-a655-60be1ec63f6a","ios":"levelo://app?vid=2763180d-dd30-4753-a655-60be1ec63f6a"},"vehicle_type_id":"4","last_reported":1729008661,"current_range_meters":1200,"station_id":"ce4bhh92rcd13ifvqfi0","pricing_plan_id":"cebpf4jnsgd1na2vs0mg"},{"bike_id":"fe25eab3-4d3a-4075-917e-dbebefad1b0b","system_id":"levelo_inurba_marseille","lat":43.27059,"lon":5.40263,"is_reserved":false,"is_disabled":false,"rental_uris":{"android":"levelo://app?vid=fe25eab3-4d3a-4075-917e-dbebefad1b0b","ios":"levelo://app?vid=fe25eab3-4d3a-4075-917e-dbebefad1b0b"},"vehicle_type_id":"4","last_reported":1729008661,"current_range_meters":16800,"station_id":"ce4bhk92rcd13ifvqgc0","pricing_plan_id":"cebpf4jnsgd1na2vs0mg"},{"bike_id":"a492bc55-6153-4729-bbde-467d255a0424","system_id":"levelo_inurba_marseille","lat":43.29976,"lon":5.37182,"is_reserved":false,"is_disabled":false,"rental_uris":{"android":"levelo://app?vid=a492bc55-6153-4729-bbde-467d255a0424","ios":"levelo://app?vid=a492bc55-6153-4729-bbde-467d255a0424"},"vehicle_type_id":"4","last_reported":1729008661,"current_range_meters":18000,"station_id":"ce4bgr92rcd13ifvqc7g","pricing_plan_id":"cebpf4jnsgd1na2vs0mg"},{"bike_id":"72c256af-41e9-45a3-9544-eefff54ddf59","system_id":"levelo_inurba_marseille","lat":43.229293,"lon":5.353745,"is_reserved":false,"is_disabled":false,"rental_uris":{"android":"levelo://app?vid=72c256af-41e9-45a3-9544-eefff54ddf59","ios":"levelo://app?vid=72c256af-41e9-45a3-9544-eefff54ddf59"},"vehicle_type_id":"4","last_reported":1729008661,"current_range_meters":6800,"station_id":"cpo3532slgdg3j2ikp40","pricing_plan_id":"cebpf4jnsgd1na2vs0mg"},{"bike_id":"9b581333-4916-4841-b9d2-f52965e9f398","system_id":"levelo_inurba_marseille","lat":43.31754,"lon":5.39018,"is_reserved":false,"is_disabled":false,"rental_uris":{"android":"levelo://app?vid=9b581333-4916-4841-b9d2-f52965e9f398","ios":"levelo://app?vid=9b581333-4916-4841-b9d2-f52965e9f398"},"vehicle_type_id":"4","last_reported":1729008661,"current_range_meters":9200,"station_id":"ce4bhqp2rcd13ifvqhng","pricing_plan_id":"cebpf4jnsgd1na2vs0mg"},{"bike_id":"5d5ba97d-e25d-4cab-9ef3-98e1520b8231","system_id":"levelo_inurba_marseille","lat":43.27679,"lon":5.38865,"is_reserved":false,"is_disabled":false,"rental_uris":{"android":"levelo://app?vid=5d5ba97d-e25d-4cab-9ef3-98e1520b8231","ios":"levelo://app?vid=5d5ba97d-e25d-4cab-9ef3-98e1520b8231"},"vehicle_type_id":"4","last_reported":1729008661,"current_range_meters":38800,"station_id":"ce4bhi12rcd13ifvqfo0","pricing_plan_id":"cebpf4jnsgd1na2vs0mg"},{"bike_id":"f269126c-1b0b-4a1a-a1d6-f8c3716f5336","system_id":"levelo_inurba_marseille","lat":43.23197,"lon":5.35554,"is_reserved":false,"is_disabled":false,"rental_uris":{"android":"levelo://app?vid=f269126c-1b0b-4a1a-a1d6-f8c3716f5336","ios":"levelo://app?vid=f269126c-1b0b-4a1a-a1d6-f8c3716f5336"},"vehicle_type_id":"4","last_reported":1729008661,"current_range_meters":32400,"station_id":"ce4bhu92rcd13ifvqi70","pricing_plan_id":"cebpf4jnsgd1na2vs0mg"},{"bike_id":"3064e5e9-de54-44b9-9eb7-6c03ac9cf33b","system_id":"levelo_inurba_marseille","lat":43.33023,"lon":5.39044,"is_reserved":false,"is_disabled":false,"rental_uris":{"android":"levelo://app?vid=3064e5e9-de54-44b9-9eb7-6c03ac9cf33b","ios":"levelo://app?vid=3064e5e9-de54-44b9-9eb7-6c03ac9cf33b"},"vehicle_type_id":"4","last_reported":1729008661,"current_range_meters":8400,"station_id":"ce4bhr92rcd13ifvqhrg","pricing_plan_id":"cebpf4jnsgd1na2vs0mg"},{"bike_id":"3b7f1e04-8f08-4213-9c2b-e46eae69791d","system_id":"levelo_inurba_marseille","lat":43.29262,"lon":5.40921,"is_reserved":false,"is_disabled":false,"rental_uris":{"android":"levelo://app?vid=3b7f1e04-8f08-4213-9c2b-e46eae69791d","ios":"levelo://app?vid=3b7f1e04-8f08-4213-9c2b-e46eae69791d"},"vehicle_type_id":"4","last_reported":1729008661,"current_range_meters":4000,"station_id":"ce4bh192rcd13ifvqdc0","pricing_plan_id":"cebpf4jnsgd1na2vs0mg"},{"bike_id":"b6a13d35-57ac-4d7b-b87a-4e69f460021d","system_id":"levelo_inurba_marseille","lat":43.33723,"lon":5.39181,"is_reserved":false,"is_disabled":false,"rental_uris":{"android":"levelo://app?vid=b6a13d35-57ac-4d7b-b87a-4e69f460021d","ios":"levelo://app?vid=b6a13d35-57ac-4d7b-b87a-4e69f460021d"},"vehicle_type_id":"4","last_reported":1729008661,"current_range_meters":3600,"station_id":"ce4bhr92rcd13ifvqhsg","pricing_plan_id":"cebpf4jnsgd1na2vs0mg"},{"bike_id":"94d48054-be54-488d-a425-2deb433f452c","system_id":"levelo_inurba_marseille","lat":43.29804,"lon":5.36433,"is_reserved":false,"is_disabled":false,"rental_uris":{"android":"levelo://app?vid=94d48054-be54-488d-a425-2deb433f452c","ios":"levelo://app?vid=94d48054-be54-488d-a425-2deb433f452c"},"vehicle_type_id":"4","last_reported":1729008661,"current_range_meters":24400,"station_id":"ce4bgnh2rcd13ifvqc0g","pricing_plan_id":"cebpf4jnsgd1na2vs0mg"},{"bike_id":"33490e50-71b6-4778-95bc-b6d7a82c03a1","system_id":"levelo_inurba_marseille","lat":43.25582,"lon":5.38233,"is_reserved":false,"is_disabled":false,"rental_uris":{"android":"levelo://app?vid=33490e50-71b6-4778-95bc-b6d7a82c03a1","ios":"levelo://app?vid=33490e50-71b6-4778-95bc-b6d7a82c03a1"},"vehicle_type_id":"4","last_reported":1729008661,"current_range_meters":6800,"station_id":"ce4bhih2rcd13ifvqfs0","pricing_plan_id":"cebpf4jnsgd1na2vs0mg"},{"bike_id":"1616c9ce-4d58-4b41-a0ce-686df9d6f698","system_id":"levelo_inurba_marseille","lat":43.27808,"lon":5.4073,"is_reserved":false,"is_disabled":false,"rental_uris":{"android":"levelo://app?vid=1616c9ce-4d58-4b41-a0ce-686df9d6f698","ios":"levelo://app?vid=1616c9ce-4d58-4b41-a0ce-686df9d6f698"},"vehicle_type_id":"4","last_reported":1729008661,"current_range_meters":18800,"station_id":"ce4bhnh2rcd13ifvqgtg","pricing_plan_id":"cebpf4jnsgd1na2vs0mg"},{"bike_id":"78d6b885-9cd8-4088-a602-8472a007ee84","system_id":"levelo_inurba_marseille","lat":43.28616,"lon":5.35105,"is_reserved":false,"is_disabled":false,"rental_uris":{"android":"levelo://app?vid=78d6b885-9cd8-4088-a602-8472a007ee84","ios":"levelo://app?vid=78d6b885-9cd8-4088-a602-8472a007ee84"},"vehicle_type_id":"4","last_reported":1729008661,"current_range_meters":18000,"station_id":"ce4bhch2rcd13ifvqeug","pricing_plan_id":"cebpf4jnsgd1na2vs0mg"},{"bike_id":"7835f341-e026-41ab-a5ed-aad28289dd76","system_id":"levelo_inurba_marseille","lat":43.305725,"lon":5.393483,"is_reserved":false,"is_disabled":false,"rental_uris":{"android":"levelo://app?vid=7835f341-e026-41ab-a5ed-aad28289dd76","ios":"levelo://app?vid=7835f341-e026-41ab-a5ed-aad28289dd76"},"vehicle_type_id":"4","last_reported":1729008661,"current_range_meters":36400,"station_id":"ce4bh0p2rcd13ifvqd80","pricing_plan_id":"cebpf4jnsgd1na2vs0mg"},{"bike_id":"0e41df3a-0ace-488c-be65-6a9fd2305448","system_id":"levelo_inurba_marseille","lat":43.33756,"lon":5.37448,"is_reserved":false,"is_disabled":false,"rental_uris":{"android":"levelo://app?vid=0e41df3a-0ace-488c-be65-6a9fd2305448","ios":"levelo://app?vid=0e41df3a-0ace-488c-be65-6a9fd2305448"},"vehicle_type_id":"4","last_reported":1729008661,"current_range_meters":34800,"station_id":"","pricing_plan_id":"cebpf4jnsgd1na2vs0mg"},{"bike_id":"4fe34d41-3a9d-4f9b-b8fe-570c6d05bb1f","system_id":"levelo_inurba_marseille","lat":43.27973,"lon":5.38744,"is_reserved":false,"is_disabled":false,"rental_uris":{"android":"levelo://app?vid=4fe34d41-3a9d-4f9b-b8fe-570c6d05bb1f","ios":"levelo://app?vid=4fe34d41-3a9d-4f9b-b8fe-570c6d05bb1f"},"vehicle_type_id":"4","last_reported":1729008661,"current_range_meters":15200,"station_id":"ce4bhg12rcd13ifvqf80","pricing_plan_id":"cebpf4jnsgd1na2vs0mg"},{"bike_id":"484e278d-b418-499f-8d2b-9f4550d726aa","system_id":"levelo_inurba_marseille","lat":43.28264,"lon":5.35065,"is_reserved":false,"is_disabled":false,"rental_uris":{"android":"levelo://app?vid=484e278d-b418-499f-8d2b-9f4550d726aa","ios":"levelo://app?vid=484e278d-b418-499f-8d2b-9f4550d726aa"},"vehicle_type_id":"4","last_reported":1729008661,"current_range_meters":19200,"station_id":"ce4bhbp2rcd13ifvqerg","pricing_plan_id":"cebpf4jnsgd1na2vs0mg"},{"bike_id":"0ff89df4-48b8-4433-8a22-c35fa20fb217","system_id":"levelo_inurba_marseille","lat":43.27377,"lon":5.36255,"is_reserved":false,"is_disabled":false,"rental_uris":{"android":"levelo://app?vid=0ff89df4-48b8-4433-8a22-c35fa20fb217","ios":"levelo://app?vid=0ff89df4-48b8-4433-8a22-c35fa20fb217"},"vehicle_type_id":"4","last_reported":1729008661,"current_range_meters":25600,"station_id":"ce4bhbh2rcd13ifvqeo0","pricing_plan_id":"cebpf4jnsgd1na2vs0mg"},{"bike_id":"77c410c5-4eee-4ca7-9663-4481e3642002","system_id":"levelo_inurba_marseille","lat":43.27616,"lon":5.36109,"is_reserved":false,"is_disabled":false,"rental_uris":{"android":"levelo://app?vid=77c410c5-4eee-4ca7-9663-4481e3642002","ios":"levelo://app?vid=77c410c5-4eee-4ca7-9663-4481e3642002"},"vehicle_type_id":"4","last_reported":1729008661,"current_range_meters":30000,"station_id":"ce4bgj92rcd13ifvqbe0","pricing_plan_id":"cebpf4jnsgd1na2vs0mg"},{"bike_id":"16536088-98ad-4cd9-bc0e-ef079b4784b5","system_id":"levelo_inurba_marseille","lat":43.28058,"lon":5.40987,"is_reserved":false,"is_disabled":false,"rental_uris":{"android":"levelo://app?vid=16536088-98ad-4cd9-bc0e-ef079b4784b5","ios":"levelo://app?vid=16536088-98ad-4cd9-bc0e-ef079b4784b5"},"vehicle_type_id":"4","last_reported":1729008661,"current_range_meters":20000,"station_id":"","pricing_plan_id":"cebpf4jnsgd1na2vs0mg"},{"bike_id":"1b5795e9-268a-4cac-8032-ec4ad6269f71","system_id":"levelo_inurba_marseille","lat":43.29898,"lon":5.43671,"is_reserved":false,"is_disabled":false,"rental_uris":{"android":"levelo://app?vid=1b5795e9-268a-4cac-8032-ec4ad6269f71","ios":"levelo://app?vid=1b5795e9-268a-4cac-8032-ec4ad6269f71"},"vehicle_type_id":"4","last_reported":1729008661,"current_range_meters":16800,"station_id":"ce4bhpp2rcd13ifvqhfg","pricing_plan_id":"cebpf4jnsgd1na2vs0mg"},{"bike_id":"d58bcc7f-0e4b-4606-a8e8-146e51cab76c","system_id":"levelo_inurba_marseille","lat":43.31532,"lon":5.38024,"is_reserved":false,"is_disabled":false,"rental_uris":{"android":"levelo://app?vid=d58bcc7f-0e4b-4606-a8e8-146e51cab76c","ios":"levelo://app?vid=d58bcc7f-0e4b-4606-a8e8-146e51cab76c"},"vehicle_type_id":"4","last_reported":1729008661,"current_range_meters":32800,"station_id":"ce4bhsp2rcd13ifvqi50","pricing_plan_id":"cebpf4jnsgd1na2vs0mg"},{"bike_id":"6501a2d8-5cbc-4e89-934e-b3df000d258c","system_id":"levelo_inurba_marseille","lat":43.28469,"lon":5.35899,"is_reserved":false,"is_disabled":false,"rental_uris":{"android":"levelo://app?vid=6501a2d8-5cbc-4e89-934e-b3df000d258c","ios":"levelo://app?vid=6501a2d8-5cbc-4e89-934e-b3df000d258c"},"vehicle_type_id":"4","last_reported":1729008661,"current_range_meters":2800,"station_id":"ce4bhah2rcd13ifvqei0","pricing_plan_id":"cebpf4jnsgd1na2vs0mg"},{"bike_id":"e4c17a03-aa61-4587-b697-5ac5038ce9d8","system_id":"levelo_inurba_marseille","lat":43.31531,"lon":5.38023,"is_reserved":false,"is_disabled":false,"rental_uris":{"android":"levelo://app?vid=e4c17a03-aa61-4587-b697-5ac5038ce9d8","ios":"levelo://app?vid=e4c17a03-aa61-4587-b697-5ac5038ce9d8"},"vehicle_type_id":"4","last_reported":1729008661,"current_range_meters":9200,"station_id":"ce4bhsp2rcd13ifvqi50","pricing_plan_id":"cebpf4jnsgd1na2vs0mg"},{"bike_id":"a747b1c9-7d15-42b4-afab-3a41ec55256d","system_id":"levelo_inurba_marseille","lat":43.31709,"lon":5.3776,"is_reserved":false,"is_disabled":false,"rental_uris":{"android":"levelo://app?vid=a747b1c9-7d15-42b4-afab-3a41ec55256d","ios":"levelo://app?vid=a747b1c9-7d15-42b4-afab-3a41ec55256d"},"vehicle_type_id":"4","last_reported":1729008661,"current_range_meters":26800,"station_id":"ce4bgth2rcd13ifvqch0","pricing_plan_id":"cebpf4jnsgd1na2vs0mg"},{"bike_id":"ff27f72e-3e29-442e-8445-9cc2fde17b56","system_id":"levelo_inurba_marseille","lat":43.26212,"lon":5.37439,"is_reserved":false,"is_disabled":false,"rental_uris":{"android":"levelo://app?vid=ff27f72e-3e29-442e-8445-9cc2fde17b56","ios":"levelo://app?vid=ff27f72e-3e29-442e-8445-9cc2fde17b56"},"vehicle_type_id":"4","last_reported":1729008661,"current_range_meters":35200,"station_id":"ce4bhgp2rcd13ifvqfc0","pricing_plan_id":"cebpf4jnsgd1na2vs0mg"},{"bike_id":"a1e0278e-920e-4eea-a381-891331e8e403","system_id":"levelo_inurba_marseille","lat":43.232012,"lon":5.355471,"is_reserved":false,"is_disabled":false,"rental_uris":{"android":"levelo://app?vid=a1e0278e-920e-4eea-a381-891331e8e403","ios":"levelo://app?vid=a1e0278e-920e-4eea-a381-891331e8e403"},"vehicle_type_id":"4","last_reported":1729008661,"current_range_meters":6000,"station_id":"ce4bhu92rcd13ifvqi70","pricing_plan_id":"cebpf4jnsgd1na2vs0mg"},{"bike_id":"a25f3797-3c3d-48bd-8f3d-b410c751045d","system_id":"levelo_inurba_marseille","lat":43.28004,"lon":5.40024,"is_reserved":false,"is_disabled":false,"rental_uris":{"android":"levelo://app?vid=a25f3797-3c3d-48bd-8f3d-b410c751045d","ios":"levelo://app?vid=a25f3797-3c3d-48bd-8f3d-b410c751045d"},"vehicle_type_id":"4","last_reported":1729008661,"current_range_meters":6400,"station_id":"ce4bho92rcd13ifvqh4g","pricing_plan_id":"cebpf4jnsgd1na2vs0mg"},{"bike_id":"33a20777-3ce6-4fa3-828d-dcdce276699e","system_id":"levelo_inurba_marseille","lat":43.3171,"lon":5.37751,"is_reserved":false,"is_disabled":false,"rental_uris":{"android":"levelo://app?vid=33a20777-3ce6-4fa3-828d-dcdce276699e","ios":"levelo://app?vid=33a20777-3ce6-4fa3-828d-dcdce276699e"},"vehicle_type_id":"4","last_reported":1729008661,"current_range_meters":30000,"station_id":"ce4bgth2rcd13ifvqch0","pricing_plan_id":"cebpf4jnsgd1na2vs0mg"},{"bike_id":"e16f4af6-95db-41cd-b883-8ea6c8b793ff","system_id":"levelo_inurba_marseille","lat":43.28949,"lon":5.366357,"is_reserved":false,"is_disabled":false,"rental_uris":{"android":"levelo://app?vid=e16f4af6-95db-41cd-b883-8ea6c8b793ff","ios":"levelo://app?vid=e16f4af6-95db-41cd-b883-8ea6c8b793ff"},"vehicle_type_id":"4","last_reported":1729008661,"current_range_meters":26000,"station_id":"ce4bhap2rcd13ifvqek0","pricing_plan_id":"cebpf4jnsgd1na2vs0mg"},{"bike_id":"c7626b67-8490-47b2-82ea-49347108e9fb","system_id":"levelo_inurba_marseille","lat":43.29421,"lon":5.3861,"is_reserved":false,"is_disabled":false,"rental_uris":{"android":"levelo://app?vid=c7626b67-8490-47b2-82ea-49347108e9fb","ios":"levelo://app?vid=c7626b67-8490-47b2-82ea-49347108e9fb"},"vehicle_type_id":"4","last_reported":1729008661,"current_range_meters":34800,"station_id":"ce4bh2h2rcd13ifvqdh0","pricing_plan_id":"cebpf4jnsgd1na2vs0mg"},{"bike_id":"063185cb-2a8b-431c-8a94-1c942ac97fe1","system_id":"levelo_inurba_marseille","lat":43.30645,"lon":5.40089,"is_reserved":false,"is_disabled":false,"rental_uris":{"android":"levelo://app?vid=063185cb-2a8b-431c-8a94-1c942ac97fe1","ios":"levelo://app?vid=063185cb-2a8b-431c-8a94-1c942ac97fe1"},"vehicle_type_id":"4","last_reported":1729008661,"current_range_meters":38800,"station_id":"ce4bh112rcd13ifvqda0","pricing_plan_id":"cebpf4jnsgd1na2vs0mg"},{"bike_id":"7f5127e5-231e-4f1d-9716-5eaf651e8d50","system_id":"levelo_inurba_marseille","lat":43.28664,"lon":5.36342,"is_reserved":false,"is_disabled":false,"rental_uris":{"android":"levelo://app?vid=7f5127e5-231e-4f1d-9716-5eaf651e8d50","ios":"levelo://app?vid=7f5127e5-231e-4f1d-9716-5eaf651e8d50"},"vehicle_type_id":"4","last_reported":1729008661,"current_range_meters":36800,"station_id":"ce4bhah2rcd13ifvqej0","pricing_plan_id":"cebpf4jnsgd1na2vs0mg"},{"bike_id":"4eefa1ec-0d89-406a-9ba6-ab04341864b0","system_id":"levelo_inurba_marseille","lat":43.23197,"lon":5.35548,"is_reserved":false,"is_disabled":false,"rental_uris":{"android":"levelo://app?vid=4eefa1ec-0d89-406a-9ba6-ab04341864b0","ios":"levelo://app?vid=4eefa1ec-0d89-406a-9ba6-ab04341864b0"},"vehicle_type_id":"4","last_reported":1729008661,"current_range_meters":38800,"station_id":"ce4bhu92rcd13ifvqi70","pricing_plan_id":"cebpf4jnsgd1na2vs0mg"},{"bike_id":"89e93242-a25c-410f-bd50-0b5709cb6899","system_id":"levelo_inurba_marseille","lat":43.22934,"lon":5.35377,"is_reserved":false,"is_disabled":false,"rental_uris":{"android":"levelo://app?vid=89e93242-a25c-410f-bd50-0b5709cb6899","ios":"levelo://app?vid=89e93242-a25c-410f-bd50-0b5709cb6899"},"vehicle_type_id":"4","last_reported":1729008661,"current_range_meters":13600,"station_id":"cpo3532slgdg3j2ikp40","pricing_plan_id":"cebpf4jnsgd1na2vs0mg"},{"bike_id":"745cb2d4-2172-480a-b892-f555e08e7589","system_id":"levelo_inurba_marseille","lat":43.337444,"lon":5.374475,"is_reserved":false,"is_disabled":false,"rental_uris":{"android":"levelo://app?vid=745cb2d4-2172-480a-b892-f555e08e7589","ios":"levelo://app?vid=745cb2d4-2172-480a-b892-f555e08e7589"},"vehicle_type_id":"4","last_reported":1729008661,"current_range_meters":36000,"station_id":"","pricing_plan_id":"cebpf4jnsgd1na2vs0mg"},{"bike_id":"480dc1cc-a09d-48f7-9603-8d2c01d2793a","system_id":"levelo_inurba_marseille","lat":43.29528,"lon":5.39042,"is_reserved":false,"is_disabled":false,"rental_uris":{"android":"levelo://app?vid=480dc1cc-a09d-48f7-9603-8d2c01d2793a","ios":"levelo://app?vid=480dc1cc-a09d-48f7-9603-8d2c01d2793a"},"vehicle_type_id":"4","last_reported":1729008661,"current_range_meters":38800,"station_id":"ce4bh3p2rcd13ifvqdp0","pricing_plan_id":"cebpf4jnsgd1na2vs0mg"},{"bike_id":"dfbcc212-1e38-4925-95d9-fb83ee7146d8","system_id":"levelo_inurba_marseille","lat":43.29229,"lon":5.36076,"is_reserved":false,"is_disabled":false,"rental_uris":{"android":"levelo://app?vid=dfbcc212-1e38-4925-95d9-fb83ee7146d8","ios":"levelo://app?vid=dfbcc212-1e38-4925-95d9-fb83ee7146d8"},"vehicle_type_id":"4","last_reported":1729008661,"current_range_meters":31200,"station_id":"ce4bhbh2rcd13ifvqeqg","pricing_plan_id":"cebpf4jnsgd1na2vs0mg"},{"bike_id":"10ddb4eb-df58-4950-939e-313048bf08cd","system_id":"levelo_inurba_marseille","lat":43.33025,"lon":5.3904,"is_reserved":false,"is_disabled":false,"rental_uris":{"android":"levelo://app?vid=10ddb4eb-df58-4950-939e-313048bf08cd","ios":"levelo://app?vid=10ddb4eb-df58-4950-939e-313048bf08cd"},"vehicle_type_id":"4","last_reported":1729008661,"current_range_meters":11600,"station_id":"ce4bhr92rcd13ifvqhrg","pricing_plan_id":"cebpf4jnsgd1na2vs0mg"},{"bike_id":"f28783f7-33f8-4b39-b0c9-0d23db560a04","system_id":"levelo_inurba_marseille","lat":43.23192,"lon":5.35552,"is_reserved":false,"is_disabled":false,"rental_uris":{"android":"levelo://app?vid=f28783f7-33f8-4b39-b0c9-0d23db560a04","ios":"levelo://app?vid=f28783f7-33f8-4b39-b0c9-0d23db560a04"},"vehicle_type_id":"4","last_reported":1729008661,"current_range_meters":2000,"station_id":"ce4bhu92rcd13ifvqi70","pricing_plan_id":"cebpf4jnsgd1na2vs0mg"},{"bike_id":"d37d61c2-d268-460f-a2ce-5761277fce8e","system_id":"levelo_inurba_marseille","lat":43.28078,"lon":5.39666,"is_reserved":false,"is_disabled":false,"rental_uris":{"android":"levelo://app?vid=d37d61c2-d268-460f-a2ce-5761277fce8e","ios":"levelo://app?vid=d37d61c2-d268-460f-a2ce-5761277fce8e"},"vehicle_type_id":"4","last_reported":1729008661,"current_range_meters":25600,"station_id":"ce4bho12rcd13ifvqh2g","pricing_plan_id":"cebpf4jnsgd1na2vs0mg"},{"bike_id":"ef673327-8643-4117-93b5-e37ee16a109e","system_id":"levelo_inurba_marseille","lat":43.28854,"lon":5.39314,"is_reserved":false,"is_disabled":false,"rental_uris":{"android":"levelo://app?vid=ef673327-8643-4117-93b5-e37ee16a109e","ios":"levelo://app?vid=ef673327-8643-4117-93b5-e37ee16a109e"},"vehicle_type_id":"4","last_reported":1729008661,"current_range_meters":32800,"station_id":"ce4bh2p2rcd13ifvqdi0","pricing_plan_id":"cebpf4jnsgd1na2vs0mg"},{"bike_id":"0d0dc7ee-9b5e-422d-a45f-e11e9968c32a","system_id":"levelo_inurba_marseille","lat":43.29372,"lon":5.37853,"is_reserved":false,"is_disabled":false,"rental_uris":{"android":"levelo://app?vid=0d0dc7ee-9b5e-422d-a45f-e11e9968c32a","ios":"levelo://app?vid=0d0dc7ee-9b5e-422d-a45f-e11e9968c32a"},"vehicle_type_id":"4","last_reported":1729008661,"current_range_meters":20800,"station_id":"ce4bgjh2rcd13ifvqbf0","pricing_plan_id":"cebpf4jnsgd1na2vs0mg"},{"bike_id":"b55c11aa-db3e-46ed-85a1-2aaf621f0b5a","system_id":"levelo_inurba_marseille","lat":43.29526,"lon":5.38552,"is_reserved":false,"is_disabled":false,"rental_uris":{"android":"levelo://app?vid=b55c11aa-db3e-46ed-85a1-2aaf621f0b5a","ios":"levelo://app?vid=b55c11aa-db3e-46ed-85a1-2aaf621f0b5a"},"vehicle_type_id":"4","last_reported":1729008661,"current_range_meters":33600,"station_id":"ce4bgih2rcd13ifvqba0","pricing_plan_id":"cebpf4jnsgd1na2vs0mg"},{"bike_id":"605fd007-fa4d-44d1-bcb3-9d83e65d0994","system_id":"levelo_inurba_marseille","lat":43.33699,"lon":5.37418,"is_reserved":false,"is_disabled":false,"rental_uris":{"android":"levelo://app?vid=605fd007-fa4d-44d1-bcb3-9d83e65d0994","ios":"levelo://app?vid=605fd007-fa4d-44d1-bcb3-9d83e65d0994"},"vehicle_type_id":"4","last_reported":1729008661,"current_range_meters":12800,"station_id":"","pricing_plan_id":"cebpf4jnsgd1na2vs0mg"},{"bike_id":"6f0d6442-6807-44dd-a668-ab09f2f58ffd","system_id":"levelo_inurba_marseille","lat":43.280304,"lon":5.369367,"is_reserved":false,"is_disabled":false,"rental_uris":{"android":"levelo://app?vid=6f0d6442-6807-44dd-a668-ab09f2f58ffd","ios":"levelo://app?vid=6f0d6442-6807-44dd-a668-ab09f2f58ffd"},"vehicle_type_id":"4","last_reported":1729008661,"current_range_meters":36000,"station_id":"ce4bha12rcd13ifvqef0","pricing_plan_id":"cebpf4jnsgd1na2vs0mg"},{"bike_id":"088e2a60-d4ca-4ea3-8e0e-a502400c3aa3","system_id":"levelo_inurba_marseille","lat":43.26199,"lon":5.37935,"is_reserved":false,"is_disabled":false,"rental_uris":{"android":"levelo://app?vid=088e2a60-d4ca-4ea3-8e0e-a502400c3aa3","ios":"levelo://app?vid=088e2a60-d4ca-4ea3-8e0e-a502400c3aa3"},"vehicle_type_id":"4","last_reported":1729008661,"current_range_meters":6400,"station_id":"ce4bhn12rcd13ifvqgpg","pricing_plan_id":"cebpf4jnsgd1na2vs0mg"},{"bike_id":"84c778f0-98b4-4058-bfb6-85b8c1f04b8e","system_id":"levelo_inurba_marseille","lat":43.33728,"lon":5.39185,"is_reserved":false,"is_disabled":false,"rental_uris":{"android":"levelo://app?vid=84c778f0-98b4-4058-bfb6-85b8c1f04b8e","ios":"levelo://app?vid=84c778f0-98b4-4058-bfb6-85b8c1f04b8e"},"vehicle_type_id":"4","last_reported":1729008661,"current_range_meters":38000,"station_id":"ce4bhr92rcd13ifvqhsg","pricing_plan_id":"cebpf4jnsgd1na2vs0mg"},{"bike_id":"b316a82c-ec6d-429b-b48c-a0f935251d5a","system_id":"levelo_inurba_marseille","lat":43.29222,"lon":5.36061,"is_reserved":false,"is_disabled":false,"rental_uris":{"android":"levelo://app?vid=b316a82c-ec6d-429b-b48c-a0f935251d5a","ios":"levelo://app?vid=b316a82c-ec6d-429b-b48c-a0f935251d5a"},"vehicle_type_id":"4","last_reported":1729008661,"current_range_meters":30800,"station_id":"ce4bhbh2rcd13ifvqeqg","pricing_plan_id":"cebpf4jnsgd1na2vs0mg"},{"bike_id":"beb1fc18-f1fa-438e-ae81-8c849af956af","system_id":"levelo_inurba_marseille","lat":43.23181,"lon":5.39988,"is_reserved":false,"is_disabled":false,"rental_uris":{"android":"levelo://app?vid=beb1fc18-f1fa-438e-ae81-8c849af956af","ios":"levelo://app?vid=beb1fc18-f1fa-438e-ae81-8c849af956af"},"vehicle_type_id":"4","last_reported":1729008661,"current_range_meters":38800,"station_id":"ce4bhn12rcd13ifvqgqg","pricing_plan_id":"cebpf4jnsgd1na2vs0mg"},{"bike_id":"2361e270-07e7-4b73-85b2-8d840bf15d40","system_id":"levelo_inurba_marseille","lat":43.2738,"lon":5.36265,"is_reserved":false,"is_disabled":false,"rental_uris":{"android":"levelo://app?vid=2361e270-07e7-4b73-85b2-8d840bf15d40","ios":"levelo://app?vid=2361e270-07e7-4b73-85b2-8d840bf15d40"},"vehicle_type_id":"4","last_reported":1729008661,"current_range_meters":4400,"station_id":"ce4bhbh2rcd13ifvqeo0","pricing_plan_id":"cebpf4jnsgd1na2vs0mg"},{"bike_id":"8659a73a-5ea6-4f90-a280-e3f6c7312840","system_id":"levelo_inurba_marseille","lat":43.24664,"lon":5.38165,"is_reserved":false,"is_disabled":false,"rental_uris":{"android":"levelo://app?vid=8659a73a-5ea6-4f90-a280-e3f6c7312840","ios":"levelo://app?vid=8659a73a-5ea6-4f90-a280-e3f6c7312840"},"vehicle_type_id":"4","last_reported":1729008661,"current_range_meters":8400,"station_id":"ce4bhih2rcd13ifvqfr0","pricing_plan_id":"cebpf4jnsgd1na2vs0mg"},{"bike_id":"ac2db255-a0f2-4575-84d8-99320368fbae","system_id":"levelo_inurba_marseille","lat":43.23179,"lon":5.39988,"is_reserved":false,"is_disabled":false,"rental_uris":{"android":"levelo://app?vid=ac2db255-a0f2-4575-84d8-99320368fbae","ios":"levelo://app?vid=ac2db255-a0f2-4575-84d8-99320368fbae"},"vehicle_type_id":"4","last_reported":1729008661,"current_range_meters":10800,"station_id":"ce4bhn12rcd13ifvqgqg","pricing_plan_id":"cebpf4jnsgd1na2vs0mg"},{"bike_id":"53ba11d8-551b-4103-bd7e-4093cb5c095f","system_id":"levelo_inurba_marseille","lat":43.306533,"lon":5.400947,"is_reserved":false,"is_disabled":false,"rental_uris":{"android":"levelo://app?vid=53ba11d8-551b-4103-bd7e-4093cb5c095f","ios":"levelo://app?vid=53ba11d8-551b-4103-bd7e-4093cb5c095f"},"vehicle_type_id":"4","last_reported":1729008661,"current_range_meters":38800,"station_id":"ce4bh112rcd13ifvqda0","pricing_plan_id":"cebpf4jnsgd1na2vs0mg"},{"bike_id":"6523d78f-43c4-4cdb-8231-ac0c31b7c2a3","system_id":"levelo_inurba_marseille","lat":43.28665,"lon":5.36343,"is_reserved":false,"is_disabled":false,"rental_uris":{"android":"levelo://app?vid=6523d78f-43c4-4cdb-8231-ac0c31b7c2a3","ios":"levelo://app?vid=6523d78f-43c4-4cdb-8231-ac0c31b7c2a3"},"vehicle_type_id":"4","last_reported":1729008661,"current_range_meters":26000,"station_id":"ce4bhah2rcd13ifvqej0","pricing_plan_id":"cebpf4jnsgd1na2vs0mg"},{"bike_id":"f5290823-459a-49e9-9d17-c46b0bda0299","system_id":"levelo_inurba_marseille","lat":43.26986,"lon":5.39877,"is_reserved":false,"is_disabled":false,"rental_uris":{"android":"levelo://app?vid=f5290823-459a-49e9-9d17-c46b0bda0299","ios":"levelo://app?vid=f5290823-459a-49e9-9d17-c46b0bda0299"},"vehicle_type_id":"4","last_reported":1729008661,"current_range_meters":25600,"station_id":"","pricing_plan_id":"cebpf4jnsgd1na2vs0mg"},{"bike_id":"3d36ab3d-d7fe-43a2-8da3-28afff377a06","system_id":"levelo_inurba_marseille","lat":43.26804,"lon":5.40271,"is_reserved":false,"is_disabled":false,"rental_uris":{"android":"levelo://app?vid=3d36ab3d-d7fe-43a2-8da3-28afff377a06","ios":"levelo://app?vid=3d36ab3d-d7fe-43a2-8da3-28afff377a06"},"vehicle_type_id":"4","last_reported":1729008661,"current_range_meters":36400,"station_id":"ce501612rcd8frsf0b60","pricing_plan_id":"cebpf4jnsgd1na2vs0mg"},{"bike_id":"cc2e9722-738b-45b2-b19c-cd6eb9de8793","system_id":"levelo_inurba_marseille","lat":43.28607,"lon":5.39919,"is_reserved":false,"is_disabled":false,"rental_uris":{"android":"levelo://app?vid=cc2e9722-738b-45b2-b19c-cd6eb9de8793","ios":"levelo://app?vid=cc2e9722-738b-45b2-b19c-cd6eb9de8793"},"vehicle_type_id":"4","last_reported":1729008661,"current_range_meters":20000,"station_id":"","pricing_plan_id":"cebpf4jnsgd1na2vs0mg"},{"bike_id":"9750539e-248e-4af5-afab-5383a762efac","system_id":"levelo_inurba_marseille","lat":43.28267,"lon":5.35061,"is_reserved":false,"is_disabled":false,"rental_uris":{"android":"levelo://app?vid=9750539e-248e-4af5-afab-5383a762efac","ios":"levelo://app?vid=9750539e-248e-4af5-afab-5383a762efac"},"vehicle_type_id":"4","last_reported":1729008661,"current_range_meters":9600,"station_id":"ce4bhbp2rcd13ifvqerg","pricing_plan_id":"cebpf4jnsgd1na2vs0mg"},{"bike_id":"7459e8ac-6fc5-4125-b9ba-15719e78b5d6","system_id":"levelo_inurba_marseille","lat":43.23067,"lon":5.35494,"is_reserved":false,"is_disabled":false,"rental_uris":{"android":"levelo://app?vid=7459e8ac-6fc5-4125-b9ba-15719e78b5d6","ios":"levelo://app?vid=7459e8ac-6fc5-4125-b9ba-15719e78b5d6"},"vehicle_type_id":"4","last_reported":1729008661,"current_range_meters":9200,"station_id":"cpo3342slgdg3j2ifvpg","pricing_plan_id":"cebpf4jnsgd1na2vs0mg"},{"bike_id":"59f7333c-967a-40a8-8aef-5601c7d8997c","system_id":"levelo_inurba_marseille","lat":43.33722,"lon":5.39184,"is_reserved":false,"is_disabled":false,"rental_uris":{"android":"levelo://app?vid=59f7333c-967a-40a8-8aef-5601c7d8997c","ios":"levelo://app?vid=59f7333c-967a-40a8-8aef-5601c7d8997c"},"vehicle_type_id":"4","last_reported":1729008661,"current_range_meters":22000,"station_id":"ce4bhr92rcd13ifvqhsg","pricing_plan_id":"cebpf4jnsgd1na2vs0mg"},{"bike_id":"15d67619-9a54-4f78-a1fb-ed2487dc868e","system_id":"levelo_inurba_marseille","lat":43.27619,"lon":5.36113,"is_reserved":false,"is_disabled":false,"rental_uris":{"android":"levelo://app?vid=15d67619-9a54-4f78-a1fb-ed2487dc868e","ios":"levelo://app?vid=15d67619-9a54-4f78-a1fb-ed2487dc868e"},"vehicle_type_id":"4","last_reported":1729008661,"current_range_meters":28000,"station_id":"ce4bgj92rcd13ifvqbe0","pricing_plan_id":"cebpf4jnsgd1na2vs0mg"},{"bike_id":"760683a6-6445-4716-9a70-57ec660c0df5","system_id":"levelo_inurba_marseille","lat":43.29228,"lon":5.36059,"is_reserved":false,"is_disabled":false,"rental_uris":{"android":"levelo://app?vid=760683a6-6445-4716-9a70-57ec660c0df5","ios":"levelo://app?vid=760683a6-6445-4716-9a70-57ec660c0df5"},"vehicle_type_id":"4","last_reported":1729008661,"current_range_meters":19600,"station_id":"ce4bhbh2rcd13ifvqeqg","pricing_plan_id":"cebpf4jnsgd1na2vs0mg"},{"bike_id":"58414f67-1b30-4e50-9d7f-00734b03468b","system_id":"levelo_inurba_marseille","lat":43.28463,"lon":5.35882,"is_reserved":false,"is_disabled":false,"rental_uris":{"android":"levelo://app?vid=58414f67-1b30-4e50-9d7f-00734b03468b","ios":"levelo://app?vid=58414f67-1b30-4e50-9d7f-00734b03468b"},"vehicle_type_id":"4","last_reported":1729008661,"current_range_meters":23200,"station_id":"ce4bhah2rcd13ifvqei0","pricing_plan_id":"cebpf4jnsgd1na2vs0mg"},{"bike_id":"e4ab1169-6137-47c5-961b-6738e8616bbc","system_id":"levelo_inurba_marseille","lat":43.260559,"lon":5.394003,"is_reserved":false,"is_disabled":false,"rental_uris":{"android":"levelo://app?vid=e4ab1169-6137-47c5-961b-6738e8616bbc","ios":"levelo://app?vid=e4ab1169-6137-47c5-961b-6738e8616bbc"},"vehicle_type_id":"4","last_reported":1729008661,"current_range_meters":10000,"station_id":"ce4bhh92rcd13ifvqfj0","pricing_plan_id":"cebpf4jnsgd1na2vs0mg"},{"bike_id":"7979d7bc-98e0-4e94-b697-31f65cbdc184","system_id":"levelo_inurba_marseille","lat":43.27618,"lon":5.36103,"is_reserved":false,"is_disabled":false,"rental_uris":{"android":"levelo://app?vid=7979d7bc-98e0-4e94-b697-31f65cbdc184","ios":"levelo://app?vid=7979d7bc-98e0-4e94-b697-31f65cbdc184"},"vehicle_type_id":"4","last_reported":1729008661,"current_range_meters":16800,"station_id":"ce4bgj92rcd13ifvqbe0","pricing_plan_id":"cebpf4jnsgd1na2vs0mg"},{"bike_id":"d607b43b-c050-415c-8a27-92cfd18d2aed","system_id":"levelo_inurba_marseille","lat":43.28121,"lon":5.40172,"is_reserved":false,"is_disabled":false,"rental_uris":{"android":"levelo://app?vid=d607b43b-c050-415c-8a27-92cfd18d2aed","ios":"levelo://app?vid=d607b43b-c050-415c-8a27-92cfd18d2aed"},"vehicle_type_id":"4","last_reported":1729008661,"current_range_meters":23200,"station_id":"ce4bho92rcd13ifvqh3g","pricing_plan_id":"cebpf4jnsgd1na2vs0mg"},{"bike_id":"1d4fbbff-fd51-4a81-8785-1418c22d33b0","system_id":"levelo_inurba_marseille","lat":43.24661,"lon":5.38163,"is_reserved":false,"is_disabled":false,"rental_uris":{"android":"levelo://app?vid=1d4fbbff-fd51-4a81-8785-1418c22d33b0","ios":"levelo://app?vid=1d4fbbff-fd51-4a81-8785-1418c22d33b0"},"vehicle_type_id":"4","last_reported":1729008661,"current_range_meters":10000,"station_id":"ce4bhih2rcd13ifvqfr0","pricing_plan_id":"cebpf4jnsgd1na2vs0mg"},{"bike_id":"0985bdc5-efb5-4d94-aee7-1e6f1d744d3f","system_id":"levelo_inurba_marseille","lat":43.29533,"lon":5.38545,"is_reserved":false,"is_disabled":false,"rental_uris":{"android":"levelo://app?vid=0985bdc5-efb5-4d94-aee7-1e6f1d744d3f","ios":"levelo://app?vid=0985bdc5-efb5-4d94-aee7-1e6f1d744d3f"},"vehicle_type_id":"4","last_reported":1729008661,"current_range_meters":8400,"station_id":"ce4bgih2rcd13ifvqba0","pricing_plan_id":"cebpf4jnsgd1na2vs0mg"},{"bike_id":"ece9fed6-3fdb-4bf8-aab0-5d2fb0712f2c","system_id":"levelo_inurba_marseille","lat":43.28249,"lon":5.39477,"is_reserved":false,"is_disabled":false,"rental_uris":{"android":"levelo://app?vid=ece9fed6-3fdb-4bf8-aab0-5d2fb0712f2c","ios":"levelo://app?vid=ece9fed6-3fdb-4bf8-aab0-5d2fb0712f2c"},"vehicle_type_id":"4","last_reported":1729008661,"current_range_meters":20000,"station_id":"ce4bho92rcd13ifvqh4g","pricing_plan_id":"cebpf4jnsgd1na2vs0mg"},{"bike_id":"53668bfa-1432-4813-9073-b5494afe7d51","system_id":"levelo_inurba_marseille","lat":43.33022,"lon":5.39046,"is_reserved":false,"is_disabled":false,"rental_uris":{"android":"levelo://app?vid=53668bfa-1432-4813-9073-b5494afe7d51","ios":"levelo://app?vid=53668bfa-1432-4813-9073-b5494afe7d51"},"vehicle_type_id":"4","last_reported":1729008661,"current_range_meters":38000,"station_id":"ce4bhr92rcd13ifvqhrg","pricing_plan_id":"cebpf4jnsgd1na2vs0mg"},{"bike_id":"39328288-7eb3-446b-90cb-3b4ba64dd7a9","system_id":"levelo_inurba_marseille","lat":43.28277,"lon":5.41184,"is_reserved":false,"is_disabled":false,"rental_uris":{"android":"levelo://app?vid=39328288-7eb3-446b-90cb-3b4ba64dd7a9","ios":"levelo://app?vid=39328288-7eb3-446b-90cb-3b4ba64dd7a9"},"vehicle_type_id":"4","last_reported":1729008661,"current_range_meters":36000,"station_id":"","pricing_plan_id":"cebpf4jnsgd1na2vs0mg"},{"bike_id":"5bf2e3cf-014b-4816-887b-9d8ab1f8503d","system_id":"levelo_inurba_marseille","lat":43.30432,"lon":5.38881,"is_reserved":false,"is_disabled":false,"rental_uris":{"android":"levelo://app?vid=5bf2e3cf-014b-4816-887b-9d8ab1f8503d","ios":"levelo://app?vid=5bf2e3cf-014b-4816-887b-9d8ab1f8503d"},"vehicle_type_id":"4","last_reported":1729008661,"current_range_meters":12400,"station_id":"ce4bgk12rcd13ifvqbi0","pricing_plan_id":"cebpf4jnsgd1na2vs0mg"},{"bike_id":"8cf9107c-c102-4eaf-a634-8bd855ac01b5","system_id":"levelo_inurba_marseille","lat":43.23964,"lon":5.36628,"is_reserved":false,"is_disabled":false,"rental_uris":{"android":"levelo://app?vid=8cf9107c-c102-4eaf-a634-8bd855ac01b5","ios":"levelo://app?vid=8cf9107c-c102-4eaf-a634-8bd855ac01b5"},"vehicle_type_id":"4","last_reported":1729008661,"current_range_meters":3200,"station_id":"ce4bhi12rcd13ifvqfp0","pricing_plan_id":"cebpf4jnsgd1na2vs0mg"},{"bike_id":"0ec917b1-4ef8-4413-a6a8-76dbbacf59f3","system_id":"levelo_inurba_marseille","lat":43.31694,"lon":5.40477,"is_reserved":false,"is_disabled":false,"rental_uris":{"android":"levelo://app?vid=0ec917b1-4ef8-4413-a6a8-76dbbacf59f3","ios":"levelo://app?vid=0ec917b1-4ef8-4413-a6a8-76dbbacf59f3"},"vehicle_type_id":"4","last_reported":1729008661,"current_range_meters":27600,"station_id":"ce4bh012rcd13ifvqd00","pricing_plan_id":"cebpf4jnsgd1na2vs0mg"},{"bike_id":"0a4a7bed-08dc-4a31-9013-8e920c92673b","system_id":"levelo_inurba_marseille","lat":43.28267,"lon":5.35068,"is_reserved":false,"is_disabled":false,"rental_uris":{"android":"levelo://app?vid=0a4a7bed-08dc-4a31-9013-8e920c92673b","ios":"levelo://app?vid=0a4a7bed-08dc-4a31-9013-8e920c92673b"},"vehicle_type_id":"4","last_reported":1729008661,"current_range_meters":22800,"station_id":"ce4bhbp2rcd13ifvqerg","pricing_plan_id":"cebpf4jnsgd1na2vs0mg"},{"bike_id":"38e23caa-443f-4bdc-87a1-b30e813e9a67","system_id":"levelo_inurba_marseille","lat":43.29585,"lon":5.37511,"is_reserved":false,"is_disabled":false,"rental_uris":{"android":"levelo://app?vid=38e23caa-443f-4bdc-87a1-b30e813e9a67","ios":"levelo://app?vid=38e23caa-443f-4bdc-87a1-b30e813e9a67"},"vehicle_type_id":"4","last_reported":1729008661,"current_range_meters":38800,"station_id":"ce4bgh92rcd13ifvqb50","pricing_plan_id":"cebpf4jnsgd1na2vs0mg"},{"bike_id":"22aa3f4c-3a56-4b01-a8e2-b1fa16f54498","system_id":"levelo_inurba_marseille","lat":43.28266,"lon":5.35062,"is_reserved":false,"is_disabled":false,"rental_uris":{"android":"levelo://app?vid=22aa3f4c-3a56-4b01-a8e2-b1fa16f54498","ios":"levelo://app?vid=22aa3f4c-3a56-4b01-a8e2-b1fa16f54498"},"vehicle_type_id":"4","last_reported":1729008661,"current_range_meters":36000,"station_id":"ce4bhbp2rcd13ifvqerg","pricing_plan_id":"cebpf4jnsgd1na2vs0mg"},{"bike_id":"a5653d8b-71f4-4bac-890c-11069266b53e","system_id":"levelo_inurba_marseille","lat":43.28277,"lon":5.3508,"is_reserved":false,"is_disabled":false,"rental_uris":{"android":"levelo://app?vid=a5653d8b-71f4-4bac-890c-11069266b53e","ios":"levelo://app?vid=a5653d8b-71f4-4bac-890c-11069266b53e"},"vehicle_type_id":"4","last_reported":1729008661,"current_range_meters":14000,"station_id":"ce4bhbp2rcd13ifvqerg","pricing_plan_id":"cebpf4jnsgd1na2vs0mg"},{"bike_id":"bffafddc-45b2-4c5e-958e-71bba8010c7c","system_id":"levelo_inurba_marseille","lat":43.32476,"lon":5.36559,"is_reserved":false,"is_disabled":false,"rental_uris":{"android":"levelo://app?vid=bffafddc-45b2-4c5e-958e-71bba8010c7c","ios":"levelo://app?vid=bffafddc-45b2-4c5e-958e-71bba8010c7c"},"vehicle_type_id":"4","last_reported":1729008661,"current_range_meters":28000,"station_id":"ce4bhs12rcd13ifvqhvg","pricing_plan_id":"cebpf4jnsgd1na2vs0mg"},{"bike_id":"f715e028-2c6a-4702-b822-ab48253a1ee7","system_id":"levelo_inurba_marseille","lat":43.29977,"lon":5.37176,"is_reserved":false,"is_disabled":false,"rental_uris":{"android":"levelo://app?vid=f715e028-2c6a-4702-b822-ab48253a1ee7","ios":"levelo://app?vid=f715e028-2c6a-4702-b822-ab48253a1ee7"},"vehicle_type_id":"4","last_reported":1729008661,"current_range_meters":36800,"station_id":"ce4bgr92rcd13ifvqc7g","pricing_plan_id":"cebpf4jnsgd1na2vs0mg"},{"bike_id":"cb8e1a0f-d2ed-4127-852f-48e0eaf8a5dd","system_id":"levelo_inurba_marseille","lat":43.23963,"lon":5.36619,"is_reserved":false,"is_disabled":false,"rental_uris":{"android":"levelo://app?vid=cb8e1a0f-d2ed-4127-852f-48e0eaf8a5dd","ios":"levelo://app?vid=cb8e1a0f-d2ed-4127-852f-48e0eaf8a5dd"},"vehicle_type_id":"4","last_reported":1729008661,"current_range_meters":17600,"station_id":"ce4bhi12rcd13ifvqfp0","pricing_plan_id":"cebpf4jnsgd1na2vs0mg"},{"bike_id":"8b05f988-b1f0-4b33-b187-10561d7d9b0b","system_id":"levelo_inurba_marseille","lat":43.29257,"lon":5.40909,"is_reserved":false,"is_disabled":false,"rental_uris":{"android":"levelo://app?vid=8b05f988-b1f0-4b33-b187-10561d7d9b0b","ios":"levelo://app?vid=8b05f988-b1f0-4b33-b187-10561d7d9b0b"},"vehicle_type_id":"4","last_reported":1729008661,"current_range_meters":8800,"station_id":"ce4bh192rcd13ifvqdc0","pricing_plan_id":"cebpf4jnsgd1na2vs0mg"},{"bike_id":"49ad85d8-d652-406f-9c2f-2388a3f8dbaf","system_id":"levelo_inurba_marseille","lat":43.294141,"lon":5.386216,"is_reserved":false,"is_disabled":false,"rental_uris":{"android":"levelo://app?vid=49ad85d8-d652-406f-9c2f-2388a3f8dbaf","ios":"levelo://app?vid=49ad85d8-d652-406f-9c2f-2388a3f8dbaf"},"vehicle_type_id":"4","last_reported":1729008661,"current_range_meters":27200,"station_id":"ce4bha92rcd13ifvqeh0","pricing_plan_id":"cebpf4jnsgd1na2vs0mg"},{"bike_id":"039a2645-b90b-448d-af85-a7dc031d6865","system_id":"levelo_inurba_marseille","lat":43.31759,"lon":5.39011,"is_reserved":false,"is_disabled":false,"rental_uris":{"android":"levelo://app?vid=039a2645-b90b-448d-af85-a7dc031d6865","ios":"levelo://app?vid=039a2645-b90b-448d-af85-a7dc031d6865"},"vehicle_type_id":"4","last_reported":1729008661,"current_range_meters":16800,"station_id":"ce4bhqp2rcd13ifvqhng","pricing_plan_id":"cebpf4jnsgd1na2vs0mg"},{"bike_id":"665c2bc4-9529-4fff-b7b0-56582234f18f","system_id":"levelo_inurba_marseille","lat":43.28723,"lon":5.36082,"is_reserved":false,"is_disabled":false,"rental_uris":{"android":"levelo://app?vid=665c2bc4-9529-4fff-b7b0-56582234f18f","ios":"levelo://app?vid=665c2bc4-9529-4fff-b7b0-56582234f18f"},"vehicle_type_id":"4","last_reported":1729008661,"current_range_meters":8400,"station_id":"cki0cbj6b192h4jlfktg","pricing_plan_id":"cebpf4jnsgd1na2vs0mg"},{"bike_id":"2af97417-a59e-4275-aeb3-e3e3f33f0a20","system_id":"levelo_inurba_marseille","lat":43.27374,"lon":5.36262,"is_reserved":false,"is_disabled":false,"rental_uris":{"android":"levelo://app?vid=2af97417-a59e-4275-aeb3-e3e3f33f0a20","ios":"levelo://app?vid=2af97417-a59e-4275-aeb3-e3e3f33f0a20"},"vehicle_type_id":"4","last_reported":1729008661,"current_range_meters":16800,"station_id":"ce4bhbh2rcd13ifvqeo0","pricing_plan_id":"cebpf4jnsgd1na2vs0mg"},{"bike_id":"621b09e6-cba4-4dbd-999a-de153d167dc4","system_id":"levelo_inurba_marseille","lat":43.288513,"lon":5.358529,"is_reserved":false,"is_disabled":false,"rental_uris":{"android":"levelo://app?vid=621b09e6-cba4-4dbd-999a-de153d167dc4","ios":"levelo://app?vid=621b09e6-cba4-4dbd-999a-de153d167dc4"},"vehicle_type_id":"4","last_reported":1729008661,"current_range_meters":28000,"station_id":"ce4bhc92rcd13ifvqetg","pricing_plan_id":"cebpf4jnsgd1na2vs0mg"},{"bike_id":"f1f44c7a-e4eb-4c05-a0a5-7c114df4cda5","system_id":"levelo_inurba_marseille","lat":43.22934,"lon":5.35383,"is_reserved":false,"is_disabled":false,"rental_uris":{"android":"levelo://app?vid=f1f44c7a-e4eb-4c05-a0a5-7c114df4cda5","ios":"levelo://app?vid=f1f44c7a-e4eb-4c05-a0a5-7c114df4cda5"},"vehicle_type_id":"4","last_reported":1729008661,"current_range_meters":11600,"station_id":"cpo3532slgdg3j2ikp40","pricing_plan_id":"cebpf4jnsgd1na2vs0mg"},{"bike_id":"f500788f-6568-4eaf-9e1d-9b6882b8060e","system_id":"levelo_inurba_marseille","lat":43.28351,"lon":5.381157,"is_reserved":false,"is_disabled":false,"rental_uris":{"android":"levelo://app?vid=f500788f-6568-4eaf-9e1d-9b6882b8060e","ios":"levelo://app?vid=f500788f-6568-4eaf-9e1d-9b6882b8060e"},"vehicle_type_id":"4","last_reported":1729008661,"current_range_meters":11200,"station_id":"ce4bh412rcd13ifvqdr0","pricing_plan_id":"cebpf4jnsgd1na2vs0mg"},{"bike_id":"2d1f5664-318e-4f51-b7bd-dbfad0f0bd98","system_id":"levelo_inurba_marseille","lat":43.28268,"lon":5.35064,"is_reserved":false,"is_disabled":false,"rental_uris":{"android":"levelo://app?vid=2d1f5664-318e-4f51-b7bd-dbfad0f0bd98","ios":"levelo://app?vid=2d1f5664-318e-4f51-b7bd-dbfad0f0bd98"},"vehicle_type_id":"4","last_reported":1729008661,"current_range_meters":20400,"station_id":"ce4bhbp2rcd13ifvqerg","pricing_plan_id":"cebpf4jnsgd1na2vs0mg"},{"bike_id":"b3de1653-e74a-47db-9b16-f95f25d58b87","system_id":"levelo_inurba_marseille","lat":43.26189,"lon":5.37452,"is_reserved":false,"is_disabled":false,"rental_uris":{"android":"levelo://app?vid=b3de1653-e74a-47db-9b16-f95f25d58b87","ios":"levelo://app?vid=b3de1653-e74a-47db-9b16-f95f25d58b87"},"vehicle_type_id":"4","last_reported":1729008661,"current_range_meters":22000,"station_id":"ce4bhgp2rcd13ifvqfc0","pricing_plan_id":"cebpf4jnsgd1na2vs0mg"},{"bike_id":"a5fafc5b-b2d3-455a-9409-25765a45da46","system_id":"levelo_inurba_marseille","lat":43.26492,"lon":5.39546,"is_reserved":false,"is_disabled":false,"rental_uris":{"android":"levelo://app?vid=a5fafc5b-b2d3-455a-9409-25765a45da46","ios":"levelo://app?vid=a5fafc5b-b2d3-455a-9409-25765a45da46"},"vehicle_type_id":"4","last_reported":1729008661,"current_range_meters":24800,"station_id":"ce4bhi12rcd13ifvqfq0","pricing_plan_id":"cebpf4jnsgd1na2vs0mg"},{"bike_id":"36ff951c-f827-42ef-92ae-1305cd124595","system_id":"levelo_inurba_marseille","lat":43.33029,"lon":5.39055,"is_reserved":false,"is_disabled":false,"rental_uris":{"android":"levelo://app?vid=36ff951c-f827-42ef-92ae-1305cd124595","ios":"levelo://app?vid=36ff951c-f827-42ef-92ae-1305cd124595"},"vehicle_type_id":"4","last_reported":1729008661,"current_range_meters":40000,"station_id":"ce4bhr92rcd13ifvqhrg","pricing_plan_id":"cebpf4jnsgd1na2vs0mg"},{"bike_id":"e27ab436-306e-4c76-a702-459fc2a644a7","system_id":"levelo_inurba_marseille","lat":43.2306,"lon":5.35491,"is_reserved":false,"is_disabled":false,"rental_uris":{"android":"levelo://app?vid=e27ab436-306e-4c76-a702-459fc2a644a7","ios":"levelo://app?vid=e27ab436-306e-4c76-a702-459fc2a644a7"},"vehicle_type_id":"4","last_reported":1729008661,"current_range_meters":23200,"station_id":"cpo3342slgdg3j2ifvpg","pricing_plan_id":"cebpf4jnsgd1na2vs0mg"},{"bike_id":"4b7cdbe3-3ebb-4857-8aa3-a1bfad69e6b4","system_id":"levelo_inurba_marseille","lat":43.23196,"lon":5.35556,"is_reserved":false,"is_disabled":false,"rental_uris":{"android":"levelo://app?vid=4b7cdbe3-3ebb-4857-8aa3-a1bfad69e6b4","ios":"levelo://app?vid=4b7cdbe3-3ebb-4857-8aa3-a1bfad69e6b4"},"vehicle_type_id":"4","last_reported":1729008661,"current_range_meters":12800,"station_id":"ce4bhu92rcd13ifvqi70","pricing_plan_id":"cebpf4jnsgd1na2vs0mg"},{"bike_id":"0ef9c128-8304-4cca-ba36-b7e9960d97de","system_id":"levelo_inurba_marseille","lat":43.30329,"lon":5.40428,"is_reserved":false,"is_disabled":false,"rental_uris":{"android":"levelo://app?vid=0ef9c128-8304-4cca-ba36-b7e9960d97de","ios":"levelo://app?vid=0ef9c128-8304-4cca-ba36-b7e9960d97de"},"vehicle_type_id":"4","last_reported":1729008661,"current_range_meters":25200,"station_id":"ce4bh012rcd13ifvqd10","pricing_plan_id":"cebpf4jnsgd1na2vs0mg"},{"bike_id":"24bda55c-9da6-42f5-a68f-5a482b7eff20","system_id":"levelo_inurba_marseille","lat":43.28414,"lon":5.3499,"is_reserved":false,"is_disabled":false,"rental_uris":{"android":"levelo://app?vid=24bda55c-9da6-42f5-a68f-5a482b7eff20","ios":"levelo://app?vid=24bda55c-9da6-42f5-a68f-5a482b7eff20"},"vehicle_type_id":"4","last_reported":1729008661,"current_range_meters":39200,"station_id":"ce4bhbh2rcd13ifvqepg","pricing_plan_id":"cebpf4jnsgd1na2vs0mg"},{"bike_id":"fca4cdb2-c35a-479e-9767-4cd18ed60ee2","system_id":"levelo_inurba_marseille","lat":43.28721,"lon":5.36093,"is_reserved":false,"is_disabled":false,"rental_uris":{"android":"levelo://app?vid=fca4cdb2-c35a-479e-9767-4cd18ed60ee2","ios":"levelo://app?vid=fca4cdb2-c35a-479e-9767-4cd18ed60ee2"},"vehicle_type_id":"4","last_reported":1729008661,"current_range_meters":12000,"station_id":"cki0cbj6b192h4jlfktg","pricing_plan_id":"cebpf4jnsgd1na2vs0mg"},{"bike_id":"4c189915-8dbb-4b9e-82f4-7c0e4c6d281c","system_id":"levelo_inurba_marseille","lat":43.323395,"lon":5.406265,"is_reserved":false,"is_disabled":false,"rental_uris":{"android":"levelo://app?vid=4c189915-8dbb-4b9e-82f4-7c0e4c6d281c","ios":"levelo://app?vid=4c189915-8dbb-4b9e-82f4-7c0e4c6d281c"},"vehicle_type_id":"4","last_reported":1729008661,"current_range_meters":38800,"station_id":"ce4bhq92rcd13ifvqhjg","pricing_plan_id":"cebpf4jnsgd1na2vs0mg"},{"bike_id":"a2ffed63-7d22-40d3-a285-d46bdee2c8d9","system_id":"levelo_inurba_marseille","lat":43.286102,"lon":5.351048,"is_reserved":false,"is_disabled":false,"rental_uris":{"android":"levelo://app?vid=a2ffed63-7d22-40d3-a285-d46bdee2c8d9","ios":"levelo://app?vid=a2ffed63-7d22-40d3-a285-d46bdee2c8d9"},"vehicle_type_id":"4","last_reported":1729008661,"current_range_meters":24800,"station_id":"ce4bhch2rcd13ifvqeug","pricing_plan_id":"cebpf4jnsgd1na2vs0mg"},{"bike_id":"447657b9-0686-4283-8333-85d6bbffac7e","system_id":"levelo_inurba_marseille","lat":43.29522,"lon":5.38541,"is_reserved":false,"is_disabled":false,"rental_uris":{"android":"levelo://app?vid=447657b9-0686-4283-8333-85d6bbffac7e","ios":"levelo://app?vid=447657b9-0686-4283-8333-85d6bbffac7e"},"vehicle_type_id":"4","last_reported":1729008661,"current_range_meters":38800,"station_id":"ce4bgih2rcd13ifvqba0","pricing_plan_id":"cebpf4jnsgd1na2vs0mg"},