{"last_updated":1727723177,"ttl":60,"version":"2.2","data":{"bikes":[{"bike_id":"ebd4ac8b-9dc1-49bb-8288-5c9fe4d66187","system_id":"levelo_inurba_marseille","lat":43.28472,"lon":5.38552,"is_reserved":false,"is_disabled":false,"rental_uris":{"android":"levelo://app?vid=ebd4ac8b-9dc1-49bb-8288-5c9fe4d66187","ios":"levelo://app?vid=ebd4ac8b-9dc1-49bb-8288-5c9fe4d66187"},"vehicle_type_id":"4","last_reported":1727723177,"current_range_meters":16000,"station_id":"ce4bh8p2rcd13ifvqeb0","pricing_plan_id":"cebpf4jnsgd1na2vs0mg"},{"bike_id":"4381ca69-94ed-4fb4-97b0-6e2433f67f2f","system_id":"levelo_inurba_marseille","lat":43.33728,"lon":5.39193,"is_reserved":false,"is_disabled":false,"rental_uris":{"android":"levelo://app?vid=4381ca69-94ed-4fb4-97b0-6e2433f67f2f","ios":"levelo://app?vid=4381ca69-94ed-4fb4-97b0-6e2433f67f2f"},"vehicle_type_id":"4","last_reported":1727723177,"current_range_meters":3600,"station_id":"ce4bhr92rcd13ifvqhsg","pricing_plan_id":"cebpf4jnsgd1na2vs0mg"},{"bike_id":"e53da8cd-c807-46d7-9f56-d2ec1775dbf3","system_id":"levelo_inurba_marseille","lat":43.27811,"lon":5.40716,"is_reserved":false,"is_disabled":false,"rental_uris":{"android":"levelo://app?vid=e53da8cd-c807-46d7-9f56-d2ec1775dbf3","ios":"levelo://app?vid=e53da8cd-c807-46d7-9f56-d2ec1775dbf3"},"vehicle_type_id":"4","last_reported":1727723177,"current_range_meters":37600,"station_id":"ce4bhnh2rcd13ifvqgtg","pricing_plan_id":"cebpf4jnsgd1na2vs0mg"},{"bike_id":"2d75a2d4-e82e-4d76-92af-8711a2ec6b84","system_id":"levelo_inurba_marseille","lat":43.33611,"lon":5.41036,"is_reserved":false,"is_disabled":false,"rental_uris":{"android":"levelo://app?vid=2d75a2d4-e82e-4d76-92af-8711a2ec6b84","ios":"levelo://app?vid=2d75a2d4-e82e-4d76-92af-8711a2ec6b84"},"vehicle_type_id":"4","last_reported":1727723177,"current_range_meters":16800,"station_id":"ce4bhqh2rcd13ifvqhmg","pricing_plan_id":"cebpf4jnsgd1na2vs0mg"},{"bike_id":"1c006b78-d253-4b91-b794-7153290a0e66","system_id":"levelo_inurba_marseille","lat":43.31757,"lon":5.39025,"is_reserved":false,"is_disabled":false,"rental_uris":{"android":"levelo://app?vid=1c006b78-d253-4b91-b794-7153290a0e66","ios":"levelo://app?vid=1c006b78-d253-4b91-b794-7153290a0e66"},"vehicle_type_id":"4","last_reported":1727723177,"current_range_meters":37600,"station_id":"ce4bhqp2rcd13ifvqhng","pricing_plan_id":"cebpf4jnsgd1na2vs0mg"},{"bike_id":"cc1835fa-d95a-4805-b298-4780f2e272a3","system_id":"levelo_inurba_marseille","lat":43.32397,"lon":5.38348,"is_reserved":false,"is_disabled":false,"rental_uris":{"android":"levelo://app?vid=cc1835fa-d95a-4805-b298-4780f2e272a3","ios":"levelo://app?vid=cc1835fa-d95a-4805-b298-4780f2e272a3"},"vehicle_type_id":"4","last_reported":1727723177,"current_range_meters":20000,"station_id":"","pricing_plan_id":"cebpf4jnsgd1na2vs0mg"},{"bike_id":"0d31a271-58df-4c2e-a39b-bf4de9c34014","system_id":"levelo_inurba_marseille","lat":43.241739,"lon":5.363972,"is_reserved":false,"is_disabled":false,"rental_uris":{"android":"levelo://app?vid=0d31a271-58df-4c2e-a39b-bf4de9c34014","ios":"levelo://app?vid=0d31a271-58df-4c2e-a39b-bf4de9c34014"},"vehicle_type_id":"4","last_reported":1727723177,"current_range_meters":18800,"station_id":"cpo36qri1sfpv3e86is0","pricing_plan_id":"cebpf4jnsgd1na2vs0mg"},{"bike_id":"5f388cb7-14c6-4513-8dea-9fe7d6caa8ef","system_id":"levelo_inurba_marseille","lat":43.26567,"lon":5.39008,"is_reserved":false,"is_disabled":false,"rental_uris":{"android":"levelo://app?vid=5f388cb7-14c6-4513-8dea-9fe7d6caa8ef","ios":"levelo://app?vid=5f388cb7-14c6-4513-8dea-9fe7d6caa8ef"},"vehicle_type_id":"4","last_reported":1727723177,"current_range_meters":12800,"station_id":"ce4bhe12rcd13ifvqf30","pricing_plan_id":"cebpf4jnsgd1na2vs0mg"},{"bike_id":"d1901d2e-eb48-424e-8a75-7377ed728a9e","system_id":"levelo_inurba_marseille","lat":43.31529,"lon":5.38038,"is_reserved":false,"is_disabled":false,"rental_uris":{"android":"levelo://app?vid=d1901d2e-eb48-424e-8a75-7377ed728a9e","ios":"levelo://app?vid=d1901d2e-eb48-424e-8a75-7377ed728a9e"},"vehicle_type_id":"4","last_reported":1727723177,"current_range_meters":38000,"station_id":"ce4bhsp2rcd13ifvqi50","pricing_plan_id":"cebpf4jnsgd1na2vs0mg"},{"bike_id":"3396c5a4-6539-4e9c-8887-0de9aeadb3b6","system_id":"levelo_inurba_marseille","lat":43.30288,"lon":5.39229,"is_reserved":false,"is_disabled":false,"rental_uris":{"android":"levelo://app?vid=3396c5a4-6539-4e9c-8887-0de9aeadb3b6","ios":"levelo://app?vid=3396c5a4-6539-4e9c-8887-0de9aeadb3b6"},"vehicle_type_id":"4","last_reported":1727723177,"current_range_meters":17200,"station_id":"ce4bgkh2rcd13ifvqbk0","pricing_plan_id":"cebpf4jnsgd1na2vs0mg"},{"bike_id":"2cc892a6-5e20-4209-88aa-7ff4b823ab34","system_id":"levelo_inurba_marseille","lat":43.29192,"lon":5.39326,"is_reserved":false,"is_disabled":false,"rental_uris":{"android":"levelo://app?vid=2cc892a6-5e20-4209-88aa-7ff4b823ab34","ios":"levelo://app?vid=2cc892a6-5e20-4209-88aa-7ff4b823ab34"},"vehicle_type_id":"4","last_reported":1727723177,"current_range_meters":38400,"station_id":"ce4bh192rcd13ifvqdd0","pricing_plan_id":"cebpf4jnsgd1na2vs0mg"},{"bike_id":"417d0cf4-3eaf-4831-b2a8-e60c1f731624","system_id":"levelo_inurba_marseille","lat":43.2845,"lon":5.35891,"is_reserved":false,"is_disabled":false,"rental_uris":{"android":"levelo://app?vid=417d0cf4-3eaf-4831-b2a8-e60c1f731624","ios":"levelo://app?vid=417d0cf4-3eaf-4831-b2a8-e60c1f731624"},"vehicle_type_id":"4","last_reported":1727723177,"current_range_meters":38800,"station_id":"ce4bhah2rcd13ifvqei0","pricing_plan_id":"cebpf4jnsgd1na2vs0mg"},{"bike_id":"692b52da-ebae-4f02-9038-5a7809b78483","system_id":"levelo_inurba_marseille","lat":43.30799,"lon":5.43528,"is_reserved":false,"is_disabled":false,"rental_uris":{"android":"levelo://app?vid=692b52da-ebae-4f02-9038-5a7809b78483","ios":"levelo://app?vid=692b52da-ebae-4f02-9038-5a7809b78483"},"vehicle_type_id":"4","last_reported":1727723177,"current_range_meters":34800,"station_id":"ce4bhph2rcd13ifvqheg","pricing_plan_id":"cebpf4jnsgd1na2vs0mg"},{"bike_id":"3e38dcaf-b185-4e1f-a5ed-7ec2f7daa1c4","system_id":"levelo_inurba_marseille","lat":43.27812,"lon":5.40718,"is_reserved":false,"is_disabled":false,"rental_uris":{"android":"levelo://app?vid=3e38dcaf-b185-4e1f-a5ed-7ec2f7daa1c4","ios":"levelo://app?vid=3e38dcaf-b185-4e1f-a5ed-7ec2f7daa1c4"},"vehicle_type_id":"4","last_reported":1727723177,"current_range_meters":38800,"station_id":"ce4bhnh2rcd13ifvqgtg","pricing_plan_id":"cebpf4jnsgd1na2vs0mg"},{"bike_id":"f8f9c246-59ab-4b72-8174-3c8851a49c16","system_id":"levelo_inurba_marseille","lat":43.28937,"lon":5.36641,"is_reserved":false,"is_disabled":false,"rental_uris":{"android":"levelo://app?vid=f8f9c246-59ab-4b72-8174-3c8851a49c16","ios":"levelo://app?vid=f8f9c246-59ab-4b72-8174-3c8851a49c16"},"vehicle_type_id":"4","last_reported":1727723177,"current_range_meters":8800,"station_id":"ce4bhap2rcd13ifvqek0","pricing_plan_id":"cebpf4jnsgd1na2vs0mg"},{"bike_id":"2a3b116a-1622-41fb-9e3b-9700b558192d","system_id":"levelo_inurba_marseille","lat":43.2802,"lon":5.36088,"is_reserved":false,"is_disabled":false,"rental_uris":{"android":"levelo://app?vid=2a3b116a-1622-41fb-9e3b-9700b558192d","ios":"levelo://app?vid=2a3b116a-1622-41fb-9e3b-9700b558192d"},"vehicle_type_id":"4","last_reported":1727723177,"current_range_meters":17200,"station_id":"","pricing_plan_id":"cebpf4jnsgd1na2vs0mg"},{"bike_id":"97a1a573-532d-4ace-a941-711a3428dcd6","system_id":"levelo_inurba_marseille","lat":43.30797,"lon":5.38163,"is_reserved":false,"is_disabled":false,"rental_uris":{"android":"levelo://app?vid=97a1a573-532d-4ace-a941-711a3428dcd6","ios":"levelo://app?vid=97a1a573-532d-4ace-a941-711a3428dcd6"},"vehicle_type_id":"4","last_reported":1727723177,"current_range_meters":35200,"station_id":"ce4bgt12rcd13ifvqce0","pricing_plan_id":"cebpf4jnsgd1na2vs0mg"},{"bike_id":"c6310a53-842c-4c40-97d7-b8b3158dce16","system_id":"levelo_inurba_marseille","lat":43.31072,"lon":5.38346,"is_reserved":false,"is_disabled":false,"rental_uris":{"android":"levelo://app?vid=c6310a53-842c-4c40-97d7-b8b3158dce16","ios":"levelo://app?vid=c6310a53-842c-4c40-97d7-b8b3158dce16"},"vehicle_type_id":"4","last_reported":1727723177,"current_range_meters":24400,"station_id":"ce4bgv92rcd13ifvqcr0","pricing_plan_id":"cebpf4jnsgd1na2vs0mg"},{"bike_id":"b392accb-666f-4d3e-b4e6-239c51ceb99b","system_id":"levelo_inurba_marseille","lat":43.26804,"lon":5.4027,"is_reserved":false,"is_disabled":false,"rental_uris":{"android":"levelo://app?vid=b392accb-666f-4d3e-b4e6-239c51ceb99b","ios":"levelo://app?vid=b392accb-666f-4d3e-b4e6-239c51ceb99b"},"vehicle_type_id":"4","last_reported":1727723177,"current_range_meters":30800,"station_id":"ce501612rcd8frsf0b60","pricing_plan_id":"cebpf4jnsgd1na2vs0mg"},{"bike_id":"62413e72-aed1-47f4-be06-d29b7d53c3ca","system_id":"levelo_inurba_marseille","lat":43.275208,"lon":5.384502,"is_reserved":false,"is_disabled":false,"rental_uris":{"android":"levelo://app?vid=62413e72-aed1-47f4-be06-d29b7d53c3ca","ios":"levelo://app?vid=62413e72-aed1-47f4-be06-d29b7d53c3ca"},"vehicle_type_id":"4","last_reported":1727723177,"current_range_meters":30400,"station_id":"ce4bhh92rcd13ifvqfi0","pricing_plan_id":"cebpf4jnsgd1na2vs0mg"},{"bike_id":"a85d7355-99f4-495d-9122-228917b30093","system_id":"levelo_inurba_marseille","lat":43.29019,"lon":5.38139,"is_reserved":false,"is_disabled":false,"rental_uris":{"android":"levelo://app?vid=a85d7355-99f4-495d-9122-228917b30093","ios":"levelo://app?vid=a85d7355-99f4-495d-9122-228917b30093"},"vehicle_type_id":"4","last_reported":1727723177,"current_range_meters":25200,"station_id":"ce4bh4p2rcd13ifvqe1g","pricing_plan_id":"cebpf4jnsgd1na2vs0mg"},{"bike_id":"3a2a10a5-6b1f-4bb7-9e95-436e732a6364","system_id":"levelo_inurba_marseille","lat":43.31879,"lon":5.40733,"is_reserved":false,"is_disabled":false,"rental_uris":{"android":"levelo://app?vid=3a2a10a5-6b1f-4bb7-9e95-436e732a6364","ios":"levelo://app?vid=3a2a10a5-6b1f-4bb7-9e95-436e732a6364"},"vehicle_type_id":"4","last_reported":1727723177,"current_range_meters":31200,"station_id":"ce4bhq12rcd13ifvqhig","pricing_plan_id":"cebpf4jnsgd1na2vs0mg"},{"bike_id":"6fd4fe66-0c29-4c23-a8bc-4dd99e44ea36","system_id":"levelo_inurba_marseille","lat":43.28415,"lon":5.37518,"is_reserved":false,"is_disabled":false,"rental_uris":{"android":"levelo://app?vid=6fd4fe66-0c29-4c23-a8bc-4dd99e44ea36","ios":"levelo://app?vid=6fd4fe66-0c29-4c23-a8bc-4dd99e44ea36"},"vehicle_type_id":"4","last_reported":1727723177,"current_range_meters":6000,"station_id":"ce4bh412rcd13ifvqds0","pricing_plan_id":"cebpf4jnsgd1na2vs0mg"},{"bike_id":"9fc0059e-c96e-482f-b5a5-911df430f0c1","system_id":"levelo_inurba_marseille","lat":43.25085,"lon":5.39525,"is_reserved":false,"is_disabled":false,"rental_uris":{"android":"levelo://app?vid=9fc0059e-c96e-482f-b5a5-911df430f0c1","ios":"levelo://app?vid=9fc0059e-c96e-482f-b5a5-911df430f0c1"},"vehicle_type_id":"4","last_reported":1727723177,"current_range_meters":24000,"station_id":"ce4bhm12rcd13ifvqgkg","pricing_plan_id":"cebpf4jnsgd1na2vs0mg"},{"bike_id":"f6005f79-8ab7-4000-9d10-147791cdc683","system_id":"levelo_inurba_marseille","lat":43.24391,"lon":5.37062,"is_reserved":false,"is_disabled":false,"rental_uris":{"android":"levelo://app?vid=f6005f79-8ab7-4000-9d10-147791cdc683","ios":"levelo://app?vid=f6005f79-8ab7-4000-9d10-147791cdc683"},"vehicle_type_id":"4","last_reported":1727723177,"current_range_meters":40000,"station_id":"ce4bhhh2rcd13ifvqfk0","pricing_plan_id":"cebpf4jnsgd1na2vs0mg"},{"bike_id":"c6c56253-5491-4aa8-8271-20a9e2a3f0bf","system_id":"levelo_inurba_marseille","lat":43.28605,"lon":5.37068,"is_reserved":false,"is_disabled":false,"rental_uris":{"android":"levelo://app?vid=c6c56253-5491-4aa8-8271-20a9e2a3f0bf","ios":"levelo://app?vid=c6c56253-5491-4aa8-8271-20a9e2a3f0bf"},"vehicle_type_id":"4","last_reported":1727723177,"current_range_meters":18800,"station_id":"ce4bht12rcd13ifvqi60","pricing_plan_id":"cebpf4jnsgd1na2vs0mg"},{"bike_id":"cd48a86b-d540-4e7d-aa9b-21c112e72f8e","system_id":"levelo_inurba_marseille","lat":43.3043,"lon":5.38892,"is_reserved":false,"is_disabled":false,"rental_uris":{"android":"levelo://app?vid=cd48a86b-d540-4e7d-aa9b-21c112e72f8e","ios":"levelo://app?vid=cd48a86b-d540-4e7d-aa9b-21c112e72f8e"},"vehicle_type_id":"4","last_reported":1727723177,"current_range_meters":15200,"station_id":"ce4bgk12rcd13ifvqbi0","pricing_plan_id":"cebpf4jnsgd1na2vs0mg"},{"bike_id":"f3819ba0-7f7d-4275-9c3c-a30236733eaf","system_id":"levelo_inurba_marseille","lat":43.289703,"lon":5.378382,"is_reserved":false,"is_disabled":false,"rental_uris":{"android":"levelo://app?vid=f3819ba0-7f7d-4275-9c3c-a30236733eaf","ios":"levelo://app?vid=f3819ba0-7f7d-4275-9c3c-a30236733eaf"},"vehicle_type_id":"4","last_reported":1727723177,"current_range_meters":25200,"station_id":"ce4bh9p2rcd13ifvqed0","pricing_plan_id":"cebpf4jnsgd1na2vs0mg"},{"bike_id":"a5d85526-0e79-4b59-a8f3-59524ac75082","system_id":"levelo_inurba_marseille","lat":43.31366,"lon":5.38494,"is_reserved":false,"is_disabled":false,"rental_uris":{"android":"levelo://app?vid=a5d85526-0e79-4b59-a8f3-59524ac75082","ios":"levelo://app?vid=a5d85526-0e79-4b59-a8f3-59524ac75082"},"vehicle_type_id":"4","last_reported":1727723177,"current_range_meters":36000,"station_id":"ce4bgt92rcd13ifvqcf0","pricing_plan_id":"cebpf4jnsgd1na2vs0mg"},{"bike_id":"331bf754-18c5-49b3-a53c-f5ee9aaecd7b","system_id":"levelo_inurba_marseille","lat":43.3149,"lon":5.37311,"is_reserved":false,"is_disabled":false,"rental_uris":{"android":"levelo://app?vid=331bf754-18c5-49b3-a53c-f5ee9aaecd7b","ios":"levelo://app?vid=331bf754-18c5-49b3-a53c-f5ee9aaecd7b"},"vehicle_type_id":"4","last_reported":1727723177,"current_range_meters":38800,"station_id":"ce4bgt12rcd13ifvqcd0","pricing_plan_id":"cebpf4jnsgd1na2vs0mg"},{"bike_id":"4af23175-3cc8-4f7a-808d-7a29f00ac751","system_id":"levelo_inurba_marseille","lat":43.28971,"lon":5.3783,"is_reserved":false,"is_disabled":false,"rental_uris":{"android":"levelo://app?vid=4af23175-3cc8-4f7a-808d-7a29f00ac751","ios":"levelo://app?vid=4af23175-3cc8-4f7a-808d-7a29f00ac751"},"vehicle_type_id":"4","last_reported":1727723177,"current_range_meters":38800,"station_id":"ce4bh9p2rcd13ifvqed0","pricing_plan_id":"cebpf4jnsgd1na2vs0mg"},{"bike_id":"5da57b22-3ba2-4b50-a433-4bb78b8882bb","system_id":"levelo_inurba_marseille","lat":43.29028,"lon":5.35928,"is_reserved":false,"is_disabled":false,"rental_uris":{"android":"levelo://app?vid=5da57b22-3ba2-4b50-a433-4bb78b8882bb","ios":"levelo://app?vid=5da57b22-3ba2-4b50-a433-4bb78b8882bb"},"vehicle_type_id":"4","last_reported":1727723177,"current_range_meters":12400,"station_id":"ce4bha92rcd13ifvqeg0","pricing_plan_id":"cebpf4jnsgd1na2vs0mg"},{"bike_id":"d106df73-0f94-4ce9-b9fe-3f7e7fa30584","system_id":"levelo_inurba_marseille","lat":43.29513,"lon":5.39403,"is_reserved":false,"is_disabled":false,"rental_uris":{"android":"levelo://app?vid=d106df73-0f94-4ce9-b9fe-3f7e7fa30584","ios":"levelo://app?vid=d106df73-0f94-4ce9-b9fe-3f7e7fa30584"},"vehicle_type_id":"4","last_reported":1727723177,"current_range_meters":16800,"station_id":"ce4bh292rcd13ifvqdf0","pricing_plan_id":"cebpf4jnsgd1na2vs0mg"},{"bike_id":"7a284d2e-891e-4934-a2d8-35ead42df942","system_id":"levelo_inurba_marseille","lat":43.32321,"lon":5.38274,"is_reserved":false,"is_disabled":false,"rental_uris":{"android":"levelo://app?vid=7a284d2e-891e-4934-a2d8-35ead42df942","ios":"levelo://app?vid=7a284d2e-891e-4934-a2d8-35ead42df942"},"vehicle_type_id":"4","last_reported":1727723177,"current_range_meters":32000,"station_id":"ce4bhr12rcd13ifvqhqg","pricing_plan_id":"cebpf4jnsgd1na2vs0mg"},{"bike_id":"fa744f0b-6c33-4787-82c9-41a41ef2d3cd","system_id":"levelo_inurba_marseille","lat":43.30135,"lon":5.38789,"is_reserved":false,"is_disabled":false,"rental_uris":{"android":"levelo://app?vid=fa744f0b-6c33-4787-82c9-41a41ef2d3cd","ios":"levelo://app?vid=fa744f0b-6c33-4787-82c9-41a41ef2d3cd"},"vehicle_type_id":"4","last_reported":1727723177,"current_range_meters":24800,"station_id":"ce4bguh2rcd13ifvqckg","pricing_plan_id":"cebpf4jnsgd1na2vs0mg"},{"bike_id":"0075996f-afd2-4897-9495-610af9bb460d","system_id":"levelo_inurba_marseille","lat":43.293,"lon":5.37465,"is_reserved":false,"is_disabled":false,"rental_uris":{"android":"levelo://app?vid=0075996f-afd2-4897-9495-610af9bb460d","ios":"levelo://app?vid=0075996f-afd2-4897-9495-610af9bb460d"},"vehicle_type_id":"4","last_reported":1727723177,"current_range_meters":38000,"station_id":"ce4bgi12rcd13ifvqb70","pricing_plan_id":"cebpf4jnsgd1na2vs0mg"},{"bike_id":"4fcb80c5-ba38-4651-bbf3-35cdb871cc95","system_id":"levelo_inurba_marseille","lat":43.27638,"lon":5.36116,"is_reserved":false,"is_disabled":false,"rental_uris":{"android":"levelo://app?vid=4fcb80c5-ba38-4651-bbf3-35cdb871cc95","ios":"levelo://app?vid=4fcb80c5-ba38-4651-bbf3-35cdb871cc95"},"vehicle_type_id":"4","last_reported":1727723177,"current_range_meters":38800,"station_id":"ce4bgj92rcd13ifvqbe0","pricing_plan_id":"cebpf4jnsgd1na2vs0mg"},{"bike_id":"4c7e3c0d-4983-42af-ba97-4d8f2a1c7ae5","system_id":"levelo_inurba_marseille","lat":43.31994,"lon":5.38155,"is_reserved":false,"is_disabled":false,"rental_uris":{"android":"levelo://app?vid=4c7e3c0d-4983-42af-ba97-4d8f2a1c7ae5","ios":"levelo://app?vid=4c7e3c0d-4983-42af-ba97-4d8f2a1c7ae5"},"vehicle_type_id":"4","last_reported":1727723177,"current_range_meters":30800,"station_id":"ce4bhr12rcd13ifvqhpg","pricing_plan_id":"cebpf4jnsgd1na2vs0mg"},{"bike_id":"f3796b83-d0ff-4e28-ab91-f20a8aacf6fc","system_id":"levelo_inurba_marseille","lat":43.28726,"lon":5.36099,"is_reserved":false,"is_disabled":false,"rental_uris":{"android":"levelo://app?vid=f3796b83-d0ff-4e28-ab91-f20a8aacf6fc","ios":"levelo://app?vid=f3796b83-d0ff-4e28-ab91-f20a8aacf6fc"},"vehicle_type_id":"4","last_reported":1727723177,"current_range_meters":38000,"station_id":"cki0cbj6b192h4jlfktg","pricing_plan_id":"cebpf4jnsgd1na2vs0mg"},{"bike_id":"f85dacd4-d6fb-4d30-af9b-6d6ad970e553","system_id":"levelo_inurba_marseille","lat":43.3168,"lon":5.40484,"is_reserved":false,"is_disabled":false,"rental_uris":{"android":"levelo://app?vid=f85dacd4-d6fb-4d30-af9b-6d6ad970e553","ios":"levelo://app?vid=f85dacd4-d6fb-4d30-af9b-6d6ad970e553"},"vehicle_type_id":"4","last_reported":1727723177,"current_range_meters":8400,"station_id":"ce4bh012rcd13ifvqd00","pricing_plan_id":"cebpf4jnsgd1na2vs0mg"},{"bike_id":"5dbf8eb5-61aa-4f3c-ae3e-9d25cdeafbe1","system_id":"levelo_inurba_marseille","lat":43.31995,"lon":5.38156,"is_reserved":false,"is_disabled":false,"rental_uris":{"android":"levelo://app?vid=5dbf8eb5-61aa-4f3c-ae3e-9d25cdeafbe1","ios":"levelo://app?vid=5dbf8eb5-61aa-4f3c-ae3e-9d25cdeafbe1"},"vehicle_type_id":"4","last_reported":1727723177,"current_range_meters":8000,"station_id":"ce4bhr12rcd13ifvqhpg","pricing_plan_id":"cebpf4jnsgd1na2vs0mg"},{"bike_id":"c7e64a43-b3f0-4752-a271-b90bc7f0166a","system_id":"levelo_inurba_marseille","lat":43.27811,"lon":5.40712,"is_reserved":false,"is_disabled":false,"rental_uris":{"android":"levelo://app?vid=c7e64a43-b3f0-4752-a271-b90bc7f0166a","ios":"levelo://app?vid=c7e64a43-b3f0-4752-a271-b90bc7f0166a"},"vehicle_type_id":"4","last_reported":1727723177,"current_range_meters":8000,"station_id":"ce4bhnh2rcd13ifvqgtg","pricing_plan_id":"cebpf4jnsgd1na2vs0mg"},{"bike_id":"ada71883-4a66-4523-b9de-ac95acea5059","system_id":"levelo_inurba_marseille","lat":43.30805,"lon":5.43523,"is_reserved":false,"is_disabled":false,"rental_uris":{"android":"levelo://app?vid=ada71883-4a66-4523-b9de-ac95acea5059","ios":"levelo://app?vid=ada71883-4a66-4523-b9de-ac95acea5059"},"vehicle_type_id":"4","last_reported":1727723177,"current_range_meters":38400,"station_id":"ce4bhph2rcd13ifvqheg","pricing_plan_id":"cebpf4jnsgd1na2vs0mg"},{"bike_id":"8520b7a8-92e2-4793-9b38-e24c2197b432","system_id":"levelo_inurba_marseille","lat":43.29589,"lon":5.38107,"is_reserved":false,"is_disabled":false,"rental_uris":{"android":"levelo://app?vid=8520b7a8-92e2-4793-9b38-e24c2197b432","ios":"levelo://app?vid=8520b7a8-92e2-4793-9b38-e24c2197b432"},"vehicle_type_id":"4","last_reported":1727723177,"current_range_meters":36800,"station_id":"ce4bgl12rcd13ifvqbo0","pricing_plan_id":"cebpf4jnsgd1na2vs0mg"},{"bike_id":"5d34d44a-5657-4046-9997-746fa7323ea5","system_id":"levelo_inurba_marseille","lat":43.3255,"lon":5.41426,"is_reserved":false,"is_disabled":false,"rental_uris":{"android":"levelo://app?vid=5d34d44a-5657-4046-9997-746fa7323ea5","ios":"levelo://app?vid=5d34d44a-5657-4046-9997-746fa7323ea5"},"vehicle_type_id":"4","last_reported":1727723177,"current_range_meters":38800,"station_id":"ce4bhq12rcd13ifvqhhg","pricing_plan_id":"cebpf4jnsgd1na2vs0mg"},{"bike_id":"d4a200a5-71be-4e4f-996b-05c824b6ae83","system_id":"levelo_inurba_marseille","lat":43.28714,"lon":5.360666,"is_reserved":false,"is_disabled":false,"rental_uris":{"android":"levelo://app?vid=d4a200a5-71be-4e4f-996b-05c824b6ae83","ios":"levelo://app?vid=d4a200a5-71be-4e4f-996b-05c824b6ae83"},"vehicle_type_id":"4","last_reported":1727723177,"current_range_meters":23200,"station_id":"","pricing_plan_id":"cebpf4jnsgd1na2vs0mg"},{"bike_id":"d85cb183-3251-48b5-8bf0-47cc8058b44b","system_id":"levelo_inurba_marseille","lat":43.27986,"lon":5.41656,"is_reserved":false,"is_disabled":false,"rental_uris":{"android":"levelo://app?vid=d85cb183-3251-48b5-8bf0-47cc8058b44b","ios":"levelo://app?vid=d85cb183-3251-48b5-8bf0-47cc8058b44b"},"vehicle_type_id":"4","last_reported":1727723177,"current_range_meters":35200,"station_id":"ce4bho12rcd13ifvqh1g","pricing_plan_id":"cebpf4jnsgd1na2vs0mg"},{"bike_id":"af8a7cef-6015-4123-8849-c5746ca5df0b","system_id":"levelo_inurba_marseille","lat":43.24548,"lon":5.39527,"is_reserved":false,"is_disabled":false,"rental_uris":{"android":"levelo://app?vid=af8a7cef-6015-4123-8849-c5746ca5df0b","ios":"levelo://app?vid=af8a7cef-6015-4123-8849-c5746ca5df0b"},"vehicle_type_id":"4","last_reported":1727723177,"current_range_meters":5600,"station_id":"ce4bhlp2rcd13ifvqgjg","pricing_plan_id":"cebpf4jnsgd1na2vs0mg"},{"bike_id":"0768601a-63fc-48b6-af0b-e3c24f752213","system_id":"levelo_inurba_marseille","lat":43.33721,"lon":5.39176,"is_reserved":false,"is_disabled":false,"rental_uris":{"android":"levelo://app?vid=0768601a-63fc-48b6-af0b-e3c24f752213","ios":"levelo://app?vid=0768601a-63fc-48b6-af0b-e3c24f752213"},"vehicle_type_id":"4","last_reported":1727723177,"current_range_meters":10800,"station_id":"ce4bhr92rcd13ifvqhsg","pricing_plan_id":"cebpf4jnsgd1na2vs0mg"},{"bike_id":"618db686-91bb-4b32-9421-264f1a14d91b","system_id":"levelo_inurba_marseille","lat":43.28571,"lon":5.39498,"is_reserved":false,"is_disabled":false,"rental_uris":{"android":"levelo://app?vid=618db686-91bb-4b32-9421-264f1a14d91b","ios":"levelo://app?vid=618db686-91bb-4b32-9421-264f1a14d91b"},"vehicle_type_id":"4","last_reported":1727723177,"current_range_meters":6800,"station_id":"ce4bh292rcd13ifvqdg0","pricing_plan_id":"cebpf4jnsgd1na2vs0mg"},{"bike_id":"a84108b7-127a-47f3-90fe-b31ecb464ee7","system_id":"levelo_inurba_marseille","lat":43.27985,"lon":5.41658,"is_reserved":false,"is_disabled":false,"rental_uris":{"android":"levelo://app?vid=a84108b7-127a-47f3-90fe-b31ecb464ee7","ios":"levelo://app?vid=a84108b7-127a-47f3-90fe-b31ecb464ee7"},"vehicle_type_id":"4","last_reported":1727723177,"current_range_meters":24800,"station_id":"ce4bho12rcd13ifvqh1g","pricing_plan_id":"cebpf4jnsgd1na2vs0mg"},{"bike_id":"c1de3321-f5ad-4cdb-8c5b-39a59f3af9db","system_id":"levelo_inurba_marseille","lat":43.3054,"lon":5.38427,"is_reserved":false,"is_disabled":false,"rental_uris":{"android":"levelo://app?vid=c1de3321-f5ad-4cdb-8c5b-39a59f3af9db","ios":"levelo://app?vid=c1de3321-f5ad-4cdb-8c5b-39a59f3af9db"},"vehicle_type_id":"4","last_reported":1727723177,"current_range_meters":15200,"station_id":"ce4bgg92rcd13ifvqb30","pricing_plan_id":"cebpf4jnsgd1na2vs0mg"},{"bike_id":"b4a0b82e-1fcf-4557-aa67-bf49d229c3b0","system_id":"levelo_inurba_marseille","lat":43.3291,"lon":5.39078,"is_reserved":false,"is_disabled":false,"rental_uris":{"android":"levelo://app?vid=b4a0b82e-1fcf-4557-aa67-bf49d229c3b0","ios":"levelo://app?vid=b4a0b82e-1fcf-4557-aa67-bf49d229c3b0"},"vehicle_type_id":"4","last_reported":1727723177,"current_range_meters":31200,"station_id":"","pricing_plan_id":"cebpf4jnsgd1na2vs0mg"},{"bike_id":"c3611e95-71ff-4e18-9470-b2bc9ff74989","system_id":"levelo_inurba_marseille","lat":43.264965,"lon":5.395382,"is_reserved":false,"is_disabled":false,"rental_uris":{"android":"levelo://app?vid=c3611e95-71ff-4e18-9470-b2bc9ff74989","ios":"levelo://app?vid=c3611e95-71ff-4e18-9470-b2bc9ff74989"},"vehicle_type_id":"4","last_reported":1727723177,"current_range_meters":23200,"station_id":"ce4bhnh2rcd13ifvqgug","pricing_plan_id":"cebpf4jnsgd1na2vs0mg"},{"bike_id":"7e651a3d-f79f-4862-92b0-03ff404302b2","system_id":"levelo_inurba_marseille","lat":43.27899,"lon":5.37993,"is_reserved":false,"is_disabled":false,"rental_uris":{"android":"levelo://app?vid=7e651a3d-f79f-4862-92b0-03ff404302b2","ios":"levelo://app?vid=7e651a3d-f79f-4862-92b0-03ff404302b2"},"vehicle_type_id":"4","last_reported":1727723177,"current_range_meters":38800,"station_id":"ce4bhf92rcd13ifvqf50","pricing_plan_id":"cebpf4jnsgd1na2vs0mg"},{"bike_id":"ed54aa23-e0ca-4b2a-a408-ff128af2b2ab","system_id":"levelo_inurba_marseille","lat":43.28423,"lon":5.34992,"is_reserved":false,"is_disabled":false,"rental_uris":{"android":"levelo://app?vid=ed54aa23-e0ca-4b2a-a408-ff128af2b2ab","ios":"levelo://app?vid=ed54aa23-e0ca-4b2a-a408-ff128af2b2ab"},"vehicle_type_id":"4","last_reported":1727723177,"current_range_meters":34000,"station_id":"ce4bhbh2rcd13ifvqepg","pricing_plan_id":"cebpf4jnsgd1na2vs0mg"},{"bike_id":"fd3d4aeb-070c-417a-9d53-991cbf630224","system_id":"levelo_inurba_marseille","lat":43.28971,"lon":5.37831,"is_reserved":false,"is_disabled":false,"rental_uris":{"android":"levelo://app?vid=fd3d4aeb-070c-417a-9d53-991cbf630224","ios":"levelo://app?vid=fd3d4aeb-070c-417a-9d53-991cbf630224"},"vehicle_type_id":"4","last_reported":1727723177,"current_range_meters":38800,"station_id":"ce4bh9p2rcd13ifvqed0","pricing_plan_id":"cebpf4jnsgd1na2vs0mg"},{"bike_id":"ba60c2fc-bffd-4998-baf7-69c030125203","system_id":"levelo_inurba_marseille","lat":43.31699,"lon":5.40475,"is_reserved":false,"is_disabled":false,"rental_uris":{"android":"levelo://app?vid=ba60c2fc-bffd-4998-baf7-69c030125203","ios":"levelo://app?vid=ba60c2fc-bffd-4998-baf7-69c030125203"},"vehicle_type_id":"4","last_reported":1727723177,"current_range_meters":8400,"station_id":"ce4bh012rcd13ifvqd00","pricing_plan_id":"cebpf4jnsgd1na2vs0mg"},{"bike_id":"3676e15b-53a7-4cf0-9f3c-12b560d34f31","system_id":"levelo_inurba_marseille","lat":43.29423,"lon":5.38621,"is_reserved":false,"is_disabled":false,"rental_uris":{"android":"levelo://app?vid=3676e15b-53a7-4cf0-9f3c-12b560d34f31","ios":"levelo://app?vid=3676e15b-53a7-4cf0-9f3c-12b560d34f31"},"vehicle_type_id":"4","last_reported":1727723177,"current_range_meters":22800,"station_id":"ce4bh2h2rcd13ifvqdh0","pricing_plan_id":"cebpf4jnsgd1na2vs0mg"},{"bike_id":"252eed4b-d9b5-40ca-a9a7-2425c5c96f31","system_id":"levelo_inurba_marseille","lat":43.28455,"lon":5.35895,"is_reserved":false,"is_disabled":false,"rental_uris":{"android":"levelo://app?vid=252eed4b-d9b5-40ca-a9a7-2425c5c96f31","ios":"levelo://app?vid=252eed4b-d9b5-40ca-a9a7-2425c5c96f31"},"vehicle_type_id":"4","last_reported":1727723177,"current_range_meters":33200,"station_id":"ce4bhah2rcd13ifvqei0","pricing_plan_id":"cebpf4jnsgd1na2vs0mg"},{"bike_id":"8ea13cde-51fb-4987-8fdb-e7aea384b773","system_id":"levelo_inurba_marseille","lat":43.3171,"lon":5.43711,"is_reserved":false,"is_disabled":false,"rental_uris":{"android":"levelo://app?vid=8ea13cde-51fb-4987-8fdb-e7aea384b773","ios":"levelo://app?vid=8ea13cde-51fb-4987-8fdb-e7aea384b773"},"vehicle_type_id":"4","last_reported":1727723177,"current_range_meters":22800,"station_id":"ce4bhp92rcd13ifvqhcg","pricing_plan_id":"cebpf4jnsgd1na2vs0mg"},{"bike_id":"409906b2-b4ca-457a-b8c9-259b18ebe954","system_id":"levelo_inurba_marseille","lat":43.31071,"lon":5.38346,"is_reserved":false,"is_disabled":false,"rental_uris":{"android":"levelo://app?vid=409906b2-b4ca-457a-b8c9-259b18ebe954","ios":"levelo://app?vid=409906b2-b4ca-457a-b8c9-259b18ebe954"},"vehicle_type_id":"4","last_reported":1727723177,"current_range_meters":38800,"station_id":"ce4bgv92rcd13ifvqcr0","pricing_plan_id":"cebpf4jnsgd1na2vs0mg"},{"bike_id":"1c17413a-c247-4fb1-b712-859ea3128f7c","system_id":"levelo_inurba_marseille","lat":43.28707,"lon":5.39989,"is_reserved":false,"is_disabled":false,"rental_uris":{"android":"levelo://app?vid=1c17413a-c247-4fb1-b712-859ea3128f7c","ios":"levelo://app?vid=1c17413a-c247-4fb1-b712-859ea3128f7c"},"vehicle_type_id":"4","last_reported":1727723177,"current_range_meters":39200,"station_id":"ce4bho92rcd13ifvqh3g","pricing_plan_id":"cebpf4jnsgd1na2vs0mg"},{"bike_id":"c003d568-5856-4726-b7bc-69c839a505b2","system_id":"levelo_inurba_marseille","lat":43.29511,"lon":5.39054,"is_reserved":false,"is_disabled":false,"rental_uris":{"android":"levelo://app?vid=c003d568-5856-4726-b7bc-69c839a505b2","ios":"levelo://app?vid=c003d568-5856-4726-b7bc-69c839a505b2"},"vehicle_type_id":"4","last_reported":1727723177,"current_range_meters":15200,"station_id":"ce4bh3p2rcd13ifvqdp0","pricing_plan_id":"cebpf4jnsgd1na2vs0mg"},{"bike_id":"7ca9a03e-5469-4981-b42c-d69f72ea598c","system_id":"levelo_inurba_marseille","lat":43.29775,"lon":5.39342,"is_reserved":false,"is_disabled":false,"rental_uris":{"android":"levelo://app?vid=7ca9a03e-5469-4981-b42c-d69f72ea598c","ios":"levelo://app?vid=7ca9a03e-5469-4981-b42c-d69f72ea598c"},"vehicle_type_id":"4","last_reported":1727723177,"current_range_meters":36000,"station_id":"chh1huq6cuj3fo74tm60","pricing_plan_id":"cebpf4jnsgd1na2vs0mg"},{"bike_id":"b5d12c42-07bc-4fb6-847a-db804002b50a","system_id":"levelo_inurba_marseille","lat":43.31272,"lon":5.40181,"is_reserved":false,"is_disabled":false,"rental_uris":{"android":"levelo://app?vid=b5d12c42-07bc-4fb6-847a-db804002b50a","ios":"levelo://app?vid=b5d12c42-07bc-4fb6-847a-db804002b50a"},"vehicle_type_id":"4","last_reported":1727723177,"current_range_meters":29600,"station_id":"ce4bh092rcd13ifvqd30","pricing_plan_id":"cebpf4jnsgd1na2vs0mg"},{"bike_id":"adf7a01d-ac11-418a-b84d-2fd8ee25364e","system_id":"levelo_inurba_marseille","lat":43.29248,"lon":5.40908,"is_reserved":false,"is_disabled":false,"rental_uris":{"android":"levelo://app?vid=adf7a01d-ac11-418a-b84d-2fd8ee25364e","ios":"levelo://app?vid=adf7a01d-ac11-418a-b84d-2fd8ee25364e"},"vehicle_type_id":"4","last_reported":1727723177,"current_range_meters":24400,"station_id":"ce4bh192rcd13ifvqdc0","pricing_plan_id":"cebpf4jnsgd1na2vs0mg"},{"bike_id":"ff3321d0-5940-42b8-9fd8-ad85ac490d4e","system_id":"levelo_inurba_marseille","lat":43.26558,"lon":5.37285,"is_reserved":false,"is_disabled":false,"rental_uris":{"android":"levelo://app?vid=ff3321d0-5940-42b8-9fd8-ad85ac490d4e","ios":"levelo://app?vid=ff3321d0-5940-42b8-9fd8-ad85ac490d4e"},"vehicle_type_id":"4","last_reported":1727723177,"current_range_meters":17200,"station_id":"ce4bhg12rcd13ifvqf70","pricing_plan_id":"cebpf4jnsgd1na2vs0mg"},{"bike_id":"67d7b5fd-d8f8-49fb-9600-b6ed1313804a","system_id":"levelo_inurba_marseille","lat":43.29299,"lon":5.3746,"is_reserved":false,"is_disabled":false,"rental_uris":{"android":"levelo://app?vid=67d7b5fd-d8f8-49fb-9600-b6ed1313804a","ios":"levelo://app?vid=67d7b5fd-d8f8-49fb-9600-b6ed1313804a"},"vehicle_type_id":"4","last_reported":1727723177,"current_range_meters":6400,"station_id":"ce4bgi12rcd13ifvqb70","pricing_plan_id":"cebpf4jnsgd1na2vs0mg"},{"bike_id":"0c5c1d49-6bc4-4aef-b7dc-fe96a79fb417","system_id":"levelo_inurba_marseille","lat":43.28461,"lon":5.35886,"is_reserved":false,"is_disabled":false,"rental_uris":{"android":"levelo://app?vid=0c5c1d49-6bc4-4aef-b7dc-fe96a79fb417","ios":"levelo://app?vid=0c5c1d49-6bc4-4aef-b7dc-fe96a79fb417"},"vehicle_type_id":"4","last_reported":1727723177,"current_range_meters":4800,"station_id":"ce4bhah2rcd13ifvqei0","pricing_plan_id":"cebpf4jnsgd1na2vs0mg"},{"bike_id":"7236872f-caac-4e50-ab19-53983c656912","system_id":"levelo_inurba_marseille","lat":43.3088,"lon":5.3966,"is_reserved":false,"is_disabled":false,"rental_uris":{"android":"levelo://app?vid=7236872f-caac-4e50-ab19-53983c656912","ios":"levelo://app?vid=7236872f-caac-4e50-ab19-53983c656912"},"vehicle_type_id":"4","last_reported":1727723177,"current_range_meters":10000,"station_id":"ce4bh012rcd13ifvqcv0","pricing_plan_id":"cebpf4jnsgd1na2vs0mg"},{"bike_id":"b8497721-1d82-44b3-b115-752539789144","system_id":"levelo_inurba_marseille","lat":43.29045,"lon":5.37572,"is_reserved":false,"is_disabled":false,"rental_uris":{"android":"levelo://app?vid=b8497721-1d82-44b3-b115-752539789144","ios":"levelo://app?vid=b8497721-1d82-44b3-b115-752539789144"},"vehicle_type_id":"4","last_reported":1727723177,"current_range_meters":9600,"station_id":"ce4bh692rcd13ifvqe90","pricing_plan_id":"cebpf4jnsgd1na2vs0mg"},{"bike_id":"db34d7e9-2df0-47f8-9e6c-32164f904928","system_id":"levelo_inurba_marseille","lat":43.29512,"lon":5.39403,"is_reserved":false,"is_disabled":false,"rental_uris":{"android":"levelo://app?vid=db34d7e9-2df0-47f8-9e6c-32164f904928","ios":"levelo://app?vid=db34d7e9-2df0-47f8-9e6c-32164f904928"},"vehicle_type_id":"4","last_reported":1727723177,"current_range_meters":26800,"station_id":"ce4bh292rcd13ifvqdf0","pricing_plan_id":"cebpf4jnsgd1na2vs0mg"},{"bike_id":"ee4b0160-15c4-4141-9c7a-16e047c14938","system_id":"levelo_inurba_marseille","lat":43.3141,"lon":5.38196,"is_reserved":false,"is_disabled":false,"rental_uris":{"android":"levelo://app?vid=ee4b0160-15c4-4141-9c7a-16e047c14938","ios":"levelo://app?vid=ee4b0160-15c4-4141-9c7a-16e047c14938"},"vehicle_type_id":"4","last_reported":1727723177,"current_range_meters":19200,"station_id":"","pricing_plan_id":"cebpf4jnsgd1na2vs0mg"},{"bike_id":"d995d233-d2fe-4db9-b69b-baa1337469bf","system_id":"levelo_inurba_marseille","lat":43.26719,"lon":5.40137,"is_reserved":false,"is_disabled":false,"rental_uris":{"android":"levelo://app?vid=d995d233-d2fe-4db9-b69b-baa1337469bf","ios":"levelo://app?vid=d995d233-d2fe-4db9-b69b-baa1337469bf"},"vehicle_type_id":"4","last_reported":1727723177,"current_range_meters":17200,"station_id":"ce4bhm92rcd13ifvqglg","pricing_plan_id":"cebpf4jnsgd1na2vs0mg"},{"bike_id":"2dcb04b6-a54e-4abd-a7e5-50e715bd8a75","system_id":"levelo_inurba_marseille","lat":43.26962,"lon":5.38637,"is_reserved":false,"is_disabled":false,"rental_uris":{"android":"levelo://app?vid=2dcb04b6-a54e-4abd-a7e5-50e715bd8a75","ios":"levelo://app?vid=2dcb04b6-a54e-4abd-a7e5-50e715bd8a75"},"vehicle_type_id":"4","last_reported":1727723177,"current_range_meters":38800,"station_id":"ce4bhh92rcd13ifvqfh0","pricing_plan_id":"cebpf4jnsgd1na2vs0mg"},{"bike_id":"7efd4502-9028-4534-8a5a-b236283648c9","system_id":"levelo_inurba_marseille","lat":43.31755,"lon":5.39009,"is_reserved":false,"is_disabled":false,"rental_uris":{"android":"levelo://app?vid=7efd4502-9028-4534-8a5a-b236283648c9","ios":"levelo://app?vid=7efd4502-9028-4534-8a5a-b236283648c9"},"vehicle_type_id":"4","last_reported":1727723177,"current_range_meters":39200,"station_id":"ce4bhqp2rcd13ifvqhng","pricing_plan_id":"cebpf4jnsgd1na2vs0mg"},{"bike_id":"a1a3100c-d05b-477b-8d0d-ef6e33b308d6","system_id":"levelo_inurba_marseille","lat":43.29027,"lon":5.38137,"is_reserved":false,"is_disabled":false,"rental_uris":{"android":"levelo://app?vid=a1a3100c-d05b-477b-8d0d-ef6e33b308d6","ios":"levelo://app?vid=a1a3100c-d05b-477b-8d0d-ef6e33b308d6"},"vehicle_type_id":"4","last_reported":1727723177,"current_range_meters":17200,"station_id":"ce4bh4p2rcd13ifvqe1g","pricing_plan_id":"cebpf4jnsgd1na2vs0mg"},{"bike_id":"11177cfa-2f4f-4a0e-b4d1-daf8a3d9ea88","system_id":"levelo_inurba_marseille","lat":43.31067,"lon":5.38355,"is_reserved":false,"is_disabled":false,"rental_uris":{"android":"levelo://app?vid=11177cfa-2f4f-4a0e-b4d1-daf8a3d9ea88","ios":"levelo://app?vid=11177cfa-2f4f-4a0e-b4d1-daf8a3d9ea88"},"vehicle_type_id":"4","last_reported":1727723177,"current_range_meters":38800,"station_id":"ce4bgv92rcd13ifvqcr0","pricing_plan_id":"cebpf4jnsgd1na2vs0mg"},{"bike_id":"759dee75-95a1-4eb7-8887-ad5165a2e154","system_id":"levelo_inurba_marseille","lat":43.28349,"lon":5.38101,"is_reserved":false,"is_disabled":false,"rental_uris":{"android":"levelo://app?vid=759dee75-95a1-4eb7-8887-ad5165a2e154","ios":"levelo://app?vid=759dee75-95a1-4eb7-8887-ad5165a2e154"},"vehicle_type_id":"4","last_reported":1727723177,"current_range_meters":38400,"station_id":"ce4bh412rcd13ifvqdr0","pricing_plan_id":"cebpf4jnsgd1na2vs0mg"},{"bike_id":"bc624d40-7c7a-4d50-b712-8f06758e5f56","system_id":"levelo_inurba_marseille","lat":43.28267,"lon":5.3507,"is_reserved":false,"is_disabled":false,"rental_uris":{"android":"levelo://app?vid=bc624d40-7c7a-4d50-b712-8f06758e5f56","ios":"levelo://app?vid=bc624d40-7c7a-4d50-b712-8f06758e5f56"},"vehicle_type_id":"4","last_reported":1727723177,"current_range_meters":25600,"station_id":"ce4bhbp2rcd13ifvqerg","pricing_plan_id":"cebpf4jnsgd1na2vs0mg"},{"bike_id":"9535a422-21bd-4d3b-82ec-0ddd79cceaee","system_id":"levelo_inurba_marseille","lat":43.24479,"lon":5.37256,"is_reserved":false,"is_disabled":false,"rental_uris":{"android":"levelo://app?vid=9535a422-21bd-4d3b-82ec-0ddd79cceaee","ios":"levelo://app?vid=9535a422-21bd-4d3b-82ec-0ddd79cceaee"},"vehicle_type_id":"4","last_reported":1727723177,"current_range_meters":12800,"station_id":"","pricing_plan_id":"cebpf4jnsgd1na2vs0mg"},{"bike_id":"f867d143-4fdd-42c9-b6c9-c56eb3e9a4ad","system_id":"levelo_inurba_marseille","lat":43.30303,"lon":5.39211,"is_reserved":false,"is_disabled":false,"rental_uris":{"android":"levelo://app?vid=f867d143-4fdd-42c9-b6c9-c56eb3e9a4ad","ios":"levelo://app?vid=f867d143-4fdd-42c9-b6c9-c56eb3e9a4ad"},"vehicle_type_id":"4","last_reported":1727723177,"current_range_meters":21600,"station_id":"ce4bgkh2rcd13ifvqbk0","pricing_plan_id":"cebpf4jnsgd1na2vs0mg"},{"bike_id":"cb1a149b-001c-4af8-80d6-ad104abb737a","system_id":"levelo_inurba_marseille","lat":43.29189,"lon":5.39313,"is_reserved":false,"is_disabled":false,"rental_uris":{"android":"levelo://app?vid=cb1a149b-001c-4af8-80d6-ad104abb737a","ios":"levelo://app?vid=cb1a149b-001c-4af8-80d6-ad104abb737a"},"vehicle_type_id":"4","last_reported":1727723177,"current_range_meters":38800,"station_id":"ce4bh192rcd13ifvqdd0","pricing_plan_id":"cebpf4jnsgd1na2vs0mg"},{"bike_id":"501061ae-0e07-408f-ba4d-5e9df87b6299","system_id":"levelo_inurba_marseille","lat":43.27073,"lon":5.42282,"is_reserved":false,"is_disabled":false,"rental_uris":{"android":"levelo://app?vid=501061ae-0e07-408f-ba4d-5e9df87b6299","ios":"levelo://app?vid=501061ae-0e07-408f-ba4d-5e9df87b6299"},"vehicle_type_id":"4","last_reported":1727723177,"current_range_meters":25200,"station_id":"ce4bhk92rcd13ifvqgb0","pricing_plan_id":"cebpf4jnsgd1na2vs0mg"},{"bike_id":"6ae36a09-d271-405d-8f77-77b2da3619fa","system_id":"levelo_inurba_marseille","lat":43.27377,"lon":5.42434,"is_reserved":false,"is_disabled":false,"rental_uris":{"android":"levelo://app?vid=6ae36a09-d271-405d-8f77-77b2da3619fa","ios":"levelo://app?vid=6ae36a09-d271-405d-8f77-77b2da3619fa"},"vehicle_type_id":"4","last_reported":1727723177,"current_range_meters":36800,"station_id":"","pricing_plan_id":"cebpf4jnsgd1na2vs0mg"},{"bike_id":"3a42a6e4-0a92-438f-b76b-a969ec79faec","system_id":"levelo_inurba_marseille","lat":43.28376,"lon":5.37289,"is_reserved":false,"is_disabled":false,"rental_uris":{"android":"levelo://app?vid=3a42a6e4-0a92-438f-b76b-a969ec79faec","ios":"levelo://app?vid=3a42a6e4-0a92-438f-b76b-a969ec79faec"},"vehicle_type_id":"4","last_reported":1727723177,"current_range_meters":3200,"station_id":"","pricing_plan_id":"cebpf4jnsgd1na2vs0mg"},{"bike_id":"ce865a1a-6d84-4642-b6a8-718ff5f00af0","system_id":"levelo_inurba_marseille","lat":43.28458,"lon":5.35896,"is_reserved":false,"is_disabled":false,"rental_uris":{"android":"levelo://app?vid=ce865a1a-6d84-4642-b6a8-718ff5f00af0","ios":"levelo://app?vid=ce865a1a-6d84-4642-b6a8-718ff5f00af0"},"vehicle_type_id":"4","last_reported":1727723177,"current_range_meters":38800,"station_id":"ce4bhah2rcd13ifvqei0","pricing_plan_id":"cebpf4jnsgd1na2vs0mg"},{"bike_id":"58c80386-1b10-47c2-9e43-d93d2df59b10","system_id":"levelo_inurba_marseille","lat":43.3021,"lon":5.39465,"is_reserved":false,"is_disabled":false,"rental_uris":{"android":"levelo://app?vid=58c80386-1b10-47c2-9e43-d93d2df59b10","ios":"levelo://app?vid=58c80386-1b10-47c2-9e43-d93d2df59b10"},"vehicle_type_id":"4","last_reported":1727723177,"current_range_meters":38800,"station_id":"ce4bh0p2rcd13ifvqd70","pricing_plan_id":"cebpf4jnsgd1na2vs0mg"},{"bike_id":"ddaaf91d-bac8-4083-8979-b1cac16bf2f7","system_id":"levelo_inurba_marseille","lat":43.2892,"lon":5.38398,"is_reserved":false,"is_disabled":false,"rental_uris":{"android":"levelo://app?vid=ddaaf91d-bac8-4083-8979-b1cac16bf2f7","ios":"levelo://app?vid=ddaaf91d-bac8-4083-8979-b1cac16bf2f7"},"vehicle_type_id":"4","last_reported":1727723177,"current_range_meters":9600,"station_id":"ce4bh612rcd13ifvqe6g","pricing_plan_id":"cebpf4jnsgd1na2vs0mg"},{"bike_id":"f36af4c6-b048-48f1-acc4-3fdd909df478","system_id":"levelo_inurba_marseille","lat":43.30633,"lon":5.40095,"is_reserved":false,"is_disabled":false,"rental_uris":{"android":"levelo://app?vid=f36af4c6-b048-48f1-acc4-3fdd909df478","ios":"levelo://app?vid=f36af4c6-b048-48f1-acc4-3fdd909df478"},"vehicle_type_id":"4","last_reported":1727723177,"current_range_meters":6000,"station_id":"ce4bh112rcd13ifvqda0","pricing_plan_id":"cebpf4jnsgd1na2vs0mg"},{"bike_id":"54a4bd7d-3cdd-4d4c-ba96-ba66a161311d","system_id":"levelo_inurba_marseille","lat":43.33027,"lon":5.39385,"is_reserved":false,"is_disabled":false,"rental_uris":{"android":"levelo://app?vid=54a4bd7d-3cdd-4d4c-ba96-ba66a161311d","ios":"levelo://app?vid=54a4bd7d-3cdd-4d4c-ba96-ba66a161311d"},"vehicle_type_id":"4","last_reported":1727723177,"current_range_meters":35200,"station_id":"","pricing_plan_id":"cebpf4jnsgd1na2vs0mg"},{"bike_id":"88bc6409-e51c-4b9c-88b5-3d3c5c3a5cf0","system_id":"levelo_inurba_marseille","lat":43.28464,"lon":5.359,"is_reserved":false,"is_disabled":false,"rental_uris":{"android":"levelo://app?vid=88bc6409-e51c-4b9c-88b5-3d3c5c3a5cf0","ios":"levelo://app?vid=88bc6409-e51c-4b9c-88b5-3d3c5c3a5cf0"},"vehicle_type_id":"4","last_reported":1727723177,"current_range_meters":34000,"station_id":"ce4bhah2rcd13ifvqei0","pricing_plan_id":"cebpf4jnsgd1na2vs0mg"},{"bike_id":"277a0b50-6632-43ea-8256-8c1652c4cb2c","system_id":"levelo_inurba_marseille","lat":43.2893,"lon":5.38391,"is_reserved":false,"is_disabled":false,"rental_uris":{"android":"levelo://app?vid=277a0b50-6632-43ea-8256-8c1652c4cb2c","ios":"levelo://app?vid=277a0b50-6632-43ea-8256-8c1652c4cb2c"},"vehicle_type_id":"4","last_reported":1727723177,"current_range_meters":37600,"station_id":"ce4bh612rcd13ifvqe6g","pricing_plan_id":"cebpf4jnsgd1na2vs0mg"},{"bike_id":"affbfaba-ff0a-4e7e-bf3b-9035d01351fb","system_id":"levelo_inurba_marseille","lat":43.28932,"lon":5.36634,"is_reserved":false,"is_disabled":false,"rental_uris":{"android":"levelo://app?vid=affbfaba-ff0a-4e7e-bf3b-9035d01351fb","ios":"levelo://app?vid=affbfaba-ff0a-4e7e-bf3b-9035d01351fb"},"vehicle_type_id":"4","last_reported":1727723177,"current_range_meters":38800,"station_id":"ce4bhap2rcd13ifvqek0","pricing_plan_id":"cebpf4jnsgd1na2vs0mg"},{"bike_id":"b65e26fd-4436-42b6-869d-ffed6ad30e88","system_id":"levelo_inurba_marseille","lat":43.32364,"lon":5.38884,"is_reserved":false,"is_disabled":false,"rental_uris":{"android":"levelo://app?vid=b65e26fd-4436-42b6-869d-ffed6ad30e88","ios":"levelo://app?vid=b65e26fd-4436-42b6-869d-ffed6ad30e88"},"vehicle_type_id":"4","last_reported":1727723177,"current_range_meters":18000,"station_id":"ce4bhqp2rcd13ifvqhog","pricing_plan_id":"cebpf4jnsgd1na2vs0mg"},{"bike_id":"ed559e32-6194-4ff7-a1fd-e4dfd37c9e8f","system_id":"levelo_inurba_marseille","lat":43.27381,"lon":5.36266,"is_reserved":false,"is_disabled":false,"rental_uris":{"android":"levelo://app?vid=ed559e32-6194-4ff7-a1fd-e4dfd37c9e8f","ios":"levelo://app?vid=ed559e32-6194-4ff7-a1fd-e4dfd37c9e8f"},"vehicle_type_id":"4","last_reported":1727723177,"current_range_meters":0,"station_id":"ce4bhbh2rcd13ifvqeo0","pricing_plan_id":"cebpf4jnsgd1na2vs0mg"},{"bike_id":"72b93bd6-6809-4418-893c-091519005eb1","system_id":"levelo_inurba_marseille","lat":43.28013,"lon":5.40036,"is_reserved":false,"is_disabled":false,"rental_uris":{"android":"levelo://app?vid=72b93bd6-6809-4418-893c-091519005eb1","ios":"levelo://app?vid=72b93bd6-6809-4418-893c-091519005eb1"},"vehicle_type_id":"4","last_reported":1727723177,"current_range_meters":8400,"station_id":"ce4bho92rcd13ifvqh4g","pricing_plan_id":"cebpf4jnsgd1na2vs0mg"},{"bike_id":"b2ed743b-9626-4bd4-a2a2-56f383be1759","system_id":"levelo_inurba_marseille","lat":43.29552,"lon":5.42289,"is_reserved":false,"is_disabled":false,"rental_uris":{"android":"levelo://app?vid=b2ed743b-9626-4bd4-a2a2-56f383be1759","ios":"levelo://app?vid=b2ed743b-9626-4bd4-a2a2-56f383be1759"},"vehicle_type_id":"4","last_reported":1727723177,"current_range_meters":16400,"station_id":"ce4bhph2rcd13ifvqhdg","pricing_plan_id":"cebpf4jnsgd1na2vs0mg"},{"bike_id":"3cfae534-dc79-4029-b01a-67a2920e1458","system_id":"levelo_inurba_marseille","lat":43.29308,"lon":5.37181,"is_reserved":false,"is_disabled":false,"rental_uris":{"android":"levelo://app?vid=3cfae534-dc79-4029-b01a-67a2920e1458","ios":"levelo://app?vid=3cfae534-dc79-4029-b01a-67a2920e1458"},"vehicle_type_id":"4","last_reported":1727723177,"current_range_meters":38800,"station_id":"ce4bgh92rcd13ifvqb40","pricing_plan_id":"cebpf4jnsgd1na2vs0mg"},{"bike_id":"68ac272f-b425-414c-aa0a-3236f4cbf0e9","system_id":"levelo_inurba_marseille","lat":43.29915,"lon":5.3746,"is_reserved":false,"is_disabled":false,"rental_uris":{"android":"levelo://app?vid=68ac272f-b425-414c-aa0a-3236f4cbf0e9","ios":"levelo://app?vid=68ac272f-b425-414c-aa0a-3236f4cbf0e9"},"vehicle_type_id":"4","last_reported":1727723177,"current_range_meters":20400,"station_id":"ce4bgjh2rcd13ifvqbg0","pricing_plan_id":"cebpf4jnsgd1na2vs0mg"},{"bike_id":"1f1a32c1-a937-4ed9-a8eb-60011d6dc02a","system_id":"levelo_inurba_marseille","lat":43.29019,"lon":5.37575,"is_reserved":false,"is_disabled":false,"rental_uris":{"android":"levelo://app?vid=1f1a32c1-a937-4ed9-a8eb-60011d6dc02a","ios":"levelo://app?vid=1f1a32c1-a937-4ed9-a8eb-60011d6dc02a"},"vehicle_type_id":"4","last_reported":1727723177,"current_range_meters":16800,"station_id":"ce4bh692rcd13ifvqe90","pricing_plan_id":"cebpf4jnsgd1na2vs0mg"},{"bike_id":"310586a2-3827-41b0-860f-34a70ac9e7f4","system_id":"levelo_inurba_marseille","lat":43.29896,"lon":5.43668,"is_reserved":false,"is_disabled":false,"rental_uris":{"android":"levelo://app?vid=310586a2-3827-41b0-860f-34a70ac9e7f4","ios":"levelo://app?vid=310586a2-3827-41b0-860f-34a70ac9e7f4"},"vehicle_type_id":"4","last_reported":1727723177,"current_range_meters":20800,"station_id":"ce4bhpp2rcd13ifvqhfg","pricing_plan_id":"cebpf4jnsgd1na2vs0mg"},{"bike_id":"ccf3e361-ae62-4ac7-a2f5-2370c2e92f74","system_id":"levelo_inurba_marseille","lat":43.26059,"lon":5.39398,"is_reserved":false,"is_disabled":false,"rental_uris":{"android":"levelo://app?vid=ccf3e361-ae62-4ac7-a2f5-2370c2e92f74","ios":"levelo://app?vid=ccf3e361-ae62-4ac7-a2f5-2370c2e92f74"},"vehicle_type_id":"4","last_reported":1727723177,"current_range_meters":36400,"station_id":"ce4bhh92rcd13ifvqfj0","pricing_plan_id":"cebpf4jnsgd1na2vs0mg"},{"bike_id":"18354a97-2a1f-47bd-b525-a3d682496f94","system_id":"levelo_inurba_marseille","lat":43.28006,"lon":5.40016,"is_reserved":false,"is_disabled":false,"rental_uris":{"android":"levelo://app?vid=18354a97-2a1f-47bd-b525-a3d682496f94","ios":"levelo://app?vid=18354a97-2a1f-47bd-b525-a3d682496f94"},"vehicle_type_id":"4","last_reported":1727723177,"current_range_meters":8800,"station_id":"ce4bho92rcd13ifvqh4g","pricing_plan_id":"cebpf4jnsgd1na2vs0mg"},{"bike_id":"460ff93a-bc15-438b-8d30-bb576d633faf","system_id":"levelo_inurba_marseille","lat":43.32347,"lon":5.38327,"is_reserved":false,"is_disabled":false,"rental_uris":{"android":"levelo://app?vid=460ff93a-bc15-438b-8d30-bb576d633faf","ios":"levelo://app?vid=460ff93a-bc15-438b-8d30-bb576d633faf"},"vehicle_type_id":"4","last_reported":1727723177,"current_range_meters":27600,"station_id":"","pricing_plan_id":"cebpf4jnsgd1na2vs0mg"},{"bike_id":"378ba320-ac32-4abf-8e49-d3a4d70036ab","system_id":"levelo_inurba_marseille","lat":43.317543,"lon":5.39014,"is_reserved":false,"is_disabled":false,"rental_uris":{"android":"levelo://app?vid=378ba320-ac32-4abf-8e49-d3a4d70036ab","ios":"levelo://app?vid=378ba320-ac32-4abf-8e49-d3a4d70036ab"},"vehicle_type_id":"4","last_reported":1727723177,"current_range_meters":38800,"station_id":"ce4bhqp2rcd13ifvqhng","pricing_plan_id":"cebpf4jnsgd1na2vs0mg"},{"bike_id":"ccf9de99-62e1-4570-b524-ac66f861159b","system_id":"levelo_inurba_marseille","lat":43.29927,"lon":5.36561,"is_reserved":false,"is_disabled":false,"rental_uris":{"android":"levelo://app?vid=ccf9de99-62e1-4570-b524-ac66f861159b","ios":"levelo://app?vid=ccf9de99-62e1-4570-b524-ac66f861159b"},"vehicle_type_id":"4","last_reported":1727723177,"current_range_meters":18800,"station_id":"ce4bgm92rcd13ifvqbr0","pricing_plan_id":"cebpf4jnsgd1na2vs0mg"},{"bike_id":"ba1633a0-e81d-4e74-99c5-7a2d1de1662c","system_id":"levelo_inurba_marseille","lat":43.29031,"lon":5.38638,"is_reserved":false,"is_disabled":false,"rental_uris":{"android":"levelo://app?vid=ba1633a0-e81d-4e74-99c5-7a2d1de1662c","ios":"levelo://app?vid=ba1633a0-e81d-4e74-99c5-7a2d1de1662c"},"vehicle_type_id":"4","last_reported":1727723177,"current_range_meters":12000,"station_id":"ce4bh4p2rcd13ifvqe0g","pricing_plan_id":"cebpf4jnsgd1na2vs0mg"},{"bike_id":"90064879-c2cf-48b9-bb95-354f753647c0","system_id":"levelo_inurba_marseille","lat":43.29282,"lon":5.40126,"is_reserved":false,"is_disabled":false,"rental_uris":{"android":"levelo://app?vid=90064879-c2cf-48b9-bb95-354f753647c0","ios":"levelo://app?vid=90064879-c2cf-48b9-bb95-354f753647c0"},"vehicle_type_id":"4","last_reported":1727723177,"current_range_meters":39200,"station_id":"ce4bh312rcd13ifvqdk0","pricing_plan_id":"cebpf4jnsgd1na2vs0mg"},{"bike_id":"9814c050-bdd5-4d80-921f-5a2fcbdcd30b","system_id":"levelo_inurba_marseille","lat":43.29414,"lon":5.38627,"is_reserved":false,"is_disabled":false,"rental_uris":{"android":"levelo://app?vid=9814c050-bdd5-4d80-921f-5a2fcbdcd30b","ios":"levelo://app?vid=9814c050-bdd5-4d80-921f-5a2fcbdcd30b"},"vehicle_type_id":"4","last_reported":1727723177,"current_range_meters":32000,"station_id":"ce4bh2h2rcd13ifvqdh0","pricing_plan_id":"cebpf4jnsgd1na2vs0mg"},{"bike_id":"c1608362-5955-43e9-b984-3a5bcc83b48e","system_id":"levelo_inurba_marseille","lat":43.30211,"lon":5.39469,"is_reserved":false,"is_disabled":false,"rental_uris":{"android":"levelo://app?vid=c1608362-5955-43e9-b984-3a5bcc83b48e","ios":"levelo://app?vid=c1608362-5955-43e9-b984-3a5bcc83b48e"},"vehicle_type_id":"4","last_reported":1727723177,"current_range_meters":8000,"station_id":"ce4bh0p2rcd13ifvqd70","pricing_plan_id":"cebpf4jnsgd1na2vs0mg"},{"bike_id":"d354de6e-09c2-44ea-a629-0b4ea5bc66ff","system_id":"levelo_inurba_marseille","lat":43.28503,"lon":5.39124,"is_reserved":false,"is_disabled":false,"rental_uris":{"android":"levelo://app?vid=d354de6e-09c2-44ea-a629-0b4ea5bc66ff","ios":"levelo://app?vid=d354de6e-09c2-44ea-a629-0b4ea5bc66ff"},"vehicle_type_id":"4","last_reported":1727723177,"current_range_meters":22400,"station_id":"ce4bh3p2rcd13ifvqdp0","pricing_plan_id":"cebpf4jnsgd1na2vs0mg"},{"bike_id":"bf31d161-a87a-4f7f-9f2e-88c28947a498","system_id":"levelo_inurba_marseille","lat":43.28713,"lon":5.37375,"is_reserved":false,"is_disabled":false,"rental_uris":{"android":"levelo://app?vid=bf31d161-a87a-4f7f-9f2e-88c28947a498","ios":"levelo://app?vid=bf31d161-a87a-4f7f-9f2e-88c28947a498"},"vehicle_type_id":"4","last_reported":1727723177,"current_range_meters":38800,"station_id":"ce4bh3p2rcd13ifvqdq0","pricing_plan_id":"cebpf4jnsgd1na2vs0mg"},{"bike_id":"2d09ffc1-d829-4e4d-8203-4b21a6d7944f","system_id":"levelo_inurba_marseille","lat":43.30324,"lon":5.40443,"is_reserved":false,"is_disabled":false,"rental_uris":{"android":"levelo://app?vid=2d09ffc1-d829-4e4d-8203-4b21a6d7944f","ios":"levelo://app?vid=2d09ffc1-d829-4e4d-8203-4b21a6d7944f"},"vehicle_type_id":"4","last_reported":1727723177,"current_range_meters":4800,"station_id":"ce4bh012rcd13ifvqd10","pricing_plan_id":"cebpf4jnsgd1na2vs0mg"},{"bike_id":"cae2320e-284c-4c83-8160-365d31bb1b33","system_id":"levelo_inurba_marseille","lat":43.27215,"lon":5.39169,"is_reserved":false,"is_disabled":false,"rental_uris":{"android":"levelo://app?vid=cae2320e-284c-4c83-8160-365d31bb1b33","ios":"levelo://app?vid=cae2320e-284c-4c83-8160-365d31bb1b33"},"vehicle_type_id":"4","last_reported":1727723177,"current_range_meters":14000,"station_id":"","pricing_plan_id":"cebpf4jnsgd1na2vs0mg"},{"bike_id":"d3329261-bcf8-4d34-a85a-51710066765c","system_id":"levelo_inurba_marseille","lat":43.31498,"lon":5.37302,"is_reserved":false,"is_disabled":false,"rental_uris":{"android":"levelo://app?vid=d3329261-bcf8-4d34-a85a-51710066765c","ios":"levelo://app?vid=d3329261-bcf8-4d34-a85a-51710066765c"},"vehicle_type_id":"4","last_reported":1727723177,"current_range_meters":9600,"station_id":"ce4bgt12rcd13ifvqcd0","pricing_plan_id":"cebpf4jnsgd1na2vs0mg"},{"bike_id":"6c4a97ef-ed56-4d85-98d9-463a709b63f3","system_id":"levelo_inurba_marseille","lat":43.24191,"lon":5.40563,"is_reserved":false,"is_disabled":false,"rental_uris":{"android":"levelo://app?vid=6c4a97ef-ed56-4d85-98d9-463a709b63f3","ios":"levelo://app?vid=6c4a97ef-ed56-4d85-98d9-463a709b63f3"},"vehicle_type_id":"4","last_reported":1727723177,"current_range_meters":24000,"station_id":"","pricing_plan_id":"cebpf4jnsgd1na2vs0mg"},{"bike_id":"ab80b424-bfc5-4709-9b95-a2bee6a56f64","system_id":"levelo_inurba_marseille","lat":43.32287,"lon":5.38263,"is_reserved":false,"is_disabled":false,"rental_uris":{"android":"levelo://app?vid=ab80b424-bfc5-4709-9b95-a2bee6a56f64","ios":"levelo://app?vid=ab80b424-bfc5-4709-9b95-a2bee6a56f64"},"vehicle_type_id":"4","last_reported":1727723177,"current_range_meters":40000,"station_id":"ce4bhr12rcd13ifvqhqg","pricing_plan_id":"cebpf4jnsgd1na2vs0mg"},{"bike_id":"419dab12-c91e-4ea9-a97e-81c571c1f692","system_id":"levelo_inurba_marseille","lat":43.2511,"lon":5.40321,"is_reserved":false,"is_disabled":false,"rental_uris":{"android":"levelo://app?vid=419dab12-c91e-4ea9-a97e-81c571c1f692","ios":"levelo://app?vid=419dab12-c91e-4ea9-a97e-81c571c1f692"},"vehicle_type_id":"4","last_reported":1727723177,"current_range_meters":39200,"station_id":"ce4bhlh2rcd13ifvqgig","pricing_plan_id":"cebpf4jnsgd1na2vs0mg"},{"bike_id":"29ec3a7d-6899-4b00-a3ef-bc6f331757cf","system_id":"levelo_inurba_marseille","lat":43.34143,"lon":5.40904,"is_reserved":false,"is_disabled":false,"rental_uris":{"android":"levelo://app?vid=29ec3a7d-6899-4b00-a3ef-bc6f331757cf","ios":"levelo://app?vid=29ec3a7d-6899-4b00-a3ef-bc6f331757cf"},"vehicle_type_id":"4","last_reported":1727723177,"current_range_meters":6400,"station_id":"ce4bhqh2rcd13ifvqhlg","pricing_plan_id":"cebpf4jnsgd1na2vs0mg"},{"bike_id":"32574831-69f3-4e4c-a6c3-d2beddab23d5","system_id":"levelo_inurba_marseille","lat":43.2938,"lon":5.37858,"is_reserved":false,"is_disabled":false,"rental_uris":{"android":"levelo://app?vid=32574831-69f3-4e4c-a6c3-d2beddab23d5","ios":"levelo://app?vid=32574831-69f3-4e4c-a6c3-d2beddab23d5"},"vehicle_type_id":"4","last_reported":1727723177,"current_range_meters":38800,"station_id":"ce4bgjh2rcd13ifvqbf0","pricing_plan_id":"cebpf4jnsgd1na2vs0mg"},{"bike_id":"f493192b-13c6-47a1-9573-739dd32e633f","system_id":"levelo_inurba_marseille","lat":43.337444,"lon":5.374475,"is_reserved":false,"is_disabled":false,"rental_uris":{"android":"levelo://app?vid=f493192b-13c6-47a1-9573-739dd32e633f","ios":"levelo://app?vid=f493192b-13c6-47a1-9573-739dd32e633f"},"vehicle_type_id":"4","last_reported":1727723177,"current_range_meters":20400,"station_id":"","pricing_plan_id":"cebpf4jnsgd1na2vs0mg"},{"bike_id":"3f979f98-2c42-4ef1-afa3-006a0e78a910","system_id":"levelo_inurba_marseille","lat":43.29195,"lon":5.3932,"is_reserved":false,"is_disabled":false,"rental_uris":{"android":"levelo://app?vid=3f979f98-2c42-4ef1-afa3-006a0e78a910","ios":"levelo://app?vid=3f979f98-2c42-4ef1-afa3-006a0e78a910"},"vehicle_type_id":"4","last_reported":1727723177,"current_range_meters":36800,"station_id":"ce4bh192rcd13ifvqdd0","pricing_plan_id":"cebpf4jnsgd1na2vs0mg"},{"bike_id":"815d75ab-59db-49f2-9d6c-a851d5f73245","system_id":"levelo_inurba_marseille","lat":43.32322,"lon":5.38286,"is_reserved":false,"is_disabled":false,"rental_uris":{"android":"levelo://app?vid=815d75ab-59db-49f2-9d6c-a851d5f73245","ios":"levelo://app?vid=815d75ab-59db-49f2-9d6c-a851d5f73245"},"vehicle_type_id":"4","last_reported":1727723177,"current_range_meters":35600,"station_id":"ce4bhr12rcd13ifvqhqg","pricing_plan_id":"cebpf4jnsgd1na2vs0mg"},{"bike_id":"ce6166ea-c4ad-4ecf-8cb6-35a2f13ea8fd","system_id":"levelo_inurba_marseille","lat":43.23951,"lon":5.36647,"is_reserved":false,"is_disabled":false,"rental_uris":{"android":"levelo://app?vid=ce6166ea-c4ad-4ecf-8cb6-35a2f13ea8fd","ios":"levelo://app?vid=ce6166ea-c4ad-4ecf-8cb6-35a2f13ea8fd"},"vehicle_type_id":"4","last_reported":1727723177,"current_range_meters":22400,"station_id":"ce4bhi12rcd13ifvqfp0","pricing_plan_id":"cebpf4jnsgd1na2vs0mg"},{"bike_id":"c82173e0-faa9-4322-af19-cde59da0834f","system_id":"levelo_inurba_marseille","lat":43.29297,"lon":5.37463,"is_reserved":false,"is_disabled":false,"rental_uris":{"android":"levelo://app?vid=c82173e0-faa9-4322-af19-cde59da0834f","ios":"levelo://app?vid=c82173e0-faa9-4322-af19-cde59da0834f"},"vehicle_type_id":"4","last_reported":1727723177,"current_range_meters":14000,"station_id":"ce4bgi12rcd13ifvqb70","pricing_plan_id":"cebpf4jnsgd1na2vs0mg"},{"bike_id":"1d9b877c-088e-4902-b9b7-db3493c69902","system_id":"levelo_inurba_marseille","lat":43.28413,"lon":5.37515,"is_reserved":false,"is_disabled":false,"rental_uris":{"android":"levelo://app?vid=1d9b877c-088e-4902-b9b7-db3493c69902","ios":"levelo://app?vid=1d9b877c-088e-4902-b9b7-db3493c69902"},"vehicle_type_id":"4","last_reported":1727723177,"current_range_meters":8000,"station_id":"ce4bh412rcd13ifvqds0","pricing_plan_id":"cebpf4jnsgd1na2vs0mg"},{"bike_id":"1300b574-6c89-48e6-ad60-10497743a05a","system_id":"levelo_inurba_marseille","lat":43.29798,"lon":5.40406,"is_reserved":false,"is_disabled":false,"rental_uris":{"android":"levelo://app?vid=1300b574-6c89-48e6-ad60-10497743a05a","ios":"levelo://app?vid=1300b574-6c89-48e6-ad60-10497743a05a"},"vehicle_type_id":"4","last_reported":1727723177,"current_range_meters":35600,"station_id":"ce4bh112rcd13ifvqd90","pricing_plan_id":"cebpf4jnsgd1na2vs0mg"},{"bike_id":"96227c43-3219-425a-b44e-0ecc1f8a3771","system_id":"levelo_inurba_marseille","lat":43.290466,"lon":5.383609,"is_reserved":false,"is_disabled":false,"rental_uris":{"android":"levelo://app?vid=96227c43-3219-425a-b44e-0ecc1f8a3771","ios":"levelo://app?vid=96227c43-3219-425a-b44e-0ecc1f8a3771"},"vehicle_type_id":"4","last_reported":1727723177,"current_range_meters":18000,"station_id":"ce4bh612rcd13ifvqe6g","pricing_plan_id":"cebpf4jnsgd1na2vs0mg"},{"bike_id":"5c87d7a7-d271-4045-8d6f-804121d85cca","system_id":"levelo_inurba_marseille","lat":43.30643,"lon":5.40099,"is_reserved":false,"is_disabled":false,"rental_uris":{"android":"levelo://app?vid=5c87d7a7-d271-4045-8d6f-804121d85cca","ios":"levelo://app?vid=5c87d7a7-d271-4045-8d6f-804121d85cca"},"vehicle_type_id":"4","last_reported":1727723177,"current_range_meters":37600,"station_id":"ce4bh112rcd13ifvqda0","pricing_plan_id":"cebpf4jnsgd1na2vs0mg"},{"bike_id":"341291e5-f916-49fb-a047-08d81c664b8d","system_id":"levelo_inurba_marseille","lat":43.28415,"lon":5.37501,"is_reserved":false,"is_disabled":false,"rental_uris":{"android":"levelo://app?vid=341291e5-f916-49fb-a047-08d81c664b8d","ios":"levelo://app?vid=341291e5-f916-49fb-a047-08d81c664b8d"},"vehicle_type_id":"4","last_reported":1727723177,"current_range_meters":6800,"station_id":"ce4bh412rcd13ifvqds0","pricing_plan_id":"cebpf4jnsgd1na2vs0mg"},{"bike_id":"b4bec322-ebc6-4771-95fb-7fc71230c85e","system_id":"levelo_inurba_marseille","lat":43.27811,"lon":5.4072,"is_reserved":false,"is_disabled":false,"rental_uris":{"android":"levelo://app?vid=b4bec322-ebc6-4771-95fb-7fc71230c85e","ios":"levelo://app?vid=b4bec322-ebc6-4771-95fb-7fc71230c85e"},"vehicle_type_id":"4","last_reported":1727723177,"current_range_meters":4800,"station_id":"ce4bhnh2rcd13ifvqgtg","pricing_plan_id":"cebpf4jnsgd1na2vs0mg"},{"bike_id":"12fde011-8652-49b9-873e-72da5e76fc34","system_id":"levelo_inurba_marseille","lat":43.28415,"lon":5.37515,"is_reserved":false,"is_disabled":false,"rental_uris":{"android":"levelo://app?vid=12fde011-8652-49b9-873e-72da5e76fc34","ios":"levelo://app?vid=12fde011-8652-49b9-873e-72da5e76fc34"},"vehicle_type_id":"4","last_reported":1727723177,"current_range_meters":38400,"station_id":"ce4bh412rcd13ifvqds0","pricing_plan_id":"cebpf4jnsgd1na2vs0mg"},{"bike_id":"393f81b8-0e3e-48e9-b4a6-98e0ee82e8fa","system_id":"levelo_inurba_marseille","lat":43.22931,"lon":5.35384,"is_reserved":false,"is_disabled":false,"rental_uris":{"android":"levelo://app?vid=393f81b8-0e3e-48e9-b4a6-98e0ee82e8fa","ios":"levelo://app?vid=393f81b8-0e3e-48e9-b4a6-98e0ee82e8fa"},"vehicle_type_id":"4","last_reported":1727723177,"current_range_meters":10800,"station_id":"cpo3532slgdg3j2ikp40","pricing_plan_id":"cebpf4jnsgd1na2vs0mg"},{"bike_id":"ce682b9d-c6b4-4762-8c3c-67761170e527","system_id":"levelo_inurba_marseille","lat":43.31708,"lon":5.37758,"is_reserved":false,"is_disabled":false,"rental_uris":{"android":"levelo://app?vid=ce682b9d-c6b4-4762-8c3c-67761170e527","ios":"levelo://app?vid=ce682b9d-c6b4-4762-8c3c-67761170e527"},"vehicle_type_id":"4","last_reported":1727723177,"current_range_meters":33200,"station_id":"ce4bgth2rcd13ifvqch0","pricing_plan_id":"cebpf4jnsgd1na2vs0mg"},{"bike_id":"122b629b-a216-489f-90ff-d6e3354a8c19","system_id":"levelo_inurba_marseille","lat":43.28692,"lon":5.37398,"is_reserved":false,"is_disabled":false,"rental_uris":{"android":"levelo://app?vid=122b629b-a216-489f-90ff-d6e3354a8c19","ios":"levelo://app?vid=122b629b-a216-489f-90ff-d6e3354a8c19"},"vehicle_type_id":"4","last_reported":1727723177,"current_range_meters":6400,"station_id":"ce4bh3p2rcd13ifvqdq0","pricing_plan_id":"cebpf4jnsgd1na2vs0mg"},{"bike_id":"0627e71f-02cf-4119-a3f2-331bcdfa1d03","system_id":"levelo_inurba_marseille","lat":43.2558,"lon":5.38227,"is_reserved":false,"is_disabled":false,"rental_uris":{"android":"levelo://app?vid=0627e71f-02cf-4119-a3f2-331bcdfa1d03","ios":"levelo://app?vid=0627e71f-02cf-4119-a3f2-331bcdfa1d03"},"vehicle_type_id":"4","last_reported":1727723177,"current_range_meters":39200,"station_id":"ce4bhih2rcd13ifvqfs0","pricing_plan_id":"cebpf4jnsgd1na2vs0mg"},{"bike_id":"98e01353-bf46-438a-9437-17e5f8344ab8","system_id":"levelo_inurba_marseille","lat":43.26556,"lon":5.37285,"is_reserved":false,"is_disabled":false,"rental_uris":{"android":"levelo://app?vid=98e01353-bf46-438a-9437-17e5f8344ab8","ios":"levelo://app?vid=98e01353-bf46-438a-9437-17e5f8344ab8"},"vehicle_type_id":"4","last_reported":1727723177,"current_range_meters":16000,"station_id":"ce4bhg12rcd13ifvqf70","pricing_plan_id":"cebpf4jnsgd1na2vs0mg"},{"bike_id":"9ff4c3e3-75d6-4c61-807d-181a09e76cd1","system_id":"levelo_inurba_marseille","lat":43.30296,"lon":5.3689,"is_reserved":false,"is_disabled":false,"rental_uris":{"android":"levelo://app?vid=9ff4c3e3-75d6-4c61-807d-181a09e76cd1","ios":"levelo://app?vid=9ff4c3e3-75d6-4c61-807d-181a09e76cd1"},"vehicle_type_id":"4","last_reported":1727723177,"current_range_meters":22400,"station_id":"ce4bgqh2rcd13ifvqc5g","pricing_plan_id":"cebpf4jnsgd1na2vs0mg"},{"bike_id":"9d536434-fb45-4e99-856f-122edee1a308","system_id":"levelo_inurba_marseille","lat":43.31083,"lon":5.42432,"is_reserved":false,"is_disabled":false,"rental_uris":{"android":"levelo://app?vid=9d536434-fb45-4e99-856f-122edee1a308","ios":"levelo://app?vid=9d536434-fb45-4e99-856f-122edee1a308"},"vehicle_type_id":"4","last_reported":1727723177,"current_range_meters":3200,"station_id":"ce4bhp92rcd13ifvqhag","pricing_plan_id":"cebpf4jnsgd1na2vs0mg"},{"bike_id":"f1e61216-8a76-45d2-ad01-2b33c41f7393","system_id":"levelo_inurba_marseille","lat":43.30211,"lon":5.39458,"is_reserved":false,"is_disabled":false,"rental_uris":{"android":"levelo://app?vid=f1e61216-8a76-45d2-ad01-2b33c41f7393","ios":"levelo://app?vid=f1e61216-8a76-45d2-ad01-2b33c41f7393"},"vehicle_type_id":"4","last_reported":1727723177,"current_range_meters":9200,"station_id":"ce4bh0p2rcd13ifvqd70","pricing_plan_id":"cebpf4jnsgd1na2vs0mg"},{"bike_id":"64d9e30a-3c87-493a-839b-48a7888ef484","system_id":"levelo_inurba_marseille","lat":43.28073,"lon":5.3967,"is_reserved":false,"is_disabled":false,"rental_uris":{"android":"levelo://app?vid=64d9e30a-3c87-493a-839b-48a7888ef484","ios":"levelo://app?vid=64d9e30a-3c87-493a-839b-48a7888ef484"},"vehicle_type_id":"4","last_reported":1727723177,"current_range_meters":19600,"station_id":"ce4bho12rcd13ifvqh2g","pricing_plan_id":"cebpf4jnsgd1na2vs0mg"},{"bike_id":"7f98aa52-1005-4f44-91a7-912fbaf9c719","system_id":"levelo_inurba_marseille","lat":43.23158,"lon":5.39998,"is_reserved":false,"is_disabled":false,"rental_uris":{"android":"levelo://app?vid=7f98aa52-1005-4f44-91a7-912fbaf9c719","ios":"levelo://app?vid=7f98aa52-1005-4f44-91a7-912fbaf9c719"},"vehicle_type_id":"4","last_reported":1727723177,"current_range_meters":18800,"station_id":"ce4bhn12rcd13ifvqgqg","pricing_plan_id":"cebpf4jnsgd1na2vs0mg"},{"bike_id":"1ba391ce-4f0d-4d06-99c1-185465605ff2","system_id":"levelo_inurba_marseille","lat":43.27375,"lon":5.36256,"is_reserved":false,"is_disabled":false,"rental_uris":{"android":"levelo://app?vid=1ba391ce-4f0d-4d06-99c1-185465605ff2","ios":"levelo://app?vid=1ba391ce-4f0d-4d06-99c1-185465605ff2"},"vehicle_type_id":"4","last_reported":1727723177,"current_range_meters":39200,"station_id":"ce4bhbh2rcd13ifvqeo0","pricing_plan_id":"cebpf4jnsgd1na2vs0mg"},{"bike_id":"79a7926e-dba6-497b-b68c-d63f5256ee02","system_id":"levelo_inurba_marseille","lat":43.29023,"lon":5.37565,"is_reserved":false,"is_disabled":false,"rental_uris":{"android":"levelo://app?vid=79a7926e-dba6-497b-b68c-d63f5256ee02","ios":"levelo://app?vid=79a7926e-dba6-497b-b68c-d63f5256ee02"},"vehicle_type_id":"4","last_reported":1727723177,"current_range_meters":39200,"station_id":"ce4bh692rcd13ifvqe90","pricing_plan_id":"cebpf4jnsgd1na2vs0mg"},{"bike_id":"b3125c80-b41f-4513-990a-5b3a52f7c34f","system_id":"levelo_inurba_marseille","lat":43.30802,"lon":5.43528,"is_reserved":false,"is_disabled":false,"rental_uris":{"android":"levelo://app?vid=b3125c80-b41f-4513-990a-5b3a52f7c34f","ios":"levelo://app?vid=b3125c80-b41f-4513-990a-5b3a52f7c34f"},"vehicle_type_id":"4","last_reported":1727723177,"current_range_meters":5600,"station_id":"ce4bhph2rcd13ifvqheg","pricing_plan_id":"cebpf4jnsgd1na2vs0mg"},{"bike_id":"a43d5f9c-2aeb-479e-ac27-f2401d584dec","system_id":"levelo_inurba_marseille","lat":43.28697,"lon":5.37403,"is_reserved":false,"is_disabled":false,"rental_uris":{"android":"levelo://app?vid=a43d5f9c-2aeb-479e-ac27-f2401d584dec","ios":"levelo://app?vid=a43d5f9c-2aeb-479e-ac27-f2401d584dec"},"vehicle_type_id":"4","last_reported":1727723177,"current_range_meters":22800,"station_id":"ce4bh3p2rcd13ifvqdq0","pricing_plan_id":"cebpf4jnsgd1na2vs0mg"},{"bike_id":"1bad49f4-e608-4750-969b-cf1811aa3085","system_id":"levelo_inurba_marseille","lat":43.337444,"lon":5.374475,"is_reserved":false,"is_disabled":false,"rental_uris":{"android":"levelo://app?vid=1bad49f4-e608-4750-969b-cf1811aa3085","ios":"levelo://app?vid=1bad49f4-e608-4750-969b-cf1811aa3085"},"vehicle_type_id":"4","last_reported":1727723177,"current_range_meters":35200,"station_id":"","pricing_plan_id":"cebpf4jnsgd1na2vs0mg"},{"bike_id":"cd102f06-ac7b-4b01-bfe4-7c2e2c4c51d4","system_id":"levelo_inurba_marseille","lat":43.32263,"lon":5.38281,"is_reserved":false,"is_disabled":false,"rental_uris":{"android":"levelo://app?vid=cd102f06-ac7b-4b01-bfe4-7c2e2c4c51d4","ios":"levelo://app?vid=cd102f06-ac7b-4b01-bfe4-7c2e2c4c51d4"},"vehicle_type_id":"4","last_reported":1727723177,"current_range_meters":6000,"station_id":"ce4bhr12rcd13ifvqhqg","pricing_plan_id":"cebpf4jnsgd1na2vs0mg"},{"bike_id":"036acb02-6e58-4962-ba93-a900d1db96e4","system_id":"levelo_inurba_marseille","lat":43.29963,"lon":5.41329,"is_reserved":false,"is_disabled":false,"rental_uris":{"android":"levelo://app?vid=036acb02-6e58-4962-ba93-a900d1db96e4","ios":"levelo://app?vid=036acb02-6e58-4962-ba93-a900d1db96e4"},"vehicle_type_id":"4","last_reported":1727723177,"current_range_meters":19600,"station_id":"ce4bhp12rcd13ifvqh9g","pricing_plan_id":"cebpf4jnsgd1na2vs0mg"},{"bike_id":"535bd3fc-9ed6-4d8a-b132-b0714a281f53","system_id":"levelo_inurba_marseille","lat":43.32292,"lon":5.38274,"is_reserved":false,"is_disabled":false,"rental_uris":{"android":"levelo://app?vid=535bd3fc-9ed6-4d8a-b132-b0714a281f53","ios":"levelo://app?vid=535bd3fc-9ed6-4d8a-b132-b0714a281f53"},"vehicle_type_id":"4","last_reported":1727723177,"current_range_meters":35600,"station_id":"ce4bhr12rcd13ifvqhqg","pricing_plan_id":"cebpf4jnsgd1na2vs0mg"},{"bike_id":"3482c60e-8495-4759-89c8-7dd0ee12cc31","system_id":"levelo_inurba_marseille","lat":43.240784,"lon":5.377538,"is_reserved":false,"is_disabled":false,"rental_uris":{"android":"levelo://app?vid=3482c60e-8495-4759-89c8-7dd0ee12cc31","ios":"levelo://app?vid=3482c60e-8495-4759-89c8-7dd0ee12cc31"},"vehicle_type_id":"4","last_reported":1727723177,"current_range_meters":38000,"station_id":"ce4bhnp2rcd13ifvqgvg","pricing_plan_id":"cebpf4jnsgd1na2vs0mg"},{"bike_id":"ea5ff1f2-8f20-4af1-a2e9-47c55ced5409","system_id":"levelo_inurba_marseille","lat":43.290283,"lon":5.386458,"is_reserved":false,"is_disabled":false,"rental_uris":{"android":"levelo://app?vid=ea5ff1f2-8f20-4af1-a2e9-47c55ced5409","ios":"levelo://app?vid=ea5ff1f2-8f20-4af1-a2e9-47c55ced5409"},"vehicle_type_id":"4","last_reported":1727723177,"current_range_meters":36800,"station_id":"ce4bh4p2rcd13ifvqe0g","pricing_plan_id":"cebpf4jnsgd1na2vs0mg"},{"bike_id":"df8f5451-9cbe-49a4-a4e0-c4d30e8f93d2","system_id":"levelo_inurba_marseille","lat":43.29876,"lon":5.39738,"is_reserved":false,"is_disabled":false,"rental_uris":{"android":"levelo://app?vid=df8f5451-9cbe-49a4-a4e0-c4d30e8f93d2","ios":"levelo://app?vid=df8f5451-9cbe-49a4-a4e0-c4d30e8f93d2"},"vehicle_type_id":"4","last_reported":1727723177,"current_range_meters":21600,"station_id":"ce4bh0h2rcd13ifvqd50","pricing_plan_id":"cebpf4jnsgd1na2vs0mg"},{"bike_id":"d66ab088-1a47-4493-9efd-a19df6932892","system_id":"levelo_inurba_marseille","lat":43.2856,"lon":5.39502,"is_reserved":false,"is_disabled":false,"rental_uris":{"android":"levelo://app?vid=d66ab088-1a47-4493-9efd-a19df6932892","ios":"levelo://app?vid=d66ab088-1a47-4493-9efd-a19df6932892"},"vehicle_type_id":"4","last_reported":1727723177,"current_range_meters":24000,"station_id":"ce4bh292rcd13ifvqdg0","pricing_plan_id":"cebpf4jnsgd1na2vs0mg"},{"bike_id":"1583e6e8-62ba-4fc7-bf10-b3dab3950efc","system_id":"levelo_inurba_marseille","lat":43.28347,"lon":5.381,"is_reserved":false,"is_disabled":false,"rental_uris":{"android":"levelo://app?vid=1583e6e8-62ba-4fc7-bf10-b3dab3950efc","ios":"levelo://app?vid=1583e6e8-62ba-4fc7-bf10-b3dab3950efc"},"vehicle_type_id":"4","last_reported":1727723177,"current_range_meters":10800,"station_id":"ce4bh412rcd13ifvqdr0","pricing_plan_id":"cebpf4jnsgd1na2vs0mg"},{"bike_id":"1e6475d6-a854-4aa8-852f-a708c9a090e6","system_id":"levelo_inurba_marseille","lat":43.31757,"lon":5.39008,"is_reserved":false,"is_disabled":false,"rental_uris":{"android":"levelo://app?vid=1e6475d6-a854-4aa8-852f-a708c9a090e6","ios":"levelo://app?vid=1e6475d6-a854-4aa8-852f-a708c9a090e6"},"vehicle_type_id":"4","last_reported":1727723177,"current_range_meters":38800,"station_id":"ce4bhqp2rcd13ifvqhng","pricing_plan_id":"cebpf4jnsgd1na2vs0mg"},{"bike_id":"a0b5a8b4-d473-4504-9686-c3cf00e9d3ad","system_id":"levelo_inurba_marseille","lat":43.31757,"lon":5.39021,"is_reserved":false,"is_disabled":false,"rental_uris":{"android":"levelo://app?vid=a0b5a8b4-d473-4504-9686-c3cf00e9d3ad","ios":"levelo://app?vid=a0b5a8b4-d473-4504-9686-c3cf00e9d3ad"},"vehicle_type_id":"4","last_reported":1727723177,"current_range_meters":16400,"station_id":"ce4bhqp2rcd13ifvqhng","pricing_plan_id":"cebpf4jnsgd1na2vs0mg"},{"bike_id":"7351710e-25ca-4c8c-8bd0-399536f6db69","system_id":"levelo_inurba_marseille","lat":43.32361,"lon":5.3847,"is_reserved":false,"is_disabled":false,"rental_uris":{"android":"levelo://app?vid=7351710e-25ca-4c8c-8bd0-399536f6db69","ios":"levelo://app?vid=7351710e-25ca-4c8c-8bd0-399536f6db69"},"vehicle_type_id":"4","last_reported":1727723177,"current_range_meters":36000,"station_id":"","pricing_plan_id":"cebpf4jnsgd1na2vs0mg"},{"bike_id":"514b40d7-fbbc-4c63-ae48-950f27382cfc","system_id":"levelo_inurba_marseille","lat":43.29526,"lon":5.38553,"is_reserved":false,"is_disabled":false,"rental_uris":{"android":"levelo://app?vid=514b40d7-fbbc-4c63-ae48-950f27382cfc","ios":"levelo://app?vid=514b40d7-fbbc-4c63-ae48-950f27382cfc"},"vehicle_type_id":"4","last_reported":1727723177,"current_range_meters":3600,"station_id":"ce4bgih2rcd13ifvqba0","pricing_plan_id":"cebpf4jnsgd1na2vs0mg"},{"bike_id":"c7090d2c-8219-4570-95d7-f56920df047b","system_id":"levelo_inurba_marseille","lat":43.25575,"lon":5.38233,"is_reserved":false,"is_disabled":false,"rental_uris":{"android":"levelo://app?vid=c7090d2c-8219-4570-95d7-f56920df047b","ios":"levelo://app?vid=c7090d2c-8219-4570-95d7-f56920df047b"},"vehicle_type_id":"4","last_reported":1727723177,"current_range_meters":32400,"station_id":"ce4bhih2rcd13ifvqfs0","pricing_plan_id":"cebpf4jnsgd1na2vs0mg"},{"bike_id":"5a449323-0ba2-473c-9f5f-09bdf06369d2","system_id":"levelo_inurba_marseille","lat":43.30547,"lon":5.38426,"is_reserved":false,"is_disabled":false,"rental_uris":{"android":"levelo://app?vid=5a449323-0ba2-473c-9f5f-09bdf06369d2","ios":"levelo://app?vid=5a449323-0ba2-473c-9f5f-09bdf06369d2"},"vehicle_type_id":"4","last_reported":1727723177,"current_range_meters":38400,"station_id":"ce4bgg92rcd13ifvqb30","pricing_plan_id":"cebpf4jnsgd1na2vs0mg"},{"bike_id":"28adeedb-73e1-430c-aff3-8e7b9dff4fc2","system_id":"levelo_inurba_marseille","lat":43.23197,"lon":5.4,"is_reserved":false,"is_disabled":false,"rental_uris":{"android":"levelo://app?vid=28adeedb-73e1-430c-aff3-8e7b9dff4fc2","ios":"levelo://app?vid=28adeedb-73e1-430c-aff3-8e7b9dff4fc2"},"vehicle_type_id":"4","last_reported":1727723177,"current_range_meters":34000,"station_id":"ce4bhn12rcd13ifvqgqg","pricing_plan_id":"cebpf4jnsgd1na2vs0mg"},{"bike_id":"5894c6cf-e750-497b-8a36-47a2b0ef0b35","system_id":"levelo_inurba_marseille","lat":43.23175,"lon":5.39997,"is_reserved":false,"is_disabled":false,"rental_uris":{"android":"levelo://app?vid=5894c6cf-e750-497b-8a36-47a2b0ef0b35","ios":"levelo://app?vid=5894c6cf-e750-497b-8a36-47a2b0ef0b35"},"vehicle_type_id":"4","last_reported":1727723177,"current_range_meters":18000,"station_id":"ce4bhn12rcd13ifvqgqg","pricing_plan_id":"cebpf4jnsgd1na2vs0mg"},{"bike_id":"75ce0c83-c299-4d46-8486-ce3fb91b1eeb","system_id":"levelo_inurba_marseille","lat":43.31983,"lon":5.3888,"is_reserved":false,"is_disabled":false,"rental_uris":{"android":"levelo://app?vid=75ce0c83-c299-4d46-8486-ce3fb91b1eeb","ios":"levelo://app?vid=75ce0c83-c299-4d46-8486-ce3fb91b1eeb"},"vehicle_type_id":"4","last_reported":1727723177,"current_range_meters":24400,"station_id":"","pricing_plan_id":"cebpf4jnsgd1na2vs0mg"},{"bike_id":"81896eaa-95ec-4dd4-88e9-e7143a92f0be","system_id":"levelo_inurba_marseille","lat":43.25726,"lon":5.41108,"is_reserved":false,"is_disabled":false,"rental_uris":{"android":"levelo://app?vid=81896eaa-95ec-4dd4-88e9-e7143a92f0be","ios":"levelo://app?vid=81896eaa-95ec-4dd4-88e9-e7143a92f0be"},"vehicle_type_id":"4","last_reported":1727723177,"current_range_meters":2800,"station_id":"ce4bhkp2rcd13ifvqgd0","pricing_plan_id":"cebpf4jnsgd1na2vs0mg"},{"bike_id":"4723a632-124c-4781-9a95-cb3961f270da","system_id":"levelo_inurba_marseille","lat":43.29556,"lon":5.42296,"is_reserved":false,"is_disabled":false,"rental_uris":{"android":"levelo://app?vid=4723a632-124c-4781-9a95-cb3961f270da","ios":"levelo://app?vid=4723a632-124c-4781-9a95-cb3961f270da"},"vehicle_type_id":"4","last_reported":1727723177,"current_range_meters":3200,"station_id":"ce4bhph2rcd13ifvqhdg","pricing_plan_id":"cebpf4jnsgd1na2vs0mg"},{"bike_id":"4f84a11e-2b9e-474c-a79f-7823a5be7ccf","system_id":"levelo_inurba_marseille","lat":43.30146,"lon":5.38082,"is_reserved":false,"is_disabled":false,"rental_uris":{"android":"levelo://app?vid=4f84a11e-2b9e-474c-a79f-7823a5be7ccf","ios":"levelo://app?vid=4f84a11e-2b9e-474c-a79f-7823a5be7ccf"},"vehicle_type_id":"4","last_reported":1727723177,"current_range_meters":20800,"station_id":"ce4bgjp2rcd13ifvqbh0","pricing_plan_id":"cebpf4jnsgd1na2vs0mg"},{"bike_id":"a98afe3b-791d-4db5-be5e-7d8802ce3b38","system_id":"levelo_inurba_marseille","lat":43.31718,"lon":5.42397,"is_reserved":false,"is_disabled":false,"rental_uris":{"android":"levelo://app?vid=a98afe3b-791d-4db5-be5e-7d8802ce3b38","ios":"levelo://app?vid=a98afe3b-791d-4db5-be5e-7d8802ce3b38"},"vehicle_type_id":"4","last_reported":1727723177,"current_range_meters":6400,"station_id":"ce4bhp92rcd13ifvqhbg","pricing_plan_id":"cebpf4jnsgd1na2vs0mg"},{"bike_id":"4563817c-adce-4b5f-9203-7df0c6e097eb","system_id":"levelo_inurba_marseille","lat":43.32273,"lon":5.38682,"is_reserved":false,"is_disabled":false,"rental_uris":{"android":"levelo://app?vid=4563817c-adce-4b5f-9203-7df0c6e097eb","ios":"levelo://app?vid=4563817c-adce-4b5f-9203-7df0c6e097eb"},"vehicle_type_id":"4","last_reported":1727723177,"current_range_meters":15200,"station_id":"","pricing_plan_id":"cebpf4jnsgd1na2vs0mg"},{"bike_id":"722da983-4eac-4d0c-96d4-0a76615a80cb","system_id":"levelo_inurba_marseille","lat":43.28434,"lon":5.39191,"is_reserved":false,"is_disabled":false,"rental_uris":{"android":"levelo://app?vid=722da983-4eac-4d0c-96d4-0a76615a80cb","ios":"levelo://app?vid=722da983-4eac-4d0c-96d4-0a76615a80cb"},"vehicle_type_id":"4","last_reported":1727723177,"current_range_meters":30800,"station_id":"ce4bhoh2rcd13ifvqh5g","pricing_plan_id":"cebpf4jnsgd1na2vs0mg"},{"bike_id":"50687af8-d787-4e4e-a7bc-134044df7dce","system_id":"levelo_inurba_marseille","lat":43.31723,"lon":5.424,"is_reserved":false,"is_disabled":false,"rental_uris":{"android":"levelo://app?vid=50687af8-d787-4e4e-a7bc-134044df7dce","ios":"levelo://app?vid=50687af8-d787-4e4e-a7bc-134044df7dce"},"vehicle_type_id":"4","last_reported":1727723177,"current_range_meters":3200,"station_id":"ce4bhp92rcd13ifvqhbg","pricing_plan_id":"cebpf4jnsgd1na2vs0mg"},{"bike_id":"6e92fddf-f8c0-4084-acd5-851060cfe090","system_id":"levelo_inurba_marseille","lat":43.27993,"lon":5.41664,"is_reserved":false,"is_disabled":false,"rental_uris":{"android":"levelo://app?vid=6e92fddf-f8c0-4084-acd5-851060cfe090","ios":"levelo://app?vid=6e92fddf-f8c0-4084-acd5-851060cfe090"},"vehicle_type_id":"4","last_reported":1727723177,"current_range_meters":38800,"station_id":"ce4bho12rcd13ifvqh1g","pricing_plan_id":"cebpf4jnsgd1na2vs0mg"},{"bike_id":"d03204b1-0cd8-4bb0-9680-c7f05638cbc1","system_id":"levelo_inurba_marseille","lat":43.24389,"lon":5.37064,"is_reserved":false,"is_disabled":false,"rental_uris":{"android":"levelo://app?vid=d03204b1-0cd8-4bb0-9680-c7f05638cbc1","ios":"levelo://app?vid=d03204b1-0cd8-4bb0-9680-c7f05638cbc1"},"vehicle_type_id":"4","last_reported":1727723177,"current_range_meters":25600,"station_id":"ce4bhhh2rcd13ifvqfk0","pricing_plan_id":"cebpf4jnsgd1na2vs0mg"},{"bike_id":"57d4ce82-337a-4d29-90d6-728cd3fbe54d","system_id":"levelo_inurba_marseille","lat":43.2926,"lon":5.40904,"is_reserved":false,"is_disabled":false,"rental_uris":{"android":"levelo://app?vid=57d4ce82-337a-4d29-90d6-728cd3fbe54d","ios":"levelo://app?vid=57d4ce82-337a-4d29-90d6-728cd3fbe54d"},"vehicle_type_id":"4","last_reported":1727723177,"current_range_meters":7200,"station_id":"ce4bh192rcd13ifvqdc0","pricing_plan_id":"cebpf4jnsgd1na2vs0mg"},{"bike_id":"3e53fb06-3b85-4fde-9092-20ee98a390ab","system_id":"levelo_inurba_marseille","lat":43.31758,"lon":5.39015,"is_reserved":false,"is_disabled":false,"rental_uris":{"android":"levelo://app?vid=3e53fb06-3b85-4fde-9092-20ee98a390ab","ios":"levelo://app?vid=3e53fb06-3b85-4fde-9092-20ee98a390ab"},"vehicle_type_id":"4","last_reported":1727723177,"current_range_meters":36800,"station_id":"ce4bhqp2rcd13ifvqhng","pricing_plan_id":"cebpf4jnsgd1na2vs0mg"},{"bike_id":"5ebfd91c-b250-4512-8ca0-2c56ca75fd52","system_id":"levelo_inurba_marseille","lat":43.24492,"lon":5.37843,"is_reserved":false,"is_disabled":false,"rental_uris":{"android":"levelo://app?vid=5ebfd91c-b250-4512-8ca0-2c56ca75fd52","ios":"levelo://app?vid=5ebfd91c-b250-4512-8ca0-2c56ca75fd52"},"vehicle_type_id":"4","last_reported":1727723177,"current_range_meters":14400,"station_id":"","pricing_plan_id":"cebpf4jnsgd1na2vs0mg"},{"bike_id":"94a1ebb1-7f5d-40af-bb94-56f6d3162643","system_id":"levelo_inurba_marseille","lat":43.25076,"lon":5.39505,"is_reserved":false,"is_disabled":false,"rental_uris":{"android":"levelo://app?vid=94a1ebb1-7f5d-40af-bb94-56f6d3162643","ios":"levelo://app?vid=94a1ebb1-7f5d-40af-bb94-56f6d3162643"},"vehicle_type_id":"4","last_reported":1727723177,"current_range_meters":6000,"station_id":"","pricing_plan_id":"cebpf4jnsgd1na2vs0mg"},{"bike_id":"42f8ccd4-fdba-44e3-852e-742768374a03","system_id":"levelo_inurba_marseille","lat":43.31188,"lon":5.38716,"is_reserved":false,"is_disabled":false,"rental_uris":{"android":"levelo://app?vid=42f8ccd4-fdba-44e3-852e-742768374a03","ios":"levelo://app?vid=42f8ccd4-fdba-44e3-852e-742768374a03"},"vehicle_type_id":"4","last_reported":1727723177,"current_range_meters":38800,"station_id":"ce4bgv12rcd13ifvqcp0","pricing_plan_id":"cebpf4jnsgd1na2vs0mg"},{"bike_id":"8c283a70-abae-495e-9884-359cc95e9541","system_id":"levelo_inurba_marseille","lat":43.31493,"lon":5.37307,"is_reserved":false,"is_disabled":false,"rental_uris":{"android":"levelo://app?vid=8c283a70-abae-495e-9884-359cc95e9541","ios":"levelo://app?vid=8c283a70-abae-495e-9884-359cc95e9541"},"vehicle_type_id":"4","last_reported":1727723177,"current_range_meters":5600,"station_id":"ce4bgt12rcd13ifvqcd0","pricing_plan_id":"cebpf4jnsgd1na2vs0mg"},{"bike_id":"0ec4a281-f9aa-47be-8b92-26e430fb7fed","system_id":"levelo_inurba_marseille","lat":43.29029,"lon":5.3863,"is_reserved":false,"is_disabled":false,"rental_uris":{"android":"levelo://app?vid=0ec4a281-f9aa-47be-8b92-26e430fb7fed","ios":"levelo://app?vid=0ec4a281-f9aa-47be-8b92-26e430fb7fed"},"vehicle_type_id":"4","last_reported":1727723177,"current_range_meters":28800,"station_id":"ce4bh4p2rcd13ifvqe0g","pricing_plan_id":"cebpf4jnsgd1na2vs0mg"},{"bike_id":"f022ad8f-dfab-42bc-a4e1-fe6aea3dfddc","system_id":"levelo_inurba_marseille","lat":43.32287,"lon":5.3826,"is_reserved":false,"is_disabled":false,"rental_uris":{"android":"levelo://app?vid=f022ad8f-dfab-42bc-a4e1-fe6aea3dfddc","ios":"levelo://app?vid=f022ad8f-dfab-42bc-a4e1-fe6aea3dfddc"},"vehicle_type_id":"4","last_reported":1727723177,"current_range_meters":22000,"station_id":"ce4bhr12rcd13ifvqhqg","pricing_plan_id":"cebpf4jnsgd1na2vs0mg"},{"bike_id":"eafb504a-b6b7-4a1b-9a5e-7693f0c3fd6d","system_id":"levelo_inurba_marseille","lat":43.28858,"lon":5.35843,"is_reserved":false,"is_disabled":false,"rental_uris":{"android":"levelo://app?vid=eafb504a-b6b7-4a1b-9a5e-7693f0c3fd6d","ios":"levelo://app?vid=eafb504a-b6b7-4a1b-9a5e-7693f0c3fd6d"},"vehicle_type_id":"4","last_reported":1727723177,"current_range_meters":38000,"station_id":"ce4bhb12rcd13ifvqem0","pricing_plan_id":"cebpf4jnsgd1na2vs0mg"},{"bike_id":"7f784c98-b623-4459-8bc8-4cfb5a3f7d7a","system_id":"levelo_inurba_marseille","lat":43.32292,"lon":5.38267,"is_reserved":false,"is_disabled":false,"rental_uris":{"android":"levelo://app?vid=7f784c98-b623-4459-8bc8-4cfb5a3f7d7a","ios":"levelo://app?vid=7f784c98-b623-4459-8bc8-4cfb5a3f7d7a"},"vehicle_type_id":"4","last_reported":1727723177,"current_range_meters":27600,"station_id":"ce4bhr12rcd13ifvqhqg","pricing_plan_id":"cebpf4jnsgd1na2vs0mg"},{"bike_id":"e30fec41-8c55-4b1f-8cd1-f7e3821e47c7","system_id":"levelo_inurba_marseille","lat":43.29274,"lon":5.36848,"is_reserved":false,"is_disabled":false,"rental_uris":{"android":"levelo://app?vid=e30fec41-8c55-4b1f-8cd1-f7e3821e47c7","ios":"levelo://app?vid=e30fec41-8c55-4b1f-8cd1-f7e3821e47c7"},"vehicle_type_id":"4","last_reported":1727723177,"current_range_meters":34800,"station_id":"ce4bh112rcd13ifvqda0","pricing_plan_id":"cebpf4jnsgd1na2vs0mg"},{"bike_id":"a99ded3c-d3ae-4287-922a-e941b9997c51","system_id":"levelo_inurba_marseille","lat":43.32366,"lon":5.38881,"is_reserved":false,"is_disabled":false,"rental_uris":{"android":"levelo://app?vid=a99ded3c-d3ae-4287-922a-e941b9997c51","ios":"levelo://app?vid=a99ded3c-d3ae-4287-922a-e941b9997c51"},"vehicle_type_id":"4","last_reported":1727723177,"current_range_meters":30800,"station_id":"ce4bhqp2rcd13ifvqhog","pricing_plan_id":"cebpf4jnsgd1na2vs0mg"},{"bike_id":"c9e91670-698c-476d-82f9-f1f29a705c77","system_id":"levelo_inurba_marseille","lat":43.29162,"lon":5.37163,"is_reserved":false,"is_disabled":false,"rental_uris":{"android":"levelo://app?vid=c9e91670-698c-476d-82f9-f1f29a705c77","ios":"levelo://app?vid=c9e91670-698c-476d-82f9-f1f29a705c77"},"vehicle_type_id":"4","last_reported":1727723177,"current_range_meters":28000,"station_id":"ce4bha92rcd13ifvqeh0","pricing_plan_id":"cebpf4jnsgd1na2vs0mg"},{"bike_id":"47b99a73-32e0-429b-8844-fa09c691ac43","system_id":"levelo_inurba_marseille","lat":43.30631,"lon":5.40096,"is_reserved":false,"is_disabled":false,"rental_uris":{"android":"levelo://app?vid=47b99a73-32e0-429b-8844-fa09c691ac43","ios":"levelo://app?vid=47b99a73-32e0-429b-8844-fa09c691ac43"},"vehicle_type_id":"4","last_reported":1727723177,"current_range_meters":34800,"station_id":"ce4bh112rcd13ifvqda0","pricing_plan_id":"cebpf4jnsgd1na2vs0mg"},{"bike_id":"39e8216b-bc8b-4724-b5ec-c1172bc47595","system_id":"levelo_inurba_marseille","lat":43.27897,"lon":5.38005,"is_reserved":false,"is_disabled":false,"rental_uris":{"android":"levelo://app?vid=39e8216b-bc8b-4724-b5ec-c1172bc47595","ios":"levelo://app?vid=39e8216b-bc8b-4724-b5ec-c1172bc47595"},"vehicle_type_id":"4","last_reported":1727723177,"current_range_meters":7200,"station_id":"ce4bhf92rcd13ifvqf50","pricing_plan_id":"cebpf4jnsgd1na2vs0mg"},{"bike_id":"e7ef144b-d387-419b-b4d9-93877d79cf26","system_id":"levelo_inurba_marseille","lat":43.2902,"lon":5.3756,"is_reserved":false,"is_disabled":false,"rental_uris":{"android":"levelo://app?vid=e7ef144b-d387-419b-b4d9-93877d79cf26","ios":"levelo://app?vid=e7ef144b-d387-419b-b4d9-93877d79cf26"},"vehicle_type_id":"4","last_reported":1727723177,"current_range_meters":38400,"station_id":"ce4bh692rcd13ifvqe90","pricing_plan_id":"cebpf4jnsgd1na2vs0mg"},{"bike_id":"3ff20bc3-c597-4293-b730-1ddc1798e950","system_id":"levelo_inurba_marseille","lat":43.23184,"lon":5.39998,"is_reserved":false,"is_disabled":false,"rental_uris":{"android":"levelo://app?vid=3ff20bc3-c597-4293-b730-1ddc1798e950","ios":"levelo://app?vid=3ff20bc3-c597-4293-b730-1ddc1798e950"},"vehicle_type_id":"4","last_reported":1727723177,"current_range_meters":17200,"station_id":"ce4bhn12rcd13ifvqgqg","pricing_plan_id":"cebpf4jnsgd1na2vs0mg"},{"bike_id":"39e8b55e-870a-4ca6-9db5-b31cbec300ae","system_id":"levelo_inurba_marseille","lat":43.32658,"lon":5.40993,"is_reserved":false,"is_disabled":false,"rental_uris":{"android":"levelo://app?vid=39e8b55e-870a-4ca6-9db5-b31cbec300ae","ios":"levelo://app?vid=39e8b55e-870a-4ca6-9db5-b31cbec300ae"},"vehicle_type_id":"4","last_reported":1727723177,"current_range_meters":10000,"station_id":"ce4bhpp2rcd13ifvqhgg","pricing_plan_id":"cebpf4jnsgd1na2vs0mg"},{"bike_id":"c581e92d-781f-4a9c-a6ef-b05aa9478b17","system_id":"levelo_inurba_marseille","lat":43.3175,"lon":5.39006,"is_reserved":false,"is_disabled":false,"rental_uris":{"android":"levelo://app?vid=c581e92d-781f-4a9c-a6ef-b05aa9478b17","ios":"levelo://app?vid=c581e92d-781f-4a9c-a6ef-b05aa9478b17"},"vehicle_type_id":"4","last_reported":1727723177,"current_range_meters":38800,"station_id":"ce4bhqp2rcd13ifvqhng","pricing_plan_id":"cebpf4jnsgd1na2vs0mg"},{"bike_id":"ddb215f8-abb5-4d55-98fa-c359367d7cf1","system_id":"levelo_inurba_marseille","lat":43.2512,"lon":5.4032,"is_reserved":false,"is_disabled":false,"rental_uris":{"android":"levelo://app?vid=ddb215f8-abb5-4d55-98fa-c359367d7cf1","ios":"levelo://app?vid=ddb215f8-abb5-4d55-98fa-c359367d7cf1"},"vehicle_type_id":"4","last_reported":1727723177,"current_range_meters":9200,"station_id":"ce4bhlh2rcd13ifvqgig","pricing_plan_id":"cebpf4jnsgd1na2vs0mg"},{"bike_id":"3afbf991-5a4b-4474-ac7b-f67104c04983","system_id":"levelo_inurba_marseille","lat":43.25004,"lon":5.38929,"is_reserved":false,"is_disabled":false,"rental_uris":{"android":"levelo://app?vid=3afbf991-5a4b-4474-ac7b-f67104c04983","ios":"levelo://app?vid=3afbf991-5a4b-4474-ac7b-f67104c04983"},"vehicle_type_id":"4","last_reported":1727723177,"current_range_meters":5600,"station_id":"ce4bhgp2rcd13ifvqfd0","pricing_plan_id":"cebpf4jnsgd1na2vs0mg"},{"bike_id":"782ca739-e80b-4854-a8f3-9136dee954b8","system_id":"levelo_inurba_marseille","lat":43.30454,"lon":5.37897,"is_reserved":false,"is_disabled":false,"rental_uris":{"android":"levelo://app?vid=782ca739-e80b-4854-a8f3-9136dee954b8","ios":"levelo://app?vid=782ca739-e80b-4854-a8f3-9136dee954b8"},"vehicle_type_id":"4","last_reported":1727723177,"current_range_meters":39200,"station_id":"ce4bgqh2rcd13ifvqc5g","pricing_plan_id":"cebpf4jnsgd1na2vs0mg"},{"bike_id":"177769c8-8308-4652-aa9f-e40ab3291c9a","system_id":"levelo_inurba_marseille","lat":43.25719,"lon":5.41116,"is_reserved":false,"is_disabled":false,"rental_uris":{"android":"levelo://app?vid=177769c8-8308-4652-aa9f-e40ab3291c9a","ios":"levelo://app?vid=177769c8-8308-4652-aa9f-e40ab3291c9a"},"vehicle_type_id":"4","last_reported":1727723177,"current_range_meters":20800,"station_id":"ce4bhkp2rcd13ifvqgd0","pricing_plan_id":"cebpf4jnsgd1na2vs0mg"},{"bike_id":"a9d50ff9-32a0-4d1b-a41a-5a5a3d1d52a2","system_id":"levelo_inurba_marseille","lat":43.28852,"lon":5.39316,"is_reserved":false,"is_disabled":false,"rental_uris":{"android":"levelo://app?vid=a9d50ff9-32a0-4d1b-a41a-5a5a3d1d52a2","ios":"levelo://app?vid=a9d50ff9-32a0-4d1b-a41a-5a5a3d1d52a2"},"vehicle_type_id":"4","last_reported":1727723177,"current_range_meters":38800,"station_id":"ce4bh2p2rcd13ifvqdi0","pricing_plan_id":"cebpf4jnsgd1na2vs0mg"},{"bike_id":"b7a75d39-7de2-45b7-9a7f-76b26f7a01b8","system_id":"levelo_inurba_marseille","lat":43.30734,"lon":5.37392,"is_reserved":false,"is_disabled":false,"rental_uris":{"android":"levelo://app?vid=b7a75d39-7de2-45b7-9a7f-76b26f7a01b8","ios":"levelo://app?vid=b7a75d39-7de2-45b7-9a7f-76b26f7a01b8"},"vehicle_type_id":"4","last_reported":1727723177,"current_range_meters":38400,"station_id":"ce4bguh2rcd13ifvqckg","pricing_plan_id":"cebpf4jnsgd1na2vs0mg"},{"bike_id":"3c97bd13-0d15-4c82-b872-bb610d3ddef1","system_id":"levelo_inurba_marseille","lat":43.295654,"lon":5.385265,"is_reserved":false,"is_disabled":false,"rental_uris":{"android":"levelo://app?vid=3c97bd13-0d15-4c82-b872-bb610d3ddef1","ios":"levelo://app?vid=3c97bd13-0d15-4c82-b872-bb610d3ddef1"},"vehicle_type_id":"4","last_reported":1727723177,"current_range_meters":21600,"station_id":"ce4bgih2rcd13ifvqba0","pricing_plan_id":"cebpf4jnsgd1na2vs0mg"},{"bike_id":"e509053f-02ca-4346-befd-ff4c85da7576","system_id":"levelo_inurba_marseille","lat":43.29418,"lon":5.38628,"is_reserved":false,"is_disabled":false,"rental_uris":{"android":"levelo://app?vid=e509053f-02ca-4346-befd-ff4c85da7576","ios":"levelo://app?vid=e509053f-02ca-4346-befd-ff4c85da7576"},"vehicle_type_id":"4","last_reported":1727723177,"current_range_meters":38800,"station_id":"ce4bh2h2rcd13ifvqdh0","pricing_plan_id":"cebpf4jnsgd1na2vs0mg"},{"bike_id":"f51fa901-9cc0-437b-9cce-a6488c519132","system_id":"levelo_inurba_marseille","lat":43.30351,"lon":5.41891,"is_reserved":false,"is_disabled":false,"rental_uris":{"android":"levelo://app?vid=f51fa901-9cc0-437b-9cce-a6488c519132","ios":"levelo://app?vid=f51fa901-9cc0-437b-9cce-a6488c519132"},"vehicle_type_id":"4","last_reported":1727723177,"current_range_meters":38000,"station_id":"ce4bhop2rcd13ifvqh7g","pricing_plan_id":"cebpf4jnsgd1na2vs0mg"},{"bike_id":"6537c9d6-db39-4ae6-a583-168349ff29ad","system_id":"levelo_inurba_marseille","lat":43.28429,"lon":5.39184,"is_reserved":false,"is_disabled":false,"rental_uris":{"android":"levelo://app?vid=6537c9d6-db39-4ae6-a583-168349ff29ad","ios":"levelo://app?vid=6537c9d6-db39-4ae6-a583-168349ff29ad"},"vehicle_type_id":"4","last_reported":1727723177,"current_range_meters":39200,"station_id":"ce4bhoh2rcd13ifvqh5g","pricing_plan_id":"cebpf4jnsgd1na2vs0mg"},{"bike_id":"ea357b35-2c5e-4a65-a190-8385e3540256","system_id":"levelo_inurba_marseille","lat":43.29571,"lon":5.39975,"is_reserved":false,"is_disabled":false,"rental_uris":{"android":"levelo://app?vid=ea357b35-2c5e-4a65-a190-8385e3540256","ios":"levelo://app?vid=ea357b35-2c5e-4a65-a190-8385e3540256"},"vehicle_type_id":"4","last_reported":1727723177,"current_range_meters":39200,"station_id":"ce4bh312rcd13ifvqdj0","pricing_plan_id":"cebpf4jnsgd1na2vs0mg"},{"bike_id":"eb9330e5-7713-450b-b488-7d357d4461c5","system_id":"levelo_inurba_marseille","lat":43.3065,"lon":5.40106,"is_reserved":false,"is_disabled":false,"rental_uris":{"android":"levelo://app?vid=eb9330e5-7713-450b-b488-7d357d4461c5","ios":"levelo://app?vid=eb9330e5-7713-450b-b488-7d357d4461c5"},"vehicle_type_id":"4","last_reported":1727723177,"current_range_meters":32400,"station_id":"ce4bh112rcd13ifvqda0","pricing_plan_id":"cebpf4jnsgd1na2vs0mg"},{"bike_id":"3a06c9b4-3d9d-4907-964b-256e2e3f44ca","system_id":"levelo_inurba_marseille","lat":43.30316,"lon":5.36915,"is_reserved":false,"is_disabled":false,"rental_uris":{"android":"levelo://app?vid=3a06c9b4-3d9d-4907-964b-256e2e3f44ca","ios":"levelo://app?vid=3a06c9b4-3d9d-4907-964b-256e2e3f44ca"},"vehicle_type_id":"4","last_reported":1727723177,"current_range_meters":38800,"station_id":"ce4bgqh2rcd13ifvqc5g","pricing_plan_id":"cebpf4jnsgd1na2vs0mg"},{"bike_id":"47aa5a97-0a1f-4338-8254-34ce742b4c3f","system_id":"levelo_inurba_marseille","lat":43.28464,"lon":5.35893,"is_reserved":false,"is_disabled":false,"rental_uris":{"android":"levelo://app?vid=47aa5a97-0a1f-4338-8254-34ce742b4c3f","ios":"levelo://app?vid=47aa5a97-0a1f-4338-8254-34ce742b4c3f"},"vehicle_type_id":"4","last_reported":1727723177,"current_range_meters":27600,"station_id":"ce4bhah2rcd13ifvqei0","pricing_plan_id":"cebpf4jnsgd1na2vs0mg"},{"bike_id":"8c27f5e4-f5e3-43c6-9e96-e75ee18e2bad","system_id":"levelo_inurba_marseille","lat":43.27205,"lon":5.39177,"is_reserved":false,"is_disabled":false,"rental_uris":{"android":"levelo://app?vid=8c27f5e4-f5e3-43c6-9e96-e75ee18e2bad","ios":"levelo://app?vid=8c27f5e4-f5e3-43c6-9e96-e75ee18e2bad"},"vehicle_type_id":"4","last_reported":1727723177,"current_range_meters":37600,"station_id":"ce4bhhp2rcd13ifvqfm0","pricing_plan_id":"cebpf4jnsgd1na2vs0mg"},{"bike_id":"13c357b9-a3de-4359-98cd-f18b3b421ccc","system_id":"levelo_inurba_marseille","lat":43.29026,"lon":5.3864,"is_reserved":false,"is_disabled":false,"rental_uris":{"android":"levelo://app?vid=13c357b9-a3de-4359-98cd-f18b3b421ccc","ios":"levelo://app?vid=13c357b9-a3de-4359-98cd-f18b3b421ccc"},"vehicle_type_id":"4","last_reported":1727723177,"current_range_meters":29600,"station_id":"ce4bh4p2rcd13ifvqe0g","pricing_plan_id":"cebpf4jnsgd1na2vs0mg"},{"bike_id":"4839c294-21b0-484c-941d-52755b972858","system_id":"levelo_inurba_marseille","lat":43.33603,"lon":5.4103,"is_reserved":false,"is_disabled":false,"rental_uris":{"android":"levelo://app?vid=4839c294-21b0-484c-941d-52755b972858","ios":"levelo://app?vid=4839c294-21b0-484c-941d-52755b972858"},"vehicle_type_id":"4","last_reported":1727723177,"current_range_meters":19600,"station_id":"ce4bhqh2rcd13ifvqhmg","pricing_plan_id":"cebpf4jnsgd1na2vs0mg"},{"bike_id":"158f76df-0e86-4277-8136-2ae24d6f71cf","system_id":"levelo_inurba_marseille","lat":43.31691,"lon":5.40469,"is_reserved":false,"is_disabled":false,"rental_uris":{"android":"levelo://app?vid=158f76df-0e86-4277-8136-2ae24d6f71cf","ios":"levelo://app?vid=158f76df-0e86-4277-8136-2ae24d6f71cf"},"vehicle_type_id":"4","last_reported":1727723177,"current_range_meters":5600,"station_id":"ce4bh012rcd13ifvqd00","pricing_plan_id":"cebpf4jnsgd1na2vs0mg"},{"bike_id":"046b492e-a34c-4972-87e5-30c86457a049","system_id":"levelo_inurba_marseille","lat":43.32318,"lon":5.38227,"is_reserved":false,"is_disabled":false,"rental_uris":{"android":"levelo://app?vid=046b492e-a34c-4972-87e5-30c86457a049","ios":"levelo://app?vid=046b492e-a34c-4972-87e5-30c86457a049"},"vehicle_type_id":"4","last_reported":1727723177,"current_range_meters":4800,"station_id":"","pricing_plan_id":"cebpf4jnsgd1na2vs0mg"},{"bike_id":"52e07a1f-4518-4aba-a6e4-33740a5eb8ec","system_id":"levelo_inurba_marseille","lat":43.28969,"lon":5.37825,"is_reserved":false,"is_disabled":false,"rental_uris":{"android":"levelo://app?vid=52e07a1f-4518-4aba-a6e4-33740a5eb8ec","ios":"levelo://app?vid=52e07a1f-4518-4aba-a6e4-33740a5eb8ec"},"vehicle_type_id":"4","last_reported":1727723177,"current_range_meters":24400,"station_id":"ce4bh9p2rcd13ifvqed0","pricing_plan_id":"cebpf4jnsgd1na2vs0mg"},{"bike_id":"ae3d52ea-e94d-4930-8020-988143fb2e45","system_id":"levelo_inurba_marseille","lat":43.29027,"lon":5.37556,"is_reserved":false,"is_disabled":false,"rental_uris":{"android":"levelo://app?vid=ae3d52ea-e94d-4930-8020-988143fb2e45","ios":"levelo://app?vid=ae3d52ea-e94d-4930-8020-988143fb2e45"},"vehicle_type_id":"4","last_reported":1727723177,"current_range_meters":24800,"station_id":"ce4bh692rcd13ifvqe90","pricing_plan_id":"cebpf4jnsgd1na2vs0mg"},{"bike_id":"b537ddf5-0a8c-47ea-8add-e2089e21e1cd","system_id":"levelo_inurba_marseille","lat":43.25577,"lon":5.38225,"is_reserved":false,"is_disabled":false,"rental_uris":{"android":"levelo://app?vid=b537ddf5-0a8c-47ea-8add-e2089e21e1cd","ios":"levelo://app?vid=b537ddf5-0a8c-47ea-8add-e2089e21e1cd"},"vehicle_type_id":"4","last_reported":1727723177,"current_range_meters":20000,"station_id":"ce4bhih2rcd13ifvqfs0","pricing_plan_id":"cebpf4jnsgd1na2vs0mg"},{"bike_id":"f0e48a65-a1ce-4489-ab33-a98933655379","system_id":"levelo_inurba_marseille","lat":43.30422,"lon":5.41287,"is_reserved":false,"is_disabled":false,"rental_uris":{"android":"levelo://app?vid=f0e48a65-a1ce-4489-ab33-a98933655379","ios":"levelo://app?vid=f0e48a65-a1ce-4489-ab33-a98933655379"},"vehicle_type_id":"4","last_reported":1727723177,"current_range_meters":8000,"station_id":"ce4bhop2rcd13ifvqh8g","pricing_plan_id":"cebpf4jnsgd1na2vs0mg"},{"bike_id":"0ef029fc-fa90-4e25-8975-847a63a7e29d","system_id":"levelo_inurba_marseille","lat":43.31997,"lon":5.38158,"is_reserved":false,"is_disabled":false,"rental_uris":{"android":"levelo://app?vid=0ef029fc-fa90-4e25-8975-847a63a7e29d","ios":"levelo://app?vid=0ef029fc-fa90-4e25-8975-847a63a7e29d"},"vehicle_type_id":"4","last_reported":1727723177,"current_range_meters":18000,"station_id":"ce4bhr12rcd13ifvqhpg","pricing_plan_id":"cebpf4jnsgd1na2vs0mg"},{"bike_id":"3d4358e6-b32f-44cf-9843-fa9824b52e21","system_id":"levelo_inurba_marseille","lat":43.32293,"lon":5.38273,"is_reserved":false,"is_disabled":false,"rental_uris":{"android":"levelo://app?vid=3d4358e6-b32f-44cf-9843-fa9824b52e21","ios":"levelo://app?vid=3d4358e6-b32f-44cf-9843-fa9824b52e21"},"vehicle_type_id":"4","last_reported":1727723177,"current_range_meters":23200,"station_id":"ce4bhr12rcd13ifvqhqg","pricing_plan_id":"cebpf4jnsgd1na2vs0mg"},{"bike_id":"8508bf75-104b-4ea2-ad13-faaaac0f3580","system_id":"levelo_inurba_marseille","lat":43.2928,"lon":5.4013,"is_reserved":false,"is_disabled":false,"rental_uris":{"android":"levelo://app?vid=8508bf75-104b-4ea2-ad13-faaaac0f3580","ios":"levelo://app?vid=8508bf75-104b-4ea2-ad13-faaaac0f3580"},