{"last_updated":1737202471,"ttl":60,"version":"2.2","data":{"bikes":[{"bike_id":"6079b780-f3b4-463d-a4c5-83165224f3d9","system_id":"levelo_inurba_marseille","lat":43.31995,"lon":5.3813,"is_reserved":false,"is_disabled":false,"rental_uris":{"android":"levelo://app?vid=6079b780-f3b4-463d-a4c5-83165224f3d9","ios":"levelo://app?vid=6079b780-f3b4-463d-a4c5-83165224f3d9"},"vehicle_type_id":"4","last_reported":1737202472,"current_range_meters":28000,"station_id":"ce4bhr12rcd13ifvqhpg","pricing_plan_id":"cebpf4jnsgd1na2vs0mg"},{"bike_id":"9a94713b-6e30-4f63-bf81-a8b1a503a122","system_id":"levelo_inurba_marseille","lat":43.28356,"lon":5.38101,"is_reserved":false,"is_disabled":false,"rental_uris":{"android":"levelo://app?vid=9a94713b-6e30-4f63-bf81-a8b1a503a122","ios":"levelo://app?vid=9a94713b-6e30-4f63-bf81-a8b1a503a122"},"vehicle_type_id":"4","last_reported":1737202472,"current_range_meters":30800,"station_id":"ce4bh412rcd13ifvqdr0","pricing_plan_id":"cebpf4jnsgd1na2vs0mg"},{"bike_id":"c9766540-9b90-45be-b6b0-454f052a4c7c","system_id":"levelo_inurba_marseille","lat":43.29103,"lon":5.38146,"is_reserved":false,"is_disabled":false,"rental_uris":{"android":"levelo://app?vid=c9766540-9b90-45be-b6b0-454f052a4c7c","ios":"levelo://app?vid=c9766540-9b90-45be-b6b0-454f052a4c7c"},"vehicle_type_id":"4","last_reported":1737202472,"current_range_meters":25200,"station_id":"ce4bh512rcd13ifvqe2g","pricing_plan_id":"cebpf4jnsgd1na2vs0mg"},{"bike_id":"530be816-56a5-4372-bab8-ad37ced15789","system_id":"levelo_inurba_marseille","lat":43.27999,"lon":5.40011,"is_reserved":false,"is_disabled":false,"rental_uris":{"android":"levelo://app?vid=530be816-56a5-4372-bab8-ad37ced15789","ios":"levelo://app?vid=530be816-56a5-4372-bab8-ad37ced15789"},"vehicle_type_id":"4","last_reported":1737202472,"current_range_meters":4400,"station_id":"ce4bho92rcd13ifvqh4g","pricing_plan_id":"cebpf4jnsgd1na2vs0mg"},{"bike_id":"fe6b3d5e-e2bd-4860-a3c0-d32da9a2cbc3","system_id":"levelo_inurba_marseille","lat":43.28721,"lon":5.37931,"is_reserved":false,"is_disabled":false,"rental_uris":{"android":"levelo://app?vid=fe6b3d5e-e2bd-4860-a3c0-d32da9a2cbc3","ios":"levelo://app?vid=fe6b3d5e-e2bd-4860-a3c0-d32da9a2cbc3"},"vehicle_type_id":"4","last_reported":1737202472,"current_range_meters":36400,"station_id":"ce4bh9p2rcd13ifvqec0","pricing_plan_id":"cebpf4jnsgd1na2vs0mg"},{"bike_id":"6d682773-cac7-4703-a5b4-0645b98eebdb","system_id":"levelo_inurba_marseille","lat":43.23196,"lon":5.35554,"is_reserved":false,"is_disabled":false,"rental_uris":{"android":"levelo://app?vid=6d682773-cac7-4703-a5b4-0645b98eebdb","ios":"levelo://app?vid=6d682773-cac7-4703-a5b4-0645b98eebdb"},"vehicle_type_id":"4","last_reported":1737202472,"current_range_meters":21600,"station_id":"ce4bhu92rcd13ifvqi70","pricing_plan_id":"cebpf4jnsgd1na2vs0mg"},{"bike_id":"baf85045-4dec-48a3-beb8-6f674ef3807a","system_id":"levelo_inurba_marseille","lat":43.30228,"lon":5.39488,"is_reserved":false,"is_disabled":false,"rental_uris":{"android":"levelo://app?vid=baf85045-4dec-48a3-beb8-6f674ef3807a","ios":"levelo://app?vid=baf85045-4dec-48a3-beb8-6f674ef3807a"},"vehicle_type_id":"4","last_reported":1737202472,"current_range_meters":38000,"station_id":"ce4bh0p2rcd13ifvqd70","pricing_plan_id":"cebpf4jnsgd1na2vs0mg"},{"bike_id":"15c2a6f7-ed0b-466d-81ed-6ad9730fc5ec","system_id":"levelo_inurba_marseille","lat":43.28695,"lon":5.37397,"is_reserved":false,"is_disabled":false,"rental_uris":{"android":"levelo://app?vid=15c2a6f7-ed0b-466d-81ed-6ad9730fc5ec","ios":"levelo://app?vid=15c2a6f7-ed0b-466d-81ed-6ad9730fc5ec"},"vehicle_type_id":"4","last_reported":1737202472,"current_range_meters":32800,"station_id":"ce4bh3p2rcd13ifvqdq0","pricing_plan_id":"cebpf4jnsgd1na2vs0mg"},{"bike_id":"79a7f7f9-7fa5-4804-99a8-6e797a962f75","system_id":"levelo_inurba_marseille","lat":43.29566,"lon":5.37497,"is_reserved":false,"is_disabled":false,"rental_uris":{"android":"levelo://app?vid=79a7f7f9-7fa5-4804-99a8-6e797a962f75","ios":"levelo://app?vid=79a7f7f9-7fa5-4804-99a8-6e797a962f75"},"vehicle_type_id":"4","last_reported":1737202472,"current_range_meters":38800,"station_id":"ce4bgkp2rcd13ifvqbmg","pricing_plan_id":"cebpf4jnsgd1na2vs0mg"},{"bike_id":"999db10a-7862-427d-acfb-f534a493a1d1","system_id":"levelo_inurba_marseille","lat":43.24668,"lon":5.38158,"is_reserved":false,"is_disabled":false,"rental_uris":{"android":"levelo://app?vid=999db10a-7862-427d-acfb-f534a493a1d1","ios":"levelo://app?vid=999db10a-7862-427d-acfb-f534a493a1d1"},"vehicle_type_id":"4","last_reported":1737202472,"current_range_meters":7200,"station_id":"ce4bhih2rcd13ifvqfr0","pricing_plan_id":"cebpf4jnsgd1na2vs0mg"},{"bike_id":"a82809b2-d13d-48d6-9fbb-3108e170a942","system_id":"levelo_inurba_marseille","lat":43.26683,"lon":5.38261,"is_reserved":false,"is_disabled":false,"rental_uris":{"android":"levelo://app?vid=a82809b2-d13d-48d6-9fbb-3108e170a942","ios":"levelo://app?vid=a82809b2-d13d-48d6-9fbb-3108e170a942"},"vehicle_type_id":"4","last_reported":1737202472,"current_range_meters":39200,"station_id":"ce4bhg92rcd13ifvqf90","pricing_plan_id":"cebpf4jnsgd1na2vs0mg"},{"bike_id":"e14822c4-f5f8-4fbe-82ee-b321060d1eaf","system_id":"levelo_inurba_marseille","lat":43.2988,"lon":5.38904,"is_reserved":false,"is_disabled":false,"rental_uris":{"android":"levelo://app?vid=e14822c4-f5f8-4fbe-82ee-b321060d1eaf","ios":"levelo://app?vid=e14822c4-f5f8-4fbe-82ee-b321060d1eaf"},"vehicle_type_id":"4","last_reported":1737202472,"current_range_meters":14400,"station_id":"ce4bh392rcd13ifvqdl0","pricing_plan_id":"cebpf4jnsgd1na2vs0mg"},{"bike_id":"2facf60e-4b74-4408-be56-5e144c403151","system_id":"levelo_inurba_marseille","lat":43.30519,"lon":5.36697,"is_reserved":false,"is_disabled":false,"rental_uris":{"android":"levelo://app?vid=2facf60e-4b74-4408-be56-5e144c403151","ios":"levelo://app?vid=2facf60e-4b74-4408-be56-5e144c403151"},"vehicle_type_id":"4","last_reported":1737202472,"current_range_meters":38800,"station_id":"ce4bgrp2rcd13ifvqc9g","pricing_plan_id":"cebpf4jnsgd1na2vs0mg"},{"bike_id":"8619b879-39c2-4eab-a29d-2a9e5a0aa763","system_id":"levelo_inurba_marseille","lat":43.34155,"lon":5.40912,"is_reserved":false,"is_disabled":false,"rental_uris":{"android":"levelo://app?vid=8619b879-39c2-4eab-a29d-2a9e5a0aa763","ios":"levelo://app?vid=8619b879-39c2-4eab-a29d-2a9e5a0aa763"},"vehicle_type_id":"4","last_reported":1737202472,"current_range_meters":38800,"station_id":"ce4bhqh2rcd13ifvqhlg","pricing_plan_id":"cebpf4jnsgd1na2vs0mg"},{"bike_id":"7c6fe78e-2ad3-4542-a601-5fc1503a6f6a","system_id":"levelo_inurba_marseille","lat":43.29889,"lon":5.38906,"is_reserved":false,"is_disabled":false,"rental_uris":{"android":"levelo://app?vid=7c6fe78e-2ad3-4542-a601-5fc1503a6f6a","ios":"levelo://app?vid=7c6fe78e-2ad3-4542-a601-5fc1503a6f6a"},"vehicle_type_id":"4","last_reported":1737202472,"current_range_meters":24800,"station_id":"ce4bh392rcd13ifvqdl0","pricing_plan_id":"cebpf4jnsgd1na2vs0mg"},{"bike_id":"c717f2a7-de2a-4c46-a25b-711791478edc","system_id":"levelo_inurba_marseille","lat":43.25579,"lon":5.38228,"is_reserved":false,"is_disabled":false,"rental_uris":{"android":"levelo://app?vid=c717f2a7-de2a-4c46-a25b-711791478edc","ios":"levelo://app?vid=c717f2a7-de2a-4c46-a25b-711791478edc"},"vehicle_type_id":"4","last_reported":1737202472,"current_range_meters":29600,"station_id":"ce4bhih2rcd13ifvqfs0","pricing_plan_id":"cebpf4jnsgd1na2vs0mg"},{"bike_id":"d8876122-ff1e-42bb-a9ac-c66c39d72467","system_id":"levelo_inurba_marseille","lat":43.24387,"lon":5.37054,"is_reserved":false,"is_disabled":false,"rental_uris":{"android":"levelo://app?vid=d8876122-ff1e-42bb-a9ac-c66c39d72467","ios":"levelo://app?vid=d8876122-ff1e-42bb-a9ac-c66c39d72467"},"vehicle_type_id":"4","last_reported":1737202472,"current_range_meters":27600,"station_id":"ce4bhhh2rcd13ifvqfk0","pricing_plan_id":"cebpf4jnsgd1na2vs0mg"},{"bike_id":"1ca09bf7-61ea-456c-9bde-631c2561ab63","system_id":"levelo_inurba_marseille","lat":43.30566,"lon":5.36536,"is_reserved":false,"is_disabled":false,"rental_uris":{"android":"levelo://app?vid=1ca09bf7-61ea-456c-9bde-631c2561ab63","ios":"levelo://app?vid=1ca09bf7-61ea-456c-9bde-631c2561ab63"},"vehicle_type_id":"4","last_reported":1737202472,"current_range_meters":28400,"station_id":"ce4bgs12rcd13ifvqcag","pricing_plan_id":"cebpf4jnsgd1na2vs0mg"},{"bike_id":"14e15f32-0cf2-4368-a816-ce8729f4cd94","system_id":"levelo_inurba_marseille","lat":43.28349,"lon":5.38101,"is_reserved":false,"is_disabled":false,"rental_uris":{"android":"levelo://app?vid=14e15f32-0cf2-4368-a816-ce8729f4cd94","ios":"levelo://app?vid=14e15f32-0cf2-4368-a816-ce8729f4cd94"},"vehicle_type_id":"4","last_reported":1737202472,"current_range_meters":22000,"station_id":"ce4bh412rcd13ifvqdr0","pricing_plan_id":"cebpf4jnsgd1na2vs0mg"},{"bike_id":"0bbfed84-aaea-446d-9091-9a8a8c37411e","system_id":"levelo_inurba_marseille","lat":43.31193,"lon":5.36879,"is_reserved":false,"is_disabled":false,"rental_uris":{"android":"levelo://app?vid=0bbfed84-aaea-446d-9091-9a8a8c37411e","ios":"levelo://app?vid=0bbfed84-aaea-446d-9091-9a8a8c37411e"},"vehicle_type_id":"4","last_reported":1737202472,"current_range_meters":38800,"station_id":"ce4bgl92rcd13ifvqbq0","pricing_plan_id":"cebpf4jnsgd1na2vs0mg"},{"bike_id":"607ab423-2eaa-4ae3-bd26-ca675f5968ff","system_id":"levelo_inurba_marseille","lat":43.28271,"lon":5.35073,"is_reserved":false,"is_disabled":false,"rental_uris":{"android":"levelo://app?vid=607ab423-2eaa-4ae3-bd26-ca675f5968ff","ios":"levelo://app?vid=607ab423-2eaa-4ae3-bd26-ca675f5968ff"},"vehicle_type_id":"4","last_reported":1737202472,"current_range_meters":38800,"station_id":"ce4bhbp2rcd13ifvqerg","pricing_plan_id":"cebpf4jnsgd1na2vs0mg"},{"bike_id":"b42d349b-8767-4500-922c-77c53d2c4648","system_id":"levelo_inurba_marseille","lat":43.2606,"lon":5.39398,"is_reserved":false,"is_disabled":false,"rental_uris":{"android":"levelo://app?vid=b42d349b-8767-4500-922c-77c53d2c4648","ios":"levelo://app?vid=b42d349b-8767-4500-922c-77c53d2c4648"},"vehicle_type_id":"4","last_reported":1737202472,"current_range_meters":22800,"station_id":"ce4bhh92rcd13ifvqfj0","pricing_plan_id":"cebpf4jnsgd1na2vs0mg"},{"bike_id":"6c651687-cc9a-4b34-8152-9b1cd96379d4","system_id":"levelo_inurba_marseille","lat":43.2951,"lon":5.39407,"is_reserved":false,"is_disabled":false,"rental_uris":{"android":"levelo://app?vid=6c651687-cc9a-4b34-8152-9b1cd96379d4","ios":"levelo://app?vid=6c651687-cc9a-4b34-8152-9b1cd96379d4"},"vehicle_type_id":"4","last_reported":1737202472,"current_range_meters":39200,"station_id":"ce4bh292rcd13ifvqdf0","pricing_plan_id":"cebpf4jnsgd1na2vs0mg"},{"bike_id":"f3c94274-f861-4c89-8bb1-1ebe1a531935","system_id":"levelo_inurba_marseille","lat":43.25013,"lon":5.38925,"is_reserved":false,"is_disabled":true,"rental_uris":{"android":"levelo://app?vid=f3c94274-f861-4c89-8bb1-1ebe1a531935","ios":"levelo://app?vid=f3c94274-f861-4c89-8bb1-1ebe1a531935"},"vehicle_type_id":"4","last_reported":1737202472,"current_range_meters":400,"station_id":"ce4bhgp2rcd13ifvqfd0","pricing_plan_id":"cebpf4jnsgd1na2vs0mg"},{"bike_id":"666d62fc-f7b3-419f-9cf1-9c4cad817518","system_id":"levelo_inurba_marseille","lat":43.29091,"lon":5.3818,"is_reserved":false,"is_disabled":false,"rental_uris":{"android":"levelo://app?vid=666d62fc-f7b3-419f-9cf1-9c4cad817518","ios":"levelo://app?vid=666d62fc-f7b3-419f-9cf1-9c4cad817518"},"vehicle_type_id":"4","last_reported":1737202472,"current_range_meters":27600,"station_id":"ce4bh512rcd13ifvqe2g","pricing_plan_id":"cebpf4jnsgd1na2vs0mg"},{"bike_id":"ea820ade-d81d-428e-82b9-7f165f7e8e75","system_id":"levelo_inurba_marseille","lat":43.32341,"lon":5.36724,"is_reserved":false,"is_disabled":false,"rental_uris":{"android":"levelo://app?vid=ea820ade-d81d-428e-82b9-7f165f7e8e75","ios":"levelo://app?vid=ea820ade-d81d-428e-82b9-7f165f7e8e75"},"vehicle_type_id":"4","last_reported":1737202472,"current_range_meters":22800,"station_id":"ce4bhsh2rcd13ifvqi2g","pricing_plan_id":"cebpf4jnsgd1na2vs0mg"},{"bike_id":"ff4b68f1-ba61-49bc-bc42-1ee83da4c2ee","system_id":"levelo_inurba_marseille","lat":43.30859,"lon":5.39667,"is_reserved":false,"is_disabled":true,"rental_uris":{"android":"levelo://app?vid=ff4b68f1-ba61-49bc-bc42-1ee83da4c2ee","ios":"levelo://app?vid=ff4b68f1-ba61-49bc-bc42-1ee83da4c2ee"},"vehicle_type_id":"4","last_reported":1737202472,"current_range_meters":36400,"station_id":"","pricing_plan_id":"cebpf4jnsgd1na2vs0mg"},{"bike_id":"1b0931f0-3312-4883-8a27-451132a4dc3d","system_id":"levelo_inurba_marseille","lat":43.31227,"lon":5.36853,"is_reserved":false,"is_disabled":false,"rental_uris":{"android":"levelo://app?vid=1b0931f0-3312-4883-8a27-451132a4dc3d","ios":"levelo://app?vid=1b0931f0-3312-4883-8a27-451132a4dc3d"},"vehicle_type_id":"4","last_reported":1737202472,"current_range_meters":34800,"station_id":"ce4bgl92rcd13ifvqbq0","pricing_plan_id":"cebpf4jnsgd1na2vs0mg"},{"bike_id":"880fcafb-c9ff-4b10-9fe1-72031548689a","system_id":"levelo_inurba_marseille","lat":43.28723,"lon":5.36095,"is_reserved":false,"is_disabled":false,"rental_uris":{"android":"levelo://app?vid=880fcafb-c9ff-4b10-9fe1-72031548689a","ios":"levelo://app?vid=880fcafb-c9ff-4b10-9fe1-72031548689a"},"vehicle_type_id":"4","last_reported":1737202472,"current_range_meters":27200,"station_id":"cki0cbj6b192h4jlfktg","pricing_plan_id":"cebpf4jnsgd1na2vs0mg"},{"bike_id":"40a84bb7-b298-41c9-9be3-6988c404f7ba","system_id":"levelo_inurba_marseille","lat":43.295239,"lon":5.39038,"is_reserved":false,"is_disabled":true,"rental_uris":{"android":"levelo://app?vid=40a84bb7-b298-41c9-9be3-6988c404f7ba","ios":"levelo://app?vid=40a84bb7-b298-41c9-9be3-6988c404f7ba"},"vehicle_type_id":"4","last_reported":1737202472,"current_range_meters":28800,"station_id":"ce4bh3p2rcd13ifvqdp0","pricing_plan_id":"cebpf4jnsgd1na2vs0mg"},{"bike_id":"234a24b2-67f4-470b-a11a-a7b60b2f1f3e","system_id":"levelo_inurba_marseille","lat":43.29234,"lon":5.36071,"is_reserved":false,"is_disabled":false,"rental_uris":{"android":"levelo://app?vid=234a24b2-67f4-470b-a11a-a7b60b2f1f3e","ios":"levelo://app?vid=234a24b2-67f4-470b-a11a-a7b60b2f1f3e"},"vehicle_type_id":"4","last_reported":1737202472,"current_range_meters":29600,"station_id":"ce4bhbh2rcd13ifvqeqg","pricing_plan_id":"cebpf4jnsgd1na2vs0mg"},{"bike_id":"2e00ce67-d361-4edc-b2f6-0809ad451868","system_id":"levelo_inurba_marseille","lat":43.23193,"lon":5.39986,"is_reserved":false,"is_disabled":false,"rental_uris":{"android":"levelo://app?vid=2e00ce67-d361-4edc-b2f6-0809ad451868","ios":"levelo://app?vid=2e00ce67-d361-4edc-b2f6-0809ad451868"},"vehicle_type_id":"4","last_reported":1737202472,"current_range_meters":38800,"station_id":"ce4bhn12rcd13ifvqgqg","pricing_plan_id":"cebpf4jnsgd1na2vs0mg"},{"bike_id":"c426f947-e7d1-4567-bd24-8116f04e7860","system_id":"levelo_inurba_marseille","lat":43.29279,"lon":5.36847,"is_reserved":false,"is_disabled":false,"rental_uris":{"android":"levelo://app?vid=c426f947-e7d1-4567-bd24-8116f04e7860","ios":"levelo://app?vid=c426f947-e7d1-4567-bd24-8116f04e7860"},"vehicle_type_id":"4","last_reported":1737202472,"current_range_meters":16800,"station_id":"ce4bhbp2rcd13ifvqesg","pricing_plan_id":"cebpf4jnsgd1na2vs0mg"},{"bike_id":"b672b566-ae6e-4181-a2cb-0155be334a04","system_id":"levelo_inurba_marseille","lat":43.28944,"lon":5.36635,"is_reserved":false,"is_disabled":true,"rental_uris":{"android":"levelo://app?vid=b672b566-ae6e-4181-a2cb-0155be334a04","ios":"levelo://app?vid=b672b566-ae6e-4181-a2cb-0155be334a04"},"vehicle_type_id":"4","last_reported":1737202472,"current_range_meters":0,"station_id":"ce4bhap2rcd13ifvqek0","pricing_plan_id":"cebpf4jnsgd1na2vs0mg"},{"bike_id":"0f1648ef-1c50-4d9f-bae4-e9070877900a","system_id":"levelo_inurba_marseille","lat":43.29079,"lon":5.37175,"is_reserved":false,"is_disabled":false,"rental_uris":{"android":"levelo://app?vid=0f1648ef-1c50-4d9f-bae4-e9070877900a","ios":"levelo://app?vid=0f1648ef-1c50-4d9f-bae4-e9070877900a"},"vehicle_type_id":"4","last_reported":1737202472,"current_range_meters":38000,"station_id":"ce4bh5p2rcd13ifvqe4g","pricing_plan_id":"cebpf4jnsgd1na2vs0mg"},{"bike_id":"b56d7cfb-6d51-4fa5-ac98-edff26387e02","system_id":"levelo_inurba_marseille","lat":43.290122,"lon":5.381538,"is_reserved":false,"is_disabled":false,"rental_uris":{"android":"levelo://app?vid=b56d7cfb-6d51-4fa5-ac98-edff26387e02","ios":"levelo://app?vid=b56d7cfb-6d51-4fa5-ac98-edff26387e02"},"vehicle_type_id":"4","last_reported":1737202472,"current_range_meters":34800,"station_id":"ce4bh4p2rcd13ifvqe1g","pricing_plan_id":"cebpf4jnsgd1na2vs0mg"},{"bike_id":"2ce36bee-afc2-42d5-8ef8-6c6c3e10df83","system_id":"levelo_inurba_marseille","lat":43.23194,"lon":5.35559,"is_reserved":false,"is_disabled":false,"rental_uris":{"android":"levelo://app?vid=2ce36bee-afc2-42d5-8ef8-6c6c3e10df83","ios":"levelo://app?vid=2ce36bee-afc2-42d5-8ef8-6c6c3e10df83"},"vehicle_type_id":"4","last_reported":1737202472,"current_range_meters":21600,"station_id":"ce4bhu92rcd13ifvqi70","pricing_plan_id":"cebpf4jnsgd1na2vs0mg"},{"bike_id":"054a9521-2db5-401e-ac83-57d178fb4e0a","system_id":"levelo_inurba_marseille","lat":43.29037,"lon":5.35921,"is_reserved":false,"is_disabled":false,"rental_uris":{"android":"levelo://app?vid=054a9521-2db5-401e-ac83-57d178fb4e0a","ios":"levelo://app?vid=054a9521-2db5-401e-ac83-57d178fb4e0a"},"vehicle_type_id":"4","last_reported":1737202472,"current_range_meters":38800,"station_id":"ce4bha92rcd13ifvqeg0","pricing_plan_id":"cebpf4jnsgd1na2vs0mg"},{"bike_id":"f0984860-e256-400f-a17a-f909190d755f","system_id":"levelo_inurba_marseille","lat":43.25708,"lon":5.41074,"is_reserved":false,"is_disabled":false,"rental_uris":{"android":"levelo://app?vid=f0984860-e256-400f-a17a-f909190d755f","ios":"levelo://app?vid=f0984860-e256-400f-a17a-f909190d755f"},"vehicle_type_id":"4","last_reported":1737202472,"current_range_meters":37600,"station_id":"ce4bhkp2rcd13ifvqgd0","pricing_plan_id":"cebpf4jnsgd1na2vs0mg"},{"bike_id":"6767abdc-3c6a-42d0-9e7b-2128533c47af","system_id":"levelo_inurba_marseille","lat":43.29027,"lon":5.38137,"is_reserved":false,"is_disabled":true,"rental_uris":{"android":"levelo://app?vid=6767abdc-3c6a-42d0-9e7b-2128533c47af","ios":"levelo://app?vid=6767abdc-3c6a-42d0-9e7b-2128533c47af"},"vehicle_type_id":"4","last_reported":1737202472,"current_range_meters":0,"station_id":"ce4bh4p2rcd13ifvqe1g","pricing_plan_id":"cebpf4jnsgd1na2vs0mg"},{"bike_id":"699f9075-c5fb-4c2e-b1de-3e38057eaabe","system_id":"levelo_inurba_marseille","lat":43.25007,"lon":5.38936,"is_reserved":false,"is_disabled":false,"rental_uris":{"android":"levelo://app?vid=699f9075-c5fb-4c2e-b1de-3e38057eaabe","ios":"levelo://app?vid=699f9075-c5fb-4c2e-b1de-3e38057eaabe"},"vehicle_type_id":"4","last_reported":1737202472,"current_range_meters":24400,"station_id":"ce4bhgp2rcd13ifvqfd0","pricing_plan_id":"cebpf4jnsgd1na2vs0mg"},{"bike_id":"b54b7d36-63ad-4626-a0e3-0fedf3e24316","system_id":"levelo_inurba_marseille","lat":43.26689,"lon":5.38267,"is_reserved":false,"is_disabled":false,"rental_uris":{"android":"levelo://app?vid=b54b7d36-63ad-4626-a0e3-0fedf3e24316","ios":"levelo://app?vid=b54b7d36-63ad-4626-a0e3-0fedf3e24316"},"vehicle_type_id":"4","last_reported":1737202472,"current_range_meters":38400,"station_id":"ce4bhg92rcd13ifvqf90","pricing_plan_id":"cebpf4jnsgd1na2vs0mg"},{"bike_id":"295ae294-3a65-4fed-ae58-bcda6f46004d","system_id":"levelo_inurba_marseille","lat":43.23154,"lon":5.43699,"is_reserved":false,"is_disabled":false,"rental_uris":{"android":"levelo://app?vid=295ae294-3a65-4fed-ae58-bcda6f46004d","ios":"levelo://app?vid=295ae294-3a65-4fed-ae58-bcda6f46004d"},"vehicle_type_id":"4","last_reported":1737202472,"current_range_meters":11200,"station_id":"ce4bhmp2rcd13ifvqgog","pricing_plan_id":"cebpf4jnsgd1na2vs0mg"},{"bike_id":"1477df1e-7f90-456f-83d3-515b3688ceeb","system_id":"levelo_inurba_marseille","lat":43.25939,"lon":5.40905,"is_reserved":false,"is_disabled":false,"rental_uris":{"android":"levelo://app?vid=1477df1e-7f90-456f-83d3-515b3688ceeb","ios":"levelo://app?vid=1477df1e-7f90-456f-83d3-515b3688ceeb"},"vehicle_type_id":"4","last_reported":1737202472,"current_range_meters":8000,"station_id":"ce4bhm92rcd13ifvqglg","pricing_plan_id":"cebpf4jnsgd1na2vs0mg"},{"bike_id":"eae4938b-82ed-48a2-af5e-c6d7cb90fcde","system_id":"levelo_inurba_marseille","lat":43.24562,"lon":5.39526,"is_reserved":false,"is_disabled":false,"rental_uris":{"android":"levelo://app?vid=eae4938b-82ed-48a2-af5e-c6d7cb90fcde","ios":"levelo://app?vid=eae4938b-82ed-48a2-af5e-c6d7cb90fcde"},"vehicle_type_id":"4","last_reported":1737202472,"current_range_meters":30000,"station_id":"ce4bhlp2rcd13ifvqgjg","pricing_plan_id":"cebpf4jnsgd1na2vs0mg"},{"bike_id":"33ed4947-93ff-4043-819c-6965d26d68ac","system_id":"levelo_inurba_marseille","lat":43.2951,"lon":5.39405,"is_reserved":false,"is_disabled":false,"rental_uris":{"android":"levelo://app?vid=33ed4947-93ff-4043-819c-6965d26d68ac","ios":"levelo://app?vid=33ed4947-93ff-4043-819c-6965d26d68ac"},"vehicle_type_id":"4","last_reported":1737202472,"current_range_meters":22000,"station_id":"ce4bh292rcd13ifvqdf0","pricing_plan_id":"cebpf4jnsgd1na2vs0mg"},{"bike_id":"11854ff7-8188-4d1d-a4c6-3790dab1f10c","system_id":"levelo_inurba_marseille","lat":43.32049,"lon":5.41586,"is_reserved":false,"is_disabled":false,"rental_uris":{"android":"levelo://app?vid=11854ff7-8188-4d1d-a4c6-3790dab1f10c","ios":"levelo://app?vid=11854ff7-8188-4d1d-a4c6-3790dab1f10c"},"vehicle_type_id":"4","last_reported":1737202472,"current_range_meters":39200,"station_id":"ce4bhq92rcd13ifvqhkg","pricing_plan_id":"cebpf4jnsgd1na2vs0mg"},{"bike_id":"b94614d3-2c6c-4b7f-a918-eb726c1cd570","system_id":"levelo_inurba_marseille","lat":43.32054,"lon":5.41561,"is_reserved":false,"is_disabled":true,"rental_uris":{"android":"levelo://app?vid=b94614d3-2c6c-4b7f-a918-eb726c1cd570","ios":"levelo://app?vid=b94614d3-2c6c-4b7f-a918-eb726c1cd570"},"vehicle_type_id":"4","last_reported":1737202472,"current_range_meters":1600,"station_id":"ce4bhq92rcd13ifvqhkg","pricing_plan_id":"cebpf4jnsgd1na2vs0mg"},{"bike_id":"539b4fb0-cc4e-4769-b28a-3e0e9100b545","system_id":"levelo_inurba_marseille","lat":43.29307,"lon":5.37441,"is_reserved":false,"is_disabled":false,"rental_uris":{"android":"levelo://app?vid=539b4fb0-cc4e-4769-b28a-3e0e9100b545","ios":"levelo://app?vid=539b4fb0-cc4e-4769-b28a-3e0e9100b545"},"vehicle_type_id":"4","last_reported":1737202472,"current_range_meters":38800,"station_id":"ce4bgi12rcd13ifvqb70","pricing_plan_id":"cebpf4jnsgd1na2vs0mg"},{"bike_id":"aa3abafd-265e-43a7-b680-7f119d86028a","system_id":"levelo_inurba_marseille","lat":43.298814,"lon":5.388092,"is_reserved":false,"is_disabled":false,"rental_uris":{"android":"levelo://app?vid=aa3abafd-265e-43a7-b680-7f119d86028a","ios":"levelo://app?vid=aa3abafd-265e-43a7-b680-7f119d86028a"},"vehicle_type_id":"4","last_reported":1737202472,"current_range_meters":34800,"station_id":"","pricing_plan_id":"cebpf4jnsgd1na2vs0mg"},{"bike_id":"75e2c3ed-495d-4e4f-ab91-7ee97ac2342e","system_id":"levelo_inurba_marseille","lat":43.29363,"lon":5.37864,"is_reserved":false,"is_disabled":false,"rental_uris":{"android":"levelo://app?vid=75e2c3ed-495d-4e4f-ab91-7ee97ac2342e","ios":"levelo://app?vid=75e2c3ed-495d-4e4f-ab91-7ee97ac2342e"},"vehicle_type_id":"4","last_reported":1737202472,"current_range_meters":26800,"station_id":"ce4bgjh2rcd13ifvqbf0","pricing_plan_id":"cebpf4jnsgd1na2vs0mg"},{"bike_id":"be3b9c3c-929a-48fa-8f1d-a4947578d7ef","system_id":"levelo_inurba_marseille","lat":43.2766,"lon":5.38928,"is_reserved":false,"is_disabled":false,"rental_uris":{"android":"levelo://app?vid=be3b9c3c-929a-48fa-8f1d-a4947578d7ef","ios":"levelo://app?vid=be3b9c3c-929a-48fa-8f1d-a4947578d7ef"},"vehicle_type_id":"4","last_reported":1737202472,"current_range_meters":38800,"station_id":"ce4bhi12rcd13ifvqfo0","pricing_plan_id":"cebpf4jnsgd1na2vs0mg"},{"bike_id":"f7239cd7-4b4d-4f2f-8625-9fe502fc71c9","system_id":"levelo_inurba_marseille","lat":43.28622,"lon":5.35111,"is_reserved":false,"is_disabled":false,"rental_uris":{"android":"levelo://app?vid=f7239cd7-4b4d-4f2f-8625-9fe502fc71c9","ios":"levelo://app?vid=f7239cd7-4b4d-4f2f-8625-9fe502fc71c9"},"vehicle_type_id":"4","last_reported":1737202472,"current_range_meters":25200,"station_id":"ce4bhch2rcd13ifvqeug","pricing_plan_id":"cebpf4jnsgd1na2vs0mg"},{"bike_id":"ca8aa51d-4833-4c77-8009-59b7c07323a3","system_id":"levelo_inurba_marseille","lat":43.32364,"lon":5.3675,"is_reserved":false,"is_disabled":false,"rental_uris":{"android":"levelo://app?vid=ca8aa51d-4833-4c77-8009-59b7c07323a3","ios":"levelo://app?vid=ca8aa51d-4833-4c77-8009-59b7c07323a3"},"vehicle_type_id":"4","last_reported":1737202472,"current_range_meters":10000,"station_id":"ce4bhsh2rcd13ifvqi2g","pricing_plan_id":"cebpf4jnsgd1na2vs0mg"},{"bike_id":"5faa8c62-2ac8-41ab-93f0-47014fb93567","system_id":"levelo_inurba_marseille","lat":43.3009,"lon":5.39066,"is_reserved":false,"is_disabled":false,"rental_uris":{"android":"levelo://app?vid=5faa8c62-2ac8-41ab-93f0-47014fb93567","ios":"levelo://app?vid=5faa8c62-2ac8-41ab-93f0-47014fb93567"},"vehicle_type_id":"4","last_reported":1737202472,"current_range_meters":28400,"station_id":"ce4bh192rcd13ifvqdb0","pricing_plan_id":"cebpf4jnsgd1na2vs0mg"},{"bike_id":"f61dd5d3-0672-4bb7-96d8-4f3667909d16","system_id":"levelo_inurba_marseille","lat":43.2797,"lon":5.38729,"is_reserved":false,"is_disabled":false,"rental_uris":{"android":"levelo://app?vid=f61dd5d3-0672-4bb7-96d8-4f3667909d16","ios":"levelo://app?vid=f61dd5d3-0672-4bb7-96d8-4f3667909d16"},"vehicle_type_id":"4","last_reported":1737202472,"current_range_meters":14800,"station_id":"ce4bhg12rcd13ifvqf80","pricing_plan_id":"cebpf4jnsgd1na2vs0mg"},{"bike_id":"96c695e4-d2ae-4622-8b84-ac5bd76f7fbd","system_id":"levelo_inurba_marseille","lat":43.27625,"lon":5.36096,"is_reserved":false,"is_disabled":false,"rental_uris":{"android":"levelo://app?vid=96c695e4-d2ae-4622-8b84-ac5bd76f7fbd","ios":"levelo://app?vid=96c695e4-d2ae-4622-8b84-ac5bd76f7fbd"},"vehicle_type_id":"4","last_reported":1737202472,"current_range_meters":25200,"station_id":"ce4bgj92rcd13ifvqbe0","pricing_plan_id":"cebpf4jnsgd1na2vs0mg"},{"bike_id":"d6fcb2b2-2cb2-421d-ab7a-3b0afff15b9e","system_id":"levelo_inurba_marseille","lat":43.27284,"lon":5.39097,"is_reserved":false,"is_disabled":false,"rental_uris":{"android":"levelo://app?vid=d6fcb2b2-2cb2-421d-ab7a-3b0afff15b9e","ios":"levelo://app?vid=d6fcb2b2-2cb2-421d-ab7a-3b0afff15b9e"},"vehicle_type_id":"4","last_reported":1737202472,"current_range_meters":9600,"station_id":"ce4bhgp2rcd13ifvqfe0","pricing_plan_id":"cebpf4jnsgd1na2vs0mg"},{"bike_id":"6cae5f71-5c53-49c8-a257-c5a3ac6b77dd","system_id":"levelo_inurba_marseille","lat":43.31318,"lon":5.39695,"is_reserved":false,"is_disabled":false,"rental_uris":{"android":"levelo://app?vid=6cae5f71-5c53-49c8-a257-c5a3ac6b77dd","ios":"levelo://app?vid=6cae5f71-5c53-49c8-a257-c5a3ac6b77dd"},"vehicle_type_id":"4","last_reported":1737202472,"current_range_meters":22800,"station_id":"ce4bgvp2rcd13ifvqcu0","pricing_plan_id":"cebpf4jnsgd1na2vs0mg"},{"bike_id":"2ad54648-6c2f-4b5a-b9ff-e90ca70dc78b","system_id":"levelo_inurba_marseille","lat":43.23196,"lon":5.35564,"is_reserved":false,"is_disabled":false,"rental_uris":{"android":"levelo://app?vid=2ad54648-6c2f-4b5a-b9ff-e90ca70dc78b","ios":"levelo://app?vid=2ad54648-6c2f-4b5a-b9ff-e90ca70dc78b"},"vehicle_type_id":"4","last_reported":1737202472,"current_range_meters":8000,"station_id":"ce4bhu92rcd13ifvqi70","pricing_plan_id":"cebpf4jnsgd1na2vs0mg"},{"bike_id":"c6b2298b-e3ea-4ff5-9aea-4dedd2e2a126","system_id":"levelo_inurba_marseille","lat":43.29494,"lon":5.39021,"is_reserved":false,"is_disabled":true,"rental_uris":{"android":"levelo://app?vid=c6b2298b-e3ea-4ff5-9aea-4dedd2e2a126","ios":"levelo://app?vid=c6b2298b-e3ea-4ff5-9aea-4dedd2e2a126"},"vehicle_type_id":"4","last_reported":1737202472,"current_range_meters":28400,"station_id":"ce4bh3p2rcd13ifvqdp0","pricing_plan_id":"cebpf4jnsgd1na2vs0mg"},{"bike_id":"10b88601-1b3c-41f1-aeb7-884146b89453","system_id":"levelo_inurba_marseille","lat":43.286479,"lon":5.351444,"is_reserved":false,"is_disabled":false,"rental_uris":{"android":"levelo://app?vid=10b88601-1b3c-41f1-aeb7-884146b89453","ios":"levelo://app?vid=10b88601-1b3c-41f1-aeb7-884146b89453"},"vehicle_type_id":"4","last_reported":1737202472,"current_range_meters":30000,"station_id":"ce4bhch2rcd13ifvqeug","pricing_plan_id":"cebpf4jnsgd1na2vs0mg"},{"bike_id":"fe4e8d1f-2600-468f-a43a-eb21b90157aa","system_id":"levelo_inurba_marseille","lat":43.27328,"lon":5.39072,"is_reserved":false,"is_disabled":false,"rental_uris":{"android":"levelo://app?vid=fe4e8d1f-2600-468f-a43a-eb21b90157aa","ios":"levelo://app?vid=fe4e8d1f-2600-468f-a43a-eb21b90157aa"},"vehicle_type_id":"4","last_reported":1737202472,"current_range_meters":19200,"station_id":"ce4bhgp2rcd13ifvqfe0","pricing_plan_id":"cebpf4jnsgd1na2vs0mg"},{"bike_id":"c9be01c1-c65a-4c98-8923-01889b467275","system_id":"levelo_inurba_marseille","lat":43.26582,"lon":5.37302,"is_reserved":false,"is_disabled":false,"rental_uris":{"android":"levelo://app?vid=c9be01c1-c65a-4c98-8923-01889b467275","ios":"levelo://app?vid=c9be01c1-c65a-4c98-8923-01889b467275"},"vehicle_type_id":"4","last_reported":1737202472,"current_range_meters":38800,"station_id":"ce4bhg12rcd13ifvqf70","pricing_plan_id":"cebpf4jnsgd1na2vs0mg"},{"bike_id":"c3e33ec7-202c-404a-ba09-a5072c1da0f1","system_id":"levelo_inurba_marseille","lat":43.28962,"lon":5.37833,"is_reserved":false,"is_disabled":false,"rental_uris":{"android":"levelo://app?vid=c3e33ec7-202c-404a-ba09-a5072c1da0f1","ios":"levelo://app?vid=c3e33ec7-202c-404a-ba09-a5072c1da0f1"},"vehicle_type_id":"4","last_reported":1737202472,"current_range_meters":38800,"station_id":"ce4bh9p2rcd13ifvqed0","pricing_plan_id":"cebpf4jnsgd1na2vs0mg"},{"bike_id":"d4f48d4a-1b2f-4917-b032-e3ea3abcce65","system_id":"levelo_inurba_marseille","lat":43.2935,"lon":5.37859,"is_reserved":false,"is_disabled":false,"rental_uris":{"android":"levelo://app?vid=d4f48d4a-1b2f-4917-b032-e3ea3abcce65","ios":"levelo://app?vid=d4f48d4a-1b2f-4917-b032-e3ea3abcce65"},"vehicle_type_id":"4","last_reported":1737202472,"current_range_meters":30800,"station_id":"ce4bgjh2rcd13ifvqbf0","pricing_plan_id":"cebpf4jnsgd1na2vs0mg"},{"bike_id":"648b1c17-c4e2-4b33-b621-19ca3b4308cc","system_id":"levelo_inurba_marseille","lat":43.26804,"lon":5.40271,"is_reserved":false,"is_disabled":false,"rental_uris":{"android":"levelo://app?vid=648b1c17-c4e2-4b33-b621-19ca3b4308cc","ios":"levelo://app?vid=648b1c17-c4e2-4b33-b621-19ca3b4308cc"},"vehicle_type_id":"4","last_reported":1737202472,"current_range_meters":24000,"station_id":"ce501612rcd8frsf0b60","pricing_plan_id":"cebpf4jnsgd1na2vs0mg"},{"bike_id":"f3e583ab-1836-4c1f-aa2d-8bf6f38588e4","system_id":"levelo_inurba_marseille","lat":43.26558,"lon":5.37288,"is_reserved":false,"is_disabled":false,"rental_uris":{"android":"levelo://app?vid=f3e583ab-1836-4c1f-aa2d-8bf6f38588e4","ios":"levelo://app?vid=f3e583ab-1836-4c1f-aa2d-8bf6f38588e4"},"vehicle_type_id":"4","last_reported":1737202472,"current_range_meters":12000,"station_id":"ce4bhg12rcd13ifvqf70","pricing_plan_id":"cebpf4jnsgd1na2vs0mg"},{"bike_id":"8eaddf67-1ea5-48ba-bed3-583a76394419","system_id":"levelo_inurba_marseille","lat":43.250013,"lon":5.389313,"is_reserved":false,"is_disabled":false,"rental_uris":{"android":"levelo://app?vid=8eaddf67-1ea5-48ba-bed3-583a76394419","ios":"levelo://app?vid=8eaddf67-1ea5-48ba-bed3-583a76394419"},"vehicle_type_id":"4","last_reported":1737202472,"current_range_meters":18000,"station_id":"ce4bhgp2rcd13ifvqfd0","pricing_plan_id":"cebpf4jnsgd1na2vs0mg"},{"bike_id":"0aacbbb4-b4df-4112-9f3e-9c8b0c3a36b2","system_id":"levelo_inurba_marseille","lat":43.24393,"lon":5.37099,"is_reserved":false,"is_disabled":false,"rental_uris":{"android":"levelo://app?vid=0aacbbb4-b4df-4112-9f3e-9c8b0c3a36b2","ios":"levelo://app?vid=0aacbbb4-b4df-4112-9f3e-9c8b0c3a36b2"},"vehicle_type_id":"4","last_reported":1737202472,"current_range_meters":39200,"station_id":"ce4bhhh2rcd13ifvqfk0","pricing_plan_id":"cebpf4jnsgd1na2vs0mg"},{"bike_id":"7b42a98f-a6d5-44c4-85b1-ac2cd91aafd3","system_id":"levelo_inurba_marseille","lat":43.27217,"lon":5.39188,"is_reserved":false,"is_disabled":true,"rental_uris":{"android":"levelo://app?vid=7b42a98f-a6d5-44c4-85b1-ac2cd91aafd3","ios":"levelo://app?vid=7b42a98f-a6d5-44c4-85b1-ac2cd91aafd3"},"vehicle_type_id":"4","last_reported":1737202472,"current_range_meters":0,"station_id":"ce4bhhp2rcd13ifvqfm0","pricing_plan_id":"cebpf4jnsgd1na2vs0mg"},{"bike_id":"891d5aa4-b1b0-4e0c-90ac-49e97bf9c382","system_id":"levelo_inurba_marseille","lat":43.23179,"lon":5.39982,"is_reserved":false,"is_disabled":false,"rental_uris":{"android":"levelo://app?vid=891d5aa4-b1b0-4e0c-90ac-49e97bf9c382","ios":"levelo://app?vid=891d5aa4-b1b0-4e0c-90ac-49e97bf9c382"},"vehicle_type_id":"4","last_reported":1737202472,"current_range_meters":30000,"station_id":"ce4bhn12rcd13ifvqgqg","pricing_plan_id":"cebpf4jnsgd1na2vs0mg"},{"bike_id":"56fd95d7-387f-4701-b2ed-67ccefca57fa","system_id":"levelo_inurba_marseille","lat":43.30478,"lon":5.37901,"is_reserved":false,"is_disabled":false,"rental_uris":{"android":"levelo://app?vid=56fd95d7-387f-4701-b2ed-67ccefca57fa","ios":"levelo://app?vid=56fd95d7-387f-4701-b2ed-67ccefca57fa"},"vehicle_type_id":"4","last_reported":1737202472,"current_range_meters":39200,"station_id":"ce4bgup2rcd13ifvqcn0","pricing_plan_id":"cebpf4jnsgd1na2vs0mg"},{"bike_id":"5b80f21a-656c-403f-8449-434cbf74e02f","system_id":"levelo_inurba_marseille","lat":43.29036,"lon":5.39976,"is_reserved":false,"is_disabled":false,"rental_uris":{"android":"levelo://app?vid=5b80f21a-656c-403f-8449-434cbf74e02f","ios":"levelo://app?vid=5b80f21a-656c-403f-8449-434cbf74e02f"},"vehicle_type_id":"4","last_reported":1737202472,"current_range_meters":16400,"station_id":"ce4bh392rcd13ifvqdm0","pricing_plan_id":"cebpf4jnsgd1na2vs0mg"},{"bike_id":"61edbcd9-c35d-44cd-8931-a0a4066be2b7","system_id":"levelo_inurba_marseille","lat":43.29111,"lon":5.37164,"is_reserved":false,"is_disabled":false,"rental_uris":{"android":"levelo://app?vid=61edbcd9-c35d-44cd-8931-a0a4066be2b7","ios":"levelo://app?vid=61edbcd9-c35d-44cd-8931-a0a4066be2b7"},"vehicle_type_id":"4","last_reported":1737202472,"current_range_meters":38800,"station_id":"ce4bh5p2rcd13ifvqe4g","pricing_plan_id":"cebpf4jnsgd1na2vs0mg"},{"bike_id":"357eaeda-fef2-41f2-9ad0-621ae2cc5c09","system_id":"levelo_inurba_marseille","lat":43.33768,"lon":5.37496,"is_reserved":false,"is_disabled":false,"rental_uris":{"android":"levelo://app?vid=357eaeda-fef2-41f2-9ad0-621ae2cc5c09","ios":"levelo://app?vid=357eaeda-fef2-41f2-9ad0-621ae2cc5c09"},"vehicle_type_id":"4","last_reported":1737202472,"current_range_meters":32000,"station_id":"","pricing_plan_id":"cebpf4jnsgd1na2vs0mg"},{"bike_id":"54c9f7de-8fe5-4fd6-a934-8372e9cad70a","system_id":"levelo_inurba_marseille","lat":43.28877,"lon":5.39337,"is_reserved":false,"is_disabled":true,"rental_uris":{"android":"levelo://app?vid=54c9f7de-8fe5-4fd6-a934-8372e9cad70a","ios":"levelo://app?vid=54c9f7de-8fe5-4fd6-a934-8372e9cad70a"},"vehicle_type_id":"4","last_reported":1737202472,"current_range_meters":22800,"station_id":"ce4bh2p2rcd13ifvqdi0","pricing_plan_id":"cebpf4jnsgd1na2vs0mg"},{"bike_id":"d2190693-b9c3-43fb-b96c-d622d6cca5f6","system_id":"levelo_inurba_marseille","lat":43.23216,"lon":5.35556,"is_reserved":false,"is_disabled":false,"rental_uris":{"android":"levelo://app?vid=d2190693-b9c3-43fb-b96c-d622d6cca5f6","ios":"levelo://app?vid=d2190693-b9c3-43fb-b96c-d622d6cca5f6"},"vehicle_type_id":"4","last_reported":1737202472,"current_range_meters":28000,"station_id":"ce4bhu92rcd13ifvqi70","pricing_plan_id":"cebpf4jnsgd1na2vs0mg"},{"bike_id":"7953f2ff-2c39-45d6-b22c-7c68b57c7032","system_id":"levelo_inurba_marseille","lat":43.23194,"lon":5.35554,"is_reserved":false,"is_disabled":false,"rental_uris":{"android":"levelo://app?vid=7953f2ff-2c39-45d6-b22c-7c68b57c7032","ios":"levelo://app?vid=7953f2ff-2c39-45d6-b22c-7c68b57c7032"},"vehicle_type_id":"4","last_reported":1737202472,"current_range_meters":7200,"station_id":"ce4bhu92rcd13ifvqi70","pricing_plan_id":"cebpf4jnsgd1na2vs0mg"},{"bike_id":"c16af295-34ba-47e2-83f5-588ec70db48a","system_id":"levelo_inurba_marseille","lat":43.29068,"lon":5.40028,"is_reserved":false,"is_disabled":true,"rental_uris":{"android":"levelo://app?vid=c16af295-34ba-47e2-83f5-588ec70db48a","ios":"levelo://app?vid=c16af295-34ba-47e2-83f5-588ec70db48a"},"vehicle_type_id":"4","last_reported":1737202472,"current_range_meters":38000,"station_id":"","pricing_plan_id":"cebpf4jnsgd1na2vs0mg"},{"bike_id":"735750d8-5f08-4431-bc24-398e0f49226d","system_id":"levelo_inurba_marseille","lat":43.25722,"lon":5.41057,"is_reserved":false,"is_disabled":false,"rental_uris":{"android":"levelo://app?vid=735750d8-5f08-4431-bc24-398e0f49226d","ios":"levelo://app?vid=735750d8-5f08-4431-bc24-398e0f49226d"},"vehicle_type_id":"4","last_reported":1737202472,"current_range_meters":11600,"station_id":"ce4bhkp2rcd13ifvqgd0","pricing_plan_id":"cebpf4jnsgd1na2vs0mg"},{"bike_id":"6fa4492c-803e-4603-a2ad-25f8499d5639","system_id":"levelo_inurba_marseille","lat":43.26024,"lon":5.39323,"is_reserved":false,"is_disabled":false,"rental_uris":{"android":"levelo://app?vid=6fa4492c-803e-4603-a2ad-25f8499d5639","ios":"levelo://app?vid=6fa4492c-803e-4603-a2ad-25f8499d5639"},"vehicle_type_id":"4","last_reported":1737202472,"current_range_meters":22400,"station_id":"","pricing_plan_id":"cebpf4jnsgd1na2vs0mg"},{"bike_id":"1d286ee4-8730-43d1-b062-3cef70256d46","system_id":"levelo_inurba_marseille","lat":43.29028,"lon":5.3813,"is_reserved":false,"is_disabled":false,"rental_uris":{"android":"levelo://app?vid=1d286ee4-8730-43d1-b062-3cef70256d46","ios":"levelo://app?vid=1d286ee4-8730-43d1-b062-3cef70256d46"},"vehicle_type_id":"4","last_reported":1737202472,"current_range_meters":37600,"station_id":"ce4bh4p2rcd13ifvqe1g","pricing_plan_id":"cebpf4jnsgd1na2vs0mg"},{"bike_id":"2169cf45-eac4-40d4-806b-6a3511278a1e","system_id":"levelo_inurba_marseille","lat":43.29528,"lon":5.37502,"is_reserved":false,"is_disabled":false,"rental_uris":{"android":"levelo://app?vid=2169cf45-eac4-40d4-806b-6a3511278a1e","ios":"levelo://app?vid=2169cf45-eac4-40d4-806b-6a3511278a1e"},"vehicle_type_id":"4","last_reported":1737202472,"current_range_meters":39200,"station_id":"ce4bgkp2rcd13ifvqbmg","pricing_plan_id":"cebpf4jnsgd1na2vs0mg"},{"bike_id":"41d9c9ee-e01c-41bf-a133-e1b16cf463c8","system_id":"levelo_inurba_marseille","lat":43.301414,"lon":5.380909,"is_reserved":false,"is_disabled":false,"rental_uris":{"android":"levelo://app?vid=41d9c9ee-e01c-41bf-a133-e1b16cf463c8","ios":"levelo://app?vid=41d9c9ee-e01c-41bf-a133-e1b16cf463c8"},"vehicle_type_id":"4","last_reported":1737202472,"current_range_meters":38800,"station_id":"ce4bgjp2rcd13ifvqbh0","pricing_plan_id":"cebpf4jnsgd1na2vs0mg"},{"bike_id":"bcd58053-bae7-45e1-88e2-378c4d0a6c9f","system_id":"levelo_inurba_marseille","lat":43.317055,"lon":5.404547,"is_reserved":false,"is_disabled":false,"rental_uris":{"android":"levelo://app?vid=bcd58053-bae7-45e1-88e2-378c4d0a6c9f","ios":"levelo://app?vid=bcd58053-bae7-45e1-88e2-378c4d0a6c9f"},"vehicle_type_id":"4","last_reported":1737202472,"current_range_meters":27200,"station_id":"ce4bh012rcd13ifvqd00","pricing_plan_id":"cebpf4jnsgd1na2vs0mg"},{"bike_id":"01a07bd9-36a1-4c19-a88b-7c9e3a6ee490","system_id":"levelo_inurba_marseille","lat":43.25096,"lon":5.39522,"is_reserved":false,"is_disabled":false,"rental_uris":{"android":"levelo://app?vid=01a07bd9-36a1-4c19-a88b-7c9e3a6ee490","ios":"levelo://app?vid=01a07bd9-36a1-4c19-a88b-7c9e3a6ee490"},"vehicle_type_id":"4","last_reported":1737202472,"current_range_meters":36800,"station_id":"ce4bhm12rcd13ifvqgkg","pricing_plan_id":"cebpf4jnsgd1na2vs0mg"},{"bike_id":"174f0af5-77d3-458b-a760-4be608ecb4ff","system_id":"levelo_inurba_marseille","lat":43.29573,"lon":5.37537,"is_reserved":false,"is_disabled":false,"rental_uris":{"android":"levelo://app?vid=174f0af5-77d3-458b-a760-4be608ecb4ff","ios":"levelo://app?vid=174f0af5-77d3-458b-a760-4be608ecb4ff"},"vehicle_type_id":"4","last_reported":1737202472,"current_range_meters":33600,"station_id":"ce4bhb92rcd13ifvqen0","pricing_plan_id":"cebpf4jnsgd1na2vs0mg"},{"bike_id":"d615d74e-143c-44d0-9a61-fef9d499e25b","system_id":"levelo_inurba_marseille","lat":43.26033,"lon":5.37548,"is_reserved":false,"is_disabled":false,"rental_uris":{"android":"levelo://app?vid=d615d74e-143c-44d0-9a61-fef9d499e25b","ios":"levelo://app?vid=d615d74e-143c-44d0-9a61-fef9d499e25b"},"vehicle_type_id":"4","last_reported":1737202472,"current_range_meters":39200,"station_id":"ce4bhgh2rcd13ifvqfa0","pricing_plan_id":"cebpf4jnsgd1na2vs0mg"},{"bike_id":"4ffb2fd7-5f5b-4f82-8ddf-9fe95e000c38","system_id":"levelo_inurba_marseille","lat":43.25394,"lon":5.41651,"is_reserved":false,"is_disabled":true,"rental_uris":{"android":"levelo://app?vid=4ffb2fd7-5f5b-4f82-8ddf-9fe95e000c38","ios":"levelo://app?vid=4ffb2fd7-5f5b-4f82-8ddf-9fe95e000c38"},"vehicle_type_id":"4","last_reported":1737202472,"current_range_meters":0,"station_id":"","pricing_plan_id":"cebpf4jnsgd1na2vs0mg"},{"bike_id":"9be957d2-26d1-49a4-9f85-b06ee3432064","system_id":"levelo_inurba_marseille","lat":43.33734,"lon":5.39202,"is_reserved":false,"is_disabled":false,"rental_uris":{"android":"levelo://app?vid=9be957d2-26d1-49a4-9f85-b06ee3432064","ios":"levelo://app?vid=9be957d2-26d1-49a4-9f85-b06ee3432064"},"vehicle_type_id":"4","last_reported":1737202472,"current_range_meters":26800,"station_id":"ce4bhr92rcd13ifvqhsg","pricing_plan_id":"cebpf4jnsgd1na2vs0mg"},{"bike_id":"7474cf9f-a50a-4064-8ee9-625b0bfc2233","system_id":"levelo_inurba_marseille","lat":43.29171,"lon":5.37146,"is_reserved":false,"is_disabled":true,"rental_uris":{"android":"levelo://app?vid=7474cf9f-a50a-4064-8ee9-625b0bfc2233","ios":"levelo://app?vid=7474cf9f-a50a-4064-8ee9-625b0bfc2233"},"vehicle_type_id":"4","last_reported":1737202472,"current_range_meters":0,"station_id":"ce4bha92rcd13ifvqeh0","pricing_plan_id":"cebpf4jnsgd1na2vs0mg"},{"bike_id":"9d571973-919f-4d9a-8263-16469bc08d16","system_id":"levelo_inurba_marseille","lat":43.31342,"lon":5.36722,"is_reserved":false,"is_disabled":false,"rental_uris":{"android":"levelo://app?vid=9d571973-919f-4d9a-8263-16469bc08d16","ios":"levelo://app?vid=9d571973-919f-4d9a-8263-16469bc08d16"},"vehicle_type_id":"4","last_reported":1737202472,"current_range_meters":16000,"station_id":"ce4bgr92rcd13ifvqc6g","pricing_plan_id":"cebpf4jnsgd1na2vs0mg"},{"bike_id":"fd153fd4-8c71-4200-95f4-e02852c298c7","system_id":"levelo_inurba_marseille","lat":43.25084,"lon":5.39513,"is_reserved":false,"is_disabled":false,"rental_uris":{"android":"levelo://app?vid=fd153fd4-8c71-4200-95f4-e02852c298c7","ios":"levelo://app?vid=fd153fd4-8c71-4200-95f4-e02852c298c7"},"vehicle_type_id":"4","last_reported":1737202472,"current_range_meters":36000,"station_id":"ce4bhm12rcd13ifvqgkg","pricing_plan_id":"cebpf4jnsgd1na2vs0mg"},{"bike_id":"3a4204c8-9fba-4be7-9fa2-58a8cfd4d291","system_id":"levelo_inurba_marseille","lat":43.2455,"lon":5.39556,"is_reserved":false,"is_disabled":false,"rental_uris":{"android":"levelo://app?vid=3a4204c8-9fba-4be7-9fa2-58a8cfd4d291","ios":"levelo://app?vid=3a4204c8-9fba-4be7-9fa2-58a8cfd4d291"},"vehicle_type_id":"4","last_reported":1737202472,"current_range_meters":21600,"station_id":"ce4bhlp2rcd13ifvqgjg","pricing_plan_id":"cebpf4jnsgd1na2vs0mg"},{"bike_id":"5cf1999b-4e30-4618-8e3c-8f43a3ea1035","system_id":"levelo_inurba_marseille","lat":43.292,"lon":5.39312,"is_reserved":false,"is_disabled":false,"rental_uris":{"android":"levelo://app?vid=5cf1999b-4e30-4618-8e3c-8f43a3ea1035","ios":"levelo://app?vid=5cf1999b-4e30-4618-8e3c-8f43a3ea1035"},"vehicle_type_id":"4","last_reported":1737202472,"current_range_meters":35200,"station_id":"ce4bh192rcd13ifvqdd0","pricing_plan_id":"cebpf4jnsgd1na2vs0mg"},{"bike_id":"270b0bcb-7228-4ca9-9e33-8e6f622285f6","system_id":"levelo_inurba_marseille","lat":43.28856,"lon":5.35859,"is_reserved":false,"is_disabled":false,"rental_uris":{"android":"levelo://app?vid=270b0bcb-7228-4ca9-9e33-8e6f622285f6","ios":"levelo://app?vid=270b0bcb-7228-4ca9-9e33-8e6f622285f6"},"vehicle_type_id":"4","last_reported":1737202472,"current_range_meters":39200,"station_id":"ce4bhb12rcd13ifvqem0","pricing_plan_id":"cebpf4jnsgd1na2vs0mg"},{"bike_id":"e0b439ea-5179-4033-986c-4262bb3dc84f","system_id":"levelo_inurba_marseille","lat":43.26675,"lon":5.38273,"is_reserved":false,"is_disabled":false,"rental_uris":{"android":"levelo://app?vid=e0b439ea-5179-4033-986c-4262bb3dc84f","ios":"levelo://app?vid=e0b439ea-5179-4033-986c-4262bb3dc84f"},"vehicle_type_id":"4","last_reported":1737202472,"current_range_meters":12000,"station_id":"ce4bhg92rcd13ifvqf90","pricing_plan_id":"cebpf4jnsgd1na2vs0mg"},{"bike_id":"03f16ff7-1ccd-43e4-ae9b-7ff5b334c842","system_id":"levelo_inurba_marseille","lat":43.29011,"lon":5.38137,"is_reserved":false,"is_disabled":false,"rental_uris":{"android":"levelo://app?vid=03f16ff7-1ccd-43e4-ae9b-7ff5b334c842","ios":"levelo://app?vid=03f16ff7-1ccd-43e4-ae9b-7ff5b334c842"},"vehicle_type_id":"4","last_reported":1737202472,"current_range_meters":38000,"station_id":"ce4bh4p2rcd13ifvqe1g","pricing_plan_id":"cebpf4jnsgd1na2vs0mg"},{"bike_id":"41e66b43-81c2-4cc4-b4fc-989eb06aea62","system_id":"levelo_inurba_marseille","lat":43.25118,"lon":5.403258,"is_reserved":false,"is_disabled":false,"rental_uris":{"android":"levelo://app?vid=41e66b43-81c2-4cc4-b4fc-989eb06aea62","ios":"levelo://app?vid=41e66b43-81c2-4cc4-b4fc-989eb06aea62"},"vehicle_type_id":"4","last_reported":1737202472,"current_range_meters":18800,"station_id":"ce4bhlh2rcd13ifvqgig","pricing_plan_id":"cebpf4jnsgd1na2vs0mg"},{"bike_id":"aaf9b19d-0d21-4f60-bd85-a79491ea0c6f","system_id":"levelo_inurba_marseille","lat":43.261968,"lon":5.374547,"is_reserved":false,"is_disabled":false,"rental_uris":{"android":"levelo://app?vid=aaf9b19d-0d21-4f60-bd85-a79491ea0c6f","ios":"levelo://app?vid=aaf9b19d-0d21-4f60-bd85-a79491ea0c6f"},"vehicle_type_id":"4","last_reported":1737202472,"current_range_meters":36400,"station_id":"ce4bhgp2rcd13ifvqfc0","pricing_plan_id":"cebpf4jnsgd1na2vs0mg"},{"bike_id":"5f4bf349-b1c2-4604-99a8-9d90d3ad8453","system_id":"levelo_inurba_marseille","lat":43.29007,"lon":5.35611,"is_reserved":false,"is_disabled":false,"rental_uris":{"android":"levelo://app?vid=5f4bf349-b1c2-4604-99a8-9d90d3ad8453","ios":"levelo://app?vid=5f4bf349-b1c2-4604-99a8-9d90d3ad8453"},"vehicle_type_id":"4","last_reported":1737202472,"current_range_meters":33600,"station_id":"ce4bhb92rcd13ifvqen0","pricing_plan_id":"cebpf4jnsgd1na2vs0mg"},{"bike_id":"d29beac8-a618-4bab-b648-f7daf71dd18c","system_id":"levelo_inurba_marseille","lat":43.2669,"lon":5.38276,"is_reserved":false,"is_disabled":false,"rental_uris":{"android":"levelo://app?vid=d29beac8-a618-4bab-b648-f7daf71dd18c","ios":"levelo://app?vid=d29beac8-a618-4bab-b648-f7daf71dd18c"},"vehicle_type_id":"4","last_reported":1737202472,"current_range_meters":20000,"station_id":"ce4bhg92rcd13ifvqf90","pricing_plan_id":"cebpf4jnsgd1na2vs0mg"},{"bike_id":"fae143cc-e0b7-42e0-ac41-6327643321d0","system_id":"levelo_inurba_marseille","lat":43.25834,"lon":5.39423,"is_reserved":false,"is_disabled":false,"rental_uris":{"android":"levelo://app?vid=fae143cc-e0b7-42e0-ac41-6327643321d0","ios":"levelo://app?vid=fae143cc-e0b7-42e0-ac41-6327643321d0"},"vehicle_type_id":"4","last_reported":1737202472,"current_range_meters":32400,"station_id":"ce4bhip2rcd13ifvqft0","pricing_plan_id":"cebpf4jnsgd1na2vs0mg"},{"bike_id":"ec11ae4d-2021-4294-bd30-e659b381e2c6","system_id":"levelo_inurba_marseille","lat":43.29308,"lon":5.37444,"is_reserved":false,"is_disabled":false,"rental_uris":{"android":"levelo://app?vid=ec11ae4d-2021-4294-bd30-e659b381e2c6","ios":"levelo://app?vid=ec11ae4d-2021-4294-bd30-e659b381e2c6"},"vehicle_type_id":"4","last_reported":1737202472,"current_range_meters":20800,"station_id":"ce4bgi12rcd13ifvqb70","pricing_plan_id":"cebpf4jnsgd1na2vs0mg"},{"bike_id":"76951e68-0ac4-4a3b-8e67-4dfdc5bda009","system_id":"levelo_inurba_marseille","lat":43.28612,"lon":5.35117,"is_reserved":false,"is_disabled":true,"rental_uris":{"android":"levelo://app?vid=76951e68-0ac4-4a3b-8e67-4dfdc5bda009","ios":"levelo://app?vid=76951e68-0ac4-4a3b-8e67-4dfdc5bda009"},"vehicle_type_id":"4","last_reported":1737202472,"current_range_meters":13600,"station_id":"ce4bhch2rcd13ifvqeug","pricing_plan_id":"cebpf4jnsgd1na2vs0mg"},{"bike_id":"f4a4a406-b0a5-42fc-9236-32e93ac6f6b2","system_id":"levelo_inurba_marseille","lat":43.231536,"lon":5.437029,"is_reserved":false,"is_disabled":true,"rental_uris":{"android":"levelo://app?vid=f4a4a406-b0a5-42fc-9236-32e93ac6f6b2","ios":"levelo://app?vid=f4a4a406-b0a5-42fc-9236-32e93ac6f6b2"},"vehicle_type_id":"4","last_reported":1737202472,"current_range_meters":29600,"station_id":"ce4bhmp2rcd13ifvqgog","pricing_plan_id":"cebpf4jnsgd1na2vs0mg"},{"bike_id":"e41ae004-35f3-4a84-9470-334d3f185da1","system_id":"levelo_inurba_marseille","lat":43.3148,"lon":5.37314,"is_reserved":false,"is_disabled":false,"rental_uris":{"android":"levelo://app?vid=e41ae004-35f3-4a84-9470-334d3f185da1","ios":"levelo://app?vid=e41ae004-35f3-4a84-9470-334d3f185da1"},"vehicle_type_id":"4","last_reported":1737202472,"current_range_meters":38800,"station_id":"ce4bgt12rcd13ifvqcd0","pricing_plan_id":"cebpf4jnsgd1na2vs0mg"},{"bike_id":"20571295-aa6f-4a67-b30b-9fba01638623","system_id":"levelo_inurba_marseille","lat":43.27434,"lon":5.39413,"is_reserved":false,"is_disabled":false,"rental_uris":{"android":"levelo://app?vid=20571295-aa6f-4a67-b30b-9fba01638623","ios":"levelo://app?vid=20571295-aa6f-4a67-b30b-9fba01638623"},"vehicle_type_id":"4","last_reported":1737202472,"current_range_meters":3600,"station_id":"ce4bhdp2rcd13ifvqf20","pricing_plan_id":"cebpf4jnsgd1na2vs0mg"},{"bike_id":"278a6ac0-9a71-4f00-9126-5f5bf2a8c2cf","system_id":"levelo_inurba_marseille","lat":43.29616,"lon":5.37741,"is_reserved":false,"is_disabled":false,"rental_uris":{"android":"levelo://app?vid=278a6ac0-9a71-4f00-9126-5f5bf2a8c2cf","ios":"levelo://app?vid=278a6ac0-9a71-4f00-9126-5f5bf2a8c2cf"},"vehicle_type_id":"4","last_reported":1737202472,"current_range_meters":38800,"station_id":"ce4bgi92rcd13ifvqb90","pricing_plan_id":"cebpf4jnsgd1na2vs0mg"},{"bike_id":"591ed0bd-f1c2-46bf-b8b0-2be5127e36bd","system_id":"levelo_inurba_marseille","lat":43.26688,"lon":5.38276,"is_reserved":false,"is_disabled":false,"rental_uris":{"android":"levelo://app?vid=591ed0bd-f1c2-46bf-b8b0-2be5127e36bd","ios":"levelo://app?vid=591ed0bd-f1c2-46bf-b8b0-2be5127e36bd"},"vehicle_type_id":"4","last_reported":1737202472,"current_range_meters":6400,"station_id":"ce4bhg92rcd13ifvqf90","pricing_plan_id":"cebpf4jnsgd1na2vs0mg"},{"bike_id":"67c549d5-ce81-408a-a146-d43915340e7f","system_id":"levelo_inurba_marseille","lat":43.33738,"lon":5.39174,"is_reserved":false,"is_disabled":false,"rental_uris":{"android":"levelo://app?vid=67c549d5-ce81-408a-a146-d43915340e7f","ios":"levelo://app?vid=67c549d5-ce81-408a-a146-d43915340e7f"},"vehicle_type_id":"4","last_reported":1737202472,"current_range_meters":38400,"station_id":"ce4bhr92rcd13ifvqhsg","pricing_plan_id":"cebpf4jnsgd1na2vs0mg"},{"bike_id":"b58dcef5-cab9-4732-933d-c18fb8a74b04","system_id":"levelo_inurba_marseille","lat":43.23146,"lon":5.43715,"is_reserved":false,"is_disabled":true,"rental_uris":{"android":"levelo://app?vid=b58dcef5-cab9-4732-933d-c18fb8a74b04","ios":"levelo://app?vid=b58dcef5-cab9-4732-933d-c18fb8a74b04"},"vehicle_type_id":"4","last_reported":1737202472,"current_range_meters":0,"station_id":"ce4bhmp2rcd13ifvqgog","pricing_plan_id":"cebpf4jnsgd1na2vs0mg"},{"bike_id":"0a30294d-26c8-4588-a23c-1a60a99e0bd7","system_id":"levelo_inurba_marseille","lat":43.294483,"lon":5.397497,"is_reserved":false,"is_disabled":false,"rental_uris":{"android":"levelo://app?vid=0a30294d-26c8-4588-a23c-1a60a99e0bd7","ios":"levelo://app?vid=0a30294d-26c8-4588-a23c-1a60a99e0bd7"},"vehicle_type_id":"4","last_reported":1737202472,"current_range_meters":38800,"station_id":"ce4bh3h2rcd13ifvqdo0","pricing_plan_id":"cebpf4jnsgd1na2vs0mg"},{"bike_id":"b936ffa6-9085-46b5-a0df-a1a2f8dd85b8","system_id":"levelo_inurba_marseille","lat":43.250047,"lon":5.389344,"is_reserved":false,"is_disabled":false,"rental_uris":{"android":"levelo://app?vid=b936ffa6-9085-46b5-a0df-a1a2f8dd85b8","ios":"levelo://app?vid=b936ffa6-9085-46b5-a0df-a1a2f8dd85b8"},"vehicle_type_id":"4","last_reported":1737202472,"current_range_meters":38000,"station_id":"ce4bhgp2rcd13ifvqfd0","pricing_plan_id":"cebpf4jnsgd1na2vs0mg"},{"bike_id":"2b8e66f9-42fe-4fbb-8e79-d03f64ea7468","system_id":"levelo_inurba_marseille","lat":43.30538,"lon":5.36557,"is_reserved":false,"is_disabled":false,"rental_uris":{"android":"levelo://app?vid=2b8e66f9-42fe-4fbb-8e79-d03f64ea7468","ios":"levelo://app?vid=2b8e66f9-42fe-4fbb-8e79-d03f64ea7468"},"vehicle_type_id":"4","last_reported":1737202472,"current_range_meters":12400,"station_id":"ce4bgs12rcd13ifvqcag","pricing_plan_id":"cebpf4jnsgd1na2vs0mg"},{"bike_id":"6e5e7057-82d6-477f-835d-fbe2b18afc5e","system_id":"levelo_inurba_marseille","lat":43.30364,"lon":5.41884,"is_reserved":false,"is_disabled":false,"rental_uris":{"android":"levelo://app?vid=6e5e7057-82d6-477f-835d-fbe2b18afc5e","ios":"levelo://app?vid=6e5e7057-82d6-477f-835d-fbe2b18afc5e"},"vehicle_type_id":"4","last_reported":1737202472,"current_range_meters":29600,"station_id":"ce4bhop2rcd13ifvqh7g","pricing_plan_id":"cebpf4jnsgd1na2vs0mg"},{"bike_id":"06510bdb-f522-464c-b9a0-3b1ca4be62ee","system_id":"levelo_inurba_marseille","lat":43.2953,"lon":5.38546,"is_reserved":false,"is_disabled":false,"rental_uris":{"android":"levelo://app?vid=06510bdb-f522-464c-b9a0-3b1ca4be62ee","ios":"levelo://app?vid=06510bdb-f522-464c-b9a0-3b1ca4be62ee"},"vehicle_type_id":"4","last_reported":1737202472,"current_range_meters":21600,"station_id":"ce4bgih2rcd13ifvqba0","pricing_plan_id":"cebpf4jnsgd1na2vs0mg"},{"bike_id":"b85c95af-886f-4a90-9b86-225255447d43","system_id":"levelo_inurba_marseille","lat":43.30458,"lon":5.37902,"is_reserved":false,"is_disabled":false,"rental_uris":{"android":"levelo://app?vid=b85c95af-886f-4a90-9b86-225255447d43","ios":"levelo://app?vid=b85c95af-886f-4a90-9b86-225255447d43"},"vehicle_type_id":"4","last_reported":1737202472,"current_range_meters":32400,"station_id":"ce4bgup2rcd13ifvqcn0","pricing_plan_id":"cebpf4jnsgd1na2vs0mg"},{"bike_id":"37feb261-44b2-4b27-b3ae-078664007b08","system_id":"levelo_inurba_marseille","lat":43.32482,"lon":5.36563,"is_reserved":false,"is_disabled":false,"rental_uris":{"android":"levelo://app?vid=37feb261-44b2-4b27-b3ae-078664007b08","ios":"levelo://app?vid=37feb261-44b2-4b27-b3ae-078664007b08"},"vehicle_type_id":"4","last_reported":1737202472,"current_range_meters":6400,"station_id":"ce4bhs12rcd13ifvqhvg","pricing_plan_id":"cebpf4jnsgd1na2vs0mg"},{"bike_id":"f349ef3c-5167-45c6-8952-c9f82df52a25","system_id":"levelo_inurba_marseille","lat":43.27697,"lon":5.38905,"is_reserved":false,"is_disabled":false,"rental_uris":{"android":"levelo://app?vid=f349ef3c-5167-45c6-8952-c9f82df52a25","ios":"levelo://app?vid=f349ef3c-5167-45c6-8952-c9f82df52a25"},"vehicle_type_id":"4","last_reported":1737202472,"current_range_meters":38800,"station_id":"ce4bhi12rcd13ifvqfo0","pricing_plan_id":"cebpf4jnsgd1na2vs0mg"},{"bike_id":"bad180b5-897b-40c9-89c7-ef873afafeac","system_id":"levelo_inurba_marseille","lat":43.28077,"lon":5.39636,"is_reserved":false,"is_disabled":false,"rental_uris":{"android":"levelo://app?vid=bad180b5-897b-40c9-89c7-ef873afafeac","ios":"levelo://app?vid=bad180b5-897b-40c9-89c7-ef873afafeac"},"vehicle_type_id":"4","last_reported":1737202472,"current_range_meters":36000,"station_id":"ce4bho12rcd13ifvqh2g","pricing_plan_id":"cebpf4jnsgd1na2vs0mg"},{"bike_id":"56b8e9bc-f750-4815-bc98-9098414d16db","system_id":"levelo_inurba_marseille","lat":43.232,"lon":5.35546,"is_reserved":false,"is_disabled":true,"rental_uris":{"android":"levelo://app?vid=56b8e9bc-f750-4815-bc98-9098414d16db","ios":"levelo://app?vid=56b8e9bc-f750-4815-bc98-9098414d16db"},"vehicle_type_id":"4","last_reported":1737202472,"current_range_meters":0,"station_id":"ce4bhu92rcd13ifvqi70","pricing_plan_id":"cebpf4jnsgd1na2vs0mg"},{"bike_id":"0e91b70c-1e42-4d65-a90a-72cbd40954b0","system_id":"levelo_inurba_marseille","lat":43.3235,"lon":5.36772,"is_reserved":false,"is_disabled":false,"rental_uris":{"android":"levelo://app?vid=0e91b70c-1e42-4d65-a90a-72cbd40954b0","ios":"levelo://app?vid=0e91b70c-1e42-4d65-a90a-72cbd40954b0"},"vehicle_type_id":"4","last_reported":1737202472,"current_range_meters":11200,"station_id":"ce4bhsh2rcd13ifvqi2g","pricing_plan_id":"cebpf4jnsgd1na2vs0mg"},{"bike_id":"ccfd2808-389c-405c-ad27-66c26fde5e1e","system_id":"levelo_inurba_marseille","lat":43.30154,"lon":5.38096,"is_reserved":false,"is_disabled":false,"rental_uris":{"android":"levelo://app?vid=ccfd2808-389c-405c-ad27-66c26fde5e1e","ios":"levelo://app?vid=ccfd2808-389c-405c-ad27-66c26fde5e1e"},"vehicle_type_id":"4","last_reported":1737202472,"current_range_meters":28800,"station_id":"ce4bgjp2rcd13ifvqbh0","pricing_plan_id":"cebpf4jnsgd1na2vs0mg"},{"bike_id":"57bb0282-4fc3-48e6-b545-33b640d1d45a","system_id":"levelo_inurba_marseille","lat":43.30294,"lon":5.39214,"is_reserved":false,"is_disabled":false,"rental_uris":{"android":"levelo://app?vid=57bb0282-4fc3-48e6-b545-33b640d1d45a","ios":"levelo://app?vid=57bb0282-4fc3-48e6-b545-33b640d1d45a"},"vehicle_type_id":"4","last_reported":1737202472,"current_range_meters":33600,"station_id":"ce4bgkh2rcd13ifvqbk0","pricing_plan_id":"cebpf4jnsgd1na2vs0mg"},{"bike_id":"c863df63-816b-4771-9ee9-30fb20042995","system_id":"levelo_inurba_marseille","lat":43.29635,"lon":5.37711,"is_reserved":false,"is_disabled":false,"rental_uris":{"android":"levelo://app?vid=c863df63-816b-4771-9ee9-30fb20042995","ios":"levelo://app?vid=c863df63-816b-4771-9ee9-30fb20042995"},"vehicle_type_id":"4","last_reported":1737202472,"current_range_meters":22800,"station_id":"ce4bgi92rcd13ifvqb90","pricing_plan_id":"cebpf4jnsgd1na2vs0mg"},{"bike_id":"6f82e242-252d-49e8-b4a5-de019b739310","system_id":"levelo_inurba_marseille","lat":43.27676,"lon":5.3891,"is_reserved":false,"is_disabled":false,"rental_uris":{"android":"levelo://app?vid=6f82e242-252d-49e8-b4a5-de019b739310","ios":"levelo://app?vid=6f82e242-252d-49e8-b4a5-de019b739310"},"vehicle_type_id":"4","last_reported":1737202472,"current_range_meters":37600,"station_id":"ce4bhi12rcd13ifvqfo0","pricing_plan_id":"cebpf4jnsgd1na2vs0mg"},{"bike_id":"ae5aae92-5b4f-4c9f-8192-28f8ce79587e","system_id":"levelo_inurba_marseille","lat":43.30918,"lon":5.401607,"is_reserved":false,"is_disabled":true,"rental_uris":{"android":"levelo://app?vid=ae5aae92-5b4f-4c9f-8192-28f8ce79587e","ios":"levelo://app?vid=ae5aae92-5b4f-4c9f-8192-28f8ce79587e"},"vehicle_type_id":"4","last_reported":1737202472,"current_range_meters":35200,"station_id":"ce4bgvp2rcd13ifvqct0","pricing_plan_id":"cebpf4jnsgd1na2vs0mg"},{"bike_id":"ba5cf9ee-a363-4d84-b002-2dcc32346c5f","system_id":"levelo_inurba_marseille","lat":43.28694,"lon":5.39962,"is_reserved":false,"is_disabled":false,"rental_uris":{"android":"levelo://app?vid=ba5cf9ee-a363-4d84-b002-2dcc32346c5f","ios":"levelo://app?vid=ba5cf9ee-a363-4d84-b002-2dcc32346c5f"},"vehicle_type_id":"4","last_reported":1737202472,"current_range_meters":31200,"station_id":"ce4bho92rcd13ifvqh3g","pricing_plan_id":"cebpf4jnsgd1na2vs0mg"},{"bike_id":"1872c41d-2b26-4fa6-b496-932a9e0e9645","system_id":"levelo_inurba_marseille","lat":43.2971,"lon":5.3768,"is_reserved":false,"is_disabled":false,"rental_uris":{"android":"levelo://app?vid=1872c41d-2b26-4fa6-b496-932a9e0e9645","ios":"levelo://app?vid=1872c41d-2b26-4fa6-b496-932a9e0e9645"},"vehicle_type_id":"4","last_reported":1737202472,"current_range_meters":38800,"station_id":"ce4bgkh2rcd13ifvqbl0","pricing_plan_id":"cebpf4jnsgd1na2vs0mg"},{"bike_id":"22465212-93af-4e0b-b803-6ee82bba56d5","system_id":"levelo_inurba_marseille","lat":43.33763,"lon":5.37492,"is_reserved":false,"is_disabled":false,"rental_uris":{"android":"levelo://app?vid=22465212-93af-4e0b-b803-6ee82bba56d5","ios":"levelo://app?vid=22465212-93af-4e0b-b803-6ee82bba56d5"},"vehicle_type_id":"4","last_reported":1737202472,"current_range_meters":28800,"station_id":"","pricing_plan_id":"cebpf4jnsgd1na2vs0mg"},{"bike_id":"275aed3e-104b-4ec9-ace4-af91fc180de6","system_id":"levelo_inurba_marseille","lat":43.31088,"lon":5.42438,"is_reserved":false,"is_disabled":false,"rental_uris":{"android":"levelo://app?vid=275aed3e-104b-4ec9-ace4-af91fc180de6","ios":"levelo://app?vid=275aed3e-104b-4ec9-ace4-af91fc180de6"},"vehicle_type_id":"4","last_reported":1737202472,"current_range_meters":38400,"station_id":"ce4bhp92rcd13ifvqhag","pricing_plan_id":"cebpf4jnsgd1na2vs0mg"},{"bike_id":"93b7fd3c-7d7c-4cf5-bbd5-0fc17a15b98c","system_id":"levelo_inurba_marseille","lat":43.23194,"lon":5.35551,"is_reserved":false,"is_disabled":false,"rental_uris":{"android":"levelo://app?vid=93b7fd3c-7d7c-4cf5-bbd5-0fc17a15b98c","ios":"levelo://app?vid=93b7fd3c-7d7c-4cf5-bbd5-0fc17a15b98c"},"vehicle_type_id":"4","last_reported":1737202472,"current_range_meters":24000,"station_id":"ce4bhu92rcd13ifvqi70","pricing_plan_id":"cebpf4jnsgd1na2vs0mg"},{"bike_id":"730df4ba-4772-4a0e-9e4a-bb6bde6caaeb","system_id":"levelo_inurba_marseille","lat":43.30132,"lon":5.39883,"is_reserved":false,"is_disabled":true,"rental_uris":{"android":"levelo://app?vid=730df4ba-4772-4a0e-9e4a-bb6bde6caaeb","ios":"levelo://app?vid=730df4ba-4772-4a0e-9e4a-bb6bde6caaeb"},"vehicle_type_id":"4","last_reported":1737202472,"current_range_meters":36000,"station_id":"ce4bh0h2rcd13ifvqd40","pricing_plan_id":"cebpf4jnsgd1na2vs0mg"},{"bike_id":"2669dc48-d52c-4df4-a185-3258641e3a0a","system_id":"levelo_inurba_marseille","lat":43.27948,"lon":5.38721,"is_reserved":false,"is_disabled":true,"rental_uris":{"android":"levelo://app?vid=2669dc48-d52c-4df4-a185-3258641e3a0a","ios":"levelo://app?vid=2669dc48-d52c-4df4-a185-3258641e3a0a"},"vehicle_type_id":"4","last_reported":1737202472,"current_range_meters":0,"station_id":"ce4bhg12rcd13ifvqf80","pricing_plan_id":"cebpf4jnsgd1na2vs0mg"},{"bike_id":"492bb2a4-bb26-45e4-9edc-d3f9691e28d1","system_id":"levelo_inurba_marseille","lat":43.31749,"lon":5.39021,"is_reserved":false,"is_disabled":false,"rental_uris":{"android":"levelo://app?vid=492bb2a4-bb26-45e4-9edc-d3f9691e28d1","ios":"levelo://app?vid=492bb2a4-bb26-45e4-9edc-d3f9691e28d1"},"vehicle_type_id":"4","last_reported":1737202472,"current_range_meters":36800,"station_id":"ce4bhqp2rcd13ifvqhng","pricing_plan_id":"cebpf4jnsgd1na2vs0mg"},{"bike_id":"86b1129b-34c7-4cb1-acb7-46aa8942c62c","system_id":"levelo_inurba_marseille","lat":43.23154,"lon":5.43707,"is_reserved":false,"is_disabled":true,"rental_uris":{"android":"levelo://app?vid=86b1129b-34c7-4cb1-acb7-46aa8942c62c","ios":"levelo://app?vid=86b1129b-34c7-4cb1-acb7-46aa8942c62c"},"vehicle_type_id":"4","last_reported":1737202472,"current_range_meters":0,"station_id":"ce4bhmp2rcd13ifvqgog","pricing_plan_id":"cebpf4jnsgd1na2vs0mg"},{"bike_id":"8e58b092-ba8e-4f96-9901-b2504a890168","system_id":"levelo_inurba_marseille","lat":43.28623,"lon":5.35116,"is_reserved":false,"is_disabled":false,"rental_uris":{"android":"levelo://app?vid=8e58b092-ba8e-4f96-9901-b2504a890168","ios":"levelo://app?vid=8e58b092-ba8e-4f96-9901-b2504a890168"},"vehicle_type_id":"4","last_reported":1737202472,"current_range_meters":15200,"station_id":"ce4bhch2rcd13ifvqeug","pricing_plan_id":"cebpf4jnsgd1na2vs0mg"},{"bike_id":"a0cb0e47-f7f9-4145-8f68-7a3ff930764d","system_id":"levelo_inurba_marseille","lat":43.26959,"lon":5.38632,"is_reserved":false,"is_disabled":false,"rental_uris":{"android":"levelo://app?vid=a0cb0e47-f7f9-4145-8f68-7a3ff930764d","ios":"levelo://app?vid=a0cb0e47-f7f9-4145-8f68-7a3ff930764d"},"vehicle_type_id":"4","last_reported":1737202472,"current_range_meters":16000,"station_id":"ce4bhh92rcd13ifvqfh0","pricing_plan_id":"cebpf4jnsgd1na2vs0mg"},{"bike_id":"b663f53e-1e42-4f0c-a05f-fde242cb0184","system_id":"levelo_inurba_marseille","lat":43.28607,"lon":5.35071,"is_reserved":false,"is_disabled":false,"rental_uris":{"android":"levelo://app?vid=b663f53e-1e42-4f0c-a05f-fde242cb0184","ios":"levelo://app?vid=b663f53e-1e42-4f0c-a05f-fde242cb0184"},"vehicle_type_id":"4","last_reported":1737202472,"current_range_meters":25600,"station_id":"ce4bhch2rcd13ifvqeug","pricing_plan_id":"cebpf4jnsgd1na2vs0mg"},{"bike_id":"16f0074a-60b0-4cc9-b04b-6855b4ec88ee","system_id":"levelo_inurba_marseille","lat":43.30883,"lon":5.37195,"is_reserved":false,"is_disabled":false,"rental_uris":{"android":"levelo://app?vid=16f0074a-60b0-4cc9-b04b-6855b4ec88ee","ios":"levelo://app?vid=16f0074a-60b0-4cc9-b04b-6855b4ec88ee"},"vehicle_type_id":"4","last_reported":1737202472,"current_range_meters":21600,"station_id":"ce4bguh2rcd13ifvqckg","pricing_plan_id":"cebpf4jnsgd1na2vs0mg"},{"bike_id":"c6f874ed-7baa-4ffa-b8dc-93b47368c64c","system_id":"levelo_inurba_marseille","lat":43.27374,"lon":5.36257,"is_reserved":false,"is_disabled":false,"rental_uris":{"android":"levelo://app?vid=c6f874ed-7baa-4ffa-b8dc-93b47368c64c","ios":"levelo://app?vid=c6f874ed-7baa-4ffa-b8dc-93b47368c64c"},"vehicle_type_id":"4","last_reported":1737202472,"current_range_meters":32800,"station_id":"ce4bhbh2rcd13ifvqeo0","pricing_plan_id":"cebpf4jnsgd1na2vs0mg"},{"bike_id":"82eafdac-bd81-479d-a7b0-05db8ca76c26","system_id":"levelo_inurba_marseille","lat":43.25828,"lon":5.39427,"is_reserved":false,"is_disabled":true,"rental_uris":{"android":"levelo://app?vid=82eafdac-bd81-479d-a7b0-05db8ca76c26","ios":"levelo://app?vid=82eafdac-bd81-479d-a7b0-05db8ca76c26"},"vehicle_type_id":"4","last_reported":1737202472,"current_range_meters":0,"station_id":"ce4bhip2rcd13ifvqft0","pricing_plan_id":"cebpf4jnsgd1na2vs0mg"},{"bike_id":"77af8838-f478-444e-8e11-1d0135afb986","system_id":"levelo_inurba_marseille","lat":43.28463,"lon":5.35892,"is_reserved":false,"is_disabled":false,"rental_uris":{"android":"levelo://app?vid=77af8838-f478-444e-8e11-1d0135afb986","ios":"levelo://app?vid=77af8838-f478-444e-8e11-1d0135afb986"},"vehicle_type_id":"4","last_reported":1737202472,"current_range_meters":28800,"station_id":"ce4bhah2rcd13ifvqei0","pricing_plan_id":"cebpf4jnsgd1na2vs0mg"},{"bike_id":"58e615dd-6b4f-4327-9c3c-3a760079ba0a","system_id":"levelo_inurba_marseille","lat":43.2319,"lon":5.35549,"is_reserved":false,"is_disabled":false,"rental_uris":{"android":"levelo://app?vid=58e615dd-6b4f-4327-9c3c-3a760079ba0a","ios":"levelo://app?vid=58e615dd-6b4f-4327-9c3c-3a760079ba0a"},"vehicle_type_id":"4","last_reported":1737202472,"current_range_meters":37600,"station_id":"ce4bhu92rcd13ifvqi70","pricing_plan_id":"cebpf4jnsgd1na2vs0mg"},{"bike_id":"6a7366d7-ed8c-4629-bf0c-70c2abcda36d","system_id":"levelo_inurba_marseille","lat":43.231936,"lon":5.355591,"is_reserved":false,"is_disabled":false,"rental_uris":{"android":"levelo://app?vid=6a7366d7-ed8c-4629-bf0c-70c2abcda36d","ios":"levelo://app?vid=6a7366d7-ed8c-4629-bf0c-70c2abcda36d"},"vehicle_type_id":"4","last_reported":1737202472,"current_range_meters":38800,"station_id":"ce4bhu92rcd13ifvqi70","pricing_plan_id":"cebpf4jnsgd1na2vs0mg"},{"bike_id":"5cf5f4cd-fea4-4d75-9a78-4d8e2b211145","system_id":"levelo_inurba_marseille","lat":43.26213,"lon":5.37442,"is_reserved":false,"is_disabled":false,"rental_uris":{"android":"levelo://app?vid=5cf5f4cd-fea4-4d75-9a78-4d8e2b211145","ios":"levelo://app?vid=5cf5f4cd-fea4-4d75-9a78-4d8e2b211145"},"vehicle_type_id":"4","last_reported":1737202472,"current_range_meters":22000,"station_id":"ce4bhgp2rcd13ifvqfc0","pricing_plan_id":"cebpf4jnsgd1na2vs0mg"},{"bike_id":"8185feea-4a8c-4fac-8efd-8f41b34f88c9","system_id":"levelo_inurba_marseille","lat":43.31709,"lon":5.37762,"is_reserved":false,"is_disabled":false,"rental_uris":{"android":"levelo://app?vid=8185feea-4a8c-4fac-8efd-8f41b34f88c9","ios":"levelo://app?vid=8185feea-4a8c-4fac-8efd-8f41b34f88c9"},"vehicle_type_id":"4","last_reported":1737202472,"current_range_meters":24400,"station_id":"ce4bgth2rcd13ifvqch0","pricing_plan_id":"cebpf4jnsgd1na2vs0mg"},{"bike_id":"c5e9582c-f791-48cb-b29f-91f8675f074e","system_id":"levelo_inurba_marseille","lat":43.31995,"lon":5.38169,"is_reserved":false,"is_disabled":false,"rental_uris":{"android":"levelo://app?vid=c5e9582c-f791-48cb-b29f-91f8675f074e","ios":"levelo://app?vid=c5e9582c-f791-48cb-b29f-91f8675f074e"},"vehicle_type_id":"4","last_reported":1737202472,"current_range_meters":39200,"station_id":"ce4bhr12rcd13ifvqhpg","pricing_plan_id":"cebpf4jnsgd1na2vs0mg"},{"bike_id":"35deb437-7ef2-4ee7-9ea5-27ce0001ca7b","system_id":"levelo_inurba_marseille","lat":43.26059,"lon":5.39392,"is_reserved":false,"is_disabled":false,"rental_uris":{"android":"levelo://app?vid=35deb437-7ef2-4ee7-9ea5-27ce0001ca7b","ios":"levelo://app?vid=35deb437-7ef2-4ee7-9ea5-27ce0001ca7b"},"vehicle_type_id":"4","last_reported":1737202472,"current_range_meters":38000,"station_id":"ce4bhh92rcd13ifvqfj0","pricing_plan_id":"cebpf4jnsgd1na2vs0mg"},{"bike_id":"fd667b55-ec3f-4ecd-8b06-e6a5de586be5","system_id":"levelo_inurba_marseille","lat":43.27617,"lon":5.36108,"is_reserved":false,"is_disabled":false,"rental_uris":{"android":"levelo://app?vid=fd667b55-ec3f-4ecd-8b06-e6a5de586be5","ios":"levelo://app?vid=fd667b55-ec3f-4ecd-8b06-e6a5de586be5"},"vehicle_type_id":"4","last_reported":1737202472,"current_range_meters":30000,"station_id":"ce4bgj92rcd13ifvqbe0","pricing_plan_id":"cebpf4jnsgd1na2vs0mg"},{"bike_id":"f2390374-e060-4fe1-bcfa-cb2711193e58","system_id":"levelo_inurba_marseille","lat":43.25094,"lon":5.3952,"is_reserved":false,"is_disabled":false,"rental_uris":{"android":"levelo://app?vid=f2390374-e060-4fe1-bcfa-cb2711193e58","ios":"levelo://app?vid=f2390374-e060-4fe1-bcfa-cb2711193e58"},"vehicle_type_id":"4","last_reported":1737202472,"current_range_meters":10000,"station_id":"ce4bhm12rcd13ifvqgkg","pricing_plan_id":"cebpf4jnsgd1na2vs0mg"},{"bike_id":"8caece16-a274-4801-83ed-17227752ce06","system_id":"levelo_inurba_marseille","lat":43.23145,"lon":5.43718,"is_reserved":false,"is_disabled":false,"rental_uris":{"android":"levelo://app?vid=8caece16-a274-4801-83ed-17227752ce06","ios":"levelo://app?vid=8caece16-a274-4801-83ed-17227752ce06"},"vehicle_type_id":"4","last_reported":1737202472,"current_range_meters":16400,"station_id":"ce4bhmp2rcd13ifvqgog","pricing_plan_id":"cebpf4jnsgd1na2vs0mg"},{"bike_id":"5ef90ea5-ea27-4aa1-882a-23301d1e650d","system_id":"levelo_inurba_marseille","lat":43.28265,"lon":5.35065,"is_reserved":false,"is_disabled":false,"rental_uris":{"android":"levelo://app?vid=5ef90ea5-ea27-4aa1-882a-23301d1e650d","ios":"levelo://app?vid=5ef90ea5-ea27-4aa1-882a-23301d1e650d"},"vehicle_type_id":"4","last_reported":1737202472,"current_range_meters":39200,"station_id":"ce4bhbp2rcd13ifvqerg","pricing_plan_id":"cebpf4jnsgd1na2vs0mg"},{"bike_id":"0305f394-c880-4930-a94c-8281d7145570","system_id":"levelo_inurba_marseille","lat":43.27373,"lon":5.36261,"is_reserved":false,"is_disabled":false,"rental_uris":{"android":"levelo://app?vid=0305f394-c880-4930-a94c-8281d7145570","ios":"levelo://app?vid=0305f394-c880-4930-a94c-8281d7145570"},"vehicle_type_id":"4","last_reported":1737202472,"current_range_meters":9200,"station_id":"ce4bhbh2rcd13ifvqeo0","pricing_plan_id":"cebpf4jnsgd1na2vs0mg"},{"bike_id":"8626833d-4f50-47a8-9a52-5d912ba997ae","system_id":"levelo_inurba_marseille","lat":43.27389,"lon":5.36277,"is_reserved":false,"is_disabled":false,"rental_uris":{"android":"levelo://app?vid=8626833d-4f50-47a8-9a52-5d912ba997ae","ios":"levelo://app?vid=8626833d-4f50-47a8-9a52-5d912ba997ae"},"vehicle_type_id":"4","last_reported":1737202472,"current_range_meters":22400,"station_id":"ce4bhbh2rcd13ifvqeo0","pricing_plan_id":"cebpf4jnsgd1na2vs0mg"},{"bike_id":"f5207152-cd69-48fb-a6c8-915313e8379b","system_id":"levelo_inurba_marseille","lat":43.30068,"lon":5.3908,"is_reserved":false,"is_disabled":false,"rental_uris":{"android":"levelo://app?vid=f5207152-cd69-48fb-a6c8-915313e8379b","ios":"levelo://app?vid=f5207152-cd69-48fb-a6c8-915313e8379b"},"vehicle_type_id":"4","last_reported":1737202472,"current_range_meters":23200,"station_id":"ce4bh192rcd13ifvqdb0","pricing_plan_id":"cebpf4jnsgd1na2vs0mg"},{"bike_id":"c4ab3838-1d61-4e29-a39f-fbac00aa12d4","system_id":"levelo_inurba_marseille","lat":43.31126,"lon":5.36913,"is_reserved":false,"is_disabled":false,"rental_uris":{"android":"levelo://app?vid=c4ab3838-1d61-4e29-a39f-fbac00aa12d4","ios":"levelo://app?vid=c4ab3838-1d61-4e29-a39f-fbac00aa12d4"},"vehicle_type_id":"4","last_reported":1737202472,"current_range_meters":36800,"station_id":"","pricing_plan_id":"cebpf4jnsgd1na2vs0mg"},{"bike_id":"4697b5a1-a9b5-4890-8123-a290b2fc91c7","system_id":"levelo_inurba_marseille","lat":43.3249,"lon":5.36569,"is_reserved":false,"is_disabled":false,"rental_uris":{"android":"levelo://app?vid=4697b5a1-a9b5-4890-8123-a290b2fc91c7","ios":"levelo://app?vid=4697b5a1-a9b5-4890-8123-a290b2fc91c7"},"vehicle_type_id":"4","last_reported":1737202472,"current_range_meters":12800,"station_id":"ce4bhs12rcd13ifvqhvg","pricing_plan_id":"cebpf4jnsgd1na2vs0mg"},{"bike_id":"7ac7550f-348e-40e3-bd91-d5d190925589","system_id":"levelo_inurba_marseille","lat":43.29198,"lon":5.39325,"is_reserved":false,"is_disabled":false,"rental_uris":{"android":"levelo://app?vid=7ac7550f-348e-40e3-bd91-d5d190925589","ios":"levelo://app?vid=7ac7550f-348e-40e3-bd91-d5d190925589"},"vehicle_type_id":"4","last_reported":1737202472,"current_range_meters":14000,"station_id":"ce4bh192rcd13ifvqdd0","pricing_plan_id":"cebpf4jnsgd1na2vs0mg"},{"bike_id":"246f2aa1-d855-40ee-b8e2-0e541013d632","system_id":"levelo_inurba_marseille","lat":43.27813,"lon":5.40699,"is_reserved":false,"is_disabled":true,"rental_uris":{"android":"levelo://app?vid=246f2aa1-d855-40ee-b8e2-0e541013d632","ios":"levelo://app?vid=246f2aa1-d855-40ee-b8e2-0e541013d632"},"vehicle_type_id":"4","last_reported":1737202472,"current_range_meters":800,"station_id":"ce4bhnh2rcd13ifvqgtg","pricing_plan_id":"cebpf4jnsgd1na2vs0mg"},{"bike_id":"99a6c1a0-67e9-4a5e-8c3b-5d12fae3dd76","system_id":"levelo_inurba_marseille","lat":43.299,"lon":5.37473,"is_reserved":false,"is_disabled":false,"rental_uris":{"android":"levelo://app?vid=99a6c1a0-67e9-4a5e-8c3b-5d12fae3dd76","ios":"levelo://app?vid=99a6c1a0-67e9-4a5e-8c3b-5d12fae3dd76"},"vehicle_type_id":"4","last_reported":1737202472,"current_range_meters":10000,"station_id":"ce4bgjh2rcd13ifvqbg0","pricing_plan_id":"cebpf4jnsgd1na2vs0mg"},{"bike_id":"7e7dfa00-356f-4b05-bb9a-e18d6d238cce","system_id":"levelo_inurba_marseille","lat":43.29029,"lon":5.37573,"is_reserved":false,"is_disabled":false,"rental_uris":{"android":"levelo://app?vid=7e7dfa00-356f-4b05-bb9a-e18d6d238cce","ios":"levelo://app?vid=7e7dfa00-356f-4b05-bb9a-e18d6d238cce"},"vehicle_type_id":"4","last_reported":1737202472,"current_range_meters":19600,"station_id":"ce4bh692rcd13ifvqe90","pricing_plan_id":"cebpf4jnsgd1na2vs0mg"},{"bike_id":"80d4175e-4583-4ced-8d82-da44e4842667","system_id":"levelo_inurba_marseille","lat":43.33734,"lon":5.37455,"is_reserved":false,"is_disabled":false,"rental_uris":{"android":"levelo://app?vid=80d4175e-4583-4ced-8d82-da44e4842667","ios":"levelo://app?vid=80d4175e-4583-4ced-8d82-da44e4842667"},"vehicle_type_id":"4","last_reported":1737202472,"current_range_meters":37600,"station_id":"","pricing_plan_id":"cebpf4jnsgd1na2vs0mg"},{"bike_id":"1e2f115e-489f-4c45-b5ad-3280ad4c66fe","system_id":"levelo_inurba_marseille","lat":43.31716,"lon":5.43705,"is_reserved":false,"is_disabled":false,"rental_uris":{"android":"levelo://app?vid=1e2f115e-489f-4c45-b5ad-3280ad4c66fe","ios":"levelo://app?vid=1e2f115e-489f-4c45-b5ad-3280ad4c66fe"},"vehicle_type_id":"4","last_reported":1737202472,"current_range_meters":19600,"station_id":"ce4bhp92rcd13ifvqhcg","pricing_plan_id":"cebpf4jnsgd1na2vs0mg"},{"bike_id":"028a4fc6-46eb-42b2-afe0-dc019cd71052","system_id":"levelo_inurba_marseille","lat":43.24397,"lon":5.37058,"is_reserved":false,"is_disabled":false,"rental_uris":{"android":"levelo://app?vid=028a4fc6-46eb-42b2-afe0-dc019cd71052","ios":"levelo://app?vid=028a4fc6-46eb-42b2-afe0-dc019cd71052"},"vehicle_type_id":"4","last_reported":1737202472,"current_range_meters":24400,"station_id":"ce4bhhh2rcd13ifvqfk0","pricing_plan_id":"cebpf4jnsgd1na2vs0mg"},{"bike_id":"f8dfd5b4-e9f5-4ba9-b11a-c919bcb8f056","system_id":"levelo_inurba_marseille","lat":43.29353,"lon":5.37886,"is_reserved":false,"is_disabled":false,"rental_uris":{"android":"levelo://app?vid=f8dfd5b4-e9f5-4ba9-b11a-c919bcb8f056","ios":"levelo://app?vid=f8dfd5b4-e9f5-4ba9-b11a-c919bcb8f056"},"vehicle_type_id":"4","last_reported":1737202472,"current_range_meters":26000,"station_id":"ce4bgjh2rcd13ifvqbf0","pricing_plan_id":"cebpf4jnsgd1na2vs0mg"},{"bike_id":"7383474c-b45a-4438-837c-99d7ae866fe7","system_id":"levelo_inurba_marseille","lat":43.26058,"lon":5.39398,"is_reserved":false,"is_disabled":false,"rental_uris":{"android":"levelo://app?vid=7383474c-b45a-4438-837c-99d7ae866fe7","ios":"levelo://app?vid=7383474c-b45a-4438-837c-99d7ae866fe7"},"vehicle_type_id":"4","last_reported":1737202472,"current_range_meters":38000,"station_id":"ce4bhh92rcd13ifvqfj0","pricing_plan_id":"cebpf4jnsgd1na2vs0mg"},{"bike_id":"62f2c233-676a-44a2-b149-ae0c7955ffe8","system_id":"levelo_inurba_marseille","lat":43.26684,"lon":5.38267,"is_reserved":false,"is_disabled":false,"rental_uris":{"android":"levelo://app?vid=62f2c233-676a-44a2-b149-ae0c7955ffe8","ios":"levelo://app?vid=62f2c233-676a-44a2-b149-ae0c7955ffe8"},"vehicle_type_id":"4","last_reported":1737202472,"current_range_meters":28400,"station_id":"ce4bhg92rcd13ifvqf90","pricing_plan_id":"cebpf4jnsgd1na2vs0mg"},{"bike_id":"c1cd441b-0ef0-4ad7-9eac-e375617cc81a","system_id":"levelo_inurba_marseille","lat":43.30296,"lon":5.39209,"is_reserved":false,"is_disabled":false,"rental_uris":{"android":"levelo://app?vid=c1cd441b-0ef0-4ad7-9eac-e375617cc81a","ios":"levelo://app?vid=c1cd441b-0ef0-4ad7-9eac-e375617cc81a"},"vehicle_type_id":"4","last_reported":1737202472,"current_range_meters":28000,"station_id":"ce4bgkh2rcd13ifvqbk0","pricing_plan_id":"cebpf4jnsgd1na2vs0mg"},{"bike_id":"9657151a-f0ed-4e70-a62b-590fe85280be","system_id":"levelo_inurba_marseille","lat":43.2937,"lon":5.3786,"is_reserved":false,"is_disabled":false,"rental_uris":{"android":"levelo://app?vid=9657151a-f0ed-4e70-a62b-590fe85280be","ios":"levelo://app?vid=9657151a-f0ed-4e70-a62b-590fe85280be"},"vehicle_type_id":"4","last_reported":1737202472,"current_range_meters":24400,"station_id":"ce4bgjh2rcd13ifvqbf0","pricing_plan_id":"cebpf4jnsgd1na2vs0mg"},{"bike_id":"a7f2f92e-6d35-4159-84bd-c5452527d9ac","system_id":"levelo_inurba_marseille","lat":43.3234,"lon":5.40628,"is_reserved":false,"is_disabled":false,"rental_uris":{"android":"levelo://app?vid=a7f2f92e-6d35-4159-84bd-c5452527d9ac","ios":"levelo://app?vid=a7f2f92e-6d35-4159-84bd-c5452527d9ac"},"vehicle_type_id":"4","last_reported":1737202472,"current_range_meters":27600,"station_id":"ce4bhq92rcd13ifvqhjg","pricing_plan_id":"cebpf4jnsgd1na2vs0mg"},{"bike_id":"0d5bf58b-8962-4322-87c4-754920ec04ac","system_id":"levelo_inurba_marseille","lat":43.31184,"lon":5.38719,"is_reserved":false,"is_disabled":true,"rental_uris":{"android":"levelo://app?vid=0d5bf58b-8962-4322-87c4-754920ec04ac","ios":"levelo://app?vid=0d5bf58b-8962-4322-87c4-754920ec04ac"},"vehicle_type_id":"4","last_reported":1737202472,"current_range_meters":36800,"station_id":"ce4bgv12rcd13ifvqcp0","pricing_plan_id":"cebpf4jnsgd1na2vs0mg"},{"bike_id":"44bccd7b-e954-4fef-a58a-1bfa0b432213","system_id":"levelo_inurba_marseille","lat":43.28273,"lon":5.35059,"is_reserved":false,"is_disabled":false,"rental_uris":{"android":"levelo://app?vid=44bccd7b-e954-4fef-a58a-1bfa0b432213","ios":"levelo://app?vid=44bccd7b-e954-4fef-a58a-1bfa0b432213"},"vehicle_type_id":"4","last_reported":1737202472,"current_range_meters":36800,"station_id":"ce4bhbp2rcd13ifvqerg","pricing_plan_id":"cebpf4jnsgd1na2vs0mg"},{"bike_id":"94770b67-adeb-4227-a049-e190b2cc0f97","system_id":"levelo_inurba_marseille","lat":43.272,"lon":5.39172,"is_reserved":false,"is_disabled":false,"rental_uris":{"android":"levelo://app?vid=94770b67-adeb-4227-a049-e190b2cc0f97","ios":"levelo://app?vid=94770b67-adeb-4227-a049-e190b2cc0f97"},"vehicle_type_id":"4","last_reported":1737202472,"current_range_meters":32000,"station_id":"ce4bhhp2rcd13ifvqfm0","pricing_plan_id":"cebpf4jnsgd1na2vs0mg"},{"bike_id":"fe90f7a6-3920-456a-9451-50d213b7000f","system_id":"levelo_inurba_marseille","lat":43.28473,"lon":5.38436,"is_reserved":false,"is_disabled":true,"rental_uris":{"android":"levelo://app?vid=fe90f7a6-3920-456a-9451-50d213b7000f","ios":"levelo://app?vid=fe90f7a6-3920-456a-9451-50d213b7000f"},"vehicle_type_id":"4","last_reported":1737202472,"current_range_meters":36800,"station_id":"ce4bh512rcd13ifvqe3g","pricing_plan_id":"cebpf4jnsgd1na2vs0mg"},{"bike_id":"3958b03d-b591-4d79-80a4-059614f22dc2","system_id":"levelo_inurba_marseille","lat":43.29891,"lon":5.43663,"is_reserved":false,"is_disabled":false,"rental_uris":{"android":"levelo://app?vid=3958b03d-b591-4d79-80a4-059614f22dc2","ios":"levelo://app?vid=3958b03d-b591-4d79-80a4-059614f22dc2"},"vehicle_type_id":"4","last_reported":1737202472,"current_range_meters":35200,"station_id":"ce4bhpp2rcd13ifvqhfg","pricing_plan_id":"cebpf4jnsgd1na2vs0mg"},{"bike_id":"d68d4c6c-ace6-47ca-a78f-51f9adc5b848","system_id":"levelo_inurba_marseille","lat":43.26223,"lon":5.40455,"is_reserved":false,"is_disabled":false,"rental_uris":{"android":"levelo://app?vid=d68d4c6c-ace6-47ca-a78f-51f9adc5b848","ios":"levelo://app?vid=d68d4c6c-ace6-47ca-a78f-51f9adc5b848"},"vehicle_type_id":"4","last_reported":1737202472,"current_range_meters":8800,"station_id":"","pricing_plan_id":"cebpf4jnsgd1na2vs0mg"},{"bike_id":"910d1690-8e74-46e9-a779-620892417947","system_id":"levelo_inurba_marseille","lat":43.27072,"lon":5.42296,"is_reserved":false,"is_disabled":false,"rental_uris":{"android":"levelo://app?vid=910d1690-8e74-46e9-a779-620892417947","ios":"levelo://app?vid=910d1690-8e74-46e9-a779-620892417947"},"vehicle_type_id":"4","last_reported":1737202472,"current_range_meters":39200,"station_id":"ce4bhk92rcd13ifvqgb0","pricing_plan_id":"cebpf4jnsgd1na2vs0mg"},{"bike_id":"30c55592-5c2d-4766-9ae9-6f1e5192194b","system_id":"levelo_inurba_marseille","lat":43.30794,"lon":5.37657,"is_reserved":false,"is_disabled":true,"rental_uris":{"android":"levelo://app?vid=30c55592-5c2d-4766-9ae9-6f1e5192194b","ios":"levelo://app?vid=30c55592-5c2d-4766-9ae9-6f1e5192194b"},"vehicle_type_id":"4","last_reported":1737202472,"current_range_meters":0,"station_id":"","pricing_plan_id":"cebpf4jnsgd1na2vs0mg"},{"bike_id":"b205d6b8-894d-4fbe-b662-7e7cffdad903","system_id":"levelo_inurba_marseille","lat":43.30533,"lon":5.36554,"is_reserved":false,"is_disabled":false,"rental_uris":{"android":"levelo://app?vid=b205d6b8-894d-4fbe-b662-7e7cffdad903","ios":"levelo://app?vid=b205d6b8-894d-4fbe-b662-7e7cffdad903"},"vehicle_type_id":"4","last_reported":1737202472,"current_range_meters":37600,"station_id":"ce4bgs12rcd13ifvqcag","pricing_plan_id":"cebpf4jnsgd1na2vs0mg"},{"bike_id":"a9a0e60f-8e94-490a-988c-5a9cfc45d626","system_id":"levelo_inurba_marseille","lat":43.24177,"lon":5.36392,"is_reserved":false,"is_disabled":false,"rental_uris":{"android":"levelo://app?vid=a9a0e60f-8e94-490a-988c-5a9cfc45d626","ios":"levelo://app?vid=a9a0e60f-8e94-490a-988c-5a9cfc45d626"},"vehicle_type_id":"4","last_reported":1737202472,"current_range_meters":11200,"station_id":"cpo36qri1sfpv3e86is0","pricing_plan_id":"cebpf4jnsgd1na2vs0mg"},{"bike_id":"c8f901c8-f5ad-4f8e-9175-dea16fbf5df3","system_id":"levelo_inurba_marseille","lat":43.2849,"lon":5.38423,"is_reserved":false,"is_disabled":false,"rental_uris":{"android":"levelo://app?vid=c8f901c8-f5ad-4f8e-9175-dea16fbf5df3","ios":"levelo://app?vid=c8f901c8-f5ad-4f8e-9175-dea16fbf5df3"},"vehicle_type_id":"4","last_reported":1737202472,"current_range_meters":32400,"station_id":"ce4bh512rcd13ifvqe3g","pricing_plan_id":"cebpf4jnsgd1na2vs0mg"},{"bike_id":"c08aa9a5-9070-4550-b495-b813c9c89de5","system_id":"levelo_inurba_marseille","lat":43.32289,"lon":5.38266,"is_reserved":false,"is_disabled":false,"rental_uris":{"android":"levelo://app?vid=c08aa9a5-9070-4550-b495-b813c9c89de5","ios":"levelo://app?vid=c08aa9a5-9070-4550-b495-b813c9c89de5"},"vehicle_type_id":"4","last_reported":1737202472,"current_range_meters":18000,"station_id":"ce4bhr12rcd13ifvqhqg","pricing_plan_id":"cebpf4jnsgd1na2vs0mg"},{"bike_id":"11cd2222-dd89-422a-913d-4cdc05e996df","system_id":"levelo_inurba_marseille","lat":43.29381,"lon":5.37859,"is_reserved":false,"is_disabled":false,"rental_uris":{"android":"levelo://app?vid=11cd2222-dd89-422a-913d-4cdc05e996df","ios":"levelo://app?vid=11cd2222-dd89-422a-913d-4cdc05e996df"},"vehicle_type_id":"4","last_reported":1737202472,"current_range_meters":39200,"station_id":"ce4bgjh2rcd13ifvqbf0","pricing_plan_id":"cebpf4jnsgd1na2vs0mg"},{"bike_id":"76dbf6ef-b4a8-4cef-8918-462b67116819","system_id":"levelo_inurba_marseille","lat":43.32284,"lon":5.38263,"is_reserved":false,"is_disabled":true,"rental_uris":{"android":"levelo://app?vid=76dbf6ef-b4a8-4cef-8918-462b67116819","ios":"levelo://app?vid=76dbf6ef-b4a8-4cef-8918-462b67116819"},"vehicle_type_id":"4","last_reported":1737202472,"current_range_meters":1200,"station_id":"ce4bhr12rcd13ifvqhqg","pricing_plan_id":"cebpf4jnsgd1na2vs0mg"},{"bike_id":"696f508d-987a-4d7b-bd3c-0fd4033badc2","system_id":"levelo_inurba_marseille","lat":43.29196,"lon":5.35812,"is_reserved":false,"is_disabled":false,"rental_uris":{"android":"levelo://app?vid=696f508d-987a-4d7b-bd3c-0fd4033badc2","ios":"levelo://app?vid=696f508d-987a-4d7b-bd3c-0fd4033badc2"},"vehicle_type_id":"4","last_reported":1737202472,"current_range_meters":17200,"station_id":"ce4bhb12rcd13ifvqel0","pricing_plan_id":"cebpf4jnsgd1na2vs0mg"},{"bike_id":"d1ff21c9-55a9-4434-beaa-de76ba5279e3","system_id":"levelo_inurba_marseille","lat":43.3012,"lon":5.39876,"is_reserved":false,"is_disabled":false,"rental_uris":{"android":"levelo://app?vid=d1ff21c9-55a9-4434-beaa-de76ba5279e3","ios":"levelo://app?vid=d1ff21c9-55a9-4434-beaa-de76ba5279e3"},"vehicle_type_id":"4","last_reported":1737202472,"current_range_meters":30800,"station_id":"ce4bh0h2rcd13ifvqd40","pricing_plan_id":"cebpf4jnsgd1na2vs0mg"},{"bike_id":"753dc0fa-7093-4f21-9fed-59beb8b0435c","system_id":"levelo_inurba_marseille","lat":43.29707,"lon":5.37699,"is_reserved":false,"is_disabled":true,"rental_uris":{"android":"levelo://app?vid=753dc0fa-7093-4f21-9fed-59beb8b0435c","ios":"levelo://app?vid=753dc0fa-7093-4f21-9fed-59beb8b0435c"},"vehicle_type_id":"4","last_reported":1737202472,"current_range_meters":800,"station_id":"ce4bgkh2rcd13ifvqbl0","pricing_plan_id":"cebpf4jnsgd1na2vs0mg"},{"bike_id":"95d5fca7-dfda-4bcf-a78d-e81265e6be5f","system_id":"levelo_inurba_marseille","lat":43.30907,"lon":5.36864,"is_reserved":false,"is_disabled":false,"rental_uris":{"android":"levelo://app?vid=95d5fca7-dfda-4bcf-a78d-e81265e6be5f","ios":"levelo://app?vid=95d5fca7-dfda-4bcf-a78d-e81265e6be5f"},"vehicle_type_id":"4","last_reported":1737202472,"current_range_meters":38800,"station_id":"ce4bgn92rcd13ifvqbvg","pricing_plan_id":"cebpf4jnsgd1na2vs0mg"},{"bike_id":"7cbc6293-5ae9-4500-9d55-5148934ba7e5","system_id":"levelo_inurba_marseille","lat":43.29527,"lon":5.38536,"is_reserved":false,"is_disabled":false,"rental_uris":{"android":"levelo://app?vid=7cbc6293-5ae9-4500-9d55-5148934ba7e5","ios":"levelo://app?vid=7cbc6293-5ae9-4500-9d55-5148934ba7e5"},"vehicle_type_id":"4","last_reported":1737202472,"current_range_meters":23200,"station_id":"ce4bgih2rcd13ifvqba0","pricing_plan_id":"cebpf4jnsgd1na2vs0mg"},{"bike_id":"1f9b0010-3603-4366-9469-714a3d39b7d4","system_id":"levelo_inurba_marseille","lat":43.30147,"lon":5.37422,"is_reserved":false,"is_disabled":false,"rental_uris":{"android":"levelo://app?vid=1f9b0010-3603-4366-9469-714a3d39b7d4","ios":"levelo://app?vid=1f9b0010-3603-4366-9469-714a3d39b7d4"},"vehicle_type_id":"4","last_reported":1737202472,"current_range_meters":36400,"station_id":"ce4bgs92rcd13ifvqcc0","pricing_plan_id":"cebpf4jnsgd1na2vs0mg"},{"bike_id":"d5cb211d-1292-48d4-a1a5-5b24da386341","system_id":"levelo_inurba_marseille","lat":43.27223,"lon":5.39186,"is_reserved":false,"is_disabled":false,"rental_uris":{"android":"levelo://app?vid=d5cb211d-1292-48d4-a1a5-5b24da386341","ios":"levelo://app?vid=d5cb211d-1292-48d4-a1a5-5b24da386341"},"vehicle_type_id":"4","last_reported":1737202472,"current_range_meters":33600,"station_id":"ce4bhhp2rcd13ifvqfm0","pricing_plan_id":"cebpf4jnsgd1na2vs0mg"},{"bike_id":"f5863b18-13a1-4c6e-92de-5668ea912ad3","system_id":"levelo_inurba_marseille","lat":43.26223,"lon":5.40469,"is_reserved":false,"is_disabled":true,"rental_uris":{"android":"levelo://app?vid=f5863b18-13a1-4c6e-92de-5668ea912ad3","ios":"levelo://app?vid=f5863b18-13a1-4c6e-92de-5668ea912ad3"},"vehicle_type_id":"4","last_reported":1737202472,"current_range_meters":0,"station_id":"","pricing_plan_id":"cebpf4jnsgd1na2vs0mg"},{"bike_id":"68fbf63e-ccae-48d0-af52-4dc7fbe969a4","system_id":"levelo_inurba_marseille","lat":43.28703,"lon":5.37385,"is_reserved":false,"is_disabled":false,"rental_uris":{"android":"levelo://app?vid=68fbf63e-ccae-48d0-af52-4dc7fbe969a4","ios":"levelo://app?vid=68fbf63e-ccae-48d0-af52-4dc7fbe969a4"},"vehicle_type_id":"4","last_reported":1737202472,"current_range_meters":30800,"station_id":"ce4bh3p2rcd13ifvqdq0","pricing_plan_id":"cebpf4jnsgd1na2vs0mg"},{"bike_id":"88a76da0-7897-4660-ab0b-9b88fd3742fb","system_id":"levelo_inurba_marseille","lat":43.26499,"lon":5.39553,"is_reserved":false,"is_disabled":false,"rental_uris":{"android":"levelo://app?vid=88a76da0-7897-4660-ab0b-9b88fd3742fb","ios":"levelo://app?vid=88a76da0-7897-4660-ab0b-9b88fd3742fb"},"vehicle_type_id":"4","last_reported":1737202472,"current_range_meters":27600,"station_id":"ce4bhi12rcd13ifvqfq0","pricing_plan_id":"cebpf4jnsgd1na2vs0mg"},{"bike_id":"46686b70-f375-4947-b209-2f4548c2edcf","system_id":"levelo_inurba_marseille","lat":43.28915,"lon":5.39452,"is_reserved":false,"is_disabled":true,"rental_uris":{"android":"levelo://app?vid=46686b70-f375-4947-b209-2f4548c2edcf","ios":"levelo://app?vid=46686b70-f375-4947-b209-2f4548c2edcf"},"vehicle_type_id":"4","last_reported":1737202472,"current_range_meters":0,"station_id":"","pricing_plan_id":"cebpf4jnsgd1na2vs0mg"},{"bike_id":"ee7129e4-0dd6-4b09-9979-8a120e5f7d64","system_id":"levelo_inurba_marseille","lat":43.30531,"lon":5.36716,"is_reserved":false,"is_disabled":false,"rental_uris":{"android":"levelo://app?vid=ee7129e4-0dd6-4b09-9979-8a120e5f7d64","ios":"levelo://app?vid=ee7129e4-0dd6-4b09-9979-8a120e5f7d64"},"vehicle_type_id":"4","last_reported":1737202472,"current_range_meters":38000,"station_id":"ce4bgrp2rcd13ifvqc9g","pricing_plan_id":"cebpf4jnsgd1na2vs0mg"},{"bike_id":"48b6b806-1517-45ce-a245-e37ba43f477d","system_id":"levelo_inurba_marseille","lat":43.31715,"lon":5.37764,"is_reserved":false,"is_disabled":false,"rental_uris":{"android":"levelo://app?vid=48b6b806-1517-45ce-a245-e37ba43f477d","ios":"levelo://app?vid=48b6b806-1517-45ce-a245-e37ba43f477d"},"vehicle_type_id":"4","last_reported":1737202472,"current_range_meters":26800,"station_id":"ce4bgth2rcd13ifvqch0","pricing_plan_id":"cebpf4jnsgd1na2vs0mg"},{"bike_id":"982c5e56-6f26-48c1-aefd-d611c3ea6ec0","system_id":"levelo_inurba_marseille","lat":43.23154,"lon":5.43725,"is_reserved":false,"is_disabled":false,"rental_uris":{"android":"levelo://app?vid=982c5e56-6f26-48c1-aefd-d611c3ea6ec0","ios":"levelo://app?vid=982c5e56-6f26-48c1-aefd-d611c3ea6ec0"},"vehicle_type_id":"4","last_reported":1737202472,"current_range_meters":9200,"station_id":"ce4bhmp2rcd13ifvqgog","pricing_plan_id":"cebpf4jnsgd1na2vs0mg"},{"bike_id":"6e5ce8bc-0f63-4e4a-8f4b-3a83a897df0d","system_id":"levelo_inurba_marseille","lat":43.23171,"lon":5.43708,"is_reserved":false,"is_disabled":false,"rental_uris":{"android":"levelo://app?vid=6e5ce8bc-0f63-4e4a-8f4b-3a83a897df0d","ios":"levelo://app?vid=6e5ce8bc-0f63-4e4a-8f4b-3a83a897df0d"},"vehicle_type_id":"4","last_reported":1737202472,"current_range_meters":6000,"station_id":"ce4bhmp2rcd13ifvqgog","pricing_plan_id":"cebpf4jnsgd1na2vs0mg"},{"bike_id":"a502fac6-fc2c-47d3-b5a0-b0b0d12c1a71","system_id":"levelo_inurba_marseille","lat":43.308,"lon":5.38148,"is_reserved":false,"is_disabled":true,"rental_uris":{"android":"levelo://app?vid=a502fac6-fc2c-47d3-b5a0-b0b0d12c1a71","ios":"levelo://app?vid=a502fac6-fc2c-47d3-b5a0-b0b0d12c1a71"},"vehicle_type_id":"4","last_reported":1737202472,"current_range_meters":6400,"station_id":"ce4bgt12rcd13ifvqce0","pricing_plan_id":"cebpf4jnsgd1na2vs0mg"},{"bike_id":"a93661f0-c7f9-47c4-aabc-bf1cd45422ea","system_id":"levelo_inurba_marseille","lat":43.27211,"lon":5.39193,"is_reserved":false,"is_disabled":false,"rental_uris":{"android":"levelo://app?vid=a93661f0-c7f9-47c4-aabc-bf1cd45422ea","ios":"levelo://app?vid=a93661f0-c7f9-47c4-aabc-bf1cd45422ea"},"vehicle_type_id":"4","last_reported":1737202472,"current_range_meters":39200,"station_id":"ce4bhhp2rcd13ifvqfm0","pricing_plan_id":"cebpf4jnsgd1na2vs0mg"},{"bike_id":"aee77450-e637-4195-bb0f-578307372c59","system_id":"levelo_inurba_marseille","lat":43.298941,"lon":5.436578,"is_reserved":false,"is_disabled":false,"rental_uris":{"android":"levelo://app?vid=aee77450-e637-4195-bb0f-578307372c59","ios":"levelo://app?vid=aee77450-e637-4195-bb0f-578307372c59"},"vehicle_type_id":"4","last_reported":1737202472,"current_range_meters":38000,"station_id":"ce4bhpp2rcd13ifvqhfg","pricing_plan_id":"cebpf4jnsgd1na2vs0mg"},{"bike_id":"9849a1cd-1b9c-4ad5-8b09-5483ca1e8f71","system_id":"levelo_inurba_marseille","lat":43.28568,"lon":5.39496,"is_reserved":false,"is_disabled":false,"rental_uris":{"android":"levelo://app?vid=9849a1cd-1b9c-4ad5-8b09-5483ca1e8f71","ios":"levelo://app?vid=9849a1cd-1b9c-4ad5-8b09-5483ca1e8f71"},"vehicle_type_id":"4","last_reported":1737202472,"current_range_meters":4000,"station_id":"ce4bh292rcd13ifvqdg0","pricing_plan_id":"cebpf4jnsgd1na2vs0mg"},{"bike_id":"6870a9e0-7988-452a-a0a6-84e136278682","system_id":"levelo_inurba_marseille","lat":43.26558,"lon":5.37314,"is_reserved":false,"is_disabled":false,"rental_uris":{"android":"levelo://app?vid=6870a9e0-7988-452a-a0a6-84e136278682","ios":"levelo://app?vid=6870a9e0-7988-452a-a0a6-84e136278682"},"vehicle_type_id":"4","last_reported":1737202472,"current_range_meters":37600,"station_id":"ce4bhg12rcd13ifvqf70","pricing_plan_id":"cebpf4jnsgd1na2vs0mg"},{"bike_id":"eca6b47e-66a5-44b3-b44c-80357e608f8d","system_id":"levelo_inurba_marseille","lat":43.31486,"lon":5.37313,"is_reserved":false,"is_disabled":false,"rental_uris":{"android":"levelo://app?vid=eca6b47e-66a5-44b3-b44c-80357e608f8d","ios":"levelo://app?vid=eca6b47e-66a5-44b3-b44c-80357e608f8d"},"vehicle_type_id":"4","last_reported":1737202472,"current_range_meters":34800,"station_id":"ce4bgt12rcd13ifvqcd0","pricing_plan_id":"cebpf4jnsgd1na2vs0mg"},{"bike_id":"f4b03e8f-370c-4696-bf18-15651a5ea3bf","system_id":"levelo_inurba_marseille","lat":43.25724,"lon":5.41107,"is_reserved":false,"is_disabled":false,"rental_uris":{"android":"levelo://app?vid=f4b03e8f-370c-4696-bf18-15651a5ea3bf","ios":"levelo://app?vid=f4b03e8f-370c-4696-bf18-15651a5ea3bf"},"vehicle_type_id":"4","last_reported":1737202472,"current_range_meters":31200,"station_id":"ce4bhkp2rcd13ifvqgd0","pricing_plan_id":"cebpf4jnsgd1na2vs0mg"},{"bike_id":"97b134fb-2916-4b92-9f87-d86c7c005145","system_id":"levelo_inurba_marseille","lat":43.28659,"lon":5.36363,"is_reserved":false,"is_disabled":false,"rental_uris":{"android":"levelo://app?vid=97b134fb-2916-4b92-9f87-d86c7c005145","ios":"levelo://app?vid=97b134fb-2916-4b92-9f87-d86c7c005145"},"vehicle_type_id":"4","last_reported":1737202472,"current_range_meters":38800,"station_id":"ce4bhah2rcd13ifvqej0","pricing_plan_id":"cebpf4jnsgd1na2vs0mg"},{"bike_id":"e2d0ff66-45eb-40ee-94ba-f68d945004b5","system_id":"levelo_inurba_marseille","lat":43.30102,"lon":5.39077,"is_reserved":false,"is_disabled":false,"rental_uris":{"android":"levelo://app?vid=e2d0ff66-45eb-40ee-94ba-f68d945004b5","ios":"levelo://app?vid=e2d0ff66-45eb-40ee-94ba-f68d945004b5"},"vehicle_type_id":"4","last_reported":1737202472,"current_range_meters":38000,"station_id":"ce4bh192rcd13ifvqdb0","pricing_plan_id":"cebpf4jnsgd1na2vs0mg"},{"bike_id":"c3ba3650-2132-4673-ad94-1c2d10120da6","system_id":"levelo_inurba_marseille","lat":43.3043,"lon":5.39749,"is_reserved":false,"is_disabled":false,"rental_uris":{"android":"levelo://app?vid=c3ba3650-2132-4673-ad94-1c2d10120da6","ios":"levelo://app?vid=c3ba3650-2132-4673-ad94-1c2d10120da6"},"vehicle_type_id":"4","last_reported":1737202472,"current_range_meters":25200,"station_id":"ce4bh092rcd13ifvqd20","pricing_plan_id":"cebpf4jnsgd1na2vs0mg"},{"bike_id":"b2e3142b-3b1b-4d56-9872-73ee689f9ab7","system_id":"levelo_inurba_marseille","lat":43.26664,"lon":5.38287,"is_reserved":false,"is_disabled":false,"rental_uris":{"android":"levelo://app?vid=b2e3142b-3b1b-4d56-9872-73ee689f9ab7","ios":"levelo://app?vid=b2e3142b-3b1b-4d56-9872-73ee689f9ab7"},"vehicle_type_id":"4","last_reported":1737202472,"current_range_meters":32400,"station_id":"ce4bhg92rcd13ifvqf90","pricing_plan_id":"cebpf4jnsgd1na2vs0mg"},{"bike_id":"89e5abf9-db11-4176-8d87-4ded95733757","system_id":"levelo_inurba_marseille","lat":43.30472,"lon":5.37911,"is_reserved":false,"is_disabled":false,"rental_uris":{"android":"levelo://app?vid=89e5abf9-db11-4176-8d87-4ded95733757","ios":"levelo://app?vid=89e5abf9-db11-4176-8d87-4ded95733757"},"vehicle_type_id":"4","last_reported":1737202472,"current_range_meters":16000,"station_id":"ce4bgup2rcd13ifvqcn0","pricing_plan_id":"cebpf4jnsgd1na2vs0mg"},{"bike_id":"5bbc58ba-a206-496a-87c8-2cecc90ce11a","system_id":"levelo_inurba_marseille","lat":43.25081,"lon":5.39518,"is_reserved":false,"is_disabled":false,"rental_uris":{"android":"levelo://app?vid=5bbc58ba-a206-496a-87c8-2cecc90ce11a","ios":"levelo://app?vid=5bbc58ba-a206-496a-87c8-2cecc90ce11a"},"vehicle_type_id":"4","last_reported":1737202472,"current_range_meters":36800,"station_id":"ce4bhm12rcd13ifvqgkg","pricing_plan_id":"cebpf4jnsgd1na2vs0mg"},{"bike_id":"c73224c5-8662-473f-8844-f010af6d2952","system_id":"levelo_inurba_marseille","lat":43.27197,"lon":5.40989,"is_reserved":false,"is_disabled":true,"rental_uris":{"android":"levelo://app?vid=c73224c5-8662-473f-8844-f010af6d2952","ios":"levelo://app?vid=c73224c5-8662-473f-8844-f010af6d2952"},"vehicle_type_id":"4","last_reported":1737202472,"current_range_meters":24000,"station_id":"ce4bhl12rcd13ifvqgf0","pricing_plan_id":"cebpf4jnsgd1na2vs0mg"},{"bike_id":"59a854ad-1498-4a70-b1fa-66b40033defa","system_id":"levelo_inurba_marseille","lat":43.23155,"lon":5.43718,"is_reserved":false,"is_disabled":false,"rental_uris":{"android":"levelo://app?vid=59a854ad-1498-4a70-b1fa-66b40033defa","ios":"levelo://app?vid=59a854ad-1498-4a70-b1fa-66b40033defa"},"vehicle_type_id":"4","last_reported":1737202472,"current_range_meters":20000,"station_id":"ce4bhmp2rcd13ifvqgog","pricing_plan_id":"cebpf4jnsgd1na2vs0mg"},{"bike_id":"95b517d0-9dcf-47f9-8053-773bec6e6a69","system_id":"levelo_inurba_marseille","lat":43.26679,"lon":5.39527,"is_reserved":false,"is_disabled":false,"rental_uris":{"android":"levelo://app?vid=95b517d0-9dcf-47f9-8053-773bec6e6a69","ios":"levelo://app?vid=95b517d0-9dcf-47f9-8053-773bec6e6a69"},"vehicle_type_id":"4","last_reported":1737202472,"current_range_meters":17200,"station_id":"","pricing_plan_id":"cebpf4jnsgd1na2vs0mg"},{"bike_id":"3538af8a-8ae6-4dc0-8a0b-71d76a7f4df8","system_id":"levelo_inurba_marseille","lat":43.23154,"lon":5.43718,"is_reserved":false,"is_disabled":false,"rental_uris":{"android":"levelo://app?vid=3538af8a-8ae6-4dc0-8a0b-71d76a7f4df8","ios":"levelo://app?vid=3538af8a-8ae6-4dc0-8a0b-71d76a7f4df8"},"vehicle_type_id":"4","last_reported":1737202472,"current_range_meters":20800,"station_id":"ce4bhmp2rcd13ifvqgog","pricing_plan_id":"cebpf4jnsgd1na2vs0mg"},