{"last_updated":1706634379,"ttl":30,"version":"2.2","data":{"bikes":[{"bike_id":"bfaf4954-a474-4862-adad-5aec4e9c2657","system_id":"levelo_inurba_marseille","lat":43.312239,"lon":5.368562,"is_reserved":false,"is_disabled":false,"rental_uris":{"android":"levelo://app?vid=bfaf4954-a474-4862-adad-5aec4e9c2657","ios":"levelo://app?vid=bfaf4954-a474-4862-adad-5aec4e9c2657"},"vehicle_type_id":"4","last_reported":1706634379,"current_range_meters":14000,"station_id":"ce4bgl92rcd13ifvqbq0","pricing_plan_id":"free"},{"bike_id":"a30cee6e-6740-4864-a720-07ceec05e68f","system_id":"levelo_inurba_marseille","lat":43.314811,"lon":5.373103,"is_reserved":false,"is_disabled":false,"rental_uris":{"android":"levelo://app?vid=a30cee6e-6740-4864-a720-07ceec05e68f","ios":"levelo://app?vid=a30cee6e-6740-4864-a720-07ceec05e68f"},"vehicle_type_id":"4","last_reported":1706634379,"current_range_meters":23200,"station_id":"ce4bgt12rcd13ifvqcd0","pricing_plan_id":"free"},{"bike_id":"17ec4c32-1c44-4992-93a8-7ac8cea458a4","system_id":"levelo_inurba_marseille","lat":43.314811,"lon":5.373103,"is_reserved":false,"is_disabled":false,"rental_uris":{"android":"levelo://app?vid=17ec4c32-1c44-4992-93a8-7ac8cea458a4","ios":"levelo://app?vid=17ec4c32-1c44-4992-93a8-7ac8cea458a4"},"vehicle_type_id":"4","last_reported":1706634379,"current_range_meters":400,"station_id":"ce4bgt12rcd13ifvqcd0","pricing_plan_id":"free"},{"bike_id":"757bca03-2335-48aa-b8ee-58a03d2a5848","system_id":"levelo_inurba_marseille","lat":43.31478,"lon":5.37317,"is_reserved":false,"is_disabled":false,"rental_uris":{"android":"levelo://app?vid=757bca03-2335-48aa-b8ee-58a03d2a5848","ios":"levelo://app?vid=757bca03-2335-48aa-b8ee-58a03d2a5848"},"vehicle_type_id":"4","last_reported":1706634379,"current_range_meters":0,"station_id":"ce4bgt12rcd13ifvqcd0","pricing_plan_id":"free"},{"bike_id":"efb30144-399a-4e92-9389-ff110c3ababc","system_id":"levelo_inurba_marseille","lat":43.314811,"lon":5.373104,"is_reserved":false,"is_disabled":false,"rental_uris":{"android":"levelo://app?vid=efb30144-399a-4e92-9389-ff110c3ababc","ios":"levelo://app?vid=efb30144-399a-4e92-9389-ff110c3ababc"},"vehicle_type_id":"4","last_reported":1706634379,"current_range_meters":14000,"station_id":"ce4bgt12rcd13ifvqcd0","pricing_plan_id":"free"},{"bike_id":"c781019c-67c6-4c52-ae7b-aad027402f9a","system_id":"levelo_inurba_marseille","lat":43.309039,"lon":5.371797,"is_reserved":false,"is_disabled":false,"rental_uris":{"android":"levelo://app?vid=c781019c-67c6-4c52-ae7b-aad027402f9a","ios":"levelo://app?vid=c781019c-67c6-4c52-ae7b-aad027402f9a"},"vehicle_type_id":"4","last_reported":1706634379,"current_range_meters":0,"station_id":"ce4bguh2rcd13ifvqckg","pricing_plan_id":"free"},{"bike_id":"8efcbe5c-587e-4564-86fb-bc9115f4a36c","system_id":"levelo_inurba_marseille","lat":43.3088,"lon":5.37205,"is_reserved":false,"is_disabled":false,"rental_uris":{"android":"levelo://app?vid=8efcbe5c-587e-4564-86fb-bc9115f4a36c","ios":"levelo://app?vid=8efcbe5c-587e-4564-86fb-bc9115f4a36c"},"vehicle_type_id":"4","last_reported":1706634379,"current_range_meters":10000,"station_id":"ce4bguh2rcd13ifvqckg","pricing_plan_id":"free"},{"bike_id":"242f0d26-3ace-458c-a3ac-b70ae9473775","system_id":"levelo_inurba_marseille","lat":43.305359,"lon":5.366981,"is_reserved":false,"is_disabled":false,"rental_uris":{"android":"levelo://app?vid=242f0d26-3ace-458c-a3ac-b70ae9473775","ios":"levelo://app?vid=242f0d26-3ace-458c-a3ac-b70ae9473775"},"vehicle_type_id":"4","last_reported":1706634379,"current_range_meters":28800,"station_id":"ce4bgrp2rcd13ifvqc9g","pricing_plan_id":"free"},{"bike_id":"558a85bb-415d-4418-9536-e70b333df0e6","system_id":"levelo_inurba_marseille","lat":43.305989,"lon":5.37225,"is_reserved":false,"is_disabled":false,"rental_uris":{"android":"levelo://app?vid=558a85bb-415d-4418-9536-e70b333df0e6","ios":"levelo://app?vid=558a85bb-415d-4418-9536-e70b333df0e6"},"vehicle_type_id":"4","last_reported":1706634379,"current_range_meters":5600,"station_id":"ce4bgqh2rcd13ifvqc4g","pricing_plan_id":"free"},{"bike_id":"0de9b7aa-643c-4ded-a2db-eeebffee7d51","system_id":"levelo_inurba_marseille","lat":43.31112,"lon":5.37772,"is_reserved":false,"is_disabled":false,"rental_uris":{"android":"levelo://app?vid=0de9b7aa-643c-4ded-a2db-eeebffee7d51","ios":"levelo://app?vid=0de9b7aa-643c-4ded-a2db-eeebffee7d51"},"vehicle_type_id":"4","last_reported":1706634379,"current_range_meters":5200,"station_id":"","pricing_plan_id":"free"},{"bike_id":"80d57d60-4815-42e6-a746-f3aee5a0c9f6","system_id":"levelo_inurba_marseille","lat":43.311131,"lon":5.377651,"is_reserved":false,"is_disabled":false,"rental_uris":{"android":"levelo://app?vid=80d57d60-4815-42e6-a746-f3aee5a0c9f6","ios":"levelo://app?vid=80d57d60-4815-42e6-a746-f3aee5a0c9f6"},"vehicle_type_id":"4","last_reported":1706634379,"current_range_meters":7600,"station_id":"ce4bgt92rcd13ifvqcg0","pricing_plan_id":"free"},{"bike_id":"1e87b456-ed9e-4e39-a978-0c2d6aeb3279","system_id":"levelo_inurba_marseille","lat":43.307945,"lon":5.376487,"is_reserved":false,"is_disabled":false,"rental_uris":{"android":"levelo://app?vid=1e87b456-ed9e-4e39-a978-0c2d6aeb3279","ios":"levelo://app?vid=1e87b456-ed9e-4e39-a978-0c2d6aeb3279"},"vehicle_type_id":"4","last_reported":1706634379,"current_range_meters":28000,"station_id":"ce4bgv92rcd13ifvqcq0","pricing_plan_id":"free"},{"bike_id":"e7db1924-3bef-4a8e-95a0-f179a6684ea5","system_id":"levelo_inurba_marseille","lat":43.307945,"lon":5.376487,"is_reserved":false,"is_disabled":false,"rental_uris":{"android":"levelo://app?vid=e7db1924-3bef-4a8e-95a0-f179a6684ea5","ios":"levelo://app?vid=e7db1924-3bef-4a8e-95a0-f179a6684ea5"},"vehicle_type_id":"4","last_reported":1706634379,"current_range_meters":5200,"station_id":"ce4bgv92rcd13ifvqcq0","pricing_plan_id":"free"},{"bike_id":"762b9b1c-af92-4089-b96d-86a39016a869","system_id":"levelo_inurba_marseille","lat":43.307945,"lon":5.376487,"is_reserved":false,"is_disabled":false,"rental_uris":{"android":"levelo://app?vid=762b9b1c-af92-4089-b96d-86a39016a869","ios":"levelo://app?vid=762b9b1c-af92-4089-b96d-86a39016a869"},"vehicle_type_id":"4","last_reported":1706634379,"current_range_meters":26400,"station_id":"ce4bgv92rcd13ifvqcq0","pricing_plan_id":"free"},{"bike_id":"806a8ffe-8a87-4dba-b4ac-104985ac14ca","system_id":"levelo_inurba_marseille","lat":43.303046,"lon":5.368981,"is_reserved":false,"is_disabled":false,"rental_uris":{"android":"levelo://app?vid=806a8ffe-8a87-4dba-b4ac-104985ac14ca","ios":"levelo://app?vid=806a8ffe-8a87-4dba-b4ac-104985ac14ca"},"vehicle_type_id":"4","last_reported":1706634379,"current_range_meters":0,"station_id":"ce4bgqh2rcd13ifvqc5g","pricing_plan_id":"free"},{"bike_id":"f451b387-0e79-4dde-bd10-32f4ba4d50bd","system_id":"levelo_inurba_marseille","lat":43.308327,"lon":5.379223,"is_reserved":false,"is_disabled":false,"rental_uris":{"android":"levelo://app?vid=f451b387-0e79-4dde-bd10-32f4ba4d50bd","ios":"levelo://app?vid=f451b387-0e79-4dde-bd10-32f4ba4d50bd"},"vehicle_type_id":"4","last_reported":1706634379,"current_range_meters":6400,"station_id":"","pricing_plan_id":"free"},{"bike_id":"da7dcaae-033a-4491-afc8-287d2278d803","system_id":"levelo_inurba_marseille","lat":43.315293,"lon":5.380349,"is_reserved":false,"is_disabled":false,"rental_uris":{"android":"levelo://app?vid=da7dcaae-033a-4491-afc8-287d2278d803","ios":"levelo://app?vid=da7dcaae-033a-4491-afc8-287d2278d803"},"vehicle_type_id":"4","last_reported":1706634379,"current_range_meters":14400,"station_id":"ce4bhsp2rcd13ifvqi50","pricing_plan_id":"free"},{"bike_id":"01b7e8bd-c218-4bf5-8fca-a098eb21257a","system_id":"levelo_inurba_marseille","lat":43.30179,"lon":5.366274,"is_reserved":false,"is_disabled":false,"rental_uris":{"android":"levelo://app?vid=01b7e8bd-c218-4bf5-8fca-a098eb21257a","ios":"levelo://app?vid=01b7e8bd-c218-4bf5-8fca-a098eb21257a"},"vehicle_type_id":"4","last_reported":1706634379,"current_range_meters":24000,"station_id":"ce4bgrh2rcd13ifvqc8g","pricing_plan_id":"free"},{"bike_id":"2c3cb4cd-cb51-4a0a-83f6-22aad05e19eb","system_id":"levelo_inurba_marseille","lat":43.30803,"lon":5.38167,"is_reserved":false,"is_disabled":false,"rental_uris":{"android":"levelo://app?vid=2c3cb4cd-cb51-4a0a-83f6-22aad05e19eb","ios":"levelo://app?vid=2c3cb4cd-cb51-4a0a-83f6-22aad05e19eb"},"vehicle_type_id":"4","last_reported":1706634379,"current_range_meters":13600,"station_id":"ce4bgt12rcd13ifvqce0","pricing_plan_id":"free"},{"bike_id":"2c86fa94-6afd-4ea3-b3c1-4a1a289afb8a","system_id":"levelo_inurba_marseille","lat":43.3046,"lon":5.37896,"is_reserved":false,"is_disabled":false,"rental_uris":{"android":"levelo://app?vid=2c86fa94-6afd-4ea3-b3c1-4a1a289afb8a","ios":"levelo://app?vid=2c86fa94-6afd-4ea3-b3c1-4a1a289afb8a"},"vehicle_type_id":"4","last_reported":1706634379,"current_range_meters":0,"station_id":"ce4bgup2rcd13ifvqcn0","pricing_plan_id":"free"},{"bike_id":"04a284c6-ab3f-4874-9aaa-d24e4dd52dec","system_id":"levelo_inurba_marseille","lat":43.30454,"lon":5.37905,"is_reserved":false,"is_disabled":false,"rental_uris":{"android":"levelo://app?vid=04a284c6-ab3f-4874-9aaa-d24e4dd52dec","ios":"levelo://app?vid=04a284c6-ab3f-4874-9aaa-d24e4dd52dec"},"vehicle_type_id":"4","last_reported":1706634379,"current_range_meters":0,"station_id":"ce4bgup2rcd13ifvqcn0","pricing_plan_id":"free"},{"bike_id":"e42c95dc-77af-468b-8351-f8bb8b0b51be","system_id":"levelo_inurba_marseille","lat":43.324771,"lon":5.36557,"is_reserved":false,"is_disabled":false,"rental_uris":{"android":"levelo://app?vid=e42c95dc-77af-468b-8351-f8bb8b0b51be","ios":"levelo://app?vid=e42c95dc-77af-468b-8351-f8bb8b0b51be"},"vehicle_type_id":"4","last_reported":1706634379,"current_range_meters":18800,"station_id":"ce4bhs12rcd13ifvqhvg","pricing_plan_id":"free"},{"bike_id":"4c1d912b-8425-4b28-bcd4-0691a1724560","system_id":"levelo_inurba_marseille","lat":43.32477,"lon":5.3657,"is_reserved":false,"is_disabled":false,"rental_uris":{"android":"levelo://app?vid=4c1d912b-8425-4b28-bcd4-0691a1724560","ios":"levelo://app?vid=4c1d912b-8425-4b28-bcd4-0691a1724560"},"vehicle_type_id":"4","last_reported":1706634379,"current_range_meters":23200,"station_id":"ce4bhs12rcd13ifvqhvg","pricing_plan_id":"free"},{"bike_id":"4736ab2f-d481-4964-88a7-047c1ca02d2a","system_id":"levelo_inurba_marseille","lat":43.324785,"lon":5.365822,"is_reserved":false,"is_disabled":false,"rental_uris":{"android":"levelo://app?vid=4736ab2f-d481-4964-88a7-047c1ca02d2a","ios":"levelo://app?vid=4736ab2f-d481-4964-88a7-047c1ca02d2a"},"vehicle_type_id":"4","last_reported":1706634379,"current_range_meters":29200,"station_id":"ce4bhs12rcd13ifvqhvg","pricing_plan_id":"free"},{"bike_id":"245253a0-5c3e-4373-ae81-f17dbfb0ece8","system_id":"levelo_inurba_marseille","lat":43.324771,"lon":5.36557,"is_reserved":false,"is_disabled":false,"rental_uris":{"android":"levelo://app?vid=245253a0-5c3e-4373-ae81-f17dbfb0ece8","ios":"levelo://app?vid=245253a0-5c3e-4373-ae81-f17dbfb0ece8"},"vehicle_type_id":"4","last_reported":1706634379,"current_range_meters":17600,"station_id":"ce4bhs12rcd13ifvqhvg","pricing_plan_id":"free"},{"bike_id":"12dbc180-ae90-4a9d-b2b2-8c2a6d378833","system_id":"levelo_inurba_marseille","lat":43.302784,"lon":5.377158,"is_reserved":false,"is_disabled":false,"rental_uris":{"android":"levelo://app?vid=12dbc180-ae90-4a9d-b2b2-8c2a6d378833","ios":"levelo://app?vid=12dbc180-ae90-4a9d-b2b2-8c2a6d378833"},"vehicle_type_id":"4","last_reported":1706634379,"current_range_meters":0,"station_id":"ce4bguh2rcd13ifvqcj0","pricing_plan_id":"free"},{"bike_id":"2dcb0ecf-3835-42fe-ab9f-90098ebf6129","system_id":"levelo_inurba_marseille","lat":43.30143,"lon":5.37413,"is_reserved":false,"is_disabled":false,"rental_uris":{"android":"levelo://app?vid=2dcb0ecf-3835-42fe-ab9f-90098ebf6129","ios":"levelo://app?vid=2dcb0ecf-3835-42fe-ab9f-90098ebf6129"},"vehicle_type_id":"4","last_reported":1706634379,"current_range_meters":0,"station_id":"ce4bgs92rcd13ifvqcc0","pricing_plan_id":"free"},{"bike_id":"b8b1dbbf-61db-4523-87cf-433d900d312a","system_id":"levelo_inurba_marseille","lat":43.319935,"lon":5.381699,"is_reserved":false,"is_disabled":false,"rental_uris":{"android":"levelo://app?vid=b8b1dbbf-61db-4523-87cf-433d900d312a","ios":"levelo://app?vid=b8b1dbbf-61db-4523-87cf-433d900d312a"},"vehicle_type_id":"4","last_reported":1706634379,"current_range_meters":7600,"station_id":"ce4bhr12rcd13ifvqhpg","pricing_plan_id":"free"},{"bike_id":"d0746e43-620f-459f-9e60-baedd4dac370","system_id":"levelo_inurba_marseille","lat":43.319935,"lon":5.381699,"is_reserved":false,"is_disabled":false,"rental_uris":{"android":"levelo://app?vid=d0746e43-620f-459f-9e60-baedd4dac370","ios":"levelo://app?vid=d0746e43-620f-459f-9e60-baedd4dac370"},"vehicle_type_id":"4","last_reported":1706634379,"current_range_meters":0,"station_id":"ce4bhr12rcd13ifvqhpg","pricing_plan_id":"free"},{"bike_id":"56347f14-6f6f-4c88-b081-1083f2758abb","system_id":"levelo_inurba_marseille","lat":43.319935,"lon":5.381699,"is_reserved":false,"is_disabled":false,"rental_uris":{"android":"levelo://app?vid=56347f14-6f6f-4c88-b081-1083f2758abb","ios":"levelo://app?vid=56347f14-6f6f-4c88-b081-1083f2758abb"},"vehicle_type_id":"4","last_reported":1706634379,"current_range_meters":7600,"station_id":"ce4bhr12rcd13ifvqhpg","pricing_plan_id":"free"},{"bike_id":"0b36dbae-1644-4cbb-9e53-0c7dfb5ca60e","system_id":"levelo_inurba_marseille","lat":43.319935,"lon":5.381699,"is_reserved":false,"is_disabled":false,"rental_uris":{"android":"levelo://app?vid=0b36dbae-1644-4cbb-9e53-0c7dfb5ca60e","ios":"levelo://app?vid=0b36dbae-1644-4cbb-9e53-0c7dfb5ca60e"},"vehicle_type_id":"4","last_reported":1706634379,"current_range_meters":25600,"station_id":"ce4bhr12rcd13ifvqhpg","pricing_plan_id":"free"},{"bike_id":"c4e490d7-0ea5-4f58-9a22-31a35fb1514e","system_id":"levelo_inurba_marseille","lat":43.319935,"lon":5.381699,"is_reserved":false,"is_disabled":false,"rental_uris":{"android":"levelo://app?vid=c4e490d7-0ea5-4f58-9a22-31a35fb1514e","ios":"levelo://app?vid=c4e490d7-0ea5-4f58-9a22-31a35fb1514e"},"vehicle_type_id":"4","last_reported":1706634379,"current_range_meters":3200,"station_id":"ce4bhr12rcd13ifvqhpg","pricing_plan_id":"free"},{"bike_id":"41a2eb28-9351-4e7c-87a9-ca1171d03601","system_id":"levelo_inurba_marseille","lat":43.319935,"lon":5.381699,"is_reserved":false,"is_disabled":false,"rental_uris":{"android":"levelo://app?vid=41a2eb28-9351-4e7c-87a9-ca1171d03601","ios":"levelo://app?vid=41a2eb28-9351-4e7c-87a9-ca1171d03601"},"vehicle_type_id":"4","last_reported":1706634379,"current_range_meters":18800,"station_id":"ce4bhr12rcd13ifvqhpg","pricing_plan_id":"free"},{"bike_id":"779ff0fc-02e4-4354-8a21-d8555e68464c","system_id":"levelo_inurba_marseille","lat":43.319935,"lon":5.381699,"is_reserved":false,"is_disabled":false,"rental_uris":{"android":"levelo://app?vid=779ff0fc-02e4-4354-8a21-d8555e68464c","ios":"levelo://app?vid=779ff0fc-02e4-4354-8a21-d8555e68464c"},"vehicle_type_id":"4","last_reported":1706634379,"current_range_meters":15600,"station_id":"ce4bhr12rcd13ifvqhpg","pricing_plan_id":"free"},{"bike_id":"549a62a0-b284-425d-898b-509739492a70","system_id":"levelo_inurba_marseille","lat":43.31362,"lon":5.3849,"is_reserved":false,"is_disabled":false,"rental_uris":{"android":"levelo://app?vid=549a62a0-b284-425d-898b-509739492a70","ios":"levelo://app?vid=549a62a0-b284-425d-898b-509739492a70"},"vehicle_type_id":"4","last_reported":1706634379,"current_range_meters":11200,"station_id":"ce4bgt92rcd13ifvqcf0","pricing_plan_id":"free"},{"bike_id":"e2d0a3d4-e2a9-4dcc-99e6-eb940863c528","system_id":"levelo_inurba_marseille","lat":43.31362,"lon":5.38494,"is_reserved":false,"is_disabled":false,"rental_uris":{"android":"levelo://app?vid=e2d0a3d4-e2a9-4dcc-99e6-eb940863c528","ios":"levelo://app?vid=e2d0a3d4-e2a9-4dcc-99e6-eb940863c528"},"vehicle_type_id":"4","last_reported":1706634379,"current_range_meters":0,"station_id":"ce4bgt92rcd13ifvqcf0","pricing_plan_id":"free"},{"bike_id":"c09b1925-e858-4dfa-a219-eecfeb5a8328","system_id":"levelo_inurba_marseille","lat":43.30143,"lon":5.37413,"is_reserved":false,"is_disabled":false,"rental_uris":{"android":"levelo://app?vid=c09b1925-e858-4dfa-a219-eecfeb5a8328","ios":"levelo://app?vid=c09b1925-e858-4dfa-a219-eecfeb5a8328"},"vehicle_type_id":"4","last_reported":1706634379,"current_range_meters":22000,"station_id":"ce4bgs92rcd13ifvqcc0","pricing_plan_id":"free"},{"bike_id":"298b3a3c-f213-4696-8193-0f3b64c1bea6","system_id":"levelo_inurba_marseille","lat":43.299222,"lon":5.365554,"is_reserved":false,"is_disabled":false,"rental_uris":{"android":"levelo://app?vid=298b3a3c-f213-4696-8193-0f3b64c1bea6","ios":"levelo://app?vid=298b3a3c-f213-4696-8193-0f3b64c1bea6"},"vehicle_type_id":"4","last_reported":1706634379,"current_range_meters":0,"station_id":"ce4bgm92rcd13ifvqbr0","pricing_plan_id":"free"},{"bike_id":"7738ac67-9322-4caf-828f-55b4f34df0fb","system_id":"levelo_inurba_marseille","lat":43.299222,"lon":5.365554,"is_reserved":false,"is_disabled":false,"rental_uris":{"android":"levelo://app?vid=7738ac67-9322-4caf-828f-55b4f34df0fb","ios":"levelo://app?vid=7738ac67-9322-4caf-828f-55b4f34df0fb"},"vehicle_type_id":"4","last_reported":1706634379,"current_range_meters":20000,"station_id":"ce4bgm92rcd13ifvqbr0","pricing_plan_id":"free"},{"bike_id":"21529519-9196-44c0-bb40-c9b001ccb81c","system_id":"levelo_inurba_marseille","lat":43.299724,"lon":5.371829,"is_reserved":false,"is_disabled":false,"rental_uris":{"android":"levelo://app?vid=21529519-9196-44c0-bb40-c9b001ccb81c","ios":"levelo://app?vid=21529519-9196-44c0-bb40-c9b001ccb81c"},"vehicle_type_id":"4","last_reported":1706634379,"current_range_meters":18000,"station_id":"ce4bgr92rcd13ifvqc7g","pricing_plan_id":"free"},{"bike_id":"da5d3fb4-ab42-42d3-911f-1c054fff8033","system_id":"levelo_inurba_marseille","lat":43.30549,"lon":5.38419,"is_reserved":false,"is_disabled":false,"rental_uris":{"android":"levelo://app?vid=da5d3fb4-ab42-42d3-911f-1c054fff8033","ios":"levelo://app?vid=da5d3fb4-ab42-42d3-911f-1c054fff8033"},"vehicle_type_id":"4","last_reported":1706634379,"current_range_meters":5600,"station_id":"ce4bgg92rcd13ifvqb30","pricing_plan_id":"free"},{"bike_id":"6585aee3-705b-4580-b7a5-d05672e80cb1","system_id":"levelo_inurba_marseille","lat":43.2985,"lon":5.36286,"is_reserved":false,"is_disabled":false,"rental_uris":{"android":"levelo://app?vid=6585aee3-705b-4580-b7a5-d05672e80cb1","ios":"levelo://app?vid=6585aee3-705b-4580-b7a5-d05672e80cb1"},"vehicle_type_id":"4","last_reported":1706634379,"current_range_meters":5200,"station_id":"ce4bgpp2rcd13ifvqc3g","pricing_plan_id":"free"},{"bike_id":"0af836ad-d948-4b8b-a6a2-076916ef0d0c","system_id":"levelo_inurba_marseille","lat":43.305364,"lon":5.384119,"is_reserved":false,"is_disabled":false,"rental_uris":{"android":"levelo://app?vid=0af836ad-d948-4b8b-a6a2-076916ef0d0c","ios":"levelo://app?vid=0af836ad-d948-4b8b-a6a2-076916ef0d0c"},"vehicle_type_id":"4","last_reported":1706634379,"current_range_meters":6400,"station_id":"ce4bgg92rcd13ifvqb30","pricing_plan_id":"free"},{"bike_id":"34893417-10ef-4587-8014-10b6c37c05ef","system_id":"levelo_inurba_marseille","lat":43.311722,"lon":5.387247,"is_reserved":false,"is_disabled":false,"rental_uris":{"android":"levelo://app?vid=34893417-10ef-4587-8014-10b6c37c05ef","ios":"levelo://app?vid=34893417-10ef-4587-8014-10b6c37c05ef"},"vehicle_type_id":"4","last_reported":1706634379,"current_range_meters":7200,"station_id":"ce4bgv12rcd13ifvqcp0","pricing_plan_id":"free"},{"bike_id":"1c4f17c2-7dc1-4035-8c79-74ccc3f2b2e3","system_id":"levelo_inurba_marseille","lat":43.32631,"lon":5.37503,"is_reserved":false,"is_disabled":false,"rental_uris":{"android":"levelo://app?vid=1c4f17c2-7dc1-4035-8c79-74ccc3f2b2e3","ios":"levelo://app?vid=1c4f17c2-7dc1-4035-8c79-74ccc3f2b2e3"},"vehicle_type_id":"4","last_reported":1706634379,"current_range_meters":22000,"station_id":"","pricing_plan_id":"free"},{"bike_id":"24615cdb-abc5-486c-b0d7-8d394e5b86e5","system_id":"levelo_inurba_marseille","lat":43.297794,"lon":5.370888,"is_reserved":false,"is_disabled":false,"rental_uris":{"android":"levelo://app?vid=24615cdb-abc5-486c-b0d7-8d394e5b86e5","ios":"levelo://app?vid=24615cdb-abc5-486c-b0d7-8d394e5b86e5"},"vehicle_type_id":"4","last_reported":1706634379,"current_range_meters":1600,"station_id":"ce4bgop2rcd13ifvqc1g","pricing_plan_id":"free"},{"bike_id":"e53b96f6-0749-4e57-9ae0-506258818dab","system_id":"levelo_inurba_marseille","lat":43.322872,"lon":5.382756,"is_reserved":false,"is_disabled":false,"rental_uris":{"android":"levelo://app?vid=e53b96f6-0749-4e57-9ae0-506258818dab","ios":"levelo://app?vid=e53b96f6-0749-4e57-9ae0-506258818dab"},"vehicle_type_id":"4","last_reported":1706634379,"current_range_meters":8800,"station_id":"ce4bhr12rcd13ifvqhqg","pricing_plan_id":"free"},{"bike_id":"d20b743c-be73-4ff5-8548-ff50e4588258","system_id":"levelo_inurba_marseille","lat":43.322872,"lon":5.382756,"is_reserved":false,"is_disabled":false,"rental_uris":{"android":"levelo://app?vid=d20b743c-be73-4ff5-8548-ff50e4588258","ios":"levelo://app?vid=d20b743c-be73-4ff5-8548-ff50e4588258"},"vehicle_type_id":"4","last_reported":1706634379,"current_range_meters":25600,"station_id":"ce4bhr12rcd13ifvqhqg","pricing_plan_id":"free"},{"bike_id":"15c5b4e1-183a-4607-833b-66ed07103bdb","system_id":"levelo_inurba_marseille","lat":43.32824,"lon":5.36689,"is_reserved":false,"is_disabled":false,"rental_uris":{"android":"levelo://app?vid=15c5b4e1-183a-4607-833b-66ed07103bdb","ios":"levelo://app?vid=15c5b4e1-183a-4607-833b-66ed07103bdb"},"vehicle_type_id":"4","last_reported":1706634379,"current_range_meters":9600,"station_id":"ce4bhs92rcd13ifvqi0g","pricing_plan_id":"free"},{"bike_id":"e9842c34-5cb2-47ba-87a1-99bf36004d12","system_id":"levelo_inurba_marseille","lat":43.32825,"lon":5.36677,"is_reserved":false,"is_disabled":false,"rental_uris":{"android":"levelo://app?vid=e9842c34-5cb2-47ba-87a1-99bf36004d12","ios":"levelo://app?vid=e9842c34-5cb2-47ba-87a1-99bf36004d12"},"vehicle_type_id":"4","last_reported":1706634379,"current_range_meters":0,"station_id":"ce4bhs92rcd13ifvqi0g","pricing_plan_id":"free"},{"bike_id":"5e0d7018-715e-4087-a2d6-cfa7ba43c5e5","system_id":"levelo_inurba_marseille","lat":43.32829,"lon":5.36675,"is_reserved":false,"is_disabled":false,"rental_uris":{"android":"levelo://app?vid=5e0d7018-715e-4087-a2d6-cfa7ba43c5e5","ios":"levelo://app?vid=5e0d7018-715e-4087-a2d6-cfa7ba43c5e5"},"vehicle_type_id":"4","last_reported":1706634379,"current_range_meters":17600,"station_id":"ce4bhs92rcd13ifvqi0g","pricing_plan_id":"free"},{"bike_id":"92589973-d956-4826-a1e1-8b958e0b4b1a","system_id":"levelo_inurba_marseille","lat":43.3283,"lon":5.36679,"is_reserved":false,"is_disabled":false,"rental_uris":{"android":"levelo://app?vid=92589973-d956-4826-a1e1-8b958e0b4b1a","ios":"levelo://app?vid=92589973-d956-4826-a1e1-8b958e0b4b1a"},"vehicle_type_id":"4","last_reported":1706634379,"current_range_meters":0,"station_id":"ce4bhs92rcd13ifvqi0g","pricing_plan_id":"free"},{"bike_id":"09c98320-1fe4-4b28-9773-7fb53c59a19e","system_id":"levelo_inurba_marseille","lat":43.29912,"lon":5.377296,"is_reserved":false,"is_disabled":false,"rental_uris":{"android":"levelo://app?vid=09c98320-1fe4-4b28-9773-7fb53c59a19e","ios":"levelo://app?vid=09c98320-1fe4-4b28-9773-7fb53c59a19e"},"vehicle_type_id":"4","last_reported":1706634379,"current_range_meters":24000,"station_id":"","pricing_plan_id":"free"},{"bike_id":"c8ea4e8d-3f74-4d7e-bc13-8beed34a8289","system_id":"levelo_inurba_marseille","lat":43.297163,"lon":5.365866,"is_reserved":false,"is_disabled":false,"rental_uris":{"android":"levelo://app?vid=c8ea4e8d-3f74-4d7e-bc13-8beed34a8289","ios":"levelo://app?vid=c8ea4e8d-3f74-4d7e-bc13-8beed34a8289"},"vehicle_type_id":"4","last_reported":1706634379,"current_range_meters":24400,"station_id":"ce4bgn12rcd13ifvqbt0","pricing_plan_id":"free"},{"bike_id":"dbc2ab66-ac21-4605-85b4-9e2902f8093d","system_id":"levelo_inurba_marseille","lat":43.297163,"lon":5.365866,"is_reserved":false,"is_disabled":false,"rental_uris":{"android":"levelo://app?vid=dbc2ab66-ac21-4605-85b4-9e2902f8093d","ios":"levelo://app?vid=dbc2ab66-ac21-4605-85b4-9e2902f8093d"},"vehicle_type_id":"4","last_reported":1706634379,"current_range_meters":3600,"station_id":"ce4bgn12rcd13ifvqbt0","pricing_plan_id":"free"},{"bike_id":"98e54288-174d-4664-9ba3-11eeb898766b","system_id":"levelo_inurba_marseille","lat":43.297163,"lon":5.365866,"is_reserved":false,"is_disabled":false,"rental_uris":{"android":"levelo://app?vid=98e54288-174d-4664-9ba3-11eeb898766b","ios":"levelo://app?vid=98e54288-174d-4664-9ba3-11eeb898766b"},"vehicle_type_id":"4","last_reported":1706634379,"current_range_meters":30000,"station_id":"ce4bgn12rcd13ifvqbt0","pricing_plan_id":"free"},{"bike_id":"f4202017-133d-4ce6-ad4d-7878910b1afd","system_id":"levelo_inurba_marseille","lat":43.297163,"lon":5.365866,"is_reserved":false,"is_disabled":false,"rental_uris":{"android":"levelo://app?vid=f4202017-133d-4ce6-ad4d-7878910b1afd","ios":"levelo://app?vid=f4202017-133d-4ce6-ad4d-7878910b1afd"},"vehicle_type_id":"4","last_reported":1706634379,"current_range_meters":13200,"station_id":"ce4bgn12rcd13ifvqbt0","pricing_plan_id":"free"},{"bike_id":"14d80b34-51d8-468a-9c49-fa91821c9eeb","system_id":"levelo_inurba_marseille","lat":43.30176,"lon":5.38248,"is_reserved":false,"is_disabled":false,"rental_uris":{"android":"levelo://app?vid=14d80b34-51d8-468a-9c49-fa91821c9eeb","ios":"levelo://app?vid=14d80b34-51d8-468a-9c49-fa91821c9eeb"},"vehicle_type_id":"4","last_reported":1706634379,"current_range_meters":0,"station_id":"","pricing_plan_id":"free"},{"bike_id":"d2181c36-39f6-44ae-99fe-ccb8b3bba9dc","system_id":"levelo_inurba_marseille","lat":43.29623,"lon":5.371633,"is_reserved":false,"is_disabled":false,"rental_uris":{"android":"levelo://app?vid=d2181c36-39f6-44ae-99fe-ccb8b3bba9dc","ios":"levelo://app?vid=d2181c36-39f6-44ae-99fe-ccb8b3bba9dc"},"vehicle_type_id":"4","last_reported":1706634379,"current_range_meters":22000,"station_id":"ce4bgnh2rcd13ifvqc0g","pricing_plan_id":"free"},{"bike_id":"15743586-6950-46a8-9373-29305d6b3e12","system_id":"levelo_inurba_marseille","lat":43.296921,"lon":5.376579,"is_reserved":false,"is_disabled":false,"rental_uris":{"android":"levelo://app?vid=15743586-6950-46a8-9373-29305d6b3e12","ios":"levelo://app?vid=15743586-6950-46a8-9373-29305d6b3e12"},"vehicle_type_id":"4","last_reported":1706634379,"current_range_meters":0,"station_id":"ce4bgkh2rcd13ifvqbl0","pricing_plan_id":"free"},{"bike_id":"4fa83504-147f-4782-8445-12b885641d87","system_id":"levelo_inurba_marseille","lat":43.299028,"lon":5.381509,"is_reserved":false,"is_disabled":false,"rental_uris":{"android":"levelo://app?vid=4fa83504-147f-4782-8445-12b885641d87","ios":"levelo://app?vid=4fa83504-147f-4782-8445-12b885641d87"},"vehicle_type_id":"4","last_reported":1706634379,"current_range_meters":0,"station_id":"ce4bgj12rcd13ifvqbc0","pricing_plan_id":"free"},{"bike_id":"f3aa3591-f663-4a87-a725-d7ce6ff00947","system_id":"levelo_inurba_marseille","lat":43.296935,"lon":5.376544,"is_reserved":false,"is_disabled":false,"rental_uris":{"android":"levelo://app?vid=f3aa3591-f663-4a87-a725-d7ce6ff00947","ios":"levelo://app?vid=f3aa3591-f663-4a87-a725-d7ce6ff00947"},"vehicle_type_id":"4","last_reported":1706634379,"current_range_meters":5200,"station_id":"ce4bgkh2rcd13ifvqbl0","pricing_plan_id":"free"},{"bike_id":"a75a9c03-c10b-46ca-a6f1-f085c90bc0fa","system_id":"levelo_inurba_marseille","lat":43.295748,"lon":5.37522,"is_reserved":false,"is_disabled":false,"rental_uris":{"android":"levelo://app?vid=a75a9c03-c10b-46ca-a6f1-f085c90bc0fa","ios":"levelo://app?vid=a75a9c03-c10b-46ca-a6f1-f085c90bc0fa"},"vehicle_type_id":"4","last_reported":1706634379,"current_range_meters":0,"station_id":"ce4bgh92rcd13ifvqb50","pricing_plan_id":"free"},{"bike_id":"996b8e2c-270e-42ca-900f-bb1d165669a4","system_id":"levelo_inurba_marseille","lat":43.298,"lon":5.38095,"is_reserved":false,"is_disabled":false,"rental_uris":{"android":"levelo://app?vid=996b8e2c-270e-42ca-900f-bb1d165669a4","ios":"levelo://app?vid=996b8e2c-270e-42ca-900f-bb1d165669a4"},"vehicle_type_id":"4","last_reported":1706634379,"current_range_meters":11200,"station_id":"","pricing_plan_id":"free"},{"bike_id":"503b3e7c-76a1-4c36-96bf-63df0facd1b8","system_id":"levelo_inurba_marseille","lat":43.298037,"lon":5.381066,"is_reserved":false,"is_disabled":false,"rental_uris":{"android":"levelo://app?vid=503b3e7c-76a1-4c36-96bf-63df0facd1b8","ios":"levelo://app?vid=503b3e7c-76a1-4c36-96bf-63df0facd1b8"},"vehicle_type_id":"4","last_reported":1706634379,"current_range_meters":11200,"station_id":"ce4bgip2rcd13ifvqbb0","pricing_plan_id":"free"},{"bike_id":"0df52d0c-c1f1-4463-b37a-853edae239b9","system_id":"levelo_inurba_marseille","lat":43.304278,"lon":5.388868,"is_reserved":false,"is_disabled":false,"rental_uris":{"android":"levelo://app?vid=0df52d0c-c1f1-4463-b37a-853edae239b9","ios":"levelo://app?vid=0df52d0c-c1f1-4463-b37a-853edae239b9"},"vehicle_type_id":"4","last_reported":1706634379,"current_range_meters":15600,"station_id":"ce4bgk12rcd13ifvqbi0","pricing_plan_id":"free"},{"bike_id":"9efab18a-7d95-45b9-9236-02f5870e994a","system_id":"levelo_inurba_marseille","lat":43.298037,"lon":5.381066,"is_reserved":false,"is_disabled":false,"rental_uris":{"android":"levelo://app?vid=9efab18a-7d95-45b9-9236-02f5870e994a","ios":"levelo://app?vid=9efab18a-7d95-45b9-9236-02f5870e994a"},"vehicle_type_id":"4","last_reported":1706634379,"current_range_meters":21600,"station_id":"ce4bgip2rcd13ifvqbb0","pricing_plan_id":"free"},{"bike_id":"0165da66-2105-4bf0-8625-b99293fa93f1","system_id":"levelo_inurba_marseille","lat":43.299724,"lon":5.384848,"is_reserved":false,"is_disabled":false,"rental_uris":{"android":"levelo://app?vid=0165da66-2105-4bf0-8625-b99293fa93f1","ios":"levelo://app?vid=0165da66-2105-4bf0-8625-b99293fa93f1"},"vehicle_type_id":"4","last_reported":1706634379,"current_range_meters":21600,"station_id":"ce4bgj92rcd13ifvqbd0","pricing_plan_id":"free"},{"bike_id":"520cd891-62a4-4d75-8803-9814315001e1","system_id":"levelo_inurba_marseille","lat":43.299717,"lon":5.384845,"is_reserved":false,"is_disabled":false,"rental_uris":{"android":"levelo://app?vid=520cd891-62a4-4d75-8803-9814315001e1","ios":"levelo://app?vid=520cd891-62a4-4d75-8803-9814315001e1"},"vehicle_type_id":"4","last_reported":1706634379,"current_range_meters":14400,"station_id":"ce4bgj92rcd13ifvqbd0","pricing_plan_id":"free"},{"bike_id":"6b9b9a78-0dc4-4bdb-abc0-e1e651139d05","system_id":"levelo_inurba_marseille","lat":43.299724,"lon":5.384848,"is_reserved":false,"is_disabled":false,"rental_uris":{"android":"levelo://app?vid=6b9b9a78-0dc4-4bdb-abc0-e1e651139d05","ios":"levelo://app?vid=6b9b9a78-0dc4-4bdb-abc0-e1e651139d05"},"vehicle_type_id":"4","last_reported":1706634379,"current_range_meters":20800,"station_id":"ce4bgj92rcd13ifvqbd0","pricing_plan_id":"free"},{"bike_id":"2cf0bf04-9287-449b-8389-aadc652b2a74","system_id":"levelo_inurba_marseille","lat":43.299724,"lon":5.384848,"is_reserved":false,"is_disabled":false,"rental_uris":{"android":"levelo://app?vid=2cf0bf04-9287-449b-8389-aadc652b2a74","ios":"levelo://app?vid=2cf0bf04-9287-449b-8389-aadc652b2a74"},"vehicle_type_id":"4","last_reported":1706634379,"current_range_meters":24000,"station_id":"ce4bgj92rcd13ifvqbd0","pricing_plan_id":"free"},{"bike_id":"9fc999e0-9c20-4679-9605-b6ee318bec2d","system_id":"levelo_inurba_marseille","lat":43.299724,"lon":5.384848,"is_reserved":false,"is_disabled":false,"rental_uris":{"android":"levelo://app?vid=9fc999e0-9c20-4679-9605-b6ee318bec2d","ios":"levelo://app?vid=9fc999e0-9c20-4679-9605-b6ee318bec2d"},"vehicle_type_id":"4","last_reported":1706634379,"current_range_meters":24400,"station_id":"ce4bgj92rcd13ifvqbd0","pricing_plan_id":"free"},{"bike_id":"de25d637-84ec-4203-b892-3e1c2d7c4ddb","system_id":"levelo_inurba_marseille","lat":43.33171,"lon":5.36447,"is_reserved":false,"is_disabled":false,"rental_uris":{"android":"levelo://app?vid=de25d637-84ec-4203-b892-3e1c2d7c4ddb","ios":"levelo://app?vid=de25d637-84ec-4203-b892-3e1c2d7c4ddb"},"vehicle_type_id":"4","last_reported":1706634379,"current_range_meters":11600,"station_id":"","pricing_plan_id":"free"},{"bike_id":"7b401bfe-f146-46db-a98e-88a7b728f15e","system_id":"levelo_inurba_marseille","lat":43.299717,"lon":5.384845,"is_reserved":false,"is_disabled":false,"rental_uris":{"android":"levelo://app?vid=7b401bfe-f146-46db-a98e-88a7b728f15e","ios":"levelo://app?vid=7b401bfe-f146-46db-a98e-88a7b728f15e"},"vehicle_type_id":"4","last_reported":1706634379,"current_range_meters":16400,"station_id":"ce4bgj92rcd13ifvqbd0","pricing_plan_id":"free"},{"bike_id":"2b10781d-71f0-46f3-b6a1-8bde9d3cf93f","system_id":"levelo_inurba_marseille","lat":43.32367,"lon":5.388836,"is_reserved":false,"is_disabled":false,"rental_uris":{"android":"levelo://app?vid=2b10781d-71f0-46f3-b6a1-8bde9d3cf93f","ios":"levelo://app?vid=2b10781d-71f0-46f3-b6a1-8bde9d3cf93f"},"vehicle_type_id":"4","last_reported":1706634379,"current_range_meters":5200,"station_id":"ce4bhqp2rcd13ifvqhog","pricing_plan_id":"free"},{"bike_id":"4e4bc9ec-f8c5-4fd6-9615-35270feaab14","system_id":"levelo_inurba_marseille","lat":43.32367,"lon":5.388836,"is_reserved":false,"is_disabled":false,"rental_uris":{"android":"levelo://app?vid=4e4bc9ec-f8c5-4fd6-9615-35270feaab14","ios":"levelo://app?vid=4e4bc9ec-f8c5-4fd6-9615-35270feaab14"},"vehicle_type_id":"4","last_reported":1706634379,"current_range_meters":2800,"station_id":"ce4bhqp2rcd13ifvqhog","pricing_plan_id":"free"},{"bike_id":"20195b9a-8d86-46ff-a1a5-b1f3eebdf49f","system_id":"levelo_inurba_marseille","lat":43.29602,"lon":5.381084,"is_reserved":false,"is_disabled":false,"rental_uris":{"android":"levelo://app?vid=20195b9a-8d86-46ff-a1a5-b1f3eebdf49f","ios":"levelo://app?vid=20195b9a-8d86-46ff-a1a5-b1f3eebdf49f"},"vehicle_type_id":"4","last_reported":1706634379,"current_range_meters":24400,"station_id":"ce4bgl12rcd13ifvqbo0","pricing_plan_id":"free"},{"bike_id":"40ad065b-41bd-4b7f-b47e-4bc537a504e6","system_id":"levelo_inurba_marseille","lat":43.24693,"lon":5.382096,"is_reserved":false,"is_disabled":false,"rental_uris":{"android":"levelo://app?vid=40ad065b-41bd-4b7f-b47e-4bc537a504e6","ios":"levelo://app?vid=40ad065b-41bd-4b7f-b47e-4bc537a504e6"},"vehicle_type_id":"4","last_reported":1706634379,"current_range_meters":8000,"station_id":"ce4bhih2rcd13ifvqfr0","pricing_plan_id":"free"},{"bike_id":"67cc158c-ec48-4504-835a-d11592fc516f","system_id":"levelo_inurba_marseille","lat":43.292708,"lon":5.368515,"is_reserved":false,"is_disabled":false,"rental_uris":{"android":"levelo://app?vid=67cc158c-ec48-4504-835a-d11592fc516f","ios":"levelo://app?vid=67cc158c-ec48-4504-835a-d11592fc516f"},"vehicle_type_id":"4","last_reported":1706634379,"current_range_meters":0,"station_id":"ce4bhbp2rcd13ifvqesg","pricing_plan_id":"free"},{"bike_id":"8abd6e9d-a99d-4168-bf08-d365c20670a0","system_id":"levelo_inurba_marseille","lat":43.283998,"lon":5.375062,"is_reserved":false,"is_disabled":false,"rental_uris":{"android":"levelo://app?vid=8abd6e9d-a99d-4168-bf08-d365c20670a0","ios":"levelo://app?vid=8abd6e9d-a99d-4168-bf08-d365c20670a0"},"vehicle_type_id":"4","last_reported":1706634379,"current_range_meters":12000,"station_id":"ce4bh412rcd13ifvqds0","pricing_plan_id":"free"},{"bike_id":"1b88f31a-9d6d-451d-8248-cf39e4262c15","system_id":"levelo_inurba_marseille","lat":43.305994,"lon":5.393687,"is_reserved":false,"is_disabled":false,"rental_uris":{"android":"levelo://app?vid=1b88f31a-9d6d-451d-8248-cf39e4262c15","ios":"levelo://app?vid=1b88f31a-9d6d-451d-8248-cf39e4262c15"},"vehicle_type_id":"4","last_reported":1706634379,"current_range_meters":13200,"station_id":"ce4bh0p2rcd13ifvqd80","pricing_plan_id":"free"},{"bike_id":"9241a96b-31cd-421c-8216-086e685d7fce","system_id":"levelo_inurba_marseille","lat":43.303002,"lon":5.392142,"is_reserved":false,"is_disabled":false,"rental_uris":{"android":"levelo://app?vid=9241a96b-31cd-421c-8216-086e685d7fce","ios":"levelo://app?vid=9241a96b-31cd-421c-8216-086e685d7fce"},"vehicle_type_id":"4","last_reported":1706634379,"current_range_meters":16000,"station_id":"ce4bgkh2rcd13ifvqbk0","pricing_plan_id":"free"},{"bike_id":"9ddc714b-9604-45a5-868c-57fb45e97656","system_id":"levelo_inurba_marseille","lat":43.302992,"lon":5.392136,"is_reserved":false,"is_disabled":false,"rental_uris":{"android":"levelo://app?vid=9ddc714b-9604-45a5-868c-57fb45e97656","ios":"levelo://app?vid=9ddc714b-9604-45a5-868c-57fb45e97656"},"vehicle_type_id":"4","last_reported":1706634379,"current_range_meters":18000,"station_id":"ce4bgkh2rcd13ifvqbk0","pricing_plan_id":"free"},{"bike_id":"c97f7ddc-65d1-4db7-90a8-cc5f31be151e","system_id":"levelo_inurba_marseille","lat":43.293738,"lon":5.378648,"is_reserved":false,"is_disabled":false,"rental_uris":{"android":"levelo://app?vid=c97f7ddc-65d1-4db7-90a8-cc5f31be151e","ios":"levelo://app?vid=c97f7ddc-65d1-4db7-90a8-cc5f31be151e"},"vehicle_type_id":"4","last_reported":1706634379,"current_range_meters":0,"station_id":"ce4bgjh2rcd13ifvqbf0","pricing_plan_id":"free"},{"bike_id":"e41f1b21-3864-4121-96fa-42733206d28b","system_id":"levelo_inurba_marseille","lat":43.300852,"lon":5.390859,"is_reserved":false,"is_disabled":false,"rental_uris":{"android":"levelo://app?vid=e41f1b21-3864-4121-96fa-42733206d28b","ios":"levelo://app?vid=e41f1b21-3864-4121-96fa-42733206d28b"},"vehicle_type_id":"4","last_reported":1706634379,"current_range_meters":3200,"station_id":"ce4bh192rcd13ifvqdb0","pricing_plan_id":"free"},{"bike_id":"c3f5bb60-a2a6-425f-ab7e-d179113a7218","system_id":"levelo_inurba_marseille","lat":43.2936,"lon":5.37835,"is_reserved":false,"is_disabled":false,"rental_uris":{"android":"levelo://app?vid=c3f5bb60-a2a6-425f-ab7e-d179113a7218","ios":"levelo://app?vid=c3f5bb60-a2a6-425f-ab7e-d179113a7218"},"vehicle_type_id":"4","last_reported":1706634379,"current_range_meters":22000,"station_id":"ce4bgjh2rcd13ifvqbf0","pricing_plan_id":"free"},{"bike_id":"d240c5eb-413e-4c2a-b76a-d4fd02f7e6b7","system_id":"levelo_inurba_marseille","lat":43.29397,"lon":5.37971,"is_reserved":false,"is_disabled":false,"rental_uris":{"android":"levelo://app?vid=d240c5eb-413e-4c2a-b76a-d4fd02f7e6b7","ios":"levelo://app?vid=d240c5eb-413e-4c2a-b76a-d4fd02f7e6b7"},"vehicle_type_id":"4","last_reported":1706634379,"current_range_meters":25200,"station_id":"","pricing_plan_id":"free"},{"bike_id":"9d0dbddd-727e-42fd-9ef0-86b78a9f6118","system_id":"levelo_inurba_marseille","lat":43.292311,"lon":5.360731,"is_reserved":false,"is_disabled":false,"rental_uris":{"android":"levelo://app?vid=9d0dbddd-727e-42fd-9ef0-86b78a9f6118","ios":"levelo://app?vid=9d0dbddd-727e-42fd-9ef0-86b78a9f6118"},"vehicle_type_id":"4","last_reported":1706634379,"current_range_meters":1600,"station_id":"ce4bhbh2rcd13ifvqeqg","pricing_plan_id":"free"},{"bike_id":"c640050a-9ca3-4934-8529-eb34ef0638fa","system_id":"levelo_inurba_marseille","lat":43.29255,"lon":5.374953,"is_reserved":false,"is_disabled":false,"rental_uris":{"android":"levelo://app?vid=c640050a-9ca3-4934-8529-eb34ef0638fa","ios":"levelo://app?vid=c640050a-9ca3-4934-8529-eb34ef0638fa"},"vehicle_type_id":"4","last_reported":1706634379,"current_range_meters":0,"station_id":"","pricing_plan_id":"free"},{"bike_id":"3e060201-4f3b-4949-9e16-e7d2260db31b","system_id":"levelo_inurba_marseille","lat":43.300852,"lon":5.390859,"is_reserved":false,"is_disabled":false,"rental_uris":{"android":"levelo://app?vid=3e060201-4f3b-4949-9e16-e7d2260db31b","ios":"levelo://app?vid=3e060201-4f3b-4949-9e16-e7d2260db31b"},"vehicle_type_id":"4","last_reported":1706634379,"current_range_meters":18800,"station_id":"ce4bh192rcd13ifvqdb0","pricing_plan_id":"free"},{"bike_id":"1bae008f-956f-4ca3-b5e0-ff8d7cd209dc","system_id":"levelo_inurba_marseille","lat":43.30085,"lon":5.390856,"is_reserved":false,"is_disabled":false,"rental_uris":{"android":"levelo://app?vid=1bae008f-956f-4ca3-b5e0-ff8d7cd209dc","ios":"levelo://app?vid=1bae008f-956f-4ca3-b5e0-ff8d7cd209dc"},"vehicle_type_id":"4","last_reported":1706634379,"current_range_meters":400,"station_id":"ce4bh192rcd13ifvqdb0","pricing_plan_id":"free"},{"bike_id":"835cd297-2a34-4331-86bf-7d28bedb68ce","system_id":"levelo_inurba_marseille","lat":43.300852,"lon":5.390859,"is_reserved":false,"is_disabled":false,"rental_uris":{"android":"levelo://app?vid=835cd297-2a34-4331-86bf-7d28bedb68ce","ios":"levelo://app?vid=835cd297-2a34-4331-86bf-7d28bedb68ce"},"vehicle_type_id":"4","last_reported":1706634379,"current_range_meters":1200,"station_id":"ce4bh192rcd13ifvqdb0","pricing_plan_id":"free"},{"bike_id":"d9873ebc-7cf6-417d-896b-9716baeaf9b7","system_id":"levelo_inurba_marseille","lat":43.30085,"lon":5.390856,"is_reserved":false,"is_disabled":false,"rental_uris":{"android":"levelo://app?vid=d9873ebc-7cf6-417d-896b-9716baeaf9b7","ios":"levelo://app?vid=d9873ebc-7cf6-417d-896b-9716baeaf9b7"},"vehicle_type_id":"4","last_reported":1706634379,"current_range_meters":21600,"station_id":"ce4bh192rcd13ifvqdb0","pricing_plan_id":"free"},{"bike_id":"44ad9ca1-40be-42c7-a22d-79c04bd51cbb","system_id":"levelo_inurba_marseille","lat":43.298764,"lon":5.388973,"is_reserved":false,"is_disabled":false,"rental_uris":{"android":"levelo://app?vid=44ad9ca1-40be-42c7-a22d-79c04bd51cbb","ios":"levelo://app?vid=44ad9ca1-40be-42c7-a22d-79c04bd51cbb"},"vehicle_type_id":"4","last_reported":1706634379,"current_range_meters":24400,"station_id":"ce4bh392rcd13ifvqdl0","pricing_plan_id":"free"},{"bike_id":"a84fa023-0061-4df6-a4de-d7b49ee28e4f","system_id":"levelo_inurba_marseille","lat":43.298764,"lon":5.388973,"is_reserved":false,"is_disabled":false,"rental_uris":{"android":"levelo://app?vid=a84fa023-0061-4df6-a4de-d7b49ee28e4f","ios":"levelo://app?vid=a84fa023-0061-4df6-a4de-d7b49ee28e4f"},"vehicle_type_id":"4","last_reported":1706634379,"current_range_meters":0,"station_id":"ce4bh392rcd13ifvqdl0","pricing_plan_id":"free"},{"bike_id":"d0ae7018-ac3b-44cc-b67b-588ee0667041","system_id":"levelo_inurba_marseille","lat":43.291671,"lon":5.371575,"is_reserved":false,"is_disabled":false,"rental_uris":{"android":"levelo://app?vid=d0ae7018-ac3b-44cc-b67b-588ee0667041","ios":"levelo://app?vid=d0ae7018-ac3b-44cc-b67b-588ee0667041"},"vehicle_type_id":"4","last_reported":1706634379,"current_range_meters":11600,"station_id":"ce4bha92rcd13ifvqeh0","pricing_plan_id":"free"},{"bike_id":"31b87d67-1537-4e0c-be9d-b264e5561247","system_id":"levelo_inurba_marseille","lat":43.298764,"lon":5.388973,"is_reserved":false,"is_disabled":false,"rental_uris":{"android":"levelo://app?vid=31b87d67-1537-4e0c-be9d-b264e5561247","ios":"levelo://app?vid=31b87d67-1537-4e0c-be9d-b264e5561247"},"vehicle_type_id":"4","last_reported":1706634379,"current_range_meters":16800,"station_id":"ce4bh392rcd13ifvqdl0","pricing_plan_id":"free"},{"bike_id":"66aa84ff-968c-419c-922c-dec69b99f3fa","system_id":"levelo_inurba_marseille","lat":43.298763,"lon":5.389184,"is_reserved":false,"is_disabled":false,"rental_uris":{"android":"levelo://app?vid=66aa84ff-968c-419c-922c-dec69b99f3fa","ios":"levelo://app?vid=66aa84ff-968c-419c-922c-dec69b99f3fa"},"vehicle_type_id":"4","last_reported":1706634379,"current_range_meters":3200,"station_id":"ce4bh392rcd13ifvqdl0","pricing_plan_id":"free"},{"bike_id":"ea94f227-9972-4fa5-aead-e1014da3a35a","system_id":"levelo_inurba_marseille","lat":43.300852,"lon":5.390859,"is_reserved":false,"is_disabled":false,"rental_uris":{"android":"levelo://app?vid=ea94f227-9972-4fa5-aead-e1014da3a35a","ios":"levelo://app?vid=ea94f227-9972-4fa5-aead-e1014da3a35a"},"vehicle_type_id":"4","last_reported":1706634379,"current_range_meters":0,"station_id":"ce4bh192rcd13ifvqdb0","pricing_plan_id":"free"},{"bike_id":"8426a587-c15b-4615-adc6-3cd97dd100ca","system_id":"levelo_inurba_marseille","lat":43.309038,"lon":5.396546,"is_reserved":false,"is_disabled":false,"rental_uris":{"android":"levelo://app?vid=8426a587-c15b-4615-adc6-3cd97dd100ca","ios":"levelo://app?vid=8426a587-c15b-4615-adc6-3cd97dd100ca"},"vehicle_type_id":"4","last_reported":1706634379,"current_range_meters":28000,"station_id":"ce4bh012rcd13ifvqcv0","pricing_plan_id":"free"},{"bike_id":"628d04ea-7212-41a5-9a08-2d1feda537ec","system_id":"levelo_inurba_marseille","lat":43.309038,"lon":5.396546,"is_reserved":false,"is_disabled":false,"rental_uris":{"android":"levelo://app?vid=628d04ea-7212-41a5-9a08-2d1feda537ec","ios":"levelo://app?vid=628d04ea-7212-41a5-9a08-2d1feda537ec"},"vehicle_type_id":"4","last_reported":1706634379,"current_range_meters":30000,"station_id":"ce4bh012rcd13ifvqcv0","pricing_plan_id":"free"},{"bike_id":"c6bbb307-40ce-4d17-bd61-1e147db096d4","system_id":"levelo_inurba_marseille","lat":43.29192,"lon":5.35821,"is_reserved":false,"is_disabled":false,"rental_uris":{"android":"levelo://app?vid=c6bbb307-40ce-4d17-bd61-1e147db096d4","ios":"levelo://app?vid=c6bbb307-40ce-4d17-bd61-1e147db096d4"},"vehicle_type_id":"4","last_reported":1706634379,"current_range_meters":0,"station_id":"ce4bhb12rcd13ifvqel0","pricing_plan_id":"free"},{"bike_id":"753010e6-a471-4e27-abb4-cf45cd7526e7","system_id":"levelo_inurba_marseille","lat":43.309038,"lon":5.396546,"is_reserved":false,"is_disabled":false,"rental_uris":{"android":"levelo://app?vid=753010e6-a471-4e27-abb4-cf45cd7526e7","ios":"levelo://app?vid=753010e6-a471-4e27-abb4-cf45cd7526e7"},"vehicle_type_id":"4","last_reported":1706634379,"current_range_meters":21200,"station_id":"ce4bh012rcd13ifvqcv0","pricing_plan_id":"free"},{"bike_id":"af10b578-8e9a-4c8c-8541-c2762c1249fe","system_id":"levelo_inurba_marseille","lat":43.309038,"lon":5.396546,"is_reserved":false,"is_disabled":false,"rental_uris":{"android":"levelo://app?vid=af10b578-8e9a-4c8c-8541-c2762c1249fe","ios":"levelo://app?vid=af10b578-8e9a-4c8c-8541-c2762c1249fe"},"vehicle_type_id":"4","last_reported":1706634379,"current_range_meters":24000,"station_id":"ce4bh012rcd13ifvqcv0","pricing_plan_id":"free"},{"bike_id":"e7bb4b31-a958-40c8-bbb3-1cccef601925","system_id":"levelo_inurba_marseille","lat":43.309038,"lon":5.396546,"is_reserved":false,"is_disabled":false,"rental_uris":{"android":"levelo://app?vid=e7bb4b31-a958-40c8-bbb3-1cccef601925","ios":"levelo://app?vid=e7bb4b31-a958-40c8-bbb3-1cccef601925"},"vehicle_type_id":"4","last_reported":1706634379,"current_range_meters":21200,"station_id":"ce4bh012rcd13ifvqcv0","pricing_plan_id":"free"},{"bike_id":"0a95052d-7a6a-4bdf-a749-a3f0403866bd","system_id":"levelo_inurba_marseille","lat":43.308823,"lon":5.3964,"is_reserved":false,"is_disabled":false,"rental_uris":{"android":"levelo://app?vid=0a95052d-7a6a-4bdf-a749-a3f0403866bd","ios":"levelo://app?vid=0a95052d-7a6a-4bdf-a749-a3f0403866bd"},"vehicle_type_id":"4","last_reported":1706634379,"current_range_meters":23600,"station_id":"ce4bh012rcd13ifvqcv0","pricing_plan_id":"free"},{"bike_id":"8d913f47-6f2f-4a1c-8016-0e48526f676f","system_id":"levelo_inurba_marseille","lat":43.313291,"lon":5.396838,"is_reserved":false,"is_disabled":false,"rental_uris":{"android":"levelo://app?vid=8d913f47-6f2f-4a1c-8016-0e48526f676f","ios":"levelo://app?vid=8d913f47-6f2f-4a1c-8016-0e48526f676f"},"vehicle_type_id":"4","last_reported":1706634379,"current_range_meters":12800,"station_id":"ce4bgvp2rcd13ifvqcu0","pricing_plan_id":"free"},{"bike_id":"0e939496-2def-4b51-b8a6-8154a39f3ea3","system_id":"levelo_inurba_marseille","lat":43.313291,"lon":5.396838,"is_reserved":false,"is_disabled":false,"rental_uris":{"android":"levelo://app?vid=0e939496-2def-4b51-b8a6-8154a39f3ea3","ios":"levelo://app?vid=0e939496-2def-4b51-b8a6-8154a39f3ea3"},"vehicle_type_id":"4","last_reported":1706634379,"current_range_meters":28400,"station_id":"ce4bgvp2rcd13ifvqcu0","pricing_plan_id":"free"},{"bike_id":"2c385079-e5b2-4b9a-8b42-a844c70ece13","system_id":"levelo_inurba_marseille","lat":43.313291,"lon":5.396838,"is_reserved":false,"is_disabled":false,"rental_uris":{"android":"levelo://app?vid=2c385079-e5b2-4b9a-8b42-a844c70ece13","ios":"levelo://app?vid=2c385079-e5b2-4b9a-8b42-a844c70ece13"},"vehicle_type_id":"4","last_reported":1706634379,"current_range_meters":17200,"station_id":"ce4bgvp2rcd13ifvqcu0","pricing_plan_id":"free"},{"bike_id":"4a5c34f9-7e25-4bfd-94ee-9e57829ead28","system_id":"levelo_inurba_marseille","lat":43.313291,"lon":5.396838,"is_reserved":false,"is_disabled":false,"rental_uris":{"android":"levelo://app?vid=4a5c34f9-7e25-4bfd-94ee-9e57829ead28","ios":"levelo://app?vid=4a5c34f9-7e25-4bfd-94ee-9e57829ead28"},"vehicle_type_id":"4","last_reported":1706634379,"current_range_meters":23200,"station_id":"ce4bgvp2rcd13ifvqcu0","pricing_plan_id":"free"},{"bike_id":"feeb888a-249a-48c9-9c30-faafc06cbb32","system_id":"levelo_inurba_marseille","lat":43.313291,"lon":5.396838,"is_reserved":false,"is_disabled":false,"rental_uris":{"android":"levelo://app?vid=feeb888a-249a-48c9-9c30-faafc06cbb32","ios":"levelo://app?vid=feeb888a-249a-48c9-9c30-faafc06cbb32"},"vehicle_type_id":"4","last_reported":1706634379,"current_range_meters":18000,"station_id":"ce4bgvp2rcd13ifvqcu0","pricing_plan_id":"free"},{"bike_id":"a81ffb1d-f7f4-41a9-a4d4-6a804b0f144a","system_id":"levelo_inurba_marseille","lat":43.313291,"lon":5.396838,"is_reserved":false,"is_disabled":false,"rental_uris":{"android":"levelo://app?vid=a81ffb1d-f7f4-41a9-a4d4-6a804b0f144a","ios":"levelo://app?vid=a81ffb1d-f7f4-41a9-a4d4-6a804b0f144a"},"vehicle_type_id":"4","last_reported":1706634379,"current_range_meters":18400,"station_id":"ce4bgvp2rcd13ifvqcu0","pricing_plan_id":"free"},{"bike_id":"dacef0ad-9800-41af-828e-19ff6aaaffb4","system_id":"levelo_inurba_marseille","lat":43.313291,"lon":5.396838,"is_reserved":false,"is_disabled":false,"rental_uris":{"android":"levelo://app?vid=dacef0ad-9800-41af-828e-19ff6aaaffb4","ios":"levelo://app?vid=dacef0ad-9800-41af-828e-19ff6aaaffb4"},"vehicle_type_id":"4","last_reported":1706634379,"current_range_meters":29200,"station_id":"ce4bgvp2rcd13ifvqcu0","pricing_plan_id":"free"},{"bike_id":"eea77039-c187-414a-8460-cd9b2ba07796","system_id":"levelo_inurba_marseille","lat":43.309038,"lon":5.396546,"is_reserved":false,"is_disabled":false,"rental_uris":{"android":"levelo://app?vid=eea77039-c187-414a-8460-cd9b2ba07796","ios":"levelo://app?vid=eea77039-c187-414a-8460-cd9b2ba07796"},"vehicle_type_id":"4","last_reported":1706634379,"current_range_meters":14800,"station_id":"ce4bh012rcd13ifvqcv0","pricing_plan_id":"free"},{"bike_id":"58d6e579-d2e0-4a30-8755-6981bcea9cba","system_id":"levelo_inurba_marseille","lat":43.30876,"lon":5.39642,"is_reserved":false,"is_disabled":false,"rental_uris":{"android":"levelo://app?vid=58d6e579-d2e0-4a30-8755-6981bcea9cba","ios":"levelo://app?vid=58d6e579-d2e0-4a30-8755-6981bcea9cba"},"vehicle_type_id":"4","last_reported":1706634379,"current_range_meters":11600,"station_id":"ce4bh012rcd13ifvqcv0","pricing_plan_id":"free"},{"bike_id":"9a015444-c4b0-41cf-b428-0705d5bd5a83","system_id":"levelo_inurba_marseille","lat":43.313291,"lon":5.396838,"is_reserved":false,"is_disabled":false,"rental_uris":{"android":"levelo://app?vid=9a015444-c4b0-41cf-b428-0705d5bd5a83","ios":"levelo://app?vid=9a015444-c4b0-41cf-b428-0705d5bd5a83"},"vehicle_type_id":"4","last_reported":1706634379,"current_range_meters":14000,"station_id":"ce4bgvp2rcd13ifvqcu0","pricing_plan_id":"free"},{"bike_id":"7f6aa594-0861-4485-833e-2c96eb223d5a","system_id":"levelo_inurba_marseille","lat":43.313291,"lon":5.396838,"is_reserved":false,"is_disabled":false,"rental_uris":{"android":"levelo://app?vid=7f6aa594-0861-4485-833e-2c96eb223d5a","ios":"levelo://app?vid=7f6aa594-0861-4485-833e-2c96eb223d5a"},"vehicle_type_id":"4","last_reported":1706634379,"current_range_meters":18400,"station_id":"ce4bgvp2rcd13ifvqcu0","pricing_plan_id":"free"},{"bike_id":"54ed4278-4a60-49ac-9983-a85eb264f3f6","system_id":"levelo_inurba_marseille","lat":43.313291,"lon":5.396838,"is_reserved":false,"is_disabled":false,"rental_uris":{"android":"levelo://app?vid=54ed4278-4a60-49ac-9983-a85eb264f3f6","ios":"levelo://app?vid=54ed4278-4a60-49ac-9983-a85eb264f3f6"},"vehicle_type_id":"4","last_reported":1706634379,"current_range_meters":14400,"station_id":"ce4bgvp2rcd13ifvqcu0","pricing_plan_id":"free"},{"bike_id":"4970a1f1-2562-4cd9-ae69-8b029fbc1985","system_id":"levelo_inurba_marseille","lat":43.313291,"lon":5.396838,"is_reserved":false,"is_disabled":false,"rental_uris":{"android":"levelo://app?vid=4970a1f1-2562-4cd9-ae69-8b029fbc1985","ios":"levelo://app?vid=4970a1f1-2562-4cd9-ae69-8b029fbc1985"},"vehicle_type_id":"4","last_reported":1706634379,"current_range_meters":18400,"station_id":"ce4bgvp2rcd13ifvqcu0","pricing_plan_id":"free"},{"bike_id":"0db4327a-f873-4b61-9e5d-93ba3c4b6379","system_id":"levelo_inurba_marseille","lat":43.313291,"lon":5.396838,"is_reserved":false,"is_disabled":false,"rental_uris":{"android":"levelo://app?vid=0db4327a-f873-4b61-9e5d-93ba3c4b6379","ios":"levelo://app?vid=0db4327a-f873-4b61-9e5d-93ba3c4b6379"},"vehicle_type_id":"4","last_reported":1706634379,"current_range_meters":1600,"station_id":"ce4bgvp2rcd13ifvqcu0","pricing_plan_id":"free"},{"bike_id":"3b349218-5a1d-4676-82db-52f11aad2231","system_id":"levelo_inurba_marseille","lat":43.31329,"lon":5.39696,"is_reserved":false,"is_disabled":false,"rental_uris":{"android":"levelo://app?vid=3b349218-5a1d-4676-82db-52f11aad2231","ios":"levelo://app?vid=3b349218-5a1d-4676-82db-52f11aad2231"},"vehicle_type_id":"4","last_reported":1706634379,"current_range_meters":20800,"station_id":"ce4bgvp2rcd13ifvqcu0","pricing_plan_id":"free"},{"bike_id":"173962cc-be5f-4c9a-b47c-c4231e7932c0","system_id":"levelo_inurba_marseille","lat":43.313291,"lon":5.396838,"is_reserved":false,"is_disabled":false,"rental_uris":{"android":"levelo://app?vid=173962cc-be5f-4c9a-b47c-c4231e7932c0","ios":"levelo://app?vid=173962cc-be5f-4c9a-b47c-c4231e7932c0"},"vehicle_type_id":"4","last_reported":1706634379,"current_range_meters":1600,"station_id":"ce4bgvp2rcd13ifvqcu0","pricing_plan_id":"free"},{"bike_id":"50abaccf-dd88-40c7-8675-0ffb04196c99","system_id":"levelo_inurba_marseille","lat":43.313291,"lon":5.396838,"is_reserved":false,"is_disabled":false,"rental_uris":{"android":"levelo://app?vid=50abaccf-dd88-40c7-8675-0ffb04196c99","ios":"levelo://app?vid=50abaccf-dd88-40c7-8675-0ffb04196c99"},"vehicle_type_id":"4","last_reported":1706634379,"current_range_meters":22800,"station_id":"ce4bgvp2rcd13ifvqcu0","pricing_plan_id":"free"},{"bike_id":"7f40c595-1c4f-4ac5-898c-e19e6e7abfa5","system_id":"levelo_inurba_marseille","lat":43.313291,"lon":5.396838,"is_reserved":false,"is_disabled":false,"rental_uris":{"android":"levelo://app?vid=7f40c595-1c4f-4ac5-898c-e19e6e7abfa5","ios":"levelo://app?vid=7f40c595-1c4f-4ac5-898c-e19e6e7abfa5"},"vehicle_type_id":"4","last_reported":1706634379,"current_range_meters":18400,"station_id":"ce4bgvp2rcd13ifvqcu0","pricing_plan_id":"free"},{"bike_id":"fd032832-9814-42c3-abf6-948d3fd5d135","system_id":"levelo_inurba_marseille","lat":43.313291,"lon":5.396838,"is_reserved":false,"is_disabled":false,"rental_uris":{"android":"levelo://app?vid=fd032832-9814-42c3-abf6-948d3fd5d135","ios":"levelo://app?vid=fd032832-9814-42c3-abf6-948d3fd5d135"},"vehicle_type_id":"4","last_reported":1706634379,"current_range_meters":21200,"station_id":"ce4bgvp2rcd13ifvqcu0","pricing_plan_id":"free"},{"bike_id":"08c8936f-6282-4269-ac71-328472fd491d","system_id":"levelo_inurba_marseille","lat":43.313291,"lon":5.396838,"is_reserved":false,"is_disabled":false,"rental_uris":{"android":"levelo://app?vid=08c8936f-6282-4269-ac71-328472fd491d","ios":"levelo://app?vid=08c8936f-6282-4269-ac71-328472fd491d"},"vehicle_type_id":"4","last_reported":1706634379,"current_range_meters":30000,"station_id":"ce4bgvp2rcd13ifvqcu0","pricing_plan_id":"free"},{"bike_id":"067a3f54-cdb1-4351-888c-7235aaac275f","system_id":"levelo_inurba_marseille","lat":43.313291,"lon":5.396838,"is_reserved":false,"is_disabled":false,"rental_uris":{"android":"levelo://app?vid=067a3f54-cdb1-4351-888c-7235aaac275f","ios":"levelo://app?vid=067a3f54-cdb1-4351-888c-7235aaac275f"},"vehicle_type_id":"4","last_reported":1706634379,"current_range_meters":6400,"station_id":"ce4bgvp2rcd13ifvqcu0","pricing_plan_id":"free"},{"bike_id":"3021377c-c83e-4218-8998-a6a059a6928b","system_id":"levelo_inurba_marseille","lat":43.30888,"lon":5.39653,"is_reserved":false,"is_disabled":false,"rental_uris":{"android":"levelo://app?vid=3021377c-c83e-4218-8998-a6a059a6928b","ios":"levelo://app?vid=3021377c-c83e-4218-8998-a6a059a6928b"},"vehicle_type_id":"4","last_reported":1706634379,"current_range_meters":26400,"station_id":"ce4bh012rcd13ifvqcv0","pricing_plan_id":"free"},{"bike_id":"751d9503-550a-45bb-8373-25caab9ec8d7","system_id":"levelo_inurba_marseille","lat":43.313291,"lon":5.396838,"is_reserved":false,"is_disabled":false,"rental_uris":{"android":"levelo://app?vid=751d9503-550a-45bb-8373-25caab9ec8d7","ios":"levelo://app?vid=751d9503-550a-45bb-8373-25caab9ec8d7"},"vehicle_type_id":"4","last_reported":1706634379,"current_range_meters":18000,"station_id":"ce4bgvp2rcd13ifvqcu0","pricing_plan_id":"free"},{"bike_id":"2ffc279e-2799-4474-8220-0a993408586f","system_id":"levelo_inurba_marseille","lat":43.313291,"lon":5.396838,"is_reserved":false,"is_disabled":false,"rental_uris":{"android":"levelo://app?vid=2ffc279e-2799-4474-8220-0a993408586f","ios":"levelo://app?vid=2ffc279e-2799-4474-8220-0a993408586f"},"vehicle_type_id":"4","last_reported":1706634379,"current_range_meters":31600,"station_id":"ce4bgvp2rcd13ifvqcu0","pricing_plan_id":"free"},{"bike_id":"ef62cf81-cc32-4f0e-bdf1-8a6a90e9453b","system_id":"levelo_inurba_marseille","lat":43.313291,"lon":5.396838,"is_reserved":false,"is_disabled":false,"rental_uris":{"android":"levelo://app?vid=ef62cf81-cc32-4f0e-bdf1-8a6a90e9453b","ios":"levelo://app?vid=ef62cf81-cc32-4f0e-bdf1-8a6a90e9453b"},"vehicle_type_id":"4","last_reported":1706634379,"current_range_meters":18400,"station_id":"ce4bgvp2rcd13ifvqcu0","pricing_plan_id":"free"},{"bike_id":"ad62d05c-e4ea-4189-8ac3-d1038681fc6a","system_id":"levelo_inurba_marseille","lat":43.313291,"lon":5.396838,"is_reserved":false,"is_disabled":false,"rental_uris":{"android":"levelo://app?vid=ad62d05c-e4ea-4189-8ac3-d1038681fc6a","ios":"levelo://app?vid=ad62d05c-e4ea-4189-8ac3-d1038681fc6a"},"vehicle_type_id":"4","last_reported":1706634379,"current_range_meters":20800,"station_id":"ce4bgvp2rcd13ifvqcu0","pricing_plan_id":"free"},{"bike_id":"96772678-d17a-43c2-a5f2-9de991a51cc0","system_id":"levelo_inurba_marseille","lat":43.30831,"lon":5.3964,"is_reserved":false,"is_disabled":false,"rental_uris":{"android":"levelo://app?vid=96772678-d17a-43c2-a5f2-9de991a51cc0","ios":"levelo://app?vid=96772678-d17a-43c2-a5f2-9de991a51cc0"},"vehicle_type_id":"4","last_reported":1706634379,"current_range_meters":25600,"station_id":"ce4bh012rcd13ifvqcv0","pricing_plan_id":"free"},{"bike_id":"9706c693-9d33-4f2b-9b4b-668d9e7d2afe","system_id":"levelo_inurba_marseille","lat":43.30884,"lon":5.39658,"is_reserved":false,"is_disabled":false,"rental_uris":{"android":"levelo://app?vid=9706c693-9d33-4f2b-9b4b-668d9e7d2afe","ios":"levelo://app?vid=9706c693-9d33-4f2b-9b4b-668d9e7d2afe"},"vehicle_type_id":"4","last_reported":1706634379,"current_range_meters":15200,"station_id":"ce4bh012rcd13ifvqcv0","pricing_plan_id":"free"},{"bike_id":"a72beaed-febb-4463-ace9-4069dabe51d9","system_id":"levelo_inurba_marseille","lat":43.30885,"lon":5.39659,"is_reserved":false,"is_disabled":false,"rental_uris":{"android":"levelo://app?vid=a72beaed-febb-4463-ace9-4069dabe51d9","ios":"levelo://app?vid=a72beaed-febb-4463-ace9-4069dabe51d9"},"vehicle_type_id":"4","last_reported":1706634379,"current_range_meters":0,"station_id":"ce4bh012rcd13ifvqcv0","pricing_plan_id":"free"},{"bike_id":"9fb6e92a-de6f-4b04-92d4-3c9d81ced72c","system_id":"levelo_inurba_marseille","lat":43.295275,"lon":5.38546,"is_reserved":false,"is_disabled":false,"rental_uris":{"android":"levelo://app?vid=9fb6e92a-de6f-4b04-92d4-3c9d81ced72c","ios":"levelo://app?vid=9fb6e92a-de6f-4b04-92d4-3c9d81ced72c"},"vehicle_type_id":"4","last_reported":1706634379,"current_range_meters":23200,"station_id":"","pricing_plan_id":"free"},{"bike_id":"4afae94f-3138-4b9b-a242-340018574532","system_id":"levelo_inurba_marseille","lat":43.29529,"lon":5.385581,"is_reserved":false,"is_disabled":false,"rental_uris":{"android":"levelo://app?vid=4afae94f-3138-4b9b-a242-340018574532","ios":"levelo://app?vid=4afae94f-3138-4b9b-a242-340018574532"},"vehicle_type_id":"4","last_reported":1706634379,"current_range_meters":25200,"station_id":"ce4bgih2rcd13ifvqba0","pricing_plan_id":"free"},{"bike_id":"d6aa6bb6-6d11-4622-b472-7ae642820fb2","system_id":"levelo_inurba_marseille","lat":43.290319,"lon":5.375732,"is_reserved":false,"is_disabled":false,"rental_uris":{"android":"levelo://app?vid=d6aa6bb6-6d11-4622-b472-7ae642820fb2","ios":"levelo://app?vid=d6aa6bb6-6d11-4622-b472-7ae642820fb2"},"vehicle_type_id":"4","last_reported":1706634379,"current_range_meters":20000,"station_id":"ce4bh692rcd13ifvqe90","pricing_plan_id":"free"},{"bike_id":"12bf60f2-d6ef-4639-8804-dc7449f27652","system_id":"levelo_inurba_marseille","lat":43.302008,"lon":5.394694,"is_reserved":false,"is_disabled":false,"rental_uris":{"android":"levelo://app?vid=12bf60f2-d6ef-4639-8804-dc7449f27652","ios":"levelo://app?vid=12bf60f2-d6ef-4639-8804-dc7449f27652"},"vehicle_type_id":"4","last_reported":1706634379,"current_range_meters":5600,"station_id":"ce4bh0p2rcd13ifvqd70","pricing_plan_id":"free"},{"bike_id":"d147ddf8-19cc-45c9-8f40-72f2351442d3","system_id":"levelo_inurba_marseille","lat":43.290631,"lon":5.359244,"is_reserved":false,"is_disabled":false,"rental_uris":{"android":"levelo://app?vid=d147ddf8-19cc-45c9-8f40-72f2351442d3","ios":"levelo://app?vid=d147ddf8-19cc-45c9-8f40-72f2351442d3"},"vehicle_type_id":"4","last_reported":1706634379,"current_range_meters":27600,"station_id":"ce4bha92rcd13ifvqeg0","pricing_plan_id":"free"},{"bike_id":"1ed3b57b-0146-400e-8670-73b261eb14ea","system_id":"levelo_inurba_marseille","lat":43.302008,"lon":5.394694,"is_reserved":false,"is_disabled":false,"rental_uris":{"android":"levelo://app?vid=1ed3b57b-0146-400e-8670-73b261eb14ea","ios":"levelo://app?vid=1ed3b57b-0146-400e-8670-73b261eb14ea"},"vehicle_type_id":"4","last_reported":1706634379,"current_range_meters":22800,"station_id":"ce4bh0p2rcd13ifvqd70","pricing_plan_id":"free"},{"bike_id":"2c1e47ad-3478-424c-8c66-23a600b1f0dc","system_id":"levelo_inurba_marseille","lat":43.290441,"lon":5.359123,"is_reserved":false,"is_disabled":false,"rental_uris":{"android":"levelo://app?vid=2c1e47ad-3478-424c-8c66-23a600b1f0dc","ios":"levelo://app?vid=2c1e47ad-3478-424c-8c66-23a600b1f0dc"},"vehicle_type_id":"4","last_reported":1706634379,"current_range_meters":17200,"station_id":"","pricing_plan_id":"free"},{"bike_id":"1aeec6d3-ac49-4d7d-b3d4-f36ffab249d8","system_id":"levelo_inurba_marseille","lat":43.290319,"lon":5.375732,"is_reserved":false,"is_disabled":false,"rental_uris":{"android":"levelo://app?vid=1aeec6d3-ac49-4d7d-b3d4-f36ffab249d8","ios":"levelo://app?vid=1aeec6d3-ac49-4d7d-b3d4-f36ffab249d8"},"vehicle_type_id":"4","last_reported":1706634379,"current_range_meters":6400,"station_id":"ce4bh692rcd13ifvqe90","pricing_plan_id":"free"},{"bike_id":"6fc8ea74-de37-483d-a3da-866427fdf2dd","system_id":"levelo_inurba_marseille","lat":43.294153,"lon":5.386305,"is_reserved":false,"is_disabled":false,"rental_uris":{"android":"levelo://app?vid=6fc8ea74-de37-483d-a3da-866427fdf2dd","ios":"levelo://app?vid=6fc8ea74-de37-483d-a3da-866427fdf2dd"},"vehicle_type_id":"4","last_reported":1706634379,"current_range_meters":21600,"station_id":"ce4bh2h2rcd13ifvqdh0","pricing_plan_id":"free"},{"bike_id":"e6c1bbe6-83e9-413b-85fe-09e35195dffa","system_id":"levelo_inurba_marseille","lat":43.294153,"lon":5.386305,"is_reserved":false,"is_disabled":false,"rental_uris":{"android":"levelo://app?vid=e6c1bbe6-83e9-413b-85fe-09e35195dffa","ios":"levelo://app?vid=e6c1bbe6-83e9-413b-85fe-09e35195dffa"},"vehicle_type_id":"4","last_reported":1706634379,"current_range_meters":10800,"station_id":"ce4bh2h2rcd13ifvqdh0","pricing_plan_id":"free"},{"bike_id":"ac188da6-abd4-4cde-a9a0-b80e86d5bcc4","system_id":"levelo_inurba_marseille","lat":43.294162,"lon":5.386292,"is_reserved":false,"is_disabled":false,"rental_uris":{"android":"levelo://app?vid=ac188da6-abd4-4cde-a9a0-b80e86d5bcc4","ios":"levelo://app?vid=ac188da6-abd4-4cde-a9a0-b80e86d5bcc4"},"vehicle_type_id":"4","last_reported":1706634379,"current_range_meters":6000,"station_id":"ce4bh2h2rcd13ifvqdh0","pricing_plan_id":"free"},{"bike_id":"fbd6407f-e3eb-406e-8816-c286e09e04f4","system_id":"levelo_inurba_marseille","lat":43.289184,"lon":5.366408,"is_reserved":false,"is_disabled":false,"rental_uris":{"android":"levelo://app?vid=fbd6407f-e3eb-406e-8816-c286e09e04f4","ios":"levelo://app?vid=fbd6407f-e3eb-406e-8816-c286e09e04f4"},"vehicle_type_id":"4","last_reported":1706634379,"current_range_meters":7200,"station_id":"ce4bhap2rcd13ifvqek0","pricing_plan_id":"free"},{"bike_id":"b86f8eaa-4df5-440c-901e-7acebeba4016","system_id":"levelo_inurba_marseille","lat":43.289184,"lon":5.366408,"is_reserved":false,"is_disabled":false,"rental_uris":{"android":"levelo://app?vid=b86f8eaa-4df5-440c-901e-7acebeba4016","ios":"levelo://app?vid=b86f8eaa-4df5-440c-901e-7acebeba4016"},"vehicle_type_id":"4","last_reported":1706634379,"current_range_meters":10400,"station_id":"ce4bhap2rcd13ifvqek0","pricing_plan_id":"free"},{"bike_id":"0afdbc7e-852a-4448-b5ce-b941b95131b8","system_id":"levelo_inurba_marseille","lat":43.29414,"lon":5.38625,"is_reserved":false,"is_disabled":false,"rental_uris":{"android":"levelo://app?vid=0afdbc7e-852a-4448-b5ce-b941b95131b8","ios":"levelo://app?vid=0afdbc7e-852a-4448-b5ce-b941b95131b8"},"vehicle_type_id":"4","last_reported":1706634379,"current_range_meters":5200,"station_id":"ce4bh2h2rcd13ifvqdh0","pricing_plan_id":"free"},{"bike_id":"8daa8b7e-563c-4278-9fdc-738265cc147b","system_id":"levelo_inurba_marseille","lat":43.289184,"lon":5.366408,"is_reserved":false,"is_disabled":false,"rental_uris":{"android":"levelo://app?vid=8daa8b7e-563c-4278-9fdc-738265cc147b","ios":"levelo://app?vid=8daa8b7e-563c-4278-9fdc-738265cc147b"},"vehicle_type_id":"4","last_reported":1706634379,"current_range_meters":20400,"station_id":"ce4bhap2rcd13ifvqek0","pricing_plan_id":"free"},{"bike_id":"ab2e6a65-5976-4576-b1bc-88be8468b494","system_id":"levelo_inurba_marseille","lat":43.294143,"lon":5.38629,"is_reserved":false,"is_disabled":false,"rental_uris":{"android":"levelo://app?vid=ab2e6a65-5976-4576-b1bc-88be8468b494","ios":"levelo://app?vid=ab2e6a65-5976-4576-b1bc-88be8468b494"},"vehicle_type_id":"4","last_reported":1706634379,"current_range_meters":0,"station_id":"ce4bh2h2rcd13ifvqdh0","pricing_plan_id":"free"},{"bike_id":"21fecfae-ca61-4e65-a202-7ab0952daa58","system_id":"levelo_inurba_marseille","lat":43.2894,"lon":5.3663,"is_reserved":false,"is_disabled":false,"rental_uris":{"android":"levelo://app?vid=21fecfae-ca61-4e65-a202-7ab0952daa58","ios":"levelo://app?vid=21fecfae-ca61-4e65-a202-7ab0952daa58"},"vehicle_type_id":"4","last_reported":1706634379,"current_range_meters":0,"station_id":"ce4bhap2rcd13ifvqek0","pricing_plan_id":"free"},{"bike_id":"810b2ba1-cc55-4cc2-9419-4df02d20a235","system_id":"levelo_inurba_marseille","lat":43.289184,"lon":5.366408,"is_reserved":false,"is_disabled":false,"rental_uris":{"android":"levelo://app?vid=810b2ba1-cc55-4cc2-9419-4df02d20a235","ios":"levelo://app?vid=810b2ba1-cc55-4cc2-9419-4df02d20a235"},"vehicle_type_id":"4","last_reported":1706634379,"current_range_meters":7600,"station_id":"ce4bhap2rcd13ifvqek0","pricing_plan_id":"free"},{"bike_id":"7dc3d1a6-3944-4cb2-8991-00a236fcb1af","system_id":"levelo_inurba_marseille","lat":43.289184,"lon":5.366408,"is_reserved":false,"is_disabled":false,"rental_uris":{"android":"levelo://app?vid=7dc3d1a6-3944-4cb2-8991-00a236fcb1af","ios":"levelo://app?vid=7dc3d1a6-3944-4cb2-8991-00a236fcb1af"},"vehicle_type_id":"4","last_reported":1706634379,"current_range_meters":0,"station_id":"ce4bhap2rcd13ifvqek0","pricing_plan_id":"free"},{"bike_id":"9025e360-0feb-48cf-8b27-714c830f85b7","system_id":"levelo_inurba_marseille","lat":43.29258,"lon":5.38437,"is_reserved":false,"is_disabled":false,"rental_uris":{"android":"levelo://app?vid=9025e360-0feb-48cf-8b27-714c830f85b7","ios":"levelo://app?vid=9025e360-0feb-48cf-8b27-714c830f85b7"},"vehicle_type_id":"4","last_reported":1706634379,"current_range_meters":10000,"station_id":"","pricing_plan_id":"free"},{"bike_id":"a926dd93-df77-4bde-9166-f9b3f2d6d44b","system_id":"levelo_inurba_marseille","lat":43.29258,"lon":5.38452,"is_reserved":false,"is_disabled":false,"rental_uris":{"android":"levelo://app?vid=a926dd93-df77-4bde-9166-f9b3f2d6d44b","ios":"levelo://app?vid=a926dd93-df77-4bde-9166-f9b3f2d6d44b"},"vehicle_type_id":"4","last_reported":1706634379,"current_range_meters":0,"station_id":"ce4bh692rcd13ifvqea0","pricing_plan_id":"free"},{"bike_id":"9f96d060-bfb3-4c68-8a45-c69f41148aba","system_id":"levelo_inurba_marseille","lat":43.29002,"lon":5.35616,"is_reserved":false,"is_disabled":false,"rental_uris":{"android":"levelo://app?vid=9f96d060-bfb3-4c68-8a45-c69f41148aba","ios":"levelo://app?vid=9f96d060-bfb3-4c68-8a45-c69f41148aba"},"vehicle_type_id":"4","last_reported":1706634379,"current_range_meters":0,"station_id":"ce4bhb92rcd13ifvqen0","pricing_plan_id":"free"},{"bike_id":"6acd44dd-90a7-482f-a4d4-ab8fe5e336ed","system_id":"levelo_inurba_marseille","lat":43.295169,"lon":5.390426,"is_reserved":false,"is_disabled":false,"rental_uris":{"android":"levelo://app?vid=6acd44dd-90a7-482f-a4d4-ab8fe5e336ed","ios":"levelo://app?vid=6acd44dd-90a7-482f-a4d4-ab8fe5e336ed"},"vehicle_type_id":"4","last_reported":1706634379,"current_range_meters":8000,"station_id":"ce4bh3p2rcd13ifvqdp0","pricing_plan_id":"free"},{"bike_id":"46da3db9-e90a-44ac-a7b3-747fd1f4f791","system_id":"levelo_inurba_marseille","lat":43.295169,"lon":5.390426,"is_reserved":false,"is_disabled":false,"rental_uris":{"android":"levelo://app?vid=46da3db9-e90a-44ac-a7b3-747fd1f4f791","ios":"levelo://app?vid=46da3db9-e90a-44ac-a7b3-747fd1f4f791"},"vehicle_type_id":"4","last_reported":1706634379,"current_range_meters":14000,"station_id":"ce4bh3p2rcd13ifvqdp0","pricing_plan_id":"free"},{"bike_id":"486118a3-4f9a-41a5-83ed-00b0a9524fd4","system_id":"levelo_inurba_marseille","lat":43.28977,"lon":5.37835,"is_reserved":false,"is_disabled":false,"rental_uris":{"android":"levelo://app?vid=486118a3-4f9a-41a5-83ed-00b0a9524fd4","ios":"levelo://app?vid=486118a3-4f9a-41a5-83ed-00b0a9524fd4"},"vehicle_type_id":"4","last_reported":1706634379,"current_range_meters":800,"station_id":"ce4bh9p2rcd13ifvqed0","pricing_plan_id":"free"},{"bike_id":"9d04f22f-e1a4-47bf-9d29-67876c885943","system_id":"levelo_inurba_marseille","lat":43.295169,"lon":5.390426,"is_reserved":false,"is_disabled":false,"rental_uris":{"android":"levelo://app?vid=9d04f22f-e1a4-47bf-9d29-67876c885943","ios":"levelo://app?vid=9d04f22f-e1a4-47bf-9d29-67876c885943"},"vehicle_type_id":"4","last_reported":1706634379,"current_range_meters":27600,"station_id":"ce4bh3p2rcd13ifvqdp0","pricing_plan_id":"free"},{"bike_id":"638f3e80-e9cc-411c-b0c3-e0089abb36c8","system_id":"levelo_inurba_marseille","lat":43.295169,"lon":5.390426,"is_reserved":false,"is_disabled":false,"rental_uris":{"android":"levelo://app?vid=638f3e80-e9cc-411c-b0c3-e0089abb36c8","ios":"levelo://app?vid=638f3e80-e9cc-411c-b0c3-e0089abb36c8"},"vehicle_type_id":"4","last_reported":1706634379,"current_range_meters":11200,"station_id":"ce4bh3p2rcd13ifvqdp0","pricing_plan_id":"free"},{"bike_id":"9c7a9839-bda3-4c8b-b68c-6ac3367bbc8e","system_id":"levelo_inurba_marseille","lat":43.330442,"lon":5.389148,"is_reserved":false,"is_disabled":false,"rental_uris":{"android":"levelo://app?vid=9c7a9839-bda3-4c8b-b68c-6ac3367bbc8e","ios":"levelo://app?vid=9c7a9839-bda3-4c8b-b68c-6ac3367bbc8e"},"vehicle_type_id":"4","last_reported":1706634379,"current_range_meters":25600,"station_id":"ce4bhr92rcd13ifvqhrg","pricing_plan_id":"free"},{"bike_id":"ff708cda-0d47-4a10-a7f9-fd329bffdc33","system_id":"levelo_inurba_marseille","lat":43.330442,"lon":5.389148,"is_reserved":false,"is_disabled":false,"rental_uris":{"android":"levelo://app?vid=ff708cda-0d47-4a10-a7f9-fd329bffdc33","ios":"levelo://app?vid=ff708cda-0d47-4a10-a7f9-fd329bffdc33"},"vehicle_type_id":"4","last_reported":1706634379,"current_range_meters":3200,"station_id":"ce4bhr92rcd13ifvqhrg","pricing_plan_id":"free"},{"bike_id":"6587bccc-79e1-424f-8ec5-6c8f05287a7b","system_id":"levelo_inurba_marseille","lat":43.295169,"lon":5.390426,"is_reserved":false,"is_disabled":false,"rental_uris":{"android":"levelo://app?vid=6587bccc-79e1-424f-8ec5-6c8f05287a7b","ios":"levelo://app?vid=6587bccc-79e1-424f-8ec5-6c8f05287a7b"},"vehicle_type_id":"4","last_reported":1706634379,"current_range_meters":26400,"station_id":"ce4bh3p2rcd13ifvqdp0","pricing_plan_id":"free"},{"bike_id":"dde1b304-8ca4-428e-82d4-7f51667fdb61","system_id":"levelo_inurba_marseille","lat":43.29526,"lon":5.39047,"is_reserved":false,"is_disabled":false,"rental_uris":{"android":"levelo://app?vid=dde1b304-8ca4-428e-82d4-7f51667fdb61","ios":"levelo://app?vid=dde1b304-8ca4-428e-82d4-7f51667fdb61"},"vehicle_type_id":"4","last_reported":1706634379,"current_range_meters":18000,"station_id":"ce4bh3p2rcd13ifvqdp0","pricing_plan_id":"free"},{"bike_id":"a1240dd7-6a41-4ac6-bbf7-3f3a16d1a8fd","system_id":"levelo_inurba_marseille","lat":43.29526,"lon":5.39048,"is_reserved":false,"is_disabled":false,"rental_uris":{"android":"levelo://app?vid=a1240dd7-6a41-4ac6-bbf7-3f3a16d1a8fd","ios":"levelo://app?vid=a1240dd7-6a41-4ac6-bbf7-3f3a16d1a8fd"},"vehicle_type_id":"4","last_reported":1706634379,"current_range_meters":19600,"station_id":"ce4bh3p2rcd13ifvqdp0","pricing_plan_id":"free"},{"bike_id":"a95ddc49-8b6b-4945-992c-6fe28c432010","system_id":"levelo_inurba_marseille","lat":43.2897,"lon":5.37833,"is_reserved":false,"is_disabled":false,"rental_uris":{"android":"levelo://app?vid=a95ddc49-8b6b-4945-992c-6fe28c432010","ios":"levelo://app?vid=a95ddc49-8b6b-4945-992c-6fe28c432010"},"vehicle_type_id":"4","last_reported":1706634379,"current_range_meters":0,"station_id":"ce4bh9p2rcd13ifvqed0","pricing_plan_id":"free"},{"bike_id":"dd0b700c-9a30-4ef4-9a9f-62504c762774","system_id":"levelo_inurba_marseille","lat":43.295169,"lon":5.390426,"is_reserved":false,"is_disabled":false,"rental_uris":{"android":"levelo://app?vid=dd0b700c-9a30-4ef4-9a9f-62504c762774","ios":"levelo://app?vid=dd0b700c-9a30-4ef4-9a9f-62504c762774"},"vehicle_type_id":"4","last_reported":1706634379,"current_range_meters":23600,"station_id":"ce4bh3p2rcd13ifvqdp0","pricing_plan_id":"free"},{"bike_id":"a1ba47f4-2b27-484a-8a76-70532f090376","system_id":"levelo_inurba_marseille","lat":43.289743,"lon":5.378304,"is_reserved":false,"is_disabled":false,"rental_uris":{"android":"levelo://app?vid=a1ba47f4-2b27-484a-8a76-70532f090376","ios":"levelo://app?vid=a1ba47f4-2b27-484a-8a76-70532f090376"},"vehicle_type_id":"4","last_reported":1706634379,"current_range_meters":17600,"station_id":"ce4bh9p2rcd13ifvqed0","pricing_plan_id":"free"},{"bike_id":"2e83e6a1-a0bb-4edf-b393-2a65f7fdfef2","system_id":"levelo_inurba_marseille","lat":43.290094,"lon":5.381264,"is_reserved":false,"is_disabled":false,"rental_uris":{"android":"levelo://app?vid=2e83e6a1-a0bb-4edf-b393-2a65f7fdfef2","ios":"levelo://app?vid=2e83e6a1-a0bb-4edf-b393-2a65f7fdfef2"},"vehicle_type_id":"4","last_reported":1706634379,"current_range_meters":9200,"station_id":"ce4bh4p2rcd13ifvqe1g","pricing_plan_id":"free"},{"bike_id":"8a0be387-e59a-4e28-b0df-7e795def2c7b","system_id":"levelo_inurba_marseille","lat":43.28856,"lon":5.358371,"is_reserved":false,"is_disabled":false,"rental_uris":{"android":"levelo://app?vid=8a0be387-e59a-4e28-b0df-7e795def2c7b","ios":"levelo://app?vid=8a0be387-e59a-4e28-b0df-7e795def2c7b"},"vehicle_type_id":"4","last_reported":1706634379,"current_range_meters":25600,"station_id":"ce4bhb12rcd13ifvqem0","pricing_plan_id":"free"},{"bike_id":"e19cd6be-0fcb-411e-850f-533acfd24fee","system_id":"levelo_inurba_marseille","lat":43.28856,"lon":5.358371,"is_reserved":false,"is_disabled":false,"rental_uris":{"android":"levelo://app?vid=e19cd6be-0fcb-411e-850f-533acfd24fee","ios":"levelo://app?vid=e19cd6be-0fcb-411e-850f-533acfd24fee"},"vehicle_type_id":"4","last_reported":1706634379,"current_range_meters":26000,"station_id":"ce4bhb12rcd13ifvqem0","pricing_plan_id":"free"},{"bike_id":"69be143d-2d2b-4a08-a569-4d0efe66087e","system_id":"levelo_inurba_marseille","lat":43.28856,"lon":5.358371,"is_reserved":false,"is_disabled":false,"rental_uris":{"android":"levelo://app?vid=69be143d-2d2b-4a08-a569-4d0efe66087e","ios":"levelo://app?vid=69be143d-2d2b-4a08-a569-4d0efe66087e"},"vehicle_type_id":"4","last_reported":1706634379,"current_range_meters":4000,"station_id":"ce4bhb12rcd13ifvqem0","pricing_plan_id":"free"},{"bike_id":"70770ecd-216a-467f-8858-7aa6679f1335","system_id":"levelo_inurba_marseille","lat":43.28856,"lon":5.358371,"is_reserved":false,"is_disabled":false,"rental_uris":{"android":"levelo://app?vid=70770ecd-216a-467f-8858-7aa6679f1335","ios":"levelo://app?vid=70770ecd-216a-467f-8858-7aa6679f1335"},"vehicle_type_id":"4","last_reported":1706634379,"current_range_meters":12400,"station_id":"ce4bhb12rcd13ifvqem0","pricing_plan_id":"free"},{"bike_id":"4c905910-adab-43a1-80f6-7f30f1f86c27","system_id":"levelo_inurba_marseille","lat":43.28727,"lon":5.36078,"is_reserved":false,"is_disabled":false,"rental_uris":{"android":"levelo://app?vid=4c905910-adab-43a1-80f6-7f30f1f86c27","ios":"levelo://app?vid=4c905910-adab-43a1-80f6-7f30f1f86c27"},"vehicle_type_id":"4","last_reported":1706634379,"current_range_meters":24800,"station_id":"cki0cbj6b192h4jlfktg","pricing_plan_id":"free"},{"bike_id":"a410b630-21f0-488e-b5e2-14f05f8552fd","system_id":"levelo_inurba_marseille","lat":43.28856,"lon":5.358371,"is_reserved":false,"is_disabled":false,"rental_uris":{"android":"levelo://app?vid=a410b630-21f0-488e-b5e2-14f05f8552fd","ios":"levelo://app?vid=a410b630-21f0-488e-b5e2-14f05f8552fd"},"vehicle_type_id":"4","last_reported":1706634379,"current_range_meters":21600,"station_id":"ce4bhb12rcd13ifvqem0","pricing_plan_id":"free"},{"bike_id":"24bca81d-f76b-46b1-ad04-20c7073dfe30","system_id":"levelo_inurba_marseille","lat":43.28856,"lon":5.358371,"is_reserved":false,"is_disabled":false,"rental_uris":{"android":"levelo://app?vid=24bca81d-f76b-46b1-ad04-20c7073dfe30","ios":"levelo://app?vid=24bca81d-f76b-46b1-ad04-20c7073dfe30"},"vehicle_type_id":"4","last_reported":1706634379,"current_range_meters":30800,"station_id":"ce4bhb12rcd13ifvqem0","pricing_plan_id":"free"},{"bike_id":"9008239d-ce45-46c2-8381-3c063bd03566","system_id":"levelo_inurba_marseille","lat":43.33734,"lon":5.37459,"is_reserved":false,"is_disabled":false,"rental_uris":{"android":"levelo://app?vid=9008239d-ce45-46c2-8381-3c063bd03566","ios":"levelo://app?vid=9008239d-ce45-46c2-8381-3c063bd03566"},"vehicle_type_id":"4","last_reported":1706634379,"current_range_meters":18400,"station_id":"","pricing_plan_id":"free"},{"bike_id":"ef5e8755-ee96-4e8a-9b6f-0abf7e71668a","system_id":"levelo_inurba_marseille","lat":43.309371,"lon":5.401449,"is_reserved":false,"is_disabled":false,"rental_uris":{"android":"levelo://app?vid=ef5e8755-ee96-4e8a-9b6f-0abf7e71668a","ios":"levelo://app?vid=ef5e8755-ee96-4e8a-9b6f-0abf7e71668a"},"vehicle_type_id":"4","last_reported":1706634379,"current_range_meters":10800,"station_id":"ce4bgvp2rcd13ifvqct0","pricing_plan_id":"free"},{"bike_id":"caad8c37-fdb0-4dd8-9853-9a0b62c09b59","system_id":"levelo_inurba_marseille","lat":43.309371,"lon":5.401449,"is_reserved":false,"is_disabled":false,"rental_uris":{"android":"levelo://app?vid=caad8c37-fdb0-4dd8-9853-9a0b62c09b59","ios":"levelo://app?vid=caad8c37-fdb0-4dd8-9853-9a0b62c09b59"},"vehicle_type_id":"4","last_reported":1706634379,"current_range_meters":0,"station_id":"ce4bgvp2rcd13ifvqct0","pricing_plan_id":"free"},{"bike_id":"1486e08d-7ba3-47bb-a39b-833af33a3882","system_id":"levelo_inurba_marseille","lat":43.309323,"lon":5.401453,"is_reserved":false,"is_disabled":false,"rental_uris":{"android":"levelo://app?vid=1486e08d-7ba3-47bb-a39b-833af33a3882","ios":"levelo://app?vid=1486e08d-7ba3-47bb-a39b-833af33a3882"},"vehicle_type_id":"4","last_reported":1706634379,"current_range_meters":0,"station_id":"ce4bgvp2rcd13ifvqct0","pricing_plan_id":"free"},{"bike_id":"5362f52e-7863-4649-8a2f-454ee65bdc0e","system_id":"levelo_inurba_marseille","lat":43.31266,"lon":5.40182,"is_reserved":false,"is_disabled":false,"rental_uris":{"android":"levelo://app?vid=5362f52e-7863-4649-8a2f-454ee65bdc0e","ios":"levelo://app?vid=5362f52e-7863-4649-8a2f-454ee65bdc0e"},"vehicle_type_id":"4","last_reported":1706634379,"current_range_meters":9600,"station_id":"ce4bh092rcd13ifvqd30","pricing_plan_id":"free"},{"bike_id":"ad7aa241-dd6f-448d-b121-a815d7e2a0c6","system_id":"levelo_inurba_marseille","lat":43.30642,"lon":5.401031,"is_reserved":false,"is_disabled":false,"rental_uris":{"android":"levelo://app?vid=ad7aa241-dd6f-448d-b121-a815d7e2a0c6","ios":"levelo://app?vid=ad7aa241-dd6f-448d-b121-a815d7e2a0c6"},"vehicle_type_id":"4","last_reported":1706634379,"current_range_meters":17200,"station_id":"ce4bh112rcd13ifvqda0","pricing_plan_id":"free"},{"bike_id":"079b4b7f-7794-4fd3-b904-e59b8d3dca7c","system_id":"levelo_inurba_marseille","lat":43.309371,"lon":5.401449,"is_reserved":false,"is_disabled":false,"rental_uris":{"android":"levelo://app?vid=079b4b7f-7794-4fd3-b904-e59b8d3dca7c","ios":"levelo://app?vid=079b4b7f-7794-4fd3-b904-e59b8d3dca7c"},"vehicle_type_id":"4","last_reported":1706634379,"current_range_meters":16800,"station_id":"ce4bgvp2rcd13ifvqct0","pricing_plan_id":"free"},{"bike_id":"e7f5de90-1e40-49b1-b842-fb030d7f55ee","system_id":"levelo_inurba_marseille","lat":43.3093,"lon":5.40156,"is_reserved":false,"is_disabled":false,"rental_uris":{"android":"levelo://app?vid=e7f5de90-1e40-49b1-b842-fb030d7f55ee","ios":"levelo://app?vid=e7f5de90-1e40-49b1-b842-fb030d7f55ee"},"vehicle_type_id":"4","last_reported":1706634379,"current_range_meters":0,"station_id":"ce4bgvp2rcd13ifvqct0","pricing_plan_id":"free"},{"bike_id":"b7f12eab-e0a6-499e-87ec-2b4381c4602a","system_id":"levelo_inurba_marseille","lat":43.33767,"lon":5.37404,"is_reserved":false,"is_disabled":false,"rental_uris":{"android":"levelo://app?vid=b7f12eab-e0a6-499e-87ec-2b4381c4602a","ios":"levelo://app?vid=b7f12eab-e0a6-499e-87ec-2b4381c4602a"},"vehicle_type_id":"4","last_reported":1706634379,"current_range_meters":22000,"station_id":"","pricing_plan_id":"free"},{"bike_id":"b7d3b81d-d85a-44b5-a0c7-8f9c9f74639e","system_id":"levelo_inurba_marseille","lat":43.337587,"lon":5.374576,"is_reserved":false,"is_disabled":false,"rental_uris":{"android":"levelo://app?vid=b7d3b81d-d85a-44b5-a0c7-8f9c9f74639e","ios":"levelo://app?vid=b7d3b81d-d85a-44b5-a0c7-8f9c9f74639e"},"vehicle_type_id":"4","last_reported":1706634379,"current_range_meters":18800,"station_id":"","pricing_plan_id":"free"},{"bike_id":"2fe24097-b1c2-4583-ba1f-cf8501171a4c","system_id":"levelo_inurba_marseille","lat":43.33755,"lon":5.37492,"is_reserved":false,"is_disabled":false,"rental_uris":{"android":"levelo://app?vid=2fe24097-b1c2-4583-ba1f-cf8501171a4c","ios":"levelo://app?vid=2fe24097-b1c2-4583-ba1f-cf8501171a4c"},"vehicle_type_id":"4","last_reported":1706634379,"current_range_meters":1600,"station_id":"","pricing_plan_id":"free"},{"bike_id":"ff9af922-5e31-45ca-8498-02e307460769","system_id":"levelo_inurba_marseille","lat":43.306412,"lon":5.401035,"is_reserved":false,"is_disabled":false,"rental_uris":{"android":"levelo://app?vid=ff9af922-5e31-45ca-8498-02e307460769","ios":"levelo://app?vid=ff9af922-5e31-45ca-8498-02e307460769"},"vehicle_type_id":"4","last_reported":1706634379,"current_range_meters":30800,"station_id":"ce4bh112rcd13ifvqda0","pricing_plan_id":"free"},{"bike_id":"1facbbf3-baac-42f8-85eb-cb1e36f3e4b9","system_id":"levelo_inurba_marseille","lat":43.33757,"lon":5.37485,"is_reserved":false,"is_disabled":false,"rental_uris":{"android":"levelo://app?vid=1facbbf3-baac-42f8-85eb-cb1e36f3e4b9","ios":"levelo://app?vid=1facbbf3-baac-42f8-85eb-cb1e36f3e4b9"},"vehicle_type_id":"4","last_reported":1706634379,"current_range_meters":4400,"station_id":"","pricing_plan_id":"free"},{"bike_id":"8b6e2489-b8b4-4872-9970-7dfd92e09f97","system_id":"levelo_inurba_marseille","lat":43.33765,"lon":5.37441,"is_reserved":false,"is_disabled":false,"rental_uris":{"android":"levelo://app?vid=8b6e2489-b8b4-4872-9970-7dfd92e09f97","ios":"levelo://app?vid=8b6e2489-b8b4-4872-9970-7dfd92e09f97"},"vehicle_type_id":"4","last_reported":1706634379,"current_range_meters":28400,"station_id":"","pricing_plan_id":"free"},{"bike_id":"12568932-a9a7-4d52-8b2c-668683b75358","system_id":"levelo_inurba_marseille","lat":43.3376,"lon":5.37492,"is_reserved":false,"is_disabled":false,"rental_uris":{"android":"levelo://app?vid=12568932-a9a7-4d52-8b2c-668683b75358","ios":"levelo://app?vid=12568932-a9a7-4d52-8b2c-668683b75358"},"vehicle_type_id":"4","last_reported":1706634379,"current_range_meters":15600,"station_id":"","pricing_plan_id":"free"},{"bike_id":"dd4b1d33-c442-4751-bc7d-f88085de455a","system_id":"levelo_inurba_marseille","lat":43.31306,"lon":5.402034,"is_reserved":false,"is_disabled":false,"rental_uris":{"android":"levelo://app?vid=dd4b1d33-c442-4751-bc7d-f88085de455a","ios":"levelo://app?vid=dd4b1d33-c442-4751-bc7d-f88085de455a"},"vehicle_type_id":"4","last_reported":1706634379,"current_range_meters":9200,"station_id":"ce4bh092rcd13ifvqd30","pricing_plan_id":"free"},{"bike_id":"899d0092-7653-45db-88aa-d3f5eb3a8508","system_id":"levelo_inurba_marseille","lat":43.33776,"lon":5.37431,"is_reserved":false,"is_disabled":false,"rental_uris":{"android":"levelo://app?vid=899d0092-7653-45db-88aa-d3f5eb3a8508","ios":"levelo://app?vid=899d0092-7653-45db-88aa-d3f5eb3a8508"},"vehicle_type_id":"4","last_reported":1706634379,"current_range_meters":26400,"station_id":"","pricing_plan_id":"free"},{"bike_id":"d083ddcd-9308-4ed0-8942-cc0b1b426f90","system_id":"levelo_inurba_marseille","lat":43.306412,"lon":5.401035,"is_reserved":false,"is_disabled":false,"rental_uris":{"android":"levelo://app?vid=d083ddcd-9308-4ed0-8942-cc0b1b426f90","ios":"levelo://app?vid=d083ddcd-9308-4ed0-8942-cc0b1b426f90"},"vehicle_type_id":"4","last_reported":1706634379,"current_range_meters":9200,"station_id":"ce4bh112rcd13ifvqda0","pricing_plan_id":"free"},{"bike_id":"9c533b92-1796-4efa-818b-bce2231c6262","system_id":"levelo_inurba_marseille","lat":43.33777,"lon":5.37437,"is_reserved":false,"is_disabled":false,"rental_uris":{"android":"levelo://app?vid=9c533b92-1796-4efa-818b-bce2231c6262","ios":"levelo://app?vid=9c533b92-1796-4efa-818b-bce2231c6262"},"vehicle_type_id":"4","last_reported":1706634379,"current_range_meters":21200,"station_id":"","pricing_plan_id":"free"},{"bike_id":"1b13fa42-6e5e-409d-ba70-53d1547330af","system_id":"levelo_inurba_marseille","lat":43.28727,"lon":5.36078,"is_reserved":false,"is_disabled":false,"rental_uris":{"android":"levelo://app?vid=1b13fa42-6e5e-409d-ba70-53d1547330af","ios":"levelo://app?vid=1b13fa42-6e5e-409d-ba70-53d1547330af"},"vehicle_type_id":"4","last_reported":1706634379,"current_range_meters":6000,"station_id":"cki0cbj6b192h4jlfktg","pricing_plan_id":"free"},{"bike_id":"0555e4d1-181a-4cf9-a2af-e40de8c12013","system_id":"levelo_inurba_marseille","lat":43.28727,"lon":5.36078,"is_reserved":false,"is_disabled":false,"rental_uris":{"android":"levelo://app?vid=0555e4d1-181a-4cf9-a2af-e40de8c12013","ios":"levelo://app?vid=0555e4d1-181a-4cf9-a2af-e40de8c12013"},"vehicle_type_id":"4","last_reported":1706634379,"current_range_meters":13600,"station_id":"cki0cbj6b192h4jlfktg","pricing_plan_id":"free"},{"bike_id":"e59b1484-294d-4b78-85c7-b0242a7d16d6","system_id":"levelo_inurba_marseille","lat":43.286793,"lon":5.363517,"is_reserved":false,"is_disabled":false,"rental_uris":{"android":"levelo://app?vid=e59b1484-294d-4b78-85c7-b0242a7d16d6","ios":"levelo://app?vid=e59b1484-294d-4b78-85c7-b0242a7d16d6"},"vehicle_type_id":"4","last_reported":1706634379,"current_range_meters":19200,"station_id":"ce4bhah2rcd13ifvqej0","pricing_plan_id":"free"},{"bike_id":"14d0ef62-1764-41e7-af4c-4664d45255ba","system_id":"levelo_inurba_marseille","lat":43.295748,"lon":5.37522,"is_reserved":false,"is_disabled":false,"rental_uris":{"android":"levelo://app?vid=14d0ef62-1764-41e7-af4c-4664d45255ba","ios":"levelo://app?vid=14d0ef62-1764-41e7-af4c-4664d45255ba"},"vehicle_type_id":"4","last_reported":1706634379,"current_range_meters":24800,"station_id":"ce4bgh92rcd13ifvqb50","pricing_plan_id":"free"},{"bike_id":"511598ae-55b2-49ff-8619-e7bcecb3cb58","system_id":"levelo_inurba_marseille","lat":43.298861,"lon":5.397436,"is_reserved":false,"is_disabled":false,"rental_uris":{"android":"levelo://app?vid=511598ae-55b2-49ff-8619-e7bcecb3cb58","ios":"levelo://app?vid=511598ae-55b2-49ff-8619-e7bcecb3cb58"},"vehicle_type_id":"4","last_reported":1706634379,"current_range_meters":29600,"station_id":"ce4bh0h2rcd13ifvqd50","pricing_plan_id":"free"},{"bike_id":"977e181a-c2da-4d5a-8fe0-6946592be227","system_id":"levelo_inurba_marseille","lat":43.298681,"lon":5.397225,"is_reserved":false,"is_disabled":false,"rental_uris":{"android":"levelo://app?vid=977e181a-c2da-4d5a-8fe0-6946592be227","ios":"levelo://app?vid=977e181a-c2da-4d5a-8fe0-6946592be227"},"vehicle_type_id":"4","last_reported":1706634379,"current_range_meters":3600,"station_id":"ce4bh0h2rcd13ifvqd50","pricing_plan_id":"free"},{"bike_id":"b14bf0f9-175f-4bd0-843a-afe614dda8af","system_id":"levelo_inurba_marseille","lat":43.295196,"lon":5.39397,"is_reserved":false,"is_disabled":false,"rental_uris":{"android":"levelo://app?vid=b14bf0f9-175f-4bd0-843a-afe614dda8af","ios":"levelo://app?vid=b14bf0f9-175f-4bd0-843a-afe614dda8af"},"vehicle_type_id":"4","last_reported":1706634379,"current_range_meters":0,"station_id":"ce4bh292rcd13ifvqdf0","pricing_plan_id":"free"},{"bike_id":"7befc0ce-f87f-40da-b0f1-ba8492cc4d36","system_id":"levelo_inurba_marseille","lat":43.286591,"lon":5.363346,"is_reserved":false,"is_disabled":false,"rental_uris":{"android":"levelo://app?vid=7befc0ce-f87f-40da-b0f1-ba8492cc4d36","ios":"levelo://app?vid=7befc0ce-f87f-40da-b0f1-ba8492cc4d36"},"vehicle_type_id":"4","last_reported":1706634379,"current_range_meters":15600,"station_id":"ce4bhah2rcd13ifvqej0","pricing_plan_id":"free"},{"bike_id":"1aa6b0e1-7b65-4d8d-addc-0656b319eb42","system_id":"levelo_inurba_marseille","lat":43.286603,"lon":5.36348,"is_reserved":false,"is_disabled":false,"rental_uris":{"android":"levelo://app?vid=1aa6b0e1-7b65-4d8d-addc-0656b319eb42","ios":"levelo://app?vid=1aa6b0e1-7b65-4d8d-addc-0656b319eb42"},"vehicle_type_id":"4","last_reported":1706634379,"current_range_meters":13600,"station_id":"ce4bhah2rcd13ifvqej0","pricing_plan_id":"free"},{"bike_id":"81677a05-9299-49ad-a2a0-d5e6b35de9c9","system_id":"levelo_inurba_marseille","lat":43.286532,"lon":5.363291,"is_reserved":false,"is_disabled":false,"rental_uris":{"android":"levelo://app?vid=81677a05-9299-49ad-a2a0-d5e6b35de9c9","ios":"levelo://app?vid=81677a05-9299-49ad-a2a0-d5e6b35de9c9"},"vehicle_type_id":"4","last_reported":1706634379,"current_range_meters":22400,"station_id":"ce4bhah2rcd13ifvqej0","pricing_plan_id":"free"},{"bike_id":"217bf2a4-dd81-44c7-8fa4-6d14a457783a","system_id":"levelo_inurba_marseille","lat":43.295196,"lon":5.39397,"is_reserved":false,"is_disabled":false,"rental_uris":{"android":"levelo://app?vid=217bf2a4-dd81-44c7-8fa4-6d14a457783a","ios":"levelo://app?vid=217bf2a4-dd81-44c7-8fa4-6d14a457783a"},"vehicle_type_id":"4","last_reported":1706634379,"current_range_meters":16400,"station_id":"ce4bh292rcd13ifvqdf0","pricing_plan_id":"free"},{"bike_id":"fe3d4167-bcbf-4ba9-a98b-d64908373101","system_id":"levelo_inurba_marseille","lat":43.295194,"lon":5.39397,"is_reserved":false,"is_disabled":false,"rental_uris":{"android":"levelo://app?vid=fe3d4167-bcbf-4ba9-a98b-d64908373101","ios":"levelo://app?vid=fe3d4167-bcbf-4ba9-a98b-d64908373101"},"vehicle_type_id":"4","last_reported":1706634379,"current_range_meters":0,"station_id":"ce4bh292rcd13ifvqdf0","pricing_plan_id":"free"},{"bike_id":"07f60768-7d0e-40d0-bc3d-52cc23e1a7dc","system_id":"levelo_inurba_marseille","lat":43.290345,"lon":5.38646,"is_reserved":false,"is_disabled":false,"rental_uris":{"android":"levelo://app?vid=07f60768-7d0e-40d0-bc3d-52cc23e1a7dc","ios":"levelo://app?vid=07f60768-7d0e-40d0-bc3d-52cc23e1a7dc"},"vehicle_type_id":"4","last_reported":1706634379,"current_range_meters":17600,"station_id":"ce4bh4p2rcd13ifvqe0g","pricing_plan_id":"free"},{"bike_id":"a57c817b-3c6f-462d-bedc-9070cc705a71","system_id":"levelo_inurba_marseille","lat":43.289307,"lon":5.38406,"is_reserved":false,"is_disabled":false,"rental_uris":{"android":"levelo://app?vid=a57c817b-3c6f-462d-bedc-9070cc705a71","ios":"levelo://app?vid=a57c817b-3c6f-462d-bedc-9070cc705a71"},"vehicle_type_id":"4","last_reported":1706634379,"current_range_meters":24400,"station_id":"ce4bh612rcd13ifvqe6g","pricing_plan_id":"free"},{"bike_id":"54c7159c-275c-4d4e-ae49-ee5ab6faae62","system_id":"levelo_inurba_marseille","lat":43.29031,"lon":5.38647,"is_reserved":false,"is_disabled":false,"rental_uris":{"android":"levelo://app?vid=54c7159c-275c-4d4e-ae49-ee5ab6faae62","ios":"levelo://app?vid=54c7159c-275c-4d4e-ae49-ee5ab6faae62"},"vehicle_type_id":"4","last_reported":1706634379,"current_range_meters":1200,"station_id":"","pricing_plan_id":"free"},{"bike_id":"964ada60-a53f-4b23-a6d8-31de977d864d","system_id":"levelo_inurba_marseille","lat":43.302759,"lon":5.400793,"is_reserved":false,"is_disabled":false,"rental_uris":{"android":"levelo://app?vid=964ada60-a53f-4b23-a6d8-31de977d864d","ios":"levelo://app?vid=964ada60-a53f-4b23-a6d8-31de977d864d"},"vehicle_type_id":"4","last_reported":1706634379,"current_range_meters":22400,"station_id":"ce4bgvh2rcd13ifvqcs0","pricing_plan_id":"free"},{"bike_id":"d3eee352-50ad-4fd0-8f8c-e81473ff4fff","system_id":"levelo_inurba_marseille","lat":43.302511,"lon":5.400653,"is_reserved":false,"is_disabled":false,"rental_uris":{"android":"levelo://app?vid=d3eee352-50ad-4fd0-8f8c-e81473ff4fff","ios":"levelo://app?vid=d3eee352-50ad-4fd0-8f8c-e81473ff4fff"},"vehicle_type_id":"4","last_reported":1706634379,"current_range_meters":2800,"station_id":"ce4bgth2rcd13ifvqch0","pricing_plan_id":"free"},{"bike_id":"3d0c4e2d-f943-46cb-9443-3497ff535519","system_id":"levelo_inurba_marseille","lat":43.302759,"lon":5.400793,"is_reserved":false,"is_disabled":false,"rental_uris":{"android":"levelo://app?vid=3d0c4e2d-f943-46cb-9443-3497ff535519","ios":"levelo://app?vid=3d0c4e2d-f943-46cb-9443-3497ff535519"},"vehicle_type_id":"4","last_reported":1706634379,"current_range_meters":6400,"station_id":"ce4bgvh2rcd13ifvqcs0","pricing_plan_id":"free"},{"bike_id":"d04e2683-8eeb-4170-ac02-50dba9e418e4","system_id":"levelo_inurba_marseille","lat":43.286039,"lon":5.370679,"is_reserved":false,"is_disabled":false,"rental_uris":{"android":"levelo://app?vid=d04e2683-8eeb-4170-ac02-50dba9e418e4","ios":"levelo://app?vid=d04e2683-8eeb-4170-ac02-50dba9e418e4"},"vehicle_type_id":"4","last_reported":1706634379,"current_range_meters":12000,"station_id":"ce4bht12rcd13ifvqi60","pricing_plan_id":"free"},{"bike_id":"fe4d202b-02f7-4008-8712-5e7606ac9d59","system_id":"levelo_inurba_marseille","lat":43.286039,"lon":5.370679,"is_reserved":false,"is_disabled":false,"rental_uris":{"android":"levelo://app?vid=fe4d202b-02f7-4008-8712-5e7606ac9d59","ios":"levelo://app?vid=fe4d202b-02f7-4008-8712-5e7606ac9d59"},"vehicle_type_id":"4","last_reported":1706634379,"current_range_meters":27600,"station_id":"ce4bht12rcd13ifvqi60","pricing_plan_id":"free"},{"bike_id":"8f4d0762-e3db-43ad-bf2f-1bf92117a4ed","system_id":"levelo_inurba_marseille","lat":43.286039,"lon":5.370679,"is_reserved":false,"is_disabled":false,"rental_uris":{"android":"levelo://app?vid=8f4d0762-e3db-43ad-bf2f-1bf92117a4ed","ios":"levelo://app?vid=8f4d0762-e3db-43ad-bf2f-1bf92117a4ed"},"vehicle_type_id":"4","last_reported":1706634379,"current_range_meters":27200,"station_id":"ce4bht12rcd13ifvqi60","pricing_plan_id":"free"},{"bike_id":"43b9e1ce-7920-4b22-a974-e32eda02f634","system_id":"levelo_inurba_marseille","lat":43.28605,"lon":5.37067,"is_reserved":false,"is_disabled":false,"rental_uris":{"android":"levelo://app?vid=43b9e1ce-7920-4b22-a974-e32eda02f634","ios":"levelo://app?vid=43b9e1ce-7920-4b22-a974-e32eda02f634"},"vehicle_type_id":"4","last_reported":1706634379,"current_range_meters":27600,"station_id":"","pricing_plan_id":"free"},{"bike_id":"052aedb8-3284-41e6-ab61-386cc99c1c1a","system_id":"levelo_inurba_marseille","lat":43.287185,"lon":5.379373,"is_reserved":false,"is_disabled":false,"rental_uris":{"android":"levelo://app?vid=052aedb8-3284-41e6-ab61-386cc99c1c1a","ios":"levelo://app?vid=052aedb8-3284-41e6-ab61-386cc99c1c1a"},"vehicle_type_id":"4","last_reported":1706634379,"current_range_meters":0,"station_id":"ce4bh9p2rcd13ifvqec0","pricing_plan_id":"free"},{"bike_id":"cda0563a-42fc-473e-b153-5fcb343d6b15","system_id":"levelo_inurba_marseille","lat":43.28523,"lon":5.37382,"is_reserved":false,"is_disabled":false,"rental_uris":{"android":"levelo://app?vid=cda0563a-42fc-473e-b153-5fcb343d6b15","ios":"levelo://app?vid=cda0563a-42fc-473e-b153-5fcb343d6b15"},"vehicle_type_id":"4","last_reported":1706634379,"current_range_meters":14800,"station_id":"","pricing_plan_id":"free"},{"bike_id":"09991aa0-3638-4eaa-99b7-f095b048a0cf","system_id":"levelo_inurba_marseille","lat":43.284534,"lon":5.358662,"is_reserved":false,"is_disabled":false,"rental_uris":{"android":"levelo://app?vid=09991aa0-3638-4eaa-99b7-f095b048a0cf","ios":"levelo://app?vid=09991aa0-3638-4eaa-99b7-f095b048a0cf"},"vehicle_type_id":"4","last_reported":1706634379,"current_range_meters":14400,"station_id":"ce4bhah2rcd13ifvqei0","pricing_plan_id":"free"},{"bike_id":"f7484cd4-ff49-46dc-92e9-225670c0bbe6","system_id":"levelo_inurba_marseille","lat":43.28462,"lon":5.35895,"is_reserved":false,"is_disabled":false,"rental_uris":{"android":"levelo://app?vid=f7484cd4-ff49-46dc-92e9-225670c0bbe6","ios":"levelo://app?vid=f7484cd4-ff49-46dc-92e9-225670c0bbe6"},"vehicle_type_id":"4","last_reported":1706634379,"current_range_meters":14800,"station_id":"ce4bhah2rcd13ifvqei0","pricing_plan_id":"free"},{"bike_id":"32d96b1d-4db0-4436-8c41-03f2afa5164c","system_id":"levelo_inurba_marseille","lat":43.284622,"lon":5.358888,"is_reserved":false,"is_disabled":false,"rental_uris":{"android":"levelo://app?vid=32d96b1d-4db0-4436-8c41-03f2afa5164c","ios":"levelo://app?vid=32d96b1d-4db0-4436-8c41-03f2afa5164c"},"vehicle_type_id":"4","last_reported":1706634379,"current_range_meters":24000,"station_id":"ce4bhah2rcd13ifvqei0","pricing_plan_id":"free"},{"bike_id":"366819eb-6375-4a2e-b466-ca076395720e","system_id":"levelo_inurba_marseille","lat":43.28461,"lon":5.35891,"is_reserved":false,"is_disabled":false,"rental_uris":{"android":"levelo://app?vid=366819eb-6375-4a2e-b466-ca076395720e","ios":"levelo://app?vid=366819eb-6375-4a2e-b466-ca076395720e"},"vehicle_type_id":"4","last_reported":1706634379,"current_range_meters":0,"station_id":"ce4bhah2rcd13ifvqei0","pricing_plan_id":"free"},{"bike_id":"e4a68c84-a477-4060-9fdd-7bd31ef7d1ba","system_id":"levelo_inurba_marseille","lat":43.28459,"lon":5.35894,"is_reserved":false,"is_disabled":false,"rental_uris":{"android":"levelo://app?vid=e4a68c84-a477-4060-9fdd-7bd31ef7d1ba","ios":"levelo://app?vid=e4a68c84-a477-4060-9fdd-7bd31ef7d1ba"},"vehicle_type_id":"4","last_reported":1706634379,"current_range_meters":23200,"station_id":"ce4bhah2rcd13ifvqei0","pricing_plan_id":"free"},{"bike_id":"6e049794-afe4-448e-a566-a812d8a6af54","system_id":"levelo_inurba_marseille","lat":43.284534,"lon":5.358662,"is_reserved":false,"is_disabled":false,"rental_uris":{"android":"levelo://app?vid=6e049794-afe4-448e-a566-a812d8a6af54","ios":"levelo://app?vid=6e049794-afe4-448e-a566-a812d8a6af54"},"vehicle_type_id":"4","last_reported":1706634379,"current_range_meters":15600,"station_id":"ce4bhah2rcd13ifvqei0","pricing_plan_id":"free"},