{"last_updated":1784869801,"ttl":60,"version":"2.2","data":{"bikes":[{"bike_id":"7ef36254-6bb3-448c-8d77-979d957d54b6","system_id":"levelo_inurba_marseille","lat":43.337444,"lon":5.374475,"is_reserved":false,"is_disabled":false,"rental_uris":{"android":"levelo://app?vid=7ef36254-6bb3-448c-8d77-979d957d54b6","ios":"levelo://app?vid=7ef36254-6bb3-448c-8d77-979d957d54b6"},"vehicle_type_id":"4","last_reported":1784869802,"current_range_meters":0,"station_id":"","pricing_plan_id":"cebpf4jnsgd1na2vs0mg"},{"bike_id":"21fe2e98-0432-4b40-a81f-10dd00b0f57d","system_id":"levelo_inurba_marseille","lat":43.337444,"lon":5.374475,"is_reserved":false,"is_disabled":false,"rental_uris":{"android":"levelo://app?vid=21fe2e98-0432-4b40-a81f-10dd00b0f57d","ios":"levelo://app?vid=21fe2e98-0432-4b40-a81f-10dd00b0f57d"},"vehicle_type_id":"4","last_reported":1784869802,"current_range_meters":0,"station_id":"","pricing_plan_id":"cebpf4jnsgd1na2vs0mg"},{"bike_id":"df7929a5-2b0c-4c4a-9607-4bd34960b2e8","system_id":"levelo_inurba_marseille","lat":43.21196,"lon":5.35076,"is_reserved":false,"is_disabled":false,"rental_uris":{"android":"levelo://app?vid=df7929a5-2b0c-4c4a-9607-4bd34960b2e8","ios":"levelo://app?vid=df7929a5-2b0c-4c4a-9607-4bd34960b2e8"},"vehicle_type_id":"4","last_reported":1784869802,"current_range_meters":6800,"station_id":"st_cvj6sg6p6f1abm77japg","pricing_plan_id":"cebpf4jnsgd1na2vs0mg"},{"bike_id":"19183c47-3219-4bc8-b0a5-33a0541148d1","system_id":"levelo_inurba_marseille","lat":43.23195,"lon":5.35566,"is_reserved":false,"is_disabled":false,"rental_uris":{"android":"levelo://app?vid=19183c47-3219-4bc8-b0a5-33a0541148d1","ios":"levelo://app?vid=19183c47-3219-4bc8-b0a5-33a0541148d1"},"vehicle_type_id":"4","last_reported":1784869802,"current_range_meters":29600,"station_id":"ce4bhu92rcd13ifvqi70","pricing_plan_id":"cebpf4jnsgd1na2vs0mg"},{"bike_id":"3cadf8f2-d89c-4f2b-bad2-a91b4b0a800a","system_id":"levelo_inurba_marseille","lat":43.30282,"lon":5.40361,"is_reserved":false,"is_disabled":false,"rental_uris":{"android":"levelo://app?vid=3cadf8f2-d89c-4f2b-bad2-a91b4b0a800a","ios":"levelo://app?vid=3cadf8f2-d89c-4f2b-bad2-a91b4b0a800a"},"vehicle_type_id":"4","last_reported":1784869802,"current_range_meters":11600,"station_id":"","pricing_plan_id":"cebpf4jnsgd1na2vs0mg"},{"bike_id":"aa05f9f3-0133-4755-8a02-0d4a93e70324","system_id":"levelo_inurba_marseille","lat":43.24648,"lon":5.38142,"is_reserved":false,"is_disabled":false,"rental_uris":{"android":"levelo://app?vid=aa05f9f3-0133-4755-8a02-0d4a93e70324","ios":"levelo://app?vid=aa05f9f3-0133-4755-8a02-0d4a93e70324"},"vehicle_type_id":"4","last_reported":1784869802,"current_range_meters":28000,"station_id":"ce4bhih2rcd13ifvqfr0","pricing_plan_id":"cebpf4jnsgd1na2vs0mg"},{"bike_id":"0d81eb71-c2a3-4a0b-ae1e-331c9582a1f6","system_id":"levelo_inurba_marseille","lat":43.26061,"lon":5.39377,"is_reserved":false,"is_disabled":false,"rental_uris":{"android":"levelo://app?vid=0d81eb71-c2a3-4a0b-ae1e-331c9582a1f6","ios":"levelo://app?vid=0d81eb71-c2a3-4a0b-ae1e-331c9582a1f6"},"vehicle_type_id":"4","last_reported":1784869802,"current_range_meters":38800,"station_id":"ce4bhh92rcd13ifvqfj0","pricing_plan_id":"cebpf4jnsgd1na2vs0mg"},{"bike_id":"f2c26268-2002-48c9-a2f8-8f76ed8a8540","system_id":"levelo_inurba_marseille","lat":43.23902,"lon":5.37458,"is_reserved":false,"is_disabled":false,"rental_uris":{"android":"levelo://app?vid=f2c26268-2002-48c9-a2f8-8f76ed8a8540","ios":"levelo://app?vid=f2c26268-2002-48c9-a2f8-8f76ed8a8540"},"vehicle_type_id":"4","last_reported":1784869802,"current_range_meters":36000,"station_id":"st_d6sm7csbq4hs73f8fpjg","pricing_plan_id":"cebpf4jnsgd1na2vs0mg"},{"bike_id":"72706276-fb69-4388-946e-2b4fb06a5929","system_id":"levelo_inurba_marseille","lat":43.33058,"lon":5.39048,"is_reserved":false,"is_disabled":false,"rental_uris":{"android":"levelo://app?vid=72706276-fb69-4388-946e-2b4fb06a5929","ios":"levelo://app?vid=72706276-fb69-4388-946e-2b4fb06a5929"},"vehicle_type_id":"4","last_reported":1784869802,"current_range_meters":37600,"station_id":"ce4bhr92rcd13ifvqhrg","pricing_plan_id":"cebpf4jnsgd1na2vs0mg"},{"bike_id":"21c2f62d-2eda-483f-a265-cf38606bdc6a","system_id":"levelo_inurba_marseille","lat":43.33596,"lon":5.41019,"is_reserved":false,"is_disabled":false,"rental_uris":{"android":"levelo://app?vid=21c2f62d-2eda-483f-a265-cf38606bdc6a","ios":"levelo://app?vid=21c2f62d-2eda-483f-a265-cf38606bdc6a"},"vehicle_type_id":"4","last_reported":1784869802,"current_range_meters":38400,"station_id":"ce4bhqh2rcd13ifvqhmg","pricing_plan_id":"cebpf4jnsgd1na2vs0mg"},{"bike_id":"bf903d1b-6c38-4606-83e9-2c926ea1b37f","system_id":"levelo_inurba_marseille","lat":43.30776,"lon":5.38202,"is_reserved":false,"is_disabled":false,"rental_uris":{"android":"levelo://app?vid=bf903d1b-6c38-4606-83e9-2c926ea1b37f","ios":"levelo://app?vid=bf903d1b-6c38-4606-83e9-2c926ea1b37f"},"vehicle_type_id":"4","last_reported":1784869802,"current_range_meters":30800,"station_id":"ce4bgt12rcd13ifvqce0","pricing_plan_id":"cebpf4jnsgd1na2vs0mg"},{"bike_id":"366dad70-8027-4523-8561-ac1c2024dbc0","system_id":"levelo_inurba_marseille","lat":43.24386,"lon":5.37058,"is_reserved":false,"is_disabled":false,"rental_uris":{"android":"levelo://app?vid=366dad70-8027-4523-8561-ac1c2024dbc0","ios":"levelo://app?vid=366dad70-8027-4523-8561-ac1c2024dbc0"},"vehicle_type_id":"4","last_reported":1784869802,"current_range_meters":28800,"station_id":"ce4bhhh2rcd13ifvqfk0","pricing_plan_id":"cebpf4jnsgd1na2vs0mg"},{"bike_id":"bd754ac2-676b-4c0f-986f-3881e84751be","system_id":"levelo_inurba_marseille","lat":43.265,"lon":5.39566,"is_reserved":false,"is_disabled":false,"rental_uris":{"android":"levelo://app?vid=bd754ac2-676b-4c0f-986f-3881e84751be","ios":"levelo://app?vid=bd754ac2-676b-4c0f-986f-3881e84751be"},"vehicle_type_id":"4","last_reported":1784869802,"current_range_meters":39200,"station_id":"ce4bhi12rcd13ifvqfq0","pricing_plan_id":"cebpf4jnsgd1na2vs0mg"},{"bike_id":"a1550354-2d97-44b7-8224-d712a77cbb75","system_id":"levelo_inurba_marseille","lat":43.21728,"lon":5.3463,"is_reserved":false,"is_disabled":false,"rental_uris":{"android":"levelo://app?vid=a1550354-2d97-44b7-8224-d712a77cbb75","ios":"levelo://app?vid=a1550354-2d97-44b7-8224-d712a77cbb75"},"vehicle_type_id":"4","last_reported":1784869802,"current_range_meters":27200,"station_id":"st_cvj6r9ubvosntc0bgbag","pricing_plan_id":"cebpf4jnsgd1na2vs0mg"},{"bike_id":"3cc97a53-d102-483f-90b5-fca36af42d3a","system_id":"levelo_inurba_marseille","lat":43.2495,"lon":5.40496,"is_reserved":false,"is_disabled":false,"rental_uris":{"android":"levelo://app?vid=3cc97a53-d102-483f-90b5-fca36af42d3a","ios":"levelo://app?vid=3cc97a53-d102-483f-90b5-fca36af42d3a"},"vehicle_type_id":"4","last_reported":1784869802,"current_range_meters":8800,"station_id":"st_d2ngiaodas8pm72gd1h0","pricing_plan_id":"cebpf4jnsgd1na2vs0mg"},{"bike_id":"e24ed8ae-d667-4ff5-84f6-2ab84bbfb978","system_id":"levelo_inurba_marseille","lat":43.28977,"lon":5.37867,"is_reserved":false,"is_disabled":false,"rental_uris":{"android":"levelo://app?vid=e24ed8ae-d667-4ff5-84f6-2ab84bbfb978","ios":"levelo://app?vid=e24ed8ae-d667-4ff5-84f6-2ab84bbfb978"},"vehicle_type_id":"4","last_reported":1784869802,"current_range_meters":38400,"station_id":"ce4bh9p2rcd13ifvqed0","pricing_plan_id":"cebpf4jnsgd1na2vs0mg"},{"bike_id":"e40092d8-e809-444f-887b-ec2d97cdda0b","system_id":"levelo_inurba_marseille","lat":43.30304,"lon":5.39223,"is_reserved":false,"is_disabled":true,"rental_uris":{"android":"levelo://app?vid=e40092d8-e809-444f-887b-ec2d97cdda0b","ios":"levelo://app?vid=e40092d8-e809-444f-887b-ec2d97cdda0b"},"vehicle_type_id":"4","last_reported":1784869802,"current_range_meters":33200,"station_id":"ce4bgkh2rcd13ifvqbk0","pricing_plan_id":"cebpf4jnsgd1na2vs0mg"},{"bike_id":"c1f9063f-d4f2-40b6-8808-57755231c750","system_id":"levelo_inurba_marseille","lat":43.30516,"lon":5.40228,"is_reserved":false,"is_disabled":false,"rental_uris":{"android":"levelo://app?vid=c1f9063f-d4f2-40b6-8808-57755231c750","ios":"levelo://app?vid=c1f9063f-d4f2-40b6-8808-57755231c750"},"vehicle_type_id":"4","last_reported":1784869802,"current_range_meters":32800,"station_id":"","pricing_plan_id":"cebpf4jnsgd1na2vs0mg"},{"bike_id":"c9eb3249-8ffb-4e8d-a645-fa0f460d77bd","system_id":"levelo_inurba_marseille","lat":43.24368,"lon":5.37089,"is_reserved":false,"is_disabled":false,"rental_uris":{"android":"levelo://app?vid=c9eb3249-8ffb-4e8d-a645-fa0f460d77bd","ios":"levelo://app?vid=c9eb3249-8ffb-4e8d-a645-fa0f460d77bd"},"vehicle_type_id":"4","last_reported":1784869802,"current_range_meters":38800,"station_id":"ce4bhhh2rcd13ifvqfk0","pricing_plan_id":"cebpf4jnsgd1na2vs0mg"},{"bike_id":"6f0249ca-8f01-4c84-ab4f-182af8088576","system_id":"levelo_inurba_marseille","lat":43.27826,"lon":5.39202,"is_reserved":false,"is_disabled":false,"rental_uris":{"android":"levelo://app?vid=6f0249ca-8f01-4c84-ab4f-182af8088576","ios":"levelo://app?vid=6f0249ca-8f01-4c84-ab4f-182af8088576"},"vehicle_type_id":"4","last_reported":1784869802,"current_range_meters":39200,"station_id":"ce4bhjp2rcd13ifvqga0","pricing_plan_id":"cebpf4jnsgd1na2vs0mg"},{"bike_id":"242213bb-864e-4d09-97c6-4a2d8732de8f","system_id":"levelo_inurba_marseille","lat":43.24173,"lon":5.36392,"is_reserved":false,"is_disabled":false,"rental_uris":{"android":"levelo://app?vid=242213bb-864e-4d09-97c6-4a2d8732de8f","ios":"levelo://app?vid=242213bb-864e-4d09-97c6-4a2d8732de8f"},"vehicle_type_id":"4","last_reported":1784869802,"current_range_meters":24000,"station_id":"cpo36qri1sfpv3e86is0","pricing_plan_id":"cebpf4jnsgd1na2vs0mg"},{"bike_id":"ab58157a-3ed3-449e-8c7b-dac422b5c1be","system_id":"levelo_inurba_marseille","lat":43.29193,"lon":5.39332,"is_reserved":false,"is_disabled":false,"rental_uris":{"android":"levelo://app?vid=ab58157a-3ed3-449e-8c7b-dac422b5c1be","ios":"levelo://app?vid=ab58157a-3ed3-449e-8c7b-dac422b5c1be"},"vehicle_type_id":"4","last_reported":1784869802,"current_range_meters":34800,"station_id":"ce4bh192rcd13ifvqdd0","pricing_plan_id":"cebpf4jnsgd1na2vs0mg"},{"bike_id":"7a25661d-00e2-4d39-8221-f790de799907","system_id":"levelo_inurba_marseille","lat":43.31127,"lon":5.37742,"is_reserved":false,"is_disabled":false,"rental_uris":{"android":"levelo://app?vid=7a25661d-00e2-4d39-8221-f790de799907","ios":"levelo://app?vid=7a25661d-00e2-4d39-8221-f790de799907"},"vehicle_type_id":"4","last_reported":1784869802,"current_range_meters":28000,"station_id":"ce4bgt92rcd13ifvqcg0","pricing_plan_id":"cebpf4jnsgd1na2vs0mg"},{"bike_id":"9011e43c-7244-4048-8746-efaefd9d46e2","system_id":"levelo_inurba_marseille","lat":43.28445,"lon":5.39195,"is_reserved":false,"is_disabled":false,"rental_uris":{"android":"levelo://app?vid=9011e43c-7244-4048-8746-efaefd9d46e2","ios":"levelo://app?vid=9011e43c-7244-4048-8746-efaefd9d46e2"},"vehicle_type_id":"4","last_reported":1784869802,"current_range_meters":39200,"station_id":"ce4bhoh2rcd13ifvqh5g","pricing_plan_id":"cebpf4jnsgd1na2vs0mg"},{"bike_id":"f0aae2ad-c3aa-44a5-a01e-5fa4299ba265","system_id":"levelo_inurba_marseille","lat":43.29902,"lon":5.43625,"is_reserved":false,"is_disabled":false,"rental_uris":{"android":"levelo://app?vid=f0aae2ad-c3aa-44a5-a01e-5fa4299ba265","ios":"levelo://app?vid=f0aae2ad-c3aa-44a5-a01e-5fa4299ba265"},"vehicle_type_id":"4","last_reported":1784869802,"current_range_meters":38400,"station_id":"ce4bhpp2rcd13ifvqhfg","pricing_plan_id":"cebpf4jnsgd1na2vs0mg"},{"bike_id":"60f42b7c-9877-48c2-b89a-a761fa384da1","system_id":"levelo_inurba_marseille","lat":43.28866,"lon":5.39307,"is_reserved":false,"is_disabled":false,"rental_uris":{"android":"levelo://app?vid=60f42b7c-9877-48c2-b89a-a761fa384da1","ios":"levelo://app?vid=60f42b7c-9877-48c2-b89a-a761fa384da1"},"vehicle_type_id":"4","last_reported":1784869802,"current_range_meters":33600,"station_id":"ce4bh2p2rcd13ifvqdi0","pricing_plan_id":"cebpf4jnsgd1na2vs0mg"},{"bike_id":"b70f2f12-3550-4a9e-a06f-e73e09e2ebe9","system_id":"levelo_inurba_marseille","lat":43.28584,"lon":5.37463,"is_reserved":false,"is_disabled":false,"rental_uris":{"android":"levelo://app?vid=b70f2f12-3550-4a9e-a06f-e73e09e2ebe9","ios":"levelo://app?vid=b70f2f12-3550-4a9e-a06f-e73e09e2ebe9"},"vehicle_type_id":"4","last_reported":1784869802,"current_range_meters":17600,"station_id":"","pricing_plan_id":"cebpf4jnsgd1na2vs0mg"},{"bike_id":"089eb661-c958-4e40-898d-0fb3338dd468","system_id":"levelo_inurba_marseille","lat":43.2495,"lon":5.40509,"is_reserved":false,"is_disabled":false,"rental_uris":{"android":"levelo://app?vid=089eb661-c958-4e40-898d-0fb3338dd468","ios":"levelo://app?vid=089eb661-c958-4e40-898d-0fb3338dd468"},"vehicle_type_id":"4","last_reported":1784869802,"current_range_meters":17200,"station_id":"st_d2ngiaodas8pm72gd1h0","pricing_plan_id":"cebpf4jnsgd1na2vs0mg"},{"bike_id":"5813bf8e-678d-489d-9551-be44b3d856b8","system_id":"levelo_inurba_marseille","lat":43.28616,"lon":5.39445,"is_reserved":false,"is_disabled":false,"rental_uris":{"android":"levelo://app?vid=5813bf8e-678d-489d-9551-be44b3d856b8","ios":"levelo://app?vid=5813bf8e-678d-489d-9551-be44b3d856b8"},"vehicle_type_id":"4","last_reported":1784869802,"current_range_meters":39200,"station_id":"ce4bh292rcd13ifvqdg0","pricing_plan_id":"cebpf4jnsgd1na2vs0mg"},{"bike_id":"73919b79-a8d3-4bbd-8e16-5e45b4d71038","system_id":"levelo_inurba_marseille","lat":43.28374,"lon":5.3863,"is_reserved":false,"is_disabled":false,"rental_uris":{"android":"levelo://app?vid=73919b79-a8d3-4bbd-8e16-5e45b4d71038","ios":"levelo://app?vid=73919b79-a8d3-4bbd-8e16-5e45b4d71038"},"vehicle_type_id":"4","last_reported":1784869802,"current_range_meters":37600,"station_id":"ce4bh492rcd13ifvqdvg","pricing_plan_id":"cebpf4jnsgd1na2vs0mg"},{"bike_id":"49b9d945-38ee-43be-99d9-e21da26a5f9c","system_id":"levelo_inurba_marseille","lat":43.2954,"lon":5.38535,"is_reserved":false,"is_disabled":true,"rental_uris":{"android":"levelo://app?vid=49b9d945-38ee-43be-99d9-e21da26a5f9c","ios":"levelo://app?vid=49b9d945-38ee-43be-99d9-e21da26a5f9c"},"vehicle_type_id":"4","last_reported":1784869802,"current_range_meters":0,"station_id":"ce4bgih2rcd13ifvqba0","pricing_plan_id":"cebpf4jnsgd1na2vs0mg"},{"bike_id":"2154fcce-4dae-44fd-8c16-6859e119f377","system_id":"levelo_inurba_marseille","lat":43.23972,"lon":5.36612,"is_reserved":false,"is_disabled":false,"rental_uris":{"android":"levelo://app?vid=2154fcce-4dae-44fd-8c16-6859e119f377","ios":"levelo://app?vid=2154fcce-4dae-44fd-8c16-6859e119f377"},"vehicle_type_id":"4","last_reported":1784869802,"current_range_meters":18800,"station_id":"ce4bhi12rcd13ifvqfp0","pricing_plan_id":"cebpf4jnsgd1na2vs0mg"},{"bike_id":"2ab74caf-5b6a-4a05-8144-6b6122598b07","system_id":"levelo_inurba_marseille","lat":43.27947,"lon":5.39555,"is_reserved":false,"is_disabled":false,"rental_uris":{"android":"levelo://app?vid=2ab74caf-5b6a-4a05-8144-6b6122598b07","ios":"levelo://app?vid=2ab74caf-5b6a-4a05-8144-6b6122598b07"},"vehicle_type_id":"4","last_reported":1784869802,"current_range_meters":39200,"station_id":"ce4bhf92rcd13ifvqf40","pricing_plan_id":"cebpf4jnsgd1na2vs0mg"},{"bike_id":"a338cea5-f797-4d31-b718-3121663ee29c","system_id":"levelo_inurba_marseille","lat":43.30455,"lon":5.37912,"is_reserved":false,"is_disabled":false,"rental_uris":{"android":"levelo://app?vid=a338cea5-f797-4d31-b718-3121663ee29c","ios":"levelo://app?vid=a338cea5-f797-4d31-b718-3121663ee29c"},"vehicle_type_id":"4","last_reported":1784869802,"current_range_meters":28000,"station_id":"ce4bgup2rcd13ifvqcn0","pricing_plan_id":"cebpf4jnsgd1na2vs0mg"},{"bike_id":"12120ca4-ddbe-4dd9-9a56-21f3ef150aee","system_id":"levelo_inurba_marseille","lat":43.30314,"lon":5.37301,"is_reserved":false,"is_disabled":false,"rental_uris":{"android":"levelo://app?vid=12120ca4-ddbe-4dd9-9a56-21f3ef150aee","ios":"levelo://app?vid=12120ca4-ddbe-4dd9-9a56-21f3ef150aee"},"vehicle_type_id":"4","last_reported":1784869802,"current_range_meters":3200,"station_id":"","pricing_plan_id":"cebpf4jnsgd1na2vs0mg"},{"bike_id":"868a73d7-f636-4ae4-90b6-35a4e9f34adb","system_id":"levelo_inurba_marseille","lat":43.25865,"lon":5.39899,"is_reserved":false,"is_disabled":false,"rental_uris":{"android":"levelo://app?vid=868a73d7-f636-4ae4-90b6-35a4e9f34adb","ios":"levelo://app?vid=868a73d7-f636-4ae4-90b6-35a4e9f34adb"},"vehicle_type_id":"4","last_reported":1784869802,"current_range_meters":39200,"station_id":"ce4bhl92rcd13ifvqghg","pricing_plan_id":"cebpf4jnsgd1na2vs0mg"},{"bike_id":"524ee0fa-65b1-4631-9156-cfe67672d345","system_id":"levelo_inurba_marseille","lat":43.28359,"lon":5.38115,"is_reserved":false,"is_disabled":false,"rental_uris":{"android":"levelo://app?vid=524ee0fa-65b1-4631-9156-cfe67672d345","ios":"levelo://app?vid=524ee0fa-65b1-4631-9156-cfe67672d345"},"vehicle_type_id":"4","last_reported":1784869802,"current_range_meters":33200,"station_id":"ce4bh412rcd13ifvqdr0","pricing_plan_id":"cebpf4jnsgd1na2vs0mg"},{"bike_id":"a7c9489a-3c37-4218-bc38-92c335aa3a8a","system_id":"levelo_inurba_marseille","lat":43.28487,"lon":5.48385,"is_reserved":false,"is_disabled":false,"rental_uris":{"android":"levelo://app?vid=a7c9489a-3c37-4218-bc38-92c335aa3a8a","ios":"levelo://app?vid=a7c9489a-3c37-4218-bc38-92c335aa3a8a"},"vehicle_type_id":"4","last_reported":1784869802,"current_range_meters":38000,"station_id":"st_d3svhcjqgbts73a3dn0g","pricing_plan_id":"cebpf4jnsgd1na2vs0mg"},{"bike_id":"e15f52d6-e2ed-405f-bb0a-647ddc6cd40c","system_id":"levelo_inurba_marseille","lat":43.23168,"lon":5.35615,"is_reserved":false,"is_disabled":false,"rental_uris":{"android":"levelo://app?vid=e15f52d6-e2ed-405f-bb0a-647ddc6cd40c","ios":"levelo://app?vid=e15f52d6-e2ed-405f-bb0a-647ddc6cd40c"},"vehicle_type_id":"4","last_reported":1784869802,"current_range_meters":25200,"station_id":"","pricing_plan_id":"cebpf4jnsgd1na2vs0mg"},{"bike_id":"5cff521d-e56c-454d-826a-0744044e80ba","system_id":"levelo_inurba_marseille","lat":43.28579,"lon":5.39475,"is_reserved":false,"is_disabled":false,"rental_uris":{"android":"levelo://app?vid=5cff521d-e56c-454d-826a-0744044e80ba","ios":"levelo://app?vid=5cff521d-e56c-454d-826a-0744044e80ba"},"vehicle_type_id":"4","last_reported":1784869802,"current_range_meters":38000,"station_id":"ce4bh292rcd13ifvqdg0","pricing_plan_id":"cebpf4jnsgd1na2vs0mg"},{"bike_id":"bba63bab-642c-4347-b81b-d288023323bb","system_id":"levelo_inurba_marseille","lat":43.25346,"lon":5.42168,"is_reserved":false,"is_disabled":false,"rental_uris":{"android":"levelo://app?vid=bba63bab-642c-4347-b81b-d288023323bb","ios":"levelo://app?vid=bba63bab-642c-4347-b81b-d288023323bb"},"vehicle_type_id":"4","last_reported":1784869802,"current_range_meters":28800,"station_id":"st_d2m65c5bi1j21697t3ng","pricing_plan_id":"cebpf4jnsgd1na2vs0mg"},{"bike_id":"3d3363f1-b079-4e13-899e-dbc693f0dea6","system_id":"levelo_inurba_marseille","lat":43.27493,"lon":5.42455,"is_reserved":false,"is_disabled":false,"rental_uris":{"android":"levelo://app?vid=3d3363f1-b079-4e13-899e-dbc693f0dea6","ios":"levelo://app?vid=3d3363f1-b079-4e13-899e-dbc693f0dea6"},"vehicle_type_id":"4","last_reported":1784869802,"current_range_meters":37600,"station_id":"ce4bhn92rcd13ifvqgrg","pricing_plan_id":"cebpf4jnsgd1na2vs0mg"},{"bike_id":"aabbe762-d4a8-4548-8474-3f6b38d39d55","system_id":"levelo_inurba_marseille","lat":43.2963,"lon":5.40597,"is_reserved":false,"is_disabled":false,"rental_uris":{"android":"levelo://app?vid=aabbe762-d4a8-4548-8474-3f6b38d39d55","ios":"levelo://app?vid=aabbe762-d4a8-4548-8474-3f6b38d39d55"},"vehicle_type_id":"4","last_reported":1784869802,"current_range_meters":16400,"station_id":"ce4bh0h2rcd13ifvqd60","pricing_plan_id":"cebpf4jnsgd1na2vs0mg"},{"bike_id":"5aa3ca14-34f8-4cf6-bf98-84664ad40ed9","system_id":"levelo_inurba_marseille","lat":43.32365,"lon":5.38875,"is_reserved":false,"is_disabled":false,"rental_uris":{"android":"levelo://app?vid=5aa3ca14-34f8-4cf6-bf98-84664ad40ed9","ios":"levelo://app?vid=5aa3ca14-34f8-4cf6-bf98-84664ad40ed9"},"vehicle_type_id":"4","last_reported":1784869802,"current_range_meters":38400,"station_id":"ce4bhqp2rcd13ifvqhog","pricing_plan_id":"cebpf4jnsgd1na2vs0mg"},{"bike_id":"ebe3688b-3317-4ac3-8a73-8cb55ca89acc","system_id":"levelo_inurba_marseille","lat":43.24659,"lon":5.38889,"is_reserved":false,"is_disabled":false,"rental_uris":{"android":"levelo://app?vid=ebe3688b-3317-4ac3-8a73-8cb55ca89acc","ios":"levelo://app?vid=ebe3688b-3317-4ac3-8a73-8cb55ca89acc"},"vehicle_type_id":"4","last_reported":1784869802,"current_range_meters":36800,"station_id":"ce4bhg12rcd13ifvqf60","pricing_plan_id":"cebpf4jnsgd1na2vs0mg"},{"bike_id":"43417b6c-d38b-474f-b5b8-9d99cedaedd8","system_id":"levelo_inurba_marseille","lat":43.23973,"lon":5.36605,"is_reserved":false,"is_disabled":false,"rental_uris":{"android":"levelo://app?vid=43417b6c-d38b-474f-b5b8-9d99cedaedd8","ios":"levelo://app?vid=43417b6c-d38b-474f-b5b8-9d99cedaedd8"},"vehicle_type_id":"4","last_reported":1784869802,"current_range_meters":18800,"station_id":"ce4bhi12rcd13ifvqfp0","pricing_plan_id":"cebpf4jnsgd1na2vs0mg"},{"bike_id":"b2d75a74-474c-4d60-b28a-be72388bfec4","system_id":"levelo_inurba_marseille","lat":43.29964,"lon":5.38494,"is_reserved":false,"is_disabled":false,"rental_uris":{"android":"levelo://app?vid=b2d75a74-474c-4d60-b28a-be72388bfec4","ios":"levelo://app?vid=b2d75a74-474c-4d60-b28a-be72388bfec4"},"vehicle_type_id":"4","last_reported":1784869802,"current_range_meters":29600,"station_id":"ce4bgj92rcd13ifvqbd0","pricing_plan_id":"cebpf4jnsgd1na2vs0mg"},{"bike_id":"8b48f329-937d-4f33-bc8e-cc3992c67190","system_id":"levelo_inurba_marseille","lat":43.29618,"lon":5.37154,"is_reserved":false,"is_disabled":true,"rental_uris":{"android":"levelo://app?vid=8b48f329-937d-4f33-bc8e-cc3992c67190","ios":"levelo://app?vid=8b48f329-937d-4f33-bc8e-cc3992c67190"},"vehicle_type_id":"4","last_reported":1784869802,"current_range_meters":30000,"station_id":"","pricing_plan_id":"cebpf4jnsgd1na2vs0mg"},{"bike_id":"0da6b8e4-5a4c-4834-a2bc-c7a3d4cb2b87","system_id":"levelo_inurba_marseille","lat":43.31072,"lon":5.42531,"is_reserved":false,"is_disabled":false,"rental_uris":{"android":"levelo://app?vid=0da6b8e4-5a4c-4834-a2bc-c7a3d4cb2b87","ios":"levelo://app?vid=0da6b8e4-5a4c-4834-a2bc-c7a3d4cb2b87"},"vehicle_type_id":"4","last_reported":1784869802,"current_range_meters":33200,"station_id":"","pricing_plan_id":"cebpf4jnsgd1na2vs0mg"},{"bike_id":"d2727abe-f88d-4694-aa0e-25d6380f2a66","system_id":"levelo_inurba_marseille","lat":43.26784,"lon":5.39416,"is_reserved":false,"is_disabled":false,"rental_uris":{"android":"levelo://app?vid=d2727abe-f88d-4694-aa0e-25d6380f2a66","ios":"levelo://app?vid=d2727abe-f88d-4694-aa0e-25d6380f2a66"},"vehicle_type_id":"4","last_reported":1784869802,"current_range_meters":30400,"station_id":"ce4bhh12rcd13ifvqfg0","pricing_plan_id":"cebpf4jnsgd1na2vs0mg"},{"bike_id":"b62c6f43-d381-4900-8a07-23d79aaa3392","system_id":"levelo_inurba_marseille","lat":43.2955,"lon":5.4227,"is_reserved":false,"is_disabled":false,"rental_uris":{"android":"levelo://app?vid=b62c6f43-d381-4900-8a07-23d79aaa3392","ios":"levelo://app?vid=b62c6f43-d381-4900-8a07-23d79aaa3392"},"vehicle_type_id":"4","last_reported":1784869802,"current_range_meters":39200,"station_id":"ce4bhph2rcd13ifvqhdg","pricing_plan_id":"cebpf4jnsgd1na2vs0mg"},{"bike_id":"72643f02-cd1d-40db-9770-e63e37d04b2c","system_id":"levelo_inurba_marseille","lat":43.27847,"lon":5.36308,"is_reserved":false,"is_disabled":false,"rental_uris":{"android":"levelo://app?vid=72643f02-cd1d-40db-9770-e63e37d04b2c","ios":"levelo://app?vid=72643f02-cd1d-40db-9770-e63e37d04b2c"},"vehicle_type_id":"4","last_reported":1784869802,"current_range_meters":8400,"station_id":"","pricing_plan_id":"cebpf4jnsgd1na2vs0mg"},{"bike_id":"0337f70f-422e-4a94-aa4e-b2dbf437f60c","system_id":"levelo_inurba_marseille","lat":43.29606,"lon":5.37715,"is_reserved":false,"is_disabled":false,"rental_uris":{"android":"levelo://app?vid=0337f70f-422e-4a94-aa4e-b2dbf437f60c","ios":"levelo://app?vid=0337f70f-422e-4a94-aa4e-b2dbf437f60c"},"vehicle_type_id":"4","last_reported":1784869802,"current_range_meters":35200,"station_id":"ce4bgi92rcd13ifvqb90","pricing_plan_id":"cebpf4jnsgd1na2vs0mg"},{"bike_id":"86c39a41-dbb7-492c-80ca-66bbe09aaa85","system_id":"levelo_inurba_marseille","lat":43.30098,"lon":5.3906,"is_reserved":false,"is_disabled":true,"rental_uris":{"android":"levelo://app?vid=86c39a41-dbb7-492c-80ca-66bbe09aaa85","ios":"levelo://app?vid=86c39a41-dbb7-492c-80ca-66bbe09aaa85"},"vehicle_type_id":"4","last_reported":1784869802,"current_range_meters":15200,"station_id":"ce4bh192rcd13ifvqdb0","pricing_plan_id":"cebpf4jnsgd1na2vs0mg"},{"bike_id":"3a295aff-6816-4af7-ac5a-87a5bd41c1cd","system_id":"levelo_inurba_marseille","lat":43.28494,"lon":5.48389,"is_reserved":false,"is_disabled":false,"rental_uris":{"android":"levelo://app?vid=3a295aff-6816-4af7-ac5a-87a5bd41c1cd","ios":"levelo://app?vid=3a295aff-6816-4af7-ac5a-87a5bd41c1cd"},"vehicle_type_id":"4","last_reported":1784869802,"current_range_meters":20400,"station_id":"st_d3svhcjqgbts73a3dn0g","pricing_plan_id":"cebpf4jnsgd1na2vs0mg"},{"bike_id":"7b1a34a9-9772-429a-ac81-dbcf3805788e","system_id":"levelo_inurba_marseille","lat":43.27886,"lon":5.35544,"is_reserved":false,"is_disabled":false,"rental_uris":{"android":"levelo://app?vid=7b1a34a9-9772-429a-ac81-dbcf3805788e","ios":"levelo://app?vid=7b1a34a9-9772-429a-ac81-dbcf3805788e"},"vehicle_type_id":"4","last_reported":1784869802,"current_range_meters":10000,"station_id":"","pricing_plan_id":"cebpf4jnsgd1na2vs0mg"},{"bike_id":"3def7ddd-3c42-4aad-8d0c-f3a27eb69aa5","system_id":"levelo_inurba_marseille","lat":43.28069,"lon":5.39631,"is_reserved":false,"is_disabled":false,"rental_uris":{"android":"levelo://app?vid=3def7ddd-3c42-4aad-8d0c-f3a27eb69aa5","ios":"levelo://app?vid=3def7ddd-3c42-4aad-8d0c-f3a27eb69aa5"},"vehicle_type_id":"4","last_reported":1784869802,"current_range_meters":38000,"station_id":"ce4bho12rcd13ifvqh2g","pricing_plan_id":"cebpf4jnsgd1na2vs0mg"},{"bike_id":"c6f99344-38b4-4e8d-aae8-298b3380061d","system_id":"levelo_inurba_marseille","lat":43.29797,"lon":5.38094,"is_reserved":false,"is_disabled":false,"rental_uris":{"android":"levelo://app?vid=c6f99344-38b4-4e8d-aae8-298b3380061d","ios":"levelo://app?vid=c6f99344-38b4-4e8d-aae8-298b3380061d"},"vehicle_type_id":"4","last_reported":1784869802,"current_range_meters":10000,"station_id":"ce4bgip2rcd13ifvqbb0","pricing_plan_id":"cebpf4jnsgd1na2vs0mg"},{"bike_id":"6cd0b9a2-a893-4d86-a077-a039a6b6a0f1","system_id":"levelo_inurba_marseille","lat":43.2843,"lon":5.34981,"is_reserved":false,"is_disabled":true,"rental_uris":{"android":"levelo://app?vid=6cd0b9a2-a893-4d86-a077-a039a6b6a0f1","ios":"levelo://app?vid=6cd0b9a2-a893-4d86-a077-a039a6b6a0f1"},"vehicle_type_id":"4","last_reported":1784869802,"current_range_meters":18000,"station_id":"ce4bhbh2rcd13ifvqepg","pricing_plan_id":"cebpf4jnsgd1na2vs0mg"},{"bike_id":"b3615f38-9ae4-47b3-be0f-27da959fb130","system_id":"levelo_inurba_marseille","lat":43.26532,"lon":5.39629,"is_reserved":false,"is_disabled":false,"rental_uris":{"android":"levelo://app?vid=b3615f38-9ae4-47b3-be0f-27da959fb130","ios":"levelo://app?vid=b3615f38-9ae4-47b3-be0f-27da959fb130"},"vehicle_type_id":"4","last_reported":1784869802,"current_range_meters":9200,"station_id":"","pricing_plan_id":"cebpf4jnsgd1na2vs0mg"},{"bike_id":"bcd636df-4658-45e5-89c4-17b0ce3e71f3","system_id":"levelo_inurba_marseille","lat":43.28619,"lon":5.35103,"is_reserved":false,"is_disabled":false,"rental_uris":{"android":"levelo://app?vid=bcd636df-4658-45e5-89c4-17b0ce3e71f3","ios":"levelo://app?vid=bcd636df-4658-45e5-89c4-17b0ce3e71f3"},"vehicle_type_id":"4","last_reported":1784869802,"current_range_meters":18800,"station_id":"ce4bhch2rcd13ifvqeug","pricing_plan_id":"cebpf4jnsgd1na2vs0mg"},{"bike_id":"164e6ebb-04f1-435d-9be8-9c787211229b","system_id":"levelo_inurba_marseille","lat":43.29192,"lon":5.39305,"is_reserved":false,"is_disabled":false,"rental_uris":{"android":"levelo://app?vid=164e6ebb-04f1-435d-9be8-9c787211229b","ios":"levelo://app?vid=164e6ebb-04f1-435d-9be8-9c787211229b"},"vehicle_type_id":"4","last_reported":1784869802,"current_range_meters":22400,"station_id":"ce4bh192rcd13ifvqdd0","pricing_plan_id":"cebpf4jnsgd1na2vs0mg"},{"bike_id":"f95849e3-ecc4-4a70-8bc6-ebfb18113894","system_id":"levelo_inurba_marseille","lat":43.27945,"lon":5.41044,"is_reserved":false,"is_disabled":false,"rental_uris":{"android":"levelo://app?vid=f95849e3-ecc4-4a70-8bc6-ebfb18113894","ios":"levelo://app?vid=f95849e3-ecc4-4a70-8bc6-ebfb18113894"},"vehicle_type_id":"4","last_reported":1784869802,"current_range_meters":36800,"station_id":"ce4bhnp2rcd13ifvqh0g","pricing_plan_id":"cebpf4jnsgd1na2vs0mg"},{"bike_id":"01d9a676-01f3-4b98-beb9-e0a1a490c722","system_id":"levelo_inurba_marseille","lat":43.28171,"lon":5.42631,"is_reserved":false,"is_disabled":false,"rental_uris":{"android":"levelo://app?vid=01d9a676-01f3-4b98-beb9-e0a1a490c722","ios":"levelo://app?vid=01d9a676-01f3-4b98-beb9-e0a1a490c722"},"vehicle_type_id":"4","last_reported":1784869802,"current_range_meters":22400,"station_id":"ce4bhnh2rcd13ifvqgug","pricing_plan_id":"cebpf4jnsgd1na2vs0mg"},{"bike_id":"f765bc46-853b-4f5f-a0cf-13f9a2c85881","system_id":"levelo_inurba_marseille","lat":43.32025,"lon":5.36717,"is_reserved":false,"is_disabled":false,"rental_uris":{"android":"levelo://app?vid=f765bc46-853b-4f5f-a0cf-13f9a2c85881","ios":"levelo://app?vid=f765bc46-853b-4f5f-a0cf-13f9a2c85881"},"vehicle_type_id":"4","last_reported":1784869802,"current_range_meters":27200,"station_id":"","pricing_plan_id":"cebpf4jnsgd1na2vs0mg"},{"bike_id":"0aaab04e-fbf4-4eb5-b726-87439b3409d4","system_id":"levelo_inurba_marseille","lat":43.31215,"lon":5.36881,"is_reserved":false,"is_disabled":true,"rental_uris":{"android":"levelo://app?vid=0aaab04e-fbf4-4eb5-b726-87439b3409d4","ios":"levelo://app?vid=0aaab04e-fbf4-4eb5-b726-87439b3409d4"},"vehicle_type_id":"4","last_reported":1784869802,"current_range_meters":30000,"station_id":"ce4bgl92rcd13ifvqbq0","pricing_plan_id":"cebpf4jnsgd1na2vs0mg"},{"bike_id":"c469d1f0-e1f3-4009-933d-1f7d58ff00a5","system_id":"levelo_inurba_marseille","lat":43.25858,"lon":5.39902,"is_reserved":false,"is_disabled":false,"rental_uris":{"android":"levelo://app?vid=c469d1f0-e1f3-4009-933d-1f7d58ff00a5","ios":"levelo://app?vid=c469d1f0-e1f3-4009-933d-1f7d58ff00a5"},"vehicle_type_id":"4","last_reported":1784869802,"current_range_meters":20800,"station_id":"ce4bhl92rcd13ifvqghg","pricing_plan_id":"cebpf4jnsgd1na2vs0mg"},{"bike_id":"ee10056c-3426-43d8-a600-37a47f26001b","system_id":"levelo_inurba_marseille","lat":43.2857,"lon":5.37156,"is_reserved":false,"is_disabled":false,"rental_uris":{"android":"levelo://app?vid=ee10056c-3426-43d8-a600-37a47f26001b","ios":"levelo://app?vid=ee10056c-3426-43d8-a600-37a47f26001b"},"vehicle_type_id":"4","last_reported":1784869802,"current_range_meters":39200,"station_id":"","pricing_plan_id":"cebpf4jnsgd1na2vs0mg"},{"bike_id":"a13e16e4-e177-431d-8bef-33b38f696e96","system_id":"levelo_inurba_marseille","lat":43.26757,"lon":5.39978,"is_reserved":false,"is_disabled":false,"rental_uris":{"android":"levelo://app?vid=a13e16e4-e177-431d-8bef-33b38f696e96","ios":"levelo://app?vid=a13e16e4-e177-431d-8bef-33b38f696e96"},"vehicle_type_id":"4","last_reported":1784869802,"current_range_meters":24800,"station_id":"","pricing_plan_id":"cebpf4jnsgd1na2vs0mg"},{"bike_id":"688edeb9-a1ff-479b-9a83-1f5dd44c54eb","system_id":"levelo_inurba_marseille","lat":43.29798,"lon":5.38079,"is_reserved":false,"is_disabled":false,"rental_uris":{"android":"levelo://app?vid=688edeb9-a1ff-479b-9a83-1f5dd44c54eb","ios":"levelo://app?vid=688edeb9-a1ff-479b-9a83-1f5dd44c54eb"},"vehicle_type_id":"4","last_reported":1784869802,"current_range_meters":39200,"station_id":"ce4bgip2rcd13ifvqbb0","pricing_plan_id":"cebpf4jnsgd1na2vs0mg"},{"bike_id":"5a7db9a9-b29b-4c25-830f-2ef715266d8f","system_id":"levelo_inurba_marseille","lat":43.30875,"lon":5.39645,"is_reserved":false,"is_disabled":false,"rental_uris":{"android":"levelo://app?vid=5a7db9a9-b29b-4c25-830f-2ef715266d8f","ios":"levelo://app?vid=5a7db9a9-b29b-4c25-830f-2ef715266d8f"},"vehicle_type_id":"4","last_reported":1784869802,"current_range_meters":35200,"station_id":"ce4bh012rcd13ifvqcv0","pricing_plan_id":"cebpf4jnsgd1na2vs0mg"},{"bike_id":"de84f93e-2efe-44dd-902e-99315be80f66","system_id":"levelo_inurba_marseille","lat":43.24707,"lon":5.40316,"is_reserved":false,"is_disabled":false,"rental_uris":{"android":"levelo://app?vid=de84f93e-2efe-44dd-902e-99315be80f66","ios":"levelo://app?vid=de84f93e-2efe-44dd-902e-99315be80f66"},"vehicle_type_id":"4","last_reported":1784869802,"current_range_meters":30400,"station_id":"","pricing_plan_id":"cebpf4jnsgd1na2vs0mg"},{"bike_id":"bdf4da28-86ab-4551-925b-069b27b991b8","system_id":"levelo_inurba_marseille","lat":43.281,"lon":5.37854,"is_reserved":false,"is_disabled":false,"rental_uris":{"android":"levelo://app?vid=bdf4da28-86ab-4551-925b-069b27b991b8","ios":"levelo://app?vid=bdf4da28-86ab-4551-925b-069b27b991b8"},"vehicle_type_id":"4","last_reported":1784869802,"current_range_meters":39200,"station_id":"ce4bha12rcd13ifvqee0","pricing_plan_id":"cebpf4jnsgd1na2vs0mg"},{"bike_id":"c6e736fb-e232-45bf-a0ea-16cc4b6b67d6","system_id":"levelo_inurba_marseille","lat":43.24182,"lon":5.36414,"is_reserved":false,"is_disabled":true,"rental_uris":{"android":"levelo://app?vid=c6e736fb-e232-45bf-a0ea-16cc4b6b67d6","ios":"levelo://app?vid=c6e736fb-e232-45bf-a0ea-16cc4b6b67d6"},"vehicle_type_id":"4","last_reported":1784869802,"current_range_meters":37600,"station_id":"cpo36qri1sfpv3e86is0","pricing_plan_id":"cebpf4jnsgd1na2vs0mg"},{"bike_id":"2654b3dd-5943-4bfe-bc56-5f17b8e2215e","system_id":"levelo_inurba_marseille","lat":43.34125,"lon":5.40895,"is_reserved":false,"is_disabled":false,"rental_uris":{"android":"levelo://app?vid=2654b3dd-5943-4bfe-bc56-5f17b8e2215e","ios":"levelo://app?vid=2654b3dd-5943-4bfe-bc56-5f17b8e2215e"},"vehicle_type_id":"4","last_reported":1784869802,"current_range_meters":38800,"station_id":"ce4bhqh2rcd13ifvqhlg","pricing_plan_id":"cebpf4jnsgd1na2vs0mg"},{"bike_id":"54e8c879-cde4-480d-9f6d-3bbfcfd201bc","system_id":"levelo_inurba_marseille","lat":43.28399,"lon":5.37528,"is_reserved":false,"is_disabled":false,"rental_uris":{"android":"levelo://app?vid=54e8c879-cde4-480d-9f6d-3bbfcfd201bc","ios":"levelo://app?vid=54e8c879-cde4-480d-9f6d-3bbfcfd201bc"},"vehicle_type_id":"4","last_reported":1784869802,"current_range_meters":33200,"station_id":"ce4bh412rcd13ifvqds0","pricing_plan_id":"cebpf4jnsgd1na2vs0mg"},{"bike_id":"a438d2ee-26e7-46fa-94f6-0a8dfa65661c","system_id":"levelo_inurba_marseille","lat":43.26489,"lon":5.39568,"is_reserved":false,"is_disabled":false,"rental_uris":{"android":"levelo://app?vid=a438d2ee-26e7-46fa-94f6-0a8dfa65661c","ios":"levelo://app?vid=a438d2ee-26e7-46fa-94f6-0a8dfa65661c"},"vehicle_type_id":"4","last_reported":1784869802,"current_range_meters":20800,"station_id":"ce4bhi12rcd13ifvqfq0","pricing_plan_id":"cebpf4jnsgd1na2vs0mg"},{"bike_id":"c59d0aff-69b3-45af-a81e-861a60187067","system_id":"levelo_inurba_marseille","lat":43.28412,"lon":5.37515,"is_reserved":false,"is_disabled":false,"rental_uris":{"android":"levelo://app?vid=c59d0aff-69b3-45af-a81e-861a60187067","ios":"levelo://app?vid=c59d0aff-69b3-45af-a81e-861a60187067"},"vehicle_type_id":"4","last_reported":1784869802,"current_range_meters":19200,"station_id":"ce4bh412rcd13ifvqds0","pricing_plan_id":"cebpf4jnsgd1na2vs0mg"},{"bike_id":"c037fd15-1fb4-4aa0-a4c6-442b2b874fab","system_id":"levelo_inurba_marseille","lat":43.2904,"lon":5.39985,"is_reserved":false,"is_disabled":true,"rental_uris":{"android":"levelo://app?vid=c037fd15-1fb4-4aa0-a4c6-442b2b874fab","ios":"levelo://app?vid=c037fd15-1fb4-4aa0-a4c6-442b2b874fab"},"vehicle_type_id":"4","last_reported":1784869802,"current_range_meters":24000,"station_id":"ce4bh392rcd13ifvqdm0","pricing_plan_id":"cebpf4jnsgd1na2vs0mg"},{"bike_id":"965b6bd4-eb48-41e3-b3e8-0bcdc52f3759","system_id":"levelo_inurba_marseille","lat":43.2893,"lon":5.38402,"is_reserved":false,"is_disabled":true,"rental_uris":{"android":"levelo://app?vid=965b6bd4-eb48-41e3-b3e8-0bcdc52f3759","ios":"levelo://app?vid=965b6bd4-eb48-41e3-b3e8-0bcdc52f3759"},"vehicle_type_id":"4","last_reported":1784869802,"current_range_meters":32000,"station_id":"ce4bh612rcd13ifvqe6g","pricing_plan_id":"cebpf4jnsgd1na2vs0mg"},{"bike_id":"bbe718e6-fa16-44e8-87a1-2141703d3341","system_id":"levelo_inurba_marseille","lat":43.28165,"lon":5.42331,"is_reserved":false,"is_disabled":false,"rental_uris":{"android":"levelo://app?vid=bbe718e6-fa16-44e8-87a1-2141703d3341","ios":"levelo://app?vid=bbe718e6-fa16-44e8-87a1-2141703d3341"},"vehicle_type_id":"4","last_reported":1784869802,"current_range_meters":9200,"station_id":"","pricing_plan_id":"cebpf4jnsgd1na2vs0mg"},{"bike_id":"ee26c9f3-72fd-41a9-8336-6eae62f3f5f3","system_id":"levelo_inurba_marseille","lat":43.30798,"lon":5.38159,"is_reserved":false,"is_disabled":false,"rental_uris":{"android":"levelo://app?vid=ee26c9f3-72fd-41a9-8336-6eae62f3f5f3","ios":"levelo://app?vid=ee26c9f3-72fd-41a9-8336-6eae62f3f5f3"},"vehicle_type_id":"4","last_reported":1784869802,"current_range_meters":38000,"station_id":"ce4bgt12rcd13ifvqce0","pricing_plan_id":"cebpf4jnsgd1na2vs0mg"},{"bike_id":"fd536619-7e8d-430e-af42-0967078d7173","system_id":"levelo_inurba_marseille","lat":43.23192,"lon":5.35543,"is_reserved":false,"is_disabled":false,"rental_uris":{"android":"levelo://app?vid=fd536619-7e8d-430e-af42-0967078d7173","ios":"levelo://app?vid=fd536619-7e8d-430e-af42-0967078d7173"},"vehicle_type_id":"4","last_reported":1784869802,"current_range_meters":39200,"station_id":"ce4bhu92rcd13ifvqi70","pricing_plan_id":"cebpf4jnsgd1na2vs0mg"},{"bike_id":"a74338b6-ab76-4397-a44a-5b86a8bc675d","system_id":"levelo_inurba_marseille","lat":43.27187,"lon":5.40981,"is_reserved":false,"is_disabled":false,"rental_uris":{"android":"levelo://app?vid=a74338b6-ab76-4397-a44a-5b86a8bc675d","ios":"levelo://app?vid=a74338b6-ab76-4397-a44a-5b86a8bc675d"},"vehicle_type_id":"4","last_reported":1784869802,"current_range_meters":39200,"station_id":"ce4bhl12rcd13ifvqgf0","pricing_plan_id":"cebpf4jnsgd1na2vs0mg"},{"bike_id":"fb3a1821-23e1-4ec5-bc56-f31d1470bfc2","system_id":"levelo_inurba_marseille","lat":43.28875,"lon":5.39281,"is_reserved":false,"is_disabled":false,"rental_uris":{"android":"levelo://app?vid=fb3a1821-23e1-4ec5-bc56-f31d1470bfc2","ios":"levelo://app?vid=fb3a1821-23e1-4ec5-bc56-f31d1470bfc2"},"vehicle_type_id":"4","last_reported":1784869802,"current_range_meters":39200,"station_id":"ce4bh2p2rcd13ifvqdi0","pricing_plan_id":"cebpf4jnsgd1na2vs0mg"},{"bike_id":"95ea415c-3b6a-4765-8a94-b4058ad29a7c","system_id":"levelo_inurba_marseille","lat":43.29572,"lon":5.3997,"is_reserved":false,"is_disabled":false,"rental_uris":{"android":"levelo://app?vid=95ea415c-3b6a-4765-8a94-b4058ad29a7c","ios":"levelo://app?vid=95ea415c-3b6a-4765-8a94-b4058ad29a7c"},"vehicle_type_id":"4","last_reported":1784869802,"current_range_meters":14400,"station_id":"ce4bh312rcd13ifvqdj0","pricing_plan_id":"cebpf4jnsgd1na2vs0mg"},{"bike_id":"a19b2dea-a8bc-4280-b5e1-470938d8bf59","system_id":"levelo_inurba_marseille","lat":43.28731,"lon":5.39996,"is_reserved":false,"is_disabled":false,"rental_uris":{"android":"levelo://app?vid=a19b2dea-a8bc-4280-b5e1-470938d8bf59","ios":"levelo://app?vid=a19b2dea-a8bc-4280-b5e1-470938d8bf59"},"vehicle_type_id":"4","last_reported":1784869802,"current_range_meters":38400,"station_id":"ce4bho92rcd13ifvqh3g","pricing_plan_id":"cebpf4jnsgd1na2vs0mg"},{"bike_id":"db87b25b-cd08-4ed7-8d40-64cce0e89f6a","system_id":"levelo_inurba_marseille","lat":43.27517,"lon":5.41573,"is_reserved":false,"is_disabled":false,"rental_uris":{"android":"levelo://app?vid=db87b25b-cd08-4ed7-8d40-64cce0e89f6a","ios":"levelo://app?vid=db87b25b-cd08-4ed7-8d40-64cce0e89f6a"},"vehicle_type_id":"4","last_reported":1784869802,"current_range_meters":38000,"station_id":"st_d6im8g6chgec73a5pndg","pricing_plan_id":"cebpf4jnsgd1na2vs0mg"},{"bike_id":"f1288106-a8c3-4624-ad2a-44299213b3e2","system_id":"levelo_inurba_marseille","lat":43.29569,"lon":5.36739,"is_reserved":false,"is_disabled":true,"rental_uris":{"android":"levelo://app?vid=f1288106-a8c3-4624-ad2a-44299213b3e2","ios":"levelo://app?vid=f1288106-a8c3-4624-ad2a-44299213b3e2"},"vehicle_type_id":"4","last_reported":1784869802,"current_range_meters":38000,"station_id":"","pricing_plan_id":"cebpf4jnsgd1na2vs0mg"},{"bike_id":"ab907c16-2123-44c2-912f-95e0f2737c03","system_id":"levelo_inurba_marseille","lat":43.31466,"lon":5.37391,"is_reserved":false,"is_disabled":true,"rental_uris":{"android":"levelo://app?vid=ab907c16-2123-44c2-912f-95e0f2737c03","ios":"levelo://app?vid=ab907c16-2123-44c2-912f-95e0f2737c03"},"vehicle_type_id":"4","last_reported":1784869802,"current_range_meters":17600,"station_id":"","pricing_plan_id":"cebpf4jnsgd1na2vs0mg"},{"bike_id":"0f27047d-3cee-486f-bbfd-4e43b3a3a5db","system_id":"levelo_inurba_marseille","lat":43.32111,"lon":5.36779,"is_reserved":false,"is_disabled":false,"rental_uris":{"android":"levelo://app?vid=0f27047d-3cee-486f-bbfd-4e43b3a3a5db","ios":"levelo://app?vid=0f27047d-3cee-486f-bbfd-4e43b3a3a5db"},"vehicle_type_id":"4","last_reported":1784869802,"current_range_meters":28000,"station_id":"ce4bhrh2rcd13ifvqhug","pricing_plan_id":"cebpf4jnsgd1na2vs0mg"},{"bike_id":"f0d801fc-9dee-4f8c-80e7-d4dbb0023ff2","system_id":"levelo_inurba_marseille","lat":43.2895,"lon":5.38548,"is_reserved":false,"is_disabled":false,"rental_uris":{"android":"levelo://app?vid=f0d801fc-9dee-4f8c-80e7-d4dbb0023ff2","ios":"levelo://app?vid=f0d801fc-9dee-4f8c-80e7-d4dbb0023ff2"},"vehicle_type_id":"4","last_reported":1784869802,"current_range_meters":26000,"station_id":"","pricing_plan_id":"cebpf4jnsgd1na2vs0mg"},{"bike_id":"1b797826-9ecf-4ecf-b047-dcf2883098e6","system_id":"levelo_inurba_marseille","lat":43.29792,"lon":5.39345,"is_reserved":false,"is_disabled":false,"rental_uris":{"android":"levelo://app?vid=1b797826-9ecf-4ecf-b047-dcf2883098e6","ios":"levelo://app?vid=1b797826-9ecf-4ecf-b047-dcf2883098e6"},"vehicle_type_id":"4","last_reported":1784869802,"current_range_meters":39200,"station_id":"chh1huq6cuj3fo74tm60","pricing_plan_id":"cebpf4jnsgd1na2vs0mg"},{"bike_id":"3e1898e7-0c41-4684-b7c4-a75088dcddb3","system_id":"levelo_inurba_marseille","lat":43.24988,"lon":5.38944,"is_reserved":false,"is_disabled":false,"rental_uris":{"android":"levelo://app?vid=3e1898e7-0c41-4684-b7c4-a75088dcddb3","ios":"levelo://app?vid=3e1898e7-0c41-4684-b7c4-a75088dcddb3"},"vehicle_type_id":"4","last_reported":1784869802,"current_range_meters":36400,"station_id":"ce4bhgp2rcd13ifvqfd0","pricing_plan_id":"cebpf4jnsgd1na2vs0mg"},{"bike_id":"c520161e-c250-4161-a55a-6b287776d8da","system_id":"levelo_inurba_marseille","lat":43.28487,"lon":5.48401,"is_reserved":false,"is_disabled":false,"rental_uris":{"android":"levelo://app?vid=c520161e-c250-4161-a55a-6b287776d8da","ios":"levelo://app?vid=c520161e-c250-4161-a55a-6b287776d8da"},"vehicle_type_id":"4","last_reported":1784869802,"current_range_meters":23200,"station_id":"st_d3svhcjqgbts73a3dn0g","pricing_plan_id":"cebpf4jnsgd1na2vs0mg"},{"bike_id":"1be16c68-4af1-419d-93d4-773b2af07f2a","system_id":"levelo_inurba_marseille","lat":43.28541,"lon":5.44104,"is_reserved":false,"is_disabled":false,"rental_uris":{"android":"levelo://app?vid=1be16c68-4af1-419d-93d4-773b2af07f2a","ios":"levelo://app?vid=1be16c68-4af1-419d-93d4-773b2af07f2a"},"vehicle_type_id":"4","last_reported":1784869802,"current_range_meters":39200,"station_id":"st_d3j3df2ikq2c7380ej80","pricing_plan_id":"cebpf4jnsgd1na2vs0mg"},{"bike_id":"6e7ec013-c0a7-4a70-811a-3171277d0090","system_id":"levelo_inurba_marseille","lat":43.31346,"lon":5.39703,"is_reserved":false,"is_disabled":false,"rental_uris":{"android":"levelo://app?vid=6e7ec013-c0a7-4a70-811a-3171277d0090","ios":"levelo://app?vid=6e7ec013-c0a7-4a70-811a-3171277d0090"},"vehicle_type_id":"4","last_reported":1784869802,"current_range_meters":34000,"station_id":"ce4bgvp2rcd13ifvqcu0","pricing_plan_id":"cebpf4jnsgd1na2vs0mg"},{"bike_id":"1344aaf3-97e6-42ff-b3d2-9099ac693f1e","system_id":"levelo_inurba_marseille","lat":43.28945,"lon":5.39577,"is_reserved":false,"is_disabled":false,"rental_uris":{"android":"levelo://app?vid=1344aaf3-97e6-42ff-b3d2-9099ac693f1e","ios":"levelo://app?vid=1344aaf3-97e6-42ff-b3d2-9099ac693f1e"},"vehicle_type_id":"4","last_reported":1784869802,"current_range_meters":24800,"station_id":"ce4bh3h2rcd13ifvqdn0","pricing_plan_id":"cebpf4jnsgd1na2vs0mg"},{"bike_id":"dfe9c336-e662-4c4f-b0e2-3694ed8cf4c1","system_id":"levelo_inurba_marseille","lat":43.31482,"lon":5.37283,"is_reserved":false,"is_disabled":false,"rental_uris":{"android":"levelo://app?vid=dfe9c336-e662-4c4f-b0e2-3694ed8cf4c1","ios":"levelo://app?vid=dfe9c336-e662-4c4f-b0e2-3694ed8cf4c1"},"vehicle_type_id":"4","last_reported":1784869802,"current_range_meters":39200,"station_id":"ce4bgt12rcd13ifvqcd0","pricing_plan_id":"cebpf4jnsgd1na2vs0mg"},{"bike_id":"c4599c29-f86a-45dc-be51-4124fda90118","system_id":"levelo_inurba_marseille","lat":43.23142,"lon":5.43702,"is_reserved":false,"is_disabled":false,"rental_uris":{"android":"levelo://app?vid=c4599c29-f86a-45dc-be51-4124fda90118","ios":"levelo://app?vid=c4599c29-f86a-45dc-be51-4124fda90118"},"vehicle_type_id":"4","last_reported":1784869802,"current_range_meters":39200,"station_id":"ce4bhmp2rcd13ifvqgog","pricing_plan_id":"cebpf4jnsgd1na2vs0mg"},{"bike_id":"59c84aa7-30f1-4824-81eb-31d85ddee61e","system_id":"levelo_inurba_marseille","lat":43.30925,"lon":5.40161,"is_reserved":false,"is_disabled":false,"rental_uris":{"android":"levelo://app?vid=59c84aa7-30f1-4824-81eb-31d85ddee61e","ios":"levelo://app?vid=59c84aa7-30f1-4824-81eb-31d85ddee61e"},"vehicle_type_id":"4","last_reported":1784869802,"current_range_meters":30800,"station_id":"ce4bgvp2rcd13ifvqct0","pricing_plan_id":"cebpf4jnsgd1na2vs0mg"},{"bike_id":"b42ae4fb-151e-4b1f-9201-461dc827983e","system_id":"levelo_inurba_marseille","lat":43.29798,"lon":5.38109,"is_reserved":false,"is_disabled":false,"rental_uris":{"android":"levelo://app?vid=b42ae4fb-151e-4b1f-9201-461dc827983e","ios":"levelo://app?vid=b42ae4fb-151e-4b1f-9201-461dc827983e"},"vehicle_type_id":"4","last_reported":1784869802,"current_range_meters":28400,"station_id":"ce4bgip2rcd13ifvqbb0","pricing_plan_id":"cebpf4jnsgd1na2vs0mg"},{"bike_id":"9868531c-e174-4db8-b9d9-13a834ba893d","system_id":"levelo_inurba_marseille","lat":43.231313,"lon":5.437115,"is_reserved":false,"is_disabled":false,"rental_uris":{"android":"levelo://app?vid=9868531c-e174-4db8-b9d9-13a834ba893d","ios":"levelo://app?vid=9868531c-e174-4db8-b9d9-13a834ba893d"},"vehicle_type_id":"4","last_reported":1784869802,"current_range_meters":14400,"station_id":"ce4bhmp2rcd13ifvqgog","pricing_plan_id":"cebpf4jnsgd1na2vs0mg"},{"bike_id":"fa6cfd08-bbb2-485e-8656-80a9c9a8ce9e","system_id":"levelo_inurba_marseille","lat":43.30928,"lon":5.40153,"is_reserved":false,"is_disabled":false,"rental_uris":{"android":"levelo://app?vid=fa6cfd08-bbb2-485e-8656-80a9c9a8ce9e","ios":"levelo://app?vid=fa6cfd08-bbb2-485e-8656-80a9c9a8ce9e"},"vehicle_type_id":"4","last_reported":1784869802,"current_range_meters":32800,"station_id":"ce4bgvp2rcd13ifvqct0","pricing_plan_id":"cebpf4jnsgd1na2vs0mg"},{"bike_id":"29864480-cc69-420c-b6ad-3ad9736b6a3b","system_id":"levelo_inurba_marseille","lat":43.30539,"lon":5.36686,"is_reserved":false,"is_disabled":false,"rental_uris":{"android":"levelo://app?vid=29864480-cc69-420c-b6ad-3ad9736b6a3b","ios":"levelo://app?vid=29864480-cc69-420c-b6ad-3ad9736b6a3b"},"vehicle_type_id":"4","last_reported":1784869802,"current_range_meters":6400,"station_id":"ce4bgrp2rcd13ifvqc9g","pricing_plan_id":"cebpf4jnsgd1na2vs0mg"},{"bike_id":"f68e27a5-3fa4-448f-9637-a31388b7f976","system_id":"levelo_inurba_marseille","lat":43.31303,"lon":5.3981,"is_reserved":false,"is_disabled":false,"rental_uris":{"android":"levelo://app?vid=f68e27a5-3fa4-448f-9637-a31388b7f976","ios":"levelo://app?vid=f68e27a5-3fa4-448f-9637-a31388b7f976"},"vehicle_type_id":"4","last_reported":1784869802,"current_range_meters":33200,"station_id":"ce4bgvp2rcd13ifvqcu0","pricing_plan_id":"cebpf4jnsgd1na2vs0mg"},{"bike_id":"c31ea38b-cee9-41a1-93fb-85dd217b0cbd","system_id":"levelo_inurba_marseille","lat":43.33743,"lon":5.36716,"is_reserved":false,"is_disabled":false,"rental_uris":{"android":"levelo://app?vid=c31ea38b-cee9-41a1-93fb-85dd217b0cbd","ios":"levelo://app?vid=c31ea38b-cee9-41a1-93fb-85dd217b0cbd"},"vehicle_type_id":"4","last_reported":1784869802,"current_range_meters":27200,"station_id":"","pricing_plan_id":"cebpf4jnsgd1na2vs0mg"},{"bike_id":"b0cd23e1-1306-4423-a58f-6fe5f3db0c5e","system_id":"levelo_inurba_marseille","lat":43.29545,"lon":5.42256,"is_reserved":false,"is_disabled":false,"rental_uris":{"android":"levelo://app?vid=b0cd23e1-1306-4423-a58f-6fe5f3db0c5e","ios":"levelo://app?vid=b0cd23e1-1306-4423-a58f-6fe5f3db0c5e"},"vehicle_type_id":"4","last_reported":1784869802,"current_range_meters":38000,"station_id":"ce4bhph2rcd13ifvqhdg","pricing_plan_id":"cebpf4jnsgd1na2vs0mg"},{"bike_id":"0353fca3-fbdd-4286-a9eb-ebce376c25fa","system_id":"levelo_inurba_marseille","lat":43.23393,"lon":5.4124,"is_reserved":false,"is_disabled":false,"rental_uris":{"android":"levelo://app?vid=0353fca3-fbdd-4286-a9eb-ebce376c25fa","ios":"levelo://app?vid=0353fca3-fbdd-4286-a9eb-ebce376c25fa"},"vehicle_type_id":"4","last_reported":1784869802,"current_range_meters":39200,"station_id":"st_d75pvndhf9lc73cqq3eg","pricing_plan_id":"cebpf4jnsgd1na2vs0mg"},{"bike_id":"b8e43a89-3bb1-4279-9cee-f7b093c9b703","system_id":"levelo_inurba_marseille","lat":43.33718,"lon":5.37415,"is_reserved":false,"is_disabled":false,"rental_uris":{"android":"levelo://app?vid=b8e43a89-3bb1-4279-9cee-f7b093c9b703","ios":"levelo://app?vid=b8e43a89-3bb1-4279-9cee-f7b093c9b703"},"vehicle_type_id":"4","last_reported":1784869802,"current_range_meters":7200,"station_id":"","pricing_plan_id":"cebpf4jnsgd1na2vs0mg"},{"bike_id":"d0e3d421-3232-4fe6-8914-f2fab6f9cce9","system_id":"levelo_inurba_marseille","lat":43.31018,"lon":5.38512,"is_reserved":false,"is_disabled":false,"rental_uris":{"android":"levelo://app?vid=d0e3d421-3232-4fe6-8914-f2fab6f9cce9","ios":"levelo://app?vid=d0e3d421-3232-4fe6-8914-f2fab6f9cce9"},"vehicle_type_id":"4","last_reported":1784869802,"current_range_meters":38800,"station_id":"","pricing_plan_id":"cebpf4jnsgd1na2vs0mg"},{"bike_id":"af8f5110-0dea-4414-b384-8e116760f0fd","system_id":"levelo_inurba_marseille","lat":43.23169,"lon":5.39986,"is_reserved":false,"is_disabled":false,"rental_uris":{"android":"levelo://app?vid=af8f5110-0dea-4414-b384-8e116760f0fd","ios":"levelo://app?vid=af8f5110-0dea-4414-b384-8e116760f0fd"},"vehicle_type_id":"4","last_reported":1784869802,"current_range_meters":8400,"station_id":"ce4bhn12rcd13ifvqgqg","pricing_plan_id":"cebpf4jnsgd1na2vs0mg"},{"bike_id":"afd87d0f-5cad-49fb-99b3-a46f76157d59","system_id":"levelo_inurba_marseille","lat":43.30897,"lon":5.39617,"is_reserved":false,"is_disabled":false,"rental_uris":{"android":"levelo://app?vid=afd87d0f-5cad-49fb-99b3-a46f76157d59","ios":"levelo://app?vid=afd87d0f-5cad-49fb-99b3-a46f76157d59"},"vehicle_type_id":"4","last_reported":1784869802,"current_range_meters":10800,"station_id":"ce4bh012rcd13ifvqcv0","pricing_plan_id":"cebpf4jnsgd1na2vs0mg"},{"bike_id":"31c275e7-8c99-45a0-b66e-3ad60ce6645a","system_id":"levelo_inurba_marseille","lat":43.263142,"lon":5.378281,"is_reserved":false,"is_disabled":false,"rental_uris":{"android":"levelo://app?vid=31c275e7-8c99-45a0-b66e-3ad60ce6645a","ios":"levelo://app?vid=31c275e7-8c99-45a0-b66e-3ad60ce6645a"},"vehicle_type_id":"4","last_reported":1784869802,"current_range_meters":37600,"station_id":"","pricing_plan_id":"cebpf4jnsgd1na2vs0mg"},{"bike_id":"45d1a51f-5eff-4763-8b7c-1c817383ed0f","system_id":"levelo_inurba_marseille","lat":43.31076,"lon":5.42432,"is_reserved":false,"is_disabled":true,"rental_uris":{"android":"levelo://app?vid=45d1a51f-5eff-4763-8b7c-1c817383ed0f","ios":"levelo://app?vid=45d1a51f-5eff-4763-8b7c-1c817383ed0f"},"vehicle_type_id":"4","last_reported":1784869802,"current_range_meters":14400,"station_id":"ce4bhp92rcd13ifvqhag","pricing_plan_id":"cebpf4jnsgd1na2vs0mg"},{"bike_id":"b920f453-677f-46ee-91a3-705a755e4d86","system_id":"levelo_inurba_marseille","lat":43.30805,"lon":5.38144,"is_reserved":false,"is_disabled":false,"rental_uris":{"android":"levelo://app?vid=b920f453-677f-46ee-91a3-705a755e4d86","ios":"levelo://app?vid=b920f453-677f-46ee-91a3-705a755e4d86"},"vehicle_type_id":"4","last_reported":1784869802,"current_range_meters":23200,"station_id":"ce4bgt12rcd13ifvqce0","pricing_plan_id":"cebpf4jnsgd1na2vs0mg"},{"bike_id":"6772e332-26aa-4530-86da-d14c0f48009d","system_id":"levelo_inurba_marseille","lat":43.24075,"lon":5.37769,"is_reserved":false,"is_disabled":false,"rental_uris":{"android":"levelo://app?vid=6772e332-26aa-4530-86da-d14c0f48009d","ios":"levelo://app?vid=6772e332-26aa-4530-86da-d14c0f48009d"},"vehicle_type_id":"4","last_reported":1784869802,"current_range_meters":36400,"station_id":"ce4bhnp2rcd13ifvqgvg","pricing_plan_id":"cebpf4jnsgd1na2vs0mg"},{"bike_id":"23867617-cb3a-4f7e-a6ff-548e9c0b1243","system_id":"levelo_inurba_marseille","lat":43.2794,"lon":5.38747,"is_reserved":false,"is_disabled":false,"rental_uris":{"android":"levelo://app?vid=23867617-cb3a-4f7e-a6ff-548e9c0b1243","ios":"levelo://app?vid=23867617-cb3a-4f7e-a6ff-548e9c0b1243"},"vehicle_type_id":"4","last_reported":1784869802,"current_range_meters":17600,"station_id":"ce4bhg12rcd13ifvqf80","pricing_plan_id":"cebpf4jnsgd1na2vs0mg"},{"bike_id":"c36224d6-5971-4a21-8df2-2c749759fe14","system_id":"levelo_inurba_marseille","lat":43.27997,"lon":5.40009,"is_reserved":false,"is_disabled":false,"rental_uris":{"android":"levelo://app?vid=c36224d6-5971-4a21-8df2-2c749759fe14","ios":"levelo://app?vid=c36224d6-5971-4a21-8df2-2c749759fe14"},"vehicle_type_id":"4","last_reported":1784869802,"current_range_meters":38000,"station_id":"ce4bho92rcd13ifvqh4g","pricing_plan_id":"cebpf4jnsgd1na2vs0mg"},{"bike_id":"13bbfe3b-874b-44d7-9abb-922c8de23c11","system_id":"levelo_inurba_marseille","lat":43.23239,"lon":5.354,"is_reserved":false,"is_disabled":false,"rental_uris":{"android":"levelo://app?vid=13bbfe3b-874b-44d7-9abb-922c8de23c11","ios":"levelo://app?vid=13bbfe3b-874b-44d7-9abb-922c8de23c11"},"vehicle_type_id":"4","last_reported":1784869802,"current_range_meters":16400,"station_id":"","pricing_plan_id":"cebpf4jnsgd1na2vs0mg"},{"bike_id":"903cd5fd-14a1-4e61-aa78-2fa63f8dde08","system_id":"levelo_inurba_marseille","lat":43.28702,"lon":5.39976,"is_reserved":false,"is_disabled":false,"rental_uris":{"android":"levelo://app?vid=903cd5fd-14a1-4e61-aa78-2fa63f8dde08","ios":"levelo://app?vid=903cd5fd-14a1-4e61-aa78-2fa63f8dde08"},"vehicle_type_id":"4","last_reported":1784869802,"current_range_meters":24000,"station_id":"ce4bho92rcd13ifvqh3g","pricing_plan_id":"cebpf4jnsgd1na2vs0mg"},{"bike_id":"bcfc13ce-da01-45d4-a1b9-73e2763432af","system_id":"levelo_inurba_marseille","lat":43.28737,"lon":5.39982,"is_reserved":false,"is_disabled":false,"rental_uris":{"android":"levelo://app?vid=bcfc13ce-da01-45d4-a1b9-73e2763432af","ios":"levelo://app?vid=bcfc13ce-da01-45d4-a1b9-73e2763432af"},"vehicle_type_id":"4","last_reported":1784869802,"current_range_meters":3600,"station_id":"ce4bho92rcd13ifvqh3g","pricing_plan_id":"cebpf4jnsgd1na2vs0mg"},{"bike_id":"1bedc34c-6053-43d8-b0a8-456ba408ef9f","system_id":"levelo_inurba_marseille","lat":43.29038,"lon":5.39964,"is_reserved":false,"is_disabled":false,"rental_uris":{"android":"levelo://app?vid=1bedc34c-6053-43d8-b0a8-456ba408ef9f","ios":"levelo://app?vid=1bedc34c-6053-43d8-b0a8-456ba408ef9f"},"vehicle_type_id":"4","last_reported":1784869802,"current_range_meters":34800,"station_id":"ce4bh392rcd13ifvqdm0","pricing_plan_id":"cebpf4jnsgd1na2vs0mg"},{"bike_id":"6ed5f8c3-6da8-4cec-bfad-13253a432d70","system_id":"levelo_inurba_marseille","lat":43.29395,"lon":5.3858,"is_reserved":false,"is_disabled":true,"rental_uris":{"android":"levelo://app?vid=6ed5f8c3-6da8-4cec-bfad-13253a432d70","ios":"levelo://app?vid=6ed5f8c3-6da8-4cec-bfad-13253a432d70"},"vehicle_type_id":"4","last_reported":1784869802,"current_range_meters":27600,"station_id":"","pricing_plan_id":"cebpf4jnsgd1na2vs0mg"},{"bike_id":"2abfcdfb-2eb0-4480-932d-1071dc8638d6","system_id":"levelo_inurba_marseille","lat":43.33558,"lon":5.37472,"is_reserved":false,"is_disabled":false,"rental_uris":{"android":"levelo://app?vid=2abfcdfb-2eb0-4480-932d-1071dc8638d6","ios":"levelo://app?vid=2abfcdfb-2eb0-4480-932d-1071dc8638d6"},"vehicle_type_id":"4","last_reported":1784869802,"current_range_meters":32800,"station_id":"st_d46tts09ee8s73dlu43g","pricing_plan_id":"cebpf4jnsgd1na2vs0mg"},{"bike_id":"0dee0085-d5a5-4c48-b3f1-a323bb744f3d","system_id":"levelo_inurba_marseille","lat":43.22567,"lon":5.41632,"is_reserved":false,"is_disabled":false,"rental_uris":{"android":"levelo://app?vid=0dee0085-d5a5-4c48-b3f1-a323bb744f3d","ios":"levelo://app?vid=0dee0085-d5a5-4c48-b3f1-a323bb744f3d"},"vehicle_type_id":"4","last_reported":1784869802,"current_range_meters":25600,"station_id":"st_d2o4gvlbi1j2169b742g","pricing_plan_id":"cebpf4jnsgd1na2vs0mg"},{"bike_id":"cde92de2-f8cc-4415-b1f4-40c93e3f894b","system_id":"levelo_inurba_marseille","lat":43.30897,"lon":5.37202,"is_reserved":false,"is_disabled":false,"rental_uris":{"android":"levelo://app?vid=cde92de2-f8cc-4415-b1f4-40c93e3f894b","ios":"levelo://app?vid=cde92de2-f8cc-4415-b1f4-40c93e3f894b"},"vehicle_type_id":"4","last_reported":1784869802,"current_range_meters":38800,"station_id":"ce4bguh2rcd13ifvqckg","pricing_plan_id":"cebpf4jnsgd1na2vs0mg"},{"bike_id":"fabb1732-d9b2-4b60-9434-b4ad52fbfb3e","system_id":"levelo_inurba_marseille","lat":43.27796,"lon":5.39207,"is_reserved":false,"is_disabled":false,"rental_uris":{"android":"levelo://app?vid=fabb1732-d9b2-4b60-9434-b4ad52fbfb3e","ios":"levelo://app?vid=fabb1732-d9b2-4b60-9434-b4ad52fbfb3e"},"vehicle_type_id":"4","last_reported":1784869802,"current_range_meters":39200,"station_id":"ce4bhjp2rcd13ifvqga0","pricing_plan_id":"cebpf4jnsgd1na2vs0mg"},{"bike_id":"fb7e680d-3047-4bab-9959-c481c5437173","system_id":"levelo_inurba_marseille","lat":43.29791,"lon":5.39355,"is_reserved":false,"is_disabled":false,"rental_uris":{"android":"levelo://app?vid=fb7e680d-3047-4bab-9959-c481c5437173","ios":"levelo://app?vid=fb7e680d-3047-4bab-9959-c481c5437173"},"vehicle_type_id":"4","last_reported":1784869802,"current_range_meters":38800,"station_id":"chh1huq6cuj3fo74tm60","pricing_plan_id":"cebpf4jnsgd1na2vs0mg"},{"bike_id":"0b2c45f2-fdaa-45fe-9511-e6426cab85f6","system_id":"levelo_inurba_marseille","lat":43.27479,"lon":5.42446,"is_reserved":false,"is_disabled":false,"rental_uris":{"android":"levelo://app?vid=0b2c45f2-fdaa-45fe-9511-e6426cab85f6","ios":"levelo://app?vid=0b2c45f2-fdaa-45fe-9511-e6426cab85f6"},"vehicle_type_id":"4","last_reported":1784869802,"current_range_meters":12800,"station_id":"ce4bhn92rcd13ifvqgrg","pricing_plan_id":"cebpf4jnsgd1na2vs0mg"},{"bike_id":"f64fb0db-2b20-496d-b8ff-4ad0fce0c088","system_id":"levelo_inurba_marseille","lat":43.29898,"lon":5.39756,"is_reserved":false,"is_disabled":false,"rental_uris":{"android":"levelo://app?vid=f64fb0db-2b20-496d-b8ff-4ad0fce0c088","ios":"levelo://app?vid=f64fb0db-2b20-496d-b8ff-4ad0fce0c088"},"vehicle_type_id":"4","last_reported":1784869802,"current_range_meters":32800,"station_id":"ce4bh0h2rcd13ifvqd50","pricing_plan_id":"cebpf4jnsgd1na2vs0mg"},{"bike_id":"595b7f1a-57fa-4acd-a42f-0cff5ec053a5","system_id":"levelo_inurba_marseille","lat":43.2801,"lon":5.39995,"is_reserved":false,"is_disabled":false,"rental_uris":{"android":"levelo://app?vid=595b7f1a-57fa-4acd-a42f-0cff5ec053a5","ios":"levelo://app?vid=595b7f1a-57fa-4acd-a42f-0cff5ec053a5"},"vehicle_type_id":"4","last_reported":1784869802,"current_range_meters":20000,"station_id":"ce4bho92rcd13ifvqh4g","pricing_plan_id":"cebpf4jnsgd1na2vs0mg"},{"bike_id":"e79a6452-fc58-47a2-b250-ed1bb0c4ed1d","system_id":"levelo_inurba_marseille","lat":43.29024,"lon":5.3864,"is_reserved":false,"is_disabled":false,"rental_uris":{"android":"levelo://app?vid=e79a6452-fc58-47a2-b250-ed1bb0c4ed1d","ios":"levelo://app?vid=e79a6452-fc58-47a2-b250-ed1bb0c4ed1d"},"vehicle_type_id":"4","last_reported":1784869802,"current_range_meters":27200,"station_id":"ce4bh4p2rcd13ifvqe0g","pricing_plan_id":"cebpf4jnsgd1na2vs0mg"},{"bike_id":"dad5eff3-cb3a-4459-ba39-741abe4a6c6c","system_id":"levelo_inurba_marseille","lat":43.3211,"lon":5.3677,"is_reserved":false,"is_disabled":false,"rental_uris":{"android":"levelo://app?vid=dad5eff3-cb3a-4459-ba39-741abe4a6c6c","ios":"levelo://app?vid=dad5eff3-cb3a-4459-ba39-741abe4a6c6c"},"vehicle_type_id":"4","last_reported":1784869802,"current_range_meters":37600,"station_id":"ce4bhrh2rcd13ifvqhug","pricing_plan_id":"cebpf4jnsgd1na2vs0mg"},{"bike_id":"ae39f875-d638-467e-8006-29399b5e8abf","system_id":"levelo_inurba_marseille","lat":43.29017,"lon":5.38621,"is_reserved":false,"is_disabled":false,"rental_uris":{"android":"levelo://app?vid=ae39f875-d638-467e-8006-29399b5e8abf","ios":"levelo://app?vid=ae39f875-d638-467e-8006-29399b5e8abf"},"vehicle_type_id":"4","last_reported":1784869802,"current_range_meters":33200,"station_id":"ce4bh4p2rcd13ifvqe0g","pricing_plan_id":"cebpf4jnsgd1na2vs0mg"},{"bike_id":"e642d2d6-1a8c-44dd-8a78-8131970f8e8c","system_id":"levelo_inurba_marseille","lat":43.27631,"lon":5.36094,"is_reserved":false,"is_disabled":false,"rental_uris":{"android":"levelo://app?vid=e642d2d6-1a8c-44dd-8a78-8131970f8e8c","ios":"levelo://app?vid=e642d2d6-1a8c-44dd-8a78-8131970f8e8c"},"vehicle_type_id":"4","last_reported":1784869802,"current_range_meters":39200,"station_id":"ce4bgj92rcd13ifvqbe0","pricing_plan_id":"cebpf4jnsgd1na2vs0mg"},{"bike_id":"2acd2ae5-3829-4d5e-b56f-1bb617133f9d","system_id":"levelo_inurba_marseille","lat":43.23202,"lon":5.3556,"is_reserved":false,"is_disabled":false,"rental_uris":{"android":"levelo://app?vid=2acd2ae5-3829-4d5e-b56f-1bb617133f9d","ios":"levelo://app?vid=2acd2ae5-3829-4d5e-b56f-1bb617133f9d"},"vehicle_type_id":"4","last_reported":1784869802,"current_range_meters":27200,"station_id":"ce4bhu92rcd13ifvqi70","pricing_plan_id":"cebpf4jnsgd1na2vs0mg"},{"bike_id":"e9963229-6f79-4069-a94d-d3024b874db2","system_id":"levelo_inurba_marseille","lat":43.25105,"lon":5.39539,"is_reserved":false,"is_disabled":false,"rental_uris":{"android":"levelo://app?vid=e9963229-6f79-4069-a94d-d3024b874db2","ios":"levelo://app?vid=e9963229-6f79-4069-a94d-d3024b874db2"},"vehicle_type_id":"4","last_reported":1784869802,"current_range_meters":4400,"station_id":"ce4bhm12rcd13ifvqgkg","pricing_plan_id":"cebpf4jnsgd1na2vs0mg"},{"bike_id":"3860c86d-35d7-4b5e-a839-608b7372a84f","system_id":"levelo_inurba_marseille","lat":43.27487,"lon":5.42448,"is_reserved":false,"is_disabled":false,"rental_uris":{"android":"levelo://app?vid=3860c86d-35d7-4b5e-a839-608b7372a84f","ios":"levelo://app?vid=3860c86d-35d7-4b5e-a839-608b7372a84f"},"vehicle_type_id":"4","last_reported":1784869802,"current_range_meters":39200,"station_id":"ce4bhn92rcd13ifvqgrg","pricing_plan_id":"cebpf4jnsgd1na2vs0mg"},{"bike_id":"db7a0f5f-f4fd-47a3-8b62-f4675bfd5eb8","system_id":"levelo_inurba_marseille","lat":43.28474,"lon":5.3765,"is_reserved":false,"is_disabled":false,"rental_uris":{"android":"levelo://app?vid=db7a0f5f-f4fd-47a3-8b62-f4675bfd5eb8","ios":"levelo://app?vid=db7a0f5f-f4fd-47a3-8b62-f4675bfd5eb8"},"vehicle_type_id":"4","last_reported":1784869802,"current_range_meters":30400,"station_id":"","pricing_plan_id":"cebpf4jnsgd1na2vs0mg"},{"bike_id":"94f693f1-85b8-41b8-a65f-8969a56ba9fe","system_id":"levelo_inurba_marseille","lat":43.29557,"lon":5.39968,"is_reserved":false,"is_disabled":false,"rental_uris":{"android":"levelo://app?vid=94f693f1-85b8-41b8-a65f-8969a56ba9fe","ios":"levelo://app?vid=94f693f1-85b8-41b8-a65f-8969a56ba9fe"},"vehicle_type_id":"4","last_reported":1784869802,"current_range_meters":19200,"station_id":"ce4bh312rcd13ifvqdj0","pricing_plan_id":"cebpf4jnsgd1na2vs0mg"},{"bike_id":"288428fb-7169-4a99-b7ca-1569569849d9","system_id":"levelo_inurba_marseille","lat":43.21742,"lon":5.34602,"is_reserved":false,"is_disabled":false,"rental_uris":{"android":"levelo://app?vid=288428fb-7169-4a99-b7ca-1569569849d9","ios":"levelo://app?vid=288428fb-7169-4a99-b7ca-1569569849d9"},"vehicle_type_id":"4","last_reported":1784869802,"current_range_meters":14800,"station_id":"st_cvj6r9ubvosntc0bgbag","pricing_plan_id":"cebpf4jnsgd1na2vs0mg"},{"bike_id":"5b780466-9b12-458a-a952-0393559cf72b","system_id":"levelo_inurba_marseille","lat":43.29233,"lon":5.39305,"is_reserved":false,"is_disabled":false,"rental_uris":{"android":"levelo://app?vid=5b780466-9b12-458a-a952-0393559cf72b","ios":"levelo://app?vid=5b780466-9b12-458a-a952-0393559cf72b"},"vehicle_type_id":"4","last_reported":1784869802,"current_range_meters":6400,"station_id":"ce4bh192rcd13ifvqdd0","pricing_plan_id":"cebpf4jnsgd1na2vs0mg"},{"bike_id":"1fade11d-8e73-4748-8586-d9741ca55ced","system_id":"levelo_inurba_marseille","lat":43.317152,"lon":5.437034,"is_reserved":false,"is_disabled":false,"rental_uris":{"android":"levelo://app?vid=1fade11d-8e73-4748-8586-d9741ca55ced","ios":"levelo://app?vid=1fade11d-8e73-4748-8586-d9741ca55ced"},"vehicle_type_id":"4","last_reported":1784869802,"current_range_meters":24000,"station_id":"ce4bhp92rcd13ifvqhcg","pricing_plan_id":"cebpf4jnsgd1na2vs0mg"},{"bike_id":"d29c716b-8d73-45a6-b83e-b742c6b9fb25","system_id":"levelo_inurba_marseille","lat":43.28435,"lon":5.37511,"is_reserved":false,"is_disabled":false,"rental_uris":{"android":"levelo://app?vid=d29c716b-8d73-45a6-b83e-b742c6b9fb25","ios":"levelo://app?vid=d29c716b-8d73-45a6-b83e-b742c6b9fb25"},"vehicle_type_id":"4","last_reported":1784869802,"current_range_meters":23200,"station_id":"ce4bh412rcd13ifvqds0","pricing_plan_id":"cebpf4jnsgd1na2vs0mg"},{"bike_id":"2b5becdf-f8e2-49e5-a55c-775afd13da26","system_id":"levelo_inurba_marseille","lat":43.21196,"lon":5.3507,"is_reserved":false,"is_disabled":false,"rental_uris":{"android":"levelo://app?vid=2b5becdf-f8e2-49e5-a55c-775afd13da26","ios":"levelo://app?vid=2b5becdf-f8e2-49e5-a55c-775afd13da26"},"vehicle_type_id":"4","last_reported":1784869802,"current_range_meters":6800,"station_id":"st_cvj6sg6p6f1abm77japg","pricing_plan_id":"cebpf4jnsgd1na2vs0mg"},{"bike_id":"75146afd-6944-4808-9153-760cee29f303","system_id":"levelo_inurba_marseille","lat":43.24659,"lon":5.37853,"is_reserved":false,"is_disabled":false,"rental_uris":{"android":"levelo://app?vid=75146afd-6944-4808-9153-760cee29f303","ios":"levelo://app?vid=75146afd-6944-4808-9153-760cee29f303"},"vehicle_type_id":"4","last_reported":1784869802,"current_range_meters":18000,"station_id":"","pricing_plan_id":"cebpf4jnsgd1na2vs0mg"},{"bike_id":"283163f1-8552-421c-9067-d2fb326bee26","system_id":"levelo_inurba_marseille","lat":43.31896,"lon":5.36813,"is_reserved":false,"is_disabled":false,"rental_uris":{"android":"levelo://app?vid=283163f1-8552-421c-9067-d2fb326bee26","ios":"levelo://app?vid=283163f1-8552-421c-9067-d2fb326bee26"},"vehicle_type_id":"4","last_reported":1784869802,"current_range_meters":28000,"station_id":"st_d6o2h0d0559c73evc1b0","pricing_plan_id":"cebpf4jnsgd1na2vs0mg"},{"bike_id":"f38ef9a1-1a1d-4244-a204-17a7926259bd","system_id":"levelo_inurba_marseille","lat":43.26556,"lon":5.40321,"is_reserved":false,"is_disabled":false,"rental_uris":{"android":"levelo://app?vid=f38ef9a1-1a1d-4244-a204-17a7926259bd","ios":"levelo://app?vid=f38ef9a1-1a1d-4244-a204-17a7926259bd"},"vehicle_type_id":"4","last_reported":1784869802,"current_range_meters":27600,"station_id":"ce4bhmp2rcd13ifvqgng","pricing_plan_id":"cebpf4jnsgd1na2vs0mg"},{"bike_id":"1d2afb4e-945b-4668-9072-41ed9da1567d","system_id":"levelo_inurba_marseille","lat":43.28003,"lon":5.38239,"is_reserved":false,"is_disabled":false,"rental_uris":{"android":"levelo://app?vid=1d2afb4e-945b-4668-9072-41ed9da1567d","ios":"levelo://app?vid=1d2afb4e-945b-4668-9072-41ed9da1567d"},"vehicle_type_id":"4","last_reported":1784869802,"current_range_meters":8800,"station_id":"","pricing_plan_id":"cebpf4jnsgd1na2vs0mg"},{"bike_id":"62d77c3c-0cd8-4aad-9f5b-b707e4392beb","system_id":"levelo_inurba_marseille","lat":43.30792,"lon":5.38212,"is_reserved":false,"is_disabled":false,"rental_uris":{"android":"levelo://app?vid=62d77c3c-0cd8-4aad-9f5b-b707e4392beb","ios":"levelo://app?vid=62d77c3c-0cd8-4aad-9f5b-b707e4392beb"},"vehicle_type_id":"4","last_reported":1784869802,"current_range_meters":30000,"station_id":"","pricing_plan_id":"cebpf4jnsgd1na2vs0mg"},{"bike_id":"ae9059ae-33bc-4c56-8e97-d6b36b6f158a","system_id":"levelo_inurba_marseille","lat":43.33556,"lon":5.37443,"is_reserved":false,"is_disabled":false,"rental_uris":{"android":"levelo://app?vid=ae9059ae-33bc-4c56-8e97-d6b36b6f158a","ios":"levelo://app?vid=ae9059ae-33bc-4c56-8e97-d6b36b6f158a"},"vehicle_type_id":"4","last_reported":1784869802,"current_range_meters":28800,"station_id":"st_d46tts09ee8s73dlu43g","pricing_plan_id":"cebpf4jnsgd1na2vs0mg"},{"bike_id":"56d7fdf6-2809-4d1f-a5a5-69ad3bb820aa","system_id":"levelo_inurba_marseille","lat":43.30108,"lon":5.39065,"is_reserved":false,"is_disabled":false,"rental_uris":{"android":"levelo://app?vid=56d7fdf6-2809-4d1f-a5a5-69ad3bb820aa","ios":"levelo://app?vid=56d7fdf6-2809-4d1f-a5a5-69ad3bb820aa"},"vehicle_type_id":"4","last_reported":1784869802,"current_range_meters":36000,"station_id":"ce4bh192rcd13ifvqdb0","pricing_plan_id":"cebpf4jnsgd1na2vs0mg"},{"bike_id":"e71c99ec-ce81-4a63-9c42-f9d47885d377","system_id":"levelo_inurba_marseille","lat":43.29693,"lon":5.37697,"is_reserved":false,"is_disabled":false,"rental_uris":{"android":"levelo://app?vid=e71c99ec-ce81-4a63-9c42-f9d47885d377","ios":"levelo://app?vid=e71c99ec-ce81-4a63-9c42-f9d47885d377"},"vehicle_type_id":"4","last_reported":1784869802,"current_range_meters":38400,"station_id":"ce4bgkh2rcd13ifvqbl0","pricing_plan_id":"cebpf4jnsgd1na2vs0mg"},{"bike_id":"b16b969a-540b-457e-b537-7f7cd2be2438","system_id":"levelo_inurba_marseille","lat":43.28929,"lon":5.36636,"is_reserved":false,"is_disabled":false,"rental_uris":{"android":"levelo://app?vid=b16b969a-540b-457e-b537-7f7cd2be2438","ios":"levelo://app?vid=b16b969a-540b-457e-b537-7f7cd2be2438"},"vehicle_type_id":"4","last_reported":1784869802,"current_range_meters":36800,"station_id":"ce4bhap2rcd13ifvqek0","pricing_plan_id":"cebpf4jnsgd1na2vs0mg"},{"bike_id":"2f2a2d7c-30ff-42c5-a361-edfbfc6e2ffa","system_id":"levelo_inurba_marseille","lat":43.28487,"lon":5.38358,"is_reserved":false,"is_disabled":false,"rental_uris":{"android":"levelo://app?vid=2f2a2d7c-30ff-42c5-a361-edfbfc6e2ffa","ios":"levelo://app?vid=2f2a2d7c-30ff-42c5-a361-edfbfc6e2ffa"},"vehicle_type_id":"4","last_reported":1784869802,"current_range_meters":38800,"station_id":"ce4bh512rcd13ifvqe3g","pricing_plan_id":"cebpf4jnsgd1na2vs0mg"},{"bike_id":"acb6c310-64e8-4ffb-9d0e-3645b38213aa","system_id":"levelo_inurba_marseille","lat":43.22565,"lon":5.41627,"is_reserved":false,"is_disabled":false,"rental_uris":{"android":"levelo://app?vid=acb6c310-64e8-4ffb-9d0e-3645b38213aa","ios":"levelo://app?vid=acb6c310-64e8-4ffb-9d0e-3645b38213aa"},"vehicle_type_id":"4","last_reported":1784869802,"current_range_meters":38400,"station_id":"st_d2o4gvlbi1j2169b742g","pricing_plan_id":"cebpf4jnsgd1na2vs0mg"},{"bike_id":"355c2f07-7128-4df8-8798-9cbfa5f73e55","system_id":"levelo_inurba_marseille","lat":43.30444,"lon":5.38882,"is_reserved":false,"is_disabled":false,"rental_uris":{"android":"levelo://app?vid=355c2f07-7128-4df8-8798-9cbfa5f73e55","ios":"levelo://app?vid=355c2f07-7128-4df8-8798-9cbfa5f73e55"},"vehicle_type_id":"4","last_reported":1784869802,"current_range_meters":30400,"station_id":"ce4bgk12rcd13ifvqbi0","pricing_plan_id":"cebpf4jnsgd1na2vs0mg"},{"bike_id":"f43fd5c4-8d3e-4319-a8f8-71c58f46f44a","system_id":"levelo_inurba_marseille","lat":43.2861,"lon":5.39891,"is_reserved":false,"is_disabled":false,"rental_uris":{"android":"levelo://app?vid=f43fd5c4-8d3e-4319-a8f8-71c58f46f44a","ios":"levelo://app?vid=f43fd5c4-8d3e-4319-a8f8-71c58f46f44a"},"vehicle_type_id":"4","last_reported":1784869802,"current_range_meters":32400,"station_id":"st_d4a7ka997mjs738ck50g","pricing_plan_id":"cebpf4jnsgd1na2vs0mg"},{"bike_id":"2b2d5806-a98a-4b6d-8666-219c96826a65","system_id":"levelo_inurba_marseille","lat":43.33025,"lon":5.39053,"is_reserved":false,"is_disabled":false,"rental_uris":{"android":"levelo://app?vid=2b2d5806-a98a-4b6d-8666-219c96826a65","ios":"levelo://app?vid=2b2d5806-a98a-4b6d-8666-219c96826a65"},"vehicle_type_id":"4","last_reported":1784869802,"current_range_meters":3200,"station_id":"ce4bhr92rcd13ifvqhrg","pricing_plan_id":"cebpf4jnsgd1na2vs0mg"},{"bike_id":"9d4b8430-c687-4ce9-b117-2b375d0afc9f","system_id":"levelo_inurba_marseille","lat":43.23161,"lon":5.43719,"is_reserved":false,"is_disabled":false,"rental_uris":{"android":"levelo://app?vid=9d4b8430-c687-4ce9-b117-2b375d0afc9f","ios":"levelo://app?vid=9d4b8430-c687-4ce9-b117-2b375d0afc9f"},"vehicle_type_id":"4","last_reported":1784869802,"current_range_meters":29600,"station_id":"ce4bhmp2rcd13ifvqgog","pricing_plan_id":"cebpf4jnsgd1na2vs0mg"},{"bike_id":"57a7893b-8927-4c24-80bb-3547946908a9","system_id":"levelo_inurba_marseille","lat":43.29198,"lon":5.39326,"is_reserved":false,"is_disabled":false,"rental_uris":{"android":"levelo://app?vid=57a7893b-8927-4c24-80bb-3547946908a9","ios":"levelo://app?vid=57a7893b-8927-4c24-80bb-3547946908a9"},"vehicle_type_id":"4","last_reported":1784869802,"current_range_meters":38400,"station_id":"ce4bh192rcd13ifvqdd0","pricing_plan_id":"cebpf4jnsgd1na2vs0mg"},{"bike_id":"09450a3b-582d-494d-adec-1b8eb279133b","system_id":"levelo_inurba_marseille","lat":43.30326,"lon":5.40442,"is_reserved":false,"is_disabled":false,"rental_uris":{"android":"levelo://app?vid=09450a3b-582d-494d-adec-1b8eb279133b","ios":"levelo://app?vid=09450a3b-582d-494d-adec-1b8eb279133b"},"vehicle_type_id":"4","last_reported":1784869802,"current_range_meters":39200,"station_id":"ce4bh012rcd13ifvqd10","pricing_plan_id":"cebpf4jnsgd1na2vs0mg"},{"bike_id":"9ebe5ee9-a40d-4de0-9312-61a1758a5ea5","system_id":"levelo_inurba_marseille","lat":43.29607,"lon":5.37739,"is_reserved":false,"is_disabled":false,"rental_uris":{"android":"levelo://app?vid=9ebe5ee9-a40d-4de0-9312-61a1758a5ea5","ios":"levelo://app?vid=9ebe5ee9-a40d-4de0-9312-61a1758a5ea5"},"vehicle_type_id":"4","last_reported":1784869802,"current_range_meters":39200,"station_id":"ce4bgi92rcd13ifvqb90","pricing_plan_id":"cebpf4jnsgd1na2vs0mg"},{"bike_id":"1a63a6ba-18ef-4fb4-8bd4-15d51e28fcdc","system_id":"levelo_inurba_marseille","lat":43.25116,"lon":5.4033,"is_reserved":false,"is_disabled":false,"rental_uris":{"android":"levelo://app?vid=1a63a6ba-18ef-4fb4-8bd4-15d51e28fcdc","ios":"levelo://app?vid=1a63a6ba-18ef-4fb4-8bd4-15d51e28fcdc"},"vehicle_type_id":"4","last_reported":1784869802,"current_range_meters":21600,"station_id":"ce4bhlh2rcd13ifvqgig","pricing_plan_id":"cebpf4jnsgd1na2vs0mg"},{"bike_id":"4c209a3c-3467-48ee-bbe7-951e6e20ec55","system_id":"levelo_inurba_marseille","lat":43.30927,"lon":5.40158,"is_reserved":false,"is_disabled":false,"rental_uris":{"android":"levelo://app?vid=4c209a3c-3467-48ee-bbe7-951e6e20ec55","ios":"levelo://app?vid=4c209a3c-3467-48ee-bbe7-951e6e20ec55"},"vehicle_type_id":"4","last_reported":1784869802,"current_range_meters":28400,"station_id":"ce4bgvp2rcd13ifvqct0","pricing_plan_id":"cebpf4jnsgd1na2vs0mg"},{"bike_id":"429123e4-dc43-429b-abc2-42a83c22e46e","system_id":"levelo_inurba_marseille","lat":43.23229,"lon":5.35772,"is_reserved":false,"is_disabled":false,"rental_uris":{"android":"levelo://app?vid=429123e4-dc43-429b-abc2-42a83c22e46e","ios":"levelo://app?vid=429123e4-dc43-429b-abc2-42a83c22e46e"},"vehicle_type_id":"4","last_reported":1784869802,"current_range_meters":28800,"station_id":"ce4bhu92rcd13ifvqi70","pricing_plan_id":"cebpf4jnsgd1na2vs0mg"},{"bike_id":"8361803b-c17e-463f-b2ae-0e6658f7b8d2","system_id":"levelo_inurba_marseille","lat":43.28582,"lon":5.39899,"is_reserved":false,"is_disabled":false,"rental_uris":{"android":"levelo://app?vid=8361803b-c17e-463f-b2ae-0e6658f7b8d2","ios":"levelo://app?vid=8361803b-c17e-463f-b2ae-0e6658f7b8d2"},"vehicle_type_id":"4","last_reported":1784869802,"current_range_meters":30000,"station_id":"st_d4a7ka997mjs738ck50g","pricing_plan_id":"cebpf4jnsgd1na2vs0mg"},{"bike_id":"a9500356-c19d-415e-81ed-a8d1baa0c959","system_id":"levelo_inurba_marseille","lat":43.30142,"lon":5.38777,"is_reserved":false,"is_disabled":true,"rental_uris":{"android":"levelo://app?vid=a9500356-c19d-415e-81ed-a8d1baa0c959","ios":"levelo://app?vid=a9500356-c19d-415e-81ed-a8d1baa0c959"},"vehicle_type_id":"4","last_reported":1784869802,"current_range_meters":23200,"station_id":"ce4bghh2rcd13ifvqb60","pricing_plan_id":"cebpf4jnsgd1na2vs0mg"},{"bike_id":"780d70f3-95c4-44fa-ba2a-f31e2ebd1bf6","system_id":"levelo_inurba_marseille","lat":43.29943,"lon":5.38559,"is_reserved":false,"is_disabled":true,"rental_uris":{"android":"levelo://app?vid=780d70f3-95c4-44fa-ba2a-f31e2ebd1bf6","ios":"levelo://app?vid=780d70f3-95c4-44fa-ba2a-f31e2ebd1bf6"},"vehicle_type_id":"4","last_reported":1784869802,"current_range_meters":28400,"station_id":"","pricing_plan_id":"cebpf4jnsgd1na2vs0mg"},{"bike_id":"bace381c-6258-4d80-80f1-070c343af026","system_id":"levelo_inurba_marseille","lat":43.33162,"lon":5.37699,"is_reserved":false,"is_disabled":false,"rental_uris":{"android":"levelo://app?vid=bace381c-6258-4d80-80f1-070c343af026","ios":"levelo://app?vid=bace381c-6258-4d80-80f1-070c343af026"},"vehicle_type_id":"4","last_reported":1784869802,"current_range_meters":32000,"station_id":"st_d46cu089ee8s73dldbu0","pricing_plan_id":"cebpf4jnsgd1na2vs0mg"},{"bike_id":"7369c976-3c3b-40fa-a52b-30f587df3271","system_id":"levelo_inurba_marseille","lat":43.33728,"lon":5.39183,"is_reserved":false,"is_disabled":false,"rental_uris":{"android":"levelo://app?vid=7369c976-3c3b-40fa-a52b-30f587df3271","ios":"levelo://app?vid=7369c976-3c3b-40fa-a52b-30f587df3271"},"vehicle_type_id":"4","last_reported":1784869802,"current_range_meters":38400,"station_id":"ce4bhr92rcd13ifvqhsg","pricing_plan_id":"cebpf4jnsgd1na2vs0mg"},{"bike_id":"109d5a63-d486-4695-b934-74276612dd35","system_id":"levelo_inurba_marseille","lat":43.287377,"lon":5.361139,"is_reserved":false,"is_disabled":false,"rental_uris":{"android":"levelo://app?vid=109d5a63-d486-4695-b934-74276612dd35","ios":"levelo://app?vid=109d5a63-d486-4695-b934-74276612dd35"},"vehicle_type_id":"4","last_reported":1784869802,"current_range_meters":22000,"station_id":"","pricing_plan_id":"cebpf4jnsgd1na2vs0mg"},{"bike_id":"e17069a6-fce1-4c12-9a52-0066b5a0a5db","system_id":"levelo_inurba_marseille","lat":43.30247,"lon":5.40049,"is_reserved":false,"is_disabled":false,"rental_uris":{"android":"levelo://app?vid=e17069a6-fce1-4c12-9a52-0066b5a0a5db","ios":"levelo://app?vid=e17069a6-fce1-4c12-9a52-0066b5a0a5db"},"vehicle_type_id":"4","last_reported":1784869802,"current_range_meters":35600,"station_id":"ce4bgvh2rcd13ifvqcs0","pricing_plan_id":"cebpf4jnsgd1na2vs0mg"},{"bike_id":"e9e543b0-8ca5-47a6-998c-4902ea53cdd4","system_id":"levelo_inurba_marseille","lat":43.25203,"lon":5.37371,"is_reserved":false,"is_disabled":true,"rental_uris":{"android":"levelo://app?vid=e9e543b0-8ca5-47a6-998c-4902ea53cdd4","ios":"levelo://app?vid=e9e543b0-8ca5-47a6-998c-4902ea53cdd4"},"vehicle_type_id":"4","last_reported":1784869802,"current_range_meters":6800,"station_id":"","pricing_plan_id":"cebpf4jnsgd1na2vs0mg"},{"bike_id":"b98785ca-6996-4560-b3bf-7ae0e3b1f17f","system_id":"levelo_inurba_marseille","lat":43.23171,"lon":5.43707,"is_reserved":false,"is_disabled":false,"rental_uris":{"android":"levelo://app?vid=b98785ca-6996-4560-b3bf-7ae0e3b1f17f","ios":"levelo://app?vid=b98785ca-6996-4560-b3bf-7ae0e3b1f17f"},"vehicle_type_id":"4","last_reported":1784869802,"current_range_meters":38000,"station_id":"ce4bhmp2rcd13ifvqgog","pricing_plan_id":"cebpf4jnsgd1na2vs0mg"},{"bike_id":"62bf8e72-a053-4bd3-bca8-0849ee7b0af0","system_id":"levelo_inurba_marseille","lat":43.30324,"lon":5.37809,"is_reserved":false,"is_disabled":false,"rental_uris":{"android":"levelo://app?vid=62bf8e72-a053-4bd3-bca8-0849ee7b0af0","ios":"levelo://app?vid=62bf8e72-a053-4bd3-bca8-0849ee7b0af0"},"vehicle_type_id":"4","last_reported":1784869802,"current_range_meters":35600,"station_id":"","pricing_plan_id":"cebpf4jnsgd1na2vs0mg"},{"bike_id":"fe2fcfcf-3ba9-4b4c-b1c1-9378323cfb57","system_id":"levelo_inurba_marseille","lat":43.33777,"lon":5.3745,"is_reserved":false,"is_disabled":false,"rental_uris":{"android":"levelo://app?vid=fe2fcfcf-3ba9-4b4c-b1c1-9378323cfb57","ios":"levelo://app?vid=fe2fcfcf-3ba9-4b4c-b1c1-9378323cfb57"},"vehicle_type_id":"4","last_reported":1784869802,"current_range_meters":7200,"station_id":"","pricing_plan_id":"cebpf4jnsgd1na2vs0mg"},{"bike_id":"07381100-2a43-412d-8493-6e36d0198e03","system_id":"levelo_inurba_marseille","lat":43.29972,"lon":5.38484,"is_reserved":false,"is_disabled":true,"rental_uris":{"android":"levelo://app?vid=07381100-2a43-412d-8493-6e36d0198e03","ios":"levelo://app?vid=07381100-2a43-412d-8493-6e36d0198e03"},"vehicle_type_id":"4","last_reported":1784869802,"current_range_meters":9200,"station_id":"ce4bgj92rcd13ifvqbd0","pricing_plan_id":"cebpf4jnsgd1na2vs0mg"},{"bike_id":"693c14b8-dea8-4bd6-9209-8f095362b343","system_id":"levelo_inurba_marseille","lat":43.25861,"lon":5.40424,"is_reserved":false,"is_disabled":false,"rental_uris":{"android":"levelo://app?vid=693c14b8-dea8-4bd6-9209-8f095362b343","ios":"levelo://app?vid=693c14b8-dea8-4bd6-9209-8f095362b343"},"vehicle_type_id":"4","last_reported":1784869802,"current_range_meters":24800,"station_id":"","pricing_plan_id":"cebpf4jnsgd1na2vs0mg"},{"bike_id":"0c4dcfb7-66f0-464a-999f-ec3fbbd56f9f","system_id":"levelo_inurba_marseille","lat":43.28489,"lon":5.3842,"is_reserved":false,"is_disabled":false,"rental_uris":{"android":"levelo://app?vid=0c4dcfb7-66f0-464a-999f-ec3fbbd56f9f","ios":"levelo://app?vid=0c4dcfb7-66f0-464a-999f-ec3fbbd56f9f"},"vehicle_type_id":"4","last_reported":1784869802,"current_range_meters":32400,"station_id":"ce4bh512rcd13ifvqe3g","pricing_plan_id":"cebpf4jnsgd1na2vs0mg"},{"bike_id":"c9548d18-87ea-4cd5-bd16-4afa33e5f19a","system_id":"levelo_inurba_marseille","lat":43.28611,"lon":5.3706,"is_reserved":false,"is_disabled":false,"rental_uris":{"android":"levelo://app?vid=c9548d18-87ea-4cd5-bd16-4afa33e5f19a","ios":"levelo://app?vid=c9548d18-87ea-4cd5-bd16-4afa33e5f19a"},"vehicle_type_id":"4","last_reported":1784869802,"current_range_meters":27200,"station_id":"ce4bht12rcd13ifvqi60","pricing_plan_id":"cebpf4jnsgd1na2vs0mg"},{"bike_id":"a6e39fb0-f2e5-41d8-b4aa-b3071fa9ec56","system_id":"levelo_inurba_marseille","lat":43.23133,"lon":5.43716,"is_reserved":false,"is_disabled":false,"rental_uris":{"android":"levelo://app?vid=a6e39fb0-f2e5-41d8-b4aa-b3071fa9ec56","ios":"levelo://app?vid=a6e39fb0-f2e5-41d8-b4aa-b3071fa9ec56"},"vehicle_type_id":"4","last_reported":1784869802,"current_range_meters":20000,"station_id":"ce4bhmp2rcd13ifvqgog","pricing_plan_id":"cebpf4jnsgd1na2vs0mg"},{"bike_id":"82eb37f2-e99a-4ee2-956f-b1b7ae8e7a02","system_id":"levelo_inurba_marseille","lat":43.34147,"lon":5.40901,"is_reserved":false,"is_disabled":false,"rental_uris":{"android":"levelo://app?vid=82eb37f2-e99a-4ee2-956f-b1b7ae8e7a02","ios":"levelo://app?vid=82eb37f2-e99a-4ee2-956f-b1b7ae8e7a02"},"vehicle_type_id":"4","last_reported":1784869802,"current_range_meters":39200,"station_id":"ce4bhqh2rcd13ifvqhlg","pricing_plan_id":"cebpf4jnsgd1na2vs0mg"},{"bike_id":"a2c9fd6e-925c-4795-ba3f-b9c641931695","system_id":"levelo_inurba_marseille","lat":43.3145,"lon":5.37346,"is_reserved":false,"is_disabled":true,"rental_uris":{"android":"levelo://app?vid=a2c9fd6e-925c-4795-ba3f-b9c641931695","ios":"levelo://app?vid=a2c9fd6e-925c-4795-ba3f-b9c641931695"},"vehicle_type_id":"4","last_reported":1784869802,"current_range_meters":17200,"station_id":"ce4bgt12rcd13ifvqcd0","pricing_plan_id":"cebpf4jnsgd1na2vs0mg"},{"bike_id":"d15acef8-1bae-4a6d-a8d1-43e11b8ea147","system_id":"levelo_inurba_marseille","lat":43.29026,"lon":5.35697,"is_reserved":false,"is_disabled":true,"rental_uris":{"android":"levelo://app?vid=d15acef8-1bae-4a6d-a8d1-43e11b8ea147","ios":"levelo://app?vid=d15acef8-1bae-4a6d-a8d1-43e11b8ea147"},"vehicle_type_id":"4","last_reported":1784869802,"current_range_meters":28000,"station_id":"","pricing_plan_id":"cebpf4jnsgd1na2vs0mg"},{"bike_id":"52ca3962-268d-4ff7-b4f6-ba502b6ccf14","system_id":"levelo_inurba_marseille","lat":43.29579,"lon":5.3751,"is_reserved":false,"is_disabled":false,"rental_uris":{"android":"levelo://app?vid=52ca3962-268d-4ff7-b4f6-ba502b6ccf14","ios":"levelo://app?vid=52ca3962-268d-4ff7-b4f6-ba502b6ccf14"},"vehicle_type_id":"4","last_reported":1784869802,"current_range_meters":35600,"station_id":"ce4bgh92rcd13ifvqb50","pricing_plan_id":"cebpf4jnsgd1na2vs0mg"},{"bike_id":"7b7c350c-7fa0-4260-b6c2-812c00fe7727","system_id":"levelo_inurba_marseille","lat":43.32112,"lon":5.36765,"is_reserved":false,"is_disabled":false,"rental_uris":{"android":"levelo://app?vid=7b7c350c-7fa0-4260-b6c2-812c00fe7727","ios":"levelo://app?vid=7b7c350c-7fa0-4260-b6c2-812c00fe7727"},"vehicle_type_id":"4","last_reported":1784869802,"current_range_meters":22800,"station_id":"ce4bhrh2rcd13ifvqhug","pricing_plan_id":"cebpf4jnsgd1na2vs0mg"},{"bike_id":"002b6de9-4906-4900-bd53-a26437451aab","system_id":"levelo_inurba_marseille","lat":43.33259,"lon":5.359,"is_reserved":false,"is_disabled":false,"rental_uris":{"android":"levelo://app?vid=002b6de9-4906-4900-bd53-a26437451aab","ios":"levelo://app?vid=002b6de9-4906-4900-bd53-a26437451aab"},"vehicle_type_id":"4","last_reported":1784869802,"current_range_meters":8800,"station_id":"","pricing_plan_id":"cebpf4jnsgd1na2vs0mg"},{"bike_id":"a4728acf-f92a-46f2-b641-77784632692b","system_id":"levelo_inurba_marseille","lat":43.2962,"lon":5.40633,"is_reserved":false,"is_disabled":false,"rental_uris":{"android":"levelo://app?vid=a4728acf-f92a-46f2-b641-77784632692b","ios":"levelo://app?vid=a4728acf-f92a-46f2-b641-77784632692b"},"vehicle_type_id":"4","last_reported":1784869802,"current_range_meters":39200,"station_id":"ce4bh0h2rcd13ifvqd60","pricing_plan_id":"cebpf4jnsgd1na2vs0mg"},{"bike_id":"edeea96f-e7a0-434f-aa8a-693c64e6516b","system_id":"levelo_inurba_marseille","lat":43.29438,"lon":5.39784,"is_reserved":false,"is_disabled":false,"rental_uris":{"android":"levelo://app?vid=edeea96f-e7a0-434f-aa8a-693c64e6516b","ios":"levelo://app?vid=edeea96f-e7a0-434f-aa8a-693c64e6516b"},"vehicle_type_id":"4","last_reported":1784869802,"current_range_meters":39200,"station_id":"ce4bh3h2rcd13ifvqdo0","pricing_plan_id":"cebpf4jnsgd1na2vs0mg"},{"bike_id":"ef59dbb7-3d39-4e5b-85d6-ca899a34e7dc","system_id":"levelo_inurba_marseille","lat":43.2707,"lon":5.42302,"is_reserved":false,"is_disabled":false,"rental_uris":{"android":"levelo://app?vid=ef59dbb7-3d39-4e5b-85d6-ca899a34e7dc","ios":"levelo://app?vid=ef59dbb7-3d39-4e5b-85d6-ca899a34e7dc"},"vehicle_type_id":"4","last_reported":1784869802,"current_range_meters":39200,"station_id":"ce4bhk92rcd13ifvqgb0","pricing_plan_id":"cebpf4jnsgd1na2vs0mg"},{"bike_id":"ffbc1fde-a934-48b1-89fb-948359611108","system_id":"levelo_inurba_marseille","lat":43.309,"lon":5.37287,"is_reserved":false,"is_disabled":false,"rental_uris":{"android":"levelo://app?vid=ffbc1fde-a934-48b1-89fb-948359611108","ios":"levelo://app?vid=ffbc1fde-a934-48b1-89fb-948359611108"},"vehicle_type_id":"4","last_reported":1784869802,"current_range_meters":28800,"station_id":"","pricing_plan_id":"cebpf4jnsgd1na2vs0mg"},{"bike_id":"0706f79a-b938-4dbf-90f3-9182e12538c7","system_id":"levelo_inurba_marseille","lat":43.25089,"lon":5.39507,"is_reserved":false,"is_disabled":false,"rental_uris":{"android":"levelo://app?vid=0706f79a-b938-4dbf-90f3-9182e12538c7","ios":"levelo://app?vid=0706f79a-b938-4dbf-90f3-9182e12538c7"},"vehicle_type_id":"4","last_reported":1784869802,"current_range_meters":38400,"station_id":"ce4bhm12rcd13ifvqgkg","pricing_plan_id":"cebpf4jnsgd1na2vs0mg"},{"bike_id":"bd8b3369-74a8-4511-bee7-721b894466b2","system_id":"levelo_inurba_marseille","lat":43.23747,"lon":5.36657,"is_reserved":false,"is_disabled":false,"rental_uris":{"android":"levelo://app?vid=bd8b3369-74a8-4511-bee7-721b894466b2","ios":"levelo://app?vid=bd8b3369-74a8-4511-bee7-721b894466b2"},"vehicle_type_id":"4","last_reported":1784869802,"current_range_meters":38800,"station_id":"st_d3nk18o9ro0c73en2l3g","pricing_plan_id":"cebpf4jnsgd1na2vs0mg"},{"bike_id":"0c03ba80-f3b9-4903-ba69-c647e5633719","system_id":"levelo_inurba_marseille","lat":43.29481,"lon":5.39456,"is_reserved":false,"is_disabled":false,"rental_uris":{"android":"levelo://app?vid=0c03ba80-f3b9-4903-ba69-c647e5633719","ios":"levelo://app?vid=0c03ba80-f3b9-4903-ba69-c647e5633719"},"vehicle_type_id":"4","last_reported":1784869802,"current_range_meters":34800,"station_id":"","pricing_plan_id":"cebpf4jnsgd1na2vs0mg"},{"bike_id":"22e66e8b-f008-4d04-b17c-751d019a7a36","system_id":"levelo_inurba_marseille","lat":43.29837,"lon":5.4407,"is_reserved":false,"is_disabled":false,"rental_uris":{"android":"levelo://app?vid=22e66e8b-f008-4d04-b17c-751d019a7a36","ios":"levelo://app?vid=22e66e8b-f008-4d04-b17c-751d019a7a36"},"vehicle_type_id":"4","last_reported":1784869802,"current_range_meters":35200,"station_id":"st_d3jp68qikq2c7381ktn0","pricing_plan_id":"cebpf4jnsgd1na2vs0mg"},{"bike_id":"1981d3ef-d7ae-460e-a247-e2f1120f8322","system_id":"levelo_inurba_marseille","lat":43.2459,"lon":5.41954,"is_reserved":false,"is_disabled":false,"rental_uris":{"android":"levelo://app?vid=1981d3ef-d7ae-460e-a247-e2f1120f8322","ios":"levelo://app?vid=1981d3ef-d7ae-460e-a247-e2f1120f8322"},"vehicle_type_id":"4","last_reported":1784869802,"current_range_meters":11200,"station_id":"","pricing_plan_id":"cebpf4jnsgd1na2vs0mg"},{"bike_id":"8504615a-04ed-41f8-867c-00ecf3189a0e","system_id":"levelo_inurba_marseille","lat":43.2454,"lon":5.39531,"is_reserved":false,"is_disabled":false,"rental_uris":{"android":"levelo://app?vid=8504615a-04ed-41f8-867c-00ecf3189a0e","ios":"levelo://app?vid=8504615a-04ed-41f8-867c-00ecf3189a0e"},"vehicle_type_id":"4","last_reported":1784869802,"current_range_meters":23200,"station_id":"ce4bhlp2rcd13ifvqgjg","pricing_plan_id":"cebpf4jnsgd1na2vs0mg"},{"bike_id":"bbb6d84d-52b2-4523-b78b-60cb354411ef","system_id":"levelo_inurba_marseille","lat":43.32103,"lon":5.36757,"is_reserved":false,"is_disabled":false,"rental_uris":{"android":"levelo://app?vid=bbb6d84d-52b2-4523-b78b-60cb354411ef","ios":"levelo://app?vid=bbb6d84d-52b2-4523-b78b-60cb354411ef"},"vehicle_type_id":"4","last_reported":1784869802,"current_range_meters":30400,"station_id":"ce4bhrh2rcd13ifvqhug","pricing_plan_id":"cebpf4jnsgd1na2vs0mg"},{"bike_id":"07068806-c858-4996-b912-2f01191d4ae4","system_id":"levelo_inurba_marseille","lat":43.30142,"lon":5.38065,"is_reserved":false,"is_disabled":false,"rental_uris":{"android":"levelo://app?vid=07068806-c858-4996-b912-2f01191d4ae4","ios":"levelo://app?vid=07068806-c858-4996-b912-2f01191d4ae4"},"vehicle_type_id":"4","last_reported":1784869802,"current_range_meters":30000,"station_id":"","pricing_plan_id":"cebpf4jnsgd1na2vs0mg"},{"bike_id":"0fb69e68-2442-4daa-851f-442099ce438b","system_id":"levelo_inurba_marseille","lat":43.30182,"lon":5.40189,"is_reserved":false,"is_disabled":false,"rental_uris":{"android":"levelo://app?vid=0fb69e68-2442-4daa-851f-442099ce438b","ios":"levelo://app?vid=0fb69e68-2442-4daa-851f-442099ce438b"},"vehicle_type_id":"4","last_reported":1784869802,"current_range_meters":2800,"station_id":"","pricing_plan_id":"cebpf4jnsgd1na2vs0mg"},{"bike_id":"7c215944-6de0-44b9-b267-ecfcdb73eb11","system_id":"levelo_inurba_marseille","lat":43.27803,"lon":5.40701,"is_reserved":false,"is_disabled":true,"rental_uris":{"android":"levelo://app?vid=7c215944-6de0-44b9-b267-ecfcdb73eb11","ios":"levelo://app?vid=7c215944-6de0-44b9-b267-ecfcdb73eb11"},"vehicle_type_id":"4","last_reported":1784869802,"current_range_meters":37600,"station_id":"ce4bhnh2rcd13ifvqgtg","pricing_plan_id":"cebpf4jnsgd1na2vs0mg"},{"bike_id":"a9863fcb-8ca0-4220-b083-cb27e96475fe","system_id":"levelo_inurba_marseille","lat":43.23195,"lon":5.35549,"is_reserved":false,"is_disabled":false,"rental_uris":{"android":"levelo://app?vid=a9863fcb-8ca0-4220-b083-cb27e96475fe","ios":"levelo://app?vid=a9863fcb-8ca0-4220-b083-cb27e96475fe"},"vehicle_type_id":"4","last_reported":1784869802,"current_range_meters":38400,"station_id":"ce4bhu92rcd13ifvqi70","pricing_plan_id":"cebpf4jnsgd1na2vs0mg"},{"bike_id":"da662eb2-2fed-42f5-ac63-ca7508e2d2b6","system_id":"levelo_inurba_marseille","lat":43.30127,"lon":5.38789,"is_reserved":false,"is_disabled":false,"rental_uris":{"android":"levelo://app?vid=da662eb2-2fed-42f5-ac63-ca7508e2d2b6","ios":"levelo://app?vid=da662eb2-2fed-42f5-ac63-ca7508e2d2b6"},"vehicle_type_id":"4","last_reported":1784869802,"current_range_meters":36400,"station_id":"ce4bghh2rcd13ifvqb60","pricing_plan_id":"cebpf4jnsgd1na2vs0mg"},{"bike_id":"ded3b29b-0517-489c-a10d-8b949bc6e37f","system_id":"levelo_inurba_marseille","lat":43.33745,"lon":5.37472,"is_reserved":false,"is_disabled":false,"rental_uris":{"android":"levelo://app?vid=ded3b29b-0517-489c-a10d-8b949bc6e37f","ios":"levelo://app?vid=ded3b29b-0517-489c-a10d-8b949bc6e37f"},"vehicle_type_id":"4","last_reported":1784869802,"current_range_meters":39200,"station_id":"","pricing_plan_id":"cebpf4jnsgd1na2vs0mg"},{"bike_id":"933c17f3-9918-4466-9995-f06448525110","system_id":"levelo_inurba_marseille","lat":43.29781,"lon":5.39349,"is_reserved":false,"is_disabled":false,"rental_uris":{"android":"levelo://app?vid=933c17f3-9918-4466-9995-f06448525110","ios":"levelo://app?vid=933c17f3-9918-4466-9995-f06448525110"},"vehicle_type_id":"4","last_reported":1784869802,"current_range_meters":36400,"station_id":"chh1huq6cuj3fo74tm60","pricing_plan_id":"cebpf4jnsgd1na2vs0mg"},{"bike_id":"6beb94b0-4283-4f7d-810d-b229619bc024","system_id":"levelo_inurba_marseille","lat":43.229591,"lon":5.444884,"is_reserved":false,"is_disabled":false,"rental_uris":{"android":"levelo://app?vid=6beb94b0-4283-4f7d-810d-b229619bc024","ios":"levelo://app?vid=6beb94b0-4283-4f7d-810d-b229619bc024"},"vehicle_type_id":"4","last_reported":1784869802,"current_range_meters":17600,"station_id":"","pricing_plan_id":"cebpf4jnsgd1na2vs0mg"},{"bike_id":"d4272f7f-8443-4ab0-8ce3-9a84624c3d4e","system_id":"levelo_inurba_marseille","lat":43.29037,"lon":5.39977,"is_reserved":false,"is_disabled":false,"rental_uris":{"android":"levelo://app?vid=d4272f7f-8443-4ab0-8ce3-9a84624c3d4e","ios":"levelo://app?vid=d4272f7f-8443-4ab0-8ce3-9a84624c3d4e"},"vehicle_type_id":"4","last_reported":1784869802,"current_range_meters":39200,"station_id":"ce4bh392rcd13ifvqdm0","pricing_plan_id":"cebpf4jnsgd1na2vs0mg"},{"bike_id":"d738fe06-aba3-4b06-b504-21fa49adad27","system_id":"levelo_inurba_marseille","lat":43.3254,"lon":5.41462,"is_reserved":false,"is_disabled":false,"rental_uris":{"android":"levelo://app?vid=d738fe06-aba3-4b06-b504-21fa49adad27","ios":"levelo://app?vid=d738fe06-aba3-4b06-b504-21fa49adad27"},"vehicle_type_id":"4","last_reported":1784869802,"current_range_meters":38000,"station_id":"ce4bhq12rcd13ifvqhhg","pricing_plan_id":"cebpf4jnsgd1na2vs0mg"},{"bike_id":"25d63c03-240b-4596-9842-ae7363543101","system_id":"levelo_inurba_marseille","lat":43.33156,"lon":5.37691,"is_reserved":false,"is_disabled":false,"rental_uris":{"android":"levelo://app?vid=25d63c03-240b-4596-9842-ae7363543101","ios":"levelo://app?vid=25d63c03-240b-4596-9842-ae7363543101"},"vehicle_type_id":"4","last_reported":1784869802,"current_range_meters":35600,"station_id":"st_d46cu089ee8s73dldbu0","pricing_plan_id":"cebpf4jnsgd1na2vs0mg"},{"bike_id":"d5ce1f70-45dd-47d5-a2a4-e8a19c2ad395","system_id":"levelo_inurba_marseille","lat":43.23774,"lon":5.36627,"is_reserved":false,"is_disabled":false,"rental_uris":{"android":"levelo://app?vid=d5ce1f70-45dd-47d5-a2a4-e8a19c2ad395","ios":"levelo://app?vid=d5ce1f70-45dd-47d5-a2a4-e8a19c2ad395"},"vehicle_type_id":"4","last_reported":1784869802,"current_range_meters":38800,"station_id":"st_d3nk18o9ro0c73en2l3g","pricing_plan_id":"cebpf4jnsgd1na2vs0mg"},{"bike_id":"2227fe95-0a72-4ced-9f02-31d32846fb4e","system_id":"levelo_inurba_marseille","lat":43.25078,"lon":5.39485,"is_reserved":false,"is_disabled":false,"rental_uris":{"android":"levelo://app?vid=2227fe95-0a72-4ced-9f02-31d32846fb4e","ios":"levelo://app?vid=2227fe95-0a72-4ced-9f02-31d32846fb4e"},"vehicle_type_id":"4","last_reported":1784869802,"current_range_meters":38800,"station_id":"ce4bhm12rcd13ifvqgkg","pricing_plan_id":"cebpf4jnsgd1na2vs0mg"},{"bike_id":"84d36f2e-eb0c-40cc-9ff3-5f0b7f8ba228","system_id":"levelo_inurba_marseille","lat":43.31383,"lon":5.38508,"is_reserved":false,"is_disabled":false,"rental_uris":{"android":"levelo://app?vid=84d36f2e-eb0c-40cc-9ff3-5f0b7f8ba228","ios":"levelo://app?vid=84d36f2e-eb0c-40cc-9ff3-5f0b7f8ba228"},"vehicle_type_id":"4","last_reported":1784869802,"current_range_meters":39200,"station_id":"ce4bgt92rcd13ifvqcf0","pricing_plan_id":"cebpf4jnsgd1na2vs0mg"},{"bike_id":"f8d90c4e-4908-4f03-845e-3c10c53cb1f4","system_id":"levelo_inurba_marseille","lat":43.30042,"lon":5.40936,"is_reserved":false,"is_disabled":false,"rental_uris":{"android":"levelo://app?vid=f8d90c4e-4908-4f03-845e-3c10c53cb1f4","ios":"levelo://app?vid=f8d90c4e-4908-4f03-845e-3c10c53cb1f4"},"vehicle_type_id":"4","last_reported":1784869802,"current_range_meters":15200,"station_id":"","pricing_plan_id":"cebpf4jnsgd1na2vs0mg"},{"bike_id":"bcdd9650-d076-40ee-b90f-d89a58ee81d3","system_id":"levelo_inurba_marseille","lat":43.30241,"lon":5.40043,"is_reserved":false,"is_disabled":false,"rental_uris":{"android":"levelo://app?vid=bcdd9650-d076-40ee-b90f-d89a58ee81d3","ios":"levelo://app?vid=bcdd9650-d076-40ee-b90f-d89a58ee81d3"},"vehicle_type_id":"4","last_reported":1784869802,"current_range_meters":39200,"station_id":"ce4bgvh2rcd13ifvqcs0","pricing_plan_id":"cebpf4jnsgd1na2vs0mg"},{"bike_id":"be033826-0277-47d3-8616-60204f4d4984","system_id":"levelo_inurba_marseille","lat":43.30249,"lon":5.40065,"is_reserved":false,"is_disabled":false,"rental_uris":{"android":"levelo://app?vid=be033826-0277-47d3-8616-60204f4d4984","ios":"levelo://app?vid=be033826-0277-47d3-8616-60204f4d4984"},"vehicle_type_id":"4","last_reported":1784869802,"current_range_meters":16400,"station_id":"ce4bgvh2rcd13ifvqcs0","pricing_plan_id":"cebpf4jnsgd1na2vs0mg"},{"bike_id":"ccdbdcfb-5afc-430f-a3f0-c6479bc6a9ba","system_id":"levelo_inurba_marseille","lat":43.29521,"lon":5.39381,"is_reserved":false,"is_disabled":false,"rental_uris":{"android":"levelo://app?vid=ccdbdcfb-5afc-430f-a3f0-c6479bc6a9ba","ios":"levelo://app?vid=ccdbdcfb-5afc-430f-a3f0-c6479bc6a9ba"},"vehicle_type_id":"4","last_reported":1784869802,"current_range_meters":39200,"station_id":"ce4bh292rcd13ifvqdf0","pricing_plan_id":"cebpf4jnsgd1na2vs0mg"},{"bike_id":"27e1e4c5-a07c-4ba9-9e46-007cc925fb39","system_id":"levelo_inurba_marseille","lat":43.25429,"lon":5.41677,"is_reserved":false,"is_disabled":false,"rental_uris":{"android":"levelo://app?vid=27e1e4c5-a07c-4ba9-9e46-007cc925fb39","ios":"levelo://app?vid=27e1e4c5-a07c-4ba9-9e46-007cc925fb39"},"vehicle_type_id":"4","last_reported":1784869802,"current_range_meters":4400,"station_id":"","pricing_plan_id":"cebpf4jnsgd1na2vs0mg"},{"bike_id":"1c3a9dca-4936-4a6c-b1e3-d46bcf867fbe","system_id":"levelo_inurba_marseille","lat":43.30626,"lon":5.37232,"is_reserved":false,"is_disabled":false,"rental_uris":{"android":"levelo://app?vid=1c3a9dca-4936-4a6c-b1e3-d46bcf867fbe","ios":"levelo://app?vid=1c3a9dca-4936-4a6c-b1e3-d46bcf867fbe"},"vehicle_type_id":"4","last_reported":1784869802,"current_range_meters":23200,"station_id":"ce4bgqh2rcd13ifvqc4g","pricing_plan_id":"cebpf4jnsgd1na2vs0mg"},{"bike_id":"033eab5e-4885-4e3e-a926-9530624df4e6","system_id":"levelo_inurba_marseille","lat":43.29306,"lon":5.37432,"is_reserved":false,"is_disabled":false,"rental_uris":{"android":"levelo://app?vid=033eab5e-4885-4e3e-a926-9530624df4e6","ios":"levelo://app?vid=033eab5e-4885-4e3e-a926-9530624df4e6"},