{"last_updated":1761149647,"ttl":60,"version":"2.2","data":{"bikes":[{"bike_id":"63773d64-d0b8-4485-83de-d1e625034233","system_id":"levelo_inurba_marseille","lat":43.29437,"lon":5.39758,"is_reserved":false,"is_disabled":false,"rental_uris":{"android":"levelo://app?vid=63773d64-d0b8-4485-83de-d1e625034233","ios":"levelo://app?vid=63773d64-d0b8-4485-83de-d1e625034233"},"vehicle_type_id":"4","last_reported":1761149647,"current_range_meters":2800,"station_id":"ce4bh3h2rcd13ifvqdo0","pricing_plan_id":"cebpf4jnsgd1na2vs0mg"},{"bike_id":"d124ea6b-ae35-448a-8d72-fe072d348816","system_id":"levelo_inurba_marseille","lat":43.225303,"lon":5.348308,"is_reserved":false,"is_disabled":false,"rental_uris":{"android":"levelo://app?vid=d124ea6b-ae35-448a-8d72-fe072d348816","ios":"levelo://app?vid=d124ea6b-ae35-448a-8d72-fe072d348816"},"vehicle_type_id":"4","last_reported":1761149647,"current_range_meters":2800,"station_id":"","pricing_plan_id":"cebpf4jnsgd1na2vs0mg"},{"bike_id":"d597d0f4-d743-4a6d-8501-b830b5aa558a","system_id":"levelo_inurba_marseille","lat":43.29684,"lon":5.37276,"is_reserved":false,"is_disabled":false,"rental_uris":{"android":"levelo://app?vid=d597d0f4-d743-4a6d-8501-b830b5aa558a","ios":"levelo://app?vid=d597d0f4-d743-4a6d-8501-b830b5aa558a"},"vehicle_type_id":"4","last_reported":1761149647,"current_range_meters":2800,"station_id":"ce4bgk12rcd13ifvqbj0","pricing_plan_id":"cebpf4jnsgd1na2vs0mg"},{"bike_id":"5fe3b99f-64b5-4acf-bc49-3b3923869c03","system_id":"levelo_inurba_marseille","lat":43.27213,"lon":5.39177,"is_reserved":false,"is_disabled":false,"rental_uris":{"android":"levelo://app?vid=5fe3b99f-64b5-4acf-bc49-3b3923869c03","ios":"levelo://app?vid=5fe3b99f-64b5-4acf-bc49-3b3923869c03"},"vehicle_type_id":"4","last_reported":1761149647,"current_range_meters":3200,"station_id":"ce4bhhp2rcd13ifvqfm0","pricing_plan_id":"cebpf4jnsgd1na2vs0mg"},{"bike_id":"271e4d9c-278c-4825-a2eb-abed882400fe","system_id":"levelo_inurba_marseille","lat":43.28853,"lon":5.35861,"is_reserved":false,"is_disabled":false,"rental_uris":{"android":"levelo://app?vid=271e4d9c-278c-4825-a2eb-abed882400fe","ios":"levelo://app?vid=271e4d9c-278c-4825-a2eb-abed882400fe"},"vehicle_type_id":"4","last_reported":1761149647,"current_range_meters":3600,"station_id":"ce4bhb12rcd13ifvqem0","pricing_plan_id":"cebpf4jnsgd1na2vs0mg"},{"bike_id":"3d577a4b-4963-49b5-914a-1616bdbd4943","system_id":"levelo_inurba_marseille","lat":43.27964,"lon":5.38753,"is_reserved":false,"is_disabled":false,"rental_uris":{"android":"levelo://app?vid=3d577a4b-4963-49b5-914a-1616bdbd4943","ios":"levelo://app?vid=3d577a4b-4963-49b5-914a-1616bdbd4943"},"vehicle_type_id":"4","last_reported":1761149647,"current_range_meters":3600,"station_id":"ce4bhg12rcd13ifvqf80","pricing_plan_id":"cebpf4jnsgd1na2vs0mg"},{"bike_id":"ab005e84-0d5b-4f5d-a875-fc2f3588c66b","system_id":"levelo_inurba_marseille","lat":43.28605,"lon":5.35099,"is_reserved":false,"is_disabled":false,"rental_uris":{"android":"levelo://app?vid=ab005e84-0d5b-4f5d-a875-fc2f3588c66b","ios":"levelo://app?vid=ab005e84-0d5b-4f5d-a875-fc2f3588c66b"},"vehicle_type_id":"4","last_reported":1761149647,"current_range_meters":3600,"station_id":"ce4bhch2rcd13ifvqeug","pricing_plan_id":"cebpf4jnsgd1na2vs0mg"},{"bike_id":"c17a1370-7b32-41f4-b605-352e8f4b1b73","system_id":"levelo_inurba_marseille","lat":43.25489,"lon":5.37647,"is_reserved":false,"is_disabled":false,"rental_uris":{"android":"levelo://app?vid=c17a1370-7b32-41f4-b605-352e8f4b1b73","ios":"levelo://app?vid=c17a1370-7b32-41f4-b605-352e8f4b1b73"},"vehicle_type_id":"4","last_reported":1761149647,"current_range_meters":4000,"station_id":"ce4bhh12rcd13ifvqff0","pricing_plan_id":"cebpf4jnsgd1na2vs0mg"},{"bike_id":"febce5ec-f4bb-4c8c-8018-fe0f42cfa296","system_id":"levelo_inurba_marseille","lat":43.29519,"lon":5.39054,"is_reserved":false,"is_disabled":false,"rental_uris":{"android":"levelo://app?vid=febce5ec-f4bb-4c8c-8018-fe0f42cfa296","ios":"levelo://app?vid=febce5ec-f4bb-4c8c-8018-fe0f42cfa296"},"vehicle_type_id":"4","last_reported":1761149647,"current_range_meters":4000,"station_id":"ce4bh3p2rcd13ifvqdp0","pricing_plan_id":"cebpf4jnsgd1na2vs0mg"},{"bike_id":"88291bcc-a72f-40f3-8b2a-b6e6c6e9c39f","system_id":"levelo_inurba_marseille","lat":43.31523,"lon":5.38031,"is_reserved":false,"is_disabled":false,"rental_uris":{"android":"levelo://app?vid=88291bcc-a72f-40f3-8b2a-b6e6c6e9c39f","ios":"levelo://app?vid=88291bcc-a72f-40f3-8b2a-b6e6c6e9c39f"},"vehicle_type_id":"4","last_reported":1761149647,"current_range_meters":4000,"station_id":"ce4bhsp2rcd13ifvqi50","pricing_plan_id":"cebpf4jnsgd1na2vs0mg"},{"bike_id":"e7c85849-3a76-42c7-9785-a6a155be1a45","system_id":"levelo_inurba_marseille","lat":43.24664,"lon":5.38162,"is_reserved":false,"is_disabled":false,"rental_uris":{"android":"levelo://app?vid=e7c85849-3a76-42c7-9785-a6a155be1a45","ios":"levelo://app?vid=e7c85849-3a76-42c7-9785-a6a155be1a45"},"vehicle_type_id":"4","last_reported":1761149647,"current_range_meters":4400,"station_id":"ce4bhih2rcd13ifvqfr0","pricing_plan_id":"cebpf4jnsgd1na2vs0mg"},{"bike_id":"a870d8c4-d388-4bd8-a292-a2b1665e7e0e","system_id":"levelo_inurba_marseille","lat":43.304308,"lon":5.405861,"is_reserved":false,"is_disabled":false,"rental_uris":{"android":"levelo://app?vid=a870d8c4-d388-4bd8-a292-a2b1665e7e0e","ios":"levelo://app?vid=a870d8c4-d388-4bd8-a292-a2b1665e7e0e"},"vehicle_type_id":"4","last_reported":1761149647,"current_range_meters":4400,"station_id":"","pricing_plan_id":"cebpf4jnsgd1na2vs0mg"},{"bike_id":"9636fa62-55fa-44c8-8783-e508c26a5735","system_id":"levelo_inurba_marseille","lat":43.291901,"lon":5.358038,"is_reserved":false,"is_disabled":false,"rental_uris":{"android":"levelo://app?vid=9636fa62-55fa-44c8-8783-e508c26a5735","ios":"levelo://app?vid=9636fa62-55fa-44c8-8783-e508c26a5735"},"vehicle_type_id":"4","last_reported":1761149647,"current_range_meters":4400,"station_id":"ce4bhb12rcd13ifvqel0","pricing_plan_id":"cebpf4jnsgd1na2vs0mg"},{"bike_id":"e7cb61d9-84d9-41c0-8427-00fc6a9e436b","system_id":"levelo_inurba_marseille","lat":43.3103,"lon":5.37567,"is_reserved":false,"is_disabled":false,"rental_uris":{"android":"levelo://app?vid=e7cb61d9-84d9-41c0-8427-00fc6a9e436b","ios":"levelo://app?vid=e7cb61d9-84d9-41c0-8427-00fc6a9e436b"},"vehicle_type_id":"4","last_reported":1761149647,"current_range_meters":4400,"station_id":"","pricing_plan_id":"cebpf4jnsgd1na2vs0mg"},{"bike_id":"8e1ad5db-15d3-467b-bb2c-37a9717ccfe2","system_id":"levelo_inurba_marseille","lat":43.28926,"lon":5.38407,"is_reserved":false,"is_disabled":false,"rental_uris":{"android":"levelo://app?vid=8e1ad5db-15d3-467b-bb2c-37a9717ccfe2","ios":"levelo://app?vid=8e1ad5db-15d3-467b-bb2c-37a9717ccfe2"},"vehicle_type_id":"4","last_reported":1761149647,"current_range_meters":4400,"station_id":"ce4bh612rcd13ifvqe6g","pricing_plan_id":"cebpf4jnsgd1na2vs0mg"},{"bike_id":"4154d683-e72a-4592-9e60-2a3872848698","system_id":"levelo_inurba_marseille","lat":43.28489,"lon":5.48393,"is_reserved":false,"is_disabled":false,"rental_uris":{"android":"levelo://app?vid=4154d683-e72a-4592-9e60-2a3872848698","ios":"levelo://app?vid=4154d683-e72a-4592-9e60-2a3872848698"},"vehicle_type_id":"4","last_reported":1761149647,"current_range_meters":4800,"station_id":"st_d3jp68qikq2c7381ktn0","pricing_plan_id":"cebpf4jnsgd1na2vs0mg"},{"bike_id":"58b537c5-97ab-46d0-9a55-2d4fe97d2e76","system_id":"levelo_inurba_marseille","lat":43.283996,"lon":5.385515,"is_reserved":false,"is_disabled":true,"rental_uris":{"android":"levelo://app?vid=58b537c5-97ab-46d0-9a55-2d4fe97d2e76","ios":"levelo://app?vid=58b537c5-97ab-46d0-9a55-2d4fe97d2e76"},"vehicle_type_id":"4","last_reported":1761149647,"current_range_meters":4800,"station_id":"ce4bh492rcd13ifvqdvg","pricing_plan_id":"cebpf4jnsgd1na2vs0mg"},{"bike_id":"f74ef760-f8e1-475d-9f8d-8bdfb486ba16","system_id":"levelo_inurba_marseille","lat":43.30898,"lon":5.36854,"is_reserved":false,"is_disabled":false,"rental_uris":{"android":"levelo://app?vid=f74ef760-f8e1-475d-9f8d-8bdfb486ba16","ios":"levelo://app?vid=f74ef760-f8e1-475d-9f8d-8bdfb486ba16"},"vehicle_type_id":"4","last_reported":1761149647,"current_range_meters":4800,"station_id":"ce4bgn92rcd13ifvqbvg","pricing_plan_id":"cebpf4jnsgd1na2vs0mg"},{"bike_id":"c76ed494-613f-4c1b-84b7-275dd886fbd7","system_id":"levelo_inurba_marseille","lat":43.2841,"lon":5.37527,"is_reserved":false,"is_disabled":false,"rental_uris":{"android":"levelo://app?vid=c76ed494-613f-4c1b-84b7-275dd886fbd7","ios":"levelo://app?vid=c76ed494-613f-4c1b-84b7-275dd886fbd7"},"vehicle_type_id":"4","last_reported":1761149647,"current_range_meters":5600,"station_id":"ce4bh412rcd13ifvqds0","pricing_plan_id":"cebpf4jnsgd1na2vs0mg"},{"bike_id":"6b7e06a3-c6b5-4a62-9e7c-603e78a9b101","system_id":"levelo_inurba_marseille","lat":43.27708,"lon":5.38887,"is_reserved":false,"is_disabled":false,"rental_uris":{"android":"levelo://app?vid=6b7e06a3-c6b5-4a62-9e7c-603e78a9b101","ios":"levelo://app?vid=6b7e06a3-c6b5-4a62-9e7c-603e78a9b101"},"vehicle_type_id":"4","last_reported":1761149647,"current_range_meters":5600,"station_id":"ce4bhi12rcd13ifvqfo0","pricing_plan_id":"cebpf4jnsgd1na2vs0mg"},{"bike_id":"e8c5926e-8591-46b2-bcd3-b0ad37688e6f","system_id":"levelo_inurba_marseille","lat":43.29255,"lon":5.3845,"is_reserved":false,"is_disabled":false,"rental_uris":{"android":"levelo://app?vid=e8c5926e-8591-46b2-bcd3-b0ad37688e6f","ios":"levelo://app?vid=e8c5926e-8591-46b2-bcd3-b0ad37688e6f"},"vehicle_type_id":"4","last_reported":1761149647,"current_range_meters":5600,"station_id":"ce4bh692rcd13ifvqea0","pricing_plan_id":"cebpf4jnsgd1na2vs0mg"},{"bike_id":"805cc412-434c-4829-8363-1954f7f430fd","system_id":"levelo_inurba_marseille","lat":43.29883,"lon":5.38395,"is_reserved":false,"is_disabled":false,"rental_uris":{"android":"levelo://app?vid=805cc412-434c-4829-8363-1954f7f430fd","ios":"levelo://app?vid=805cc412-434c-4829-8363-1954f7f430fd"},"vehicle_type_id":"4","last_reported":1761149647,"current_range_meters":5600,"station_id":"","pricing_plan_id":"cebpf4jnsgd1na2vs0mg"},{"bike_id":"94e46511-6d06-49b8-9dbf-8cfa250aede2","system_id":"levelo_inurba_marseille","lat":43.295341,"lon":5.385405,"is_reserved":false,"is_disabled":false,"rental_uris":{"android":"levelo://app?vid=94e46511-6d06-49b8-9dbf-8cfa250aede2","ios":"levelo://app?vid=94e46511-6d06-49b8-9dbf-8cfa250aede2"},"vehicle_type_id":"4","last_reported":1761149647,"current_range_meters":6000,"station_id":"ce4bgih2rcd13ifvqba0","pricing_plan_id":"cebpf4jnsgd1na2vs0mg"},{"bike_id":"4a77237c-f53c-49fe-87a8-b161ded34a85","system_id":"levelo_inurba_marseille","lat":43.31164,"lon":5.38727,"is_reserved":false,"is_disabled":false,"rental_uris":{"android":"levelo://app?vid=4a77237c-f53c-49fe-87a8-b161ded34a85","ios":"levelo://app?vid=4a77237c-f53c-49fe-87a8-b161ded34a85"},"vehicle_type_id":"4","last_reported":1761149647,"current_range_meters":6000,"station_id":"ce4bgv12rcd13ifvqcp0","pricing_plan_id":"cebpf4jnsgd1na2vs0mg"},{"bike_id":"eea3c3c3-734f-4fd3-8061-ed84cfe47b38","system_id":"levelo_inurba_marseille","lat":43.329528,"lon":5.39092,"is_reserved":false,"is_disabled":false,"rental_uris":{"android":"levelo://app?vid=eea3c3c3-734f-4fd3-8061-ed84cfe47b38","ios":"levelo://app?vid=eea3c3c3-734f-4fd3-8061-ed84cfe47b38"},"vehicle_type_id":"4","last_reported":1761149647,"current_range_meters":6000,"station_id":"","pricing_plan_id":"cebpf4jnsgd1na2vs0mg"},{"bike_id":"6b79bfb8-e094-4127-b7a5-c1acca45585c","system_id":"levelo_inurba_marseille","lat":43.29866,"lon":5.39725,"is_reserved":false,"is_disabled":false,"rental_uris":{"android":"levelo://app?vid=6b79bfb8-e094-4127-b7a5-c1acca45585c","ios":"levelo://app?vid=6b79bfb8-e094-4127-b7a5-c1acca45585c"},"vehicle_type_id":"4","last_reported":1761149647,"current_range_meters":6000,"station_id":"ce4bh0h2rcd13ifvqd50","pricing_plan_id":"cebpf4jnsgd1na2vs0mg"},{"bike_id":"77b1a61f-87f0-418f-ab35-11a29295267d","system_id":"levelo_inurba_marseille","lat":43.31173,"lon":5.38718,"is_reserved":false,"is_disabled":false,"rental_uris":{"android":"levelo://app?vid=77b1a61f-87f0-418f-ab35-11a29295267d","ios":"levelo://app?vid=77b1a61f-87f0-418f-ab35-11a29295267d"},"vehicle_type_id":"4","last_reported":1761149647,"current_range_meters":6000,"station_id":"ce4bgv12rcd13ifvqcp0","pricing_plan_id":"cebpf4jnsgd1na2vs0mg"},{"bike_id":"aee7d02b-6b4e-4244-9e3a-df427c876a20","system_id":"levelo_inurba_marseille","lat":43.2867,"lon":5.36349,"is_reserved":false,"is_disabled":false,"rental_uris":{"android":"levelo://app?vid=aee7d02b-6b4e-4244-9e3a-df427c876a20","ios":"levelo://app?vid=aee7d02b-6b4e-4244-9e3a-df427c876a20"},"vehicle_type_id":"4","last_reported":1761149647,"current_range_meters":6400,"station_id":"ce4bhah2rcd13ifvqej0","pricing_plan_id":"cebpf4jnsgd1na2vs0mg"},{"bike_id":"ea77de61-fa12-4486-866d-c47d1a3f8f64","system_id":"levelo_inurba_marseille","lat":43.29803,"lon":5.38092,"is_reserved":false,"is_disabled":false,"rental_uris":{"android":"levelo://app?vid=ea77de61-fa12-4486-866d-c47d1a3f8f64","ios":"levelo://app?vid=ea77de61-fa12-4486-866d-c47d1a3f8f64"},"vehicle_type_id":"4","last_reported":1761149647,"current_range_meters":6400,"station_id":"ce4bgip2rcd13ifvqbb0","pricing_plan_id":"cebpf4jnsgd1na2vs0mg"},{"bike_id":"66bec76d-d7e9-4a1e-a715-39e56334bf96","system_id":"levelo_inurba_marseille","lat":43.2828,"lon":5.39652,"is_reserved":false,"is_disabled":false,"rental_uris":{"android":"levelo://app?vid=66bec76d-d7e9-4a1e-a715-39e56334bf96","ios":"levelo://app?vid=66bec76d-d7e9-4a1e-a715-39e56334bf96"},"vehicle_type_id":"4","last_reported":1761149647,"current_range_meters":6800,"station_id":"","pricing_plan_id":"cebpf4jnsgd1na2vs0mg"},{"bike_id":"fb68a6c6-afd7-48f1-a236-cd8979ce1ae3","system_id":"levelo_inurba_marseille","lat":43.29258,"lon":5.38436,"is_reserved":false,"is_disabled":false,"rental_uris":{"android":"levelo://app?vid=fb68a6c6-afd7-48f1-a236-cd8979ce1ae3","ios":"levelo://app?vid=fb68a6c6-afd7-48f1-a236-cd8979ce1ae3"},"vehicle_type_id":"4","last_reported":1761149647,"current_range_meters":6800,"station_id":"ce4bh692rcd13ifvqea0","pricing_plan_id":"cebpf4jnsgd1na2vs0mg"},{"bike_id":"cf0494d3-0c28-43f8-8f2b-f80e88d576e7","system_id":"levelo_inurba_marseille","lat":43.29011,"lon":5.3561,"is_reserved":false,"is_disabled":false,"rental_uris":{"android":"levelo://app?vid=cf0494d3-0c28-43f8-8f2b-f80e88d576e7","ios":"levelo://app?vid=cf0494d3-0c28-43f8-8f2b-f80e88d576e7"},"vehicle_type_id":"4","last_reported":1761149647,"current_range_meters":6800,"station_id":"ce4bhb92rcd13ifvqen0","pricing_plan_id":"cebpf4jnsgd1na2vs0mg"},{"bike_id":"ef9d8d7f-d3e2-4a75-ace2-8c384646737e","system_id":"levelo_inurba_marseille","lat":43.29189,"lon":5.35803,"is_reserved":false,"is_disabled":false,"rental_uris":{"android":"levelo://app?vid=ef9d8d7f-d3e2-4a75-ace2-8c384646737e","ios":"levelo://app?vid=ef9d8d7f-d3e2-4a75-ace2-8c384646737e"},"vehicle_type_id":"4","last_reported":1761149647,"current_range_meters":6800,"station_id":"ce4bhb12rcd13ifvqel0","pricing_plan_id":"cebpf4jnsgd1na2vs0mg"},{"bike_id":"3d068a7d-8c2c-4f97-8d7d-54140fa95800","system_id":"levelo_inurba_marseille","lat":43.273583,"lon":5.39879,"is_reserved":false,"is_disabled":false,"rental_uris":{"android":"levelo://app?vid=3d068a7d-8c2c-4f97-8d7d-54140fa95800","ios":"levelo://app?vid=3d068a7d-8c2c-4f97-8d7d-54140fa95800"},"vehicle_type_id":"4","last_reported":1761149647,"current_range_meters":6800,"station_id":"","pricing_plan_id":"cebpf4jnsgd1na2vs0mg"},{"bike_id":"2bf3f5a1-1b00-4eaf-92aa-2a082249e6c9","system_id":"levelo_inurba_marseille","lat":43.303281,"lon":5.404309,"is_reserved":false,"is_disabled":false,"rental_uris":{"android":"levelo://app?vid=2bf3f5a1-1b00-4eaf-92aa-2a082249e6c9","ios":"levelo://app?vid=2bf3f5a1-1b00-4eaf-92aa-2a082249e6c9"},"vehicle_type_id":"4","last_reported":1761149647,"current_range_meters":6800,"station_id":"ce4bh012rcd13ifvqd10","pricing_plan_id":"cebpf4jnsgd1na2vs0mg"},{"bike_id":"55620cbb-833d-4833-9fa9-71e95a94e71e","system_id":"levelo_inurba_marseille","lat":43.27977,"lon":5.38743,"is_reserved":false,"is_disabled":false,"rental_uris":{"android":"levelo://app?vid=55620cbb-833d-4833-9fa9-71e95a94e71e","ios":"levelo://app?vid=55620cbb-833d-4833-9fa9-71e95a94e71e"},"vehicle_type_id":"4","last_reported":1761149647,"current_range_meters":7200,"station_id":"ce4bhg12rcd13ifvqf80","pricing_plan_id":"cebpf4jnsgd1na2vs0mg"},{"bike_id":"d350c3ae-89b0-4754-9c1c-1493d3a8e7f7","system_id":"levelo_inurba_marseille","lat":43.23194,"lon":5.35561,"is_reserved":false,"is_disabled":false,"rental_uris":{"android":"levelo://app?vid=d350c3ae-89b0-4754-9c1c-1493d3a8e7f7","ios":"levelo://app?vid=d350c3ae-89b0-4754-9c1c-1493d3a8e7f7"},"vehicle_type_id":"4","last_reported":1761149647,"current_range_meters":7200,"station_id":"ce4bhu92rcd13ifvqi70","pricing_plan_id":"cebpf4jnsgd1na2vs0mg"},{"bike_id":"158efa80-12ab-4b7d-8a51-8d3a468fcc07","system_id":"levelo_inurba_marseille","lat":43.21193,"lon":5.35075,"is_reserved":false,"is_disabled":true,"rental_uris":{"android":"levelo://app?vid=158efa80-12ab-4b7d-8a51-8d3a468fcc07","ios":"levelo://app?vid=158efa80-12ab-4b7d-8a51-8d3a468fcc07"},"vehicle_type_id":"4","last_reported":1761149647,"current_range_meters":7200,"station_id":"","pricing_plan_id":"cebpf4jnsgd1na2vs0mg"},{"bike_id":"590313b9-ec13-4f25-a65b-82194f49d0ac","system_id":"levelo_inurba_marseille","lat":43.2926,"lon":5.38447,"is_reserved":false,"is_disabled":false,"rental_uris":{"android":"levelo://app?vid=590313b9-ec13-4f25-a65b-82194f49d0ac","ios":"levelo://app?vid=590313b9-ec13-4f25-a65b-82194f49d0ac"},"vehicle_type_id":"4","last_reported":1761149647,"current_range_meters":7200,"station_id":"ce4bh692rcd13ifvqea0","pricing_plan_id":"cebpf4jnsgd1na2vs0mg"},{"bike_id":"da3c5d5d-639d-4a11-88e1-f7b9c2ad220a","system_id":"levelo_inurba_marseille","lat":43.316989,"lon":5.377575,"is_reserved":false,"is_disabled":true,"rental_uris":{"android":"levelo://app?vid=da3c5d5d-639d-4a11-88e1-f7b9c2ad220a","ios":"levelo://app?vid=da3c5d5d-639d-4a11-88e1-f7b9c2ad220a"},"vehicle_type_id":"4","last_reported":1761149647,"current_range_meters":7200,"station_id":"ce4bgth2rcd13ifvqch0","pricing_plan_id":"cebpf4jnsgd1na2vs0mg"},{"bike_id":"c601c2cb-c892-4bbe-b0e3-c526a1d6c1c0","system_id":"levelo_inurba_marseille","lat":43.261928,"lon":5.374507,"is_reserved":false,"is_disabled":false,"rental_uris":{"android":"levelo://app?vid=c601c2cb-c892-4bbe-b0e3-c526a1d6c1c0","ios":"levelo://app?vid=c601c2cb-c892-4bbe-b0e3-c526a1d6c1c0"},"vehicle_type_id":"4","last_reported":1761149647,"current_range_meters":7200,"station_id":"ce4bhgp2rcd13ifvqfc0","pricing_plan_id":"cebpf4jnsgd1na2vs0mg"},{"bike_id":"7d71e9d8-fc3a-438e-93fd-2b03a3537084","system_id":"levelo_inurba_marseille","lat":43.231511,"lon":5.437183,"is_reserved":false,"is_disabled":false,"rental_uris":{"android":"levelo://app?vid=7d71e9d8-fc3a-438e-93fd-2b03a3537084","ios":"levelo://app?vid=7d71e9d8-fc3a-438e-93fd-2b03a3537084"},"vehicle_type_id":"4","last_reported":1761149647,"current_range_meters":7200,"station_id":"ce4bhmp2rcd13ifvqgog","pricing_plan_id":"cebpf4jnsgd1na2vs0mg"},{"bike_id":"12290105-e321-471e-b37f-3354d68dfc24","system_id":"levelo_inurba_marseille","lat":43.26591,"lon":5.3949,"is_reserved":false,"is_disabled":false,"rental_uris":{"android":"levelo://app?vid=12290105-e321-471e-b37f-3354d68dfc24","ios":"levelo://app?vid=12290105-e321-471e-b37f-3354d68dfc24"},"vehicle_type_id":"4","last_reported":1761149647,"current_range_meters":8000,"station_id":"ce4bhi12rcd13ifvqfq0","pricing_plan_id":"cebpf4jnsgd1na2vs0mg"},{"bike_id":"b7e41c34-cad5-468c-aadc-3ef8a1845b5a","system_id":"levelo_inurba_marseille","lat":43.28164,"lon":5.36112,"is_reserved":false,"is_disabled":false,"rental_uris":{"android":"levelo://app?vid=b7e41c34-cad5-468c-aadc-3ef8a1845b5a","ios":"levelo://app?vid=b7e41c34-cad5-468c-aadc-3ef8a1845b5a"},"vehicle_type_id":"4","last_reported":1761149647,"current_range_meters":8000,"station_id":"","pricing_plan_id":"cebpf4jnsgd1na2vs0mg"},{"bike_id":"97585d63-cae0-46a3-8fec-9651d52b3156","system_id":"levelo_inurba_marseille","lat":43.27885,"lon":5.37997,"is_reserved":false,"is_disabled":true,"rental_uris":{"android":"levelo://app?vid=97585d63-cae0-46a3-8fec-9651d52b3156","ios":"levelo://app?vid=97585d63-cae0-46a3-8fec-9651d52b3156"},"vehicle_type_id":"4","last_reported":1761149647,"current_range_meters":8000,"station_id":"ce4bhf92rcd13ifvqf50","pricing_plan_id":"cebpf4jnsgd1na2vs0mg"},{"bike_id":"ccb8e42b-4b06-4582-be74-fb17bc442007","system_id":"levelo_inurba_marseille","lat":43.231647,"lon":5.436991,"is_reserved":false,"is_disabled":false,"rental_uris":{"android":"levelo://app?vid=ccb8e42b-4b06-4582-be74-fb17bc442007","ios":"levelo://app?vid=ccb8e42b-4b06-4582-be74-fb17bc442007"},"vehicle_type_id":"4","last_reported":1761149647,"current_range_meters":8000,"station_id":"ce4bhmp2rcd13ifvqgog","pricing_plan_id":"cebpf4jnsgd1na2vs0mg"},{"bike_id":"12c36be3-5162-4923-9735-810a93ad89d7","system_id":"levelo_inurba_marseille","lat":43.28863,"lon":5.42529,"is_reserved":false,"is_disabled":false,"rental_uris":{"android":"levelo://app?vid=12c36be3-5162-4923-9735-810a93ad89d7","ios":"levelo://app?vid=12c36be3-5162-4923-9735-810a93ad89d7"},"vehicle_type_id":"4","last_reported":1761149647,"current_range_meters":8000,"station_id":"st_d3b462108ojc7389ooeg","pricing_plan_id":"cebpf4jnsgd1na2vs0mg"},{"bike_id":"f3d56bcb-b09b-4a12-a7ba-b48452853dd1","system_id":"levelo_inurba_marseille","lat":43.29262,"lon":5.40903,"is_reserved":false,"is_disabled":false,"rental_uris":{"android":"levelo://app?vid=f3d56bcb-b09b-4a12-a7ba-b48452853dd1","ios":"levelo://app?vid=f3d56bcb-b09b-4a12-a7ba-b48452853dd1"},"vehicle_type_id":"4","last_reported":1761149647,"current_range_meters":8000,"station_id":"ce4bh192rcd13ifvqdc0","pricing_plan_id":"cebpf4jnsgd1na2vs0mg"},{"bike_id":"565801aa-9dbe-4745-ad4b-aa92b2dd6d4e","system_id":"levelo_inurba_marseille","lat":43.22929,"lon":5.35375,"is_reserved":false,"is_disabled":false,"rental_uris":{"android":"levelo://app?vid=565801aa-9dbe-4745-ad4b-aa92b2dd6d4e","ios":"levelo://app?vid=565801aa-9dbe-4745-ad4b-aa92b2dd6d4e"},"vehicle_type_id":"4","last_reported":1761149647,"current_range_meters":8000,"station_id":"cpo3532slgdg3j2ikp40","pricing_plan_id":"cebpf4jnsgd1na2vs0mg"},{"bike_id":"dc826101-8ee0-47d7-ba64-1386b83af6a5","system_id":"levelo_inurba_marseille","lat":43.273785,"lon":5.362599,"is_reserved":false,"is_disabled":false,"rental_uris":{"android":"levelo://app?vid=dc826101-8ee0-47d7-ba64-1386b83af6a5","ios":"levelo://app?vid=dc826101-8ee0-47d7-ba64-1386b83af6a5"},"vehicle_type_id":"4","last_reported":1761149647,"current_range_meters":8400,"station_id":"ce4bhbh2rcd13ifvqeo0","pricing_plan_id":"cebpf4jnsgd1na2vs0mg"},{"bike_id":"46ce4a6a-405b-4153-b2be-2dbc5814180a","system_id":"levelo_inurba_marseille","lat":43.2812,"lon":5.37834,"is_reserved":false,"is_disabled":false,"rental_uris":{"android":"levelo://app?vid=46ce4a6a-405b-4153-b2be-2dbc5814180a","ios":"levelo://app?vid=46ce4a6a-405b-4153-b2be-2dbc5814180a"},"vehicle_type_id":"4","last_reported":1761149647,"current_range_meters":8400,"station_id":"ce4bha12rcd13ifvqee0","pricing_plan_id":"cebpf4jnsgd1na2vs0mg"},{"bike_id":"22c3be45-3cae-4b50-b47a-b1bd5bfc1796","system_id":"levelo_inurba_marseille","lat":43.298,"lon":5.40395,"is_reserved":false,"is_disabled":false,"rental_uris":{"android":"levelo://app?vid=22c3be45-3cae-4b50-b47a-b1bd5bfc1796","ios":"levelo://app?vid=22c3be45-3cae-4b50-b47a-b1bd5bfc1796"},"vehicle_type_id":"4","last_reported":1761149647,"current_range_meters":8400,"station_id":"ce4bh112rcd13ifvqd90","pricing_plan_id":"cebpf4jnsgd1na2vs0mg"},{"bike_id":"3201e625-69d5-420e-838c-f4c3f44666ef","system_id":"levelo_inurba_marseille","lat":43.33775,"lon":5.37438,"is_reserved":false,"is_disabled":false,"rental_uris":{"android":"levelo://app?vid=3201e625-69d5-420e-838c-f4c3f44666ef","ios":"levelo://app?vid=3201e625-69d5-420e-838c-f4c3f44666ef"},"vehicle_type_id":"4","last_reported":1761149647,"current_range_meters":8400,"station_id":"","pricing_plan_id":"cebpf4jnsgd1na2vs0mg"},{"bike_id":"a7b06526-aea6-4369-9939-dc263cf58f1c","system_id":"levelo_inurba_marseille","lat":43.27828,"lon":5.39201,"is_reserved":false,"is_disabled":true,"rental_uris":{"android":"levelo://app?vid=a7b06526-aea6-4369-9939-dc263cf58f1c","ios":"levelo://app?vid=a7b06526-aea6-4369-9939-dc263cf58f1c"},"vehicle_type_id":"4","last_reported":1761149647,"current_range_meters":8400,"station_id":"ce4bhjp2rcd13ifvqga0","pricing_plan_id":"cebpf4jnsgd1na2vs0mg"},{"bike_id":"5e16ea21-38f4-4cda-b3f8-a8525b75589b","system_id":"levelo_inurba_marseille","lat":43.288453,"lon":5.392875,"is_reserved":false,"is_disabled":false,"rental_uris":{"android":"levelo://app?vid=5e16ea21-38f4-4cda-b3f8-a8525b75589b","ios":"levelo://app?vid=5e16ea21-38f4-4cda-b3f8-a8525b75589b"},"vehicle_type_id":"4","last_reported":1761149647,"current_range_meters":8400,"station_id":"ce4bh2p2rcd13ifvqdi0","pricing_plan_id":"cebpf4jnsgd1na2vs0mg"},{"bike_id":"577ecd2b-914e-4a10-9632-ee5c0350e5e6","system_id":"levelo_inurba_marseille","lat":43.295312,"lon":5.385415,"is_reserved":false,"is_disabled":false,"rental_uris":{"android":"levelo://app?vid=577ecd2b-914e-4a10-9632-ee5c0350e5e6","ios":"levelo://app?vid=577ecd2b-914e-4a10-9632-ee5c0350e5e6"},"vehicle_type_id":"4","last_reported":1761149647,"current_range_meters":8400,"station_id":"","pricing_plan_id":"cebpf4jnsgd1na2vs0mg"},{"bike_id":"45a3b8d5-483d-4210-82de-6a836b2eddc8","system_id":"levelo_inurba_marseille","lat":43.31124,"lon":5.37764,"is_reserved":false,"is_disabled":false,"rental_uris":{"android":"levelo://app?vid=45a3b8d5-483d-4210-82de-6a836b2eddc8","ios":"levelo://app?vid=45a3b8d5-483d-4210-82de-6a836b2eddc8"},"vehicle_type_id":"4","last_reported":1761149647,"current_range_meters":8400,"station_id":"ce4bgt92rcd13ifvqcg0","pricing_plan_id":"cebpf4jnsgd1na2vs0mg"},{"bike_id":"5055601d-ccec-4446-bb6b-ba358d18a086","system_id":"levelo_inurba_marseille","lat":43.30956,"lon":5.39041,"is_reserved":false,"is_disabled":true,"rental_uris":{"android":"levelo://app?vid=5055601d-ccec-4446-bb6b-ba358d18a086","ios":"levelo://app?vid=5055601d-ccec-4446-bb6b-ba358d18a086"},"vehicle_type_id":"4","last_reported":1761149647,"current_range_meters":8800,"station_id":"ce4bgup2rcd13ifvqco0","pricing_plan_id":"cebpf4jnsgd1na2vs0mg"},{"bike_id":"b8457e49-45d1-4539-8d31-1eb0283df508","system_id":"levelo_inurba_marseille","lat":43.331609,"lon":5.354978,"is_reserved":false,"is_disabled":false,"rental_uris":{"android":"levelo://app?vid=b8457e49-45d1-4539-8d31-1eb0283df508","ios":"levelo://app?vid=b8457e49-45d1-4539-8d31-1eb0283df508"},"vehicle_type_id":"4","last_reported":1761149647,"current_range_meters":8800,"station_id":"","pricing_plan_id":"cebpf4jnsgd1na2vs0mg"},{"bike_id":"1e828d29-9ce3-4620-8df4-1dbcabd64cc3","system_id":"levelo_inurba_marseille","lat":43.21194,"lon":5.3509,"is_reserved":false,"is_disabled":false,"rental_uris":{"android":"levelo://app?vid=1e828d29-9ce3-4620-8df4-1dbcabd64cc3","ios":"levelo://app?vid=1e828d29-9ce3-4620-8df4-1dbcabd64cc3"},"vehicle_type_id":"4","last_reported":1761149647,"current_range_meters":8800,"station_id":"st_cvj6sg6p6f1abm77japg","pricing_plan_id":"cebpf4jnsgd1na2vs0mg"},{"bike_id":"c4432b73-0adb-475d-83b3-18f6e7bba483","system_id":"levelo_inurba_marseille","lat":43.31637,"lon":5.40536,"is_reserved":false,"is_disabled":false,"rental_uris":{"android":"levelo://app?vid=c4432b73-0adb-475d-83b3-18f6e7bba483","ios":"levelo://app?vid=c4432b73-0adb-475d-83b3-18f6e7bba483"},"vehicle_type_id":"4","last_reported":1761149647,"current_range_meters":8800,"station_id":"","pricing_plan_id":"cebpf4jnsgd1na2vs0mg"},{"bike_id":"0a5fdbb7-ad12-4f06-91ac-5841142999cd","system_id":"levelo_inurba_marseille","lat":43.284129,"lon":5.349774,"is_reserved":false,"is_disabled":false,"rental_uris":{"android":"levelo://app?vid=0a5fdbb7-ad12-4f06-91ac-5841142999cd","ios":"levelo://app?vid=0a5fdbb7-ad12-4f06-91ac-5841142999cd"},"vehicle_type_id":"4","last_reported":1761149647,"current_range_meters":9200,"station_id":"ce4bhbh2rcd13ifvqepg","pricing_plan_id":"cebpf4jnsgd1na2vs0mg"},{"bike_id":"e3f03a4b-79e8-4c86-8b60-dae37cb49b4e","system_id":"levelo_inurba_marseille","lat":43.21742,"lon":5.34614,"is_reserved":false,"is_disabled":false,"rental_uris":{"android":"levelo://app?vid=e3f03a4b-79e8-4c86-8b60-dae37cb49b4e","ios":"levelo://app?vid=e3f03a4b-79e8-4c86-8b60-dae37cb49b4e"},"vehicle_type_id":"4","last_reported":1761149647,"current_range_meters":9200,"station_id":"st_cvj6r9ubvosntc0bgbag","pricing_plan_id":"cebpf4jnsgd1na2vs0mg"},{"bike_id":"d38bb17a-4ac6-4da6-829b-fc2ffe260364","system_id":"levelo_inurba_marseille","lat":43.318991,"lon":5.407397,"is_reserved":false,"is_disabled":true,"rental_uris":{"android":"levelo://app?vid=d38bb17a-4ac6-4da6-829b-fc2ffe260364","ios":"levelo://app?vid=d38bb17a-4ac6-4da6-829b-fc2ffe260364"},"vehicle_type_id":"4","last_reported":1761149647,"current_range_meters":9200,"station_id":"ce4bhq12rcd13ifvqhig","pricing_plan_id":"cebpf4jnsgd1na2vs0mg"},{"bike_id":"464ea46f-12a9-4ff3-bfa7-25e1d07be809","system_id":"levelo_inurba_marseille","lat":43.29261,"lon":5.40896,"is_reserved":false,"is_disabled":false,"rental_uris":{"android":"levelo://app?vid=464ea46f-12a9-4ff3-bfa7-25e1d07be809","ios":"levelo://app?vid=464ea46f-12a9-4ff3-bfa7-25e1d07be809"},"vehicle_type_id":"4","last_reported":1761149647,"current_range_meters":9600,"station_id":"ce4bh192rcd13ifvqdc0","pricing_plan_id":"cebpf4jnsgd1na2vs0mg"},{"bike_id":"cc9a0b4c-fdda-4d32-a398-458f6a2456d0","system_id":"levelo_inurba_marseille","lat":43.31376,"lon":5.38491,"is_reserved":false,"is_disabled":false,"rental_uris":{"android":"levelo://app?vid=cc9a0b4c-fdda-4d32-a398-458f6a2456d0","ios":"levelo://app?vid=cc9a0b4c-fdda-4d32-a398-458f6a2456d0"},"vehicle_type_id":"4","last_reported":1761149647,"current_range_meters":10000,"station_id":"ce4bgt92rcd13ifvqcf0","pricing_plan_id":"cebpf4jnsgd1na2vs0mg"},{"bike_id":"02f7835e-8895-43db-bc46-dc0659a292d5","system_id":"levelo_inurba_marseille","lat":43.29331,"lon":5.3707,"is_reserved":false,"is_disabled":false,"rental_uris":{"android":"levelo://app?vid=02f7835e-8895-43db-bc46-dc0659a292d5","ios":"levelo://app?vid=02f7835e-8895-43db-bc46-dc0659a292d5"},"vehicle_type_id":"4","last_reported":1761149647,"current_range_meters":10000,"station_id":"","pricing_plan_id":"cebpf4jnsgd1na2vs0mg"},{"bike_id":"75823ed0-2faa-467d-b9b6-68e206b3b056","system_id":"levelo_inurba_marseille","lat":43.27418,"lon":5.39433,"is_reserved":false,"is_disabled":false,"rental_uris":{"android":"levelo://app?vid=75823ed0-2faa-467d-b9b6-68e206b3b056","ios":"levelo://app?vid=75823ed0-2faa-467d-b9b6-68e206b3b056"},"vehicle_type_id":"4","last_reported":1761149647,"current_range_meters":10800,"station_id":"ce4bhdp2rcd13ifvqf20","pricing_plan_id":"cebpf4jnsgd1na2vs0mg"},{"bike_id":"90e3e2bb-f8a0-4fd9-ad8d-4d71b29160ce","system_id":"levelo_inurba_marseille","lat":43.2807,"lon":5.39659,"is_reserved":false,"is_disabled":false,"rental_uris":{"android":"levelo://app?vid=90e3e2bb-f8a0-4fd9-ad8d-4d71b29160ce","ios":"levelo://app?vid=90e3e2bb-f8a0-4fd9-ad8d-4d71b29160ce"},"vehicle_type_id":"4","last_reported":1761149647,"current_range_meters":10800,"station_id":"ce4bho12rcd13ifvqh2g","pricing_plan_id":"cebpf4jnsgd1na2vs0mg"},{"bike_id":"9edf80f6-2084-4191-a4bc-f24c777b9a2a","system_id":"levelo_inurba_marseille","lat":43.300498,"lon":5.389289,"is_reserved":false,"is_disabled":false,"rental_uris":{"android":"levelo://app?vid=9edf80f6-2084-4191-a4bc-f24c777b9a2a","ios":"levelo://app?vid=9edf80f6-2084-4191-a4bc-f24c777b9a2a"},"vehicle_type_id":"4","last_reported":1761149647,"current_range_meters":10800,"station_id":"","pricing_plan_id":"cebpf4jnsgd1na2vs0mg"},{"bike_id":"40e17525-0511-4786-8546-896444b0c93b","system_id":"levelo_inurba_marseille","lat":43.211903,"lon":5.350789,"is_reserved":false,"is_disabled":false,"rental_uris":{"android":"levelo://app?vid=40e17525-0511-4786-8546-896444b0c93b","ios":"levelo://app?vid=40e17525-0511-4786-8546-896444b0c93b"},"vehicle_type_id":"4","last_reported":1761149647,"current_range_meters":10800,"station_id":"st_cvj6sg6p6f1abm77japg","pricing_plan_id":"cebpf4jnsgd1na2vs0mg"},{"bike_id":"82576c51-8b9b-43eb-aa43-fc4a18c9ea5b","system_id":"levelo_inurba_marseille","lat":43.21731,"lon":5.34606,"is_reserved":false,"is_disabled":false,"rental_uris":{"android":"levelo://app?vid=82576c51-8b9b-43eb-aa43-fc4a18c9ea5b","ios":"levelo://app?vid=82576c51-8b9b-43eb-aa43-fc4a18c9ea5b"},"vehicle_type_id":"4","last_reported":1761149647,"current_range_meters":11200,"station_id":"st_cvj6r9ubvosntc0bgbag","pricing_plan_id":"cebpf4jnsgd1na2vs0mg"},{"bike_id":"89dd87c4-c8d0-4de7-8902-2b0447e67475","system_id":"levelo_inurba_marseille","lat":43.31232,"lon":5.36877,"is_reserved":false,"is_disabled":true,"rental_uris":{"android":"levelo://app?vid=89dd87c4-c8d0-4de7-8902-2b0447e67475","ios":"levelo://app?vid=89dd87c4-c8d0-4de7-8902-2b0447e67475"},"vehicle_type_id":"4","last_reported":1761149647,"current_range_meters":11200,"station_id":"","pricing_plan_id":"cebpf4jnsgd1na2vs0mg"},{"bike_id":"6146b6a3-a2f0-4083-b0dd-fa6ecd5a65f0","system_id":"levelo_inurba_marseille","lat":43.27377,"lon":5.36268,"is_reserved":false,"is_disabled":false,"rental_uris":{"android":"levelo://app?vid=6146b6a3-a2f0-4083-b0dd-fa6ecd5a65f0","ios":"levelo://app?vid=6146b6a3-a2f0-4083-b0dd-fa6ecd5a65f0"},"vehicle_type_id":"4","last_reported":1761149647,"current_range_meters":11600,"station_id":"ce4bhbh2rcd13ifvqeo0","pricing_plan_id":"cebpf4jnsgd1na2vs0mg"},{"bike_id":"ac1df8dc-41e5-4954-977f-6f21ed12d11a","system_id":"levelo_inurba_marseille","lat":43.217495,"lon":5.346019,"is_reserved":false,"is_disabled":false,"rental_uris":{"android":"levelo://app?vid=ac1df8dc-41e5-4954-977f-6f21ed12d11a","ios":"levelo://app?vid=ac1df8dc-41e5-4954-977f-6f21ed12d11a"},"vehicle_type_id":"4","last_reported":1761149647,"current_range_meters":11600,"station_id":"ce4bh692rcd13ifvqea0","pricing_plan_id":"cebpf4jnsgd1na2vs0mg"},{"bike_id":"6ea4db1a-bb11-46d4-bc50-dfb3b45ad0dc","system_id":"levelo_inurba_marseille","lat":43.23195,"lon":5.35546,"is_reserved":false,"is_disabled":false,"rental_uris":{"android":"levelo://app?vid=6ea4db1a-bb11-46d4-bc50-dfb3b45ad0dc","ios":"levelo://app?vid=6ea4db1a-bb11-46d4-bc50-dfb3b45ad0dc"},"vehicle_type_id":"4","last_reported":1761149647,"current_range_meters":11600,"station_id":"ce4bhu92rcd13ifvqi70","pricing_plan_id":"cebpf4jnsgd1na2vs0mg"},{"bike_id":"44b1ad6b-1a98-4e37-a182-f58df3beccce","system_id":"levelo_inurba_marseille","lat":43.21193,"lon":5.35074,"is_reserved":false,"is_disabled":true,"rental_uris":{"android":"levelo://app?vid=44b1ad6b-1a98-4e37-a182-f58df3beccce","ios":"levelo://app?vid=44b1ad6b-1a98-4e37-a182-f58df3beccce"},"vehicle_type_id":"4","last_reported":1761149647,"current_range_meters":11600,"station_id":"","pricing_plan_id":"cebpf4jnsgd1na2vs0mg"},{"bike_id":"bbf0e5b3-61ac-473b-99b0-cf0316df431b","system_id":"levelo_inurba_marseille","lat":43.29982,"lon":5.37208,"is_reserved":false,"is_disabled":false,"rental_uris":{"android":"levelo://app?vid=bbf0e5b3-61ac-473b-99b0-cf0316df431b","ios":"levelo://app?vid=bbf0e5b3-61ac-473b-99b0-cf0316df431b"},"vehicle_type_id":"4","last_reported":1761149647,"current_range_meters":11600,"station_id":"ce4bgr92rcd13ifvqc7g","pricing_plan_id":"cebpf4jnsgd1na2vs0mg"},{"bike_id":"eadb57f4-e03f-4fc5-8cdc-7d826de899d2","system_id":"levelo_inurba_marseille","lat":43.28962,"lon":5.37843,"is_reserved":false,"is_disabled":false,"rental_uris":{"android":"levelo://app?vid=eadb57f4-e03f-4fc5-8cdc-7d826de899d2","ios":"levelo://app?vid=eadb57f4-e03f-4fc5-8cdc-7d826de899d2"},"vehicle_type_id":"4","last_reported":1761149647,"current_range_meters":11600,"station_id":"ce4bh9p2rcd13ifvqed0","pricing_plan_id":"cebpf4jnsgd1na2vs0mg"},{"bike_id":"5048d45b-2570-49ac-818b-598672b08e95","system_id":"levelo_inurba_marseille","lat":43.296125,"lon":5.381168,"is_reserved":false,"is_disabled":false,"rental_uris":{"android":"levelo://app?vid=5048d45b-2570-49ac-818b-598672b08e95","ios":"levelo://app?vid=5048d45b-2570-49ac-818b-598672b08e95"},"vehicle_type_id":"4","last_reported":1761149647,"current_range_meters":11600,"station_id":"ce4bhjp2rcd13ifvqga0","pricing_plan_id":"cebpf4jnsgd1na2vs0mg"},{"bike_id":"fba2c7f5-87ee-49e1-8016-73583d9600b2","system_id":"levelo_inurba_marseille","lat":43.29022,"lon":5.38616,"is_reserved":false,"is_disabled":false,"rental_uris":{"android":"levelo://app?vid=fba2c7f5-87ee-49e1-8016-73583d9600b2","ios":"levelo://app?vid=fba2c7f5-87ee-49e1-8016-73583d9600b2"},"vehicle_type_id":"4","last_reported":1761149647,"current_range_meters":11600,"station_id":"ce4bh4p2rcd13ifvqe0g","pricing_plan_id":"cebpf4jnsgd1na2vs0mg"},{"bike_id":"c7b9837e-da7f-48df-9970-e13eaa4f0aa6","system_id":"levelo_inurba_marseille","lat":43.29035,"lon":5.38642,"is_reserved":false,"is_disabled":false,"rental_uris":{"android":"levelo://app?vid=c7b9837e-da7f-48df-9970-e13eaa4f0aa6","ios":"levelo://app?vid=c7b9837e-da7f-48df-9970-e13eaa4f0aa6"},"vehicle_type_id":"4","last_reported":1761149647,"current_range_meters":11600,"station_id":"ce4bh4p2rcd13ifvqe0g","pricing_plan_id":"cebpf4jnsgd1na2vs0mg"},{"bike_id":"a8025be6-7631-45b0-85a9-5bda17f68b98","system_id":"levelo_inurba_marseille","lat":43.29762,"lon":5.37003,"is_reserved":false,"is_disabled":false,"rental_uris":{"android":"levelo://app?vid=a8025be6-7631-45b0-85a9-5bda17f68b98","ios":"levelo://app?vid=a8025be6-7631-45b0-85a9-5bda17f68b98"},"vehicle_type_id":"4","last_reported":1761149647,"current_range_meters":12000,"station_id":"","pricing_plan_id":"cebpf4jnsgd1na2vs0mg"},{"bike_id":"396aaa55-c35f-41fc-8337-93bac25c9dde","system_id":"levelo_inurba_marseille","lat":43.29243,"lon":5.35569,"is_reserved":false,"is_disabled":false,"rental_uris":{"android":"levelo://app?vid=396aaa55-c35f-41fc-8337-93bac25c9dde","ios":"levelo://app?vid=396aaa55-c35f-41fc-8337-93bac25c9dde"},"vehicle_type_id":"4","last_reported":1761149647,"current_range_meters":12000,"station_id":"","pricing_plan_id":"cebpf4jnsgd1na2vs0mg"},{"bike_id":"87969f7f-5893-4088-953a-1d729cfebaab","system_id":"levelo_inurba_marseille","lat":43.290327,"lon":5.386536,"is_reserved":false,"is_disabled":false,"rental_uris":{"android":"levelo://app?vid=87969f7f-5893-4088-953a-1d729cfebaab","ios":"levelo://app?vid=87969f7f-5893-4088-953a-1d729cfebaab"},"vehicle_type_id":"4","last_reported":1761149647,"current_range_meters":12000,"station_id":"ce4bh4p2rcd13ifvqe0g","pricing_plan_id":"cebpf4jnsgd1na2vs0mg"},{"bike_id":"27e4da55-03ac-4a27-9cbb-4218c6a866bf","system_id":"levelo_inurba_marseille","lat":43.280642,"lon":5.352788,"is_reserved":false,"is_disabled":false,"rental_uris":{"android":"levelo://app?vid=27e4da55-03ac-4a27-9cbb-4218c6a866bf","ios":"levelo://app?vid=27e4da55-03ac-4a27-9cbb-4218c6a866bf"},"vehicle_type_id":"4","last_reported":1761149647,"current_range_meters":12000,"station_id":"","pricing_plan_id":"cebpf4jnsgd1na2vs0mg"},{"bike_id":"c34e03fc-7769-4826-bbf2-0a121d96308e","system_id":"levelo_inurba_marseille","lat":43.29529,"lon":5.38534,"is_reserved":false,"is_disabled":false,"rental_uris":{"android":"levelo://app?vid=c34e03fc-7769-4826-bbf2-0a121d96308e","ios":"levelo://app?vid=c34e03fc-7769-4826-bbf2-0a121d96308e"},"vehicle_type_id":"4","last_reported":1761149647,"current_range_meters":12000,"station_id":"ce4bgih2rcd13ifvqba0","pricing_plan_id":"cebpf4jnsgd1na2vs0mg"},{"bike_id":"1243514d-5228-41d4-b819-c7ff4cee0949","system_id":"levelo_inurba_marseille","lat":43.317024,"lon":5.437021,"is_reserved":false,"is_disabled":false,"rental_uris":{"android":"levelo://app?vid=1243514d-5228-41d4-b819-c7ff4cee0949","ios":"levelo://app?vid=1243514d-5228-41d4-b819-c7ff4cee0949"},"vehicle_type_id":"4","last_reported":1761149647,"current_range_meters":12400,"station_id":"ce4bhp92rcd13ifvqhcg","pricing_plan_id":"cebpf4jnsgd1na2vs0mg"},{"bike_id":"37d01fc8-4b4d-4652-a489-1254eb9d4c80","system_id":"levelo_inurba_marseille","lat":43.34076,"lon":5.40411,"is_reserved":false,"is_disabled":false,"rental_uris":{"android":"levelo://app?vid=37d01fc8-4b4d-4652-a489-1254eb9d4c80","ios":"levelo://app?vid=37d01fc8-4b4d-4652-a489-1254eb9d4c80"},"vehicle_type_id":"4","last_reported":1761149647,"current_range_meters":12400,"station_id":"","pricing_plan_id":"cebpf4jnsgd1na2vs0mg"},{"bike_id":"61c47949-89b9-4c27-95f4-2b581fa26bb6","system_id":"levelo_inurba_marseille","lat":43.23188,"lon":5.3997,"is_reserved":false,"is_disabled":false,"rental_uris":{"android":"levelo://app?vid=61c47949-89b9-4c27-95f4-2b581fa26bb6","ios":"levelo://app?vid=61c47949-89b9-4c27-95f4-2b581fa26bb6"},"vehicle_type_id":"4","last_reported":1761149647,"current_range_meters":12800,"station_id":"ce4bhn12rcd13ifvqgqg","pricing_plan_id":"cebpf4jnsgd1na2vs0mg"},{"bike_id":"68763e69-8a69-4698-a475-c958cb2a3d1c","system_id":"levelo_inurba_marseille","lat":43.28272,"lon":5.35059,"is_reserved":false,"is_disabled":false,"rental_uris":{"android":"levelo://app?vid=68763e69-8a69-4698-a475-c958cb2a3d1c","ios":"levelo://app?vid=68763e69-8a69-4698-a475-c958cb2a3d1c"},"vehicle_type_id":"4","last_reported":1761149647,"current_range_meters":12800,"station_id":"ce4bhbp2rcd13ifvqerg","pricing_plan_id":"cebpf4jnsgd1na2vs0mg"},{"bike_id":"4b9c2cda-db75-4124-b7ef-647f11a03088","system_id":"levelo_inurba_marseille","lat":43.28103,"lon":5.37829,"is_reserved":false,"is_disabled":false,"rental_uris":{"android":"levelo://app?vid=4b9c2cda-db75-4124-b7ef-647f11a03088","ios":"levelo://app?vid=4b9c2cda-db75-4124-b7ef-647f11a03088"},"vehicle_type_id":"4","last_reported":1761149647,"current_range_meters":12800,"station_id":"ce4bha12rcd13ifvqee0","pricing_plan_id":"cebpf4jnsgd1na2vs0mg"},{"bike_id":"ace933b6-f325-457d-bb4d-d4b86811c0f6","system_id":"levelo_inurba_marseille","lat":43.30317,"lon":5.40454,"is_reserved":false,"is_disabled":false,"rental_uris":{"android":"levelo://app?vid=ace933b6-f325-457d-bb4d-d4b86811c0f6","ios":"levelo://app?vid=ace933b6-f325-457d-bb4d-d4b86811c0f6"},"vehicle_type_id":"4","last_reported":1761149647,"current_range_meters":12800,"station_id":"ce4bh012rcd13ifvqd10","pricing_plan_id":"cebpf4jnsgd1na2vs0mg"},{"bike_id":"8517d2ad-4627-4d5c-b43d-563f1cd29009","system_id":"levelo_inurba_marseille","lat":43.30453,"lon":5.36913,"is_reserved":false,"is_disabled":false,"rental_uris":{"android":"levelo://app?vid=8517d2ad-4627-4d5c-b43d-563f1cd29009","ios":"levelo://app?vid=8517d2ad-4627-4d5c-b43d-563f1cd29009"},"vehicle_type_id":"4","last_reported":1761149647,"current_range_meters":13600,"station_id":"","pricing_plan_id":"cebpf4jnsgd1na2vs0mg"},{"bike_id":"6b13d7ff-fc73-401f-b3f4-7cfa60043a23","system_id":"levelo_inurba_marseille","lat":43.28931,"lon":5.36639,"is_reserved":false,"is_disabled":false,"rental_uris":{"android":"levelo://app?vid=6b13d7ff-fc73-401f-b3f4-7cfa60043a23","ios":"levelo://app?vid=6b13d7ff-fc73-401f-b3f4-7cfa60043a23"},"vehicle_type_id":"4","last_reported":1761149647,"current_range_meters":13600,"station_id":"ce4bhap2rcd13ifvqek0","pricing_plan_id":"cebpf4jnsgd1na2vs0mg"},{"bike_id":"69f680db-952b-46d7-9fd8-3736f9feebea","system_id":"levelo_inurba_marseille","lat":43.28459,"lon":5.35887,"is_reserved":false,"is_disabled":false,"rental_uris":{"android":"levelo://app?vid=69f680db-952b-46d7-9fd8-3736f9feebea","ios":"levelo://app?vid=69f680db-952b-46d7-9fd8-3736f9feebea"},"vehicle_type_id":"4","last_reported":1761149647,"current_range_meters":13600,"station_id":"ce4bhah2rcd13ifvqei0","pricing_plan_id":"cebpf4jnsgd1na2vs0mg"},{"bike_id":"f47a8bfb-8dc0-402f-9027-6eaa4e88af2b","system_id":"levelo_inurba_marseille","lat":43.292696,"lon":5.38442,"is_reserved":false,"is_disabled":false,"rental_uris":{"android":"levelo://app?vid=f47a8bfb-8dc0-402f-9027-6eaa4e88af2b","ios":"levelo://app?vid=f47a8bfb-8dc0-402f-9027-6eaa4e88af2b"},"vehicle_type_id":"4","last_reported":1761149647,"current_range_meters":13600,"station_id":"ce4bhap2rcd13ifvqek0","pricing_plan_id":"cebpf4jnsgd1na2vs0mg"},{"bike_id":"ac4f7d3c-5af7-44ad-8c8b-463d26f4b847","system_id":"levelo_inurba_marseille","lat":43.274451,"lon":5.390878,"is_reserved":false,"is_disabled":false,"rental_uris":{"android":"levelo://app?vid=ac4f7d3c-5af7-44ad-8c8b-463d26f4b847","ios":"levelo://app?vid=ac4f7d3c-5af7-44ad-8c8b-463d26f4b847"},"vehicle_type_id":"4","last_reported":1761149647,"current_range_meters":13600,"station_id":"ce4bhg12rcd13ifvqf80","pricing_plan_id":"cebpf4jnsgd1na2vs0mg"},{"bike_id":"61a26fd2-94c3-4bd1-8dbd-16e08548de4a","system_id":"levelo_inurba_marseille","lat":43.303074,"lon":5.392071,"is_reserved":false,"is_disabled":false,"rental_uris":{"android":"levelo://app?vid=61a26fd2-94c3-4bd1-8dbd-16e08548de4a","ios":"levelo://app?vid=61a26fd2-94c3-4bd1-8dbd-16e08548de4a"},"vehicle_type_id":"4","last_reported":1761149647,"current_range_meters":13600,"station_id":"ce4bgkh2rcd13ifvqbk0","pricing_plan_id":"cebpf4jnsgd1na2vs0mg"},{"bike_id":"e659b3af-f205-4a87-898b-b4a2fd34a086","system_id":"levelo_inurba_marseille","lat":43.2481,"lon":5.3746,"is_reserved":false,"is_disabled":false,"rental_uris":{"android":"levelo://app?vid=e659b3af-f205-4a87-898b-b4a2fd34a086","ios":"levelo://app?vid=e659b3af-f205-4a87-898b-b4a2fd34a086"},"vehicle_type_id":"4","last_reported":1761149647,"current_range_meters":14000,"station_id":"ce4bhgh2rcd13ifvqfb0","pricing_plan_id":"cebpf4jnsgd1na2vs0mg"},{"bike_id":"5b2fb394-b654-4cda-abea-19d87e1a4938","system_id":"levelo_inurba_marseille","lat":43.240822,"lon":5.377519,"is_reserved":false,"is_disabled":false,"rental_uris":{"android":"levelo://app?vid=5b2fb394-b654-4cda-abea-19d87e1a4938","ios":"levelo://app?vid=5b2fb394-b654-4cda-abea-19d87e1a4938"},"vehicle_type_id":"4","last_reported":1761149647,"current_range_meters":14000,"station_id":"ce4bhnp2rcd13ifvqgvg","pricing_plan_id":"cebpf4jnsgd1na2vs0mg"},{"bike_id":"3aa8c3e6-230d-4538-ac39-2b944611f536","system_id":"levelo_inurba_marseille","lat":43.31347,"lon":5.36718,"is_reserved":false,"is_disabled":true,"rental_uris":{"android":"levelo://app?vid=3aa8c3e6-230d-4538-ac39-2b944611f536","ios":"levelo://app?vid=3aa8c3e6-230d-4538-ac39-2b944611f536"},"vehicle_type_id":"4","last_reported":1761149647,"current_range_meters":14000,"station_id":"ce4bgr92rcd13ifvqc6g","pricing_plan_id":"cebpf4jnsgd1na2vs0mg"},{"bike_id":"edaa6079-b2f6-4aee-8cc0-36409b3362ba","system_id":"levelo_inurba_marseille","lat":43.25724,"lon":5.41107,"is_reserved":false,"is_disabled":false,"rental_uris":{"android":"levelo://app?vid=edaa6079-b2f6-4aee-8cc0-36409b3362ba","ios":"levelo://app?vid=edaa6079-b2f6-4aee-8cc0-36409b3362ba"},"vehicle_type_id":"4","last_reported":1761149647,"current_range_meters":14000,"station_id":"ce4bhkp2rcd13ifvqgd0","pricing_plan_id":"cebpf4jnsgd1na2vs0mg"},{"bike_id":"ec60652f-d3c2-400e-8251-0e42407708db","system_id":"levelo_inurba_marseille","lat":43.270709,"lon":5.422823,"is_reserved":false,"is_disabled":false,"rental_uris":{"android":"levelo://app?vid=ec60652f-d3c2-400e-8251-0e42407708db","ios":"levelo://app?vid=ec60652f-d3c2-400e-8251-0e42407708db"},"vehicle_type_id":"4","last_reported":1761149647,"current_range_meters":14400,"station_id":"ce4bhk92rcd13ifvqgb0","pricing_plan_id":"cebpf4jnsgd1na2vs0mg"},{"bike_id":"a8db73e9-f762-470d-b2d3-c54aa0a344de","system_id":"levelo_inurba_marseille","lat":43.29282,"lon":5.36846,"is_reserved":false,"is_disabled":false,"rental_uris":{"android":"levelo://app?vid=a8db73e9-f762-470d-b2d3-c54aa0a344de","ios":"levelo://app?vid=a8db73e9-f762-470d-b2d3-c54aa0a344de"},"vehicle_type_id":"4","last_reported":1761149647,"current_range_meters":14400,"station_id":"ce4bhbp2rcd13ifvqesg","pricing_plan_id":"cebpf4jnsgd1na2vs0mg"},{"bike_id":"c98b0033-c6e2-42ff-afa1-913da1219406","system_id":"levelo_inurba_marseille","lat":43.30885,"lon":5.39657,"is_reserved":false,"is_disabled":false,"rental_uris":{"android":"levelo://app?vid=c98b0033-c6e2-42ff-afa1-913da1219406","ios":"levelo://app?vid=c98b0033-c6e2-42ff-afa1-913da1219406"},"vehicle_type_id":"4","last_reported":1761149647,"current_range_meters":14400,"station_id":"ce4bh012rcd13ifvqcv0","pricing_plan_id":"cebpf4jnsgd1na2vs0mg"},{"bike_id":"b61e6817-4496-4ad7-ab43-b524af2e26e5","system_id":"levelo_inurba_marseille","lat":43.2866,"lon":5.38661,"is_reserved":false,"is_disabled":false,"rental_uris":{"android":"levelo://app?vid=b61e6817-4496-4ad7-ab43-b524af2e26e5","ios":"levelo://app?vid=b61e6817-4496-4ad7-ab43-b524af2e26e5"},"vehicle_type_id":"4","last_reported":1761149647,"current_range_meters":14400,"station_id":"","pricing_plan_id":"cebpf4jnsgd1na2vs0mg"},{"bike_id":"07e992db-48e1-481b-a50e-3b491cfc1455","system_id":"levelo_inurba_marseille","lat":43.31991,"lon":5.41291,"is_reserved":false,"is_disabled":false,"rental_uris":{"android":"levelo://app?vid=07e992db-48e1-481b-a50e-3b491cfc1455","ios":"levelo://app?vid=07e992db-48e1-481b-a50e-3b491cfc1455"},"vehicle_type_id":"4","last_reported":1761149647,"current_range_meters":14400,"station_id":"","pricing_plan_id":"cebpf4jnsgd1na2vs0mg"},{"bike_id":"e7709aff-f080-4c40-b225-77642ea3c5cc","system_id":"levelo_inurba_marseille","lat":43.24172,"lon":5.36394,"is_reserved":false,"is_disabled":false,"rental_uris":{"android":"levelo://app?vid=e7709aff-f080-4c40-b225-77642ea3c5cc","ios":"levelo://app?vid=e7709aff-f080-4c40-b225-77642ea3c5cc"},"vehicle_type_id":"4","last_reported":1761149647,"current_range_meters":14400,"station_id":"cpo36qri1sfpv3e86is0","pricing_plan_id":"cebpf4jnsgd1na2vs0mg"},{"bike_id":"e3613728-9dc3-4abd-b40e-dc86deab3a06","system_id":"levelo_inurba_marseille","lat":43.296329,"lon":5.38097,"is_reserved":false,"is_disabled":false,"rental_uris":{"android":"levelo://app?vid=e3613728-9dc3-4abd-b40e-dc86deab3a06","ios":"levelo://app?vid=e3613728-9dc3-4abd-b40e-dc86deab3a06"},"vehicle_type_id":"4","last_reported":1761149647,"current_range_meters":14800,"station_id":"ce4bgl12rcd13ifvqbo0","pricing_plan_id":"cebpf4jnsgd1na2vs0mg"},{"bike_id":"61f001a3-2cb1-43fb-bfe4-e4a1763b22c1","system_id":"levelo_inurba_marseille","lat":43.2707,"lon":5.42276,"is_reserved":false,"is_disabled":false,"rental_uris":{"android":"levelo://app?vid=61f001a3-2cb1-43fb-bfe4-e4a1763b22c1","ios":"levelo://app?vid=61f001a3-2cb1-43fb-bfe4-e4a1763b22c1"},"vehicle_type_id":"4","last_reported":1761149647,"current_range_meters":14800,"station_id":"ce4bhk92rcd13ifvqgb0","pricing_plan_id":"cebpf4jnsgd1na2vs0mg"},{"bike_id":"4eae2ec4-8862-466e-a3d9-395cca4276d0","system_id":"levelo_inurba_marseille","lat":43.30298,"lon":5.37524,"is_reserved":false,"is_disabled":false,"rental_uris":{"android":"levelo://app?vid=4eae2ec4-8862-466e-a3d9-395cca4276d0","ios":"levelo://app?vid=4eae2ec4-8862-466e-a3d9-395cca4276d0"},"vehicle_type_id":"4","last_reported":1761149647,"current_range_meters":14800,"station_id":"","pricing_plan_id":"cebpf4jnsgd1na2vs0mg"},{"bike_id":"96e9325f-652d-4c4e-86c0-0d7f8ddb2cd5","system_id":"levelo_inurba_marseille","lat":43.30432,"lon":5.38893,"is_reserved":false,"is_disabled":false,"rental_uris":{"android":"levelo://app?vid=96e9325f-652d-4c4e-86c0-0d7f8ddb2cd5","ios":"levelo://app?vid=96e9325f-652d-4c4e-86c0-0d7f8ddb2cd5"},"vehicle_type_id":"4","last_reported":1761149647,"current_range_meters":15200,"station_id":"ce4bgk12rcd13ifvqbi0","pricing_plan_id":"cebpf4jnsgd1na2vs0mg"},{"bike_id":"9870a68d-ae62-4bec-82c3-a7443a850bdc","system_id":"levelo_inurba_marseille","lat":43.31277,"lon":5.37777,"is_reserved":false,"is_disabled":false,"rental_uris":{"android":"levelo://app?vid=9870a68d-ae62-4bec-82c3-a7443a850bdc","ios":"levelo://app?vid=9870a68d-ae62-4bec-82c3-a7443a850bdc"},"vehicle_type_id":"4","last_reported":1761149647,"current_range_meters":15200,"station_id":"","pricing_plan_id":"cebpf4jnsgd1na2vs0mg"},{"bike_id":"1715b51f-bfb2-4f6c-bb10-17da96b7236d","system_id":"levelo_inurba_marseille","lat":43.287231,"lon":5.379389,"is_reserved":false,"is_disabled":false,"rental_uris":{"android":"levelo://app?vid=1715b51f-bfb2-4f6c-bb10-17da96b7236d","ios":"levelo://app?vid=1715b51f-bfb2-4f6c-bb10-17da96b7236d"},"vehicle_type_id":"4","last_reported":1761149647,"current_range_meters":15200,"station_id":"ce4bh9p2rcd13ifvqec0","pricing_plan_id":"cebpf4jnsgd1na2vs0mg"},{"bike_id":"b3b13e92-d401-45af-ad84-a41c7bbeb5fe","system_id":"levelo_inurba_marseille","lat":43.29622,"lon":5.37686,"is_reserved":false,"is_disabled":false,"rental_uris":{"android":"levelo://app?vid=b3b13e92-d401-45af-ad84-a41c7bbeb5fe","ios":"levelo://app?vid=b3b13e92-d401-45af-ad84-a41c7bbeb5fe"},"vehicle_type_id":"4","last_reported":1761149647,"current_range_meters":15200,"station_id":"ce4bgi92rcd13ifvqb90","pricing_plan_id":"cebpf4jnsgd1na2vs0mg"},{"bike_id":"35309f94-10e9-4414-a88f-8e28eb83413f","system_id":"levelo_inurba_marseille","lat":43.28937,"lon":5.36374,"is_reserved":false,"is_disabled":false,"rental_uris":{"android":"levelo://app?vid=35309f94-10e9-4414-a88f-8e28eb83413f","ios":"levelo://app?vid=35309f94-10e9-4414-a88f-8e28eb83413f"},"vehicle_type_id":"4","last_reported":1761149647,"current_range_meters":15200,"station_id":"ce4bhc92rcd13ifvqetg","pricing_plan_id":"cebpf4jnsgd1na2vs0mg"},{"bike_id":"000cc276-8c32-488b-94dd-1225e21bbae5","system_id":"levelo_inurba_marseille","lat":43.25091,"lon":5.39513,"is_reserved":false,"is_disabled":false,"rental_uris":{"android":"levelo://app?vid=000cc276-8c32-488b-94dd-1225e21bbae5","ios":"levelo://app?vid=000cc276-8c32-488b-94dd-1225e21bbae5"},"vehicle_type_id":"4","last_reported":1761149647,"current_range_meters":15200,"station_id":"ce4bhm12rcd13ifvqgkg","pricing_plan_id":"cebpf4jnsgd1na2vs0mg"},{"bike_id":"a79c6bd1-700c-48dd-854c-b0af28c99022","system_id":"levelo_inurba_marseille","lat":43.24631,"lon":5.43165,"is_reserved":false,"is_disabled":false,"rental_uris":{"android":"levelo://app?vid=a79c6bd1-700c-48dd-854c-b0af28c99022","ios":"levelo://app?vid=a79c6bd1-700c-48dd-854c-b0af28c99022"},"vehicle_type_id":"4","last_reported":1761149647,"current_range_meters":15200,"station_id":"st_d2m6c4gdas8pm72e190g","pricing_plan_id":"cebpf4jnsgd1na2vs0mg"},{"bike_id":"2ff2319d-129a-4d22-a25d-01d96c2dcbc1","system_id":"levelo_inurba_marseille","lat":43.24643,"lon":5.38916,"is_reserved":false,"is_disabled":false,"rental_uris":{"android":"levelo://app?vid=2ff2319d-129a-4d22-a25d-01d96c2dcbc1","ios":"levelo://app?vid=2ff2319d-129a-4d22-a25d-01d96c2dcbc1"},"vehicle_type_id":"4","last_reported":1761149647,"current_range_meters":16000,"station_id":"ce4bhg12rcd13ifvqf60","pricing_plan_id":"cebpf4jnsgd1na2vs0mg"},{"bike_id":"05f9ef12-7b9a-404d-b248-a10e459886f0","system_id":"levelo_inurba_marseille","lat":43.28565,"lon":5.39491,"is_reserved":false,"is_disabled":false,"rental_uris":{"android":"levelo://app?vid=05f9ef12-7b9a-404d-b248-a10e459886f0","ios":"levelo://app?vid=05f9ef12-7b9a-404d-b248-a10e459886f0"},"vehicle_type_id":"4","last_reported":1761149647,"current_range_meters":16000,"station_id":"ce4bh292rcd13ifvqdg0","pricing_plan_id":"cebpf4jnsgd1na2vs0mg"},{"bike_id":"618a9c44-e479-45b6-b144-58d3228e3132","system_id":"levelo_inurba_marseille","lat":43.2463,"lon":5.38906,"is_reserved":false,"is_disabled":false,"rental_uris":{"android":"levelo://app?vid=618a9c44-e479-45b6-b144-58d3228e3132","ios":"levelo://app?vid=618a9c44-e479-45b6-b144-58d3228e3132"},"vehicle_type_id":"4","last_reported":1761149647,"current_range_meters":16000,"station_id":"ce4bhg12rcd13ifvqf60","pricing_plan_id":"cebpf4jnsgd1na2vs0mg"},{"bike_id":"0ca76e59-7103-412d-abbf-03914bcc36d6","system_id":"levelo_inurba_marseille","lat":43.28613,"lon":5.37059,"is_reserved":false,"is_disabled":false,"rental_uris":{"android":"levelo://app?vid=0ca76e59-7103-412d-abbf-03914bcc36d6","ios":"levelo://app?vid=0ca76e59-7103-412d-abbf-03914bcc36d6"},"vehicle_type_id":"4","last_reported":1761149647,"current_range_meters":16000,"station_id":"ce4bht12rcd13ifvqi60","pricing_plan_id":"cebpf4jnsgd1na2vs0mg"},{"bike_id":"cb59e4db-6fb6-4196-8e69-b10d4d91f60d","system_id":"levelo_inurba_marseille","lat":43.28606,"lon":5.35134,"is_reserved":false,"is_disabled":false,"rental_uris":{"android":"levelo://app?vid=cb59e4db-6fb6-4196-8e69-b10d4d91f60d","ios":"levelo://app?vid=cb59e4db-6fb6-4196-8e69-b10d4d91f60d"},"vehicle_type_id":"4","last_reported":1761149647,"current_range_meters":16000,"station_id":"ce4bhch2rcd13ifvqeug","pricing_plan_id":"cebpf4jnsgd1na2vs0mg"},{"bike_id":"45af610f-f67e-4906-9284-3521c68ff005","system_id":"levelo_inurba_marseille","lat":43.29729,"lon":5.36998,"is_reserved":false,"is_disabled":false,"rental_uris":{"android":"levelo://app?vid=45af610f-f67e-4906-9284-3521c68ff005","ios":"levelo://app?vid=45af610f-f67e-4906-9284-3521c68ff005"},"vehicle_type_id":"4","last_reported":1761149647,"current_range_meters":16000,"station_id":"","pricing_plan_id":"cebpf4jnsgd1na2vs0mg"},{"bike_id":"d883e9a6-149c-47c5-9e9a-accba425942c","system_id":"levelo_inurba_marseille","lat":43.32093,"lon":5.36817,"is_reserved":false,"is_disabled":false,"rental_uris":{"android":"levelo://app?vid=d883e9a6-149c-47c5-9e9a-accba425942c","ios":"levelo://app?vid=d883e9a6-149c-47c5-9e9a-accba425942c"},"vehicle_type_id":"4","last_reported":1761149647,"current_range_meters":16400,"station_id":"ce4bhrh2rcd13ifvqhug","pricing_plan_id":"cebpf4jnsgd1na2vs0mg"},{"bike_id":"e26a4ba5-d1f0-450a-a9c3-d00a5fad899d","system_id":"levelo_inurba_marseille","lat":43.24162,"lon":5.36391,"is_reserved":false,"is_disabled":false,"rental_uris":{"android":"levelo://app?vid=e26a4ba5-d1f0-450a-a9c3-d00a5fad899d","ios":"levelo://app?vid=e26a4ba5-d1f0-450a-a9c3-d00a5fad899d"},"vehicle_type_id":"4","last_reported":1761149647,"current_range_meters":16400,"station_id":"cpo36qri1sfpv3e86is0","pricing_plan_id":"cebpf4jnsgd1na2vs0mg"},{"bike_id":"cf2d3c76-5171-45e4-bda6-bc7bc89b85b1","system_id":"levelo_inurba_marseille","lat":43.301286,"lon":5.38775,"is_reserved":false,"is_disabled":false,"rental_uris":{"android":"levelo://app?vid=cf2d3c76-5171-45e4-bda6-bc7bc89b85b1","ios":"levelo://app?vid=cf2d3c76-5171-45e4-bda6-bc7bc89b85b1"},"vehicle_type_id":"4","last_reported":1761149647,"current_range_meters":16400,"station_id":"","pricing_plan_id":"cebpf4jnsgd1na2vs0mg"},{"bike_id":"12560c82-fdef-4887-a8c4-b201c21f8929","system_id":"levelo_inurba_marseille","lat":43.2989,"lon":5.38891,"is_reserved":false,"is_disabled":false,"rental_uris":{"android":"levelo://app?vid=12560c82-fdef-4887-a8c4-b201c21f8929","ios":"levelo://app?vid=12560c82-fdef-4887-a8c4-b201c21f8929"},"vehicle_type_id":"4","last_reported":1761149647,"current_range_meters":16400,"station_id":"ce4bh392rcd13ifvqdl0","pricing_plan_id":"cebpf4jnsgd1na2vs0mg"},{"bike_id":"0cf9e2b8-85c8-4cfa-8657-8b253a599faf","system_id":"levelo_inurba_marseille","lat":43.292792,"lon":5.368426,"is_reserved":false,"is_disabled":false,"rental_uris":{"android":"levelo://app?vid=0cf9e2b8-85c8-4cfa-8657-8b253a599faf","ios":"levelo://app?vid=0cf9e2b8-85c8-4cfa-8657-8b253a599faf"},"vehicle_type_id":"4","last_reported":1761149647,"current_range_meters":16400,"station_id":"ce4bhbp2rcd13ifvqesg","pricing_plan_id":"cebpf4jnsgd1na2vs0mg"},{"bike_id":"5c5f86d4-45e0-4ad5-a478-5119cd222b7f","system_id":"levelo_inurba_marseille","lat":43.33139,"lon":5.38185,"is_reserved":false,"is_disabled":false,"rental_uris":{"android":"levelo://app?vid=5c5f86d4-45e0-4ad5-a478-5119cd222b7f","ios":"levelo://app?vid=5c5f86d4-45e0-4ad5-a478-5119cd222b7f"},"vehicle_type_id":"4","last_reported":1761149647,"current_range_meters":16400,"station_id":"","pricing_plan_id":"cebpf4jnsgd1na2vs0mg"},{"bike_id":"f84ed9fe-da27-4af1-a4a6-94f18d7564c4","system_id":"levelo_inurba_marseille","lat":43.26568,"lon":5.39011,"is_reserved":false,"is_disabled":false,"rental_uris":{"android":"levelo://app?vid=f84ed9fe-da27-4af1-a4a6-94f18d7564c4","ios":"levelo://app?vid=f84ed9fe-da27-4af1-a4a6-94f18d7564c4"},"vehicle_type_id":"4","last_reported":1761149647,"current_range_meters":16800,"station_id":"ce4bhe12rcd13ifvqf30","pricing_plan_id":"cebpf4jnsgd1na2vs0mg"},{"bike_id":"c8c0fa58-a519-4343-9887-b0c694f93aef","system_id":"levelo_inurba_marseille","lat":43.28864,"lon":5.42519,"is_reserved":false,"is_disabled":false,"rental_uris":{"android":"levelo://app?vid=c8c0fa58-a519-4343-9887-b0c694f93aef","ios":"levelo://app?vid=c8c0fa58-a519-4343-9887-b0c694f93aef"},"vehicle_type_id":"4","last_reported":1761149647,"current_range_meters":16800,"station_id":"st_d3b462108ojc7389ooeg","pricing_plan_id":"cebpf4jnsgd1na2vs0mg"},{"bike_id":"61525fe3-26d4-4c5c-a075-e59599c296c4","system_id":"levelo_inurba_marseille","lat":43.31427,"lon":5.39293,"is_reserved":false,"is_disabled":false,"rental_uris":{"android":"levelo://app?vid=61525fe3-26d4-4c5c-a075-e59599c296c4","ios":"levelo://app?vid=61525fe3-26d4-4c5c-a075-e59599c296c4"},"vehicle_type_id":"4","last_reported":1761149647,"current_range_meters":16800,"station_id":"","pricing_plan_id":"cebpf4jnsgd1na2vs0mg"},{"bike_id":"a1647f9d-01f6-4d92-80dd-b76cb9cd3ffd","system_id":"levelo_inurba_marseille","lat":43.29886,"lon":5.39707,"is_reserved":false,"is_disabled":false,"rental_uris":{"android":"levelo://app?vid=a1647f9d-01f6-4d92-80dd-b76cb9cd3ffd","ios":"levelo://app?vid=a1647f9d-01f6-4d92-80dd-b76cb9cd3ffd"},"vehicle_type_id":"4","last_reported":1761149647,"current_range_meters":16800,"station_id":"ce4bh0h2rcd13ifvqd50","pricing_plan_id":"cebpf4jnsgd1na2vs0mg"},{"bike_id":"6b9158cc-993e-4fdb-bafb-7fa32e0adab3","system_id":"levelo_inurba_marseille","lat":43.21757,"lon":5.34596,"is_reserved":false,"is_disabled":false,"rental_uris":{"android":"levelo://app?vid=6b9158cc-993e-4fdb-bafb-7fa32e0adab3","ios":"levelo://app?vid=6b9158cc-993e-4fdb-bafb-7fa32e0adab3"},"vehicle_type_id":"4","last_reported":1761149647,"current_range_meters":16800,"station_id":"","pricing_plan_id":"cebpf4jnsgd1na2vs0mg"},{"bike_id":"ff3839d3-16ac-4aa9-9120-d4030bd2a260","system_id":"levelo_inurba_marseille","lat":43.29795,"lon":5.39329,"is_reserved":false,"is_disabled":true,"rental_uris":{"android":"levelo://app?vid=ff3839d3-16ac-4aa9-9120-d4030bd2a260","ios":"levelo://app?vid=ff3839d3-16ac-4aa9-9120-d4030bd2a260"},"vehicle_type_id":"4","last_reported":1761149647,"current_range_meters":16800,"station_id":"chh1huq6cuj3fo74tm60","pricing_plan_id":"cebpf4jnsgd1na2vs0mg"},{"bike_id":"15abd45f-da01-4e9c-8011-01e96853782b","system_id":"levelo_inurba_marseille","lat":43.284099,"lon":5.375036,"is_reserved":false,"is_disabled":true,"rental_uris":{"android":"levelo://app?vid=15abd45f-da01-4e9c-8011-01e96853782b","ios":"levelo://app?vid=15abd45f-da01-4e9c-8011-01e96853782b"},"vehicle_type_id":"4","last_reported":1761149647,"current_range_meters":17200,"station_id":"","pricing_plan_id":"cebpf4jnsgd1na2vs0mg"},{"bike_id":"42384266-08c3-4162-bd5e-61a353426f36","system_id":"levelo_inurba_marseille","lat":43.281531,"lon":5.426306,"is_reserved":false,"is_disabled":false,"rental_uris":{"android":"levelo://app?vid=42384266-08c3-4162-bd5e-61a353426f36","ios":"levelo://app?vid=42384266-08c3-4162-bd5e-61a353426f36"},"vehicle_type_id":"4","last_reported":1761149647,"current_range_meters":17200,"station_id":"ce4bhnh2rcd13ifvqgug","pricing_plan_id":"cebpf4jnsgd1na2vs0mg"},{"bike_id":"0139b8cd-ee3d-45e5-bac6-f420fe50f174","system_id":"levelo_inurba_marseille","lat":43.27842,"lon":5.39203,"is_reserved":false,"is_disabled":false,"rental_uris":{"android":"levelo://app?vid=0139b8cd-ee3d-45e5-bac6-f420fe50f174","ios":"levelo://app?vid=0139b8cd-ee3d-45e5-bac6-f420fe50f174"},"vehicle_type_id":"4","last_reported":1761149647,"current_range_meters":17200,"station_id":"ce4bhjp2rcd13ifvqga0","pricing_plan_id":"cebpf4jnsgd1na2vs0mg"},{"bike_id":"83ebab87-b9f9-4ef8-9d72-9e71575c727f","system_id":"levelo_inurba_marseille","lat":43.26228,"lon":5.40452,"is_reserved":false,"is_disabled":false,"rental_uris":{"android":"levelo://app?vid=83ebab87-b9f9-4ef8-9d72-9e71575c727f","ios":"levelo://app?vid=83ebab87-b9f9-4ef8-9d72-9e71575c727f"},"vehicle_type_id":"4","last_reported":1761149647,"current_range_meters":17200,"station_id":"ce4bhmh2rcd13ifvqgmg","pricing_plan_id":"cebpf4jnsgd1na2vs0mg"},{"bike_id":"c775e1ea-9a62-4435-8d4f-004bf2c26047","system_id":"levelo_inurba_marseille","lat":43.29816,"lon":5.44067,"is_reserved":false,"is_disabled":false,"rental_uris":{"android":"levelo://app?vid=c775e1ea-9a62-4435-8d4f-004bf2c26047","ios":"levelo://app?vid=c775e1ea-9a62-4435-8d4f-004bf2c26047"},"vehicle_type_id":"4","last_reported":1761149647,"current_range_meters":17600,"station_id":"st_d3jp68qikq2c7381ktn0","pricing_plan_id":"cebpf4jnsgd1na2vs0mg"},{"bike_id":"22556366-5b35-4879-b6f5-b944bfc8418c","system_id":"levelo_inurba_marseille","lat":43.30136,"lon":5.38109,"is_reserved":false,"is_disabled":true,"rental_uris":{"android":"levelo://app?vid=22556366-5b35-4879-b6f5-b944bfc8418c","ios":"levelo://app?vid=22556366-5b35-4879-b6f5-b944bfc8418c"},"vehicle_type_id":"4","last_reported":1761149647,"current_range_meters":17600,"station_id":"ce4bgjp2rcd13ifvqbh0","pricing_plan_id":"cebpf4jnsgd1na2vs0mg"},{"bike_id":"2a22829e-2bd6-41ec-a3e5-ef826e7425d3","system_id":"levelo_inurba_marseille","lat":43.321097,"lon":5.367957,"is_reserved":false,"is_disabled":false,"rental_uris":{"android":"levelo://app?vid=2a22829e-2bd6-41ec-a3e5-ef826e7425d3","ios":"levelo://app?vid=2a22829e-2bd6-41ec-a3e5-ef826e7425d3"},"vehicle_type_id":"4","last_reported":1761149647,"current_range_meters":17600,"station_id":"ce4bhrh2rcd13ifvqhug","pricing_plan_id":"cebpf4jnsgd1na2vs0mg"},{"bike_id":"bda3ed1a-3199-4eb8-8229-577855d09dbb","system_id":"levelo_inurba_marseille","lat":43.3163,"lon":5.37876,"is_reserved":false,"is_disabled":false,"rental_uris":{"android":"levelo://app?vid=bda3ed1a-3199-4eb8-8229-577855d09dbb","ios":"levelo://app?vid=bda3ed1a-3199-4eb8-8229-577855d09dbb"},"vehicle_type_id":"4","last_reported":1761149647,"current_range_meters":17600,"station_id":"","pricing_plan_id":"cebpf4jnsgd1na2vs0mg"},{"bike_id":"9393f9ef-7253-457f-bdcb-e284d908af29","system_id":"levelo_inurba_marseille","lat":43.28851,"lon":5.35848,"is_reserved":false,"is_disabled":false,"rental_uris":{"android":"levelo://app?vid=9393f9ef-7253-457f-bdcb-e284d908af29","ios":"levelo://app?vid=9393f9ef-7253-457f-bdcb-e284d908af29"},"vehicle_type_id":"4","last_reported":1761149647,"current_range_meters":17600,"station_id":"ce4bhb12rcd13ifvqem0","pricing_plan_id":"cebpf4jnsgd1na2vs0mg"},{"bike_id":"70c5ea67-29fc-4469-99e0-290b6877dfb8","system_id":"levelo_inurba_marseille","lat":43.28423,"lon":5.34981,"is_reserved":false,"is_disabled":false,"rental_uris":{"android":"levelo://app?vid=70c5ea67-29fc-4469-99e0-290b6877dfb8","ios":"levelo://app?vid=70c5ea67-29fc-4469-99e0-290b6877dfb8"},"vehicle_type_id":"4","last_reported":1761149647,"current_range_meters":17600,"station_id":"ce4bhbh2rcd13ifvqepg","pricing_plan_id":"cebpf4jnsgd1na2vs0mg"},{"bike_id":"160a0d5e-23c1-493a-9346-ed902db4c4d1","system_id":"levelo_inurba_marseille","lat":43.29222,"lon":5.36067,"is_reserved":false,"is_disabled":false,"rental_uris":{"android":"levelo://app?vid=160a0d5e-23c1-493a-9346-ed902db4c4d1","ios":"levelo://app?vid=160a0d5e-23c1-493a-9346-ed902db4c4d1"},"vehicle_type_id":"4","last_reported":1761149647,"current_range_meters":17600,"station_id":"ce4bhbh2rcd13ifvqeqg","pricing_plan_id":"cebpf4jnsgd1na2vs0mg"},{"bike_id":"d9247930-f477-4727-872b-24c5b02f6614","system_id":"levelo_inurba_marseille","lat":43.271848,"lon":5.410038,"is_reserved":false,"is_disabled":false,"rental_uris":{"android":"levelo://app?vid=d9247930-f477-4727-872b-24c5b02f6614","ios":"levelo://app?vid=d9247930-f477-4727-872b-24c5b02f6614"},"vehicle_type_id":"4","last_reported":1761149647,"current_range_meters":17600,"station_id":"ce4bhl12rcd13ifvqgf0","pricing_plan_id":"cebpf4jnsgd1na2vs0mg"},{"bike_id":"f2d7c4d6-6cd6-487c-8d71-0dcf6c3b9a5c","system_id":"levelo_inurba_marseille","lat":43.2862,"lon":5.35103,"is_reserved":false,"is_disabled":false,"rental_uris":{"android":"levelo://app?vid=f2d7c4d6-6cd6-487c-8d71-0dcf6c3b9a5c","ios":"levelo://app?vid=f2d7c4d6-6cd6-487c-8d71-0dcf6c3b9a5c"},"vehicle_type_id":"4","last_reported":1761149647,"current_range_meters":17600,"station_id":"ce4bhch2rcd13ifvqeug","pricing_plan_id":"cebpf4jnsgd1na2vs0mg"},{"bike_id":"e72f2170-9599-4223-9937-37a866001c76","system_id":"levelo_inurba_marseille","lat":43.30131,"lon":5.3878,"is_reserved":false,"is_disabled":false,"rental_uris":{"android":"levelo://app?vid=e72f2170-9599-4223-9937-37a866001c76","ios":"levelo://app?vid=e72f2170-9599-4223-9937-37a866001c76"},"vehicle_type_id":"4","last_reported":1761149647,"current_range_meters":17600,"station_id":"ce4bghh2rcd13ifvqb60","pricing_plan_id":"cebpf4jnsgd1na2vs0mg"},{"bike_id":"ac28592c-f8d0-4683-b0f2-2b7100c9bb65","system_id":"levelo_inurba_marseille","lat":43.29522,"lon":5.38526,"is_reserved":false,"is_disabled":false,"rental_uris":{"android":"levelo://app?vid=ac28592c-f8d0-4683-b0f2-2b7100c9bb65","ios":"levelo://app?vid=ac28592c-f8d0-4683-b0f2-2b7100c9bb65"},"vehicle_type_id":"4","last_reported":1761149647,"current_range_meters":18000,"station_id":"ce4bgih2rcd13ifvqba0","pricing_plan_id":"cebpf4jnsgd1na2vs0mg"},{"bike_id":"900512a2-14c6-421d-969e-c3dc812fd854","system_id":"levelo_inurba_marseille","lat":43.290305,"lon":5.372418,"is_reserved":false,"is_disabled":false,"rental_uris":{"android":"levelo://app?vid=900512a2-14c6-421d-969e-c3dc812fd854","ios":"levelo://app?vid=900512a2-14c6-421d-969e-c3dc812fd854"},"vehicle_type_id":"4","last_reported":1761149647,"current_range_meters":18000,"station_id":"","pricing_plan_id":"cebpf4jnsgd1na2vs0mg"},{"bike_id":"f72eb2d8-9262-4c75-894b-ac470faa893c","system_id":"levelo_inurba_marseille","lat":43.28919,"lon":5.384,"is_reserved":false,"is_disabled":false,"rental_uris":{"android":"levelo://app?vid=f72eb2d8-9262-4c75-894b-ac470faa893c","ios":"levelo://app?vid=f72eb2d8-9262-4c75-894b-ac470faa893c"},"vehicle_type_id":"4","last_reported":1761149647,"current_range_meters":18800,"station_id":"ce4bh612rcd13ifvqe6g","pricing_plan_id":"cebpf4jnsgd1na2vs0mg"},{"bike_id":"bd58df2d-1faa-4f24-9a12-f8bb5991cf61","system_id":"levelo_inurba_marseille","lat":43.29266,"lon":5.38434,"is_reserved":false,"is_disabled":false,"rental_uris":{"android":"levelo://app?vid=bd58df2d-1faa-4f24-9a12-f8bb5991cf61","ios":"levelo://app?vid=bd58df2d-1faa-4f24-9a12-f8bb5991cf61"},"vehicle_type_id":"4","last_reported":1761149647,"current_range_meters":18800,"station_id":"ce4bh692rcd13ifvqea0","pricing_plan_id":"cebpf4jnsgd1na2vs0mg"},{"bike_id":"556113b3-cd0f-48cc-968c-e08e9776f110","system_id":"levelo_inurba_marseille","lat":43.30115,"lon":5.43122,"is_reserved":false,"is_disabled":false,"rental_uris":{"android":"levelo://app?vid=556113b3-cd0f-48cc-968c-e08e9776f110","ios":"levelo://app?vid=556113b3-cd0f-48cc-968c-e08e9776f110"},"vehicle_type_id":"4","last_reported":1761149647,"current_range_meters":18800,"station_id":"st_d3js3co5814s73ftftug","pricing_plan_id":"cebpf4jnsgd1na2vs0mg"},{"bike_id":"a72f33d4-c8c3-41c7-9f2f-0c59907fcbba","system_id":"levelo_inurba_marseille","lat":43.273751,"lon":5.362626,"is_reserved":false,"is_disabled":false,"rental_uris":{"android":"levelo://app?vid=a72f33d4-c8c3-41c7-9f2f-0c59907fcbba","ios":"levelo://app?vid=a72f33d4-c8c3-41c7-9f2f-0c59907fcbba"},"vehicle_type_id":"4","last_reported":1761149647,"current_range_meters":18800,"station_id":"ce4bhbh2rcd13ifvqeo0","pricing_plan_id":"cebpf4jnsgd1na2vs0mg"},{"bike_id":"692a999f-f646-43fe-b949-d58fd32447f4","system_id":"levelo_inurba_marseille","lat":43.32551,"lon":5.39007,"is_reserved":false,"is_disabled":false,"rental_uris":{"android":"levelo://app?vid=692a999f-f646-43fe-b949-d58fd32447f4","ios":"levelo://app?vid=692a999f-f646-43fe-b949-d58fd32447f4"},"vehicle_type_id":"4","last_reported":1761149647,"current_range_meters":18800,"station_id":"","pricing_plan_id":"cebpf4jnsgd1na2vs0mg"},{"bike_id":"13ffca06-ecc4-46ee-aa82-6818647126c8","system_id":"levelo_inurba_marseille","lat":43.299014,"lon":5.436536,"is_reserved":false,"is_disabled":false,"rental_uris":{"android":"levelo://app?vid=13ffca06-ecc4-46ee-aa82-6818647126c8","ios":"levelo://app?vid=13ffca06-ecc4-46ee-aa82-6818647126c8"},"vehicle_type_id":"4","last_reported":1761149647,"current_range_meters":18800,"station_id":"ce4bhpp2rcd13ifvqhfg","pricing_plan_id":"cebpf4jnsgd1na2vs0mg"},{"bike_id":"1a342066-9e0a-4588-bfe5-bf6aaf7ab800","system_id":"levelo_inurba_marseille","lat":43.29522,"lon":5.39031,"is_reserved":false,"is_disabled":false,"rental_uris":{"android":"levelo://app?vid=1a342066-9e0a-4588-bfe5-bf6aaf7ab800","ios":"levelo://app?vid=1a342066-9e0a-4588-bfe5-bf6aaf7ab800"},"vehicle_type_id":"4","last_reported":1761149647,"current_range_meters":19200,"station_id":"ce4bh3p2rcd13ifvqdp0","pricing_plan_id":"cebpf4jnsgd1na2vs0mg"},{"bike_id":"3b139051-8b17-4e6a-9c9e-0ba0ddb720db","system_id":"levelo_inurba_marseille","lat":43.243949,"lon":5.370392,"is_reserved":false,"is_disabled":false,"rental_uris":{"android":"levelo://app?vid=3b139051-8b17-4e6a-9c9e-0ba0ddb720db","ios":"levelo://app?vid=3b139051-8b17-4e6a-9c9e-0ba0ddb720db"},"vehicle_type_id":"4","last_reported":1761149647,"current_range_meters":19200,"station_id":"ce4bhhh2rcd13ifvqfk0","pricing_plan_id":"cebpf4jnsgd1na2vs0mg"},{"bike_id":"4ef0489f-e7b2-4aa8-950b-34bfa22a7c0e","system_id":"levelo_inurba_marseille","lat":43.2886,"lon":5.35837,"is_reserved":false,"is_disabled":false,"rental_uris":{"android":"levelo://app?vid=4ef0489f-e7b2-4aa8-950b-34bfa22a7c0e","ios":"levelo://app?vid=4ef0489f-e7b2-4aa8-950b-34bfa22a7c0e"},"vehicle_type_id":"4","last_reported":1761149647,"current_range_meters":19200,"station_id":"ce4bhb12rcd13ifvqem0","pricing_plan_id":"cebpf4jnsgd1na2vs0mg"},{"bike_id":"9c023054-f387-47db-bf1d-2774b5d6d642","system_id":"levelo_inurba_marseille","lat":43.3172,"lon":5.3817,"is_reserved":false,"is_disabled":false,"rental_uris":{"android":"levelo://app?vid=9c023054-f387-47db-bf1d-2774b5d6d642","ios":"levelo://app?vid=9c023054-f387-47db-bf1d-2774b5d6d642"},"vehicle_type_id":"4","last_reported":1761149647,"current_range_meters":19200,"station_id":"","pricing_plan_id":"cebpf4jnsgd1na2vs0mg"},{"bike_id":"59d75a61-ed77-4274-821c-20b72e50c8a4","system_id":"levelo_inurba_marseille","lat":43.30139,"lon":5.39868,"is_reserved":false,"is_disabled":false,"rental_uris":{"android":"levelo://app?vid=59d75a61-ed77-4274-821c-20b72e50c8a4","ios":"levelo://app?vid=59d75a61-ed77-4274-821c-20b72e50c8a4"},"vehicle_type_id":"4","last_reported":1761149647,"current_range_meters":19200,"station_id":"ce4bh0h2rcd13ifvqd40","pricing_plan_id":"cebpf4jnsgd1na2vs0mg"},{"bike_id":"b942fba7-a141-4122-b641-9cd43163e54f","system_id":"levelo_inurba_marseille","lat":43.295316,"lon":5.385409,"is_reserved":false,"is_disabled":false,"rental_uris":{"android":"levelo://app?vid=b942fba7-a141-4122-b641-9cd43163e54f","ios":"levelo://app?vid=b942fba7-a141-4122-b641-9cd43163e54f"},"vehicle_type_id":"4","last_reported":1761149647,"current_range_meters":19600,"station_id":"ce4bgih2rcd13ifvqba0","pricing_plan_id":"cebpf4jnsgd1na2vs0mg"},{"bike_id":"3c5bffd8-322f-4631-a714-0972e4530d4b","system_id":"levelo_inurba_marseille","lat":43.273702,"lon":5.36255,"is_reserved":false,"is_disabled":false,"rental_uris":{"android":"levelo://app?vid=3c5bffd8-322f-4631-a714-0972e4530d4b","ios":"levelo://app?vid=3c5bffd8-322f-4631-a714-0972e4530d4b"},"vehicle_type_id":"4","last_reported":1761149647,"current_range_meters":19600,"station_id":"ce4bhbh2rcd13ifvqeo0","pricing_plan_id":"cebpf4jnsgd1na2vs0mg"},{"bike_id":"642db917-5c8b-4e8d-9ef5-47fe9ef8bc7a","system_id":"levelo_inurba_marseille","lat":43.29612,"lon":5.37666,"is_reserved":false,"is_disabled":false,"rental_uris":{"android":"levelo://app?vid=642db917-5c8b-4e8d-9ef5-47fe9ef8bc7a","ios":"levelo://app?vid=642db917-5c8b-4e8d-9ef5-47fe9ef8bc7a"},"vehicle_type_id":"4","last_reported":1761149647,"current_range_meters":19600,"station_id":"ce4bgi92rcd13ifvqb90","pricing_plan_id":"cebpf4jnsgd1na2vs0mg"},{"bike_id":"26ecfd90-2879-4ffd-b3cb-633752b421a5","system_id":"levelo_inurba_marseille","lat":43.26524,"lon":5.37351,"is_reserved":false,"is_disabled":false,"rental_uris":{"android":"levelo://app?vid=26ecfd90-2879-4ffd-b3cb-633752b421a5","ios":"levelo://app?vid=26ecfd90-2879-4ffd-b3cb-633752b421a5"},"vehicle_type_id":"4","last_reported":1761149647,"current_range_meters":19600,"station_id":"ce4bhg12rcd13ifvqf70","pricing_plan_id":"cebpf4jnsgd1na2vs0mg"},{"bike_id":"e986eb56-ca00-4dbf-ada0-578bc3d8f529","system_id":"levelo_inurba_marseille","lat":43.306115,"lon":5.365838,"is_reserved":false,"is_disabled":false,"rental_uris":{"android":"levelo://app?vid=e986eb56-ca00-4dbf-ada0-578bc3d8f529","ios":"levelo://app?vid=e986eb56-ca00-4dbf-ada0-578bc3d8f529"},"vehicle_type_id":"4","last_reported":1761149647,"current_range_meters":19600,"station_id":"","pricing_plan_id":"cebpf4jnsgd1na2vs0mg"},{"bike_id":"035ca1d7-233f-4f69-9569-4f3393764361","system_id":"levelo_inurba_marseille","lat":43.30862,"lon":5.37313,"is_reserved":false,"is_disabled":false,"rental_uris":{"android":"levelo://app?vid=035ca1d7-233f-4f69-9569-4f3393764361","ios":"levelo://app?vid=035ca1d7-233f-4f69-9569-4f3393764361"},"vehicle_type_id":"4","last_reported":1761149647,"current_range_meters":19600,"station_id":"","pricing_plan_id":"cebpf4jnsgd1na2vs0mg"},{"bike_id":"8bcacd78-80de-4026-af75-b37ebe3030fe","system_id":"levelo_inurba_marseille","lat":43.334756,"lon":5.404255,"is_reserved":false,"is_disabled":false,"rental_uris":{"android":"levelo://app?vid=8bcacd78-80de-4026-af75-b37ebe3030fe","ios":"levelo://app?vid=8bcacd78-80de-4026-af75-b37ebe3030fe"},"vehicle_type_id":"4","last_reported":1761149647,"current_range_meters":19600,"station_id":"","pricing_plan_id":"cebpf4jnsgd1na2vs0mg"},{"bike_id":"c3f26518-2339-437b-a132-2c7e7c8d8dd4","system_id":"levelo_inurba_marseille","lat":43.27069,"lon":5.42284,"is_reserved":false,"is_disabled":false,"rental_uris":{"android":"levelo://app?vid=c3f26518-2339-437b-a132-2c7e7c8d8dd4","ios":"levelo://app?vid=c3f26518-2339-437b-a132-2c7e7c8d8dd4"},"vehicle_type_id":"4","last_reported":1761149647,"current_range_meters":19600,"station_id":"ce4bhk92rcd13ifvqgb0","pricing_plan_id":"cebpf4jnsgd1na2vs0mg"},{"bike_id":"2de0e7dd-4b58-4d7e-8fad-1b7a21325f77","system_id":"levelo_inurba_marseille","lat":43.29265,"lon":5.38445,"is_reserved":false,"is_disabled":false,"rental_uris":{"android":"levelo://app?vid=2de0e7dd-4b58-4d7e-8fad-1b7a21325f77","ios":"levelo://app?vid=2de0e7dd-4b58-4d7e-8fad-1b7a21325f77"},"vehicle_type_id":"4","last_reported":1761149647,"current_range_meters":19600,"station_id":"ce4bh692rcd13ifvqea0","pricing_plan_id":"cebpf4jnsgd1na2vs0mg"},{"bike_id":"8854399f-141d-4545-ac08-208b6994b87d","system_id":"levelo_inurba_marseille","lat":43.282661,"lon":5.350599,"is_reserved":false,"is_disabled":false,"rental_uris":{"android":"levelo://app?vid=8854399f-141d-4545-ac08-208b6994b87d","ios":"levelo://app?vid=8854399f-141d-4545-ac08-208b6994b87d"},"vehicle_type_id":"4","last_reported":1761149647,"current_range_meters":20000,"station_id":"ce4bhbp2rcd13ifvqerg","pricing_plan_id":"cebpf4jnsgd1na2vs0mg"},{"bike_id":"e437460d-805d-4c07-9b55-237013e207ed","system_id":"levelo_inurba_marseille","lat":43.307962,"lon":5.381422,"is_reserved":false,"is_disabled":false,"rental_uris":{"android":"levelo://app?vid=e437460d-805d-4c07-9b55-237013e207ed","ios":"levelo://app?vid=e437460d-805d-4c07-9b55-237013e207ed"},"vehicle_type_id":"4","last_reported":1761149647,"current_range_meters":20000,"station_id":"ce4bgt12rcd13ifvqce0","pricing_plan_id":"cebpf4jnsgd1na2vs0mg"},{"bike_id":"1996ea89-9471-4d12-8066-1a9d0b7c69da","system_id":"levelo_inurba_marseille","lat":43.24395,"lon":5.37074,"is_reserved":false,"is_disabled":false,"rental_uris":{"android":"levelo://app?vid=1996ea89-9471-4d12-8066-1a9d0b7c69da","ios":"levelo://app?vid=1996ea89-9471-4d12-8066-1a9d0b7c69da"},"vehicle_type_id":"4","last_reported":1761149647,"current_range_meters":20000,"station_id":"ce4bhhh2rcd13ifvqfk0","pricing_plan_id":"cebpf4jnsgd1na2vs0mg"},{"bike_id":"9a4c6edf-4613-4bc6-8799-9116382d9e58","system_id":"levelo_inurba_marseille","lat":43.288452,"lon":5.358313,"is_reserved":false,"is_disabled":false,"rental_uris":{"android":"levelo://app?vid=9a4c6edf-4613-4bc6-8799-9116382d9e58","ios":"levelo://app?vid=9a4c6edf-4613-4bc6-8799-9116382d9e58"},"vehicle_type_id":"4","last_reported":1761149647,"current_range_meters":20000,"station_id":"ce4bhb12rcd13ifvqem0","pricing_plan_id":"cebpf4jnsgd1na2vs0mg"},{"bike_id":"6e0b7902-e099-4bd7-bee0-ce62ea12e230","system_id":"levelo_inurba_marseille","lat":43.26505,"lon":5.39528,"is_reserved":false,"is_disabled":false,"rental_uris":{"android":"levelo://app?vid=6e0b7902-e099-4bd7-bee0-ce62ea12e230","ios":"levelo://app?vid=6e0b7902-e099-4bd7-bee0-ce62ea12e230"},"vehicle_type_id":"4","last_reported":1761149647,"current_range_meters":20000,"station_id":"ce4bhi12rcd13ifvqfq0","pricing_plan_id":"cebpf4jnsgd1na2vs0mg"},{"bike_id":"17e799b5-819f-431c-b8e8-eaa717e7febb","system_id":"levelo_inurba_marseille","lat":43.28951,"lon":5.36342,"is_reserved":false,"is_disabled":false,"rental_uris":{"android":"levelo://app?vid=17e799b5-819f-431c-b8e8-eaa717e7febb","ios":"levelo://app?vid=17e799b5-819f-431c-b8e8-eaa717e7febb"},"vehicle_type_id":"4","last_reported":1761149647,"current_range_meters":20000,"station_id":"ce4bhc92rcd13ifvqetg","pricing_plan_id":"cebpf4jnsgd1na2vs0mg"},{"bike_id":"aa2e2fbf-5601-4a99-a2fa-33d9a8279ec6","system_id":"levelo_inurba_marseille","lat":43.29053,"lon":5.37146,"is_reserved":false,"is_disabled":false,"rental_uris":{"android":"levelo://app?vid=aa2e2fbf-5601-4a99-a2fa-33d9a8279ec6","ios":"levelo://app?vid=aa2e2fbf-5601-4a99-a2fa-33d9a8279ec6"},"vehicle_type_id":"4","last_reported":1761149647,"current_range_meters":20000,"station_id":"ce4bh5p2rcd13ifvqe4g","pricing_plan_id":"cebpf4jnsgd1na2vs0mg"},{"bike_id":"fae4b3de-da85-4ec5-9569-c4d621a5251d","system_id":"levelo_inurba_marseille","lat":43.23196,"lon":5.35553,"is_reserved":false,"is_disabled":false,"rental_uris":{"android":"levelo://app?vid=fae4b3de-da85-4ec5-9569-c4d621a5251d","ios":"levelo://app?vid=fae4b3de-da85-4ec5-9569-c4d621a5251d"},"vehicle_type_id":"4","last_reported":1761149647,"current_range_meters":20000,"station_id":"ce4bhu92rcd13ifvqi70","pricing_plan_id":"cebpf4jnsgd1na2vs0mg"},{"bike_id":"8d62619e-35d5-43e1-9afb-471209a456c7","system_id":"levelo_inurba_marseille","lat":43.31709,"lon":5.43709,"is_reserved":false,"is_disabled":false,"rental_uris":{"android":"levelo://app?vid=8d62619e-35d5-43e1-9afb-471209a456c7","ios":"levelo://app?vid=8d62619e-35d5-43e1-9afb-471209a456c7"},"vehicle_type_id":"4","last_reported":1761149647,"current_range_meters":20400,"station_id":"ce4bhp92rcd13ifvqhcg","pricing_plan_id":"cebpf4jnsgd1na2vs0mg"},{"bike_id":"9cfe5841-5bbc-4655-9db2-d64ddda22ddd","system_id":"levelo_inurba_marseille","lat":43.28606,"lon":5.3512,"is_reserved":false,"is_disabled":false,"rental_uris":{"android":"levelo://app?vid=9cfe5841-5bbc-4655-9db2-d64ddda22ddd","ios":"levelo://app?vid=9cfe5841-5bbc-4655-9db2-d64ddda22ddd"},"vehicle_type_id":"4","last_reported":1761149647,"current_range_meters":20400,"station_id":"ce4bhch2rcd13ifvqeug","pricing_plan_id":"cebpf4jnsgd1na2vs0mg"},{"bike_id":"b50164e8-3f39-4d12-a975-e3720437804a","system_id":"levelo_inurba_marseille","lat":43.28977,"lon":5.37839,"is_reserved":false,"is_disabled":false,"rental_uris":{"android":"levelo://app?vid=b50164e8-3f39-4d12-a975-e3720437804a","ios":"levelo://app?vid=b50164e8-3f39-4d12-a975-e3720437804a"},"vehicle_type_id":"4","last_reported":1761149647,"current_range_meters":20400,"station_id":"ce4bh9p2rcd13ifvqed0","pricing_plan_id":"cebpf4jnsgd1na2vs0mg"},{"bike_id":"f465d4e5-6509-4480-b6a9-7eaa9f024160","system_id":"levelo_inurba_marseille","lat":43.2605,"lon":5.39414,"is_reserved":false,"is_disabled":false,"rental_uris":{"android":"levelo://app?vid=f465d4e5-6509-4480-b6a9-7eaa9f024160","ios":"levelo://app?vid=f465d4e5-6509-4480-b6a9-7eaa9f024160"},"vehicle_type_id":"4","last_reported":1761149647,"current_range_meters":20400,"station_id":"ce4bhh92rcd13ifvqfj0","pricing_plan_id":"cebpf4jnsgd1na2vs0mg"},{"bike_id":"f6b6ee43-f4ad-44cf-8978-56cdadf895d1","system_id":"levelo_inurba_marseille","lat":43.28159,"lon":5.426404,"is_reserved":false,"is_disabled":false,"rental_uris":{"android":"levelo://app?vid=f6b6ee43-f4ad-44cf-8978-56cdadf895d1","ios":"levelo://app?vid=f6b6ee43-f4ad-44cf-8978-56cdadf895d1"},"vehicle_type_id":"4","last_reported":1761149647,"current_range_meters":20400,"station_id":"ce4bhnh2rcd13ifvqgug","pricing_plan_id":"cebpf4jnsgd1na2vs0mg"},{"bike_id":"bd3733d1-cee4-4b3d-b433-a1de1c194814","system_id":"levelo_inurba_marseille","lat":43.307863,"lon":5.376367,"is_reserved":false,"is_disabled":false,"rental_uris":{"android":"levelo://app?vid=bd3733d1-cee4-4b3d-b433-a1de1c194814","ios":"levelo://app?vid=bd3733d1-cee4-4b3d-b433-a1de1c194814"},"vehicle_type_id":"4","last_reported":1761149647,"current_range_meters":20400,"station_id":"ce4bgv92rcd13ifvqcq0","pricing_plan_id":"cebpf4jnsgd1na2vs0mg"},{"bike_id":"25e3f827-be51-4a4b-b8cd-2c34c381896f","system_id":"levelo_inurba_marseille","lat":43.31364,"lon":5.38488,"is_reserved":false,"is_disabled":false,"rental_uris":{"android":"levelo://app?vid=25e3f827-be51-4a4b-b8cd-2c34c381896f","ios":"levelo://app?vid=25e3f827-be51-4a4b-b8cd-2c34c381896f"},"vehicle_type_id":"4","last_reported":1761149647,"current_range_meters":20400,"station_id":"ce4bgt92rcd13ifvqcf0","pricing_plan_id":"cebpf4jnsgd1na2vs0mg"},{"bike_id":"2172ef7f-240b-4c72-bf8d-26c79cc1f73d","system_id":"levelo_inurba_marseille","lat":43.29902,"lon":5.43665,"is_reserved":false,"is_disabled":false,"rental_uris":{"android":"levelo://app?vid=2172ef7f-240b-4c72-bf8d-26c79cc1f73d","ios":"levelo://app?vid=2172ef7f-240b-4c72-bf8d-26c79cc1f73d"},"vehicle_type_id":"4","last_reported":1761149647,"current_range_meters":20800,"station_id":"ce4bhpp2rcd13ifvqhfg","pricing_plan_id":"cebpf4jnsgd1na2vs0mg"},{"bike_id":"9a1972b5-72a6-4763-9884-2f966099622e","system_id":"levelo_inurba_marseille","lat":43.30013,"lon":5.37673,"is_reserved":false,"is_disabled":false,"rental_uris":{"android":"levelo://app?vid=9a1972b5-72a6-4763-9884-2f966099622e","ios":"levelo://app?vid=9a1972b5-72a6-4763-9884-2f966099622e"},"vehicle_type_id":"4","last_reported":1761149647,"current_range_meters":20800,"station_id":"","pricing_plan_id":"cebpf4jnsgd1na2vs0mg"},{"bike_id":"35e9f7a0-513e-45cf-8dac-e9395b0b0e81","system_id":"levelo_inurba_marseille","lat":43.30149,"lon":5.39899,"is_reserved":false,"is_disabled":false,"rental_uris":{"android":"levelo://app?vid=35e9f7a0-513e-45cf-8dac-e9395b0b0e81","ios":"levelo://app?vid=35e9f7a0-513e-45cf-8dac-e9395b0b0e81"},"vehicle_type_id":"4","last_reported":1761149647,"current_range_meters":20800,"station_id":"ce4bh0h2rcd13ifvqd40","pricing_plan_id":"cebpf4jnsgd1na2vs0mg"},{"bike_id":"e161184c-b47c-41c2-9784-a1463e3f31bf","system_id":"levelo_inurba_marseille","lat":43.31538,"lon":5.38037,"is_reserved":false,"is_disabled":false,"rental_uris":{"android":"levelo://app?vid=e161184c-b47c-41c2-9784-a1463e3f31bf","ios":"levelo://app?vid=e161184c-b47c-41c2-9784-a1463e3f31bf"},"vehicle_type_id":"4","last_reported":1761149647,"current_range_meters":20800,"station_id":"ce4bhsp2rcd13ifvqi50","pricing_plan_id":"cebpf4jnsgd1na2vs0mg"},{"bike_id":"75eebb0f-2447-4bf8-b846-45b5b359059b","system_id":"levelo_inurba_marseille","lat":43.33762,"lon":5.37487,"is_reserved":false,"is_disabled":false,"rental_uris":{"android":"levelo://app?vid=75eebb0f-2447-4bf8-b846-45b5b359059b","ios":"levelo://app?vid=75eebb0f-2447-4bf8-b846-45b5b359059b"},"vehicle_type_id":"4","last_reported":1761149647,"current_range_meters":20800,"station_id":"","pricing_plan_id":"cebpf4jnsgd1na2vs0mg"},{"bike_id":"26339118-4556-4d41-b6a6-12685a214717","system_id":"levelo_inurba_marseille","lat":43.28421,"lon":5.34999,"is_reserved":false,"is_disabled":false,"rental_uris":{"android":"levelo://app?vid=26339118-4556-4d41-b6a6-12685a214717","ios":"levelo://app?vid=26339118-4556-4d41-b6a6-12685a214717"},"vehicle_type_id":"4","last_reported":1761149647,"current_range_meters":20800,"station_id":"ce4bhbh2rcd13ifvqepg","pricing_plan_id":"cebpf4jnsgd1na2vs0mg"},{"bike_id":"666f8440-bc33-4fb5-9b55-6c41b3c75b84","system_id":"levelo_inurba_marseille","lat":43.2847,"lon":5.38557,"is_reserved":false,"is_disabled":false,"rental_uris":{"android":"levelo://app?vid=666f8440-bc33-4fb5-9b55-6c41b3c75b84","ios":"levelo://app?vid=666f8440-bc33-4fb5-9b55-6c41b3c75b84"},"vehicle_type_id":"4","last_reported":1761149647,"current_range_meters":20800,"station_id":"ce4bh8p2rcd13ifvqeb0","pricing_plan_id":"cebpf4jnsgd1na2vs0mg"},{"bike_id":"92f5a3f5-55bc-4adc-b928-8c70dd995233","system_id":"levelo_inurba_marseille","lat":43.22557,"lon":5.41624,"is_reserved":false,"is_disabled":false,"rental_uris":{"android":"levelo://app?vid=92f5a3f5-55bc-4adc-b928-8c70dd995233","ios":"levelo://app?vid=92f5a3f5-55bc-4adc-b928-8c70dd995233"},"vehicle_type_id":"4","last_reported":1761149647,"current_range_meters":20800,"station_id":"st_d2o4gvlbi1j2169b742g","pricing_plan_id":"cebpf4jnsgd1na2vs0mg"},{"bike_id":"7e8f5080-147c-4b5e-8e86-57d4fe61040a","system_id":"levelo_inurba_marseille","lat":43.29526,"lon":5.39026,"is_reserved":false,"is_disabled":false,"rental_uris":{"android":"levelo://app?vid=7e8f5080-147c-4b5e-8e86-57d4fe61040a","ios":"levelo://app?vid=7e8f5080-147c-4b5e-8e86-57d4fe61040a"},"vehicle_type_id":"4","last_reported":1761149647,"current_range_meters":21600,"station_id":"ce4bh3p2rcd13ifvqdp0","pricing_plan_id":"cebpf4jnsgd1na2vs0mg"},{"bike_id":"192d7637-d2d8-4a9a-8e0b-5351a39e8db4","system_id":"levelo_inurba_marseille","lat":43.28622,"lon":5.35102,"is_reserved":false,"is_disabled":false,"rental_uris":{"android":"levelo://app?vid=192d7637-d2d8-4a9a-8e0b-5351a39e8db4","ios":"levelo://app?vid=192d7637-d2d8-4a9a-8e0b-5351a39e8db4"},"vehicle_type_id":"4","last_reported":1761149647,"current_range_meters":21600,"station_id":"ce4bhch2rcd13ifvqeug","pricing_plan_id":"cebpf4jnsgd1na2vs0mg"},{"bike_id":"1a9055ad-e2af-47c9-b8bd-b5d0318556df","system_id":"levelo_inurba_marseille","lat":43.30937,"lon":5.40142,"is_reserved":false,"is_disabled":false,"rental_uris":{"android":"levelo://app?vid=1a9055ad-e2af-47c9-b8bd-b5d0318556df","ios":"levelo://app?vid=1a9055ad-e2af-47c9-b8bd-b5d0318556df"},"vehicle_type_id":"4","last_reported":1761149647,"current_range_meters":21600,"station_id":"ce4bgvp2rcd13ifvqct0","pricing_plan_id":"cebpf4jnsgd1na2vs0mg"},{"bike_id":"d9ecb998-ceaa-4a39-8aba-9f0e44069447","system_id":"levelo_inurba_marseille","lat":43.32147,"lon":5.38731,"is_reserved":false,"is_disabled":false,"rental_uris":{"android":"levelo://app?vid=d9ecb998-ceaa-4a39-8aba-9f0e44069447","ios":"levelo://app?vid=d9ecb998-ceaa-4a39-8aba-9f0e44069447"},"vehicle_type_id":"4","last_reported":1761149647,"current_range_meters":21600,"station_id":"","pricing_plan_id":"cebpf4jnsgd1na2vs0mg"},{"bike_id":"7cf1b08b-6c7d-4407-b2f3-44a4f699979e","system_id":"levelo_inurba_marseille","lat":43.2944,"lon":5.39744,"is_reserved":false,"is_disabled":false,"rental_uris":{"android":"levelo://app?vid=7cf1b08b-6c7d-4407-b2f3-44a4f699979e","ios":"levelo://app?vid=7cf1b08b-6c7d-4407-b2f3-44a4f699979e"},"vehicle_type_id":"4","last_reported":1761149647,"current_range_meters":22000,"station_id":"ce4bh3h2rcd13ifvqdo0","pricing_plan_id":"cebpf4jnsgd1na2vs0mg"},{"bike_id":"6552118e-9997-496d-8ae3-3aae82824535","system_id":"levelo_inurba_marseille","lat":43.32246,"lon":5.38357,"is_reserved":false,"is_disabled":false,"rental_uris":{"android":"levelo://app?vid=6552118e-9997-496d-8ae3-3aae82824535","ios":"levelo://app?vid=6552118e-9997-496d-8ae3-3aae82824535"},"vehicle_type_id":"4","last_reported":1761149647,"current_range_meters":22000,"station_id":"","pricing_plan_id":"cebpf4jnsgd1na2vs0mg"},{"bike_id":"578cdef4-4b67-4ba4-bd60-6f6657106414","system_id":"levelo_inurba_marseille","lat":43.28407,"lon":5.37512,"is_reserved":false,"is_disabled":false,"rental_uris":{"android":"levelo://app?vid=578cdef4-4b67-4ba4-bd60-6f6657106414","ios":"levelo://app?vid=578cdef4-4b67-4ba4-bd60-6f6657106414"},"vehicle_type_id":"4","last_reported":1761149647,"current_range_meters":22000,"station_id":"ce4bh412rcd13ifvqds0","pricing_plan_id":"cebpf4jnsgd1na2vs0mg"},{"bike_id":"25510b45-08cd-431b-9096-a61c2284a027","system_id":"levelo_inurba_marseille","lat":43.31713,"lon":5.38199,"is_reserved":false,"is_disabled":false,"rental_uris":{"android":"levelo://app?vid=25510b45-08cd-431b-9096-a61c2284a027","ios":"levelo://app?vid=25510b45-08cd-431b-9096-a61c2284a027"},"vehicle_type_id":"4","last_reported":1761149647,"current_range_meters":22000,"station_id":"","pricing_plan_id":"cebpf4jnsgd1na2vs0mg"},{"bike_id":"078081c6-88c0-4f2d-a619-261bfa8b66b2","system_id":"levelo_inurba_marseille","lat":43.29819,"lon":5.4389,"is_reserved":false,"is_disabled":false,"rental_uris":{"android":"levelo://app?vid=078081c6-88c0-4f2d-a619-261bfa8b66b2","ios":"levelo://app?vid=078081c6-88c0-4f2d-a619-261bfa8b66b2"},"vehicle_type_id":"4","last_reported":1761149647,"current_range_meters":22000,"station_id":"","pricing_plan_id":"cebpf4jnsgd1na2vs0mg"},{"bike_id":"eea9035b-136f-403f-a802-6ac1caafb3c0","system_id":"levelo_inurba_marseille","lat":43.30145,"lon":5.38846,"is_reserved":false,"is_disabled":false,"rental_uris":{"android":"levelo://app?vid=eea9035b-136f-403f-a802-6ac1caafb3c0","ios":"levelo://app?vid=eea9035b-136f-403f-a802-6ac1caafb3c0"},"vehicle_type_id":"4","last_reported":1761149647,"current_range_meters":22400,"station_id":"","pricing_plan_id":"cebpf4jnsgd1na2vs0mg"},{"bike_id":"3e4783b6-28d8-4737-a4ef-6a1b0da02476","system_id":"levelo_inurba_marseille","lat":43.294427,"lon":5.407185,"is_reserved":false,"is_disabled":false,"rental_uris":{"android":"levelo://app?vid=3e4783b6-28d8-4737-a4ef-6a1b0da02476","ios":"levelo://app?vid=3e4783b6-28d8-4737-a4ef-6a1b0da02476"},"vehicle_type_id":"4","last_reported":1761149647,"current_range_meters":22400,"station_id":"","pricing_plan_id":"cebpf4jnsgd1na2vs0mg"},{"bike_id":"f8c755d7-1bb8-4fcd-bb3f-74aeb49951cc","system_id":"levelo_inurba_marseille","lat":43.31377,"lon":5.37899,"is_reserved":false,"is_disabled":false,"rental_uris":{"android":"levelo://app?vid=f8c755d7-1bb8-4fcd-bb3f-74aeb49951cc","ios":"levelo://app?vid=f8c755d7-1bb8-4fcd-bb3f-74aeb49951cc"},"vehicle_type_id":"4","last_reported":1761149647,"current_range_meters":22400,"station_id":"","pricing_plan_id":"cebpf4jnsgd1na2vs0mg"},{"bike_id":"c18aafda-99a4-49ce-9c88-c5eb2741fbfc","system_id":"levelo_inurba_marseille","lat":43.31335,"lon":5.39695,"is_reserved":false,"is_disabled":false,"rental_uris":{"android":"levelo://app?vid=c18aafda-99a4-49ce-9c88-c5eb2741fbfc","ios":"levelo://app?vid=c18aafda-99a4-49ce-9c88-c5eb2741fbfc"},"vehicle_type_id":"4","last_reported":1761149647,"current_range_meters":22400,"station_id":"ce4bgvp2rcd13ifvqcu0","pricing_plan_id":"cebpf4jnsgd1na2vs0mg"},{"bike_id":"2cd81037-3f76-464f-886c-e8714d61d459","system_id":"levelo_inurba_marseille","lat":43.23191,"lon":5.35553,"is_reserved":false,"is_disabled":false,"rental_uris":{"android":"levelo://app?vid=2cd81037-3f76-464f-886c-e8714d61d459","ios":"levelo://app?vid=2cd81037-3f76-464f-886c-e8714d61d459"},"vehicle_type_id":"4","last_reported":1761149647,"current_range_meters":22400,"station_id":"ce4bhu92rcd13ifvqi70","pricing_plan_id":"cebpf4jnsgd1na2vs0mg"},{"bike_id":"40cf50c7-3182-4821-b249-8f0dc2ceefa6","system_id":"levelo_inurba_marseille","lat":43.286099,"lon":5.370551,"is_reserved":false,"is_disabled":false,"rental_uris":{"android":"levelo://app?vid=40cf50c7-3182-4821-b249-8f0dc2ceefa6","ios":"levelo://app?vid=40cf50c7-3182-4821-b249-8f0dc2ceefa6"},"vehicle_type_id":"4","last_reported":1761149647,"current_range_meters":22400,"station_id":"ce4bhbh2rcd13ifvqepg","pricing_plan_id":"cebpf4jnsgd1na2vs0mg"},{"bike_id":"1173bb27-3d7a-473b-8d09-d8b735ec6f02","system_id":"levelo_inurba_marseille","lat":43.29034,"lon":5.38642,"is_reserved":false,"is_disabled":false,"rental_uris":{"android":"levelo://app?vid=1173bb27-3d7a-473b-8d09-d8b735ec6f02","ios":"levelo://app?vid=1173bb27-3d7a-473b-8d09-d8b735ec6f02"},"vehicle_type_id":"4","last_reported":1761149647,"current_range_meters":22400,"station_id":"ce4bh4p2rcd13ifvqe0g","pricing_plan_id":"cebpf4jnsgd1na2vs0mg"},{"bike_id":"3b5cb9f2-6d82-4875-953e-595b60ac3e5d","system_id":"levelo_inurba_marseille","lat":43.2903,"lon":5.38638,"is_reserved":false,"is_disabled":false,"rental_uris":{"android":"levelo://app?vid=3b5cb9f2-6d82-4875-953e-595b60ac3e5d","ios":"levelo://app?vid=3b5cb9f2-6d82-4875-953e-595b60ac3e5d"},"vehicle_type_id":"4","last_reported":1761149647,"current_range_meters":22800,"station_id":"ce4bh4p2rcd13ifvqe0g","pricing_plan_id":"cebpf4jnsgd1na2vs0mg"},{"bike_id":"206ce9bb-93f8-4a08-b561-f32d594a1852","system_id":"levelo_inurba_marseille","lat":43.2982,"lon":5.44066,"is_reserved":false,"is_disabled":false,"rental_uris":{"android":"levelo://app?vid=206ce9bb-93f8-4a08-b561-f32d594a1852","ios":"levelo://app?vid=206ce9bb-93f8-4a08-b561-f32d594a1852"},"vehicle_type_id":"4","last_reported":1761149647,"current_range_meters":22800,"station_id":"st_d3jp68qikq2c7381ktn0","pricing_plan_id":"cebpf4jnsgd1na2vs0mg"},{"bike_id":"62f0a2f8-d352-4580-a096-e8ce56ffccdb","system_id":"levelo_inurba_marseille","lat":43.3208,"lon":5.36765,"is_reserved":false,"is_disabled":false,"rental_uris":{"android":"levelo://app?vid=62f0a2f8-d352-4580-a096-e8ce56ffccdb","ios":"levelo://app?vid=62f0a2f8-d352-4580-a096-e8ce56ffccdb"},"vehicle_type_id":"4","last_reported":1761149647,"current_range_meters":22800,"station_id":"ce4bhrh2rcd13ifvqhug","pricing_plan_id":"cebpf4jnsgd1na2vs0mg"},{"bike_id":"de670f3d-f206-43ce-b78f-95e9eb2d3262","system_id":"levelo_inurba_marseille","lat":43.26995,"lon":5.38771,"is_reserved":false,"is_disabled":false,"rental_uris":{"android":"levelo://app?vid=de670f3d-f206-43ce-b78f-95e9eb2d3262","ios":"levelo://app?vid=de670f3d-f206-43ce-b78f-95e9eb2d3262"},"vehicle_type_id":"4","last_reported":1761149647,"current_range_meters":22800,"station_id":"","pricing_plan_id":"cebpf4jnsgd1na2vs0mg"},{"bike_id":"75552eb5-38a2-43ca-9291-cacb859b6f73","system_id":"levelo_inurba_marseille","lat":43.284215,"lon":5.349847,"is_reserved":false,"is_disabled":false,"rental_uris":{"android":"levelo://app?vid=75552eb5-38a2-43ca-9291-cacb859b6f73","ios":"levelo://app?vid=75552eb5-38a2-43ca-9291-cacb859b6f73"},"vehicle_type_id":"4","last_reported":1761149647,"current_range_meters":22800,"station_id":"","pricing_plan_id":"cebpf4jnsgd1na2vs0mg"},{"bike_id":"2aec7e35-ddbc-4120-8e46-dd4fadead0f2","system_id":"levelo_inurba_marseille","lat":43.2397,"lon":5.36613,"is_reserved":false,"is_disabled":false,"rental_uris":{"android":"levelo://app?vid=2aec7e35-ddbc-4120-8e46-dd4fadead0f2","ios":"levelo://app?vid=2aec7e35-ddbc-4120-8e46-dd4fadead0f2"},"vehicle_type_id":"4","last_reported":1761149647,"current_range_meters":22800,"station_id":"ce4bhi12rcd13ifvqfp0","pricing_plan_id":"cebpf4jnsgd1na2vs0mg"},{"bike_id":"0fef79f0-870c-42bf-b6de-2029021aea96","system_id":"levelo_inurba_marseille","lat":43.28614,"lon":5.35101,"is_reserved":false,"is_disabled":false,"rental_uris":{"android":"levelo://app?vid=0fef79f0-870c-42bf-b6de-2029021aea96","ios":"levelo://app?vid=0fef79f0-870c-42bf-b6de-2029021aea96"},"vehicle_type_id":"4","last_reported":1761149647,"current_range_meters":22800,"station_id":"ce4bhch2rcd13ifvqeug","pricing_plan_id":"cebpf4jnsgd1na2vs0mg"},{"bike_id":"da19cf54-3963-4f1d-a62b-5703c0ffe407","system_id":"levelo_inurba_marseille","lat":43.30622,"lon":5.36577,"is_reserved":false,"is_disabled":false,"rental_uris":{"android":"levelo://app?vid=da19cf54-3963-4f1d-a62b-5703c0ffe407","ios":"levelo://app?vid=da19cf54-3963-4f1d-a62b-5703c0ffe407"},"vehicle_type_id":"4","last_reported":1761149647,"current_range_meters":22800,"station_id":"","pricing_plan_id":"cebpf4jnsgd1na2vs0mg"},{"bike_id":"3cdcb975-de52-4b3e-bf2a-27d93acc6cef","system_id":"levelo_inurba_marseille","lat":43.26208,"lon":5.37441,"is_reserved":false,"is_disabled":false,"rental_uris":{"android":"levelo://app?vid=3cdcb975-de52-4b3e-bf2a-27d93acc6cef","ios":"levelo://app?vid=3cdcb975-de52-4b3e-bf2a-27d93acc6cef"},