{"last_updated":1747210441,"ttl":60,"version":"2.2","data":{"bikes":[{"bike_id":"c0b9fd4f-e181-46ce-b0bf-f5119973334f","system_id":"levelo_inurba_marseille","lat":43.33771,"lon":5.37424,"is_reserved":false,"is_disabled":false,"rental_uris":{"android":"levelo://app?vid=c0b9fd4f-e181-46ce-b0bf-f5119973334f","ios":"levelo://app?vid=c0b9fd4f-e181-46ce-b0bf-f5119973334f"},"vehicle_type_id":"4","last_reported":1747210441,"current_range_meters":20000,"station_id":"","pricing_plan_id":"cebpf4jnsgd1na2vs0mg"},{"bike_id":"07f266ab-abd1-4687-81d8-7ca73d126827","system_id":"levelo_inurba_marseille","lat":43.26475,"lon":5.38347,"is_reserved":false,"is_disabled":true,"rental_uris":{"android":"levelo://app?vid=07f266ab-abd1-4687-81d8-7ca73d126827","ios":"levelo://app?vid=07f266ab-abd1-4687-81d8-7ca73d126827"},"vehicle_type_id":"4","last_reported":1747210441,"current_range_meters":0,"station_id":"","pricing_plan_id":"cebpf4jnsgd1na2vs0mg"},{"bike_id":"fc2577e7-1497-425b-9d4f-ab8d7dc843c6","system_id":"levelo_inurba_marseille","lat":43.33771,"lon":5.37485,"is_reserved":false,"is_disabled":true,"rental_uris":{"android":"levelo://app?vid=fc2577e7-1497-425b-9d4f-ab8d7dc843c6","ios":"levelo://app?vid=fc2577e7-1497-425b-9d4f-ab8d7dc843c6"},"vehicle_type_id":"4","last_reported":1747210441,"current_range_meters":0,"station_id":"","pricing_plan_id":"cebpf4jnsgd1na2vs0mg"},{"bike_id":"bce6dd6c-5f15-4ae5-8f21-e71db397b253","system_id":"levelo_inurba_marseille","lat":43.305465,"lon":5.365433,"is_reserved":false,"is_disabled":true,"rental_uris":{"android":"levelo://app?vid=bce6dd6c-5f15-4ae5-8f21-e71db397b253","ios":"levelo://app?vid=bce6dd6c-5f15-4ae5-8f21-e71db397b253"},"vehicle_type_id":"4","last_reported":1747210441,"current_range_meters":0,"station_id":"","pricing_plan_id":"cebpf4jnsgd1na2vs0mg"},{"bike_id":"0fedde00-40eb-40d2-8fc2-e61ecce46b7b","system_id":"levelo_inurba_marseille","lat":43.28296,"lon":5.43243,"is_reserved":false,"is_disabled":true,"rental_uris":{"android":"levelo://app?vid=0fedde00-40eb-40d2-8fc2-e61ecce46b7b","ios":"levelo://app?vid=0fedde00-40eb-40d2-8fc2-e61ecce46b7b"},"vehicle_type_id":"4","last_reported":1747210441,"current_range_meters":0,"station_id":"","pricing_plan_id":"cebpf4jnsgd1na2vs0mg"},{"bike_id":"727c4684-f63f-4c08-83b6-b043d1b81a1c","system_id":"levelo_inurba_marseille","lat":43.300079,"lon":5.475821,"is_reserved":false,"is_disabled":true,"rental_uris":{"android":"levelo://app?vid=727c4684-f63f-4c08-83b6-b043d1b81a1c","ios":"levelo://app?vid=727c4684-f63f-4c08-83b6-b043d1b81a1c"},"vehicle_type_id":"4","last_reported":1747210441,"current_range_meters":0,"station_id":"","pricing_plan_id":"cebpf4jnsgd1na2vs0mg"},{"bike_id":"d19ebaab-ef98-4efa-b952-7192b9b2f014","system_id":"levelo_inurba_marseille","lat":43.26144,"lon":5.39194,"is_reserved":false,"is_disabled":true,"rental_uris":{"android":"levelo://app?vid=d19ebaab-ef98-4efa-b952-7192b9b2f014","ios":"levelo://app?vid=d19ebaab-ef98-4efa-b952-7192b9b2f014"},"vehicle_type_id":"4","last_reported":1747210441,"current_range_meters":0,"station_id":"","pricing_plan_id":"cebpf4jnsgd1na2vs0mg"},{"bike_id":"8ba8222b-0151-4df0-9ee0-aa112762a939","system_id":"levelo_inurba_marseille","lat":43.24753,"lon":5.406531,"is_reserved":false,"is_disabled":true,"rental_uris":{"android":"levelo://app?vid=8ba8222b-0151-4df0-9ee0-aa112762a939","ios":"levelo://app?vid=8ba8222b-0151-4df0-9ee0-aa112762a939"},"vehicle_type_id":"4","last_reported":1747210441,"current_range_meters":0,"station_id":"","pricing_plan_id":"cebpf4jnsgd1na2vs0mg"},{"bike_id":"792567c6-0442-4011-aff0-9c05e25deb48","system_id":"levelo_inurba_marseille","lat":43.28071,"lon":5.44168,"is_reserved":false,"is_disabled":true,"rental_uris":{"android":"levelo://app?vid=792567c6-0442-4011-aff0-9c05e25deb48","ios":"levelo://app?vid=792567c6-0442-4011-aff0-9c05e25deb48"},"vehicle_type_id":"4","last_reported":1747210441,"current_range_meters":0,"station_id":"","pricing_plan_id":"cebpf4jnsgd1na2vs0mg"},{"bike_id":"326433f3-0a93-45f7-9a9f-41fbc422298c","system_id":"levelo_inurba_marseille","lat":43.30548,"lon":5.36537,"is_reserved":false,"is_disabled":true,"rental_uris":{"android":"levelo://app?vid=326433f3-0a93-45f7-9a9f-41fbc422298c","ios":"levelo://app?vid=326433f3-0a93-45f7-9a9f-41fbc422298c"},"vehicle_type_id":"4","last_reported":1747210441,"current_range_meters":0,"station_id":"ce4bgs12rcd13ifvqcag","pricing_plan_id":"cebpf4jnsgd1na2vs0mg"},{"bike_id":"80b36099-5033-4f8e-b5bf-17545fdf54db","system_id":"levelo_inurba_marseille","lat":43.3111,"lon":5.37757,"is_reserved":false,"is_disabled":true,"rental_uris":{"android":"levelo://app?vid=80b36099-5033-4f8e-b5bf-17545fdf54db","ios":"levelo://app?vid=80b36099-5033-4f8e-b5bf-17545fdf54db"},"vehicle_type_id":"4","last_reported":1747210441,"current_range_meters":0,"station_id":"ce4bgt92rcd13ifvqcg0","pricing_plan_id":"cebpf4jnsgd1na2vs0mg"},{"bike_id":"cb964434-c00b-4f8e-9d77-36eea2d2a6e2","system_id":"levelo_inurba_marseille","lat":43.27309,"lon":5.39074,"is_reserved":false,"is_disabled":true,"rental_uris":{"android":"levelo://app?vid=cb964434-c00b-4f8e-9d77-36eea2d2a6e2","ios":"levelo://app?vid=cb964434-c00b-4f8e-9d77-36eea2d2a6e2"},"vehicle_type_id":"4","last_reported":1747210441,"current_range_meters":0,"station_id":"ce4bhgp2rcd13ifvqfe0","pricing_plan_id":"cebpf4jnsgd1na2vs0mg"},{"bike_id":"7d648bb7-ab7e-409a-add7-d4a17f03de12","system_id":"levelo_inurba_marseille","lat":43.2315,"lon":5.43701,"is_reserved":false,"is_disabled":true,"rental_uris":{"android":"levelo://app?vid=7d648bb7-ab7e-409a-add7-d4a17f03de12","ios":"levelo://app?vid=7d648bb7-ab7e-409a-add7-d4a17f03de12"},"vehicle_type_id":"4","last_reported":1747210441,"current_range_meters":0,"station_id":"ce4bhmp2rcd13ifvqgog","pricing_plan_id":"cebpf4jnsgd1na2vs0mg"},{"bike_id":"54715999-78c0-40df-8009-96dc643b2198","system_id":"levelo_inurba_marseille","lat":43.28131,"lon":5.4266,"is_reserved":false,"is_disabled":true,"rental_uris":{"android":"levelo://app?vid=54715999-78c0-40df-8009-96dc643b2198","ios":"levelo://app?vid=54715999-78c0-40df-8009-96dc643b2198"},"vehicle_type_id":"4","last_reported":1747210441,"current_range_meters":0,"station_id":"ce4bhnh2rcd13ifvqgug","pricing_plan_id":"cebpf4jnsgd1na2vs0mg"},{"bike_id":"2abc10c9-212c-492c-a060-35cac98dbd8e","system_id":"levelo_inurba_marseille","lat":43.3253,"lon":5.4143,"is_reserved":false,"is_disabled":true,"rental_uris":{"android":"levelo://app?vid=2abc10c9-212c-492c-a060-35cac98dbd8e","ios":"levelo://app?vid=2abc10c9-212c-492c-a060-35cac98dbd8e"},"vehicle_type_id":"4","last_reported":1747210441,"current_range_meters":0,"station_id":"ce4bhq12rcd13ifvqhhg","pricing_plan_id":"cebpf4jnsgd1na2vs0mg"},{"bike_id":"a305c6b5-033b-4996-bd4c-c0c714e9f037","system_id":"levelo_inurba_marseille","lat":43.22918,"lon":5.35381,"is_reserved":false,"is_disabled":true,"rental_uris":{"android":"levelo://app?vid=a305c6b5-033b-4996-bd4c-c0c714e9f037","ios":"levelo://app?vid=a305c6b5-033b-4996-bd4c-c0c714e9f037"},"vehicle_type_id":"4","last_reported":1747210441,"current_range_meters":0,"station_id":"cpo3532slgdg3j2ikp40","pricing_plan_id":"cebpf4jnsgd1na2vs0mg"},{"bike_id":"49c47ed7-52af-4f8e-abc1-3485cf2c06af","system_id":"levelo_inurba_marseille","lat":43.22497,"lon":5.34822,"is_reserved":false,"is_disabled":true,"rental_uris":{"android":"levelo://app?vid=49c47ed7-52af-4f8e-abc1-3485cf2c06af","ios":"levelo://app?vid=49c47ed7-52af-4f8e-abc1-3485cf2c06af"},"vehicle_type_id":"4","last_reported":1747210441,"current_range_meters":0,"station_id":"st_cvj5dfep6f1abm77gieg","pricing_plan_id":"cebpf4jnsgd1na2vs0mg"},{"bike_id":"8aecad1a-6a65-4d9a-bc60-67a3daa52852","system_id":"levelo_inurba_marseille","lat":43.217425,"lon":5.346214,"is_reserved":false,"is_disabled":true,"rental_uris":{"android":"levelo://app?vid=8aecad1a-6a65-4d9a-bc60-67a3daa52852","ios":"levelo://app?vid=8aecad1a-6a65-4d9a-bc60-67a3daa52852"},"vehicle_type_id":"4","last_reported":1747210441,"current_range_meters":0,"station_id":"st_cvj6r9ubvosntc0bgbag","pricing_plan_id":"cebpf4jnsgd1na2vs0mg"},{"bike_id":"986c18d8-74d7-4caf-9a65-ed5970f61353","system_id":"levelo_inurba_marseille","lat":43.21204,"lon":5.35076,"is_reserved":false,"is_disabled":true,"rental_uris":{"android":"levelo://app?vid=986c18d8-74d7-4caf-9a65-ed5970f61353","ios":"levelo://app?vid=986c18d8-74d7-4caf-9a65-ed5970f61353"},"vehicle_type_id":"4","last_reported":1747210441,"current_range_meters":0,"station_id":"st_cvj6sg6p6f1abm77japg","pricing_plan_id":"cebpf4jnsgd1na2vs0mg"},{"bike_id":"5b9ba009-35bc-4f16-8e3f-5589b7ebc31a","system_id":"levelo_inurba_marseille","lat":43.29275,"lon":5.40109,"is_reserved":false,"is_disabled":true,"rental_uris":{"android":"levelo://app?vid=5b9ba009-35bc-4f16-8e3f-5589b7ebc31a","ios":"levelo://app?vid=5b9ba009-35bc-4f16-8e3f-5589b7ebc31a"},"vehicle_type_id":"4","last_reported":1747210441,"current_range_meters":400,"station_id":"ce4bh312rcd13ifvqdk0","pricing_plan_id":"cebpf4jnsgd1na2vs0mg"},{"bike_id":"b5349df2-f842-42f2-aff1-ef379f86f288","system_id":"levelo_inurba_marseille","lat":43.22932,"lon":5.35377,"is_reserved":false,"is_disabled":true,"rental_uris":{"android":"levelo://app?vid=b5349df2-f842-42f2-aff1-ef379f86f288","ios":"levelo://app?vid=b5349df2-f842-42f2-aff1-ef379f86f288"},"vehicle_type_id":"4","last_reported":1747210441,"current_range_meters":400,"station_id":"cpo3532slgdg3j2ikp40","pricing_plan_id":"cebpf4jnsgd1na2vs0mg"},{"bike_id":"e78ed1c1-195a-4763-adfc-d9bd46dfb54f","system_id":"levelo_inurba_marseille","lat":43.2781,"lon":5.406993,"is_reserved":false,"is_disabled":true,"rental_uris":{"android":"levelo://app?vid=e78ed1c1-195a-4763-adfc-d9bd46dfb54f","ios":"levelo://app?vid=e78ed1c1-195a-4763-adfc-d9bd46dfb54f"},"vehicle_type_id":"4","last_reported":1747210441,"current_range_meters":800,"station_id":"ce4bhnh2rcd13ifvqgtg","pricing_plan_id":"cebpf4jnsgd1na2vs0mg"},{"bike_id":"33b322de-28f8-408f-a93b-f5b71c7c1b91","system_id":"levelo_inurba_marseille","lat":43.240805,"lon":5.377504,"is_reserved":false,"is_disabled":true,"rental_uris":{"android":"levelo://app?vid=33b322de-28f8-408f-a93b-f5b71c7c1b91","ios":"levelo://app?vid=33b322de-28f8-408f-a93b-f5b71c7c1b91"},"vehicle_type_id":"4","last_reported":1747210441,"current_range_meters":800,"station_id":"ce4bhnp2rcd13ifvqgvg","pricing_plan_id":"cebpf4jnsgd1na2vs0mg"},{"bike_id":"6b556ba3-0d42-4943-8045-95dde59e8279","system_id":"levelo_inurba_marseille","lat":43.30955,"lon":5.39042,"is_reserved":false,"is_disabled":true,"rental_uris":{"android":"levelo://app?vid=6b556ba3-0d42-4943-8045-95dde59e8279","ios":"levelo://app?vid=6b556ba3-0d42-4943-8045-95dde59e8279"},"vehicle_type_id":"4","last_reported":1747210441,"current_range_meters":1200,"station_id":"ce4bgup2rcd13ifvqco0","pricing_plan_id":"cebpf4jnsgd1na2vs0mg"},{"bike_id":"3fee2753-adb9-497b-9ed2-45249c81b644","system_id":"levelo_inurba_marseille","lat":43.30947,"lon":5.39037,"is_reserved":false,"is_disabled":true,"rental_uris":{"android":"levelo://app?vid=3fee2753-adb9-497b-9ed2-45249c81b644","ios":"levelo://app?vid=3fee2753-adb9-497b-9ed2-45249c81b644"},"vehicle_type_id":"4","last_reported":1747210441,"current_range_meters":1200,"station_id":"ce4bgup2rcd13ifvqco0","pricing_plan_id":"cebpf4jnsgd1na2vs0mg"},{"bike_id":"a8d55382-e2d1-4907-aa15-b531c872663f","system_id":"levelo_inurba_marseille","lat":43.30955,"lon":5.39038,"is_reserved":false,"is_disabled":true,"rental_uris":{"android":"levelo://app?vid=a8d55382-e2d1-4907-aa15-b531c872663f","ios":"levelo://app?vid=a8d55382-e2d1-4907-aa15-b531c872663f"},"vehicle_type_id":"4","last_reported":1747210441,"current_range_meters":1600,"station_id":"ce4bgup2rcd13ifvqco0","pricing_plan_id":"cebpf4jnsgd1na2vs0mg"},{"bike_id":"7b69450a-3766-45bb-8da6-07a87060dc80","system_id":"levelo_inurba_marseille","lat":43.27208,"lon":5.39185,"is_reserved":false,"is_disabled":true,"rental_uris":{"android":"levelo://app?vid=7b69450a-3766-45bb-8da6-07a87060dc80","ios":"levelo://app?vid=7b69450a-3766-45bb-8da6-07a87060dc80"},"vehicle_type_id":"4","last_reported":1747210441,"current_range_meters":1600,"station_id":"ce4bhhp2rcd13ifvqfm0","pricing_plan_id":"cebpf4jnsgd1na2vs0mg"},{"bike_id":"01321899-3bf3-4523-8d90-d0e402745f15","system_id":"levelo_inurba_marseille","lat":43.27496,"lon":5.4245,"is_reserved":false,"is_disabled":true,"rental_uris":{"android":"levelo://app?vid=01321899-3bf3-4523-8d90-d0e402745f15","ios":"levelo://app?vid=01321899-3bf3-4523-8d90-d0e402745f15"},"vehicle_type_id":"4","last_reported":1747210441,"current_range_meters":1600,"station_id":"ce4bhn92rcd13ifvqgrg","pricing_plan_id":"cebpf4jnsgd1na2vs0mg"},{"bike_id":"6861c2ae-b8dd-4ed0-86d9-03af359f7503","system_id":"levelo_inurba_marseille","lat":43.24063,"lon":5.37755,"is_reserved":false,"is_disabled":true,"rental_uris":{"android":"levelo://app?vid=6861c2ae-b8dd-4ed0-86d9-03af359f7503","ios":"levelo://app?vid=6861c2ae-b8dd-4ed0-86d9-03af359f7503"},"vehicle_type_id":"4","last_reported":1747210441,"current_range_meters":1600,"station_id":"ce4bhnp2rcd13ifvqgvg","pricing_plan_id":"cebpf4jnsgd1na2vs0mg"},{"bike_id":"31ba369f-8f41-4b45-bb8d-75cd38c2f94d","system_id":"levelo_inurba_marseille","lat":43.28934,"lon":5.36638,"is_reserved":false,"is_disabled":true,"rental_uris":{"android":"levelo://app?vid=31ba369f-8f41-4b45-bb8d-75cd38c2f94d","ios":"levelo://app?vid=31ba369f-8f41-4b45-bb8d-75cd38c2f94d"},"vehicle_type_id":"4","last_reported":1747210441,"current_range_meters":2000,"station_id":"ce4bhap2rcd13ifvqek0","pricing_plan_id":"cebpf4jnsgd1na2vs0mg"},{"bike_id":"b99b1733-c88d-47b3-9b9b-0acefa34b3c5","system_id":"levelo_inurba_marseille","lat":43.27319,"lon":5.39074,"is_reserved":false,"is_disabled":true,"rental_uris":{"android":"levelo://app?vid=b99b1733-c88d-47b3-9b9b-0acefa34b3c5","ios":"levelo://app?vid=b99b1733-c88d-47b3-9b9b-0acefa34b3c5"},"vehicle_type_id":"4","last_reported":1747210441,"current_range_meters":2000,"station_id":"ce4bhgp2rcd13ifvqfe0","pricing_plan_id":"cebpf4jnsgd1na2vs0mg"},{"bike_id":"6af1a4e4-97af-41a0-9c37-0e5f2211215f","system_id":"levelo_inurba_marseille","lat":43.24071,"lon":5.37735,"is_reserved":false,"is_disabled":true,"rental_uris":{"android":"levelo://app?vid=6af1a4e4-97af-41a0-9c37-0e5f2211215f","ios":"levelo://app?vid=6af1a4e4-97af-41a0-9c37-0e5f2211215f"},"vehicle_type_id":"4","last_reported":1747210441,"current_range_meters":2000,"station_id":"ce4bhnp2rcd13ifvqgvg","pricing_plan_id":"cebpf4jnsgd1na2vs0mg"},{"bike_id":"65f07d6c-0d43-4fa8-ad97-6853a7f2d82c","system_id":"levelo_inurba_marseille","lat":43.33611,"lon":5.41045,"is_reserved":false,"is_disabled":true,"rental_uris":{"android":"levelo://app?vid=65f07d6c-0d43-4fa8-ad97-6853a7f2d82c","ios":"levelo://app?vid=65f07d6c-0d43-4fa8-ad97-6853a7f2d82c"},"vehicle_type_id":"4","last_reported":1747210441,"current_range_meters":2000,"station_id":"ce4bhqh2rcd13ifvqhmg","pricing_plan_id":"cebpf4jnsgd1na2vs0mg"},{"bike_id":"6720569b-1f17-45c4-9ea6-4a36d61ed0a7","system_id":"levelo_inurba_marseille","lat":43.30423,"lon":5.38885,"is_reserved":false,"is_disabled":false,"rental_uris":{"android":"levelo://app?vid=6720569b-1f17-45c4-9ea6-4a36d61ed0a7","ios":"levelo://app?vid=6720569b-1f17-45c4-9ea6-4a36d61ed0a7"},"vehicle_type_id":"4","last_reported":1747210441,"current_range_meters":2800,"station_id":"ce4bgk12rcd13ifvqbi0","pricing_plan_id":"cebpf4jnsgd1na2vs0mg"},{"bike_id":"9217a029-fb61-49c4-81b0-531d2961d5a6","system_id":"levelo_inurba_marseille","lat":43.30593,"lon":5.39352,"is_reserved":false,"is_disabled":false,"rental_uris":{"android":"levelo://app?vid=9217a029-fb61-49c4-81b0-531d2961d5a6","ios":"levelo://app?vid=9217a029-fb61-49c4-81b0-531d2961d5a6"},"vehicle_type_id":"4","last_reported":1747210441,"current_range_meters":2800,"station_id":"ce4bh0p2rcd13ifvqd80","pricing_plan_id":"cebpf4jnsgd1na2vs0mg"},{"bike_id":"bfdb3732-1d89-4b1f-a416-4351e8000fd8","system_id":"levelo_inurba_marseille","lat":43.24082,"lon":5.37744,"is_reserved":false,"is_disabled":false,"rental_uris":{"android":"levelo://app?vid=bfdb3732-1d89-4b1f-a416-4351e8000fd8","ios":"levelo://app?vid=bfdb3732-1d89-4b1f-a416-4351e8000fd8"},"vehicle_type_id":"4","last_reported":1747210441,"current_range_meters":3200,"station_id":"ce4bhnp2rcd13ifvqgvg","pricing_plan_id":"cebpf4jnsgd1na2vs0mg"},{"bike_id":"063c5cba-894a-4d74-9918-f70c286e287d","system_id":"levelo_inurba_marseille","lat":43.24648,"lon":5.38889,"is_reserved":false,"is_disabled":false,"rental_uris":{"android":"levelo://app?vid=063c5cba-894a-4d74-9918-f70c286e287d","ios":"levelo://app?vid=063c5cba-894a-4d74-9918-f70c286e287d"},"vehicle_type_id":"4","last_reported":1747210441,"current_range_meters":3600,"station_id":"ce4bhg12rcd13ifvqf60","pricing_plan_id":"cebpf4jnsgd1na2vs0mg"},{"bike_id":"8655de25-8561-46f8-a07c-c09faabebe42","system_id":"levelo_inurba_marseille","lat":43.26679,"lon":5.3828,"is_reserved":false,"is_disabled":false,"rental_uris":{"android":"levelo://app?vid=8655de25-8561-46f8-a07c-c09faabebe42","ios":"levelo://app?vid=8655de25-8561-46f8-a07c-c09faabebe42"},"vehicle_type_id":"4","last_reported":1747210441,"current_range_meters":3600,"station_id":"ce4bhg92rcd13ifvqf90","pricing_plan_id":"cebpf4jnsgd1na2vs0mg"},{"bike_id":"e0fb4e66-08f6-4a40-b4d3-34a83b4633fe","system_id":"levelo_inurba_marseille","lat":43.25116,"lon":5.40317,"is_reserved":false,"is_disabled":false,"rental_uris":{"android":"levelo://app?vid=e0fb4e66-08f6-4a40-b4d3-34a83b4633fe","ios":"levelo://app?vid=e0fb4e66-08f6-4a40-b4d3-34a83b4633fe"},"vehicle_type_id":"4","last_reported":1747210441,"current_range_meters":3600,"station_id":"ce4bhlh2rcd13ifvqgig","pricing_plan_id":"cebpf4jnsgd1na2vs0mg"},{"bike_id":"bf5caeae-375b-4f6a-b212-3f8c4af6cfee","system_id":"levelo_inurba_marseille","lat":43.29623,"lon":5.37725,"is_reserved":false,"is_disabled":false,"rental_uris":{"android":"levelo://app?vid=bf5caeae-375b-4f6a-b212-3f8c4af6cfee","ios":"levelo://app?vid=bf5caeae-375b-4f6a-b212-3f8c4af6cfee"},"vehicle_type_id":"4","last_reported":1747210441,"current_range_meters":4000,"station_id":"ce4bgi92rcd13ifvqb90","pricing_plan_id":"cebpf4jnsgd1na2vs0mg"},{"bike_id":"df26f7c5-5f0a-401e-b56d-ad6c3be88520","system_id":"levelo_inurba_marseille","lat":43.30462,"lon":5.37905,"is_reserved":false,"is_disabled":false,"rental_uris":{"android":"levelo://app?vid=df26f7c5-5f0a-401e-b56d-ad6c3be88520","ios":"levelo://app?vid=df26f7c5-5f0a-401e-b56d-ad6c3be88520"},"vehicle_type_id":"4","last_reported":1747210441,"current_range_meters":4000,"station_id":"ce4bgup2rcd13ifvqcn0","pricing_plan_id":"cebpf4jnsgd1na2vs0mg"},{"bike_id":"a0c31ab5-7031-40a6-8066-b372ab64cb7d","system_id":"levelo_inurba_marseille","lat":43.25866,"lon":5.39901,"is_reserved":false,"is_disabled":false,"rental_uris":{"android":"levelo://app?vid=a0c31ab5-7031-40a6-8066-b372ab64cb7d","ios":"levelo://app?vid=a0c31ab5-7031-40a6-8066-b372ab64cb7d"},"vehicle_type_id":"4","last_reported":1747210441,"current_range_meters":4000,"station_id":"ce4bhl92rcd13ifvqghg","pricing_plan_id":"cebpf4jnsgd1na2vs0mg"},{"bike_id":"c2d49a17-eb35-4957-ad06-8f06b81c9427","system_id":"levelo_inurba_marseille","lat":43.24078,"lon":5.37753,"is_reserved":false,"is_disabled":false,"rental_uris":{"android":"levelo://app?vid=c2d49a17-eb35-4957-ad06-8f06b81c9427","ios":"levelo://app?vid=c2d49a17-eb35-4957-ad06-8f06b81c9427"},"vehicle_type_id":"4","last_reported":1747210441,"current_range_meters":4000,"station_id":"ce4bhnp2rcd13ifvqgvg","pricing_plan_id":"cebpf4jnsgd1na2vs0mg"},{"bike_id":"7ce609d8-d928-43e8-940e-5b7ef78de615","system_id":"levelo_inurba_marseille","lat":43.24009,"lon":5.37691,"is_reserved":false,"is_disabled":false,"rental_uris":{"android":"levelo://app?vid=7ce609d8-d928-43e8-940e-5b7ef78de615","ios":"levelo://app?vid=7ce609d8-d928-43e8-940e-5b7ef78de615"},"vehicle_type_id":"4","last_reported":1747210441,"current_range_meters":4400,"station_id":"","pricing_plan_id":"cebpf4jnsgd1na2vs0mg"},{"bike_id":"b9fbc0cd-ef8c-4828-a17c-6c2e4782b940","system_id":"levelo_inurba_marseille","lat":43.30312,"lon":5.36892,"is_reserved":false,"is_disabled":false,"rental_uris":{"android":"levelo://app?vid=b9fbc0cd-ef8c-4828-a17c-6c2e4782b940","ios":"levelo://app?vid=b9fbc0cd-ef8c-4828-a17c-6c2e4782b940"},"vehicle_type_id":"4","last_reported":1747210441,"current_range_meters":4400,"station_id":"ce4bgqh2rcd13ifvqc5g","pricing_plan_id":"cebpf4jnsgd1na2vs0mg"},{"bike_id":"368df87c-138f-49e8-92da-298f89f21d1e","system_id":"levelo_inurba_marseille","lat":43.23146,"lon":5.43721,"is_reserved":false,"is_disabled":false,"rental_uris":{"android":"levelo://app?vid=368df87c-138f-49e8-92da-298f89f21d1e","ios":"levelo://app?vid=368df87c-138f-49e8-92da-298f89f21d1e"},"vehicle_type_id":"4","last_reported":1747210441,"current_range_meters":4400,"station_id":"ce4bhmp2rcd13ifvqgog","pricing_plan_id":"cebpf4jnsgd1na2vs0mg"},{"bike_id":"74ce7741-5813-4b25-8268-d773ddb37d17","system_id":"levelo_inurba_marseille","lat":43.30207,"lon":5.45375,"is_reserved":false,"is_disabled":false,"rental_uris":{"android":"levelo://app?vid=74ce7741-5813-4b25-8268-d773ddb37d17","ios":"levelo://app?vid=74ce7741-5813-4b25-8268-d773ddb37d17"},"vehicle_type_id":"4","last_reported":1747210441,"current_range_meters":4800,"station_id":"","pricing_plan_id":"cebpf4jnsgd1na2vs0mg"},{"bike_id":"e5ef89c0-a62d-4cff-b8e0-b73387454d4f","system_id":"levelo_inurba_marseille","lat":43.31353,"lon":5.3669,"is_reserved":false,"is_disabled":false,"rental_uris":{"android":"levelo://app?vid=e5ef89c0-a62d-4cff-b8e0-b73387454d4f","ios":"levelo://app?vid=e5ef89c0-a62d-4cff-b8e0-b73387454d4f"},"vehicle_type_id":"4","last_reported":1747210441,"current_range_meters":4800,"station_id":"ce4bgr92rcd13ifvqc6g","pricing_plan_id":"cebpf4jnsgd1na2vs0mg"},{"bike_id":"8db31d45-bbbe-4f67-908f-e3979acb44c9","system_id":"levelo_inurba_marseille","lat":43.303877,"lon":5.378469,"is_reserved":false,"is_disabled":true,"rental_uris":{"android":"levelo://app?vid=8db31d45-bbbe-4f67-908f-e3979acb44c9","ios":"levelo://app?vid=8db31d45-bbbe-4f67-908f-e3979acb44c9"},"vehicle_type_id":"4","last_reported":1747210441,"current_range_meters":4800,"station_id":"ce4bgup2rcd13ifvqcn0","pricing_plan_id":"cebpf4jnsgd1na2vs0mg"},{"bike_id":"280395ca-52bc-4fa2-b1bc-4e2adced5555","system_id":"levelo_inurba_marseille","lat":43.30882,"lon":5.39606,"is_reserved":false,"is_disabled":false,"rental_uris":{"android":"levelo://app?vid=280395ca-52bc-4fa2-b1bc-4e2adced5555","ios":"levelo://app?vid=280395ca-52bc-4fa2-b1bc-4e2adced5555"},"vehicle_type_id":"4","last_reported":1747210441,"current_range_meters":4800,"station_id":"ce4bh012rcd13ifvqcv0","pricing_plan_id":"cebpf4jnsgd1na2vs0mg"},{"bike_id":"039d92ef-fa79-4456-b082-38d24b3442da","system_id":"levelo_inurba_marseille","lat":43.28933,"lon":5.378528,"is_reserved":false,"is_disabled":false,"rental_uris":{"android":"levelo://app?vid=039d92ef-fa79-4456-b082-38d24b3442da","ios":"levelo://app?vid=039d92ef-fa79-4456-b082-38d24b3442da"},"vehicle_type_id":"4","last_reported":1747210441,"current_range_meters":4800,"station_id":"ce4bh9p2rcd13ifvqec0","pricing_plan_id":"cebpf4jnsgd1na2vs0mg"},{"bike_id":"014bef53-af0e-48e7-ad43-98d4a2618334","system_id":"levelo_inurba_marseille","lat":43.25492,"lon":5.37651,"is_reserved":false,"is_disabled":false,"rental_uris":{"android":"levelo://app?vid=014bef53-af0e-48e7-ad43-98d4a2618334","ios":"levelo://app?vid=014bef53-af0e-48e7-ad43-98d4a2618334"},"vehicle_type_id":"4","last_reported":1747210441,"current_range_meters":4800,"station_id":"ce4bhh12rcd13ifvqff0","pricing_plan_id":"cebpf4jnsgd1na2vs0mg"},{"bike_id":"3b763487-9989-4bfd-963d-7d6731a25421","system_id":"levelo_inurba_marseille","lat":43.30536,"lon":5.36687,"is_reserved":false,"is_disabled":false,"rental_uris":{"android":"levelo://app?vid=3b763487-9989-4bfd-963d-7d6731a25421","ios":"levelo://app?vid=3b763487-9989-4bfd-963d-7d6731a25421"},"vehicle_type_id":"4","last_reported":1747210441,"current_range_meters":5600,"station_id":"ce4bgrp2rcd13ifvqc9g","pricing_plan_id":"cebpf4jnsgd1na2vs0mg"},{"bike_id":"92ab28a4-6553-44a7-abfc-db7133a8b0bc","system_id":"levelo_inurba_marseille","lat":43.298769,"lon":5.397374,"is_reserved":false,"is_disabled":false,"rental_uris":{"android":"levelo://app?vid=92ab28a4-6553-44a7-abfc-db7133a8b0bc","ios":"levelo://app?vid=92ab28a4-6553-44a7-abfc-db7133a8b0bc"},"vehicle_type_id":"4","last_reported":1747210441,"current_range_meters":5600,"station_id":"ce4bh0h2rcd13ifvqd50","pricing_plan_id":"cebpf4jnsgd1na2vs0mg"},{"bike_id":"8c233259-59b1-4d88-a0a2-1ec22e71ba11","system_id":"levelo_inurba_marseille","lat":43.27372,"lon":5.36254,"is_reserved":false,"is_disabled":false,"rental_uris":{"android":"levelo://app?vid=8c233259-59b1-4d88-a0a2-1ec22e71ba11","ios":"levelo://app?vid=8c233259-59b1-4d88-a0a2-1ec22e71ba11"},"vehicle_type_id":"4","last_reported":1747210441,"current_range_meters":5600,"station_id":"ce4bhbh2rcd13ifvqeo0","pricing_plan_id":"cebpf4jnsgd1na2vs0mg"},{"bike_id":"87e86929-38ff-48a6-acf3-803b4ed45b58","system_id":"levelo_inurba_marseille","lat":43.25944,"lon":5.40902,"is_reserved":false,"is_disabled":false,"rental_uris":{"android":"levelo://app?vid=87e86929-38ff-48a6-acf3-803b4ed45b58","ios":"levelo://app?vid=87e86929-38ff-48a6-acf3-803b4ed45b58"},"vehicle_type_id":"4","last_reported":1747210441,"current_range_meters":5600,"station_id":"ce4bhm92rcd13ifvqglg","pricing_plan_id":"cebpf4jnsgd1na2vs0mg"},{"bike_id":"8d3628c1-0c02-42d4-b0f2-09476d23879f","system_id":"levelo_inurba_marseille","lat":43.25938,"lon":5.40906,"is_reserved":false,"is_disabled":false,"rental_uris":{"android":"levelo://app?vid=8d3628c1-0c02-42d4-b0f2-09476d23879f","ios":"levelo://app?vid=8d3628c1-0c02-42d4-b0f2-09476d23879f"},"vehicle_type_id":"4","last_reported":1747210441,"current_range_meters":6000,"station_id":"ce4bhm92rcd13ifvqglg","pricing_plan_id":"cebpf4jnsgd1na2vs0mg"},{"bike_id":"73284dc4-f3fd-43d2-af5a-acd57db7e32f","system_id":"levelo_inurba_marseille","lat":43.27489,"lon":5.42462,"is_reserved":false,"is_disabled":false,"rental_uris":{"android":"levelo://app?vid=73284dc4-f3fd-43d2-af5a-acd57db7e32f","ios":"levelo://app?vid=73284dc4-f3fd-43d2-af5a-acd57db7e32f"},"vehicle_type_id":"4","last_reported":1747210441,"current_range_meters":6000,"station_id":"ce4bhn92rcd13ifvqgrg","pricing_plan_id":"cebpf4jnsgd1na2vs0mg"},{"bike_id":"813c691c-feb9-481e-944b-16c2c3ec43ea","system_id":"levelo_inurba_marseille","lat":43.24067,"lon":5.37761,"is_reserved":false,"is_disabled":false,"rental_uris":{"android":"levelo://app?vid=813c691c-feb9-481e-944b-16c2c3ec43ea","ios":"levelo://app?vid=813c691c-feb9-481e-944b-16c2c3ec43ea"},"vehicle_type_id":"4","last_reported":1747210441,"current_range_meters":6000,"station_id":"ce4bhnp2rcd13ifvqgvg","pricing_plan_id":"cebpf4jnsgd1na2vs0mg"},{"bike_id":"1ba5ead2-2e31-461f-a34f-3e096c610c38","system_id":"levelo_inurba_marseille","lat":43.33611,"lon":5.41021,"is_reserved":false,"is_disabled":false,"rental_uris":{"android":"levelo://app?vid=1ba5ead2-2e31-461f-a34f-3e096c610c38","ios":"levelo://app?vid=1ba5ead2-2e31-461f-a34f-3e096c610c38"},"vehicle_type_id":"4","last_reported":1747210441,"current_range_meters":6000,"station_id":"ce4bhqh2rcd13ifvqhmg","pricing_plan_id":"cebpf4jnsgd1na2vs0mg"},{"bike_id":"e42e17e5-d574-40b9-811b-e914acd6632f","system_id":"levelo_inurba_marseille","lat":43.23041,"lon":5.35507,"is_reserved":false,"is_disabled":false,"rental_uris":{"android":"levelo://app?vid=e42e17e5-d574-40b9-811b-e914acd6632f","ios":"levelo://app?vid=e42e17e5-d574-40b9-811b-e914acd6632f"},"vehicle_type_id":"4","last_reported":1747210441,"current_range_meters":6000,"station_id":"cpo3342slgdg3j2ifvpg","pricing_plan_id":"cebpf4jnsgd1na2vs0mg"},{"bike_id":"597e7865-b942-4532-81ea-d2c26c4cbf33","system_id":"levelo_inurba_marseille","lat":43.240738,"lon":5.377613,"is_reserved":false,"is_disabled":false,"rental_uris":{"android":"levelo://app?vid=597e7865-b942-4532-81ea-d2c26c4cbf33","ios":"levelo://app?vid=597e7865-b942-4532-81ea-d2c26c4cbf33"},"vehicle_type_id":"4","last_reported":1747210441,"current_range_meters":6400,"station_id":"ce4bhnp2rcd13ifvqgvg","pricing_plan_id":"cebpf4jnsgd1na2vs0mg"},{"bike_id":"cc67208d-3868-431a-acce-842ed819fa5d","system_id":"levelo_inurba_marseille","lat":43.292562,"lon":5.408984,"is_reserved":false,"is_disabled":false,"rental_uris":{"android":"levelo://app?vid=cc67208d-3868-431a-acce-842ed819fa5d","ios":"levelo://app?vid=cc67208d-3868-431a-acce-842ed819fa5d"},"vehicle_type_id":"4","last_reported":1747210441,"current_range_meters":6800,"station_id":"ce4bh192rcd13ifvqdc0","pricing_plan_id":"cebpf4jnsgd1na2vs0mg"},{"bike_id":"22314cb5-11f2-4604-a5a5-9d4d7504b3d9","system_id":"levelo_inurba_marseille","lat":43.23162,"lon":5.43692,"is_reserved":false,"is_disabled":false,"rental_uris":{"android":"levelo://app?vid=22314cb5-11f2-4604-a5a5-9d4d7504b3d9","ios":"levelo://app?vid=22314cb5-11f2-4604-a5a5-9d4d7504b3d9"},"vehicle_type_id":"4","last_reported":1747210441,"current_range_meters":6800,"station_id":"ce4bhmp2rcd13ifvqgog","pricing_plan_id":"cebpf4jnsgd1na2vs0mg"},{"bike_id":"534ea6c4-f1b4-4409-90a6-6ef2bbaa22f1","system_id":"levelo_inurba_marseille","lat":43.29715,"lon":5.37686,"is_reserved":false,"is_disabled":false,"rental_uris":{"android":"levelo://app?vid=534ea6c4-f1b4-4409-90a6-6ef2bbaa22f1","ios":"levelo://app?vid=534ea6c4-f1b4-4409-90a6-6ef2bbaa22f1"},"vehicle_type_id":"4","last_reported":1747210441,"current_range_meters":7200,"station_id":"ce4bgkh2rcd13ifvqbl0","pricing_plan_id":"cebpf4jnsgd1na2vs0mg"},{"bike_id":"3b10439d-cb21-4a5e-9660-09353cde8a78","system_id":"levelo_inurba_marseille","lat":43.29838,"lon":5.36253,"is_reserved":false,"is_disabled":false,"rental_uris":{"android":"levelo://app?vid=3b10439d-cb21-4a5e-9660-09353cde8a78","ios":"levelo://app?vid=3b10439d-cb21-4a5e-9660-09353cde8a78"},"vehicle_type_id":"4","last_reported":1747210441,"current_range_meters":7200,"station_id":"ce4bgpp2rcd13ifvqc3g","pricing_plan_id":"cebpf4jnsgd1na2vs0mg"},{"bike_id":"23bfae5d-adbc-487a-a024-c8962e33e86d","system_id":"levelo_inurba_marseille","lat":43.24647,"lon":5.38892,"is_reserved":false,"is_disabled":false,"rental_uris":{"android":"levelo://app?vid=23bfae5d-adbc-487a-a024-c8962e33e86d","ios":"levelo://app?vid=23bfae5d-adbc-487a-a024-c8962e33e86d"},"vehicle_type_id":"4","last_reported":1747210441,"current_range_meters":7200,"station_id":"ce4bhg12rcd13ifvqf60","pricing_plan_id":"cebpf4jnsgd1na2vs0mg"},{"bike_id":"35b5cea5-eb5e-4949-bb0d-c4b66c729e32","system_id":"levelo_inurba_marseille","lat":43.33598,"lon":5.41022,"is_reserved":false,"is_disabled":false,"rental_uris":{"android":"levelo://app?vid=35b5cea5-eb5e-4949-bb0d-c4b66c729e32","ios":"levelo://app?vid=35b5cea5-eb5e-4949-bb0d-c4b66c729e32"},"vehicle_type_id":"4","last_reported":1747210441,"current_range_meters":7200,"station_id":"ce4bhqh2rcd13ifvqhmg","pricing_plan_id":"cebpf4jnsgd1na2vs0mg"},{"bike_id":"56bea2d5-1851-4bc0-b9ec-2abbd891bd8c","system_id":"levelo_inurba_marseille","lat":43.24163,"lon":5.36392,"is_reserved":false,"is_disabled":false,"rental_uris":{"android":"levelo://app?vid=56bea2d5-1851-4bc0-b9ec-2abbd891bd8c","ios":"levelo://app?vid=56bea2d5-1851-4bc0-b9ec-2abbd891bd8c"},"vehicle_type_id":"4","last_reported":1747210441,"current_range_meters":7200,"station_id":"cpo36qri1sfpv3e86is0","pricing_plan_id":"cebpf4jnsgd1na2vs0mg"},{"bike_id":"5de1e8df-cec1-47cf-b554-41f6e726d337","system_id":"levelo_inurba_marseille","lat":43.27458,"lon":5.4058,"is_reserved":false,"is_disabled":false,"rental_uris":{"android":"levelo://app?vid=5de1e8df-cec1-47cf-b554-41f6e726d337","ios":"levelo://app?vid=5de1e8df-cec1-47cf-b554-41f6e726d337"},"vehicle_type_id":"4","last_reported":1747210441,"current_range_meters":8000,"station_id":"","pricing_plan_id":"cebpf4jnsgd1na2vs0mg"},{"bike_id":"3ce7edaa-e668-4d17-9ef4-5c5b52aa3f13","system_id":"levelo_inurba_marseille","lat":43.25934,"lon":5.40904,"is_reserved":false,"is_disabled":false,"rental_uris":{"android":"levelo://app?vid=3ce7edaa-e668-4d17-9ef4-5c5b52aa3f13","ios":"levelo://app?vid=3ce7edaa-e668-4d17-9ef4-5c5b52aa3f13"},"vehicle_type_id":"4","last_reported":1747210441,"current_range_meters":8000,"station_id":"ce4bhm92rcd13ifvqglg","pricing_plan_id":"cebpf4jnsgd1na2vs0mg"},{"bike_id":"94317e06-bddc-4d0b-985e-077197fac53b","system_id":"levelo_inurba_marseille","lat":43.25943,"lon":5.40919,"is_reserved":false,"is_disabled":false,"rental_uris":{"android":"levelo://app?vid=94317e06-bddc-4d0b-985e-077197fac53b","ios":"levelo://app?vid=94317e06-bddc-4d0b-985e-077197fac53b"},"vehicle_type_id":"4","last_reported":1747210441,"current_range_meters":8000,"station_id":"ce4bhm92rcd13ifvqglg","pricing_plan_id":"cebpf4jnsgd1na2vs0mg"},{"bike_id":"b973af1f-9405-433f-a2b5-3d01a281cbf8","system_id":"levelo_inurba_marseille","lat":43.32482,"lon":5.36563,"is_reserved":false,"is_disabled":false,"rental_uris":{"android":"levelo://app?vid=b973af1f-9405-433f-a2b5-3d01a281cbf8","ios":"levelo://app?vid=b973af1f-9405-433f-a2b5-3d01a281cbf8"},"vehicle_type_id":"4","last_reported":1747210441,"current_range_meters":8000,"station_id":"ce4bhs12rcd13ifvqhvg","pricing_plan_id":"cebpf4jnsgd1na2vs0mg"},{"bike_id":"f94a9016-02fc-45d8-86c8-bc349b1ba5fb","system_id":"levelo_inurba_marseille","lat":43.31227,"lon":5.36867,"is_reserved":false,"is_disabled":false,"rental_uris":{"android":"levelo://app?vid=f94a9016-02fc-45d8-86c8-bc349b1ba5fb","ios":"levelo://app?vid=f94a9016-02fc-45d8-86c8-bc349b1ba5fb"},"vehicle_type_id":"4","last_reported":1747210441,"current_range_meters":8400,"station_id":"ce4bgl92rcd13ifvqbq0","pricing_plan_id":"cebpf4jnsgd1na2vs0mg"},{"bike_id":"c78a5098-0be0-4c87-a4ae-6ffe6d135c10","system_id":"levelo_inurba_marseille","lat":43.31162,"lon":5.38716,"is_reserved":false,"is_disabled":false,"rental_uris":{"android":"levelo://app?vid=c78a5098-0be0-4c87-a4ae-6ffe6d135c10","ios":"levelo://app?vid=c78a5098-0be0-4c87-a4ae-6ffe6d135c10"},"vehicle_type_id":"4","last_reported":1747210441,"current_range_meters":8400,"station_id":"ce4bgv12rcd13ifvqcp0","pricing_plan_id":"cebpf4jnsgd1na2vs0mg"},{"bike_id":"2d91cae1-3ccd-418c-a069-32eab313243a","system_id":"levelo_inurba_marseille","lat":43.31271,"lon":5.40153,"is_reserved":false,"is_disabled":false,"rental_uris":{"android":"levelo://app?vid=2d91cae1-3ccd-418c-a069-32eab313243a","ios":"levelo://app?vid=2d91cae1-3ccd-418c-a069-32eab313243a"},"vehicle_type_id":"4","last_reported":1747210441,"current_range_meters":8400,"station_id":"ce4bh092rcd13ifvqd30","pricing_plan_id":"cebpf4jnsgd1na2vs0mg"},{"bike_id":"f37b7848-b34f-4203-8cd6-ee4ac88ff930","system_id":"levelo_inurba_marseille","lat":43.23954,"lon":5.36627,"is_reserved":false,"is_disabled":false,"rental_uris":{"android":"levelo://app?vid=f37b7848-b34f-4203-8cd6-ee4ac88ff930","ios":"levelo://app?vid=f37b7848-b34f-4203-8cd6-ee4ac88ff930"},"vehicle_type_id":"4","last_reported":1747210441,"current_range_meters":8400,"station_id":"ce4bhi12rcd13ifvqfp0","pricing_plan_id":"cebpf4jnsgd1na2vs0mg"},{"bike_id":"db4b6e1c-3a7a-4300-ab5c-085c3a146ffd","system_id":"levelo_inurba_marseille","lat":43.29095,"lon":5.38141,"is_reserved":false,"is_disabled":false,"rental_uris":{"android":"levelo://app?vid=db4b6e1c-3a7a-4300-ab5c-085c3a146ffd","ios":"levelo://app?vid=db4b6e1c-3a7a-4300-ab5c-085c3a146ffd"},"vehicle_type_id":"4","last_reported":1747210441,"current_range_meters":8800,"station_id":"ce4bh512rcd13ifvqe2g","pricing_plan_id":"cebpf4jnsgd1na2vs0mg"},{"bike_id":"997bbfaf-6ffb-4c76-abcb-107350c86c61","system_id":"levelo_inurba_marseille","lat":43.290965,"lon":5.381292,"is_reserved":false,"is_disabled":false,"rental_uris":{"android":"levelo://app?vid=997bbfaf-6ffb-4c76-abcb-107350c86c61","ios":"levelo://app?vid=997bbfaf-6ffb-4c76-abcb-107350c86c61"},"vehicle_type_id":"4","last_reported":1747210441,"current_range_meters":8800,"station_id":"ce4bh512rcd13ifvqe2g","pricing_plan_id":"cebpf4jnsgd1na2vs0mg"},{"bike_id":"ccab29e7-e8fc-43f3-a8ef-7f09cffa8e09","system_id":"levelo_inurba_marseille","lat":43.25487,"lon":5.37656,"is_reserved":false,"is_disabled":false,"rental_uris":{"android":"levelo://app?vid=ccab29e7-e8fc-43f3-a8ef-7f09cffa8e09","ios":"levelo://app?vid=ccab29e7-e8fc-43f3-a8ef-7f09cffa8e09"},"vehicle_type_id":"4","last_reported":1747210441,"current_range_meters":8800,"station_id":"ce4bhh12rcd13ifvqff0","pricing_plan_id":"cebpf4jnsgd1na2vs0mg"},{"bike_id":"cd55a802-94c8-4c4c-8167-0c96a59c489d","system_id":"levelo_inurba_marseille","lat":43.23947,"lon":5.36644,"is_reserved":false,"is_disabled":false,"rental_uris":{"android":"levelo://app?vid=cd55a802-94c8-4c4c-8167-0c96a59c489d","ios":"levelo://app?vid=cd55a802-94c8-4c4c-8167-0c96a59c489d"},"vehicle_type_id":"4","last_reported":1747210441,"current_range_meters":8800,"station_id":"ce4bhi12rcd13ifvqfp0","pricing_plan_id":"cebpf4jnsgd1na2vs0mg"},{"bike_id":"5ace8871-bb09-4bf7-8f6b-8146dc5f4d45","system_id":"levelo_inurba_marseille","lat":43.2749,"lon":5.42449,"is_reserved":false,"is_disabled":false,"rental_uris":{"android":"levelo://app?vid=5ace8871-bb09-4bf7-8f6b-8146dc5f4d45","ios":"levelo://app?vid=5ace8871-bb09-4bf7-8f6b-8146dc5f4d45"},"vehicle_type_id":"4","last_reported":1747210441,"current_range_meters":8800,"station_id":"ce4bhn92rcd13ifvqgrg","pricing_plan_id":"cebpf4jnsgd1na2vs0mg"},{"bike_id":"060d34f9-d5e7-4c03-bb96-9e6501866e6d","system_id":"levelo_inurba_marseille","lat":43.24073,"lon":5.37738,"is_reserved":false,"is_disabled":false,"rental_uris":{"android":"levelo://app?vid=060d34f9-d5e7-4c03-bb96-9e6501866e6d","ios":"levelo://app?vid=060d34f9-d5e7-4c03-bb96-9e6501866e6d"},"vehicle_type_id":"4","last_reported":1747210441,"current_range_meters":8800,"station_id":"ce4bhnp2rcd13ifvqgvg","pricing_plan_id":"cebpf4jnsgd1na2vs0mg"},{"bike_id":"ec24b1c4-11a4-4afc-95ac-ef4ecb10a799","system_id":"levelo_inurba_marseille","lat":43.309525,"lon":5.390392,"is_reserved":false,"is_disabled":false,"rental_uris":{"android":"levelo://app?vid=ec24b1c4-11a4-4afc-95ac-ef4ecb10a799","ios":"levelo://app?vid=ec24b1c4-11a4-4afc-95ac-ef4ecb10a799"},"vehicle_type_id":"4","last_reported":1747210441,"current_range_meters":9200,"station_id":"ce4bgup2rcd13ifvqco0","pricing_plan_id":"cebpf4jnsgd1na2vs0mg"},{"bike_id":"40ebb906-96ed-4bbe-980c-cfb4dd2406c0","system_id":"levelo_inurba_marseille","lat":43.33614,"lon":5.41034,"is_reserved":false,"is_disabled":false,"rental_uris":{"android":"levelo://app?vid=40ebb906-96ed-4bbe-980c-cfb4dd2406c0","ios":"levelo://app?vid=40ebb906-96ed-4bbe-980c-cfb4dd2406c0"},"vehicle_type_id":"4","last_reported":1747210441,"current_range_meters":9200,"station_id":"ce4bhqh2rcd13ifvqhmg","pricing_plan_id":"cebpf4jnsgd1na2vs0mg"},{"bike_id":"bae0709b-c933-441a-ab47-3aad58f66d78","system_id":"levelo_inurba_marseille","lat":43.21749,"lon":5.34596,"is_reserved":false,"is_disabled":false,"rental_uris":{"android":"levelo://app?vid=bae0709b-c933-441a-ab47-3aad58f66d78","ios":"levelo://app?vid=bae0709b-c933-441a-ab47-3aad58f66d78"},"vehicle_type_id":"4","last_reported":1747210441,"current_range_meters":9200,"station_id":"st_cvj6r9ubvosntc0bgbag","pricing_plan_id":"cebpf4jnsgd1na2vs0mg"},{"bike_id":"dae023f4-1a09-4bdc-adcb-7950f360c7f4","system_id":"levelo_inurba_marseille","lat":43.28934,"lon":5.39626,"is_reserved":false,"is_disabled":false,"rental_uris":{"android":"levelo://app?vid=dae023f4-1a09-4bdc-adcb-7950f360c7f4","ios":"levelo://app?vid=dae023f4-1a09-4bdc-adcb-7950f360c7f4"},"vehicle_type_id":"4","last_reported":1747210441,"current_range_meters":9600,"station_id":"ce4bh3h2rcd13ifvqdn0","pricing_plan_id":"cebpf4jnsgd1na2vs0mg"},{"bike_id":"054446bf-210e-4292-b624-3606464b59ab","system_id":"levelo_inurba_marseille","lat":43.24072,"lon":5.377642,"is_reserved":false,"is_disabled":false,"rental_uris":{"android":"levelo://app?vid=054446bf-210e-4292-b624-3606464b59ab","ios":"levelo://app?vid=054446bf-210e-4292-b624-3606464b59ab"},"vehicle_type_id":"4","last_reported":1747210441,"current_range_meters":9600,"station_id":"ce4bhnp2rcd13ifvqgvg","pricing_plan_id":"cebpf4jnsgd1na2vs0mg"},{"bike_id":"c6462f78-49f9-495d-a3fd-2afe139b99f8","system_id":"levelo_inurba_marseille","lat":43.24067,"lon":5.37756,"is_reserved":false,"is_disabled":false,"rental_uris":{"android":"levelo://app?vid=c6462f78-49f9-495d-a3fd-2afe139b99f8","ios":"levelo://app?vid=c6462f78-49f9-495d-a3fd-2afe139b99f8"},"vehicle_type_id":"4","last_reported":1747210441,"current_range_meters":9600,"station_id":"ce4bhnp2rcd13ifvqgvg","pricing_plan_id":"cebpf4jnsgd1na2vs0mg"},{"bike_id":"3e1f9958-030a-417b-9c1c-5a4380fe872b","system_id":"levelo_inurba_marseille","lat":43.24099,"lon":5.37708,"is_reserved":false,"is_disabled":false,"rental_uris":{"android":"levelo://app?vid=3e1f9958-030a-417b-9c1c-5a4380fe872b","ios":"levelo://app?vid=3e1f9958-030a-417b-9c1c-5a4380fe872b"},"vehicle_type_id":"4","last_reported":1747210441,"current_range_meters":10000,"station_id":"","pricing_plan_id":"cebpf4jnsgd1na2vs0mg"},{"bike_id":"f0461f09-2cb2-4b60-be17-9880adc6dc06","system_id":"levelo_inurba_marseille","lat":43.30903,"lon":5.3686,"is_reserved":false,"is_disabled":false,"rental_uris":{"android":"levelo://app?vid=f0461f09-2cb2-4b60-be17-9880adc6dc06","ios":"levelo://app?vid=f0461f09-2cb2-4b60-be17-9880adc6dc06"},"vehicle_type_id":"4","last_reported":1747210441,"current_range_meters":10000,"station_id":"ce4bgn92rcd13ifvqbvg","pricing_plan_id":"cebpf4jnsgd1na2vs0mg"},{"bike_id":"617fc2ab-9566-4b28-ad56-20bf63d0c56e","system_id":"levelo_inurba_marseille","lat":43.30907,"lon":5.3684,"is_reserved":false,"is_disabled":false,"rental_uris":{"android":"levelo://app?vid=617fc2ab-9566-4b28-ad56-20bf63d0c56e","ios":"levelo://app?vid=617fc2ab-9566-4b28-ad56-20bf63d0c56e"},"vehicle_type_id":"4","last_reported":1747210441,"current_range_meters":10000,"station_id":"ce4bgn92rcd13ifvqbvg","pricing_plan_id":"cebpf4jnsgd1na2vs0mg"},{"bike_id":"d559a899-b1bd-4a71-a12e-4458bcd0cdbf","system_id":"levelo_inurba_marseille","lat":43.23059,"lon":5.35496,"is_reserved":false,"is_disabled":false,"rental_uris":{"android":"levelo://app?vid=d559a899-b1bd-4a71-a12e-4458bcd0cdbf","ios":"levelo://app?vid=d559a899-b1bd-4a71-a12e-4458bcd0cdbf"},"vehicle_type_id":"4","last_reported":1747210441,"current_range_meters":10000,"station_id":"cpo3342slgdg3j2ifvpg","pricing_plan_id":"cebpf4jnsgd1na2vs0mg"},{"bike_id":"b9542280-8bc6-4363-85a2-2034fa467757","system_id":"levelo_inurba_marseille","lat":43.2669,"lon":5.38245,"is_reserved":false,"is_disabled":false,"rental_uris":{"android":"levelo://app?vid=b9542280-8bc6-4363-85a2-2034fa467757","ios":"levelo://app?vid=b9542280-8bc6-4363-85a2-2034fa467757"},"vehicle_type_id":"4","last_reported":1747210441,"current_range_meters":10800,"station_id":"ce4bhg92rcd13ifvqf90","pricing_plan_id":"cebpf4jnsgd1na2vs0mg"},{"bike_id":"6e43ed00-c8f2-48e4-ac42-601bc2e40964","system_id":"levelo_inurba_marseille","lat":43.24076,"lon":5.37759,"is_reserved":false,"is_disabled":false,"rental_uris":{"android":"levelo://app?vid=6e43ed00-c8f2-48e4-ac42-601bc2e40964","ios":"levelo://app?vid=6e43ed00-c8f2-48e4-ac42-601bc2e40964"},"vehicle_type_id":"4","last_reported":1747210441,"current_range_meters":10800,"station_id":"ce4bhnp2rcd13ifvqgvg","pricing_plan_id":"cebpf4jnsgd1na2vs0mg"},{"bike_id":"270881bb-493d-46ee-93cc-d771cc339cfc","system_id":"levelo_inurba_marseille","lat":43.24068,"lon":5.37763,"is_reserved":false,"is_disabled":false,"rental_uris":{"android":"levelo://app?vid=270881bb-493d-46ee-93cc-d771cc339cfc","ios":"levelo://app?vid=270881bb-493d-46ee-93cc-d771cc339cfc"},"vehicle_type_id":"4","last_reported":1747210441,"current_range_meters":10800,"station_id":"ce4bhnp2rcd13ifvqgvg","pricing_plan_id":"cebpf4jnsgd1na2vs0mg"},{"bike_id":"0a21c04b-7e92-4b4e-b501-588a33a1db31","system_id":"levelo_inurba_marseille","lat":43.240723,"lon":5.377602,"is_reserved":false,"is_disabled":false,"rental_uris":{"android":"levelo://app?vid=0a21c04b-7e92-4b4e-b501-588a33a1db31","ios":"levelo://app?vid=0a21c04b-7e92-4b4e-b501-588a33a1db31"},"vehicle_type_id":"4","last_reported":1747210441,"current_range_meters":10800,"station_id":"ce4bhnp2rcd13ifvqgvg","pricing_plan_id":"cebpf4jnsgd1na2vs0mg"},{"bike_id":"de1c15b0-29d0-4080-abf5-06f0e107f8bc","system_id":"levelo_inurba_marseille","lat":43.30886,"lon":5.37204,"is_reserved":false,"is_disabled":false,"rental_uris":{"android":"levelo://app?vid=de1c15b0-29d0-4080-abf5-06f0e107f8bc","ios":"levelo://app?vid=de1c15b0-29d0-4080-abf5-06f0e107f8bc"},"vehicle_type_id":"4","last_reported":1747210441,"current_range_meters":11200,"station_id":"ce4bguh2rcd13ifvqckg","pricing_plan_id":"cebpf4jnsgd1na2vs0mg"},{"bike_id":"649daa67-e34a-4a1a-9530-8817a87b903c","system_id":"levelo_inurba_marseille","lat":43.30457,"lon":5.37906,"is_reserved":false,"is_disabled":false,"rental_uris":{"android":"levelo://app?vid=649daa67-e34a-4a1a-9530-8817a87b903c","ios":"levelo://app?vid=649daa67-e34a-4a1a-9530-8817a87b903c"},"vehicle_type_id":"4","last_reported":1747210441,"current_range_meters":11200,"station_id":"ce4bgup2rcd13ifvqcn0","pricing_plan_id":"cebpf4jnsgd1na2vs0mg"},{"bike_id":"2d9c08c0-bf40-45c9-b1a8-d15c183a79bf","system_id":"levelo_inurba_marseille","lat":43.24179,"lon":5.39727,"is_reserved":false,"is_disabled":false,"rental_uris":{"android":"levelo://app?vid=2d9c08c0-bf40-45c9-b1a8-d15c183a79bf","ios":"levelo://app?vid=2d9c08c0-bf40-45c9-b1a8-d15c183a79bf"},"vehicle_type_id":"4","last_reported":1747210441,"current_range_meters":11200,"station_id":"ce4bhn12rcd13ifvqgpg","pricing_plan_id":"cebpf4jnsgd1na2vs0mg"},{"bike_id":"4821750a-72fd-4a71-957e-987850a371e2","system_id":"levelo_inurba_marseille","lat":43.30147,"lon":5.47619,"is_reserved":false,"is_disabled":false,"rental_uris":{"android":"levelo://app?vid=4821750a-72fd-4a71-957e-987850a371e2","ios":"levelo://app?vid=4821750a-72fd-4a71-957e-987850a371e2"},"vehicle_type_id":"4","last_reported":1747210441,"current_range_meters":11600,"station_id":"","pricing_plan_id":"cebpf4jnsgd1na2vs0mg"},{"bike_id":"9ca8a867-745b-4068-83ca-4791d1d5c1c1","system_id":"levelo_inurba_marseille","lat":43.27612,"lon":5.36109,"is_reserved":false,"is_disabled":false,"rental_uris":{"android":"levelo://app?vid=9ca8a867-745b-4068-83ca-4791d1d5c1c1","ios":"levelo://app?vid=9ca8a867-745b-4068-83ca-4791d1d5c1c1"},"vehicle_type_id":"4","last_reported":1747210441,"current_range_meters":11600,"station_id":"ce4bgj92rcd13ifvqbe0","pricing_plan_id":"cebpf4jnsgd1na2vs0mg"},{"bike_id":"80e2ea7f-511c-4555-b6e4-0b32fa4ec3f0","system_id":"levelo_inurba_marseille","lat":43.305333,"lon":5.365473,"is_reserved":false,"is_disabled":false,"rental_uris":{"android":"levelo://app?vid=80e2ea7f-511c-4555-b6e4-0b32fa4ec3f0","ios":"levelo://app?vid=80e2ea7f-511c-4555-b6e4-0b32fa4ec3f0"},"vehicle_type_id":"4","last_reported":1747210441,"current_range_meters":11600,"station_id":"ce4bgs12rcd13ifvqcag","pricing_plan_id":"cebpf4jnsgd1na2vs0mg"},{"bike_id":"2edeec15-fb41-4a3e-98e8-b686167de7e4","system_id":"levelo_inurba_marseille","lat":43.26674,"lon":5.38269,"is_reserved":false,"is_disabled":false,"rental_uris":{"android":"levelo://app?vid=2edeec15-fb41-4a3e-98e8-b686167de7e4","ios":"levelo://app?vid=2edeec15-fb41-4a3e-98e8-b686167de7e4"},"vehicle_type_id":"4","last_reported":1747210441,"current_range_meters":11600,"station_id":"ce4bhg92rcd13ifvqf90","pricing_plan_id":"cebpf4jnsgd1na2vs0mg"},{"bike_id":"f57e6f12-c038-4a7e-8f40-23ed2bed5616","system_id":"levelo_inurba_marseille","lat":43.30006,"lon":5.475804,"is_reserved":false,"is_disabled":false,"rental_uris":{"android":"levelo://app?vid=f57e6f12-c038-4a7e-8f40-23ed2bed5616","ios":"levelo://app?vid=f57e6f12-c038-4a7e-8f40-23ed2bed5616"},"vehicle_type_id":"4","last_reported":1747210441,"current_range_meters":12000,"station_id":"","pricing_plan_id":"cebpf4jnsgd1na2vs0mg"},{"bike_id":"f2e9feeb-5ae5-4679-ab00-18713e23a2bd","system_id":"levelo_inurba_marseille","lat":43.29905,"lon":5.37472,"is_reserved":false,"is_disabled":false,"rental_uris":{"android":"levelo://app?vid=f2e9feeb-5ae5-4679-ab00-18713e23a2bd","ios":"levelo://app?vid=f2e9feeb-5ae5-4679-ab00-18713e23a2bd"},"vehicle_type_id":"4","last_reported":1747210441,"current_range_meters":12000,"station_id":"ce4bgjh2rcd13ifvqbg0","pricing_plan_id":"cebpf4jnsgd1na2vs0mg"},{"bike_id":"940b3909-b6f0-4f89-adfd-175725c0aab3","system_id":"levelo_inurba_marseille","lat":43.25939,"lon":5.40913,"is_reserved":false,"is_disabled":false,"rental_uris":{"android":"levelo://app?vid=940b3909-b6f0-4f89-adfd-175725c0aab3","ios":"levelo://app?vid=940b3909-b6f0-4f89-adfd-175725c0aab3"},"vehicle_type_id":"4","last_reported":1747210441,"current_range_meters":12000,"station_id":"ce4bhm92rcd13ifvqglg","pricing_plan_id":"cebpf4jnsgd1na2vs0mg"},{"bike_id":"df677f49-53b7-4097-ab77-6e24d1bf0519","system_id":"levelo_inurba_marseille","lat":43.2421,"lon":5.39701,"is_reserved":false,"is_disabled":false,"rental_uris":{"android":"levelo://app?vid=df677f49-53b7-4097-ab77-6e24d1bf0519","ios":"levelo://app?vid=df677f49-53b7-4097-ab77-6e24d1bf0519"},"vehicle_type_id":"4","last_reported":1747210441,"current_range_meters":12000,"station_id":"ce4bhn12rcd13ifvqgpg","pricing_plan_id":"cebpf4jnsgd1na2vs0mg"},{"bike_id":"7395c0f9-eb26-4cbc-9f9b-9c1edf7364f4","system_id":"levelo_inurba_marseille","lat":43.32962,"lon":5.40553,"is_reserved":false,"is_disabled":false,"rental_uris":{"android":"levelo://app?vid=7395c0f9-eb26-4cbc-9f9b-9c1edf7364f4","ios":"levelo://app?vid=7395c0f9-eb26-4cbc-9f9b-9c1edf7364f4"},"vehicle_type_id":"4","last_reported":1747210441,"current_range_meters":12400,"station_id":"","pricing_plan_id":"cebpf4jnsgd1na2vs0mg"},{"bike_id":"301a3a6f-3f8e-4707-9290-d6655e615c25","system_id":"levelo_inurba_marseille","lat":43.31712,"lon":5.42412,"is_reserved":false,"is_disabled":false,"rental_uris":{"android":"levelo://app?vid=301a3a6f-3f8e-4707-9290-d6655e615c25","ios":"levelo://app?vid=301a3a6f-3f8e-4707-9290-d6655e615c25"},"vehicle_type_id":"4","last_reported":1747210441,"current_range_meters":12400,"station_id":"ce4bhp92rcd13ifvqhbg","pricing_plan_id":"cebpf4jnsgd1na2vs0mg"},{"bike_id":"40115fd5-f59f-4b0c-9552-a95b14ed5e7f","system_id":"levelo_inurba_marseille","lat":43.30904,"lon":5.36851,"is_reserved":false,"is_disabled":false,"rental_uris":{"android":"levelo://app?vid=40115fd5-f59f-4b0c-9552-a95b14ed5e7f","ios":"levelo://app?vid=40115fd5-f59f-4b0c-9552-a95b14ed5e7f"},"vehicle_type_id":"4","last_reported":1747210441,"current_range_meters":12800,"station_id":"ce4bgn92rcd13ifvqbvg","pricing_plan_id":"cebpf4jnsgd1na2vs0mg"},{"bike_id":"dfb423ca-5aff-49db-9e19-40444dccc9a2","system_id":"levelo_inurba_marseille","lat":43.30906,"lon":5.36816,"is_reserved":false,"is_disabled":false,"rental_uris":{"android":"levelo://app?vid=dfb423ca-5aff-49db-9e19-40444dccc9a2","ios":"levelo://app?vid=dfb423ca-5aff-49db-9e19-40444dccc9a2"},"vehicle_type_id":"4","last_reported":1747210441,"current_range_meters":12800,"station_id":"ce4bgn92rcd13ifvqbvg","pricing_plan_id":"cebpf4jnsgd1na2vs0mg"},{"bike_id":"de28940e-d6b8-44db-8fe1-1b7a6f6070e1","system_id":"levelo_inurba_marseille","lat":43.29296,"lon":5.37456,"is_reserved":false,"is_disabled":false,"rental_uris":{"android":"levelo://app?vid=de28940e-d6b8-44db-8fe1-1b7a6f6070e1","ios":"levelo://app?vid=de28940e-d6b8-44db-8fe1-1b7a6f6070e1"},"vehicle_type_id":"4","last_reported":1747210441,"current_range_meters":13600,"station_id":"ce4bgi12rcd13ifvqb70","pricing_plan_id":"cebpf4jnsgd1na2vs0mg"},{"bike_id":"901936a9-a0dd-47e5-9e42-50c25f429838","system_id":"levelo_inurba_marseille","lat":43.30463,"lon":5.37906,"is_reserved":false,"is_disabled":false,"rental_uris":{"android":"levelo://app?vid=901936a9-a0dd-47e5-9e42-50c25f429838","ios":"levelo://app?vid=901936a9-a0dd-47e5-9e42-50c25f429838"},"vehicle_type_id":"4","last_reported":1747210441,"current_range_meters":13600,"station_id":"ce4bgup2rcd13ifvqcn0","pricing_plan_id":"cebpf4jnsgd1na2vs0mg"},{"bike_id":"b1b4324e-83da-4d38-b603-3d73a632b83d","system_id":"levelo_inurba_marseille","lat":43.29255,"lon":5.40909,"is_reserved":false,"is_disabled":false,"rental_uris":{"android":"levelo://app?vid=b1b4324e-83da-4d38-b603-3d73a632b83d","ios":"levelo://app?vid=b1b4324e-83da-4d38-b603-3d73a632b83d"},"vehicle_type_id":"4","last_reported":1747210441,"current_range_meters":13600,"station_id":"ce4bh192rcd13ifvqdc0","pricing_plan_id":"cebpf4jnsgd1na2vs0mg"},{"bike_id":"2b3a8060-342b-401e-84c6-fd31470f7e7f","system_id":"levelo_inurba_marseille","lat":43.2872,"lon":5.3794,"is_reserved":false,"is_disabled":false,"rental_uris":{"android":"levelo://app?vid=2b3a8060-342b-401e-84c6-fd31470f7e7f","ios":"levelo://app?vid=2b3a8060-342b-401e-84c6-fd31470f7e7f"},"vehicle_type_id":"4","last_reported":1747210441,"current_range_meters":13600,"station_id":"ce4bh9p2rcd13ifvqec0","pricing_plan_id":"cebpf4jnsgd1na2vs0mg"},{"bike_id":"613bf967-43a3-4eda-a10a-b519647e6be7","system_id":"levelo_inurba_marseille","lat":43.27969,"lon":5.3874,"is_reserved":false,"is_disabled":false,"rental_uris":{"android":"levelo://app?vid=613bf967-43a3-4eda-a10a-b519647e6be7","ios":"levelo://app?vid=613bf967-43a3-4eda-a10a-b519647e6be7"},"vehicle_type_id":"4","last_reported":1747210441,"current_range_meters":13600,"station_id":"ce4bhg12rcd13ifvqf80","pricing_plan_id":"cebpf4jnsgd1na2vs0mg"},{"bike_id":"0c893fb7-8626-4706-85bf-f404b871dea5","system_id":"levelo_inurba_marseille","lat":43.28156,"lon":5.44587,"is_reserved":false,"is_disabled":false,"rental_uris":{"android":"levelo://app?vid=0c893fb7-8626-4706-85bf-f404b871dea5","ios":"levelo://app?vid=0c893fb7-8626-4706-85bf-f404b871dea5"},"vehicle_type_id":"4","last_reported":1747210441,"current_range_meters":14000,"station_id":"","pricing_plan_id":"cebpf4jnsgd1na2vs0mg"},{"bike_id":"09106934-b694-4f2b-b5b1-cb29ce28fa5e","system_id":"levelo_inurba_marseille","lat":43.30148,"lon":5.380737,"is_reserved":false,"is_disabled":false,"rental_uris":{"android":"levelo://app?vid=09106934-b694-4f2b-b5b1-cb29ce28fa5e","ios":"levelo://app?vid=09106934-b694-4f2b-b5b1-cb29ce28fa5e"},"vehicle_type_id":"4","last_reported":1747210441,"current_range_meters":14000,"station_id":"ce4bgjp2rcd13ifvqbh0","pricing_plan_id":"cebpf4jnsgd1na2vs0mg"},{"bike_id":"356eb65b-4211-494a-b4a2-fba28f60c55b","system_id":"levelo_inurba_marseille","lat":43.31266,"lon":5.40163,"is_reserved":false,"is_disabled":false,"rental_uris":{"android":"levelo://app?vid=356eb65b-4211-494a-b4a2-fba28f60c55b","ios":"levelo://app?vid=356eb65b-4211-494a-b4a2-fba28f60c55b"},"vehicle_type_id":"4","last_reported":1747210441,"current_range_meters":14000,"station_id":"ce4bh092rcd13ifvqd30","pricing_plan_id":"cebpf4jnsgd1na2vs0mg"},{"bike_id":"df6ae9e5-49bf-4a9a-94d3-2e740ae73492","system_id":"levelo_inurba_marseille","lat":43.24072,"lon":5.377545,"is_reserved":false,"is_disabled":false,"rental_uris":{"android":"levelo://app?vid=df6ae9e5-49bf-4a9a-94d3-2e740ae73492","ios":"levelo://app?vid=df6ae9e5-49bf-4a9a-94d3-2e740ae73492"},"vehicle_type_id":"4","last_reported":1747210441,"current_range_meters":14000,"station_id":"ce4bhnp2rcd13ifvqgvg","pricing_plan_id":"cebpf4jnsgd1na2vs0mg"},{"bike_id":"1e297e0e-a907-489c-9a22-1dfb89bfb64f","system_id":"levelo_inurba_marseille","lat":43.29234,"lon":5.36428,"is_reserved":false,"is_disabled":false,"rental_uris":{"android":"levelo://app?vid=1e297e0e-a907-489c-9a22-1dfb89bfb64f","ios":"levelo://app?vid=1e297e0e-a907-489c-9a22-1dfb89bfb64f"},"vehicle_type_id":"4","last_reported":1747210441,"current_range_meters":14400,"station_id":"","pricing_plan_id":"cebpf4jnsgd1na2vs0mg"},{"bike_id":"dae0a337-4ba6-4508-ab15-615a24906a40","system_id":"levelo_inurba_marseille","lat":43.29526,"lon":5.375,"is_reserved":false,"is_disabled":false,"rental_uris":{"android":"levelo://app?vid=dae0a337-4ba6-4508-ab15-615a24906a40","ios":"levelo://app?vid=dae0a337-4ba6-4508-ab15-615a24906a40"},"vehicle_type_id":"4","last_reported":1747210441,"current_range_meters":14400,"station_id":"ce4bgkp2rcd13ifvqbmg","pricing_plan_id":"cebpf4jnsgd1na2vs0mg"},{"bike_id":"1dffea47-932b-472d-a926-7c8a262923fb","system_id":"levelo_inurba_marseille","lat":43.25912,"lon":5.40878,"is_reserved":false,"is_disabled":false,"rental_uris":{"android":"levelo://app?vid=1dffea47-932b-472d-a926-7c8a262923fb","ios":"levelo://app?vid=1dffea47-932b-472d-a926-7c8a262923fb"},"vehicle_type_id":"4","last_reported":1747210441,"current_range_meters":14400,"station_id":"ce4bhm92rcd13ifvqglg","pricing_plan_id":"cebpf4jnsgd1na2vs0mg"},{"bike_id":"933a352f-83ca-44fa-889d-ce26d3a2d8bb","system_id":"levelo_inurba_marseille","lat":43.25939,"lon":5.409,"is_reserved":false,"is_disabled":false,"rental_uris":{"android":"levelo://app?vid=933a352f-83ca-44fa-889d-ce26d3a2d8bb","ios":"levelo://app?vid=933a352f-83ca-44fa-889d-ce26d3a2d8bb"},"vehicle_type_id":"4","last_reported":1747210441,"current_range_meters":14400,"station_id":"ce4bhm92rcd13ifvqglg","pricing_plan_id":"cebpf4jnsgd1na2vs0mg"},{"bike_id":"347e5e78-d17e-451a-afb3-99f551ddc7d8","system_id":"levelo_inurba_marseille","lat":43.30429,"lon":5.38883,"is_reserved":false,"is_disabled":false,"rental_uris":{"android":"levelo://app?vid=347e5e78-d17e-451a-afb3-99f551ddc7d8","ios":"levelo://app?vid=347e5e78-d17e-451a-afb3-99f551ddc7d8"},"vehicle_type_id":"4","last_reported":1747210441,"current_range_meters":14800,"station_id":"ce4bgk12rcd13ifvqbi0","pricing_plan_id":"cebpf4jnsgd1na2vs0mg"},{"bike_id":"2c1fdc34-e4b4-4f8a-bc39-aaf37032785d","system_id":"levelo_inurba_marseille","lat":43.3095,"lon":5.39031,"is_reserved":false,"is_disabled":false,"rental_uris":{"android":"levelo://app?vid=2c1fdc34-e4b4-4f8a-bc39-aaf37032785d","ios":"levelo://app?vid=2c1fdc34-e4b4-4f8a-bc39-aaf37032785d"},"vehicle_type_id":"4","last_reported":1747210441,"current_range_meters":14800,"station_id":"ce4bgup2rcd13ifvqco0","pricing_plan_id":"cebpf4jnsgd1na2vs0mg"},{"bike_id":"870315f0-4224-4c46-aef0-9cf69bde059b","system_id":"levelo_inurba_marseille","lat":43.309661,"lon":5.390327,"is_reserved":false,"is_disabled":false,"rental_uris":{"android":"levelo://app?vid=870315f0-4224-4c46-aef0-9cf69bde059b","ios":"levelo://app?vid=870315f0-4224-4c46-aef0-9cf69bde059b"},"vehicle_type_id":"4","last_reported":1747210441,"current_range_meters":14800,"station_id":"ce4bgup2rcd13ifvqco0","pricing_plan_id":"cebpf4jnsgd1na2vs0mg"},{"bike_id":"9e7f87c4-40df-4f9d-b3a9-5b7683bb4836","system_id":"levelo_inurba_marseille","lat":43.306593,"lon":5.400933,"is_reserved":false,"is_disabled":false,"rental_uris":{"android":"levelo://app?vid=9e7f87c4-40df-4f9d-b3a9-5b7683bb4836","ios":"levelo://app?vid=9e7f87c4-40df-4f9d-b3a9-5b7683bb4836"},"vehicle_type_id":"4","last_reported":1747210441,"current_range_meters":14800,"station_id":"ce4bh112rcd13ifvqda0","pricing_plan_id":"cebpf4jnsgd1na2vs0mg"},{"bike_id":"106a5639-2483-40da-bf5c-f5cc0639e4f0","system_id":"levelo_inurba_marseille","lat":43.3228,"lon":5.38276,"is_reserved":false,"is_disabled":false,"rental_uris":{"android":"levelo://app?vid=106a5639-2483-40da-bf5c-f5cc0639e4f0","ios":"levelo://app?vid=106a5639-2483-40da-bf5c-f5cc0639e4f0"},"vehicle_type_id":"4","last_reported":1747210441,"current_range_meters":14800,"station_id":"ce4bhr12rcd13ifvqhqg","pricing_plan_id":"cebpf4jnsgd1na2vs0mg"},{"bike_id":"0ee57cd3-b290-46af-a35a-6f306772e452","system_id":"levelo_inurba_marseille","lat":43.30662,"lon":5.40273,"is_reserved":false,"is_disabled":false,"rental_uris":{"android":"levelo://app?vid=0ee57cd3-b290-46af-a35a-6f306772e452","ios":"levelo://app?vid=0ee57cd3-b290-46af-a35a-6f306772e452"},"vehicle_type_id":"4","last_reported":1747210441,"current_range_meters":15200,"station_id":"","pricing_plan_id":"cebpf4jnsgd1na2vs0mg"},{"bike_id":"52542ef2-ae0c-4b90-b804-8e8d66916645","system_id":"levelo_inurba_marseille","lat":43.29619,"lon":5.3716,"is_reserved":false,"is_disabled":false,"rental_uris":{"android":"levelo://app?vid=52542ef2-ae0c-4b90-b804-8e8d66916645","ios":"levelo://app?vid=52542ef2-ae0c-4b90-b804-8e8d66916645"},"vehicle_type_id":"4","last_reported":1747210441,"current_range_meters":15200,"station_id":"ce4bgnh2rcd13ifvqc0g","pricing_plan_id":"cebpf4jnsgd1na2vs0mg"},{"bike_id":"ffe53d02-a538-4c1a-9a5c-588c2097d334","system_id":"levelo_inurba_marseille","lat":43.22929,"lon":5.35374,"is_reserved":false,"is_disabled":false,"rental_uris":{"android":"levelo://app?vid=ffe53d02-a538-4c1a-9a5c-588c2097d334","ios":"levelo://app?vid=ffe53d02-a538-4c1a-9a5c-588c2097d334"},"vehicle_type_id":"4","last_reported":1747210441,"current_range_meters":15200,"station_id":"cpo3532slgdg3j2ikp40","pricing_plan_id":"cebpf4jnsgd1na2vs0mg"},{"bike_id":"043f532c-998c-419c-b049-5858acd79f09","system_id":"levelo_inurba_marseille","lat":43.29567,"lon":5.37521,"is_reserved":false,"is_disabled":false,"rental_uris":{"android":"levelo://app?vid=043f532c-998c-419c-b049-5858acd79f09","ios":"levelo://app?vid=043f532c-998c-419c-b049-5858acd79f09"},"vehicle_type_id":"4","last_reported":1747210441,"current_range_meters":16000,"station_id":"ce4bgh92rcd13ifvqb50","pricing_plan_id":"cebpf4jnsgd1na2vs0mg"},{"bike_id":"25567ce1-c078-49e7-a36f-34d198e28a6e","system_id":"levelo_inurba_marseille","lat":43.29796,"lon":5.38109,"is_reserved":false,"is_disabled":false,"rental_uris":{"android":"levelo://app?vid=25567ce1-c078-49e7-a36f-34d198e28a6e","ios":"levelo://app?vid=25567ce1-c078-49e7-a36f-34d198e28a6e"},"vehicle_type_id":"4","last_reported":1747210441,"current_range_meters":16000,"station_id":"ce4bgip2rcd13ifvqbb0","pricing_plan_id":"cebpf4jnsgd1na2vs0mg"},{"bike_id":"c78c4795-9d0c-4415-a726-b98bb5888c80","system_id":"levelo_inurba_marseille","lat":43.26957,"lon":5.38636,"is_reserved":false,"is_disabled":false,"rental_uris":{"android":"levelo://app?vid=c78c4795-9d0c-4415-a726-b98bb5888c80","ios":"levelo://app?vid=c78c4795-9d0c-4415-a726-b98bb5888c80"},"vehicle_type_id":"4","last_reported":1747210441,"current_range_meters":16000,"station_id":"ce4bhh92rcd13ifvqfh0","pricing_plan_id":"cebpf4jnsgd1na2vs0mg"},{"bike_id":"4a888f2e-03ba-4d13-80d2-8887648be561","system_id":"levelo_inurba_marseille","lat":43.24071,"lon":5.37768,"is_reserved":false,"is_disabled":false,"rental_uris":{"android":"levelo://app?vid=4a888f2e-03ba-4d13-80d2-8887648be561","ios":"levelo://app?vid=4a888f2e-03ba-4d13-80d2-8887648be561"},"vehicle_type_id":"4","last_reported":1747210441,"current_range_meters":16000,"station_id":"ce4bhnp2rcd13ifvqgvg","pricing_plan_id":"cebpf4jnsgd1na2vs0mg"},{"bike_id":"6929f3c3-92ae-464b-a509-e98b6afdffd1","system_id":"levelo_inurba_marseille","lat":43.318106,"lon":5.409738,"is_reserved":false,"is_disabled":false,"rental_uris":{"android":"levelo://app?vid=6929f3c3-92ae-464b-a509-e98b6afdffd1","ios":"levelo://app?vid=6929f3c3-92ae-464b-a509-e98b6afdffd1"},"vehicle_type_id":"4","last_reported":1747210441,"current_range_meters":16000,"station_id":"ce4bhqh2rcd13ifvqhmg","pricing_plan_id":"cebpf4jnsgd1na2vs0mg"},{"bike_id":"7a906d5d-d156-472a-a645-d2ee30c1fbc8","system_id":"levelo_inurba_marseille","lat":43.33609,"lon":5.41028,"is_reserved":false,"is_disabled":false,"rental_uris":{"android":"levelo://app?vid=7a906d5d-d156-472a-a645-d2ee30c1fbc8","ios":"levelo://app?vid=7a906d5d-d156-472a-a645-d2ee30c1fbc8"},"vehicle_type_id":"4","last_reported":1747210441,"current_range_meters":16000,"station_id":"ce4bhqh2rcd13ifvqhmg","pricing_plan_id":"cebpf4jnsgd1na2vs0mg"},{"bike_id":"79551c89-5000-4c4f-9697-71b8d28a3132","system_id":"levelo_inurba_marseille","lat":43.31342,"lon":5.36723,"is_reserved":false,"is_disabled":false,"rental_uris":{"android":"levelo://app?vid=79551c89-5000-4c4f-9697-71b8d28a3132","ios":"levelo://app?vid=79551c89-5000-4c4f-9697-71b8d28a3132"},"vehicle_type_id":"4","last_reported":1747210441,"current_range_meters":16400,"station_id":"ce4bgr92rcd13ifvqc6g","pricing_plan_id":"cebpf4jnsgd1na2vs0mg"},{"bike_id":"3c855199-68ef-4b73-91c5-9c5620ddd198","system_id":"levelo_inurba_marseille","lat":43.31379,"lon":5.36701,"is_reserved":false,"is_disabled":false,"rental_uris":{"android":"levelo://app?vid=3c855199-68ef-4b73-91c5-9c5620ddd198","ios":"levelo://app?vid=3c855199-68ef-4b73-91c5-9c5620ddd198"},"vehicle_type_id":"4","last_reported":1747210441,"current_range_meters":16400,"station_id":"ce4bgr92rcd13ifvqc6g","pricing_plan_id":"cebpf4jnsgd1na2vs0mg"},{"bike_id":"a09ad32e-8a3c-4dfa-88b0-0fb80cc0e9ed","system_id":"levelo_inurba_marseille","lat":43.240687,"lon":5.377579,"is_reserved":false,"is_disabled":false,"rental_uris":{"android":"levelo://app?vid=a09ad32e-8a3c-4dfa-88b0-0fb80cc0e9ed","ios":"levelo://app?vid=a09ad32e-8a3c-4dfa-88b0-0fb80cc0e9ed"},"vehicle_type_id":"4","last_reported":1747210441,"current_range_meters":16400,"station_id":"ce4bhnp2rcd13ifvqgvg","pricing_plan_id":"cebpf4jnsgd1na2vs0mg"},{"bike_id":"c5a6038e-e242-4c42-a6da-186787771b16","system_id":"levelo_inurba_marseille","lat":43.21755,"lon":5.3461,"is_reserved":false,"is_disabled":false,"rental_uris":{"android":"levelo://app?vid=c5a6038e-e242-4c42-a6da-186787771b16","ios":"levelo://app?vid=c5a6038e-e242-4c42-a6da-186787771b16"},"vehicle_type_id":"4","last_reported":1747210441,"current_range_meters":16400,"station_id":"st_cvj6r9ubvosntc0bgbag","pricing_plan_id":"cebpf4jnsgd1na2vs0mg"},{"bike_id":"a52df9bb-5083-476e-9aec-565eeaca263f","system_id":"levelo_inurba_marseille","lat":43.29911,"lon":5.37483,"is_reserved":false,"is_disabled":false,"rental_uris":{"android":"levelo://app?vid=a52df9bb-5083-476e-9aec-565eeaca263f","ios":"levelo://app?vid=a52df9bb-5083-476e-9aec-565eeaca263f"},"vehicle_type_id":"4","last_reported":1747210441,"current_range_meters":16800,"station_id":"ce4bgjh2rcd13ifvqbg0","pricing_plan_id":"cebpf4jnsgd1na2vs0mg"},{"bike_id":"947fe853-7e8c-477f-98cf-a5cd9420798f","system_id":"levelo_inurba_marseille","lat":43.30954,"lon":5.39034,"is_reserved":false,"is_disabled":false,"rental_uris":{"android":"levelo://app?vid=947fe853-7e8c-477f-98cf-a5cd9420798f","ios":"levelo://app?vid=947fe853-7e8c-477f-98cf-a5cd9420798f"},"vehicle_type_id":"4","last_reported":1747210441,"current_range_meters":16800,"station_id":"ce4bgup2rcd13ifvqco0","pricing_plan_id":"cebpf4jnsgd1na2vs0mg"},{"bike_id":"e02fc456-0a6f-4e62-8dcb-57315e2490b3","system_id":"levelo_inurba_marseille","lat":43.27557,"lon":5.38425,"is_reserved":false,"is_disabled":false,"rental_uris":{"android":"levelo://app?vid=e02fc456-0a6f-4e62-8dcb-57315e2490b3","ios":"levelo://app?vid=e02fc456-0a6f-4e62-8dcb-57315e2490b3"},"vehicle_type_id":"4","last_reported":1747210441,"current_range_meters":16800,"station_id":"ce4bhh92rcd13ifvqfi0","pricing_plan_id":"cebpf4jnsgd1na2vs0mg"},{"bike_id":"5e794677-7be6-46d4-b252-ad01dc1dd61b","system_id":"levelo_inurba_marseille","lat":43.24386,"lon":5.3705,"is_reserved":false,"is_disabled":false,"rental_uris":{"android":"levelo://app?vid=5e794677-7be6-46d4-b252-ad01dc1dd61b","ios":"levelo://app?vid=5e794677-7be6-46d4-b252-ad01dc1dd61b"},"vehicle_type_id":"4","last_reported":1747210441,"current_range_meters":16800,"station_id":"ce4bhhh2rcd13ifvqfk0","pricing_plan_id":"cebpf4jnsgd1na2vs0mg"},{"bike_id":"f3bfff58-72f4-441a-b27d-a8893c5bfaa4","system_id":"levelo_inurba_marseille","lat":43.25823,"lon":5.39435,"is_reserved":false,"is_disabled":false,"rental_uris":{"android":"levelo://app?vid=f3bfff58-72f4-441a-b27d-a8893c5bfaa4","ios":"levelo://app?vid=f3bfff58-72f4-441a-b27d-a8893c5bfaa4"},"vehicle_type_id":"4","last_reported":1747210441,"current_range_meters":16800,"station_id":"ce4bhip2rcd13ifvqft0","pricing_plan_id":"cebpf4jnsgd1na2vs0mg"},{"bike_id":"43f36786-bb88-4cd7-9c95-15e1194aaa7b","system_id":"levelo_inurba_marseille","lat":43.23176,"lon":5.39984,"is_reserved":false,"is_disabled":false,"rental_uris":{"android":"levelo://app?vid=43f36786-bb88-4cd7-9c95-15e1194aaa7b","ios":"levelo://app?vid=43f36786-bb88-4cd7-9c95-15e1194aaa7b"},"vehicle_type_id":"4","last_reported":1747210441,"current_range_meters":16800,"station_id":"ce4bhn12rcd13ifvqgqg","pricing_plan_id":"cebpf4jnsgd1na2vs0mg"},{"bike_id":"3688351a-e7ae-46e1-86bf-36b7470cfece","system_id":"levelo_inurba_marseille","lat":43.304175,"lon":5.412853,"is_reserved":false,"is_disabled":false,"rental_uris":{"android":"levelo://app?vid=3688351a-e7ae-46e1-86bf-36b7470cfece","ios":"levelo://app?vid=3688351a-e7ae-46e1-86bf-36b7470cfece"},"vehicle_type_id":"4","last_reported":1747210441,"current_range_meters":16800,"station_id":"ce4bhop2rcd13ifvqh8g","pricing_plan_id":"cebpf4jnsgd1na2vs0mg"},{"bike_id":"ff1db232-3636-475c-b6d9-7d039adf5acc","system_id":"levelo_inurba_marseille","lat":43.245244,"lon":5.37301,"is_reserved":false,"is_disabled":false,"rental_uris":{"android":"levelo://app?vid=ff1db232-3636-475c-b6d9-7d039adf5acc","ios":"levelo://app?vid=ff1db232-3636-475c-b6d9-7d039adf5acc"},"vehicle_type_id":"4","last_reported":1747210441,"current_range_meters":17200,"station_id":"ce4bgs92rcd13ifvqcc0","pricing_plan_id":"cebpf4jnsgd1na2vs0mg"},{"bike_id":"3cde4121-a0c3-4b9c-94b3-9776ce845927","system_id":"levelo_inurba_marseille","lat":43.30276,"lon":5.37713,"is_reserved":false,"is_disabled":false,"rental_uris":{"android":"levelo://app?vid=3cde4121-a0c3-4b9c-94b3-9776ce845927","ios":"levelo://app?vid=3cde4121-a0c3-4b9c-94b3-9776ce845927"},"vehicle_type_id":"4","last_reported":1747210441,"current_range_meters":17200,"station_id":"ce4bguh2rcd13ifvqcj0","pricing_plan_id":"cebpf4jnsgd1na2vs0mg"},{"bike_id":"85904b6f-fc02-4f7c-a526-60b5d8a99225","system_id":"levelo_inurba_marseille","lat":43.309434,"lon":5.390272,"is_reserved":false,"is_disabled":false,"rental_uris":{"android":"levelo://app?vid=85904b6f-fc02-4f7c-a526-60b5d8a99225","ios":"levelo://app?vid=85904b6f-fc02-4f7c-a526-60b5d8a99225"},"vehicle_type_id":"4","last_reported":1747210441,"current_range_meters":17200,"station_id":"ce4bgup2rcd13ifvqco0","pricing_plan_id":"cebpf4jnsgd1na2vs0mg"},{"bike_id":"94fc09e4-55fe-451c-9095-d6783f6fbc8e","system_id":"levelo_inurba_marseille","lat":43.26682,"lon":5.38268,"is_reserved":false,"is_disabled":false,"rental_uris":{"android":"levelo://app?vid=94fc09e4-55fe-451c-9095-d6783f6fbc8e","ios":"levelo://app?vid=94fc09e4-55fe-451c-9095-d6783f6fbc8e"},"vehicle_type_id":"4","last_reported":1747210441,"current_range_meters":17200,"station_id":"ce4bhg92rcd13ifvqf90","pricing_plan_id":"cebpf4jnsgd1na2vs0mg"},{"bike_id":"3dbbdd29-a567-4b65-aeb8-782aaa6b395c","system_id":"levelo_inurba_marseille","lat":43.2593,"lon":5.408957,"is_reserved":false,"is_disabled":false,"rental_uris":{"android":"levelo://app?vid=3dbbdd29-a567-4b65-aeb8-782aaa6b395c","ios":"levelo://app?vid=3dbbdd29-a567-4b65-aeb8-782aaa6b395c"},"vehicle_type_id":"4","last_reported":1747210441,"current_range_meters":17200,"station_id":"ce4bhm92rcd13ifvqglg","pricing_plan_id":"cebpf4jnsgd1na2vs0mg"},{"bike_id":"69757105-9188-4d0d-87fa-3cb5b4a9e6c7","system_id":"levelo_inurba_marseille","lat":43.23148,"lon":5.43715,"is_reserved":false,"is_disabled":false,"rental_uris":{"android":"levelo://app?vid=69757105-9188-4d0d-87fa-3cb5b4a9e6c7","ios":"levelo://app?vid=69757105-9188-4d0d-87fa-3cb5b4a9e6c7"},"vehicle_type_id":"4","last_reported":1747210441,"current_range_meters":17200,"station_id":"ce4bhmp2rcd13ifvqgog","pricing_plan_id":"cebpf4jnsgd1na2vs0mg"},{"bike_id":"5b2bf2cc-e79c-4a99-a91f-20d49657d90b","system_id":"levelo_inurba_marseille","lat":43.2418,"lon":5.39736,"is_reserved":false,"is_disabled":false,"rental_uris":{"android":"levelo://app?vid=5b2bf2cc-e79c-4a99-a91f-20d49657d90b","ios":"levelo://app?vid=5b2bf2cc-e79c-4a99-a91f-20d49657d90b"},"vehicle_type_id":"4","last_reported":1747210441,"current_range_meters":17200,"station_id":"ce4bhn12rcd13ifvqgpg","pricing_plan_id":"cebpf4jnsgd1na2vs0mg"},{"bike_id":"c31e5abf-211d-43ee-bd94-73969be1843c","system_id":"levelo_inurba_marseille","lat":43.33611,"lon":5.41026,"is_reserved":false,"is_disabled":false,"rental_uris":{"android":"levelo://app?vid=c31e5abf-211d-43ee-bd94-73969be1843c","ios":"levelo://app?vid=c31e5abf-211d-43ee-bd94-73969be1843c"},"vehicle_type_id":"4","last_reported":1747210441,"current_range_meters":17200,"station_id":"ce4bhqh2rcd13ifvqhmg","pricing_plan_id":"cebpf4jnsgd1na2vs0mg"},{"bike_id":"bf7c062a-919e-4c12-b4f5-03150c3a5554","system_id":"levelo_inurba_marseille","lat":43.33724,"lon":5.39187,"is_reserved":false,"is_disabled":false,"rental_uris":{"android":"levelo://app?vid=bf7c062a-919e-4c12-b4f5-03150c3a5554","ios":"levelo://app?vid=bf7c062a-919e-4c12-b4f5-03150c3a5554"},"vehicle_type_id":"4","last_reported":1747210441,"current_range_meters":17200,"station_id":"ce4bhr92rcd13ifvqhsg","pricing_plan_id":"cebpf4jnsgd1na2vs0mg"},{"bike_id":"c77744cd-dd85-473a-952b-e9873b6afa4f","system_id":"levelo_inurba_marseille","lat":43.33231,"lon":5.40419,"is_reserved":false,"is_disabled":false,"rental_uris":{"android":"levelo://app?vid=c77744cd-dd85-473a-952b-e9873b6afa4f","ios":"levelo://app?vid=c77744cd-dd85-473a-952b-e9873b6afa4f"},"vehicle_type_id":"4","last_reported":1747210441,"current_range_meters":17600,"station_id":"","pricing_plan_id":"cebpf4jnsgd1na2vs0mg"},{"bike_id":"d74dda0c-2ae8-4a20-aee3-80ba3b692d64","system_id":"levelo_inurba_marseille","lat":43.304764,"lon":5.371852,"is_reserved":false,"is_disabled":false,"rental_uris":{"android":"levelo://app?vid=d74dda0c-2ae8-4a20-aee3-80ba3b692d64","ios":"levelo://app?vid=d74dda0c-2ae8-4a20-aee3-80ba3b692d64"},"vehicle_type_id":"4","last_reported":1747210441,"current_range_meters":17600,"station_id":"","pricing_plan_id":"cebpf4jnsgd1na2vs0mg"},{"bike_id":"8c882482-d271-420f-a4e9-831677c3410a","system_id":"levelo_inurba_marseille","lat":43.30534,"lon":5.3671,"is_reserved":false,"is_disabled":false,"rental_uris":{"android":"levelo://app?vid=8c882482-d271-420f-a4e9-831677c3410a","ios":"levelo://app?vid=8c882482-d271-420f-a4e9-831677c3410a"},"vehicle_type_id":"4","last_reported":1747210441,"current_range_meters":17600,"station_id":"ce4bgrp2rcd13ifvqc9g","pricing_plan_id":"cebpf4jnsgd1na2vs0mg"},{"bike_id":"6ecc99c8-b65b-4df5-ba19-f6978c22db4e","system_id":"levelo_inurba_marseille","lat":43.30873,"lon":5.37196,"is_reserved":false,"is_disabled":false,"rental_uris":{"android":"levelo://app?vid=6ecc99c8-b65b-4df5-ba19-f6978c22db4e","ios":"levelo://app?vid=6ecc99c8-b65b-4df5-ba19-f6978c22db4e"},"vehicle_type_id":"4","last_reported":1747210441,"current_range_meters":17600,"station_id":"ce4bguh2rcd13ifvqckg","pricing_plan_id":"cebpf4jnsgd1na2vs0mg"},{"bike_id":"8aed163f-5d55-4ff5-b9c7-2d776d6a4a7e","system_id":"levelo_inurba_marseille","lat":43.24798,"lon":5.37461,"is_reserved":false,"is_disabled":false,"rental_uris":{"android":"levelo://app?vid=8aed163f-5d55-4ff5-b9c7-2d776d6a4a7e","ios":"levelo://app?vid=8aed163f-5d55-4ff5-b9c7-2d776d6a4a7e"},"vehicle_type_id":"4","last_reported":1747210441,"current_range_meters":17600,"station_id":"ce4bhgh2rcd13ifvqfb0","pricing_plan_id":"cebpf4jnsgd1na2vs0mg"},{"bike_id":"81df83bd-96fe-4025-8404-279d0c4d21a9","system_id":"levelo_inurba_marseille","lat":43.25925,"lon":5.40913,"is_reserved":false,"is_disabled":false,"rental_uris":{"android":"levelo://app?vid=81df83bd-96fe-4025-8404-279d0c4d21a9","ios":"levelo://app?vid=81df83bd-96fe-4025-8404-279d0c4d21a9"},"vehicle_type_id":"4","last_reported":1747210441,"current_range_meters":17600,"station_id":"ce4bhm92rcd13ifvqglg","pricing_plan_id":"cebpf4jnsgd1na2vs0mg"},{"bike_id":"5647a91f-31a6-41fb-82bb-83893a94fc73","system_id":"levelo_inurba_marseille","lat":43.21203,"lon":5.35063,"is_reserved":false,"is_disabled":false,"rental_uris":{"android":"levelo://app?vid=5647a91f-31a6-41fb-82bb-83893a94fc73","ios":"levelo://app?vid=5647a91f-31a6-41fb-82bb-83893a94fc73"},"vehicle_type_id":"4","last_reported":1747210441,"current_range_meters":17600,"station_id":"st_cvj6sg6p6f1abm77japg","pricing_plan_id":"cebpf4jnsgd1na2vs0mg"},{"bike_id":"e409cd08-b9c4-4d62-aefb-05d029e2c480","system_id":"levelo_inurba_marseille","lat":43.30642,"lon":5.42798,"is_reserved":false,"is_disabled":false,"rental_uris":{"android":"levelo://app?vid=e409cd08-b9c4-4d62-aefb-05d029e2c480","ios":"levelo://app?vid=e409cd08-b9c4-4d62-aefb-05d029e2c480"},"vehicle_type_id":"4","last_reported":1747210441,"current_range_meters":18800,"station_id":"","pricing_plan_id":"cebpf4jnsgd1na2vs0mg"},{"bike_id":"5d370f72-1749-4f0b-9815-d32525a7fd58","system_id":"levelo_inurba_marseille","lat":43.325307,"lon":5.393713,"is_reserved":false,"is_disabled":false,"rental_uris":{"android":"levelo://app?vid=5d370f72-1749-4f0b-9815-d32525a7fd58","ios":"levelo://app?vid=5d370f72-1749-4f0b-9815-d32525a7fd58"},"vehicle_type_id":"4","last_reported":1747210441,"current_range_meters":18800,"station_id":"","pricing_plan_id":"cebpf4jnsgd1na2vs0mg"},{"bike_id":"dbe675c3-93b9-4190-86de-028e8a77fc4f","system_id":"levelo_inurba_marseille","lat":43.297398,"lon":5.385472,"is_reserved":false,"is_disabled":false,"rental_uris":{"android":"levelo://app?vid=dbe675c3-93b9-4190-86de-028e8a77fc4f","ios":"levelo://app?vid=dbe675c3-93b9-4190-86de-028e8a77fc4f"},"vehicle_type_id":"4","last_reported":1747210441,"current_range_meters":18800,"station_id":"ce4bgih2rcd13ifvqba0","pricing_plan_id":"cebpf4jnsgd1na2vs0mg"},{"bike_id":"b5e4f560-5876-48fc-ac1a-f3f56e4671ff","system_id":"levelo_inurba_marseille","lat":43.31267,"lon":5.40167,"is_reserved":false,"is_disabled":false,"rental_uris":{"android":"levelo://app?vid=b5e4f560-5876-48fc-ac1a-f3f56e4671ff","ios":"levelo://app?vid=b5e4f560-5876-48fc-ac1a-f3f56e4671ff"},"vehicle_type_id":"4","last_reported":1747210441,"current_range_meters":18800,"station_id":"ce4bh092rcd13ifvqd30","pricing_plan_id":"cebpf4jnsgd1na2vs0mg"},{"bike_id":"f83e264b-0ad9-47d8-a6e2-7e66a521c767","system_id":"levelo_inurba_marseille","lat":43.26553,"lon":5.37279,"is_reserved":false,"is_disabled":false,"rental_uris":{"android":"levelo://app?vid=f83e264b-0ad9-47d8-a6e2-7e66a521c767","ios":"levelo://app?vid=f83e264b-0ad9-47d8-a6e2-7e66a521c767"},"vehicle_type_id":"4","last_reported":1747210441,"current_range_meters":18800,"station_id":"ce4bhg12rcd13ifvqf70","pricing_plan_id":"cebpf4jnsgd1na2vs0mg"},{"bike_id":"43493fd9-7b95-4912-b7ec-cb4654b49139","system_id":"levelo_inurba_marseille","lat":43.24397,"lon":5.37051,"is_reserved":false,"is_disabled":false,"rental_uris":{"android":"levelo://app?vid=43493fd9-7b95-4912-b7ec-cb4654b49139","ios":"levelo://app?vid=43493fd9-7b95-4912-b7ec-cb4654b49139"},"vehicle_type_id":"4","last_reported":1747210441,"current_range_meters":18800,"station_id":"ce4bhhh2rcd13ifvqfk0","pricing_plan_id":"cebpf4jnsgd1na2vs0mg"},{"bike_id":"000c0b13-a9a2-4019-bac1-98362dbbca8f","system_id":"levelo_inurba_marseille","lat":43.24075,"lon":5.37766,"is_reserved":false,"is_disabled":false,"rental_uris":{"android":"levelo://app?vid=000c0b13-a9a2-4019-bac1-98362dbbca8f","ios":"levelo://app?vid=000c0b13-a9a2-4019-bac1-98362dbbca8f"},"vehicle_type_id":"4","last_reported":1747210441,"current_range_meters":18800,"station_id":"ce4bhnp2rcd13ifvqgvg","pricing_plan_id":"cebpf4jnsgd1na2vs0mg"},{"bike_id":"ac0112c9-313e-422c-910b-a3523b05b0c9","system_id":"levelo_inurba_marseille","lat":43.23052,"lon":5.35495,"is_reserved":false,"is_disabled":false,"rental_uris":{"android":"levelo://app?vid=ac0112c9-313e-422c-910b-a3523b05b0c9","ios":"levelo://app?vid=ac0112c9-313e-422c-910b-a3523b05b0c9"},"vehicle_type_id":"4","last_reported":1747210441,"current_range_meters":18800,"station_id":"cpo3342slgdg3j2ifvpg","pricing_plan_id":"cebpf4jnsgd1na2vs0mg"},{"bike_id":"d652df4f-2759-4f5e-9abb-6432d4713a17","system_id":"levelo_inurba_marseille","lat":43.29605,"lon":5.38099,"is_reserved":false,"is_disabled":false,"rental_uris":{"android":"levelo://app?vid=d652df4f-2759-4f5e-9abb-6432d4713a17","ios":"levelo://app?vid=d652df4f-2759-4f5e-9abb-6432d4713a17"},"vehicle_type_id":"4","last_reported":1747210441,"current_range_meters":19200,"station_id":"ce4bgl12rcd13ifvqbo0","pricing_plan_id":"cebpf4jnsgd1na2vs0mg"},{"bike_id":"54b3f45c-f62b-46b9-8b51-f80eb42ffdb5","system_id":"levelo_inurba_marseille","lat":43.28495,"lon":5.3858,"is_reserved":false,"is_disabled":false,"rental_uris":{"android":"levelo://app?vid=54b3f45c-f62b-46b9-8b51-f80eb42ffdb5","ios":"levelo://app?vid=54b3f45c-f62b-46b9-8b51-f80eb42ffdb5"},"vehicle_type_id":"4","last_reported":1747210441,"current_range_meters":19200,"station_id":"ce4bh8p2rcd13ifvqeb0","pricing_plan_id":"cebpf4jnsgd1na2vs0mg"},{"bike_id":"63b3b2cf-7c68-4841-b62c-5b9e97830b38","system_id":"levelo_inurba_marseille","lat":43.25934,"lon":5.40891,"is_reserved":false,"is_disabled":false,"rental_uris":{"android":"levelo://app?vid=63b3b2cf-7c68-4841-b62c-5b9e97830b38","ios":"levelo://app?vid=63b3b2cf-7c68-4841-b62c-5b9e97830b38"},"vehicle_type_id":"4","last_reported":1747210441,"current_range_meters":19200,"station_id":"ce4bhm92rcd13ifvqglg","pricing_plan_id":"cebpf4jnsgd1na2vs0mg"},{"bike_id":"c785251c-780d-4a50-9ca1-3185167bc6d2","system_id":"levelo_inurba_marseille","lat":43.23149,"lon":5.43712,"is_reserved":false,"is_disabled":false,"rental_uris":{"android":"levelo://app?vid=c785251c-780d-4a50-9ca1-3185167bc6d2","ios":"levelo://app?vid=c785251c-780d-4a50-9ca1-3185167bc6d2"},"vehicle_type_id":"4","last_reported":1747210441,"current_range_meters":19200,"station_id":"ce4bhmp2rcd13ifvqgog","pricing_plan_id":"cebpf4jnsgd1na2vs0mg"},{"bike_id":"644511a3-94a8-4d9e-a99e-a8a4681f0634","system_id":"levelo_inurba_marseille","lat":43.24161,"lon":5.39743,"is_reserved":false,"is_disabled":false,"rental_uris":{"android":"levelo://app?vid=644511a3-94a8-4d9e-a99e-a8a4681f0634","ios":"levelo://app?vid=644511a3-94a8-4d9e-a99e-a8a4681f0634"},"vehicle_type_id":"4","last_reported":1747210441,"current_range_meters":19200,"station_id":"ce4bhn12rcd13ifvqgpg","pricing_plan_id":"cebpf4jnsgd1na2vs0mg"},{"bike_id":"c6ce5107-365d-4ea7-bf50-15edafae117e","system_id":"levelo_inurba_marseille","lat":43.23186,"lon":5.39982,"is_reserved":false,"is_disabled":false,"rental_uris":{"android":"levelo://app?vid=c6ce5107-365d-4ea7-bf50-15edafae117e","ios":"levelo://app?vid=c6ce5107-365d-4ea7-bf50-15edafae117e"},"vehicle_type_id":"4","last_reported":1747210441,"current_range_meters":19200,"station_id":"ce4bhn12rcd13ifvqgqg","pricing_plan_id":"cebpf4jnsgd1na2vs0mg"},{"bike_id":"236fe8a1-bb49-4378-9a13-707d1ea97db2","system_id":"levelo_inurba_marseille","lat":43.32109,"lon":5.36772,"is_reserved":false,"is_disabled":false,"rental_uris":{"android":"levelo://app?vid=236fe8a1-bb49-4378-9a13-707d1ea97db2","ios":"levelo://app?vid=236fe8a1-bb49-4378-9a13-707d1ea97db2"},"vehicle_type_id":"4","last_reported":1747210441,"current_range_meters":19200,"station_id":"ce4bhrh2rcd13ifvqhug","pricing_plan_id":"cebpf4jnsgd1na2vs0mg"},{"bike_id":"0147a142-603e-45c5-8688-d7b83b857574","system_id":"levelo_inurba_marseille","lat":43.29969,"lon":5.38484,"is_reserved":false,"is_disabled":false,"rental_uris":{"android":"levelo://app?vid=0147a142-603e-45c5-8688-d7b83b857574","ios":"levelo://app?vid=0147a142-603e-45c5-8688-d7b83b857574"},"vehicle_type_id":"4","last_reported":1747210441,"current_range_meters":19600,"station_id":"ce4bgj92rcd13ifvqbd0","pricing_plan_id":"cebpf4jnsgd1na2vs0mg"},{"bike_id":"4bcbe63e-5f80-4858-9a7f-19f2efb99119","system_id":"levelo_inurba_marseille","lat":43.30308,"lon":5.36901,"is_reserved":false,"is_disabled":false,"rental_uris":{"android":"levelo://app?vid=4bcbe63e-5f80-4858-9a7f-19f2efb99119","ios":"levelo://app?vid=4bcbe63e-5f80-4858-9a7f-19f2efb99119"},"vehicle_type_id":"4","last_reported":1747210441,"current_range_meters":19600,"station_id":"ce4bgqh2rcd13ifvqc5g","pricing_plan_id":"cebpf4jnsgd1na2vs0mg"},{"bike_id":"8c32ae4c-85e3-47df-af02-7e8ca739be33","system_id":"levelo_inurba_marseille","lat":43.305398,"lon":5.36558,"is_reserved":false,"is_disabled":false,"rental_uris":{"android":"levelo://app?vid=8c32ae4c-85e3-47df-af02-7e8ca739be33","ios":"levelo://app?vid=8c32ae4c-85e3-47df-af02-7e8ca739be33"},"vehicle_type_id":"4","last_reported":1747210441,"current_range_meters":19600,"station_id":"ce4bgs12rcd13ifvqcag","pricing_plan_id":"cebpf4jnsgd1na2vs0mg"},{"bike_id":"ef3b47ca-871e-47e9-bfe9-8a5b45cbf5aa","system_id":"levelo_inurba_marseille","lat":43.25578,"lon":5.38233,"is_reserved":false,"is_disabled":false,"rental_uris":{"android":"levelo://app?vid=ef3b47ca-871e-47e9-bfe9-8a5b45cbf5aa","ios":"levelo://app?vid=ef3b47ca-871e-47e9-bfe9-8a5b45cbf5aa"},"vehicle_type_id":"4","last_reported":1747210441,"current_range_meters":19600,"station_id":"ce4bhih2rcd13ifvqfs0","pricing_plan_id":"cebpf4jnsgd1na2vs0mg"},{"bike_id":"fdf5099d-3cb8-4fb5-90c4-f9dcbc7c2a8c","system_id":"levelo_inurba_marseille","lat":43.25937,"lon":5.40901,"is_reserved":false,"is_disabled":false,"rental_uris":{"android":"levelo://app?vid=fdf5099d-3cb8-4fb5-90c4-f9dcbc7c2a8c","ios":"levelo://app?vid=fdf5099d-3cb8-4fb5-90c4-f9dcbc7c2a8c"},"vehicle_type_id":"4","last_reported":1747210441,"current_range_meters":19600,"station_id":"ce4bhm92rcd13ifvqglg","pricing_plan_id":"cebpf4jnsgd1na2vs0mg"},{"bike_id":"8eeb737b-69fb-43cd-af7a-9367aeb50c25","system_id":"levelo_inurba_marseille","lat":43.23141,"lon":5.4371,"is_reserved":false,"is_disabled":false,"rental_uris":{"android":"levelo://app?vid=8eeb737b-69fb-43cd-af7a-9367aeb50c25","ios":"levelo://app?vid=8eeb737b-69fb-43cd-af7a-9367aeb50c25"},"vehicle_type_id":"4","last_reported":1747210441,"current_range_meters":19600,"station_id":"ce4bhmp2rcd13ifvqgog","pricing_plan_id":"cebpf4jnsgd1na2vs0mg"},{"bike_id":"c8214111-4502-45ea-ad48-66a093e44c9e","system_id":"levelo_inurba_marseille","lat":43.3172,"lon":5.42394,"is_reserved":false,"is_disabled":false,"rental_uris":{"android":"levelo://app?vid=c8214111-4502-45ea-ad48-66a093e44c9e","ios":"levelo://app?vid=c8214111-4502-45ea-ad48-66a093e44c9e"},"vehicle_type_id":"4","last_reported":1747210441,"current_range_meters":19600,"station_id":"ce4bhp92rcd13ifvqhbg","pricing_plan_id":"cebpf4jnsgd1na2vs0mg"},{"bike_id":"75f5ff6c-ebcc-4149-b4a6-92e797104198","system_id":"levelo_inurba_marseille","lat":43.30912,"lon":5.36844,"is_reserved":false,"is_disabled":false,"rental_uris":{"android":"levelo://app?vid=75f5ff6c-ebcc-4149-b4a6-92e797104198","ios":"levelo://app?vid=75f5ff6c-ebcc-4149-b4a6-92e797104198"},"vehicle_type_id":"4","last_reported":1747210441,"current_range_meters":20000,"station_id":"ce4bgn92rcd13ifvqbvg","pricing_plan_id":"cebpf4jnsgd1na2vs0mg"},{"bike_id":"e423574b-b13d-497d-87a2-ec57a17a16c7","system_id":"levelo_inurba_marseille","lat":43.30271,"lon":5.37705,"is_reserved":false,"is_disabled":false,"rental_uris":{"android":"levelo://app?vid=e423574b-b13d-497d-87a2-ec57a17a16c7","ios":"levelo://app?vid=e423574b-b13d-497d-87a2-ec57a17a16c7"},"vehicle_type_id":"4","last_reported":1747210441,"current_range_meters":20000,"station_id":"ce4bguh2rcd13ifvqcj0","pricing_plan_id":"cebpf4jnsgd1na2vs0mg"},{"bike_id":"d4684203-f91b-455a-bfaa-18bd36f1b313","system_id":"levelo_inurba_marseille","lat":43.29036,"lon":5.3756,"is_reserved":false,"is_disabled":false,"rental_uris":{"android":"levelo://app?vid=d4684203-f91b-455a-bfaa-18bd36f1b313","ios":"levelo://app?vid=d4684203-f91b-455a-bfaa-18bd36f1b313"},"vehicle_type_id":"4","last_reported":1747210441,"current_range_meters":20000,"station_id":"ce4bh692rcd13ifvqe90","pricing_plan_id":"cebpf4jnsgd1na2vs0mg"},{"bike_id":"ddc157e8-8e33-47e5-8b6e-9ea2b526b9c1","system_id":"levelo_inurba_marseille","lat":43.24084,"lon":5.3775,"is_reserved":false,"is_disabled":false,"rental_uris":{"android":"levelo://app?vid=ddc157e8-8e33-47e5-8b6e-9ea2b526b9c1","ios":"levelo://app?vid=ddc157e8-8e33-47e5-8b6e-9ea2b526b9c1"},"vehicle_type_id":"4","last_reported":1747210441,"current_range_meters":20000,"station_id":"ce4bhnp2rcd13ifvqgvg","pricing_plan_id":"cebpf4jnsgd1na2vs0mg"},{"bike_id":"6ce2464c-231f-40ec-9d8d-d13ec4609768","system_id":"levelo_inurba_marseille","lat":43.240737,"lon":5.377493,"is_reserved":false,"is_disabled":false,"rental_uris":{"android":"levelo://app?vid=6ce2464c-231f-40ec-9d8d-d13ec4609768","ios":"levelo://app?vid=6ce2464c-231f-40ec-9d8d-d13ec4609768"},"vehicle_type_id":"4","last_reported":1747210441,"current_range_meters":20000,"station_id":"ce4bhnp2rcd13ifvqgvg","pricing_plan_id":"cebpf4jnsgd1na2vs0mg"},{"bike_id":"74e465a6-62f1-45be-9144-40f0ae71c9e6","system_id":"levelo_inurba_marseille","lat":43.3234,"lon":5.36755,"is_reserved":false,"is_disabled":false,"rental_uris":{"android":"levelo://app?vid=74e465a6-62f1-45be-9144-40f0ae71c9e6","ios":"levelo://app?vid=74e465a6-62f1-45be-9144-40f0ae71c9e6"},"vehicle_type_id":"4","last_reported":1747210441,"current_range_meters":20000,"station_id":"ce4bhsh2rcd13ifvqi2g","pricing_plan_id":"cebpf4jnsgd1na2vs0mg"},{"bike_id":"08a93b84-f9e2-4480-b23a-2ee7a592645e","system_id":"levelo_inurba_marseille","lat":43.21753,"lon":5.3459,"is_reserved":false,"is_disabled":false,"rental_uris":{"android":"levelo://app?vid=08a93b84-f9e2-4480-b23a-2ee7a592645e","ios":"levelo://app?vid=08a93b84-f9e2-4480-b23a-2ee7a592645e"},"vehicle_type_id":"4","last_reported":1747210441,"current_range_meters":20000,"station_id":"st_cvj6r9ubvosntc0bgbag","pricing_plan_id":"cebpf4jnsgd1na2vs0mg"},{"bike_id":"64824209-6cba-4c12-875a-1502c403c27a","system_id":"levelo_inurba_marseille","lat":43.211792,"lon":5.350776,"is_reserved":false,"is_disabled":false,"rental_uris":{"android":"levelo://app?vid=64824209-6cba-4c12-875a-1502c403c27a","ios":"levelo://app?vid=64824209-6cba-4c12-875a-1502c403c27a"},"vehicle_type_id":"4","last_reported":1747210441,"current_range_meters":20000,"station_id":"st_cvj6sg6p6f1abm77japg","pricing_plan_id":"cebpf4jnsgd1na2vs0mg"},{"bike_id":"58949ca2-de9f-4c28-8b3d-4f903e999dff","system_id":"levelo_inurba_marseille","lat":43.295258,"lon":5.385401,"is_reserved":false,"is_disabled":false,"rental_uris":{"android":"levelo://app?vid=58949ca2-de9f-4c28-8b3d-4f903e999dff","ios":"levelo://app?vid=58949ca2-de9f-4c28-8b3d-4f903e999dff"},"vehicle_type_id":"4","last_reported":1747210441,"current_range_meters":20400,"station_id":"ce4bgih2rcd13ifvqba0","pricing_plan_id":"cebpf4jnsgd1na2vs0mg"},{"bike_id":"6518545e-70ba-44af-8a7b-3b4ce3cf7f71","system_id":"levelo_inurba_marseille","lat":43.30137,"lon":5.37424,"is_reserved":false,"is_disabled":false,"rental_uris":{"android":"levelo://app?vid=6518545e-70ba-44af-8a7b-3b4ce3cf7f71","ios":"levelo://app?vid=6518545e-70ba-44af-8a7b-3b4ce3cf7f71"},"vehicle_type_id":"4","last_reported":1747210441,"current_range_meters":20400,"station_id":"ce4bgs92rcd13ifvqcc0","pricing_plan_id":"cebpf4jnsgd1na2vs0mg"},{"bike_id":"21656bbe-92f8-45b7-befa-88030d9b7b7f","system_id":"levelo_inurba_marseille","lat":43.30937,"lon":5.40138,"is_reserved":false,"is_disabled":false,"rental_uris":{"android":"levelo://app?vid=21656bbe-92f8-45b7-befa-88030d9b7b7f","ios":"levelo://app?vid=21656bbe-92f8-45b7-befa-88030d9b7b7f"},"vehicle_type_id":"4","last_reported":1747210441,"current_range_meters":20400,"station_id":"ce4bgvp2rcd13ifvqct0","pricing_plan_id":"cebpf4jnsgd1na2vs0mg"},{"bike_id":"36395e8a-0470-4559-9663-96cff9383d42","system_id":"levelo_inurba_marseille","lat":43.30115,"lon":5.39871,"is_reserved":false,"is_disabled":false,"rental_uris":{"android":"levelo://app?vid=36395e8a-0470-4559-9663-96cff9383d42","ios":"levelo://app?vid=36395e8a-0470-4559-9663-96cff9383d42"},"vehicle_type_id":"4","last_reported":1747210441,"current_range_meters":20400,"station_id":"ce4bh0h2rcd13ifvqd40","pricing_plan_id":"cebpf4jnsgd1na2vs0mg"},{"bike_id":"8351836e-b7bd-40b0-b096-00d565b4f770","system_id":"levelo_inurba_marseille","lat":43.24799,"lon":5.3746,"is_reserved":false,"is_disabled":false,"rental_uris":{"android":"levelo://app?vid=8351836e-b7bd-40b0-b096-00d565b4f770","ios":"levelo://app?vid=8351836e-b7bd-40b0-b096-00d565b4f770"},"vehicle_type_id":"4","last_reported":1747210441,"current_range_meters":20400,"station_id":"ce4bhgh2rcd13ifvqfb0","pricing_plan_id":"cebpf4jnsgd1na2vs0mg"},{"bike_id":"26df8048-2cd3-45e3-ab30-9534f44f1c4f","system_id":"levelo_inurba_marseille","lat":43.2439,"lon":5.3706,"is_reserved":false,"is_disabled":false,"rental_uris":{"android":"levelo://app?vid=26df8048-2cd3-45e3-ab30-9534f44f1c4f","ios":"levelo://app?vid=26df8048-2cd3-45e3-ab30-9534f44f1c4f"},"vehicle_type_id":"4","last_reported":1747210441,"current_range_meters":20400,"station_id":"ce4bhhh2rcd13ifvqfk0","pricing_plan_id":"cebpf4jnsgd1na2vs0mg"},{"bike_id":"297a85b0-fa8c-489e-bd98-6fd7f3aae510","system_id":"levelo_inurba_marseille","lat":43.24192,"lon":5.39725,"is_reserved":false,"is_disabled":false,"rental_uris":{"android":"levelo://app?vid=297a85b0-fa8c-489e-bd98-6fd7f3aae510","ios":"levelo://app?vid=297a85b0-fa8c-489e-bd98-6fd7f3aae510"},"vehicle_type_id":"4","last_reported":1747210441,"current_range_meters":20400,"station_id":"ce4bhn12rcd13ifvqgpg","pricing_plan_id":"cebpf4jnsgd1na2vs0mg"},{"bike_id":"44ad2e06-bd4f-40aa-901e-6007bafa06bf","system_id":"levelo_inurba_marseille","lat":43.34178,"lon":5.40865,"is_reserved":false,"is_disabled":false,"rental_uris":{"android":"levelo://app?vid=44ad2e06-bd4f-40aa-901e-6007bafa06bf","ios":"levelo://app?vid=44ad2e06-bd4f-40aa-901e-6007bafa06bf"},"vehicle_type_id":"4","last_reported":1747210441,"current_range_meters":20400,"station_id":"ce4bhqh2rcd13ifvqhlg","pricing_plan_id":"cebpf4jnsgd1na2vs0mg"},{"bike_id":"50313156-ab91-4130-9e30-4c1b7c1c6d35","system_id":"levelo_inurba_marseille","lat":43.33606,"lon":5.41019,"is_reserved":false,"is_disabled":false,"rental_uris":{"android":"levelo://app?vid=50313156-ab91-4130-9e30-4c1b7c1c6d35","ios":"levelo://app?vid=50313156-ab91-4130-9e30-4c1b7c1c6d35"},"vehicle_type_id":"4","last_reported":1747210441,"current_range_meters":20400,"station_id":"ce4bhqh2rcd13ifvqhmg","pricing_plan_id":"cebpf4jnsgd1na2vs0mg"},{"bike_id":"8912aa4c-ac8c-46c1-897b-61d35213d3dd","system_id":"levelo_inurba_marseille","lat":43.30545,"lon":5.36699,"is_reserved":false,"is_disabled":false,"rental_uris":{"android":"levelo://app?vid=8912aa4c-ac8c-46c1-897b-61d35213d3dd","ios":"levelo://app?vid=8912aa4c-ac8c-46c1-897b-61d35213d3dd"},"vehicle_type_id":"4","last_reported":1747210441,"current_range_meters":20800,"station_id":"ce4bgrp2rcd13ifvqc9g","pricing_plan_id":"cebpf4jnsgd1na2vs0mg"},{"bike_id":"fd5ce3ba-11d6-4232-b406-5090b9a7c6c7","system_id":"levelo_inurba_marseille","lat":43.30552,"lon":5.36522,"is_reserved":false,"is_disabled":false,"rental_uris":{"android":"levelo://app?vid=fd5ce3ba-11d6-4232-b406-5090b9a7c6c7","ios":"levelo://app?vid=fd5ce3ba-11d6-4232-b406-5090b9a7c6c7"},"vehicle_type_id":"4","last_reported":1747210441,"current_range_meters":20800,"station_id":"ce4bgs12rcd13ifvqcag","pricing_plan_id":"cebpf4jnsgd1na2vs0mg"},{"bike_id":"fda7e597-2f10-425d-aa8a-1bc6afd810bd","system_id":"levelo_inurba_marseille","lat":43.30804,"lon":5.38157,"is_reserved":false,"is_disabled":false,"rental_uris":{"android":"levelo://app?vid=fda7e597-2f10-425d-aa8a-1bc6afd810bd","ios":"levelo://app?vid=fda7e597-2f10-425d-aa8a-1bc6afd810bd"},"vehicle_type_id":"4","last_reported":1747210441,"current_range_meters":20800,"station_id":"ce4bgt12rcd13ifvqce0","pricing_plan_id":"cebpf4jnsgd1na2vs0mg"},{"bike_id":"3b2a1b68-458f-42cb-8eab-ebc8d202d7aa","system_id":"levelo_inurba_marseille","lat":43.281036,"lon":5.378271,"is_reserved":false,"is_disabled":false,"rental_uris":{"android":"levelo://app?vid=3b2a1b68-458f-42cb-8eab-ebc8d202d7aa","ios":"levelo://app?vid=3b2a1b68-458f-42cb-8eab-ebc8d202d7aa"},"vehicle_type_id":"4","last_reported":1747210441,"current_range_meters":20800,"station_id":"ce4bha12rcd13ifvqee0","pricing_plan_id":"cebpf4jnsgd1na2vs0mg"},{"bike_id":"31e180a1-f8c3-4073-b506-124e2e7b7677","system_id":"levelo_inurba_marseille","lat":43.33613,"lon":5.41024,"is_reserved":false,"is_disabled":false,"rental_uris":{"android":"levelo://app?vid=31e180a1-f8c3-4073-b506-124e2e7b7677","ios":"levelo://app?vid=31e180a1-f8c3-4073-b506-124e2e7b7677"},"vehicle_type_id":"4","last_reported":1747210441,"current_range_meters":20800,"station_id":"ce4bhqh2rcd13ifvqhmg","pricing_plan_id":"cebpf4jnsgd1na2vs0mg"},{"bike_id":"c41dfe03-8515-4f3b-be02-a998e39f9069","system_id":"levelo_inurba_marseille","lat":43.336093,"lon":5.410279,"is_reserved":false,"is_disabled":false,"rental_uris":{"android":"levelo://app?vid=c41dfe03-8515-4f3b-be02-a998e39f9069","ios":"levelo://app?vid=c41dfe03-8515-4f3b-be02-a998e39f9069"},"vehicle_type_id":"4","last_reported":1747210441,"current_range_meters":20800,"station_id":"ce4bhqh2rcd13ifvqhmg","pricing_plan_id":"cebpf4jnsgd1na2vs0mg"},{"bike_id":"61aa1782-49d9-4762-bea1-94c390716a66","system_id":"levelo_inurba_marseille","lat":43.33587,"lon":5.41015,"is_reserved":false,"is_disabled":false,"rental_uris":{"android":"levelo://app?vid=61aa1782-49d9-4762-bea1-94c390716a66","ios":"levelo://app?vid=61aa1782-49d9-4762-bea1-94c390716a66"},"vehicle_type_id":"4","last_reported":1747210441,"current_range_meters":20800,"station_id":"ce4bhqh2rcd13ifvqhmg","pricing_plan_id":"cebpf4jnsgd1na2vs0mg"},{"bike_id":"cd15b410-e5eb-468f-885c-74fdc00b6bb7","system_id":"levelo_inurba_marseille","lat":43.2119,"lon":5.35073,"is_reserved":false,"is_disabled":false,"rental_uris":{"android":"levelo://app?vid=cd15b410-e5eb-468f-885c-74fdc00b6bb7","ios":"levelo://app?vid=cd15b410-e5eb-468f-885c-74fdc00b6bb7"},"vehicle_type_id":"4","last_reported":1747210441,"current_range_meters":20800,"station_id":"st_cvj6sg6p6f1abm77japg","pricing_plan_id":"cebpf4jnsgd1na2vs0mg"},{"bike_id":"820cc60f-6160-4162-9606-e3927c6d018b","system_id":"levelo_inurba_marseille","lat":43.30526,"lon":5.38423,"is_reserved":false,"is_disabled":false,"rental_uris":{"android":"levelo://app?vid=820cc60f-6160-4162-9606-e3927c6d018b","ios":"levelo://app?vid=820cc60f-6160-4162-9606-e3927c6d018b"},"vehicle_type_id":"4","last_reported":1747210441,"current_range_meters":21600,"station_id":"ce4bgg92rcd13ifvqb30","pricing_plan_id":"cebpf4jnsgd1na2vs0mg"},{"bike_id":"13c9dde3-370f-4898-921a-52334846866b","system_id":"levelo_inurba_marseille","lat":43.312097,"lon":5.368763,"is_reserved":false,"is_disabled":false,"rental_uris":{"android":"levelo://app?vid=13c9dde3-370f-4898-921a-52334846866b","ios":"levelo://app?vid=13c9dde3-370f-4898-921a-52334846866b"},"vehicle_type_id":"4","last_reported":1747210441,"current_range_meters":21600,"station_id":"ce4bgl92rcd13ifvqbq0","pricing_plan_id":"cebpf4jnsgd1na2vs0mg"},{"bike_id":"85bfb256-5141-4876-9c99-364b55dec5cd","system_id":"levelo_inurba_marseille","lat":43.29008,"lon":5.38173,"is_reserved":false,"is_disabled":false,"rental_uris":{"android":"levelo://app?vid=85bfb256-5141-4876-9c99-364b55dec5cd","ios":"levelo://app?vid=85bfb256-5141-4876-9c99-364b55dec5cd"},"vehicle_type_id":"4","last_reported":1747210441,"current_range_meters":21600,"station_id":"ce4bh4p2rcd13ifvqe1g","pricing_plan_id":"cebpf4jnsgd1na2vs0mg"},{"bike_id":"1a7f57af-7a31-42a2-9325-9b8d661483ed","system_id":"levelo_inurba_marseille","lat":43.290296,"lon":5.378016,"is_reserved":false,"is_disabled":false,"rental_uris":{"android":"levelo://app?vid=1a7f57af-7a31-42a2-9325-9b8d661483ed","ios":"levelo://app?vid=1a7f57af-7a31-42a2-9325-9b8d661483ed"},"vehicle_type_id":"4","last_reported":1747210441,"current_range_meters":21600,"station_id":"ce4bh9p2rcd13ifvqec0","pricing_plan_id":"cebpf4jnsgd1na2vs0mg"},{"bike_id":"8c2ff5a0-6afd-4b31-b3d9-79399978b039","system_id":"levelo_inurba_marseille","lat":43.28421,"lon":5.34977,"is_reserved":false,"is_disabled":false,"rental_uris":{"android":"levelo://app?vid=8c2ff5a0-6afd-4b31-b3d9-79399978b039","ios":"levelo://app?vid=8c2ff5a0-6afd-4b31-b3d9-79399978b039"},"vehicle_type_id":"4","last_reported":1747210441,"current_range_meters":21600,"station_id":"ce4bhbh2rcd13ifvqepg","pricing_plan_id":"cebpf4jnsgd1na2vs0mg"},{"bike_id":"5d1583ab-a7f8-4ddb-81d5-7dc195717ebe","system_id":"levelo_inurba_marseille","lat":43.25824,"lon":5.39436,"is_reserved":false,"is_disabled":false,"rental_uris":{"android":"levelo://app?vid=5d1583ab-a7f8-4ddb-81d5-7dc195717ebe","ios":"levelo://app?vid=5d1583ab-a7f8-4ddb-81d5-7dc195717ebe"},"vehicle_type_id":"4","last_reported":1747210441,"current_range_meters":21600,"station_id":"ce4bhip2rcd13ifvqft0","pricing_plan_id":"cebpf4jnsgd1na2vs0mg"},{"bike_id":"457b66cf-a660-4412-b1f6-3e48dafef727","system_id":"levelo_inurba_marseille","lat":43.25921,"lon":5.409,"is_reserved":false,"is_disabled":false,"rental_uris":{"android":"levelo://app?vid=457b66cf-a660-4412-b1f6-3e48dafef727","ios":"levelo://app?vid=457b66cf-a660-4412-b1f6-3e48dafef727"},