{"last_updated":1704384519,"ttl":30,"version":"2.2","data":{"bikes":[{"bike_id":"ec568617-ef3f-40ab-b414-30547bcf7c67","system_id":"levelo_inurba_marseille","lat":43.31341,"lon":5.367098,"is_reserved":false,"is_disabled":false,"rental_uris":{"android":"levelo://app?vid=ec568617-ef3f-40ab-b414-30547bcf7c67","ios":"levelo://app?vid=ec568617-ef3f-40ab-b414-30547bcf7c67"},"vehicle_type_id":"4","last_reported":1704384520,"current_range_meters":23600,"station_id":"ce4bgr92rcd13ifvqc6g","pricing_plan_id":"free"},{"bike_id":"61b18b37-ad6f-4155-98dc-fe37d39569b9","system_id":"levelo_inurba_marseille","lat":43.31341,"lon":5.367098,"is_reserved":false,"is_disabled":false,"rental_uris":{"android":"levelo://app?vid=61b18b37-ad6f-4155-98dc-fe37d39569b9","ios":"levelo://app?vid=61b18b37-ad6f-4155-98dc-fe37d39569b9"},"vehicle_type_id":"4","last_reported":1704384520,"current_range_meters":18000,"station_id":"ce4bgr92rcd13ifvqc6g","pricing_plan_id":"free"},{"bike_id":"109594e6-4b91-44f7-966d-1a7e71aa952f","system_id":"levelo_inurba_marseille","lat":43.31341,"lon":5.367098,"is_reserved":false,"is_disabled":false,"rental_uris":{"android":"levelo://app?vid=109594e6-4b91-44f7-966d-1a7e71aa952f","ios":"levelo://app?vid=109594e6-4b91-44f7-966d-1a7e71aa952f"},"vehicle_type_id":"4","last_reported":1704384520,"current_range_meters":31600,"station_id":"ce4bgr92rcd13ifvqc6g","pricing_plan_id":"free"},{"bike_id":"5592f5e3-04d6-4de1-a0c0-0988953bc103","system_id":"levelo_inurba_marseille","lat":43.313391,"lon":5.36706,"is_reserved":false,"is_disabled":false,"rental_uris":{"android":"levelo://app?vid=5592f5e3-04d6-4de1-a0c0-0988953bc103","ios":"levelo://app?vid=5592f5e3-04d6-4de1-a0c0-0988953bc103"},"vehicle_type_id":"4","last_reported":1704384520,"current_range_meters":31200,"station_id":"ce4bgr92rcd13ifvqc6g","pricing_plan_id":"free"},{"bike_id":"39d079d5-96aa-4945-8693-ebfbbc65c92d","system_id":"levelo_inurba_marseille","lat":43.313391,"lon":5.36706,"is_reserved":false,"is_disabled":false,"rental_uris":{"android":"levelo://app?vid=39d079d5-96aa-4945-8693-ebfbbc65c92d","ios":"levelo://app?vid=39d079d5-96aa-4945-8693-ebfbbc65c92d"},"vehicle_type_id":"4","last_reported":1704384520,"current_range_meters":31200,"station_id":"ce4bgr92rcd13ifvqc6g","pricing_plan_id":"free"},{"bike_id":"30623490-7084-45dc-8181-12c79695b407","system_id":"levelo_inurba_marseille","lat":43.31341,"lon":5.367098,"is_reserved":false,"is_disabled":false,"rental_uris":{"android":"levelo://app?vid=30623490-7084-45dc-8181-12c79695b407","ios":"levelo://app?vid=30623490-7084-45dc-8181-12c79695b407"},"vehicle_type_id":"4","last_reported":1704384520,"current_range_meters":31200,"station_id":"ce4bgr92rcd13ifvqc6g","pricing_plan_id":"free"},{"bike_id":"bff6ec37-cc19-4da6-ad15-ec2d8e671f82","system_id":"levelo_inurba_marseille","lat":43.312239,"lon":5.368562,"is_reserved":false,"is_disabled":false,"rental_uris":{"android":"levelo://app?vid=bff6ec37-cc19-4da6-ad15-ec2d8e671f82","ios":"levelo://app?vid=bff6ec37-cc19-4da6-ad15-ec2d8e671f82"},"vehicle_type_id":"4","last_reported":1704384520,"current_range_meters":31200,"station_id":"ce4bgl92rcd13ifvqbq0","pricing_plan_id":"free"},{"bike_id":"5857b6fb-c03f-484e-90b3-c354be094d08","system_id":"levelo_inurba_marseille","lat":43.312239,"lon":5.368562,"is_reserved":false,"is_disabled":false,"rental_uris":{"android":"levelo://app?vid=5857b6fb-c03f-484e-90b3-c354be094d08","ios":"levelo://app?vid=5857b6fb-c03f-484e-90b3-c354be094d08"},"vehicle_type_id":"4","last_reported":1704384520,"current_range_meters":31200,"station_id":"ce4bgl92rcd13ifvqbq0","pricing_plan_id":"free"},{"bike_id":"41627e24-8b0a-4710-9b0c-94fe225912b6","system_id":"levelo_inurba_marseille","lat":43.31489,"lon":5.37292,"is_reserved":false,"is_disabled":false,"rental_uris":{"android":"levelo://app?vid=41627e24-8b0a-4710-9b0c-94fe225912b6","ios":"levelo://app?vid=41627e24-8b0a-4710-9b0c-94fe225912b6"},"vehicle_type_id":"4","last_reported":1704384520,"current_range_meters":27600,"station_id":"ce4bgt12rcd13ifvqcd0","pricing_plan_id":"free"},{"bike_id":"a61693cd-a71c-457e-9a1e-0b938cae2bc8","system_id":"levelo_inurba_marseille","lat":43.314811,"lon":5.373103,"is_reserved":false,"is_disabled":false,"rental_uris":{"android":"levelo://app?vid=a61693cd-a71c-457e-9a1e-0b938cae2bc8","ios":"levelo://app?vid=a61693cd-a71c-457e-9a1e-0b938cae2bc8"},"vehicle_type_id":"4","last_reported":1704384520,"current_range_meters":22800,"station_id":"ce4bgt12rcd13ifvqcd0","pricing_plan_id":"free"},{"bike_id":"548783f9-78d7-46cb-9057-e8508baf8fd4","system_id":"levelo_inurba_marseille","lat":43.314811,"lon":5.373103,"is_reserved":false,"is_disabled":false,"rental_uris":{"android":"levelo://app?vid=548783f9-78d7-46cb-9057-e8508baf8fd4","ios":"levelo://app?vid=548783f9-78d7-46cb-9057-e8508baf8fd4"},"vehicle_type_id":"4","last_reported":1704384520,"current_range_meters":22400,"station_id":"ce4bgt12rcd13ifvqcd0","pricing_plan_id":"free"},{"bike_id":"d64f1999-5c27-4bb2-9bd7-cd56d907faef","system_id":"levelo_inurba_marseille","lat":43.305712,"lon":5.365641,"is_reserved":false,"is_disabled":false,"rental_uris":{"android":"levelo://app?vid=d64f1999-5c27-4bb2-9bd7-cd56d907faef","ios":"levelo://app?vid=d64f1999-5c27-4bb2-9bd7-cd56d907faef"},"vehicle_type_id":"4","last_reported":1704384520,"current_range_meters":2800,"station_id":"ce4bgs12rcd13ifvqcag","pricing_plan_id":"free"},{"bike_id":"72a84de3-200a-437b-9677-5a094acedf77","system_id":"levelo_inurba_marseille","lat":43.305712,"lon":5.365641,"is_reserved":false,"is_disabled":false,"rental_uris":{"android":"levelo://app?vid=72a84de3-200a-437b-9677-5a094acedf77","ios":"levelo://app?vid=72a84de3-200a-437b-9677-5a094acedf77"},"vehicle_type_id":"4","last_reported":1704384520,"current_range_meters":24000,"station_id":"ce4bgs12rcd13ifvqcag","pricing_plan_id":"free"},{"bike_id":"c97350ba-74fc-4caf-a593-588e9e6afce6","system_id":"levelo_inurba_marseille","lat":43.305989,"lon":5.37225,"is_reserved":false,"is_disabled":false,"rental_uris":{"android":"levelo://app?vid=c97350ba-74fc-4caf-a593-588e9e6afce6","ios":"levelo://app?vid=c97350ba-74fc-4caf-a593-588e9e6afce6"},"vehicle_type_id":"4","last_reported":1704384520,"current_range_meters":18400,"station_id":"ce4bgqh2rcd13ifvqc4g","pricing_plan_id":"free"},{"bike_id":"e3c464ad-ad6d-494e-81dc-4eda56ac71c8","system_id":"levelo_inurba_marseille","lat":43.31128,"lon":5.37763,"is_reserved":false,"is_disabled":false,"rental_uris":{"android":"levelo://app?vid=e3c464ad-ad6d-494e-81dc-4eda56ac71c8","ios":"levelo://app?vid=e3c464ad-ad6d-494e-81dc-4eda56ac71c8"},"vehicle_type_id":"4","last_reported":1704384520,"current_range_meters":5600,"station_id":"ce4bgt92rcd13ifvqcg0","pricing_plan_id":"free"},{"bike_id":"83acc6c6-deec-454f-bb92-141e5ce93521","system_id":"levelo_inurba_marseille","lat":43.311125,"lon":5.377624,"is_reserved":false,"is_disabled":false,"rental_uris":{"android":"levelo://app?vid=83acc6c6-deec-454f-bb92-141e5ce93521","ios":"levelo://app?vid=83acc6c6-deec-454f-bb92-141e5ce93521"},"vehicle_type_id":"4","last_reported":1704384520,"current_range_meters":25600,"station_id":"ce4bgt92rcd13ifvqcg0","pricing_plan_id":"free"},{"bike_id":"8f20fd1d-4b5f-4b10-8a6e-fe021223b97b","system_id":"levelo_inurba_marseille","lat":43.30848,"lon":5.376477,"is_reserved":false,"is_disabled":false,"rental_uris":{"android":"levelo://app?vid=8f20fd1d-4b5f-4b10-8a6e-fe021223b97b","ios":"levelo://app?vid=8f20fd1d-4b5f-4b10-8a6e-fe021223b97b"},"vehicle_type_id":"4","last_reported":1704384520,"current_range_meters":8400,"station_id":"ce4bgv92rcd13ifvqcq0","pricing_plan_id":"free"},{"bike_id":"c4e90871-bb94-4085-82dc-ccbd997a22ca","system_id":"levelo_inurba_marseille","lat":43.31521,"lon":5.37907,"is_reserved":false,"is_disabled":false,"rental_uris":{"android":"levelo://app?vid=c4e90871-bb94-4085-82dc-ccbd997a22ca","ios":"levelo://app?vid=c4e90871-bb94-4085-82dc-ccbd997a22ca"},"vehicle_type_id":"4","last_reported":1704384520,"current_range_meters":18400,"station_id":"","pricing_plan_id":"free"},{"bike_id":"e97c7912-64a5-475e-903f-0fb0b1ad39ac","system_id":"levelo_inurba_marseille","lat":43.315293,"lon":5.380349,"is_reserved":false,"is_disabled":false,"rental_uris":{"android":"levelo://app?vid=e97c7912-64a5-475e-903f-0fb0b1ad39ac","ios":"levelo://app?vid=e97c7912-64a5-475e-903f-0fb0b1ad39ac"},"vehicle_type_id":"4","last_reported":1704384520,"current_range_meters":18400,"station_id":"ce4bhsp2rcd13ifvqi50","pricing_plan_id":"free"},{"bike_id":"c42d8f63-ceaf-4c08-a9d1-e5cbb81ac446","system_id":"levelo_inurba_marseille","lat":43.315293,"lon":5.380349,"is_reserved":false,"is_disabled":false,"rental_uris":{"android":"levelo://app?vid=c42d8f63-ceaf-4c08-a9d1-e5cbb81ac446","ios":"levelo://app?vid=c42d8f63-ceaf-4c08-a9d1-e5cbb81ac446"},"vehicle_type_id":"4","last_reported":1704384520,"current_range_meters":10000,"station_id":"ce4bhsp2rcd13ifvqi50","pricing_plan_id":"free"},{"bike_id":"56b4d0e6-8a19-482d-a97d-acbf54fae934","system_id":"levelo_inurba_marseille","lat":43.301939,"lon":5.366286,"is_reserved":false,"is_disabled":false,"rental_uris":{"android":"levelo://app?vid=56b4d0e6-8a19-482d-a97d-acbf54fae934","ios":"levelo://app?vid=56b4d0e6-8a19-482d-a97d-acbf54fae934"},"vehicle_type_id":"4","last_reported":1704384520,"current_range_meters":29200,"station_id":"ce4bgrh2rcd13ifvqc8g","pricing_plan_id":"free"},{"bike_id":"145cc036-ff55-4f88-880f-9159acf7eb40","system_id":"levelo_inurba_marseille","lat":43.304606,"lon":5.379026,"is_reserved":false,"is_disabled":false,"rental_uris":{"android":"levelo://app?vid=145cc036-ff55-4f88-880f-9159acf7eb40","ios":"levelo://app?vid=145cc036-ff55-4f88-880f-9159acf7eb40"},"vehicle_type_id":"4","last_reported":1704384520,"current_range_meters":17200,"station_id":"ce4bgup2rcd13ifvqcn0","pricing_plan_id":"free"},{"bike_id":"275c26d3-ae78-4dfd-8ae5-9ea38bca16b8","system_id":"levelo_inurba_marseille","lat":43.313703,"lon":5.3833,"is_reserved":false,"is_disabled":false,"rental_uris":{"android":"levelo://app?vid=275c26d3-ae78-4dfd-8ae5-9ea38bca16b8","ios":"levelo://app?vid=275c26d3-ae78-4dfd-8ae5-9ea38bca16b8"},"vehicle_type_id":"4","last_reported":1704384520,"current_range_meters":400,"station_id":"","pricing_plan_id":"free"},{"bike_id":"4379db7e-af97-4715-85b5-63067535ff21","system_id":"levelo_inurba_marseille","lat":43.304606,"lon":5.379026,"is_reserved":false,"is_disabled":false,"rental_uris":{"android":"levelo://app?vid=4379db7e-af97-4715-85b5-63067535ff21","ios":"levelo://app?vid=4379db7e-af97-4715-85b5-63067535ff21"},"vehicle_type_id":"4","last_reported":1704384520,"current_range_meters":30000,"station_id":"ce4bgup2rcd13ifvqcn0","pricing_plan_id":"free"},{"bike_id":"3a44cc4d-3af7-4398-b162-9fb2bf6df4c2","system_id":"levelo_inurba_marseille","lat":43.324771,"lon":5.36557,"is_reserved":false,"is_disabled":false,"rental_uris":{"android":"levelo://app?vid=3a44cc4d-3af7-4398-b162-9fb2bf6df4c2","ios":"levelo://app?vid=3a44cc4d-3af7-4398-b162-9fb2bf6df4c2"},"vehicle_type_id":"4","last_reported":1704384520,"current_range_meters":9600,"station_id":"ce4bhs12rcd13ifvqhvg","pricing_plan_id":"free"},{"bike_id":"21a847ca-1e7c-479f-b35a-d032b6001584","system_id":"levelo_inurba_marseille","lat":43.304606,"lon":5.379026,"is_reserved":false,"is_disabled":false,"rental_uris":{"android":"levelo://app?vid=21a847ca-1e7c-479f-b35a-d032b6001584","ios":"levelo://app?vid=21a847ca-1e7c-479f-b35a-d032b6001584"},"vehicle_type_id":"4","last_reported":1704384520,"current_range_meters":13600,"station_id":"ce4bgup2rcd13ifvqcn0","pricing_plan_id":"free"},{"bike_id":"1ef2c63d-19c5-46ca-ab61-829bfe858900","system_id":"levelo_inurba_marseille","lat":43.31361,"lon":5.38497,"is_reserved":false,"is_disabled":false,"rental_uris":{"android":"levelo://app?vid=1ef2c63d-19c5-46ca-ab61-829bfe858900","ios":"levelo://app?vid=1ef2c63d-19c5-46ca-ab61-829bfe858900"},"vehicle_type_id":"4","last_reported":1704384520,"current_range_meters":0,"station_id":"ce4bgt92rcd13ifvqcf0","pricing_plan_id":"free"},{"bike_id":"17504bde-947a-4cd6-98b3-9a4c66aca99b","system_id":"levelo_inurba_marseille","lat":43.313827,"lon":5.385007,"is_reserved":false,"is_disabled":false,"rental_uris":{"android":"levelo://app?vid=17504bde-947a-4cd6-98b3-9a4c66aca99b","ios":"levelo://app?vid=17504bde-947a-4cd6-98b3-9a4c66aca99b"},"vehicle_type_id":"4","last_reported":1704384520,"current_range_meters":12800,"station_id":"ce4bgt92rcd13ifvqcf0","pricing_plan_id":"free"},{"bike_id":"aef0c869-0bf5-4462-9321-136400a3c5ff","system_id":"levelo_inurba_marseille","lat":43.299222,"lon":5.365554,"is_reserved":false,"is_disabled":false,"rental_uris":{"android":"levelo://app?vid=aef0c869-0bf5-4462-9321-136400a3c5ff","ios":"levelo://app?vid=aef0c869-0bf5-4462-9321-136400a3c5ff"},"vehicle_type_id":"4","last_reported":1704384520,"current_range_meters":15600,"station_id":"ce4bgm92rcd13ifvqbr0","pricing_plan_id":"free"},{"bike_id":"c1440c4a-54be-4ff7-90c3-86584cbfc01e","system_id":"levelo_inurba_marseille","lat":43.299724,"lon":5.371829,"is_reserved":false,"is_disabled":false,"rental_uris":{"android":"levelo://app?vid=c1440c4a-54be-4ff7-90c3-86584cbfc01e","ios":"levelo://app?vid=c1440c4a-54be-4ff7-90c3-86584cbfc01e"},"vehicle_type_id":"4","last_reported":1704384520,"current_range_meters":26800,"station_id":"ce4bgr92rcd13ifvqc7g","pricing_plan_id":"free"},{"bike_id":"b22604ec-0c4b-41b4-a20e-38add68f7682","system_id":"levelo_inurba_marseille","lat":43.325676,"lon":5.374792,"is_reserved":false,"is_disabled":false,"rental_uris":{"android":"levelo://app?vid=b22604ec-0c4b-41b4-a20e-38add68f7682","ios":"levelo://app?vid=b22604ec-0c4b-41b4-a20e-38add68f7682"},"vehicle_type_id":"4","last_reported":1704384520,"current_range_meters":21600,"station_id":"","pricing_plan_id":"free"},{"bike_id":"c2ff85b9-e5dc-406f-846e-dedcd4b75198","system_id":"levelo_inurba_marseille","lat":43.298433,"lon":5.362774,"is_reserved":false,"is_disabled":false,"rental_uris":{"android":"levelo://app?vid=c2ff85b9-e5dc-406f-846e-dedcd4b75198","ios":"levelo://app?vid=c2ff85b9-e5dc-406f-846e-dedcd4b75198"},"vehicle_type_id":"4","last_reported":1704384520,"current_range_meters":25600,"station_id":"ce4bgpp2rcd13ifvqc3g","pricing_plan_id":"free"},{"bike_id":"90826e4a-415b-493b-ae1a-7d625fc11bd2","system_id":"levelo_inurba_marseille","lat":43.29847,"lon":5.36274,"is_reserved":false,"is_disabled":false,"rental_uris":{"android":"levelo://app?vid=90826e4a-415b-493b-ae1a-7d625fc11bd2","ios":"levelo://app?vid=90826e4a-415b-493b-ae1a-7d625fc11bd2"},"vehicle_type_id":"4","last_reported":1704384520,"current_range_meters":5600,"station_id":"ce4bgpp2rcd13ifvqc3g","pricing_plan_id":"free"},{"bike_id":"4bef8ed9-c3d1-47e9-a1a2-7a1e9ea00e31","system_id":"levelo_inurba_marseille","lat":43.29846,"lon":5.36274,"is_reserved":false,"is_disabled":false,"rental_uris":{"android":"levelo://app?vid=4bef8ed9-c3d1-47e9-a1a2-7a1e9ea00e31","ios":"levelo://app?vid=4bef8ed9-c3d1-47e9-a1a2-7a1e9ea00e31"},"vehicle_type_id":"4","last_reported":1704384520,"current_range_meters":22000,"station_id":"ce4bgpp2rcd13ifvqc3g","pricing_plan_id":"free"},{"bike_id":"4df7022e-0d2f-493a-9098-a9325a94b370","system_id":"levelo_inurba_marseille","lat":43.311722,"lon":5.387247,"is_reserved":false,"is_disabled":false,"rental_uris":{"android":"levelo://app?vid=4df7022e-0d2f-493a-9098-a9325a94b370","ios":"levelo://app?vid=4df7022e-0d2f-493a-9098-a9325a94b370"},"vehicle_type_id":"4","last_reported":1704384520,"current_range_meters":4400,"station_id":"ce4bgv12rcd13ifvqcp0","pricing_plan_id":"free"},{"bike_id":"4efaac92-f64b-468c-90f8-b9a4ea4f3fad","system_id":"levelo_inurba_marseille","lat":43.311722,"lon":5.387247,"is_reserved":false,"is_disabled":false,"rental_uris":{"android":"levelo://app?vid=4efaac92-f64b-468c-90f8-b9a4ea4f3fad","ios":"levelo://app?vid=4efaac92-f64b-468c-90f8-b9a4ea4f3fad"},"vehicle_type_id":"4","last_reported":1704384520,"current_range_meters":19200,"station_id":"ce4bgv12rcd13ifvqcp0","pricing_plan_id":"free"},{"bike_id":"e39fd44c-09c0-4e77-8a4c-424d23c58ad6","system_id":"levelo_inurba_marseille","lat":43.297794,"lon":5.370888,"is_reserved":false,"is_disabled":false,"rental_uris":{"android":"levelo://app?vid=e39fd44c-09c0-4e77-8a4c-424d23c58ad6","ios":"levelo://app?vid=e39fd44c-09c0-4e77-8a4c-424d23c58ad6"},"vehicle_type_id":"4","last_reported":1704384520,"current_range_meters":29600,"station_id":"ce4bgop2rcd13ifvqc1g","pricing_plan_id":"free"},{"bike_id":"4c2ed613-9541-4dd0-b4f5-1a6e76d12fc2","system_id":"levelo_inurba_marseille","lat":43.297794,"lon":5.370888,"is_reserved":false,"is_disabled":false,"rental_uris":{"android":"levelo://app?vid=4c2ed613-9541-4dd0-b4f5-1a6e76d12fc2","ios":"levelo://app?vid=4c2ed613-9541-4dd0-b4f5-1a6e76d12fc2"},"vehicle_type_id":"4","last_reported":1704384520,"current_range_meters":20800,"station_id":"ce4bgop2rcd13ifvqc1g","pricing_plan_id":"free"},{"bike_id":"e723e507-f58c-49ba-bbed-a6302bf432d4","system_id":"levelo_inurba_marseille","lat":43.322872,"lon":5.382756,"is_reserved":false,"is_disabled":false,"rental_uris":{"android":"levelo://app?vid=e723e507-f58c-49ba-bbed-a6302bf432d4","ios":"levelo://app?vid=e723e507-f58c-49ba-bbed-a6302bf432d4"},"vehicle_type_id":"4","last_reported":1704384520,"current_range_meters":26400,"station_id":"ce4bhr12rcd13ifvqhqg","pricing_plan_id":"free"},{"bike_id":"84838b11-e059-4f4c-9b8c-d6d34a2b9e53","system_id":"levelo_inurba_marseille","lat":43.297794,"lon":5.370888,"is_reserved":false,"is_disabled":false,"rental_uris":{"android":"levelo://app?vid=84838b11-e059-4f4c-9b8c-d6d34a2b9e53","ios":"levelo://app?vid=84838b11-e059-4f4c-9b8c-d6d34a2b9e53"},"vehicle_type_id":"4","last_reported":1704384520,"current_range_meters":19200,"station_id":"ce4bgop2rcd13ifvqc1g","pricing_plan_id":"free"},{"bike_id":"f53e7a9d-7ee6-4428-85bd-3db5d7cc3975","system_id":"levelo_inurba_marseille","lat":43.322872,"lon":5.382756,"is_reserved":false,"is_disabled":false,"rental_uris":{"android":"levelo://app?vid=f53e7a9d-7ee6-4428-85bd-3db5d7cc3975","ios":"levelo://app?vid=f53e7a9d-7ee6-4428-85bd-3db5d7cc3975"},"vehicle_type_id":"4","last_reported":1704384520,"current_range_meters":31600,"station_id":"ce4bhr12rcd13ifvqhqg","pricing_plan_id":"free"},{"bike_id":"bf47c930-7b32-4528-8c5e-09966162abe6","system_id":"levelo_inurba_marseille","lat":43.322872,"lon":5.382756,"is_reserved":false,"is_disabled":false,"rental_uris":{"android":"levelo://app?vid=bf47c930-7b32-4528-8c5e-09966162abe6","ios":"levelo://app?vid=bf47c930-7b32-4528-8c5e-09966162abe6"},"vehicle_type_id":"4","last_reported":1704384520,"current_range_meters":26800,"station_id":"ce4bhr12rcd13ifvqhqg","pricing_plan_id":"free"},{"bike_id":"7e69bdeb-fe69-4483-8ee7-88c81ad264d9","system_id":"levelo_inurba_marseille","lat":43.322872,"lon":5.382756,"is_reserved":false,"is_disabled":false,"rental_uris":{"android":"levelo://app?vid=7e69bdeb-fe69-4483-8ee7-88c81ad264d9","ios":"levelo://app?vid=7e69bdeb-fe69-4483-8ee7-88c81ad264d9"},"vehicle_type_id":"4","last_reported":1704384520,"current_range_meters":26400,"station_id":"ce4bhr12rcd13ifvqhqg","pricing_plan_id":"free"},{"bike_id":"2a4fb14d-f1d4-4026-b8f7-c1f2bf4f28c6","system_id":"levelo_inurba_marseille","lat":43.32825,"lon":5.36683,"is_reserved":false,"is_disabled":false,"rental_uris":{"android":"levelo://app?vid=2a4fb14d-f1d4-4026-b8f7-c1f2bf4f28c6","ios":"levelo://app?vid=2a4fb14d-f1d4-4026-b8f7-c1f2bf4f28c6"},"vehicle_type_id":"4","last_reported":1704384520,"current_range_meters":30400,"station_id":"ce4bhs92rcd13ifvqi0g","pricing_plan_id":"free"},{"bike_id":"a1a0bcb8-017b-4fdf-8f60-2716e4e6fed8","system_id":"levelo_inurba_marseille","lat":43.32827,"lon":5.36691,"is_reserved":false,"is_disabled":false,"rental_uris":{"android":"levelo://app?vid=a1a0bcb8-017b-4fdf-8f60-2716e4e6fed8","ios":"levelo://app?vid=a1a0bcb8-017b-4fdf-8f60-2716e4e6fed8"},"vehicle_type_id":"4","last_reported":1704384520,"current_range_meters":0,"station_id":"ce4bhs92rcd13ifvqi0g","pricing_plan_id":"free"},{"bike_id":"40547a36-645f-4cc6-8bf9-232a8ea96bf6","system_id":"levelo_inurba_marseille","lat":43.32828,"lon":5.36681,"is_reserved":false,"is_disabled":false,"rental_uris":{"android":"levelo://app?vid=40547a36-645f-4cc6-8bf9-232a8ea96bf6","ios":"levelo://app?vid=40547a36-645f-4cc6-8bf9-232a8ea96bf6"},"vehicle_type_id":"4","last_reported":1704384520,"current_range_meters":9600,"station_id":"ce4bhs92rcd13ifvqi0g","pricing_plan_id":"free"},{"bike_id":"95e60a05-c3f6-42d6-b8d8-8e09a3364abf","system_id":"levelo_inurba_marseille","lat":43.328371,"lon":5.366909,"is_reserved":false,"is_disabled":false,"rental_uris":{"android":"levelo://app?vid=95e60a05-c3f6-42d6-b8d8-8e09a3364abf","ios":"levelo://app?vid=95e60a05-c3f6-42d6-b8d8-8e09a3364abf"},"vehicle_type_id":"4","last_reported":1704384520,"current_range_meters":12400,"station_id":"ce4bhs92rcd13ifvqi0g","pricing_plan_id":"free"},{"bike_id":"a6953f89-b867-47c2-a99f-949ca50d8a77","system_id":"levelo_inurba_marseille","lat":43.328371,"lon":5.366909,"is_reserved":false,"is_disabled":false,"rental_uris":{"android":"levelo://app?vid=a6953f89-b867-47c2-a99f-949ca50d8a77","ios":"levelo://app?vid=a6953f89-b867-47c2-a99f-949ca50d8a77"},"vehicle_type_id":"4","last_reported":1704384520,"current_range_meters":16800,"station_id":"ce4bhs92rcd13ifvqi0g","pricing_plan_id":"free"},{"bike_id":"4d6cbba3-2e55-4f7b-870f-2fed43f3ec1c","system_id":"levelo_inurba_marseille","lat":43.328357,"lon":5.366921,"is_reserved":false,"is_disabled":false,"rental_uris":{"android":"levelo://app?vid=4d6cbba3-2e55-4f7b-870f-2fed43f3ec1c","ios":"levelo://app?vid=4d6cbba3-2e55-4f7b-870f-2fed43f3ec1c"},"vehicle_type_id":"4","last_reported":1704384520,"current_range_meters":15600,"station_id":"ce4bhs92rcd13ifvqi0g","pricing_plan_id":"free"},{"bike_id":"e3dd8536-128d-422e-9b07-533da27003e7","system_id":"levelo_inurba_marseille","lat":43.297163,"lon":5.365866,"is_reserved":false,"is_disabled":false,"rental_uris":{"android":"levelo://app?vid=e3dd8536-128d-422e-9b07-533da27003e7","ios":"levelo://app?vid=e3dd8536-128d-422e-9b07-533da27003e7"},"vehicle_type_id":"4","last_reported":1704384520,"current_range_meters":20800,"station_id":"ce4bgn12rcd13ifvqbt0","pricing_plan_id":"free"},{"bike_id":"370cccf7-c9ba-46c2-819b-c8e8cacc4c21","system_id":"levelo_inurba_marseille","lat":43.3277,"lon":5.37458,"is_reserved":false,"is_disabled":false,"rental_uris":{"android":"levelo://app?vid=370cccf7-c9ba-46c2-819b-c8e8cacc4c21","ios":"levelo://app?vid=370cccf7-c9ba-46c2-819b-c8e8cacc4c21"},"vehicle_type_id":"4","last_reported":1704384520,"current_range_meters":800,"station_id":"","pricing_plan_id":"free"},{"bike_id":"eafcf218-7858-43ea-bfeb-519f8e0090da","system_id":"levelo_inurba_marseille","lat":43.2968,"lon":5.37291,"is_reserved":false,"is_disabled":false,"rental_uris":{"android":"levelo://app?vid=eafcf218-7858-43ea-bfeb-519f8e0090da","ios":"levelo://app?vid=eafcf218-7858-43ea-bfeb-519f8e0090da"},"vehicle_type_id":"4","last_reported":1704384520,"current_range_meters":6000,"station_id":"ce4bgk12rcd13ifvqbj0","pricing_plan_id":"free"},{"bike_id":"d3661675-ef34-4363-8f5c-3f830c1dd761","system_id":"levelo_inurba_marseille","lat":43.29614,"lon":5.36778,"is_reserved":false,"is_disabled":false,"rental_uris":{"android":"levelo://app?vid=d3661675-ef34-4363-8f5c-3f830c1dd761","ios":"levelo://app?vid=d3661675-ef34-4363-8f5c-3f830c1dd761"},"vehicle_type_id":"4","last_reported":1704384520,"current_range_meters":19600,"station_id":"","pricing_plan_id":"free"},{"bike_id":"b03a04b7-184a-4d74-b8e8-f92f26130057","system_id":"levelo_inurba_marseille","lat":43.29573,"lon":5.367355,"is_reserved":false,"is_disabled":false,"rental_uris":{"android":"levelo://app?vid=b03a04b7-184a-4d74-b8e8-f92f26130057","ios":"levelo://app?vid=b03a04b7-184a-4d74-b8e8-f92f26130057"},"vehicle_type_id":"4","last_reported":1704384520,"current_range_meters":13200,"station_id":"ce4bgph2rcd13ifvqc2g","pricing_plan_id":"free"},{"bike_id":"38817299-b487-4cab-8ec8-487c20a23e2e","system_id":"levelo_inurba_marseille","lat":43.29698,"lon":5.376933,"is_reserved":false,"is_disabled":false,"rental_uris":{"android":"levelo://app?vid=38817299-b487-4cab-8ec8-487c20a23e2e","ios":"levelo://app?vid=38817299-b487-4cab-8ec8-487c20a23e2e"},"vehicle_type_id":"4","last_reported":1704384520,"current_range_meters":0,"station_id":"ce4bgkh2rcd13ifvqbl0","pricing_plan_id":"free"},{"bike_id":"dd328ff2-e240-47f8-9002-92322c54e2d9","system_id":"levelo_inurba_marseille","lat":43.317557,"lon":5.390173,"is_reserved":false,"is_disabled":false,"rental_uris":{"android":"levelo://app?vid=dd328ff2-e240-47f8-9002-92322c54e2d9","ios":"levelo://app?vid=dd328ff2-e240-47f8-9002-92322c54e2d9"},"vehicle_type_id":"4","last_reported":1704384520,"current_range_meters":23600,"station_id":"ce4bhqp2rcd13ifvqhng","pricing_plan_id":"free"},{"bike_id":"f08f2cef-ba8a-463d-a9c3-672b2a13574b","system_id":"levelo_inurba_marseille","lat":43.304274,"lon":5.388873,"is_reserved":false,"is_disabled":false,"rental_uris":{"android":"levelo://app?vid=f08f2cef-ba8a-463d-a9c3-672b2a13574b","ios":"levelo://app?vid=f08f2cef-ba8a-463d-a9c3-672b2a13574b"},"vehicle_type_id":"4","last_reported":1704384520,"current_range_meters":15200,"station_id":"ce4bgk12rcd13ifvqbi0","pricing_plan_id":"free"},{"bike_id":"d60802d6-4f47-444a-b234-883690eec05b","system_id":"levelo_inurba_marseille","lat":43.33062,"lon":5.3627,"is_reserved":false,"is_disabled":false,"rental_uris":{"android":"levelo://app?vid=d60802d6-4f47-444a-b234-883690eec05b","ios":"levelo://app?vid=d60802d6-4f47-444a-b234-883690eec05b"},"vehicle_type_id":"4","last_reported":1704384520,"current_range_meters":7600,"station_id":"","pricing_plan_id":"free"},{"bike_id":"27a54937-488a-4401-b98e-aa8de158d995","system_id":"levelo_inurba_marseille","lat":43.295748,"lon":5.37522,"is_reserved":false,"is_disabled":false,"rental_uris":{"android":"levelo://app?vid=27a54937-488a-4401-b98e-aa8de158d995","ios":"levelo://app?vid=27a54937-488a-4401-b98e-aa8de158d995"},"vehicle_type_id":"4","last_reported":1704384520,"current_range_meters":0,"station_id":"ce4bgh92rcd13ifvqb50","pricing_plan_id":"free"},{"bike_id":"aab64a4a-6970-40a3-b31c-a92647f6efb1","system_id":"levelo_inurba_marseille","lat":43.2962,"lon":5.37724,"is_reserved":false,"is_disabled":false,"rental_uris":{"android":"levelo://app?vid=aab64a4a-6970-40a3-b31c-a92647f6efb1","ios":"levelo://app?vid=aab64a4a-6970-40a3-b31c-a92647f6efb1"},"vehicle_type_id":"4","last_reported":1704384520,"current_range_meters":0,"station_id":"ce4bgi92rcd13ifvqb90","pricing_plan_id":"free"},{"bike_id":"149c0ab8-a104-46e1-a7f6-4d57f3cfe30f","system_id":"levelo_inurba_marseille","lat":43.29537,"lon":5.37502,"is_reserved":false,"is_disabled":false,"rental_uris":{"android":"levelo://app?vid=149c0ab8-a104-46e1-a7f6-4d57f3cfe30f","ios":"levelo://app?vid=149c0ab8-a104-46e1-a7f6-4d57f3cfe30f"},"vehicle_type_id":"4","last_reported":1704384520,"current_range_meters":0,"station_id":"ce4bgkp2rcd13ifvqbmg","pricing_plan_id":"free"},{"bike_id":"f8783177-a4d6-4165-a369-7b1405663763","system_id":"levelo_inurba_marseille","lat":43.299707,"lon":5.384859,"is_reserved":false,"is_disabled":false,"rental_uris":{"android":"levelo://app?vid=f8783177-a4d6-4165-a369-7b1405663763","ios":"levelo://app?vid=f8783177-a4d6-4165-a369-7b1405663763"},"vehicle_type_id":"4","last_reported":1704384520,"current_range_meters":0,"station_id":"ce4bgj92rcd13ifvqbd0","pricing_plan_id":"free"},{"bike_id":"1fa616e7-3d16-495f-abbe-b4eaf429afb0","system_id":"levelo_inurba_marseille","lat":43.304278,"lon":5.388868,"is_reserved":false,"is_disabled":false,"rental_uris":{"android":"levelo://app?vid=1fa616e7-3d16-495f-abbe-b4eaf429afb0","ios":"levelo://app?vid=1fa616e7-3d16-495f-abbe-b4eaf429afb0"},"vehicle_type_id":"4","last_reported":1704384520,"current_range_meters":22000,"station_id":"ce4bgk12rcd13ifvqbi0","pricing_plan_id":"free"},{"bike_id":"947d8655-b1d8-4ce9-a1c9-57c013abb65c","system_id":"levelo_inurba_marseille","lat":43.323687,"lon":5.388765,"is_reserved":false,"is_disabled":false,"rental_uris":{"android":"levelo://app?vid=947d8655-b1d8-4ce9-a1c9-57c013abb65c","ios":"levelo://app?vid=947d8655-b1d8-4ce9-a1c9-57c013abb65c"},"vehicle_type_id":"4","last_reported":1704384520,"current_range_meters":21600,"station_id":"ce4bhqp2rcd13ifvqhog","pricing_plan_id":"free"},{"bike_id":"7dcc4c1a-493c-418f-b49b-bb7ef2be55a0","system_id":"levelo_inurba_marseille","lat":43.296,"lon":5.381,"is_reserved":false,"is_disabled":false,"rental_uris":{"android":"levelo://app?vid=7dcc4c1a-493c-418f-b49b-bb7ef2be55a0","ios":"levelo://app?vid=7dcc4c1a-493c-418f-b49b-bb7ef2be55a0"},"vehicle_type_id":"4","last_reported":1704384520,"current_range_meters":0,"station_id":"ce4bgl12rcd13ifvqbo0","pricing_plan_id":"free"},{"bike_id":"5398033c-f405-4420-af85-583522f24c26","system_id":"levelo_inurba_marseille","lat":43.29269,"lon":5.36841,"is_reserved":false,"is_disabled":false,"rental_uris":{"android":"levelo://app?vid=5398033c-f405-4420-af85-583522f24c26","ios":"levelo://app?vid=5398033c-f405-4420-af85-583522f24c26"},"vehicle_type_id":"4","last_reported":1704384520,"current_range_meters":0,"station_id":"ce4bhbp2rcd13ifvqesg","pricing_plan_id":"free"},{"bike_id":"e1e6bcb1-180c-4b08-83a8-8122d02159f0","system_id":"levelo_inurba_marseille","lat":43.30307,"lon":5.39199,"is_reserved":false,"is_disabled":false,"rental_uris":{"android":"levelo://app?vid=e1e6bcb1-180c-4b08-83a8-8122d02159f0","ios":"levelo://app?vid=e1e6bcb1-180c-4b08-83a8-8122d02159f0"},"vehicle_type_id":"4","last_reported":1704384520,"current_range_meters":0,"station_id":"ce4bgkh2rcd13ifvqbk0","pricing_plan_id":"free"},{"bike_id":"b5964d68-79da-437c-8c1d-ef23bc7efeaf","system_id":"levelo_inurba_marseille","lat":43.2936,"lon":5.37835,"is_reserved":false,"is_disabled":false,"rental_uris":{"android":"levelo://app?vid=b5964d68-79da-437c-8c1d-ef23bc7efeaf","ios":"levelo://app?vid=b5964d68-79da-437c-8c1d-ef23bc7efeaf"},"vehicle_type_id":"4","last_reported":1704384520,"current_range_meters":14400,"station_id":"ce4bgjh2rcd13ifvqbf0","pricing_plan_id":"free"},{"bike_id":"1d76884e-cef2-4656-add2-5ad4f8c2ba58","system_id":"levelo_inurba_marseille","lat":43.2936,"lon":5.37835,"is_reserved":false,"is_disabled":false,"rental_uris":{"android":"levelo://app?vid=1d76884e-cef2-4656-add2-5ad4f8c2ba58","ios":"levelo://app?vid=1d76884e-cef2-4656-add2-5ad4f8c2ba58"},"vehicle_type_id":"4","last_reported":1704384520,"current_range_meters":0,"station_id":"ce4bgjh2rcd13ifvqbf0","pricing_plan_id":"free"},{"bike_id":"4e9d8aa4-a9b5-40ff-895b-0b2473ce8d93","system_id":"levelo_inurba_marseille","lat":43.29874,"lon":5.38896,"is_reserved":false,"is_disabled":false,"rental_uris":{"android":"levelo://app?vid=4e9d8aa4-a9b5-40ff-895b-0b2473ce8d93","ios":"levelo://app?vid=4e9d8aa4-a9b5-40ff-895b-0b2473ce8d93"},"vehicle_type_id":"4","last_reported":1704384520,"current_range_meters":15200,"station_id":"","pricing_plan_id":"free"},{"bike_id":"793fb723-1f17-4d3b-9754-f2aba18832a8","system_id":"levelo_inurba_marseille","lat":43.291994,"lon":5.357886,"is_reserved":false,"is_disabled":false,"rental_uris":{"android":"levelo://app?vid=793fb723-1f17-4d3b-9754-f2aba18832a8","ios":"levelo://app?vid=793fb723-1f17-4d3b-9754-f2aba18832a8"},"vehicle_type_id":"4","last_reported":1704384520,"current_range_meters":18400,"station_id":"ce4bhb12rcd13ifvqel0","pricing_plan_id":"free"},{"bike_id":"65f481ce-2ac2-42ec-8540-d7bd8efcb7af","system_id":"levelo_inurba_marseille","lat":43.313291,"lon":5.396838,"is_reserved":false,"is_disabled":false,"rental_uris":{"android":"levelo://app?vid=65f481ce-2ac2-42ec-8540-d7bd8efcb7af","ios":"levelo://app?vid=65f481ce-2ac2-42ec-8540-d7bd8efcb7af"},"vehicle_type_id":"4","last_reported":1704384520,"current_range_meters":10400,"station_id":"ce4bgvp2rcd13ifvqcu0","pricing_plan_id":"free"},{"bike_id":"9fd30980-e684-46b1-87d0-0fdaf779700f","system_id":"levelo_inurba_marseille","lat":43.291994,"lon":5.357886,"is_reserved":false,"is_disabled":false,"rental_uris":{"android":"levelo://app?vid=9fd30980-e684-46b1-87d0-0fdaf779700f","ios":"levelo://app?vid=9fd30980-e684-46b1-87d0-0fdaf779700f"},"vehicle_type_id":"4","last_reported":1704384520,"current_range_meters":8400,"station_id":"ce4bhb12rcd13ifvqel0","pricing_plan_id":"free"},{"bike_id":"80ce1e4c-5bd8-4f59-b86e-1b5595b680fb","system_id":"levelo_inurba_marseille","lat":43.291994,"lon":5.357886,"is_reserved":false,"is_disabled":false,"rental_uris":{"android":"levelo://app?vid=80ce1e4c-5bd8-4f59-b86e-1b5595b680fb","ios":"levelo://app?vid=80ce1e4c-5bd8-4f59-b86e-1b5595b680fb"},"vehicle_type_id":"4","last_reported":1704384520,"current_range_meters":0,"station_id":"ce4bhb12rcd13ifvqel0","pricing_plan_id":"free"},{"bike_id":"ae2f3ecd-e2b8-41f5-9d7e-7d41a6f29872","system_id":"levelo_inurba_marseille","lat":43.313291,"lon":5.396838,"is_reserved":false,"is_disabled":false,"rental_uris":{"android":"levelo://app?vid=ae2f3ecd-e2b8-41f5-9d7e-7d41a6f29872","ios":"levelo://app?vid=ae2f3ecd-e2b8-41f5-9d7e-7d41a6f29872"},"vehicle_type_id":"4","last_reported":1704384520,"current_range_meters":25600,"station_id":"ce4bgvp2rcd13ifvqcu0","pricing_plan_id":"free"},{"bike_id":"d54d0338-12c6-48d8-a30a-ed913d5ab336","system_id":"levelo_inurba_marseille","lat":43.309038,"lon":5.396546,"is_reserved":false,"is_disabled":false,"rental_uris":{"android":"levelo://app?vid=d54d0338-12c6-48d8-a30a-ed913d5ab336","ios":"levelo://app?vid=d54d0338-12c6-48d8-a30a-ed913d5ab336"},"vehicle_type_id":"4","last_reported":1704384520,"current_range_meters":14400,"station_id":"ce4bh012rcd13ifvqcv0","pricing_plan_id":"free"},{"bike_id":"a73bed9e-73f2-4990-8e9d-dfe0beb50e62","system_id":"levelo_inurba_marseille","lat":43.29529,"lon":5.385581,"is_reserved":false,"is_disabled":false,"rental_uris":{"android":"levelo://app?vid=a73bed9e-73f2-4990-8e9d-dfe0beb50e62","ios":"levelo://app?vid=a73bed9e-73f2-4990-8e9d-dfe0beb50e62"},"vehicle_type_id":"4","last_reported":1704384520,"current_range_meters":16000,"station_id":"ce4bgih2rcd13ifvqba0","pricing_plan_id":"free"},{"bike_id":"4a9311c4-4db5-4367-b1f7-d435bd185033","system_id":"levelo_inurba_marseille","lat":43.33273,"lon":5.37989,"is_reserved":false,"is_disabled":false,"rental_uris":{"android":"levelo://app?vid=4a9311c4-4db5-4367-b1f7-d435bd185033","ios":"levelo://app?vid=4a9311c4-4db5-4367-b1f7-d435bd185033"},"vehicle_type_id":"4","last_reported":1704384520,"current_range_meters":6000,"station_id":"","pricing_plan_id":"free"},{"bike_id":"38de82ba-9a22-4d1d-b18c-123321c3e8fe","system_id":"levelo_inurba_marseille","lat":43.29551,"lon":5.38652,"is_reserved":false,"is_disabled":false,"rental_uris":{"android":"levelo://app?vid=38de82ba-9a22-4d1d-b18c-123321c3e8fe","ios":"levelo://app?vid=38de82ba-9a22-4d1d-b18c-123321c3e8fe"},"vehicle_type_id":"4","last_reported":1704384520,"current_range_meters":28400,"station_id":"","pricing_plan_id":"free"},{"bike_id":"f65779f7-42d1-4d6f-a11b-572d09c17036","system_id":"levelo_inurba_marseille","lat":43.290104,"lon":5.356111,"is_reserved":false,"is_disabled":false,"rental_uris":{"android":"levelo://app?vid=f65779f7-42d1-4d6f-a11b-572d09c17036","ios":"levelo://app?vid=f65779f7-42d1-4d6f-a11b-572d09c17036"},"vehicle_type_id":"4","last_reported":1704384520,"current_range_meters":23600,"station_id":"ce4bhb92rcd13ifvqen0","pricing_plan_id":"free"},{"bike_id":"942433a5-fe45-444a-82de-892462eb90a0","system_id":"levelo_inurba_marseille","lat":43.290104,"lon":5.356111,"is_reserved":false,"is_disabled":false,"rental_uris":{"android":"levelo://app?vid=942433a5-fe45-444a-82de-892462eb90a0","ios":"levelo://app?vid=942433a5-fe45-444a-82de-892462eb90a0"},"vehicle_type_id":"4","last_reported":1704384520,"current_range_meters":10000,"station_id":"ce4bhb92rcd13ifvqen0","pricing_plan_id":"free"},{"bike_id":"33051884-9130-43f4-b7f1-a5d751dc704c","system_id":"levelo_inurba_marseille","lat":43.290103,"lon":5.356114,"is_reserved":false,"is_disabled":false,"rental_uris":{"android":"levelo://app?vid=33051884-9130-43f4-b7f1-a5d751dc704c","ios":"levelo://app?vid=33051884-9130-43f4-b7f1-a5d751dc704c"},"vehicle_type_id":"4","last_reported":1704384520,"current_range_meters":18000,"station_id":"ce4bhb92rcd13ifvqen0","pricing_plan_id":"free"},{"bike_id":"a023d84b-11ca-49dd-9d6c-50372e788579","system_id":"levelo_inurba_marseille","lat":43.330442,"lon":5.389148,"is_reserved":false,"is_disabled":false,"rental_uris":{"android":"levelo://app?vid=a023d84b-11ca-49dd-9d6c-50372e788579","ios":"levelo://app?vid=a023d84b-11ca-49dd-9d6c-50372e788579"},"vehicle_type_id":"4","last_reported":1704384520,"current_range_meters":14000,"station_id":"ce4bhr92rcd13ifvqhrg","pricing_plan_id":"free"},{"bike_id":"7f51f56e-0fc7-412d-80ef-6938763fa63c","system_id":"levelo_inurba_marseille","lat":43.330442,"lon":5.389148,"is_reserved":false,"is_disabled":false,"rental_uris":{"android":"levelo://app?vid=7f51f56e-0fc7-412d-80ef-6938763fa63c","ios":"levelo://app?vid=7f51f56e-0fc7-412d-80ef-6938763fa63c"},"vehicle_type_id":"4","last_reported":1704384520,"current_range_meters":18800,"station_id":"ce4bhr92rcd13ifvqhrg","pricing_plan_id":"free"},{"bike_id":"9d31f98b-7796-45f5-9144-6e7af7985825","system_id":"levelo_inurba_marseille","lat":43.289741,"lon":5.378306,"is_reserved":false,"is_disabled":false,"rental_uris":{"android":"levelo://app?vid=9d31f98b-7796-45f5-9144-6e7af7985825","ios":"levelo://app?vid=9d31f98b-7796-45f5-9144-6e7af7985825"},"vehicle_type_id":"4","last_reported":1704384520,"current_range_meters":17200,"station_id":"ce4bh9p2rcd13ifvqed0","pricing_plan_id":"free"},{"bike_id":"a4544299-4117-4ba4-98ad-2dcd1cebe1e8","system_id":"levelo_inurba_marseille","lat":43.330442,"lon":5.389148,"is_reserved":false,"is_disabled":false,"rental_uris":{"android":"levelo://app?vid=a4544299-4117-4ba4-98ad-2dcd1cebe1e8","ios":"levelo://app?vid=a4544299-4117-4ba4-98ad-2dcd1cebe1e8"},"vehicle_type_id":"4","last_reported":1704384520,"current_range_meters":19600,"station_id":"ce4bhr92rcd13ifvqhrg","pricing_plan_id":"free"},{"bike_id":"baa612e8-c836-40fe-930b-f97b86f02077","system_id":"levelo_inurba_marseille","lat":43.289743,"lon":5.378304,"is_reserved":false,"is_disabled":false,"rental_uris":{"android":"levelo://app?vid=baa612e8-c836-40fe-930b-f97b86f02077","ios":"levelo://app?vid=baa612e8-c836-40fe-930b-f97b86f02077"},"vehicle_type_id":"4","last_reported":1704384520,"current_range_meters":12400,"station_id":"ce4bh9p2rcd13ifvqed0","pricing_plan_id":"free"},{"bike_id":"3537c72e-affb-4603-a0d4-44c57db301e5","system_id":"levelo_inurba_marseille","lat":43.330442,"lon":5.389148,"is_reserved":false,"is_disabled":false,"rental_uris":{"android":"levelo://app?vid=3537c72e-affb-4603-a0d4-44c57db301e5","ios":"levelo://app?vid=3537c72e-affb-4603-a0d4-44c57db301e5"},"vehicle_type_id":"4","last_reported":1704384520,"current_range_meters":26000,"station_id":"ce4bhr92rcd13ifvqhrg","pricing_plan_id":"free"},{"bike_id":"a45508dc-3e20-4dc2-a3f2-c48092cac22d","system_id":"levelo_inurba_marseille","lat":43.330442,"lon":5.389148,"is_reserved":false,"is_disabled":false,"rental_uris":{"android":"levelo://app?vid=a45508dc-3e20-4dc2-a3f2-c48092cac22d","ios":"levelo://app?vid=a45508dc-3e20-4dc2-a3f2-c48092cac22d"},"vehicle_type_id":"4","last_reported":1704384520,"current_range_meters":30400,"station_id":"ce4bhr92rcd13ifvqhrg","pricing_plan_id":"free"},{"bike_id":"b4dc5f58-d698-47e4-9d04-a65a1aac924a","system_id":"levelo_inurba_marseille","lat":43.330442,"lon":5.389148,"is_reserved":false,"is_disabled":false,"rental_uris":{"android":"levelo://app?vid=b4dc5f58-d698-47e4-9d04-a65a1aac924a","ios":"levelo://app?vid=b4dc5f58-d698-47e4-9d04-a65a1aac924a"},"vehicle_type_id":"4","last_reported":1704384520,"current_range_meters":8400,"station_id":"ce4bhr92rcd13ifvqhrg","pricing_plan_id":"free"},{"bike_id":"b87042d5-a5d5-49a9-81ee-bbe3cd37cd23","system_id":"levelo_inurba_marseille","lat":43.33745,"lon":5.37455,"is_reserved":false,"is_disabled":false,"rental_uris":{"android":"levelo://app?vid=b87042d5-a5d5-49a9-81ee-bbe3cd37cd23","ios":"levelo://app?vid=b87042d5-a5d5-49a9-81ee-bbe3cd37cd23"},"vehicle_type_id":"4","last_reported":1704384520,"current_range_meters":22000,"station_id":"","pricing_plan_id":"free"},{"bike_id":"1efb3017-57bc-4fe3-aecd-e0c78304d341","system_id":"levelo_inurba_marseille","lat":43.30642,"lon":5.401031,"is_reserved":false,"is_disabled":false,"rental_uris":{"android":"levelo://app?vid=1efb3017-57bc-4fe3-aecd-e0c78304d341","ios":"levelo://app?vid=1efb3017-57bc-4fe3-aecd-e0c78304d341"},"vehicle_type_id":"4","last_reported":1704384520,"current_range_meters":11600,"station_id":"ce4bh112rcd13ifvqda0","pricing_plan_id":"free"},{"bike_id":"a38cb2cd-211a-406b-a45d-b2390548c22c","system_id":"levelo_inurba_marseille","lat":43.337675,"lon":5.374703,"is_reserved":false,"is_disabled":false,"rental_uris":{"android":"levelo://app?vid=a38cb2cd-211a-406b-a45d-b2390548c22c","ios":"levelo://app?vid=a38cb2cd-211a-406b-a45d-b2390548c22c"},"vehicle_type_id":"4","last_reported":1704384520,"current_range_meters":27600,"station_id":"","pricing_plan_id":"free"},{"bike_id":"88b992ac-b851-4370-a5e1-696a7c2459ce","system_id":"levelo_inurba_marseille","lat":43.301366,"lon":5.398758,"is_reserved":false,"is_disabled":false,"rental_uris":{"android":"levelo://app?vid=88b992ac-b851-4370-a5e1-696a7c2459ce","ios":"levelo://app?vid=88b992ac-b851-4370-a5e1-696a7c2459ce"},"vehicle_type_id":"4","last_reported":1704384520,"current_range_meters":0,"station_id":"ce4bh0h2rcd13ifvqd40","pricing_plan_id":"free"},{"bike_id":"ce23df25-1f35-4e91-b521-e745988a7edf","system_id":"levelo_inurba_marseille","lat":43.28727,"lon":5.36078,"is_reserved":false,"is_disabled":false,"rental_uris":{"android":"levelo://app?vid=ce23df25-1f35-4e91-b521-e745988a7edf","ios":"levelo://app?vid=ce23df25-1f35-4e91-b521-e745988a7edf"},"vehicle_type_id":"4","last_reported":1704384520,"current_range_meters":18400,"station_id":"cki0cbj6b192h4jlfktg","pricing_plan_id":"free"},{"bike_id":"cfc5d20c-e68d-4511-b4b7-1a84e959c9ad","system_id":"levelo_inurba_marseille","lat":43.286591,"lon":5.363346,"is_reserved":false,"is_disabled":false,"rental_uris":{"android":"levelo://app?vid=cfc5d20c-e68d-4511-b4b7-1a84e959c9ad","ios":"levelo://app?vid=cfc5d20c-e68d-4511-b4b7-1a84e959c9ad"},"vehicle_type_id":"4","last_reported":1704384520,"current_range_meters":19600,"station_id":"ce4bhah2rcd13ifvqej0","pricing_plan_id":"free"},{"bike_id":"d203e9a1-2922-4b6c-96f4-3426ae1ec641","system_id":"levelo_inurba_marseille","lat":43.287095,"lon":5.373855,"is_reserved":false,"is_disabled":false,"rental_uris":{"android":"levelo://app?vid=d203e9a1-2922-4b6c-96f4-3426ae1ec641","ios":"levelo://app?vid=d203e9a1-2922-4b6c-96f4-3426ae1ec641"},"vehicle_type_id":"4","last_reported":1704384520,"current_range_meters":28800,"station_id":"ce4bh3p2rcd13ifvqdq0","pricing_plan_id":"free"},{"bike_id":"909e071c-11ab-4fd1-888b-b602a2ad9783","system_id":"levelo_inurba_marseille","lat":43.286961,"lon":5.373785,"is_reserved":false,"is_disabled":false,"rental_uris":{"android":"levelo://app?vid=909e071c-11ab-4fd1-888b-b602a2ad9783","ios":"levelo://app?vid=909e071c-11ab-4fd1-888b-b602a2ad9783"},"vehicle_type_id":"4","last_reported":1704384520,"current_range_meters":18800,"station_id":"ce4bh3p2rcd13ifvqdq0","pricing_plan_id":"free"},{"bike_id":"094336c6-b267-4e6d-9f8a-004a90b1a8e1","system_id":"levelo_inurba_marseille","lat":43.290345,"lon":5.38646,"is_reserved":false,"is_disabled":false,"rental_uris":{"android":"levelo://app?vid=094336c6-b267-4e6d-9f8a-004a90b1a8e1","ios":"levelo://app?vid=094336c6-b267-4e6d-9f8a-004a90b1a8e1"},"vehicle_type_id":"4","last_reported":1704384520,"current_range_meters":17200,"station_id":"ce4bh4p2rcd13ifvqe0g","pricing_plan_id":"free"},{"bike_id":"b15cbd3c-50a3-44a3-ac90-2bce4cda6961","system_id":"levelo_inurba_marseille","lat":43.302759,"lon":5.400793,"is_reserved":false,"is_disabled":false,"rental_uris":{"android":"levelo://app?vid=b15cbd3c-50a3-44a3-ac90-2bce4cda6961","ios":"levelo://app?vid=b15cbd3c-50a3-44a3-ac90-2bce4cda6961"},"vehicle_type_id":"4","last_reported":1704384520,"current_range_meters":28800,"station_id":"ce4bgvh2rcd13ifvqcs0","pricing_plan_id":"free"},{"bike_id":"964acb03-7fbc-404d-a282-b863c532c125","system_id":"levelo_inurba_marseille","lat":43.289307,"lon":5.38406,"is_reserved":false,"is_disabled":false,"rental_uris":{"android":"levelo://app?vid=964acb03-7fbc-404d-a282-b863c532c125","ios":"levelo://app?vid=964acb03-7fbc-404d-a282-b863c532c125"},"vehicle_type_id":"4","last_reported":1704384520,"current_range_meters":28000,"station_id":"ce4bh612rcd13ifvqe6g","pricing_plan_id":"free"},{"bike_id":"98a2242f-4da3-4a2b-94d5-18533170f8c8","system_id":"levelo_inurba_marseille","lat":43.302759,"lon":5.400793,"is_reserved":false,"is_disabled":false,"rental_uris":{"android":"levelo://app?vid=98a2242f-4da3-4a2b-94d5-18533170f8c8","ios":"levelo://app?vid=98a2242f-4da3-4a2b-94d5-18533170f8c8"},"vehicle_type_id":"4","last_reported":1704384520,"current_range_meters":5600,"station_id":"ce4bgvh2rcd13ifvqcs0","pricing_plan_id":"free"},{"bike_id":"76937c1e-a196-46ba-a480-d92fd40254b8","system_id":"levelo_inurba_marseille","lat":43.302759,"lon":5.400793,"is_reserved":false,"is_disabled":false,"rental_uris":{"android":"levelo://app?vid=76937c1e-a196-46ba-a480-d92fd40254b8","ios":"levelo://app?vid=76937c1e-a196-46ba-a480-d92fd40254b8"},"vehicle_type_id":"4","last_reported":1704384520,"current_range_meters":25600,"station_id":"ce4bgvh2rcd13ifvqcs0","pricing_plan_id":"free"},{"bike_id":"0fb8ff4f-85ee-4447-bc55-aed0c96edefa","system_id":"levelo_inurba_marseille","lat":43.302759,"lon":5.400793,"is_reserved":false,"is_disabled":false,"rental_uris":{"android":"levelo://app?vid=0fb8ff4f-85ee-4447-bc55-aed0c96edefa","ios":"levelo://app?vid=0fb8ff4f-85ee-4447-bc55-aed0c96edefa"},"vehicle_type_id":"4","last_reported":1704384520,"current_range_meters":30000,"station_id":"ce4bgvh2rcd13ifvqcs0","pricing_plan_id":"free"},{"bike_id":"84d05f85-9196-46bc-bc6f-8a3961f58b58","system_id":"levelo_inurba_marseille","lat":43.287185,"lon":5.379373,"is_reserved":false,"is_disabled":false,"rental_uris":{"android":"levelo://app?vid=84d05f85-9196-46bc-bc6f-8a3961f58b58","ios":"levelo://app?vid=84d05f85-9196-46bc-bc6f-8a3961f58b58"},"vehicle_type_id":"4","last_reported":1704384520,"current_range_meters":30000,"station_id":"ce4bh9p2rcd13ifvqec0","pricing_plan_id":"free"},{"bike_id":"551a7b79-2597-411d-b7af-20c6aa18c4ef","system_id":"levelo_inurba_marseille","lat":43.28611,"lon":5.3706,"is_reserved":false,"is_disabled":false,"rental_uris":{"android":"levelo://app?vid=551a7b79-2597-411d-b7af-20c6aa18c4ef","ios":"levelo://app?vid=551a7b79-2597-411d-b7af-20c6aa18c4ef"},"vehicle_type_id":"4","last_reported":1704384520,"current_range_meters":15200,"station_id":"ce4bht12rcd13ifvqi60","pricing_plan_id":"free"},{"bike_id":"0b2e4cda-a050-4604-93e2-98f30b757693","system_id":"levelo_inurba_marseille","lat":43.286039,"lon":5.370679,"is_reserved":false,"is_disabled":false,"rental_uris":{"android":"levelo://app?vid=0b2e4cda-a050-4604-93e2-98f30b757693","ios":"levelo://app?vid=0b2e4cda-a050-4604-93e2-98f30b757693"},"vehicle_type_id":"4","last_reported":1704384520,"current_range_meters":19600,"station_id":"ce4bht12rcd13ifvqi60","pricing_plan_id":"free"},{"bike_id":"43fa715b-0b8c-4853-9980-29bfa9807e84","system_id":"levelo_inurba_marseille","lat":43.286039,"lon":5.370679,"is_reserved":false,"is_disabled":false,"rental_uris":{"android":"levelo://app?vid=43fa715b-0b8c-4853-9980-29bfa9807e84","ios":"levelo://app?vid=43fa715b-0b8c-4853-9980-29bfa9807e84"},"vehicle_type_id":"4","last_reported":1704384520,"current_range_meters":10400,"station_id":"ce4bht12rcd13ifvqi60","pricing_plan_id":"free"},{"bike_id":"f11eb923-26cb-4a93-a026-ec17b7a86c46","system_id":"levelo_inurba_marseille","lat":43.283998,"lon":5.375062,"is_reserved":false,"is_disabled":false,"rental_uris":{"android":"levelo://app?vid=f11eb923-26cb-4a93-a026-ec17b7a86c46","ios":"levelo://app?vid=f11eb923-26cb-4a93-a026-ec17b7a86c46"},"vehicle_type_id":"4","last_reported":1704384520,"current_range_meters":0,"station_id":"ce4bh412rcd13ifvqds0","pricing_plan_id":"free"},{"bike_id":"46e7d045-819c-40e8-aea7-12367a610964","system_id":"levelo_inurba_marseille","lat":43.291994,"lon":5.392907,"is_reserved":false,"is_disabled":false,"rental_uris":{"android":"levelo://app?vid=46e7d045-819c-40e8-aea7-12367a610964","ios":"levelo://app?vid=46e7d045-819c-40e8-aea7-12367a610964"},"vehicle_type_id":"4","last_reported":1704384520,"current_range_meters":15200,"station_id":"ce4bh192rcd13ifvqdd0","pricing_plan_id":"free"},{"bike_id":"871962e5-3def-46c2-ad7c-12a7b0ea5d18","system_id":"levelo_inurba_marseille","lat":43.291994,"lon":5.392907,"is_reserved":false,"is_disabled":false,"rental_uris":{"android":"levelo://app?vid=871962e5-3def-46c2-ad7c-12a7b0ea5d18","ios":"levelo://app?vid=871962e5-3def-46c2-ad7c-12a7b0ea5d18"},"vehicle_type_id":"4","last_reported":1704384520,"current_range_meters":22800,"station_id":"ce4bh192rcd13ifvqdd0","pricing_plan_id":"free"},{"bike_id":"8bf235dd-746e-4c2c-9f41-7426e46f605b","system_id":"levelo_inurba_marseille","lat":43.294314,"lon":5.397498,"is_reserved":false,"is_disabled":false,"rental_uris":{"android":"levelo://app?vid=8bf235dd-746e-4c2c-9f41-7426e46f605b","ios":"levelo://app?vid=8bf235dd-746e-4c2c-9f41-7426e46f605b"},"vehicle_type_id":"4","last_reported":1704384520,"current_range_meters":22800,"station_id":"ce4bh3h2rcd13ifvqdo0","pricing_plan_id":"free"},{"bike_id":"d4d4504b-1ed8-4bd2-a1f1-34f47c55956b","system_id":"levelo_inurba_marseille","lat":43.294314,"lon":5.397498,"is_reserved":false,"is_disabled":false,"rental_uris":{"android":"levelo://app?vid=d4d4504b-1ed8-4bd2-a1f1-34f47c55956b","ios":"levelo://app?vid=d4d4504b-1ed8-4bd2-a1f1-34f47c55956b"},"vehicle_type_id":"4","last_reported":1704384520,"current_range_meters":24000,"station_id":"ce4bh3h2rcd13ifvqdo0","pricing_plan_id":"free"},{"bike_id":"c1f8a727-d275-4b4c-a409-d92dc4384cab","system_id":"levelo_inurba_marseille","lat":43.283998,"lon":5.375062,"is_reserved":false,"is_disabled":false,"rental_uris":{"android":"levelo://app?vid=c1f8a727-d275-4b4c-a409-d92dc4384cab","ios":"levelo://app?vid=c1f8a727-d275-4b4c-a409-d92dc4384cab"},"vehicle_type_id":"4","last_reported":1704384520,"current_range_meters":24000,"station_id":"ce4bh412rcd13ifvqds0","pricing_plan_id":"free"},{"bike_id":"3f2d67b5-1b70-4dca-a662-d18b710194fe","system_id":"levelo_inurba_marseille","lat":43.29829,"lon":5.40175,"is_reserved":false,"is_disabled":false,"rental_uris":{"android":"levelo://app?vid=3f2d67b5-1b70-4dca-a662-d18b710194fe","ios":"levelo://app?vid=3f2d67b5-1b70-4dca-a662-d18b710194fe"},"vehicle_type_id":"4","last_reported":1704384520,"current_range_meters":12400,"station_id":"","pricing_plan_id":"free"},{"bike_id":"8834d6eb-6870-4d5e-ac92-f344ee7128c8","system_id":"levelo_inurba_marseille","lat":43.283998,"lon":5.375062,"is_reserved":false,"is_disabled":false,"rental_uris":{"android":"levelo://app?vid=8834d6eb-6870-4d5e-ac92-f344ee7128c8","ios":"levelo://app?vid=8834d6eb-6870-4d5e-ac92-f344ee7128c8"},"vehicle_type_id":"4","last_reported":1704384520,"current_range_meters":6000,"station_id":"ce4bh412rcd13ifvqds0","pricing_plan_id":"free"},{"bike_id":"6d2f6e21-c301-4a9f-9c0a-11b7de4f6d04","system_id":"levelo_inurba_marseille","lat":43.28409,"lon":5.375197,"is_reserved":false,"is_disabled":false,"rental_uris":{"android":"levelo://app?vid=6d2f6e21-c301-4a9f-9c0a-11b7de4f6d04","ios":"levelo://app?vid=6d2f6e21-c301-4a9f-9c0a-11b7de4f6d04"},"vehicle_type_id":"4","last_reported":1704384520,"current_range_meters":28000,"station_id":"ce4bh412rcd13ifvqds0","pricing_plan_id":"free"},{"bike_id":"41581831-2cca-42ec-9669-b17ccd73160b","system_id":"levelo_inurba_marseille","lat":43.33717,"lon":5.391857,"is_reserved":false,"is_disabled":false,"rental_uris":{"android":"levelo://app?vid=41581831-2cca-42ec-9669-b17ccd73160b","ios":"levelo://app?vid=41581831-2cca-42ec-9669-b17ccd73160b"},"vehicle_type_id":"4","last_reported":1704384520,"current_range_meters":30400,"station_id":"ce4bhr92rcd13ifvqhsg","pricing_plan_id":"free"},{"bike_id":"b543ed77-e7e5-4558-bba6-c398c0454f6f","system_id":"levelo_inurba_marseille","lat":43.33717,"lon":5.391857,"is_reserved":false,"is_disabled":false,"rental_uris":{"android":"levelo://app?vid=b543ed77-e7e5-4558-bba6-c398c0454f6f","ios":"levelo://app?vid=b543ed77-e7e5-4558-bba6-c398c0454f6f"},"vehicle_type_id":"4","last_reported":1704384520,"current_range_meters":29600,"station_id":"ce4bhr92rcd13ifvqhsg","pricing_plan_id":"free"},{"bike_id":"fa1834d4-a8eb-4f1f-b3d1-747acc57893e","system_id":"levelo_inurba_marseille","lat":43.33717,"lon":5.391857,"is_reserved":false,"is_disabled":false,"rental_uris":{"android":"levelo://app?vid=fa1834d4-a8eb-4f1f-b3d1-747acc57893e","ios":"levelo://app?vid=fa1834d4-a8eb-4f1f-b3d1-747acc57893e"},"vehicle_type_id":"4","last_reported":1704384520,"current_range_meters":18800,"station_id":"ce4bhr92rcd13ifvqhsg","pricing_plan_id":"free"},{"bike_id":"5e57c7c1-bfc5-49c6-9e57-613a538e8d1e","system_id":"levelo_inurba_marseille","lat":43.323464,"lon":5.406297,"is_reserved":false,"is_disabled":false,"rental_uris":{"android":"levelo://app?vid=5e57c7c1-bfc5-49c6-9e57-613a538e8d1e","ios":"levelo://app?vid=5e57c7c1-bfc5-49c6-9e57-613a538e8d1e"},"vehicle_type_id":"4","last_reported":1704384520,"current_range_meters":31200,"station_id":"ce4bhq92rcd13ifvqhjg","pricing_plan_id":"free"},{"bike_id":"30e1a12a-188c-4e2f-b11a-d273e4571aa1","system_id":"levelo_inurba_marseille","lat":43.323379,"lon":5.40622,"is_reserved":false,"is_disabled":false,"rental_uris":{"android":"levelo://app?vid=30e1a12a-188c-4e2f-b11a-d273e4571aa1","ios":"levelo://app?vid=30e1a12a-188c-4e2f-b11a-d273e4571aa1"},"vehicle_type_id":"4","last_reported":1704384520,"current_range_meters":4000,"station_id":"ce4bhq92rcd13ifvqhjg","pricing_plan_id":"free"},{"bike_id":"e0c850bc-3ae0-48f4-9199-d6cf755ee4f5","system_id":"levelo_inurba_marseille","lat":43.284787,"lon":5.384116,"is_reserved":false,"is_disabled":false,"rental_uris":{"android":"levelo://app?vid=e0c850bc-3ae0-48f4-9199-d6cf755ee4f5","ios":"levelo://app?vid=e0c850bc-3ae0-48f4-9199-d6cf755ee4f5"},"vehicle_type_id":"4","last_reported":1704384520,"current_range_meters":18000,"station_id":"ce4bh512rcd13ifvqe3g","pricing_plan_id":"free"},{"bike_id":"a6143f41-25a6-4194-a6d8-8f9ed23d7944","system_id":"levelo_inurba_marseille","lat":43.284793,"lon":5.384113,"is_reserved":false,"is_disabled":false,"rental_uris":{"android":"levelo://app?vid=a6143f41-25a6-4194-a6d8-8f9ed23d7944","ios":"levelo://app?vid=a6143f41-25a6-4194-a6d8-8f9ed23d7944"},"vehicle_type_id":"4","last_reported":1704384520,"current_range_meters":1600,"station_id":"ce4bh512rcd13ifvqe3g","pricing_plan_id":"free"},{"bike_id":"ed0388f0-1362-4eae-ae1e-5644eb7a388d","system_id":"levelo_inurba_marseille","lat":43.282754,"lon":5.350519,"is_reserved":false,"is_disabled":false,"rental_uris":{"android":"levelo://app?vid=ed0388f0-1362-4eae-ae1e-5644eb7a388d","ios":"levelo://app?vid=ed0388f0-1362-4eae-ae1e-5644eb7a388d"},"vehicle_type_id":"4","last_reported":1704384520,"current_range_meters":3200,"station_id":"ce4bhbp2rcd13ifvqerg","pricing_plan_id":"free"},{"bike_id":"6eb27079-7ef4-4e06-8e13-752381512e02","system_id":"levelo_inurba_marseille","lat":43.282744,"lon":5.350533,"is_reserved":false,"is_disabled":false,"rental_uris":{"android":"levelo://app?vid=6eb27079-7ef4-4e06-8e13-752381512e02","ios":"levelo://app?vid=6eb27079-7ef4-4e06-8e13-752381512e02"},"vehicle_type_id":"4","last_reported":1704384520,"current_range_meters":14800,"station_id":"ce4bhbp2rcd13ifvqerg","pricing_plan_id":"free"},{"bike_id":"ae455cdf-d3bd-4ee2-af2b-18fa45956943","system_id":"levelo_inurba_marseille","lat":43.280382,"lon":5.369291,"is_reserved":false,"is_disabled":false,"rental_uris":{"android":"levelo://app?vid=ae455cdf-d3bd-4ee2-af2b-18fa45956943","ios":"levelo://app?vid=ae455cdf-d3bd-4ee2-af2b-18fa45956943"},"vehicle_type_id":"4","last_reported":1704384520,"current_range_meters":18000,"station_id":"ce4bha12rcd13ifvqef0","pricing_plan_id":"free"},{"bike_id":"c271d5ea-bb2f-4d51-82ac-3942a8fd86e8","system_id":"levelo_inurba_marseille","lat":43.280382,"lon":5.369291,"is_reserved":false,"is_disabled":false,"rental_uris":{"android":"levelo://app?vid=c271d5ea-bb2f-4d51-82ac-3942a8fd86e8","ios":"levelo://app?vid=c271d5ea-bb2f-4d51-82ac-3942a8fd86e8"},"vehicle_type_id":"4","last_reported":1704384520,"current_range_meters":12400,"station_id":"ce4bha12rcd13ifvqef0","pricing_plan_id":"free"},{"bike_id":"b83934f4-b7da-4ac1-aefe-2f71d3857d96","system_id":"levelo_inurba_marseille","lat":43.284462,"lon":5.392121,"is_reserved":false,"is_disabled":false,"rental_uris":{"android":"levelo://app?vid=b83934f4-b7da-4ac1-aefe-2f71d3857d96","ios":"levelo://app?vid=b83934f4-b7da-4ac1-aefe-2f71d3857d96"},"vehicle_type_id":"4","last_reported":1704384520,"current_range_meters":4400,"station_id":"ce4bhoh2rcd13ifvqh5g","pricing_plan_id":"free"},{"bike_id":"3c2303e3-1bb9-4064-8303-7d0b00b82bce","system_id":"levelo_inurba_marseille","lat":43.28573,"lon":5.394992,"is_reserved":false,"is_disabled":false,"rental_uris":{"android":"levelo://app?vid=3c2303e3-1bb9-4064-8303-7d0b00b82bce","ios":"levelo://app?vid=3c2303e3-1bb9-4064-8303-7d0b00b82bce"},"vehicle_type_id":"4","last_reported":1704384520,"current_range_meters":20000,"station_id":"ce4bh292rcd13ifvqdg0","pricing_plan_id":"free"},{"bike_id":"f3f7c31d-5124-4b26-beb5-7eae2aae76d6","system_id":"levelo_inurba_marseille","lat":43.28573,"lon":5.394992,"is_reserved":false,"is_disabled":false,"rental_uris":{"android":"levelo://app?vid=f3f7c31d-5124-4b26-beb5-7eae2aae76d6","ios":"levelo://app?vid=f3f7c31d-5124-4b26-beb5-7eae2aae76d6"},"vehicle_type_id":"4","last_reported":1704384520,"current_range_meters":27200,"station_id":"ce4bh292rcd13ifvqdg0","pricing_plan_id":"free"},{"bike_id":"437c640e-bc46-4d9a-9834-1cd2afab615c","system_id":"levelo_inurba_marseille","lat":43.326605,"lon":5.409903,"is_reserved":false,"is_disabled":false,"rental_uris":{"android":"levelo://app?vid=437c640e-bc46-4d9a-9834-1cd2afab615c","ios":"levelo://app?vid=437c640e-bc46-4d9a-9834-1cd2afab615c"},"vehicle_type_id":"4","last_reported":1704384520,"current_range_meters":26000,"station_id":"ce4bhpp2rcd13ifvqhgg","pricing_plan_id":"free"},{"bike_id":"25cff67b-0d1a-4487-8f7e-db1ab7057728","system_id":"levelo_inurba_marseille","lat":43.326605,"lon":5.409903,"is_reserved":false,"is_disabled":false,"rental_uris":{"android":"levelo://app?vid=25cff67b-0d1a-4487-8f7e-db1ab7057728","ios":"levelo://app?vid=25cff67b-0d1a-4487-8f7e-db1ab7057728"},"vehicle_type_id":"4","last_reported":1704384520,"current_range_meters":4800,"station_id":"ce4bhpp2rcd13ifvqhgg","pricing_plan_id":"free"},{"bike_id":"a7607482-4870-4fb0-aed5-8f51cb5506df","system_id":"levelo_inurba_marseille","lat":43.304188,"lon":5.412904,"is_reserved":false,"is_disabled":false,"rental_uris":{"android":"levelo://app?vid=a7607482-4870-4fb0-aed5-8f51cb5506df","ios":"levelo://app?vid=a7607482-4870-4fb0-aed5-8f51cb5506df"},"vehicle_type_id":"4","last_reported":1704384520,"current_range_meters":22800,"station_id":"ce4bhop2rcd13ifvqh8g","pricing_plan_id":"free"},{"bike_id":"daa8599d-7c05-4785-837b-b53bc6da631f","system_id":"levelo_inurba_marseille","lat":43.279087,"lon":5.380114,"is_reserved":false,"is_disabled":false,"rental_uris":{"android":"levelo://app?vid=daa8599d-7c05-4785-837b-b53bc6da631f","ios":"levelo://app?vid=daa8599d-7c05-4785-837b-b53bc6da631f"},"vehicle_type_id":"4","last_reported":1704384520,"current_range_meters":0,"station_id":"ce4bhf92rcd13ifvqf50","pricing_plan_id":"free"},{"bike_id":"839ddf50-f8d2-4844-9542-0a29f63db07e","system_id":"levelo_inurba_marseille","lat":43.320045,"lon":5.415046,"is_reserved":false,"is_disabled":false,"rental_uris":{"android":"levelo://app?vid=839ddf50-f8d2-4844-9542-0a29f63db07e","ios":"levelo://app?vid=839ddf50-f8d2-4844-9542-0a29f63db07e"},"vehicle_type_id":"4","last_reported":1704384520,"current_range_meters":25200,"station_id":"ce4bhq92rcd13ifvqhkg","pricing_plan_id":"free"},{"bike_id":"5184cbbf-5e69-4c5c-8363-f94b1a3aad09","system_id":"levelo_inurba_marseille","lat":43.299577,"lon":5.413277,"is_reserved":false,"is_disabled":false,"rental_uris":{"android":"levelo://app?vid=5184cbbf-5e69-4c5c-8363-f94b1a3aad09","ios":"levelo://app?vid=5184cbbf-5e69-4c5c-8363-f94b1a3aad09"},"vehicle_type_id":"4","last_reported":1704384520,"current_range_meters":25200,"station_id":"ce4bhp12rcd13ifvqh9g","pricing_plan_id":"free"},{"bike_id":"628b292e-043f-4834-9e12-e1d8a7d4533a","system_id":"levelo_inurba_marseille","lat":43.27972,"lon":5.38747,"is_reserved":false,"is_disabled":false,"rental_uris":{"android":"levelo://app?vid=628b292e-043f-4834-9e12-e1d8a7d4533a","ios":"levelo://app?vid=628b292e-043f-4834-9e12-e1d8a7d4533a"},"vehicle_type_id":"4","last_reported":1704384520,"current_range_meters":0,"station_id":"ce4bhg12rcd13ifvqf80","pricing_plan_id":"free"},{"bike_id":"ca22e89f-4f57-41b3-8103-827eb8d81acf","system_id":"levelo_inurba_marseille","lat":43.292571,"lon":5.409107,"is_reserved":false,"is_disabled":false,"rental_uris":{"android":"levelo://app?vid=ca22e89f-4f57-41b3-8103-827eb8d81acf","ios":"levelo://app?vid=ca22e89f-4f57-41b3-8103-827eb8d81acf"},"vehicle_type_id":"4","last_reported":1704384520,"current_range_meters":20000,"station_id":"ce4bh192rcd13ifvqdc0","pricing_plan_id":"free"},{"bike_id":"445bc38d-7252-4889-ad1b-a078a1c71519","system_id":"levelo_inurba_marseille","lat":43.292569,"lon":5.409107,"is_reserved":false,"is_disabled":false,"rental_uris":{"android":"levelo://app?vid=445bc38d-7252-4889-ad1b-a078a1c71519","ios":"levelo://app?vid=445bc38d-7252-4889-ad1b-a078a1c71519"},"vehicle_type_id":"4","last_reported":1704384520,"current_range_meters":6800,"station_id":"ce4bh192rcd13ifvqdc0","pricing_plan_id":"free"},{"bike_id":"cd62c57c-392f-4811-bac6-d91db55ca440","system_id":"levelo_inurba_marseille","lat":43.27618,"lon":5.361009,"is_reserved":false,"is_disabled":false,"rental_uris":{"android":"levelo://app?vid=cd62c57c-392f-4811-bac6-d91db55ca440","ios":"levelo://app?vid=cd62c57c-392f-4811-bac6-d91db55ca440"},"vehicle_type_id":"4","last_reported":1704384520,"current_range_meters":18800,"station_id":"ce4bgj92rcd13ifvqbe0","pricing_plan_id":"free"},{"bike_id":"05e3cf55-98ec-4fa7-b710-93d58af1cdaf","system_id":"levelo_inurba_marseille","lat":43.27618,"lon":5.361009,"is_reserved":false,"is_disabled":false,"rental_uris":{"android":"levelo://app?vid=05e3cf55-98ec-4fa7-b710-93d58af1cdaf","ios":"levelo://app?vid=05e3cf55-98ec-4fa7-b710-93d58af1cdaf"},"vehicle_type_id":"4","last_reported":1704384520,"current_range_meters":27600,"station_id":"ce4bgj92rcd13ifvqbe0","pricing_plan_id":"free"},{"bike_id":"34143802-a53b-4aa9-88e5-cc02ff76924b","system_id":"levelo_inurba_marseille","lat":43.27624,"lon":5.36103,"is_reserved":false,"is_disabled":false,"rental_uris":{"android":"levelo://app?vid=34143802-a53b-4aa9-88e5-cc02ff76924b","ios":"levelo://app?vid=34143802-a53b-4aa9-88e5-cc02ff76924b"},"vehicle_type_id":"4","last_reported":1704384520,"current_range_meters":17600,"station_id":"ce4bgj92rcd13ifvqbe0","pricing_plan_id":"free"},{"bike_id":"97f8a8de-f0b6-409e-9ded-70b3a2395f18","system_id":"levelo_inurba_marseille","lat":43.27618,"lon":5.361009,"is_reserved":false,"is_disabled":false,"rental_uris":{"android":"levelo://app?vid=97f8a8de-f0b6-409e-9ded-70b3a2395f18","ios":"levelo://app?vid=97f8a8de-f0b6-409e-9ded-70b3a2395f18"},"vehicle_type_id":"4","last_reported":1704384520,"current_range_meters":15600,"station_id":"ce4bgj92rcd13ifvqbe0","pricing_plan_id":"free"},{"bike_id":"aeaaf4a7-2e3d-4d22-9808-c3a3df68f6e2","system_id":"levelo_inurba_marseille","lat":43.27618,"lon":5.361009,"is_reserved":false,"is_disabled":false,"rental_uris":{"android":"levelo://app?vid=aeaaf4a7-2e3d-4d22-9808-c3a3df68f6e2","ios":"levelo://app?vid=aeaaf4a7-2e3d-4d22-9808-c3a3df68f6e2"},"vehicle_type_id":"4","last_reported":1704384520,"current_range_meters":0,"station_id":"ce4bgj92rcd13ifvqbe0","pricing_plan_id":"free"},{"bike_id":"4a643403-6435-4039-8ed4-9e1911309cf9","system_id":"levelo_inurba_marseille","lat":43.27618,"lon":5.361009,"is_reserved":false,"is_disabled":false,"rental_uris":{"android":"levelo://app?vid=4a643403-6435-4039-8ed4-9e1911309cf9","ios":"levelo://app?vid=4a643403-6435-4039-8ed4-9e1911309cf9"},"vehicle_type_id":"4","last_reported":1704384520,"current_range_meters":12400,"station_id":"ce4bgj92rcd13ifvqbe0","pricing_plan_id":"free"},{"bike_id":"5842ef66-2acd-41d0-b8dc-ac939e563cfe","system_id":"levelo_inurba_marseille","lat":43.27619,"lon":5.36102,"is_reserved":false,"is_disabled":false,"rental_uris":{"android":"levelo://app?vid=5842ef66-2acd-41d0-b8dc-ac939e563cfe","ios":"levelo://app?vid=5842ef66-2acd-41d0-b8dc-ac939e563cfe"},"vehicle_type_id":"4","last_reported":1704384520,"current_range_meters":31200,"station_id":"ce4bgj92rcd13ifvqbe0","pricing_plan_id":"free"},{"bike_id":"add05442-4318-4af3-b256-93e8a2a2bec8","system_id":"levelo_inurba_marseille","lat":43.27618,"lon":5.361009,"is_reserved":false,"is_disabled":false,"rental_uris":{"android":"levelo://app?vid=add05442-4318-4af3-b256-93e8a2a2bec8","ios":"levelo://app?vid=add05442-4318-4af3-b256-93e8a2a2bec8"},"vehicle_type_id":"4","last_reported":1704384520,"current_range_meters":6000,"station_id":"ce4bgj92rcd13ifvqbe0","pricing_plan_id":"free"},{"bike_id":"24cf8543-5bef-4f3d-9dbf-5987b2d7719e","system_id":"levelo_inurba_marseille","lat":43.27618,"lon":5.361009,"is_reserved":false,"is_disabled":false,"rental_uris":{"android":"levelo://app?vid=24cf8543-5bef-4f3d-9dbf-5987b2d7719e","ios":"levelo://app?vid=24cf8543-5bef-4f3d-9dbf-5987b2d7719e"},"vehicle_type_id":"4","last_reported":1704384520,"current_range_meters":6800,"station_id":"ce4bgj92rcd13ifvqbe0","pricing_plan_id":"free"},{"bike_id":"38df6d06-4417-460e-80f1-d60e79db644a","system_id":"levelo_inurba_marseille","lat":43.27618,"lon":5.361009,"is_reserved":false,"is_disabled":false,"rental_uris":{"android":"levelo://app?vid=38df6d06-4417-460e-80f1-d60e79db644a","ios":"levelo://app?vid=38df6d06-4417-460e-80f1-d60e79db644a"},"vehicle_type_id":"4","last_reported":1704384520,"current_range_meters":10800,"station_id":"ce4bgj92rcd13ifvqbe0","pricing_plan_id":"free"},{"bike_id":"d3f25bcc-da64-44bb-8495-bf854b2f447f","system_id":"levelo_inurba_marseille","lat":43.324365,"lon":5.41656,"is_reserved":false,"is_disabled":false,"rental_uris":{"android":"levelo://app?vid=d3f25bcc-da64-44bb-8495-bf854b2f447f","ios":"levelo://app?vid=d3f25bcc-da64-44bb-8495-bf854b2f447f"},"vehicle_type_id":"4","last_reported":1704384520,"current_range_meters":17200,"station_id":"","pricing_plan_id":"free"},{"bike_id":"b7c9363b-1f11-48fb-be58-9ab2d663df7d","system_id":"levelo_inurba_marseille","lat":43.280784,"lon":5.396622,"is_reserved":false,"is_disabled":false,"rental_uris":{"android":"levelo://app?vid=b7c9363b-1f11-48fb-be58-9ab2d663df7d","ios":"levelo://app?vid=b7c9363b-1f11-48fb-be58-9ab2d663df7d"},"vehicle_type_id":"4","last_reported":1704384520,"current_range_meters":26400,"station_id":"ce4bho12rcd13ifvqh2g","pricing_plan_id":"free"},{"bike_id":"58ad51aa-615a-4ac0-8bdc-8f41a5795144","system_id":"levelo_inurba_marseille","lat":43.273613,"lon":5.362705,"is_reserved":false,"is_disabled":false,"rental_uris":{"android":"levelo://app?vid=58ad51aa-615a-4ac0-8bdc-8f41a5795144","ios":"levelo://app?vid=58ad51aa-615a-4ac0-8bdc-8f41a5795144"},"vehicle_type_id":"4","last_reported":1704384520,"current_range_meters":28000,"station_id":"ce4bhbh2rcd13ifvqeo0","pricing_plan_id":"free"},{"bike_id":"91d94a50-3f6e-4f7c-bcb2-3a4e856845b0","system_id":"levelo_inurba_marseille","lat":43.273613,"lon":5.362705,"is_reserved":false,"is_disabled":false,"rental_uris":{"android":"levelo://app?vid=91d94a50-3f6e-4f7c-bcb2-3a4e856845b0","ios":"levelo://app?vid=91d94a50-3f6e-4f7c-bcb2-3a4e856845b0"},"vehicle_type_id":"4","last_reported":1704384520,"current_range_meters":13600,"station_id":"ce4bhbh2rcd13ifvqeo0","pricing_plan_id":"free"},{"bike_id":"1fa33aff-b3dc-4542-86f6-e39ffbd06963","system_id":"levelo_inurba_marseille","lat":43.273613,"lon":5.362705,"is_reserved":false,"is_disabled":false,"rental_uris":{"android":"levelo://app?vid=1fa33aff-b3dc-4542-86f6-e39ffbd06963","ios":"levelo://app?vid=1fa33aff-b3dc-4542-86f6-e39ffbd06963"},"vehicle_type_id":"4","last_reported":1704384520,"current_range_meters":9200,"station_id":"ce4bhbh2rcd13ifvqeo0","pricing_plan_id":"free"},{"bike_id":"f103caa3-36ca-4f74-81ab-cbea0dd9e51e","system_id":"levelo_inurba_marseille","lat":43.275625,"lon":5.384392,"is_reserved":false,"is_disabled":false,"rental_uris":{"android":"levelo://app?vid=f103caa3-36ca-4f74-81ab-cbea0dd9e51e","ios":"levelo://app?vid=f103caa3-36ca-4f74-81ab-cbea0dd9e51e"},"vehicle_type_id":"4","last_reported":1704384520,"current_range_meters":0,"station_id":"ce4bhh92rcd13ifvqfi0","pricing_plan_id":"free"},{"bike_id":"6b3953bf-a71e-4dbb-89e7-838a2ef9e346","system_id":"levelo_inurba_marseille","lat":43.276771,"lon":5.388799,"is_reserved":false,"is_disabled":false,"rental_uris":{"android":"levelo://app?vid=6b3953bf-a71e-4dbb-89e7-838a2ef9e346","ios":"levelo://app?vid=6b3953bf-a71e-4dbb-89e7-838a2ef9e346"},"vehicle_type_id":"4","last_reported":1704384520,"current_range_meters":13200,"station_id":"ce4bhi12rcd13ifvqfo0","pricing_plan_id":"free"},{"bike_id":"7e20e46a-cb6e-4167-bfe5-1fdd3fcf844f","system_id":"levelo_inurba_marseille","lat":43.317139,"lon":5.424036,"is_reserved":false,"is_disabled":false,"rental_uris":{"android":"levelo://app?vid=7e20e46a-cb6e-4167-bfe5-1fdd3fcf844f","ios":"levelo://app?vid=7e20e46a-cb6e-4167-bfe5-1fdd3fcf844f"},"vehicle_type_id":"4","last_reported":1704384520,"current_range_meters":0,"station_id":"ce4bhp92rcd13ifvqhbg","pricing_plan_id":"free"},{"bike_id":"09773379-febe-4087-9c8e-32b6456afbc6","system_id":"levelo_inurba_marseille","lat":43.274103,"lon":5.394016,"is_reserved":false,"is_disabled":false,"rental_uris":{"android":"levelo://app?vid=09773379-febe-4087-9c8e-32b6456afbc6","ios":"levelo://app?vid=09773379-febe-4087-9c8e-32b6456afbc6"},"vehicle_type_id":"4","last_reported":1704384520,"current_range_meters":8400,"station_id":"ce4bhdp2rcd13ifvqf20","pricing_plan_id":"free"},{"bike_id":"ff1f54e7-7a06-418b-a7ec-b025ddb8f8e3","system_id":"levelo_inurba_marseille","lat":43.30466,"lon":5.425775,"is_reserved":false,"is_disabled":false,"rental_uris":{"android":"levelo://app?vid=ff1f54e7-7a06-418b-a7ec-b025ddb8f8e3","ios":"levelo://app?vid=ff1f54e7-7a06-418b-a7ec-b025ddb8f8e3"},"vehicle_type_id":"4","last_reported":1704384520,"current_range_meters":26000,"station_id":"","pricing_plan_id":"free"},{"bike_id":"c05f7e81-52f8-4d18-a93f-cf79141533ec","system_id":"levelo_inurba_marseille","lat":43.278128,"lon":5.407195,"is_reserved":false,"is_disabled":false,"rental_uris":{"android":"levelo://app?vid=c05f7e81-52f8-4d18-a93f-cf79141533ec","ios":"levelo://app?vid=c05f7e81-52f8-4d18-a93f-cf79141533ec"},"vehicle_type_id":"4","last_reported":1704384520,"current_range_meters":26800,"station_id":"ce4bhnh2rcd13ifvqgtg","pricing_plan_id":"free"},{"bike_id":"86eaab21-53eb-4fa7-8cc8-773d47a223c8","system_id":"levelo_inurba_marseille","lat":43.278128,"lon":5.407195,"is_reserved":false,"is_disabled":false,"rental_uris":{"android":"levelo://app?vid=86eaab21-53eb-4fa7-8cc8-773d47a223c8","ios":"levelo://app?vid=86eaab21-53eb-4fa7-8cc8-773d47a223c8"},"vehicle_type_id":"4","last_reported":1704384520,"current_range_meters":31200,"station_id":"ce4bhnh2rcd13ifvqgtg","pricing_plan_id":"free"},{"bike_id":"551af9f4-6a9b-4035-9c1f-9fbcfbeead6a","system_id":"levelo_inurba_marseille","lat":43.278128,"lon":5.407195,"is_reserved":false,"is_disabled":false,"rental_uris":{"android":"levelo://app?vid=551af9f4-6a9b-4035-9c1f-9fbcfbeead6a","ios":"levelo://app?vid=551af9f4-6a9b-4035-9c1f-9fbcfbeead6a"},"vehicle_type_id":"4","last_reported":1704384520,"current_range_meters":7200,"station_id":"ce4bhnh2rcd13ifvqgtg","pricing_plan_id":"free"},{"bike_id":"c0331c50-b58a-4a5d-abfd-eb8b93e0db47","system_id":"levelo_inurba_marseille","lat":43.269467,"lon":5.386439,"is_reserved":false,"is_disabled":false,"rental_uris":{"android":"levelo://app?vid=c0331c50-b58a-4a5d-abfd-eb8b93e0db47","ios":"levelo://app?vid=c0331c50-b58a-4a5d-abfd-eb8b93e0db47"},"vehicle_type_id":"4","last_reported":1704384520,"current_range_meters":7200,"station_id":"ce4bhh92rcd13ifvqfh0","pricing_plan_id":"free"},{"bike_id":"f7db63f3-689c-4cbd-a21a-723ad3f7619e","system_id":"levelo_inurba_marseille","lat":43.269319,"lon":5.389397,"is_reserved":false,"is_disabled":false,"rental_uris":{"android":"levelo://app?vid=f7db63f3-689c-4cbd-a21a-723ad3f7619e","ios":"levelo://app?vid=f7db63f3-689c-4cbd-a21a-723ad3f7619e"},"vehicle_type_id":"4","last_reported":1704384520,"current_range_meters":26000,"station_id":"ce4bhhh2rcd13ifvqfl0","pricing_plan_id":"free"},{"bike_id":"c0c83708-bce0-4af6-b19d-0f323d06c31e","system_id":"levelo_inurba_marseille","lat":43.269319,"lon":5.389397,"is_reserved":false,"is_disabled":false,"rental_uris":{"android":"levelo://app?vid=c0c83708-bce0-4af6-b19d-0f323d06c31e","ios":"levelo://app?vid=c0c83708-bce0-4af6-b19d-0f323d06c31e"},"vehicle_type_id":"4","last_reported":1704384520,"current_range_meters":2800,"station_id":"ce4bhhh2rcd13ifvqfl0","pricing_plan_id":"free"},{"bike_id":"c4adab38-4a78-4393-81a0-cae00ecec592","system_id":"levelo_inurba_marseille","lat":43.27996,"lon":5.416624,"is_reserved":false,"is_disabled":false,"rental_uris":{"android":"levelo://app?vid=c4adab38-4a78-4393-81a0-cae00ecec592","ios":"levelo://app?vid=c4adab38-4a78-4393-81a0-cae00ecec592"},"vehicle_type_id":"4","last_reported":1704384520,"current_range_meters":16400,"station_id":"ce4bho12rcd13ifvqh1g","pricing_plan_id":"free"},{"bike_id":"404057fa-957a-4a96-b953-51190faec511","system_id":"levelo_inurba_marseille","lat":43.26949,"lon":5.40262,"is_reserved":false,"is_disabled":false,"rental_uris":{"android":"levelo://app?vid=404057fa-957a-4a96-b953-51190faec511","ios":"levelo://app?vid=404057fa-957a-4a96-b953-51190faec511"},"vehicle_type_id":"4","last_reported":1704384520,"current_range_meters":4000,"station_id":"cjm6bp8fraef2m0cb0m0","pricing_plan_id":"free"},{"bike_id":"ea9443bb-11f2-4985-8ba5-af93017344b4","system_id":"levelo_inurba_marseille","lat":43.261782,"lon":5.374515,"is_reserved":false,"is_disabled":false,"rental_uris":{"android":"levelo://app?vid=ea9443bb-11f2-4985-8ba5-af93017344b4","ios":"levelo://app?vid=ea9443bb-11f2-4985-8ba5-af93017344b4"},"vehicle_type_id":"4","last_reported":1704384520,"current_range_meters":6400,"station_id":"ce4bhgp2rcd13ifvqfc0","pricing_plan_id":"free"},{"bike_id":"378ce304-cf77-4f1e-98f6-b7b37f59d60f","system_id":"levelo_inurba_marseille","lat":43.261782,"lon":5.374515,"is_reserved":false,"is_disabled":false,"rental_uris":{"android":"levelo://app?vid=378ce304-cf77-4f1e-98f6-b7b37f59d60f","ios":"levelo://app?vid=378ce304-cf77-4f1e-98f6-b7b37f59d60f"},"vehicle_type_id":"4","last_reported":1704384520,"current_range_meters":3600,"station_id":"ce4bhgp2rcd13ifvqfc0","pricing_plan_id":"free"},{"bike_id":"11012e97-804c-4ac0-b256-7c81ea276c64","system_id":"levelo_inurba_marseille","lat":43.261782,"lon":5.374515,"is_reserved":false,"is_disabled":false,"rental_uris":{"android":"levelo://app?vid=11012e97-804c-4ac0-b256-7c81ea276c64","ios":"levelo://app?vid=11012e97-804c-4ac0-b256-7c81ea276c64"},"vehicle_type_id":"4","last_reported":1704384520,"current_range_meters":18800,"station_id":"ce4bhgp2rcd13ifvqfc0","pricing_plan_id":"free"},{"bike_id":"dc370954-9bac-4568-85e2-914c553ab228","system_id":"levelo_inurba_marseille","lat":43.271388,"lon":5.409269,"is_reserved":false,"is_disabled":false,"rental_uris":{"android":"levelo://app?vid=dc370954-9bac-4568-85e2-914c553ab228","ios":"levelo://app?vid=dc370954-9bac-4568-85e2-914c553ab228"},"vehicle_type_id":"4","last_reported":1704384520,"current_range_meters":28000,"station_id":"ce4bhl12rcd13ifvqgf0","pricing_plan_id":"free"},{"bike_id":"c2de6aab-e49d-4663-becc-a640f2c24750","system_id":"levelo_inurba_marseille","lat":43.260219,"lon":5.37546,"is_reserved":false,"is_disabled":false,"rental_uris":{"android":"levelo://app?vid=c2de6aab-e49d-4663-becc-a640f2c24750","ios":"levelo://app?vid=c2de6aab-e49d-4663-becc-a640f2c24750"},"vehicle_type_id":"4","last_reported":1704384520,"current_range_meters":12000,"station_id":"ce4bhgh2rcd13ifvqfa0","pricing_plan_id":"free"},{"bike_id":"81626053-872f-4407-8120-98b82b148f19","system_id":"levelo_inurba_marseille","lat":43.281548,"lon":5.42643,"is_reserved":false,"is_disabled":false,"rental_uris":{"android":"levelo://app?vid=81626053-872f-4407-8120-98b82b148f19","ios":"levelo://app?vid=81626053-872f-4407-8120-98b82b148f19"},"vehicle_type_id":"4","last_reported":1704384520,"current_range_meters":20800,"station_id":"ce4bhnh2rcd13ifvqgug","pricing_plan_id":"free"},{"bike_id":"84dd2287-29e2-4adf-9f90-138a85584ad5","system_id":"levelo_inurba_marseille","lat":43.281548,"lon":5.42643,"is_reserved":false,"is_disabled":false,"rental_uris":{"android":"levelo://app?vid=84dd2287-29e2-4adf-9f90-138a85584ad5","ios":"levelo://app?vid=84dd2287-29e2-4adf-9f90-138a85584ad5"},"vehicle_type_id":"4","last_reported":1704384520,"current_range_meters":25200,"station_id":"ce4bhnh2rcd13ifvqgug","pricing_plan_id":"free"},{"bike_id":"1bacb750-8387-4675-a445-77f7232c32e9","system_id":"levelo_inurba_marseille","lat":43.281548,"lon":5.42643,"is_reserved":false,"is_disabled":false,"rental_uris":{"android":"levelo://app?vid=1bacb750-8387-4675-a445-77f7232c32e9","ios":"levelo://app?vid=1bacb750-8387-4675-a445-77f7232c32e9"},"vehicle_type_id":"4","last_reported":1704384520,"current_range_meters":31200,"station_id":"ce4bhnh2rcd13ifvqgug","pricing_plan_id":"free"},{"bike_id":"011fb361-976e-46a3-a88d-91570a73378a","system_id":"levelo_inurba_marseille","lat":43.281548,"lon":5.42643,"is_reserved":false,"is_disabled":false,"rental_uris":{"android":"levelo://app?vid=011fb361-976e-46a3-a88d-91570a73378a","ios":"levelo://app?vid=011fb361-976e-46a3-a88d-91570a73378a"},"vehicle_type_id":"4","last_reported":1704384520,"current_range_meters":16800,"station_id":"ce4bhnh2rcd13ifvqgug","pricing_plan_id":"free"},{"bike_id":"d7214fbb-bc69-46da-92b0-9b2cbe582498","system_id":"levelo_inurba_marseille","lat":43.281548,"lon":5.42643,"is_reserved":false,"is_disabled":false,"rental_uris":{"android":"levelo://app?vid=d7214fbb-bc69-46da-92b0-9b2cbe582498","ios":"levelo://app?vid=d7214fbb-bc69-46da-92b0-9b2cbe582498"},"vehicle_type_id":"4","last_reported":1704384520,"current_range_meters":29200,"station_id":"ce4bhnh2rcd13ifvqgug","pricing_plan_id":"free"},{"bike_id":"3f0ff70d-b8d8-4421-b66d-2ee18e149d9d","system_id":"levelo_inurba_marseille","lat":43.281548,"lon":5.42643,"is_reserved":false,"is_disabled":false,"rental_uris":{"android":"levelo://app?vid=3f0ff70d-b8d8-4421-b66d-2ee18e149d9d","ios":"levelo://app?vid=3f0ff70d-b8d8-4421-b66d-2ee18e149d9d"},"vehicle_type_id":"4","last_reported":1704384520,"current_range_meters":18400,"station_id":"ce4bhnh2rcd13ifvqgug","pricing_plan_id":"free"},{"bike_id":"8fa7a0bb-11af-49b0-9cd3-91edb1e64eda","system_id":"levelo_inurba_marseille","lat":43.29949,"lon":5.4381,"is_reserved":false,"is_disabled":false,"rental_uris":{"android":"levelo://app?vid=8fa7a0bb-11af-49b0-9cd3-91edb1e64eda","ios":"levelo://app?vid=8fa7a0bb-11af-49b0-9cd3-91edb1e64eda"},"vehicle_type_id":"4","last_reported":1704384520,"current_range_meters":4400,"station_id":"","pricing_plan_id":"free"},{"bike_id":"34451ea8-37f7-4de0-a544-ada63d75c3fa","system_id":"levelo_inurba_marseille","lat":43.2607,"lon":5.393983,"is_reserved":false,"is_disabled":false,"rental_uris":{"android":"levelo://app?vid=34451ea8-37f7-4de0-a544-ada63d75c3fa","ios":"levelo://app?vid=34451ea8-37f7-4de0-a544-ada63d75c3fa"},"vehicle_type_id":"4","last_reported":1704384520,"current_range_meters":26400,"station_id":"ce4bhh92rcd13ifvqfj0","pricing_plan_id":"free"},{"bike_id":"409c7d99-7ed4-4425-9fc8-8f92303d7ce9","system_id":"levelo_inurba_marseille","lat":43.275028,"lon":5.424534,"is_reserved":false,"is_disabled":false,"rental_uris":{"android":"levelo://app?vid=409c7d99-7ed4-4425-9fc8-8f92303d7ce9","ios":"levelo://app?vid=409c7d99-7ed4-4425-9fc8-8f92303d7ce9"},"vehicle_type_id":"4","last_reported":1704384520,"current_range_meters":800,"station_id":"ce4bhn92rcd13ifvqgrg","pricing_plan_id":"free"},{"bike_id":"84af795a-8f50-4ae0-9dbc-30634e705a63","system_id":"levelo_inurba_marseille","lat":43.275028,"lon":5.424534,"is_reserved":false,"is_disabled":false,"rental_uris":{"android":"levelo://app?vid=84af795a-8f50-4ae0-9dbc-30634e705a63","ios":"levelo://app?vid=84af795a-8f50-4ae0-9dbc-30634e705a63"},"vehicle_type_id":"4","last_reported":1704384520,"current_range_meters":16400,"station_id":"ce4bhn92rcd13ifvqgrg","pricing_plan_id":"free"},{"bike_id":"69c8842c-a268-4f2a-991b-b56fe333790d","system_id":"levelo_inurba_marseille","lat":43.27497,"lon":5.42457,"is_reserved":false,"is_disabled":false,"rental_uris":{"android":"levelo://app?vid=69c8842c-a268-4f2a-991b-b56fe333790d","ios":"levelo://app?vid=69c8842c-a268-4f2a-991b-b56fe333790d"},"vehicle_type_id":"4","last_reported":1704384520,"current_range_meters":6400,"station_id":"ce4bhn92rcd13ifvqgrg","pricing_plan_id":"free"},{"bike_id":"c6e1d669-4b40-4bf6-a5f7-2ef90ad928f9","system_id":"levelo_inurba_marseille","lat":43.27494,"lon":5.42456,"is_reserved":false,"is_disabled":false,"rental_uris":{"android":"levelo://app?vid=c6e1d669-4b40-4bf6-a5f7-2ef90ad928f9","ios":"levelo://app?vid=c6e1d669-4b40-4bf6-a5f7-2ef90ad928f9"},"vehicle_type_id":"4","last_reported":1704384520,"current_range_meters":19200,"station_id":"ce4bhn92rcd13ifvqgrg","pricing_plan_id":"free"},{"bike_id":"4d5bea1c-001c-4d88-9774-840a5f0440fa","system_id":"levelo_inurba_marseille","lat":43.255756,"lon":5.382303,"is_reserved":false,"is_disabled":false,"rental_uris":{"android":"levelo://app?vid=4d5bea1c-001c-4d88-9774-840a5f0440fa","ios":"levelo://app?vid=4d5bea1c-001c-4d88-9774-840a5f0440fa"},"vehicle_type_id":"4","last_reported":1704384520,"current_range_meters":4400,"station_id":"ce4bhih2rcd13ifvqfs0","pricing_plan_id":"free"},{"bike_id":"2a6d6411-7278-4dd9-8be1-f1c2566d4766","system_id":"levelo_inurba_marseille","lat":43.258224,"lon":5.394369,"is_reserved":false,"is_disabled":false,"rental_uris":{"android":"levelo://app?vid=2a6d6411-7278-4dd9-8be1-f1c2566d4766","ios":"levelo://app?vid=2a6d6411-7278-4dd9-8be1-f1c2566d4766"},"vehicle_type_id":"4","last_reported":1704384520,"current_range_meters":30000,"station_id":"ce4bhip2rcd13ifvqft0","pricing_plan_id":"free"},{"bike_id":"2d69076a-d4e3-4765-9109-d015e9b70085","system_id":"levelo_inurba_marseille","lat":43.254945,"lon":5.376454,"is_reserved":false,"is_disabled":false,"rental_uris":{"android":"levelo://app?vid=2d69076a-d4e3-4765-9109-d015e9b70085","ios":"levelo://app?vid=2d69076a-d4e3-4765-9109-d015e9b70085"},"vehicle_type_id":"4","last_reported":1704384520,"current_range_meters":2800,"station_id":"ce4bhh12rcd13ifvqff0","pricing_plan_id":"free"},{"bike_id":"09c2d838-ecdc-4e6a-a724-d646b900d306","system_id":"levelo_inurba_marseille","lat":43.270721,"lon":5.422764,"is_reserved":false,"is_disabled":false,"rental_uris":{"android":"levelo://app?vid=09c2d838-ecdc-4e6a-a724-d646b900d306","ios":"levelo://app?vid=09c2d838-ecdc-4e6a-a724-d646b900d306"},"vehicle_type_id":"4","last_reported":1704384520,"current_range_meters":23600,"station_id":"ce4bhk92rcd13ifvqgb0","pricing_plan_id":"free"},{"bike_id":"6998aad6-c3df-4d76-b246-4158be54e06a","system_id":"levelo_inurba_marseille","lat":43.270721,"lon":5.422764,"is_reserved":false,"is_disabled":false,"rental_uris":{"android":"levelo://app?vid=6998aad6-c3df-4d76-b246-4158be54e06a","ios":"levelo://app?vid=6998aad6-c3df-4d76-b246-4158be54e06a"},"vehicle_type_id":"4","last_reported":1704384520,"current_range_meters":31600,"station_id":"ce4bhk92rcd13ifvqgb0","pricing_plan_id":"free"},{"bike_id":"8b86ad99-d180-44bb-ae0c-5e1036a24289","system_id":"levelo_inurba_marseille","lat":43.258658,"lon":5.398935,"is_reserved":false,"is_disabled":false,"rental_uris":{"android":"levelo://app?vid=8b86ad99-d180-44bb-ae0c-5e1036a24289","ios":"levelo://app?vid=8b86ad99-d180-44bb-ae0c-5e1036a24289"},"vehicle_type_id":"4","last_reported":1704384520,"current_range_meters":15600,"station_id":"ce4bhl92rcd13ifvqghg","pricing_plan_id":"free"},{"bike_id":"66cb2868-9fa6-4553-ae0d-05f854f48b10","system_id":"levelo_inurba_marseille","lat":43.25724,"lon":5.41111,"is_reserved":false,"is_disabled":false,"rental_uris":{"android":"levelo://app?vid=66cb2868-9fa6-4553-ae0d-05f854f48b10","ios":"levelo://app?vid=66cb2868-9fa6-4553-ae0d-05f854f48b10"},"vehicle_type_id":"4","last_reported":1704384520,"current_range_meters":25200,"station_id":"ce4bhkp2rcd13ifvqgd0","pricing_plan_id":"free"},{"bike_id":"2550f4af-5fc1-4af4-826b-3aa08674160e","system_id":"levelo_inurba_marseille","lat":43.25083,"lon":5.39511,"is_reserved":false,"is_disabled":false,"rental_uris":{"android":"levelo://app?vid=2550f4af-5fc1-4af4-826b-3aa08674160e","ios":"levelo://app?vid=2550f4af-5fc1-4af4-826b-3aa08674160e"},"vehicle_type_id":"4","last_reported":1704384520,"current_range_meters":14800,"station_id":"ce4bhm12rcd13ifvqgkg","pricing_plan_id":"free"},{"bike_id":"cd4aee3a-5dbe-45a6-b75d-ad701fc99391","system_id":"levelo_inurba_marseille","lat":43.250966,"lon":5.395186,"is_reserved":false,"is_disabled":false,"rental_uris":{"android":"levelo://app?vid=cd4aee3a-5dbe-45a6-b75d-ad701fc99391","ios":"levelo://app?vid=cd4aee3a-5dbe-45a6-b75d-ad701fc99391"},"vehicle_type_id":"4","last_reported":1704384520,"current_range_meters":4400,"station_id":"ce4bhm12rcd13ifvqgkg","pricing_plan_id":"free"},{"bike_id":"f9b001ce-c1ea-4554-bcf1-c5467ec9e351","system_id":"levelo_inurba_marseille","lat":43.25112,"lon":5.4032,"is_reserved":false,"is_disabled":false,"rental_uris":{"android":"levelo://app?vid=f9b001ce-c1ea-4554-bcf1-c5467ec9e351","ios":"levelo://app?vid=f9b001ce-c1ea-4554-bcf1-c5467ec9e351"},"vehicle_type_id":"4","last_reported":1704384520,"current_range_meters":24800,"station_id":"ce4bhlh2rcd13ifvqgig","pricing_plan_id":"free"},{"bike_id":"bb36c73e-3c52-4623-9dd1-e2e31de60fa3","system_id":"levelo_inurba_marseille","lat":43.25102,"lon":5.403214,"is_reserved":false,"is_disabled":false,"rental_uris":{"android":"levelo://app?vid=bb36c73e-3c52-4623-9dd1-e2e31de60fa3","ios":"levelo://app?vid=bb36c73e-3c52-4623-9dd1-e2e31de60fa3"},"vehicle_type_id":"4","last_reported":1704384520,"current_range_meters":16400,"station_id":"ce4bhlh2rcd13ifvqgig","pricing_plan_id":"free"},{"bike_id":"472710ec-cf51-48a2-b152-badef0d06af6","system_id":"levelo_inurba_marseille","lat":43.24396,"lon":5.37066,"is_reserved":false,"is_disabled":false,"rental_uris":{"android":"levelo://app?vid=472710ec-cf51-48a2-b152-badef0d06af6","ios":"levelo://app?vid=472710ec-cf51-48a2-b152-badef0d06af6"},"vehicle_type_id":"4","last_reported":1704384520,"current_range_meters":30000,"station_id":"ce4bhhh2rcd13ifvqfk0","pricing_plan_id":"free"},{"bike_id":"2e40ebfc-4f9c-4141-95b3-5f89ee0db1de","system_id":"levelo_inurba_marseille","lat":43.24395,"lon":5.370538,"is_reserved":false,"is_disabled":false,"rental_uris":{"android":"levelo://app?vid=2e40ebfc-4f9c-4141-95b3-5f89ee0db1de","ios":"levelo://app?vid=2e40ebfc-4f9c-4141-95b3-5f89ee0db1de"},"vehicle_type_id":"4","last_reported":1704384520,"current_range_meters":31200,"station_id":"ce4bhhh2rcd13ifvqfk0","pricing_plan_id":"free"},{"bike_id":"fb13e198-f64c-459b-bff6-b7bd56db05ab","system_id":"levelo_inurba_marseille","lat":43.243884,"lon":5.370736,"is_reserved":false,"is_disabled":false,"rental_uris":{"android":"levelo://app?vid=fb13e198-f64c-459b-bff6-b7bd56db05ab","ios":"levelo://app?vid=fb13e198-f64c-459b-bff6-b7bd56db05ab"},"vehicle_type_id":"4","last_reported":1704384520,"current_range_meters":17200,"station_id":"ce4bhhh2rcd13ifvqfk0","pricing_plan_id":"free"},{"bike_id":"811cee86-8017-4f24-9315-03fbb9cd3013","system_id":"levelo_inurba_marseille","lat":43.2439,"lon":5.37055,"is_reserved":false,"is_disabled":false,"rental_uris":{"android":"levelo://app?vid=811cee86-8017-4f24-9315-03fbb9cd3013","ios":"levelo://app?vid=811cee86-8017-4f24-9315-03fbb9cd3013"},"vehicle_type_id":"4","last_reported":1704384520,"current_range_meters":30400,"station_id":"ce4bhhh2rcd13ifvqfk0","pricing_plan_id":"free"},{"bike_id":"430056cb-9840-4a8e-8116-1e058ba5e920","system_id":"levelo_inurba_marseille","lat":43.24386,"lon":5.3706,"is_reserved":false,"is_disabled":false,"rental_uris":{"android":"levelo://app?vid=430056cb-9840-4a8e-8116-1e058ba5e920","ios":"levelo://app?vid=430056cb-9840-4a8e-8116-1e058ba5e920"},"vehicle_type_id":"4","last_reported":1704384520,"current_range_meters":19200,"station_id":"ce4bhhh2rcd13ifvqfk0","pricing_plan_id":"free"},{"bike_id":"c2d5ee61-7842-4099-b31d-87c7605ac520","system_id":"levelo_inurba_marseille","lat":43.240623,"lon":5.377642,"is_reserved":false,"is_disabled":false,"rental_uris":{"android":"levelo://app?vid=c2d5ee61-7842-4099-b31d-87c7605ac520","ios":"levelo://app?vid=c2d5ee61-7842-4099-b31d-87c7605ac520"},"vehicle_type_id":"4","last_reported":1704384520,"current_range_meters":23600,"station_id":"ce4bhnp2rcd13ifvqgvg","pricing_plan_id":"free"},{"bike_id":"a063a34c-e57e-4077-a30c-9e807d01a6a4","system_id":"levelo_inurba_marseille","lat":43.240623,"lon":5.377642,"is_reserved":false,"is_disabled":false,"rental_uris":{"android":"levelo://app?vid=a063a34c-e57e-4077-a30c-9e807d01a6a4","ios":"levelo://app?vid=a063a34c-e57e-4077-a30c-9e807d01a6a4"},"vehicle_type_id":"4","last_reported":1704384520,"current_range_meters":8400,"station_id":"ce4bhnp2rcd13ifvqgvg","pricing_plan_id":"free"},{"bike_id":"9f31b9c0-f709-42e3-a519-e90befaffca8","system_id":"levelo_inurba_marseille","lat":43.240623,"lon":5.377642,"is_reserved":false,"is_disabled":false,"rental_uris":{"android":"levelo://app?vid=9f31b9c0-f709-42e3-a519-e90befaffca8","ios":"levelo://app?vid=9f31b9c0-f709-42e3-a519-e90befaffca8"},"vehicle_type_id":"4","last_reported":1704384520,"current_range_meters":0,"station_id":"ce4bhnp2rcd13ifvqgvg","pricing_plan_id":"free"},{"bike_id":"a2972913-8685-4aaa-90f0-f1709d8bc85a","system_id":"levelo_inurba_marseille","lat":43.240623,"lon":5.377642,"is_reserved":false,"is_disabled":false,"rental_uris":{"android":"levelo://app?vid=a2972913-8685-4aaa-90f0-f1709d8bc85a","ios":"levelo://app?vid=a2972913-8685-4aaa-90f0-f1709d8bc85a"},"vehicle_type_id":"4","last_reported":1704384520,"current_range_meters":14000,"station_id":"ce4bhnp2rcd13ifvqgvg","pricing_plan_id":"free"},{"bike_id":"577237a9-8308-4269-a69e-e6447b4f5ce7","system_id":"levelo_inurba_marseille","lat":43.240623,"lon":5.377642,"is_reserved":false,"is_disabled":false,"rental_uris":{"android":"levelo://app?vid=577237a9-8308-4269-a69e-e6447b4f5ce7","ios":"levelo://app?vid=577237a9-8308-4269-a69e-e6447b4f5ce7"},"vehicle_type_id":"4","last_reported":1704384520,"current_range_meters":17200,"station_id":"ce4bhnp2rcd13ifvqgvg","pricing_plan_id":"free"},{"bike_id":"c4b53a38-0f2f-4abf-8924-af3ba097daad","system_id":"levelo_inurba_marseille","lat":43.240623,"lon":5.377642,"is_reserved":false,"is_disabled":false,"rental_uris":{"android":"levelo://app?vid=c4b53a38-0f2f-4abf-8924-af3ba097daad","ios":"levelo://app?vid=c4b53a38-0f2f-4abf-8924-af3ba097daad"},"vehicle_type_id":"4","last_reported":1704384520,"current_range_meters":18800,"station_id":"ce4bhnp2rcd13ifvqgvg","pricing_plan_id":"free"},{"bike_id":"ed908caf-51ef-4d11-b1da-ac4036c9de7b","system_id":"levelo_inurba_marseille","lat":43.240623,"lon":5.377642,"is_reserved":false,"is_disabled":false,"rental_uris":{"android":"levelo://app?vid=ed908caf-51ef-4d11-b1da-ac4036c9de7b","ios":"levelo://app?vid=ed908caf-51ef-4d11-b1da-ac4036c9de7b"},"vehicle_type_id":"4","last_reported":1704384520,"current_range_meters":8400,"station_id":"ce4bhnp2rcd13ifvqgvg","pricing_plan_id":"free"},{"bike_id":"98da7fad-9f27-4bb0-b66f-f8c562b32afd","system_id":"levelo_inurba_marseille","lat":43.239588,"lon":5.366238,"is_reserved":false,"is_disabled":false,"rental_uris":{"android":"levelo://app?vid=98da7fad-9f27-4bb0-b66f-f8c562b32afd","ios":"levelo://app?vid=98da7fad-9f27-4bb0-b66f-f8c562b32afd"},"vehicle_type_id":"4","last_reported":1704384520,"current_range_meters":17200,"station_id":"ce4bhi12rcd13ifvqfp0","pricing_plan_id":"free"},{"bike_id":"67e663fb-2cef-4c85-aef0-aaf217d5d75e","system_id":"levelo_inurba_marseille","lat":43.239588,"lon":5.366238,"is_reserved":false,"is_disabled":false,"rental_uris":{"android":"levelo://app?vid=67e663fb-2cef-4c85-aef0-aaf217d5d75e","ios":"levelo://app?vid=67e663fb-2cef-4c85-aef0-aaf217d5d75e"},"vehicle_type_id":"4","last_reported":1704384520,"current_range_meters":28000,"station_id":"ce4bhi12rcd13ifvqfp0","pricing_plan_id":"free"},{"bike_id":"2a4b3d1f-9cf0-49af-b9ed-f82ccc7119cf","system_id":"levelo_inurba_marseille","lat":43.23955,"lon":5.36634,"is_reserved":false,"is_disabled":false,"rental_uris":{"android":"levelo://app?vid=2a4b3d1f-9cf0-49af-b9ed-f82ccc7119cf","ios":"levelo://app?vid=2a4b3d1f-9cf0-49af-b9ed-f82ccc7119cf"},"vehicle_type_id":"4","last_reported":1704384520,"current_range_meters":23600,"station_id":"ce4bhi12rcd13ifvqfp0","pricing_plan_id":"free"},{"bike_id":"a61a5a70-31d1-46b3-b355-88530908ae44","system_id":"levelo_inurba_marseille","lat":43.24187,"lon":5.39718,"is_reserved":false,"is_disabled":false,"rental_uris":{"android":"levelo://app?vid=a61a5a70-31d1-46b3-b355-88530908ae44","ios":"levelo://app?vid=a61a5a70-31d1-46b3-b355-88530908ae44"},"vehicle_type_id":"4","last_reported":1704384520,"current_range_meters":12800,"station_id":"","pricing_plan_id":"free"},{"bike_id":"8fbcb172-3e98-4869-b54a-1b9edd273c73","system_id":"levelo_inurba_marseille","lat":43.241782,"lon":5.397261,"is_reserved":false,"is_disabled":false,"rental_uris":{"android":"levelo://app?vid=8fbcb172-3e98-4869-b54a-1b9edd273c73","ios":"levelo://app?vid=8fbcb172-3e98-4869-b54a-1b9edd273c73"},"vehicle_type_id":"4","last_reported":1704384520,"current_range_meters":18800,"station_id":"ce4bhn12rcd13ifvqgpg","pricing_plan_id":"free"},{"bike_id":"6cbb88ed-1604-4e7e-a8d7-cdede3ff7d9e","system_id":"levelo_inurba_marseille","lat":43.241782,"lon":5.397261,"is_reserved":false,"is_disabled":false,"rental_uris":{"android":"levelo://app?vid=6cbb88ed-1604-4e7e-a8d7-cdede3ff7d9e","ios":"levelo://app?vid=6cbb88ed-1604-4e7e-a8d7-cdede3ff7d9e"},"vehicle_type_id":"4","last_reported":1704384520,"current_range_meters":14000,"station_id":"ce4bhn12rcd13ifvqgpg","pricing_plan_id":"free"},{"bike_id":"0653dbe8-3f8a-42ae-9da7-1cbe2157bc83","system_id":"levelo_inurba_marseille","lat":43.241782,"lon":5.397261,"is_reserved":false,"is_disabled":false,"rental_uris":{"android":"levelo://app?vid=0653dbe8-3f8a-42ae-9da7-1cbe2157bc83","ios":"levelo://app?vid=0653dbe8-3f8a-42ae-9da7-1cbe2157bc83"},"vehicle_type_id":"4","last_reported":1704384520,"current_range_meters":22400,"station_id":"ce4bhn12rcd13ifvqgpg","pricing_plan_id":"free"},{"bike_id":"59e15442-e8d4-4f62-aabf-441583df0c54","system_id":"levelo_inurba_marseille","lat":43.241782,"lon":5.397261,"is_reserved":false,"is_disabled":false,"rental_uris":{"android":"levelo://app?vid=59e15442-e8d4-4f62-aabf-441583df0c54","ios":"levelo://app?vid=59e15442-e8d4-4f62-aabf-441583df0c54"},"vehicle_type_id":"4","last_reported":1704384520,"current_range_meters":0,"station_id":"ce4bhn12rcd13ifvqgpg","pricing_plan_id":"free"},{"bike_id":"8447bebc-070d-492e-b4de-32b342cef6a7","system_id":"levelo_inurba_marseille","lat":43.231923,"lon":5.355545,"is_reserved":false,"is_disabled":false,"rental_uris":{"android":"levelo://app?vid=8447bebc-070d-492e-b4de-32b342cef6a7","ios":"levelo://app?vid=8447bebc-070d-492e-b4de-32b342cef6a7"},"vehicle_type_id":"4","last_reported":1704384520,"current_range_meters":31200,"station_id":"ce4bhu92rcd13ifvqi70","pricing_plan_id":"free"},{"bike_id":"85327154-80fa-49df-a1d2-d66a1500f0e9","system_id":"levelo_inurba_marseille","lat":43.231919,"lon":5.355532,"is_reserved":false,"is_disabled":false,"rental_uris":{"android":"levelo://app?vid=85327154-80fa-49df-a1d2-d66a1500f0e9","ios":"levelo://app?vid=85327154-80fa-49df-a1d2-d66a1500f0e9"},"vehicle_type_id":"4","last_reported":1704384520,"current_range_meters":30000,"station_id":"ce4bhu92rcd13ifvqi70","pricing_plan_id":"free"},{"bike_id":"2970a06c-95d2-4295-8ad0-95d4dcd336f0","system_id":"levelo_inurba_marseille","lat":43.231919,"lon":5.355532,"is_reserved":false,"is_disabled":false,"rental_uris":{"android":"levelo://app?vid=2970a06c-95d2-4295-8ad0-95d4dcd336f0","ios":"levelo://app?vid=2970a06c-95d2-4295-8ad0-95d4dcd336f0"},"vehicle_type_id":"4","last_reported":1704384520,"current_range_meters":31200,"station_id":"ce4bhu92rcd13ifvqi70","pricing_plan_id":"free"},{"bike_id":"945c053f-a7f2-4444-8618-418cf03c7fee","system_id":"levelo_inurba_marseille","lat":43.231919,"lon":5.355532,"is_reserved":false,"is_disabled":false,"rental_uris":{"android":"levelo://app?vid=945c053f-a7f2-4444-8618-418cf03c7fee","ios":"levelo://app?vid=945c053f-a7f2-4444-8618-418cf03c7fee"},"vehicle_type_id":"4","last_reported":1704384520,"current_range_meters":20800,"station_id":"ce4bhu92rcd13ifvqi70","pricing_plan_id":"free"},{"bike_id":"708aacd2-26cf-4709-8efd-04a9e10b174b","system_id":"levelo_inurba_marseille","lat":43.231919,"lon":5.355532,"is_reserved":false,"is_disabled":false,"rental_uris":{"android":"levelo://app?vid=708aacd2-26cf-4709-8efd-04a9e10b174b","ios":"levelo://app?vid=708aacd2-26cf-4709-8efd-04a9e10b174b"},"vehicle_type_id":"4","last_reported":1704384520,"current_range_meters":31200,"station_id":"ce4bhu92rcd13ifvqi70","pricing_plan_id":"free"},{"bike_id":"a5b8e3e7-db4d-4403-8465-d459a3156970","system_id":"levelo_inurba_marseille","lat":43.231919,"lon":5.355532,"is_reserved":false,"is_disabled":false,"rental_uris":{"android":"levelo://app?vid=a5b8e3e7-db4d-4403-8465-d459a3156970","ios":"levelo://app?vid=a5b8e3e7-db4d-4403-8465-d459a3156970"},"vehicle_type_id":"4","last_reported":1704384520,"current_range_meters":11600,"station_id":"ce4bhu92rcd13ifvqi70","pricing_plan_id":"free"},{"bike_id":"5b76f0e1-40c8-40df-9289-5202b0f5849c","system_id":"levelo_inurba_marseille","lat":43.231919,"lon":5.355532,"is_reserved":false,"is_disabled":false,"rental_uris":{"android":"levelo://app?vid=5b76f0e1-40c8-40df-9289-5202b0f5849c","ios":"levelo://app?vid=5b76f0e1-40c8-40df-9289-5202b0f5849c"},"vehicle_type_id":"4","last_reported":1704384520,"current_range_meters":31200,"station_id":"ce4bhu92rcd13ifvqi70","pricing_plan_id":"free"},{"bike_id":"33070571-bb02-4727-85dd-50da48165129","system_id":"levelo_inurba_marseille","lat":43.231919,"lon":5.355532,"is_reserved":false,"is_disabled":false,"rental_uris":{"android":"levelo://app?vid=33070571-bb02-4727-85dd-50da48165129","ios":"levelo://app?vid=33070571-bb02-4727-85dd-50da48165129"},"vehicle_type_id":"4","last_reported":1704384520,"current_range_meters":16400,"station_id":"ce4bhu92rcd13ifvqi70","pricing_plan_id":"free"},{"bike_id":"95a39c0a-c719-47c5-9775-195490648a51","system_id":"levelo_inurba_marseille","lat":43.231919,"lon":5.355532,"is_reserved":false,"is_disabled":false,"rental_uris":{"android":"levelo://app?vid=95a39c0a-c719-47c5-9775-195490648a51","ios":"levelo://app?vid=95a39c0a-c719-47c5-9775-195490648a51"},"vehicle_type_id":"4","last_reported":1704384520,"current_range_meters":27600,"station_id":"ce4bhu92rcd13ifvqi70","pricing_plan_id":"free"},{"bike_id":"4f2a88cf-162f-4116-bef6-6bc87c89d443","system_id":"levelo_inurba_marseille","lat":43.231919,"lon":5.355532,"is_reserved":false,"is_disabled":false,"rental_uris":{"android":"levelo://app?vid=4f2a88cf-162f-4116-bef6-6bc87c89d443","ios":"levelo://app?vid=4f2a88cf-162f-4116-bef6-6bc87c89d443"},"vehicle_type_id":"4","last_reported":1704384520,"current_range_meters":26400,"station_id":"ce4bhu92rcd13ifvqi70","pricing_plan_id":"free"},{"bike_id":"272af630-2baa-40a2-8a84-cc340128a77a","system_id":"levelo_inurba_marseille","lat":43.231919,"lon":5.355532,"is_reserved":false,"is_disabled":false,"rental_uris":{"android":"levelo://app?vid=272af630-2baa-40a2-8a84-cc340128a77a","ios":"levelo://app?vid=272af630-2baa-40a2-8a84-cc340128a77a"},