{"last_updated":1745248198,"ttl":60,"version":"2.2","data":{"bikes":[{"bike_id":"bb38a2b6-54c3-4c02-972a-60655514b898","system_id":"levelo_inurba_marseille","lat":43.27386,"lon":5.36253,"is_reserved":false,"is_disabled":false,"rental_uris":{"android":"levelo://app?vid=bb38a2b6-54c3-4c02-972a-60655514b898","ios":"levelo://app?vid=bb38a2b6-54c3-4c02-972a-60655514b898"},"vehicle_type_id":"4","last_reported":1745248198,"current_range_meters":2800,"station_id":"ce4bhbh2rcd13ifvqeo0","pricing_plan_id":"cebpf4jnsgd1na2vs0mg"},{"bike_id":"75fb542e-6276-4c7f-8738-60cf46564d15","system_id":"levelo_inurba_marseille","lat":43.297915,"lon":5.380883,"is_reserved":false,"is_disabled":false,"rental_uris":{"android":"levelo://app?vid=75fb542e-6276-4c7f-8738-60cf46564d15","ios":"levelo://app?vid=75fb542e-6276-4c7f-8738-60cf46564d15"},"vehicle_type_id":"4","last_reported":1745248198,"current_range_meters":2800,"station_id":"ce4bgip2rcd13ifvqbb0","pricing_plan_id":"cebpf4jnsgd1na2vs0mg"},{"bike_id":"8c60576a-5eb5-44f2-9db3-51cc149d9b42","system_id":"levelo_inurba_marseille","lat":43.27374,"lon":5.36253,"is_reserved":false,"is_disabled":false,"rental_uris":{"android":"levelo://app?vid=8c60576a-5eb5-44f2-9db3-51cc149d9b42","ios":"levelo://app?vid=8c60576a-5eb5-44f2-9db3-51cc149d9b42"},"vehicle_type_id":"4","last_reported":1745248198,"current_range_meters":2800,"station_id":"ce4bhbh2rcd13ifvqeo0","pricing_plan_id":"cebpf4jnsgd1na2vs0mg"},{"bike_id":"c102779d-c816-4e4a-a83d-f3245e94705c","system_id":"levelo_inurba_marseille","lat":43.29907,"lon":5.38136,"is_reserved":false,"is_disabled":false,"rental_uris":{"android":"levelo://app?vid=c102779d-c816-4e4a-a83d-f3245e94705c","ios":"levelo://app?vid=c102779d-c816-4e4a-a83d-f3245e94705c"},"vehicle_type_id":"4","last_reported":1745248198,"current_range_meters":2800,"station_id":"ce4bgj12rcd13ifvqbc0","pricing_plan_id":"cebpf4jnsgd1na2vs0mg"},{"bike_id":"8c6fce12-ce3d-4848-bc66-7e8e0b061a23","system_id":"levelo_inurba_marseille","lat":43.29279,"lon":5.40118,"is_reserved":false,"is_disabled":false,"rental_uris":{"android":"levelo://app?vid=8c6fce12-ce3d-4848-bc66-7e8e0b061a23","ios":"levelo://app?vid=8c6fce12-ce3d-4848-bc66-7e8e0b061a23"},"vehicle_type_id":"4","last_reported":1745248198,"current_range_meters":2800,"station_id":"ce4bh312rcd13ifvqdk0","pricing_plan_id":"cebpf4jnsgd1na2vs0mg"},{"bike_id":"f2393d04-faaf-4e32-aae8-e62267be00d7","system_id":"levelo_inurba_marseille","lat":43.29875,"lon":5.3973,"is_reserved":false,"is_disabled":false,"rental_uris":{"android":"levelo://app?vid=f2393d04-faaf-4e32-aae8-e62267be00d7","ios":"levelo://app?vid=f2393d04-faaf-4e32-aae8-e62267be00d7"},"vehicle_type_id":"4","last_reported":1745248198,"current_range_meters":0,"station_id":"ce4bh0h2rcd13ifvqd50","pricing_plan_id":"cebpf4jnsgd1na2vs0mg"},{"bike_id":"ac6f1ae4-6036-4aa2-8811-bc1d01bbbd56","system_id":"levelo_inurba_marseille","lat":43.254,"lon":5.41845,"is_reserved":false,"is_disabled":false,"rental_uris":{"android":"levelo://app?vid=ac6f1ae4-6036-4aa2-8811-bc1d01bbbd56","ios":"levelo://app?vid=ac6f1ae4-6036-4aa2-8811-bc1d01bbbd56"},"vehicle_type_id":"4","last_reported":1745248198,"current_range_meters":3200,"station_id":"","pricing_plan_id":"cebpf4jnsgd1na2vs0mg"},{"bike_id":"000ec19b-5f88-45a8-a27f-ee7836bf7300","system_id":"levelo_inurba_marseille","lat":43.25089,"lon":5.39521,"is_reserved":false,"is_disabled":false,"rental_uris":{"android":"levelo://app?vid=000ec19b-5f88-45a8-a27f-ee7836bf7300","ios":"levelo://app?vid=000ec19b-5f88-45a8-a27f-ee7836bf7300"},"vehicle_type_id":"4","last_reported":1745248198,"current_range_meters":3200,"station_id":"ce4bhm12rcd13ifvqgkg","pricing_plan_id":"cebpf4jnsgd1na2vs0mg"},{"bike_id":"b2a81ebd-ff90-4ade-b826-1627f5c9a31e","system_id":"levelo_inurba_marseille","lat":43.26553,"lon":5.37291,"is_reserved":false,"is_disabled":false,"rental_uris":{"android":"levelo://app?vid=b2a81ebd-ff90-4ade-b826-1627f5c9a31e","ios":"levelo://app?vid=b2a81ebd-ff90-4ade-b826-1627f5c9a31e"},"vehicle_type_id":"4","last_reported":1745248198,"current_range_meters":3200,"station_id":"ce4bhg12rcd13ifvqf70","pricing_plan_id":"cebpf4jnsgd1na2vs0mg"},{"bike_id":"1c85f23d-ac46-4c6b-8781-1e2a006aff7c","system_id":"levelo_inurba_marseille","lat":43.28849,"lon":5.35838,"is_reserved":false,"is_disabled":false,"rental_uris":{"android":"levelo://app?vid=1c85f23d-ac46-4c6b-8781-1e2a006aff7c","ios":"levelo://app?vid=1c85f23d-ac46-4c6b-8781-1e2a006aff7c"},"vehicle_type_id":"4","last_reported":1745248198,"current_range_meters":3200,"station_id":"ce4bhb12rcd13ifvqem0","pricing_plan_id":"cebpf4jnsgd1na2vs0mg"},{"bike_id":"49a98845-f3db-4005-89fd-6efcffa0760c","system_id":"levelo_inurba_marseille","lat":43.27377,"lon":5.3624,"is_reserved":false,"is_disabled":false,"rental_uris":{"android":"levelo://app?vid=49a98845-f3db-4005-89fd-6efcffa0760c","ios":"levelo://app?vid=49a98845-f3db-4005-89fd-6efcffa0760c"},"vehicle_type_id":"4","last_reported":1745248198,"current_range_meters":3600,"station_id":"ce4bhbh2rcd13ifvqeo0","pricing_plan_id":"cebpf4jnsgd1na2vs0mg"},{"bike_id":"dfca0c34-f55b-40a5-a326-4e0e46a07424","system_id":"levelo_inurba_marseille","lat":43.30961,"lon":5.39024,"is_reserved":false,"is_disabled":false,"rental_uris":{"android":"levelo://app?vid=dfca0c34-f55b-40a5-a326-4e0e46a07424","ios":"levelo://app?vid=dfca0c34-f55b-40a5-a326-4e0e46a07424"},"vehicle_type_id":"4","last_reported":1745248198,"current_range_meters":3600,"station_id":"ce4bgup2rcd13ifvqco0","pricing_plan_id":"cebpf4jnsgd1na2vs0mg"},{"bike_id":"1a4888d8-8762-4fd9-9197-3eb9ba001d20","system_id":"levelo_inurba_marseille","lat":43.28615,"lon":5.35104,"is_reserved":false,"is_disabled":false,"rental_uris":{"android":"levelo://app?vid=1a4888d8-8762-4fd9-9197-3eb9ba001d20","ios":"levelo://app?vid=1a4888d8-8762-4fd9-9197-3eb9ba001d20"},"vehicle_type_id":"4","last_reported":1745248198,"current_range_meters":3600,"station_id":"ce4bhch2rcd13ifvqeug","pricing_plan_id":"cebpf4jnsgd1na2vs0mg"},{"bike_id":"31a6f8a0-66b5-4b22-9267-a9ef183409f9","system_id":"levelo_inurba_marseille","lat":43.28099,"lon":5.37832,"is_reserved":false,"is_disabled":false,"rental_uris":{"android":"levelo://app?vid=31a6f8a0-66b5-4b22-9267-a9ef183409f9","ios":"levelo://app?vid=31a6f8a0-66b5-4b22-9267-a9ef183409f9"},"vehicle_type_id":"4","last_reported":1745248198,"current_range_meters":3600,"station_id":"ce4bha12rcd13ifvqee0","pricing_plan_id":"cebpf4jnsgd1na2vs0mg"},{"bike_id":"ac2669a9-1ff9-4a25-a2d3-56ac2cfb824b","system_id":"levelo_inurba_marseille","lat":43.276198,"lon":5.361004,"is_reserved":false,"is_disabled":false,"rental_uris":{"android":"levelo://app?vid=ac2669a9-1ff9-4a25-a2d3-56ac2cfb824b","ios":"levelo://app?vid=ac2669a9-1ff9-4a25-a2d3-56ac2cfb824b"},"vehicle_type_id":"4","last_reported":1745248198,"current_range_meters":3600,"station_id":"ce4bh2h2rcd13ifvqdh0","pricing_plan_id":"cebpf4jnsgd1na2vs0mg"},{"bike_id":"44240549-9421-4c03-95d2-2098cbf479c3","system_id":"levelo_inurba_marseille","lat":43.28079,"lon":5.39673,"is_reserved":false,"is_disabled":false,"rental_uris":{"android":"levelo://app?vid=44240549-9421-4c03-95d2-2098cbf479c3","ios":"levelo://app?vid=44240549-9421-4c03-95d2-2098cbf479c3"},"vehicle_type_id":"4","last_reported":1745248198,"current_range_meters":4000,"station_id":"ce4bho12rcd13ifvqh2g","pricing_plan_id":"cebpf4jnsgd1na2vs0mg"},{"bike_id":"38a0bc52-7e00-486e-a093-47ed153541ca","system_id":"levelo_inurba_marseille","lat":43.232,"lon":5.3558,"is_reserved":false,"is_disabled":false,"rental_uris":{"android":"levelo://app?vid=38a0bc52-7e00-486e-a093-47ed153541ca","ios":"levelo://app?vid=38a0bc52-7e00-486e-a093-47ed153541ca"},"vehicle_type_id":"4","last_reported":1745248198,"current_range_meters":4000,"station_id":"ce4bhu92rcd13ifvqi70","pricing_plan_id":"cebpf4jnsgd1na2vs0mg"},{"bike_id":"c3668e36-25d1-4220-b669-a89409266ee3","system_id":"levelo_inurba_marseille","lat":43.26567,"lon":5.37263,"is_reserved":false,"is_disabled":false,"rental_uris":{"android":"levelo://app?vid=c3668e36-25d1-4220-b669-a89409266ee3","ios":"levelo://app?vid=c3668e36-25d1-4220-b669-a89409266ee3"},"vehicle_type_id":"4","last_reported":1745248198,"current_range_meters":4000,"station_id":"ce4bhg12rcd13ifvqf70","pricing_plan_id":"cebpf4jnsgd1na2vs0mg"},{"bike_id":"dea4c88b-2c2f-43a7-bd81-9c9b914276fd","system_id":"levelo_inurba_marseille","lat":43.23192,"lon":5.35553,"is_reserved":false,"is_disabled":true,"rental_uris":{"android":"levelo://app?vid=dea4c88b-2c2f-43a7-bd81-9c9b914276fd","ios":"levelo://app?vid=dea4c88b-2c2f-43a7-bd81-9c9b914276fd"},"vehicle_type_id":"4","last_reported":1745248198,"current_range_meters":4000,"station_id":"ce4bhu92rcd13ifvqi70","pricing_plan_id":"cebpf4jnsgd1na2vs0mg"},{"bike_id":"87257429-38a0-406f-907b-cc47edd42ddf","system_id":"levelo_inurba_marseille","lat":43.28717,"lon":5.37895,"is_reserved":false,"is_disabled":false,"rental_uris":{"android":"levelo://app?vid=87257429-38a0-406f-907b-cc47edd42ddf","ios":"levelo://app?vid=87257429-38a0-406f-907b-cc47edd42ddf"},"vehicle_type_id":"4","last_reported":1745248198,"current_range_meters":4000,"station_id":"ce4bh9p2rcd13ifvqec0","pricing_plan_id":"cebpf4jnsgd1na2vs0mg"},{"bike_id":"729743e6-2b4a-48cd-af06-8ffe10e8b38c","system_id":"levelo_inurba_marseille","lat":43.29209,"lon":5.35803,"is_reserved":false,"is_disabled":false,"rental_uris":{"android":"levelo://app?vid=729743e6-2b4a-48cd-af06-8ffe10e8b38c","ios":"levelo://app?vid=729743e6-2b4a-48cd-af06-8ffe10e8b38c"},"vehicle_type_id":"4","last_reported":1745248198,"current_range_meters":4400,"station_id":"ce4bhb12rcd13ifvqel0","pricing_plan_id":"cebpf4jnsgd1na2vs0mg"},{"bike_id":"195484ef-2d5e-42f8-a62c-e16be74213f7","system_id":"levelo_inurba_marseille","lat":43.23192,"lon":5.39958,"is_reserved":false,"is_disabled":false,"rental_uris":{"android":"levelo://app?vid=195484ef-2d5e-42f8-a62c-e16be74213f7","ios":"levelo://app?vid=195484ef-2d5e-42f8-a62c-e16be74213f7"},"vehicle_type_id":"4","last_reported":1745248198,"current_range_meters":4400,"station_id":"ce4bhn12rcd13ifvqgqg","pricing_plan_id":"cebpf4jnsgd1na2vs0mg"},{"bike_id":"e1682aac-61e1-4dd7-8d99-ae768e416cec","system_id":"levelo_inurba_marseille","lat":43.22923,"lon":5.35385,"is_reserved":false,"is_disabled":false,"rental_uris":{"android":"levelo://app?vid=e1682aac-61e1-4dd7-8d99-ae768e416cec","ios":"levelo://app?vid=e1682aac-61e1-4dd7-8d99-ae768e416cec"},"vehicle_type_id":"4","last_reported":1745248198,"current_range_meters":4400,"station_id":"cpo3532slgdg3j2ikp40","pricing_plan_id":"cebpf4jnsgd1na2vs0mg"},{"bike_id":"c6023d7b-0c8f-4a5e-8eb4-dd919f7bc1c0","system_id":"levelo_inurba_marseille","lat":43.27359,"lon":5.36238,"is_reserved":false,"is_disabled":true,"rental_uris":{"android":"levelo://app?vid=c6023d7b-0c8f-4a5e-8eb4-dd919f7bc1c0","ios":"levelo://app?vid=c6023d7b-0c8f-4a5e-8eb4-dd919f7bc1c0"},"vehicle_type_id":"4","last_reported":1745248198,"current_range_meters":4400,"station_id":"ce4bhbh2rcd13ifvqeo0","pricing_plan_id":"cebpf4jnsgd1na2vs0mg"},{"bike_id":"3af77425-de1a-4d28-be2c-87073723dc4b","system_id":"levelo_inurba_marseille","lat":43.22927,"lon":5.35374,"is_reserved":false,"is_disabled":true,"rental_uris":{"android":"levelo://app?vid=3af77425-de1a-4d28-be2c-87073723dc4b","ios":"levelo://app?vid=3af77425-de1a-4d28-be2c-87073723dc4b"},"vehicle_type_id":"4","last_reported":1745248198,"current_range_meters":4400,"station_id":"cpo3532slgdg3j2ikp40","pricing_plan_id":"cebpf4jnsgd1na2vs0mg"},{"bike_id":"213fb158-06bd-4e42-8510-0aa3f7eaae67","system_id":"levelo_inurba_marseille","lat":43.23197,"lon":5.35551,"is_reserved":false,"is_disabled":true,"rental_uris":{"android":"levelo://app?vid=213fb158-06bd-4e42-8510-0aa3f7eaae67","ios":"levelo://app?vid=213fb158-06bd-4e42-8510-0aa3f7eaae67"},"vehicle_type_id":"4","last_reported":1745248198,"current_range_meters":4800,"station_id":"ce4bhu92rcd13ifvqi70","pricing_plan_id":"cebpf4jnsgd1na2vs0mg"},{"bike_id":"c82056fa-be43-4e8c-bee3-9e92f3a8ce5a","system_id":"levelo_inurba_marseille","lat":43.24076,"lon":5.37754,"is_reserved":false,"is_disabled":false,"rental_uris":{"android":"levelo://app?vid=c82056fa-be43-4e8c-bee3-9e92f3a8ce5a","ios":"levelo://app?vid=c82056fa-be43-4e8c-bee3-9e92f3a8ce5a"},"vehicle_type_id":"4","last_reported":1745248198,"current_range_meters":4800,"station_id":"ce4bhnp2rcd13ifvqgvg","pricing_plan_id":"cebpf4jnsgd1na2vs0mg"},{"bike_id":"696866b9-af22-4aa8-ba88-a53c7cb498fa","system_id":"levelo_inurba_marseille","lat":43.303223,"lon":5.368949,"is_reserved":false,"is_disabled":false,"rental_uris":{"android":"levelo://app?vid=696866b9-af22-4aa8-ba88-a53c7cb498fa","ios":"levelo://app?vid=696866b9-af22-4aa8-ba88-a53c7cb498fa"},"vehicle_type_id":"4","last_reported":1745248198,"current_range_meters":4800,"station_id":"ce4bgqh2rcd13ifvqc5g","pricing_plan_id":"cebpf4jnsgd1na2vs0mg"},{"bike_id":"57f77d13-e135-47a6-bd89-c1fde451b1f6","system_id":"levelo_inurba_marseille","lat":43.30129,"lon":5.38796,"is_reserved":false,"is_disabled":false,"rental_uris":{"android":"levelo://app?vid=57f77d13-e135-47a6-bd89-c1fde451b1f6","ios":"levelo://app?vid=57f77d13-e135-47a6-bd89-c1fde451b1f6"},"vehicle_type_id":"4","last_reported":1745248198,"current_range_meters":800,"station_id":"ce4bghh2rcd13ifvqb60","pricing_plan_id":"cebpf4jnsgd1na2vs0mg"},{"bike_id":"88c6e5db-b88d-4eea-b43e-10ed20ec7f9f","system_id":"levelo_inurba_marseille","lat":43.306,"lon":5.37223,"is_reserved":false,"is_disabled":false,"rental_uris":{"android":"levelo://app?vid=88c6e5db-b88d-4eea-b43e-10ed20ec7f9f","ios":"levelo://app?vid=88c6e5db-b88d-4eea-b43e-10ed20ec7f9f"},"vehicle_type_id":"4","last_reported":1745248198,"current_range_meters":4400,"station_id":"ce4bgqh2rcd13ifvqc4g","pricing_plan_id":"cebpf4jnsgd1na2vs0mg"},{"bike_id":"5cd684af-5272-4178-9caa-8e5e77029e4f","system_id":"levelo_inurba_marseille","lat":43.26195,"lon":5.37449,"is_reserved":false,"is_disabled":false,"rental_uris":{"android":"levelo://app?vid=5cd684af-5272-4178-9caa-8e5e77029e4f","ios":"levelo://app?vid=5cd684af-5272-4178-9caa-8e5e77029e4f"},"vehicle_type_id":"4","last_reported":1745248198,"current_range_meters":5600,"station_id":"ce4bhgp2rcd13ifvqfc0","pricing_plan_id":"cebpf4jnsgd1na2vs0mg"},{"bike_id":"8cc2d7d0-b85e-4afa-b4a5-09ea64073393","system_id":"levelo_inurba_marseille","lat":43.23198,"lon":5.35581,"is_reserved":false,"is_disabled":false,"rental_uris":{"android":"levelo://app?vid=8cc2d7d0-b85e-4afa-b4a5-09ea64073393","ios":"levelo://app?vid=8cc2d7d0-b85e-4afa-b4a5-09ea64073393"},"vehicle_type_id":"4","last_reported":1745248198,"current_range_meters":5600,"station_id":"ce4bhu92rcd13ifvqi70","pricing_plan_id":"cebpf4jnsgd1na2vs0mg"},{"bike_id":"17530b0c-c6a0-43de-9d6a-afe79bd917f5","system_id":"levelo_inurba_marseille","lat":43.29624,"lon":5.37165,"is_reserved":false,"is_disabled":false,"rental_uris":{"android":"levelo://app?vid=17530b0c-c6a0-43de-9d6a-afe79bd917f5","ios":"levelo://app?vid=17530b0c-c6a0-43de-9d6a-afe79bd917f5"},"vehicle_type_id":"4","last_reported":1745248198,"current_range_meters":6400,"station_id":"ce4bgnh2rcd13ifvqc0g","pricing_plan_id":"cebpf4jnsgd1na2vs0mg"},{"bike_id":"c9ddea62-7da4-478b-a027-29ffcbf4cece","system_id":"levelo_inurba_marseille","lat":43.23189,"lon":5.39985,"is_reserved":false,"is_disabled":false,"rental_uris":{"android":"levelo://app?vid=c9ddea62-7da4-478b-a027-29ffcbf4cece","ios":"levelo://app?vid=c9ddea62-7da4-478b-a027-29ffcbf4cece"},"vehicle_type_id":"4","last_reported":1745248198,"current_range_meters":5600,"station_id":"ce4bhn12rcd13ifvqgqg","pricing_plan_id":"cebpf4jnsgd1na2vs0mg"},{"bike_id":"44d8eb12-0299-4b05-bc0b-b65d9bedf914","system_id":"levelo_inurba_marseille","lat":43.27371,"lon":5.3625,"is_reserved":false,"is_disabled":false,"rental_uris":{"android":"levelo://app?vid=44d8eb12-0299-4b05-bc0b-b65d9bedf914","ios":"levelo://app?vid=44d8eb12-0299-4b05-bc0b-b65d9bedf914"},"vehicle_type_id":"4","last_reported":1745248198,"current_range_meters":5600,"station_id":"ce4bhbh2rcd13ifvqeo0","pricing_plan_id":"cebpf4jnsgd1na2vs0mg"},{"bike_id":"e2130d6b-52b6-4883-903d-c1659f0ea64d","system_id":"levelo_inurba_marseille","lat":43.23186,"lon":5.39975,"is_reserved":false,"is_disabled":false,"rental_uris":{"android":"levelo://app?vid=e2130d6b-52b6-4883-903d-c1659f0ea64d","ios":"levelo://app?vid=e2130d6b-52b6-4883-903d-c1659f0ea64d"},"vehicle_type_id":"4","last_reported":1745248198,"current_range_meters":6000,"station_id":"ce4bhn12rcd13ifvqgqg","pricing_plan_id":"cebpf4jnsgd1na2vs0mg"},{"bike_id":"44280dc0-6943-4c0b-a161-c0d69965d871","system_id":"levelo_inurba_marseille","lat":43.284088,"lon":5.349794,"is_reserved":false,"is_disabled":false,"rental_uris":{"android":"levelo://app?vid=44280dc0-6943-4c0b-a161-c0d69965d871","ios":"levelo://app?vid=44280dc0-6943-4c0b-a161-c0d69965d871"},"vehicle_type_id":"4","last_reported":1745248198,"current_range_meters":6000,"station_id":"ce4bhbh2rcd13ifvqepg","pricing_plan_id":"cebpf4jnsgd1na2vs0mg"},{"bike_id":"13dcc10c-4cac-4cf2-9318-07e242720dc9","system_id":"levelo_inurba_marseille","lat":43.312,"lon":5.37715,"is_reserved":false,"is_disabled":false,"rental_uris":{"android":"levelo://app?vid=13dcc10c-4cac-4cf2-9318-07e242720dc9","ios":"levelo://app?vid=13dcc10c-4cac-4cf2-9318-07e242720dc9"},"vehicle_type_id":"4","last_reported":1745248198,"current_range_meters":6000,"station_id":"","pricing_plan_id":"cebpf4jnsgd1na2vs0mg"},{"bike_id":"60d0185c-ff68-4880-96e6-b57a05e17bd1","system_id":"levelo_inurba_marseille","lat":43.24387,"lon":5.37061,"is_reserved":false,"is_disabled":false,"rental_uris":{"android":"levelo://app?vid=60d0185c-ff68-4880-96e6-b57a05e17bd1","ios":"levelo://app?vid=60d0185c-ff68-4880-96e6-b57a05e17bd1"},"vehicle_type_id":"4","last_reported":1745248198,"current_range_meters":6000,"station_id":"ce4bhhh2rcd13ifvqfk0","pricing_plan_id":"cebpf4jnsgd1na2vs0mg"},{"bike_id":"0f157b81-53dc-40ba-bbe6-a2078c702952","system_id":"levelo_inurba_marseille","lat":43.23156,"lon":5.43703,"is_reserved":false,"is_disabled":false,"rental_uris":{"android":"levelo://app?vid=0f157b81-53dc-40ba-bbe6-a2078c702952","ios":"levelo://app?vid=0f157b81-53dc-40ba-bbe6-a2078c702952"},"vehicle_type_id":"4","last_reported":1745248198,"current_range_meters":5600,"station_id":"ce4bhmp2rcd13ifvqgog","pricing_plan_id":"cebpf4jnsgd1na2vs0mg"},{"bike_id":"9bbbf7dc-1ad2-4002-b85d-f84566322539","system_id":"levelo_inurba_marseille","lat":43.23173,"lon":5.43743,"is_reserved":false,"is_disabled":false,"rental_uris":{"android":"levelo://app?vid=9bbbf7dc-1ad2-4002-b85d-f84566322539","ios":"levelo://app?vid=9bbbf7dc-1ad2-4002-b85d-f84566322539"},"vehicle_type_id":"4","last_reported":1745248198,"current_range_meters":6000,"station_id":"ce4bhmp2rcd13ifvqgog","pricing_plan_id":"cebpf4jnsgd1na2vs0mg"},{"bike_id":"0f83eeab-7442-4ac8-848b-3e7049a3f092","system_id":"levelo_inurba_marseille","lat":43.265558,"lon":5.390056,"is_reserved":false,"is_disabled":false,"rental_uris":{"android":"levelo://app?vid=0f83eeab-7442-4ac8-848b-3e7049a3f092","ios":"levelo://app?vid=0f83eeab-7442-4ac8-848b-3e7049a3f092"},"vehicle_type_id":"4","last_reported":1745248198,"current_range_meters":6400,"station_id":"ce4bhe12rcd13ifvqf30","pricing_plan_id":"cebpf4jnsgd1na2vs0mg"},{"bike_id":"51cea61e-474e-40ec-a7b9-5606e8ffa798","system_id":"levelo_inurba_marseille","lat":43.254948,"lon":5.376483,"is_reserved":false,"is_disabled":false,"rental_uris":{"android":"levelo://app?vid=51cea61e-474e-40ec-a7b9-5606e8ffa798","ios":"levelo://app?vid=51cea61e-474e-40ec-a7b9-5606e8ffa798"},"vehicle_type_id":"4","last_reported":1745248198,"current_range_meters":6400,"station_id":"ce4bhh12rcd13ifvqff0","pricing_plan_id":"cebpf4jnsgd1na2vs0mg"},{"bike_id":"4f0b25c3-2f51-4c00-9f56-69333455e756","system_id":"levelo_inurba_marseille","lat":43.27882,"lon":5.39289,"is_reserved":false,"is_disabled":false,"rental_uris":{"android":"levelo://app?vid=4f0b25c3-2f51-4c00-9f56-69333455e756","ios":"levelo://app?vid=4f0b25c3-2f51-4c00-9f56-69333455e756"},"vehicle_type_id":"4","last_reported":1745248198,"current_range_meters":6400,"station_id":"","pricing_plan_id":"cebpf4jnsgd1na2vs0mg"},{"bike_id":"24eebf7b-1ea1-4c27-bad0-beb476a3f302","system_id":"levelo_inurba_marseille","lat":43.23196,"lon":5.35549,"is_reserved":false,"is_disabled":false,"rental_uris":{"android":"levelo://app?vid=24eebf7b-1ea1-4c27-bad0-beb476a3f302","ios":"levelo://app?vid=24eebf7b-1ea1-4c27-bad0-beb476a3f302"},"vehicle_type_id":"4","last_reported":1745248198,"current_range_meters":6800,"station_id":"ce4bhu92rcd13ifvqi70","pricing_plan_id":"cebpf4jnsgd1na2vs0mg"},{"bike_id":"fd0e68c7-ba3a-491d-8ac5-309af12e5fe1","system_id":"levelo_inurba_marseille","lat":43.23966,"lon":5.36623,"is_reserved":false,"is_disabled":false,"rental_uris":{"android":"levelo://app?vid=fd0e68c7-ba3a-491d-8ac5-309af12e5fe1","ios":"levelo://app?vid=fd0e68c7-ba3a-491d-8ac5-309af12e5fe1"},"vehicle_type_id":"4","last_reported":1745248198,"current_range_meters":6800,"station_id":"ce4bhi12rcd13ifvqfp0","pricing_plan_id":"cebpf4jnsgd1na2vs0mg"},{"bike_id":"c7acfefb-ed1c-4658-a8c7-1403977dd70a","system_id":"levelo_inurba_marseille","lat":43.24174,"lon":5.36389,"is_reserved":false,"is_disabled":false,"rental_uris":{"android":"levelo://app?vid=c7acfefb-ed1c-4658-a8c7-1403977dd70a","ios":"levelo://app?vid=c7acfefb-ed1c-4658-a8c7-1403977dd70a"},"vehicle_type_id":"4","last_reported":1745248198,"current_range_meters":6800,"station_id":"cpo36qri1sfpv3e86is0","pricing_plan_id":"cebpf4jnsgd1na2vs0mg"},{"bike_id":"b0df153f-c0a2-4966-87fb-785b5737680b","system_id":"levelo_inurba_marseille","lat":43.27376,"lon":5.36256,"is_reserved":false,"is_disabled":false,"rental_uris":{"android":"levelo://app?vid=b0df153f-c0a2-4966-87fb-785b5737680b","ios":"levelo://app?vid=b0df153f-c0a2-4966-87fb-785b5737680b"},"vehicle_type_id":"4","last_reported":1745248198,"current_range_meters":6800,"station_id":"ce4bhbh2rcd13ifvqeo0","pricing_plan_id":"cebpf4jnsgd1na2vs0mg"},{"bike_id":"49225d49-9260-47b2-a782-7d3d21b08c48","system_id":"levelo_inurba_marseille","lat":43.295342,"lon":5.378851,"is_reserved":false,"is_disabled":false,"rental_uris":{"android":"levelo://app?vid=49225d49-9260-47b2-a782-7d3d21b08c48","ios":"levelo://app?vid=49225d49-9260-47b2-a782-7d3d21b08c48"},"vehicle_type_id":"4","last_reported":1745248198,"current_range_meters":6800,"station_id":"","pricing_plan_id":"cebpf4jnsgd1na2vs0mg"},{"bike_id":"dc69da0e-82c8-441f-b5e8-a75947bc14d2","system_id":"levelo_inurba_marseille","lat":43.22508,"lon":5.3478,"is_reserved":false,"is_disabled":false,"rental_uris":{"android":"levelo://app?vid=dc69da0e-82c8-441f-b5e8-a75947bc14d2","ios":"levelo://app?vid=dc69da0e-82c8-441f-b5e8-a75947bc14d2"},"vehicle_type_id":"4","last_reported":1745248198,"current_range_meters":6800,"station_id":"st_cvj5dfep6f1abm77gieg","pricing_plan_id":"cebpf4jnsgd1na2vs0mg"},{"bike_id":"17622cbb-63d8-4aeb-b446-5b12e3ce2f0b","system_id":"levelo_inurba_marseille","lat":43.26209,"lon":5.37444,"is_reserved":false,"is_disabled":false,"rental_uris":{"android":"levelo://app?vid=17622cbb-63d8-4aeb-b446-5b12e3ce2f0b","ios":"levelo://app?vid=17622cbb-63d8-4aeb-b446-5b12e3ce2f0b"},"vehicle_type_id":"4","last_reported":1745248198,"current_range_meters":6800,"station_id":"ce4bhgp2rcd13ifvqfc0","pricing_plan_id":"cebpf4jnsgd1na2vs0mg"},{"bike_id":"c9e99fda-014f-4def-b440-f973e4d167dc","system_id":"levelo_inurba_marseille","lat":43.23193,"lon":5.35553,"is_reserved":false,"is_disabled":false,"rental_uris":{"android":"levelo://app?vid=c9e99fda-014f-4def-b440-f973e4d167dc","ios":"levelo://app?vid=c9e99fda-014f-4def-b440-f973e4d167dc"},"vehicle_type_id":"4","last_reported":1745248198,"current_range_meters":6800,"station_id":"ce4bhu92rcd13ifvqi70","pricing_plan_id":"cebpf4jnsgd1na2vs0mg"},{"bike_id":"3a6d009e-2e7e-4c02-9f51-08d9aaf56ce6","system_id":"levelo_inurba_marseille","lat":43.30304,"lon":5.39204,"is_reserved":false,"is_disabled":true,"rental_uris":{"android":"levelo://app?vid=3a6d009e-2e7e-4c02-9f51-08d9aaf56ce6","ios":"levelo://app?vid=3a6d009e-2e7e-4c02-9f51-08d9aaf56ce6"},"vehicle_type_id":"4","last_reported":1745248198,"current_range_meters":7200,"station_id":"ce4bgkh2rcd13ifvqbk0","pricing_plan_id":"cebpf4jnsgd1na2vs0mg"},{"bike_id":"6e7d2935-fa60-4396-8fd6-4589e4ac4634","system_id":"levelo_inurba_marseille","lat":43.23183,"lon":5.35549,"is_reserved":false,"is_disabled":false,"rental_uris":{"android":"levelo://app?vid=6e7d2935-fa60-4396-8fd6-4589e4ac4634","ios":"levelo://app?vid=6e7d2935-fa60-4396-8fd6-4589e4ac4634"},"vehicle_type_id":"4","last_reported":1745248198,"current_range_meters":7200,"station_id":"ce4bhu92rcd13ifvqi70","pricing_plan_id":"cebpf4jnsgd1na2vs0mg"},{"bike_id":"6d0b1e09-0778-4875-a9ec-ebd4ab3c5c71","system_id":"levelo_inurba_marseille","lat":43.21188,"lon":5.35078,"is_reserved":false,"is_disabled":true,"rental_uris":{"android":"levelo://app?vid=6d0b1e09-0778-4875-a9ec-ebd4ab3c5c71","ios":"levelo://app?vid=6d0b1e09-0778-4875-a9ec-ebd4ab3c5c71"},"vehicle_type_id":"4","last_reported":1745248198,"current_range_meters":7200,"station_id":"","pricing_plan_id":"cebpf4jnsgd1na2vs0mg"},{"bike_id":"147539aa-32f8-41e0-8a3b-9244255243dc","system_id":"levelo_inurba_marseille","lat":43.27365,"lon":5.36252,"is_reserved":false,"is_disabled":false,"rental_uris":{"android":"levelo://app?vid=147539aa-32f8-41e0-8a3b-9244255243dc","ios":"levelo://app?vid=147539aa-32f8-41e0-8a3b-9244255243dc"},"vehicle_type_id":"4","last_reported":1745248198,"current_range_meters":7200,"station_id":"ce4bhbh2rcd13ifvqeo0","pricing_plan_id":"cebpf4jnsgd1na2vs0mg"},{"bike_id":"4d54b607-2c00-4023-87bf-d4a973fbeb92","system_id":"levelo_inurba_marseille","lat":43.2439,"lon":5.37068,"is_reserved":false,"is_disabled":false,"rental_uris":{"android":"levelo://app?vid=4d54b607-2c00-4023-87bf-d4a973fbeb92","ios":"levelo://app?vid=4d54b607-2c00-4023-87bf-d4a973fbeb92"},"vehicle_type_id":"4","last_reported":1745248198,"current_range_meters":7200,"station_id":"ce4bhhh2rcd13ifvqfk0","pricing_plan_id":"cebpf4jnsgd1na2vs0mg"},{"bike_id":"e1590f4f-9f87-44b7-9a08-3418b8b7f586","system_id":"levelo_inurba_marseille","lat":43.23149,"lon":5.43693,"is_reserved":false,"is_disabled":false,"rental_uris":{"android":"levelo://app?vid=e1590f4f-9f87-44b7-9a08-3418b8b7f586","ios":"levelo://app?vid=e1590f4f-9f87-44b7-9a08-3418b8b7f586"},"vehicle_type_id":"4","last_reported":1745248198,"current_range_meters":8000,"station_id":"ce4bhmp2rcd13ifvqgog","pricing_plan_id":"cebpf4jnsgd1na2vs0mg"},{"bike_id":"a690620e-886f-4a7e-b000-db663d32c7b3","system_id":"levelo_inurba_marseille","lat":43.29907,"lon":5.43654,"is_reserved":false,"is_disabled":false,"rental_uris":{"android":"levelo://app?vid=a690620e-886f-4a7e-b000-db663d32c7b3","ios":"levelo://app?vid=a690620e-886f-4a7e-b000-db663d32c7b3"},"vehicle_type_id":"4","last_reported":1745248198,"current_range_meters":8000,"station_id":"ce4bhpp2rcd13ifvqhfg","pricing_plan_id":"cebpf4jnsgd1na2vs0mg"},{"bike_id":"ba1e2be4-e982-434d-ad42-5f3c0cd515c3","system_id":"levelo_inurba_marseille","lat":43.24144,"lon":5.36421,"is_reserved":false,"is_disabled":false,"rental_uris":{"android":"levelo://app?vid=ba1e2be4-e982-434d-ad42-5f3c0cd515c3","ios":"levelo://app?vid=ba1e2be4-e982-434d-ad42-5f3c0cd515c3"},"vehicle_type_id":"4","last_reported":1745248198,"current_range_meters":8000,"station_id":"cpo36qri1sfpv3e86is0","pricing_plan_id":"cebpf4jnsgd1na2vs0mg"},{"bike_id":"753c1404-b946-4450-b5f5-e5874a5d6d0f","system_id":"levelo_inurba_marseille","lat":43.29063,"lon":5.35907,"is_reserved":false,"is_disabled":false,"rental_uris":{"android":"levelo://app?vid=753c1404-b946-4450-b5f5-e5874a5d6d0f","ios":"levelo://app?vid=753c1404-b946-4450-b5f5-e5874a5d6d0f"},"vehicle_type_id":"4","last_reported":1745248198,"current_range_meters":7200,"station_id":"ce4bha92rcd13ifvqeg0","pricing_plan_id":"cebpf4jnsgd1na2vs0mg"},{"bike_id":"66d50837-1497-45ff-ad3a-a9fadb79aa1b","system_id":"levelo_inurba_marseille","lat":43.248074,"lon":5.374586,"is_reserved":false,"is_disabled":false,"rental_uris":{"android":"levelo://app?vid=66d50837-1497-45ff-ad3a-a9fadb79aa1b","ios":"levelo://app?vid=66d50837-1497-45ff-ad3a-a9fadb79aa1b"},"vehicle_type_id":"4","last_reported":1745248198,"current_range_meters":8000,"station_id":"ce4bhgh2rcd13ifvqfb0","pricing_plan_id":"cebpf4jnsgd1na2vs0mg"},{"bike_id":"5bb02d48-6b97-4f31-86da-d2dbb4e70c70","system_id":"levelo_inurba_marseille","lat":43.29913,"lon":5.38141,"is_reserved":false,"is_disabled":false,"rental_uris":{"android":"levelo://app?vid=5bb02d48-6b97-4f31-86da-d2dbb4e70c70","ios":"levelo://app?vid=5bb02d48-6b97-4f31-86da-d2dbb4e70c70"},"vehicle_type_id":"4","last_reported":1745248198,"current_range_meters":8000,"station_id":"ce4bgj12rcd13ifvqbc0","pricing_plan_id":"cebpf4jnsgd1na2vs0mg"},{"bike_id":"8ceced92-93e3-4b03-918f-2c5d08a940f1","system_id":"levelo_inurba_marseille","lat":43.28284,"lon":5.3507,"is_reserved":false,"is_disabled":false,"rental_uris":{"android":"levelo://app?vid=8ceced92-93e3-4b03-918f-2c5d08a940f1","ios":"levelo://app?vid=8ceced92-93e3-4b03-918f-2c5d08a940f1"},"vehicle_type_id":"4","last_reported":1745248198,"current_range_meters":8000,"station_id":"ce4bhbp2rcd13ifvqerg","pricing_plan_id":"cebpf4jnsgd1na2vs0mg"},{"bike_id":"b6ad675c-d9f2-40bb-99f5-e97c3e7296da","system_id":"levelo_inurba_marseille","lat":43.28268,"lon":5.35075,"is_reserved":false,"is_disabled":false,"rental_uris":{"android":"levelo://app?vid=b6ad675c-d9f2-40bb-99f5-e97c3e7296da","ios":"levelo://app?vid=b6ad675c-d9f2-40bb-99f5-e97c3e7296da"},"vehicle_type_id":"4","last_reported":1745248198,"current_range_meters":8000,"station_id":"ce4bhbp2rcd13ifvqerg","pricing_plan_id":"cebpf4jnsgd1na2vs0mg"},{"bike_id":"5861242e-476e-40e0-add2-f5fb80b0a6a0","system_id":"levelo_inurba_marseille","lat":43.2416,"lon":5.36411,"is_reserved":false,"is_disabled":false,"rental_uris":{"android":"levelo://app?vid=5861242e-476e-40e0-add2-f5fb80b0a6a0","ios":"levelo://app?vid=5861242e-476e-40e0-add2-f5fb80b0a6a0"},"vehicle_type_id":"4","last_reported":1745248198,"current_range_meters":8400,"station_id":"cpo36qri1sfpv3e86is0","pricing_plan_id":"cebpf4jnsgd1na2vs0mg"},{"bike_id":"9114d3bd-ed38-44b7-87ca-04741c461710","system_id":"levelo_inurba_marseille","lat":43.30138,"lon":5.387801,"is_reserved":false,"is_disabled":false,"rental_uris":{"android":"levelo://app?vid=9114d3bd-ed38-44b7-87ca-04741c461710","ios":"levelo://app?vid=9114d3bd-ed38-44b7-87ca-04741c461710"},"vehicle_type_id":"4","last_reported":1745248198,"current_range_meters":8400,"station_id":"ce4bgt12rcd13ifvqce0","pricing_plan_id":"cebpf4jnsgd1na2vs0mg"},{"bike_id":"1d1985f8-6b52-4bd8-9b3a-50fb05bf2382","system_id":"levelo_inurba_marseille","lat":43.21198,"lon":5.35073,"is_reserved":false,"is_disabled":false,"rental_uris":{"android":"levelo://app?vid=1d1985f8-6b52-4bd8-9b3a-50fb05bf2382","ios":"levelo://app?vid=1d1985f8-6b52-4bd8-9b3a-50fb05bf2382"},"vehicle_type_id":"4","last_reported":1745248198,"current_range_meters":8400,"station_id":"","pricing_plan_id":"cebpf4jnsgd1na2vs0mg"},{"bike_id":"6cad4566-cf41-49d1-b637-315d23ef4cca","system_id":"levelo_inurba_marseille","lat":43.28614,"lon":5.35112,"is_reserved":false,"is_disabled":false,"rental_uris":{"android":"levelo://app?vid=6cad4566-cf41-49d1-b637-315d23ef4cca","ios":"levelo://app?vid=6cad4566-cf41-49d1-b637-315d23ef4cca"},"vehicle_type_id":"4","last_reported":1745248198,"current_range_meters":8400,"station_id":"ce4bhch2rcd13ifvqeug","pricing_plan_id":"cebpf4jnsgd1na2vs0mg"},{"bike_id":"efd9091c-56cd-4815-8383-85e25013348f","system_id":"levelo_inurba_marseille","lat":43.26228,"lon":5.4045,"is_reserved":false,"is_disabled":false,"rental_uris":{"android":"levelo://app?vid=efd9091c-56cd-4815-8383-85e25013348f","ios":"levelo://app?vid=efd9091c-56cd-4815-8383-85e25013348f"},"vehicle_type_id":"4","last_reported":1745248198,"current_range_meters":8400,"station_id":"ce4bhmh2rcd13ifvqgmg","pricing_plan_id":"cebpf4jnsgd1na2vs0mg"},{"bike_id":"33bbc3dd-992e-4412-82e5-0e1323ece02b","system_id":"levelo_inurba_marseille","lat":43.27308,"lon":5.39075,"is_reserved":false,"is_disabled":false,"rental_uris":{"android":"levelo://app?vid=33bbc3dd-992e-4412-82e5-0e1323ece02b","ios":"levelo://app?vid=33bbc3dd-992e-4412-82e5-0e1323ece02b"},"vehicle_type_id":"4","last_reported":1745248198,"current_range_meters":8000,"station_id":"ce4bhgp2rcd13ifvqfe0","pricing_plan_id":"cebpf4jnsgd1na2vs0mg"},{"bike_id":"b74d2149-b261-409b-ada5-70cce9fad823","system_id":"levelo_inurba_marseille","lat":43.29092,"lon":5.38108,"is_reserved":false,"is_disabled":false,"rental_uris":{"android":"levelo://app?vid=b74d2149-b261-409b-ada5-70cce9fad823","ios":"levelo://app?vid=b74d2149-b261-409b-ada5-70cce9fad823"},"vehicle_type_id":"4","last_reported":1745248198,"current_range_meters":8400,"station_id":"ce4bh512rcd13ifvqe2g","pricing_plan_id":"cebpf4jnsgd1na2vs0mg"},{"bike_id":"b63192e9-df06-41be-b6cd-e30abb57a45d","system_id":"levelo_inurba_marseille","lat":43.23164,"lon":5.43722,"is_reserved":false,"is_disabled":false,"rental_uris":{"android":"levelo://app?vid=b63192e9-df06-41be-b6cd-e30abb57a45d","ios":"levelo://app?vid=b63192e9-df06-41be-b6cd-e30abb57a45d"},"vehicle_type_id":"4","last_reported":1745248198,"current_range_meters":8400,"station_id":"ce4bhmp2rcd13ifvqgog","pricing_plan_id":"cebpf4jnsgd1na2vs0mg"},{"bike_id":"c76d03f4-6c3b-4355-b185-c07025d90dee","system_id":"levelo_inurba_marseille","lat":43.21193,"lon":5.35069,"is_reserved":false,"is_disabled":false,"rental_uris":{"android":"levelo://app?vid=c76d03f4-6c3b-4355-b185-c07025d90dee","ios":"levelo://app?vid=c76d03f4-6c3b-4355-b185-c07025d90dee"},"vehicle_type_id":"4","last_reported":1745248198,"current_range_meters":8400,"station_id":"st_cvj6sg6p6f1abm77japg","pricing_plan_id":"cebpf4jnsgd1na2vs0mg"},{"bike_id":"c0d448a8-45ad-4af1-8832-e9ad7f5108c5","system_id":"levelo_inurba_marseille","lat":43.225012,"lon":5.347818,"is_reserved":false,"is_disabled":false,"rental_uris":{"android":"levelo://app?vid=c0d448a8-45ad-4af1-8832-e9ad7f5108c5","ios":"levelo://app?vid=c0d448a8-45ad-4af1-8832-e9ad7f5108c5"},"vehicle_type_id":"4","last_reported":1745248198,"current_range_meters":8800,"station_id":"","pricing_plan_id":"cebpf4jnsgd1na2vs0mg"},{"bike_id":"f247b4e6-2c06-45d2-86c1-e4bdbe5dc448","system_id":"levelo_inurba_marseille","lat":43.2708,"lon":5.42252,"is_reserved":false,"is_disabled":false,"rental_uris":{"android":"levelo://app?vid=f247b4e6-2c06-45d2-86c1-e4bdbe5dc448","ios":"levelo://app?vid=f247b4e6-2c06-45d2-86c1-e4bdbe5dc448"},"vehicle_type_id":"4","last_reported":1745248198,"current_range_meters":8800,"station_id":"ce4bhk92rcd13ifvqgb0","pricing_plan_id":"cebpf4jnsgd1na2vs0mg"},{"bike_id":"9200aa30-d4c0-4d1c-8461-de5fce769e6b","system_id":"levelo_inurba_marseille","lat":43.28618,"lon":5.35108,"is_reserved":false,"is_disabled":false,"rental_uris":{"android":"levelo://app?vid=9200aa30-d4c0-4d1c-8461-de5fce769e6b","ios":"levelo://app?vid=9200aa30-d4c0-4d1c-8461-de5fce769e6b"},"vehicle_type_id":"4","last_reported":1745248198,"current_range_meters":8800,"station_id":"ce4bhch2rcd13ifvqeug","pricing_plan_id":"cebpf4jnsgd1na2vs0mg"},{"bike_id":"5051e740-8b92-4afd-bde5-f02eebfc3b83","system_id":"levelo_inurba_marseille","lat":43.31343,"lon":5.39684,"is_reserved":false,"is_disabled":false,"rental_uris":{"android":"levelo://app?vid=5051e740-8b92-4afd-bde5-f02eebfc3b83","ios":"levelo://app?vid=5051e740-8b92-4afd-bde5-f02eebfc3b83"},"vehicle_type_id":"4","last_reported":1745248198,"current_range_meters":8800,"station_id":"ce4bgvp2rcd13ifvqcu0","pricing_plan_id":"cebpf4jnsgd1na2vs0mg"},{"bike_id":"b8c50f09-c109-4c5f-9b8e-2d7163883f30","system_id":"levelo_inurba_marseille","lat":43.2828,"lon":5.35069,"is_reserved":false,"is_disabled":false,"rental_uris":{"android":"levelo://app?vid=b8c50f09-c109-4c5f-9b8e-2d7163883f30","ios":"levelo://app?vid=b8c50f09-c109-4c5f-9b8e-2d7163883f30"},"vehicle_type_id":"4","last_reported":1745248198,"current_range_meters":8800,"station_id":"ce4bhbp2rcd13ifvqerg","pricing_plan_id":"cebpf4jnsgd1na2vs0mg"},{"bike_id":"9ae7d0e8-f32d-4dc5-afb1-53b519a77ca5","system_id":"levelo_inurba_marseille","lat":43.225037,"lon":5.347843,"is_reserved":false,"is_disabled":false,"rental_uris":{"android":"levelo://app?vid=9ae7d0e8-f32d-4dc5-afb1-53b519a77ca5","ios":"levelo://app?vid=9ae7d0e8-f32d-4dc5-afb1-53b519a77ca5"},"vehicle_type_id":"4","last_reported":1745248198,"current_range_meters":8800,"station_id":"","pricing_plan_id":"cebpf4jnsgd1na2vs0mg"},{"bike_id":"16cb5006-8cc4-4abd-ab98-0e64efe311b9","system_id":"levelo_inurba_marseille","lat":43.22932,"lon":5.35407,"is_reserved":false,"is_disabled":false,"rental_uris":{"android":"levelo://app?vid=16cb5006-8cc4-4abd-ab98-0e64efe311b9","ios":"levelo://app?vid=16cb5006-8cc4-4abd-ab98-0e64efe311b9"},"vehicle_type_id":"4","last_reported":1745248198,"current_range_meters":8800,"station_id":"cpo3532slgdg3j2ikp40","pricing_plan_id":"cebpf4jnsgd1na2vs0mg"},{"bike_id":"e06bd2ef-5111-45bf-acf1-cf26a9f92360","system_id":"levelo_inurba_marseille","lat":43.24674,"lon":5.38162,"is_reserved":false,"is_disabled":false,"rental_uris":{"android":"levelo://app?vid=e06bd2ef-5111-45bf-acf1-cf26a9f92360","ios":"levelo://app?vid=e06bd2ef-5111-45bf-acf1-cf26a9f92360"},"vehicle_type_id":"4","last_reported":1745248198,"current_range_meters":9200,"station_id":"ce4bhih2rcd13ifvqfr0","pricing_plan_id":"cebpf4jnsgd1na2vs0mg"},{"bike_id":"1f84f51f-d2f4-4d4c-982d-d184ffe24a02","system_id":"levelo_inurba_marseille","lat":43.32374,"lon":5.3891,"is_reserved":false,"is_disabled":true,"rental_uris":{"android":"levelo://app?vid=1f84f51f-d2f4-4d4c-982d-d184ffe24a02","ios":"levelo://app?vid=1f84f51f-d2f4-4d4c-982d-d184ffe24a02"},"vehicle_type_id":"4","last_reported":1745248198,"current_range_meters":9200,"station_id":"ce4bhqp2rcd13ifvqhog","pricing_plan_id":"cebpf4jnsgd1na2vs0mg"},{"bike_id":"8ac16eab-2edd-4580-9a4a-af830092f641","system_id":"levelo_inurba_marseille","lat":43.23959,"lon":5.36631,"is_reserved":false,"is_disabled":false,"rental_uris":{"android":"levelo://app?vid=8ac16eab-2edd-4580-9a4a-af830092f641","ios":"levelo://app?vid=8ac16eab-2edd-4580-9a4a-af830092f641"},"vehicle_type_id":"4","last_reported":1745248198,"current_range_meters":9200,"station_id":"ce4bhi12rcd13ifvqfp0","pricing_plan_id":"cebpf4jnsgd1na2vs0mg"},{"bike_id":"001f3b80-2ade-4258-8e51-886014b5cc1f","system_id":"levelo_inurba_marseille","lat":43.23191,"lon":5.40003,"is_reserved":false,"is_disabled":false,"rental_uris":{"android":"levelo://app?vid=001f3b80-2ade-4258-8e51-886014b5cc1f","ios":"levelo://app?vid=001f3b80-2ade-4258-8e51-886014b5cc1f"},"vehicle_type_id":"4","last_reported":1745248198,"current_range_meters":9200,"station_id":"ce4bhn12rcd13ifvqgqg","pricing_plan_id":"cebpf4jnsgd1na2vs0mg"},{"bike_id":"9cbb6696-a0b6-4b22-a0d1-a8f18a8381a4","system_id":"levelo_inurba_marseille","lat":43.28658,"lon":5.36361,"is_reserved":false,"is_disabled":false,"rental_uris":{"android":"levelo://app?vid=9cbb6696-a0b6-4b22-a0d1-a8f18a8381a4","ios":"levelo://app?vid=9cbb6696-a0b6-4b22-a0d1-a8f18a8381a4"},"vehicle_type_id":"4","last_reported":1745248198,"current_range_meters":9200,"station_id":"ce4bhah2rcd13ifvqej0","pricing_plan_id":"cebpf4jnsgd1na2vs0mg"},{"bike_id":"ba01c468-f18c-4520-8c7d-9a0e432e91d4","system_id":"levelo_inurba_marseille","lat":43.23201,"lon":5.35552,"is_reserved":false,"is_disabled":false,"rental_uris":{"android":"levelo://app?vid=ba01c468-f18c-4520-8c7d-9a0e432e91d4","ios":"levelo://app?vid=ba01c468-f18c-4520-8c7d-9a0e432e91d4"},"vehicle_type_id":"4","last_reported":1745248198,"current_range_meters":9200,"station_id":"ce4bhu92rcd13ifvqi70","pricing_plan_id":"cebpf4jnsgd1na2vs0mg"},{"bike_id":"f0223570-3a17-4265-9816-e1f165f9d3aa","system_id":"levelo_inurba_marseille","lat":43.211899,"lon":5.350698,"is_reserved":false,"is_disabled":false,"rental_uris":{"android":"levelo://app?vid=f0223570-3a17-4265-9816-e1f165f9d3aa","ios":"levelo://app?vid=f0223570-3a17-4265-9816-e1f165f9d3aa"},"vehicle_type_id":"4","last_reported":1745248198,"current_range_meters":9200,"station_id":"st_cvj6sg6p6f1abm77japg","pricing_plan_id":"cebpf4jnsgd1na2vs0mg"},{"bike_id":"05bd5d70-343c-4ec1-9503-64a53389f83f","system_id":"levelo_inurba_marseille","lat":43.28353,"lon":5.38099,"is_reserved":false,"is_disabled":false,"rental_uris":{"android":"levelo://app?vid=05bd5d70-343c-4ec1-9503-64a53389f83f","ios":"levelo://app?vid=05bd5d70-343c-4ec1-9503-64a53389f83f"},"vehicle_type_id":"4","last_reported":1745248198,"current_range_meters":9200,"station_id":"ce4bh412rcd13ifvqdr0","pricing_plan_id":"cebpf4jnsgd1na2vs0mg"},{"bike_id":"16b5907e-4159-49da-b424-740a055ee683","system_id":"levelo_inurba_marseille","lat":43.28415,"lon":5.34993,"is_reserved":false,"is_disabled":false,"rental_uris":{"android":"levelo://app?vid=16b5907e-4159-49da-b424-740a055ee683","ios":"levelo://app?vid=16b5907e-4159-49da-b424-740a055ee683"},"vehicle_type_id":"4","last_reported":1745248198,"current_range_meters":9200,"station_id":"ce4bhbh2rcd13ifvqepg","pricing_plan_id":"cebpf4jnsgd1na2vs0mg"},{"bike_id":"59d828c0-aa93-479d-8b6b-37c2c2fdf562","system_id":"levelo_inurba_marseille","lat":43.28667,"lon":5.36308,"is_reserved":false,"is_disabled":false,"rental_uris":{"android":"levelo://app?vid=59d828c0-aa93-479d-8b6b-37c2c2fdf562","ios":"levelo://app?vid=59d828c0-aa93-479d-8b6b-37c2c2fdf562"},"vehicle_type_id":"4","last_reported":1745248198,"current_range_meters":9600,"station_id":"ce4bhah2rcd13ifvqej0","pricing_plan_id":"cebpf4jnsgd1na2vs0mg"},{"bike_id":"543790c0-5481-4f05-b56f-5e89ea044913","system_id":"levelo_inurba_marseille","lat":43.27368,"lon":5.3625,"is_reserved":false,"is_disabled":false,"rental_uris":{"android":"levelo://app?vid=543790c0-5481-4f05-b56f-5e89ea044913","ios":"levelo://app?vid=543790c0-5481-4f05-b56f-5e89ea044913"},"vehicle_type_id":"4","last_reported":1745248198,"current_range_meters":9600,"station_id":"ce4bhbh2rcd13ifvqeo0","pricing_plan_id":"cebpf4jnsgd1na2vs0mg"},{"bike_id":"6996d513-ee17-4c16-9f25-1167a06858c7","system_id":"levelo_inurba_marseille","lat":43.23191,"lon":5.35563,"is_reserved":false,"is_disabled":false,"rental_uris":{"android":"levelo://app?vid=6996d513-ee17-4c16-9f25-1167a06858c7","ios":"levelo://app?vid=6996d513-ee17-4c16-9f25-1167a06858c7"},"vehicle_type_id":"4","last_reported":1745248198,"current_range_meters":9600,"station_id":"ce4bhu92rcd13ifvqi70","pricing_plan_id":"cebpf4jnsgd1na2vs0mg"},{"bike_id":"ca22777a-0e62-468f-ba81-887347ce2f6e","system_id":"levelo_inurba_marseille","lat":43.29276,"lon":5.36841,"is_reserved":false,"is_disabled":true,"rental_uris":{"android":"levelo://app?vid=ca22777a-0e62-468f-ba81-887347ce2f6e","ios":"levelo://app?vid=ca22777a-0e62-468f-ba81-887347ce2f6e"},"vehicle_type_id":"4","last_reported":1745248198,"current_range_meters":9600,"station_id":"ce4bhbp2rcd13ifvqesg","pricing_plan_id":"cebpf4jnsgd1na2vs0mg"},{"bike_id":"6e3daac8-71d7-4190-9ce6-93984212c044","system_id":"levelo_inurba_marseille","lat":43.33752,"lon":5.39202,"is_reserved":false,"is_disabled":false,"rental_uris":{"android":"levelo://app?vid=6e3daac8-71d7-4190-9ce6-93984212c044","ios":"levelo://app?vid=6e3daac8-71d7-4190-9ce6-93984212c044"},"vehicle_type_id":"4","last_reported":1745248198,"current_range_meters":9600,"station_id":"ce4bhr92rcd13ifvqhsg","pricing_plan_id":"cebpf4jnsgd1na2vs0mg"},{"bike_id":"e932e256-563d-4e91-b1dc-e53878f009a1","system_id":"levelo_inurba_marseille","lat":43.29622,"lon":5.37164,"is_reserved":false,"is_disabled":false,"rental_uris":{"android":"levelo://app?vid=e932e256-563d-4e91-b1dc-e53878f009a1","ios":"levelo://app?vid=e932e256-563d-4e91-b1dc-e53878f009a1"},"vehicle_type_id":"4","last_reported":1745248198,"current_range_meters":9600,"station_id":"ce4bgnh2rcd13ifvqc0g","pricing_plan_id":"cebpf4jnsgd1na2vs0mg"},{"bike_id":"a1c2cadf-3fd0-4e6d-a235-c8b365033bb9","system_id":"levelo_inurba_marseille","lat":43.28621,"lon":5.35093,"is_reserved":false,"is_disabled":false,"rental_uris":{"android":"levelo://app?vid=a1c2cadf-3fd0-4e6d-a235-c8b365033bb9","ios":"levelo://app?vid=a1c2cadf-3fd0-4e6d-a235-c8b365033bb9"},"vehicle_type_id":"4","last_reported":1745248198,"current_range_meters":9600,"station_id":"ce4bhch2rcd13ifvqeug","pricing_plan_id":"cebpf4jnsgd1na2vs0mg"},{"bike_id":"65463e73-bc35-48f4-97d1-f805e0223208","system_id":"levelo_inurba_marseille","lat":43.28423,"lon":5.34994,"is_reserved":false,"is_disabled":false,"rental_uris":{"android":"levelo://app?vid=65463e73-bc35-48f4-97d1-f805e0223208","ios":"levelo://app?vid=65463e73-bc35-48f4-97d1-f805e0223208"},"vehicle_type_id":"4","last_reported":1745248198,"current_range_meters":10000,"station_id":"ce4bhbh2rcd13ifvqepg","pricing_plan_id":"cebpf4jnsgd1na2vs0mg"},{"bike_id":"f0fc08d3-7a88-4f75-b4cf-5f63d6e59a14","system_id":"levelo_inurba_marseille","lat":43.23145,"lon":5.4373,"is_reserved":false,"is_disabled":false,"rental_uris":{"android":"levelo://app?vid=f0fc08d3-7a88-4f75-b4cf-5f63d6e59a14","ios":"levelo://app?vid=f0fc08d3-7a88-4f75-b4cf-5f63d6e59a14"},"vehicle_type_id":"4","last_reported":1745248198,"current_range_meters":10000,"station_id":"ce4bhmp2rcd13ifvqgog","pricing_plan_id":"cebpf4jnsgd1na2vs0mg"},{"bike_id":"cbb1a4cb-0201-402f-bd0e-172b92af9824","system_id":"levelo_inurba_marseille","lat":43.282562,"lon":5.350654,"is_reserved":false,"is_disabled":false,"rental_uris":{"android":"levelo://app?vid=cbb1a4cb-0201-402f-bd0e-172b92af9824","ios":"levelo://app?vid=cbb1a4cb-0201-402f-bd0e-172b92af9824"},"vehicle_type_id":"4","last_reported":1745248198,"current_range_meters":12000,"station_id":"ce4bh0h2rcd13ifvqd40","pricing_plan_id":"cebpf4jnsgd1na2vs0mg"},{"bike_id":"00e46586-99ad-414a-9145-2c1917449d8e","system_id":"levelo_inurba_marseille","lat":43.24072,"lon":5.37765,"is_reserved":false,"is_disabled":false,"rental_uris":{"android":"levelo://app?vid=00e46586-99ad-414a-9145-2c1917449d8e","ios":"levelo://app?vid=00e46586-99ad-414a-9145-2c1917449d8e"},"vehicle_type_id":"4","last_reported":1745248198,"current_range_meters":10000,"station_id":"ce4bhnp2rcd13ifvqgvg","pricing_plan_id":"cebpf4jnsgd1na2vs0mg"},{"bike_id":"943451fc-f92f-49cf-a034-81d39812a3fc","system_id":"levelo_inurba_marseille","lat":43.28709,"lon":5.3793,"is_reserved":false,"is_disabled":false,"rental_uris":{"android":"levelo://app?vid=943451fc-f92f-49cf-a034-81d39812a3fc","ios":"levelo://app?vid=943451fc-f92f-49cf-a034-81d39812a3fc"},"vehicle_type_id":"4","last_reported":1745248198,"current_range_meters":10000,"station_id":"ce4bh9p2rcd13ifvqec0","pricing_plan_id":"cebpf4jnsgd1na2vs0mg"},{"bike_id":"08adba7b-eac3-4cfc-9923-2ccf0cc4ffef","system_id":"levelo_inurba_marseille","lat":43.24559,"lon":5.41312,"is_reserved":false,"is_disabled":false,"rental_uris":{"android":"levelo://app?vid=08adba7b-eac3-4cfc-9923-2ccf0cc4ffef","ios":"levelo://app?vid=08adba7b-eac3-4cfc-9923-2ccf0cc4ffef"},"vehicle_type_id":"4","last_reported":1745248198,"current_range_meters":10000,"station_id":"","pricing_plan_id":"cebpf4jnsgd1na2vs0mg"},{"bike_id":"34166cb2-24d1-48d4-88e5-65264e3a037d","system_id":"levelo_inurba_marseille","lat":43.31039,"lon":5.37101,"is_reserved":false,"is_disabled":false,"rental_uris":{"android":"levelo://app?vid=34166cb2-24d1-48d4-88e5-65264e3a037d","ios":"levelo://app?vid=34166cb2-24d1-48d4-88e5-65264e3a037d"},"vehicle_type_id":"4","last_reported":1745248198,"current_range_meters":10000,"station_id":"","pricing_plan_id":"cebpf4jnsgd1na2vs0mg"},{"bike_id":"ece30491-75ce-4ce9-b5ba-bb09d05457e6","system_id":"levelo_inurba_marseille","lat":43.225098,"lon":5.347831,"is_reserved":false,"is_disabled":false,"rental_uris":{"android":"levelo://app?vid=ece30491-75ce-4ce9-b5ba-bb09d05457e6","ios":"levelo://app?vid=ece30491-75ce-4ce9-b5ba-bb09d05457e6"},"vehicle_type_id":"4","last_reported":1745248198,"current_range_meters":10000,"station_id":"","pricing_plan_id":"cebpf4jnsgd1na2vs0mg"},{"bike_id":"e983be6b-ef9c-4932-bd35-06632d2e755f","system_id":"levelo_inurba_marseille","lat":43.27202,"lon":5.39187,"is_reserved":false,"is_disabled":false,"rental_uris":{"android":"levelo://app?vid=e983be6b-ef9c-4932-bd35-06632d2e755f","ios":"levelo://app?vid=e983be6b-ef9c-4932-bd35-06632d2e755f"},"vehicle_type_id":"4","last_reported":1745248198,"current_range_meters":9600,"station_id":"ce4bhhp2rcd13ifvqfm0","pricing_plan_id":"cebpf4jnsgd1na2vs0mg"},{"bike_id":"4526c344-855d-4c4a-bef6-2378f4916029","system_id":"levelo_inurba_marseille","lat":43.23192,"lon":5.39979,"is_reserved":false,"is_disabled":false,"rental_uris":{"android":"levelo://app?vid=4526c344-855d-4c4a-bef6-2378f4916029","ios":"levelo://app?vid=4526c344-855d-4c4a-bef6-2378f4916029"},"vehicle_type_id":"4","last_reported":1745248198,"current_range_meters":10800,"station_id":"ce4bhn12rcd13ifvqgqg","pricing_plan_id":"cebpf4jnsgd1na2vs0mg"},{"bike_id":"6357c32d-8df8-4c5b-a3dc-bcf5b3f65f0b","system_id":"levelo_inurba_marseille","lat":43.2411,"lon":5.37781,"is_reserved":false,"is_disabled":false,"rental_uris":{"android":"levelo://app?vid=6357c32d-8df8-4c5b-a3dc-bcf5b3f65f0b","ios":"levelo://app?vid=6357c32d-8df8-4c5b-a3dc-bcf5b3f65f0b"},"vehicle_type_id":"4","last_reported":1745248198,"current_range_meters":10800,"station_id":"ce4bhnp2rcd13ifvqgvg","pricing_plan_id":"cebpf4jnsgd1na2vs0mg"},{"bike_id":"b2eba61f-2293-49bf-80eb-fc9f4dc4c6bf","system_id":"levelo_inurba_marseille","lat":43.23966,"lon":5.36633,"is_reserved":false,"is_disabled":false,"rental_uris":{"android":"levelo://app?vid=b2eba61f-2293-49bf-80eb-fc9f4dc4c6bf","ios":"levelo://app?vid=b2eba61f-2293-49bf-80eb-fc9f4dc4c6bf"},"vehicle_type_id":"4","last_reported":1745248198,"current_range_meters":10800,"station_id":"ce4bhi12rcd13ifvqfp0","pricing_plan_id":"cebpf4jnsgd1na2vs0mg"},{"bike_id":"836e2e3f-534c-4cb9-855a-f84beffe89f7","system_id":"levelo_inurba_marseille","lat":43.27994,"lon":5.41657,"is_reserved":false,"is_disabled":false,"rental_uris":{"android":"levelo://app?vid=836e2e3f-534c-4cb9-855a-f84beffe89f7","ios":"levelo://app?vid=836e2e3f-534c-4cb9-855a-f84beffe89f7"},"vehicle_type_id":"4","last_reported":1745248198,"current_range_meters":10800,"station_id":"ce4bho12rcd13ifvqh1g","pricing_plan_id":"cebpf4jnsgd1na2vs0mg"},{"bike_id":"4035a501-fbb8-4d0c-b73b-4e58fe16c7a6","system_id":"levelo_inurba_marseille","lat":43.225141,"lon":5.348028,"is_reserved":false,"is_disabled":false,"rental_uris":{"android":"levelo://app?vid=4035a501-fbb8-4d0c-b73b-4e58fe16c7a6","ios":"levelo://app?vid=4035a501-fbb8-4d0c-b73b-4e58fe16c7a6"},"vehicle_type_id":"4","last_reported":1745248198,"current_range_meters":11200,"station_id":"ce4bh2h2rcd13ifvqdh0","pricing_plan_id":"cebpf4jnsgd1na2vs0mg"},{"bike_id":"6a88aa6f-178d-4204-9ade-3133045c580b","system_id":"levelo_inurba_marseille","lat":43.23965,"lon":5.36636,"is_reserved":false,"is_disabled":false,"rental_uris":{"android":"levelo://app?vid=6a88aa6f-178d-4204-9ade-3133045c580b","ios":"levelo://app?vid=6a88aa6f-178d-4204-9ade-3133045c580b"},"vehicle_type_id":"4","last_reported":1745248198,"current_range_meters":11200,"station_id":"ce4bhi12rcd13ifvqfp0","pricing_plan_id":"cebpf4jnsgd1na2vs0mg"},{"bike_id":"7061510e-15ea-452e-8291-131e006a9106","system_id":"levelo_inurba_marseille","lat":43.31722,"lon":5.42399,"is_reserved":false,"is_disabled":false,"rental_uris":{"android":"levelo://app?vid=7061510e-15ea-452e-8291-131e006a9106","ios":"levelo://app?vid=7061510e-15ea-452e-8291-131e006a9106"},"vehicle_type_id":"4","last_reported":1745248198,"current_range_meters":11200,"station_id":"ce4bhp92rcd13ifvqhbg","pricing_plan_id":"cebpf4jnsgd1na2vs0mg"},{"bike_id":"7e503d67-796c-4310-9208-f6c052059a40","system_id":"levelo_inurba_marseille","lat":43.29524,"lon":5.38523,"is_reserved":false,"is_disabled":false,"rental_uris":{"android":"levelo://app?vid=7e503d67-796c-4310-9208-f6c052059a40","ios":"levelo://app?vid=7e503d67-796c-4310-9208-f6c052059a40"},"vehicle_type_id":"4","last_reported":1745248198,"current_range_meters":11600,"station_id":"ce4bgih2rcd13ifvqba0","pricing_plan_id":"cebpf4jnsgd1na2vs0mg"},{"bike_id":"1c755526-7610-4241-9257-348acde561d3","system_id":"levelo_inurba_marseille","lat":43.24863,"lon":5.38216,"is_reserved":false,"is_disabled":false,"rental_uris":{"android":"levelo://app?vid=1c755526-7610-4241-9257-348acde561d3","ios":"levelo://app?vid=1c755526-7610-4241-9257-348acde561d3"},"vehicle_type_id":"4","last_reported":1745248198,"current_range_meters":11600,"station_id":"","pricing_plan_id":"cebpf4jnsgd1na2vs0mg"},{"bike_id":"3b0eea9a-4ae4-428c-9021-19babc4ebfcf","system_id":"levelo_inurba_marseille","lat":43.23194,"lon":5.35546,"is_reserved":false,"is_disabled":false,"rental_uris":{"android":"levelo://app?vid=3b0eea9a-4ae4-428c-9021-19babc4ebfcf","ios":"levelo://app?vid=3b0eea9a-4ae4-428c-9021-19babc4ebfcf"},"vehicle_type_id":"4","last_reported":1745248198,"current_range_meters":11600,"station_id":"ce4bhu92rcd13ifvqi70","pricing_plan_id":"cebpf4jnsgd1na2vs0mg"},{"bike_id":"c633ffb6-a2e4-43ee-bc04-55b3730fd199","system_id":"levelo_inurba_marseille","lat":43.29418,"lon":5.38609,"is_reserved":false,"is_disabled":true,"rental_uris":{"android":"levelo://app?vid=c633ffb6-a2e4-43ee-bc04-55b3730fd199","ios":"levelo://app?vid=c633ffb6-a2e4-43ee-bc04-55b3730fd199"},"vehicle_type_id":"4","last_reported":1745248198,"current_range_meters":11600,"station_id":"ce4bh2h2rcd13ifvqdh0","pricing_plan_id":"cebpf4jnsgd1na2vs0mg"},{"bike_id":"ed29c8e5-7ae4-4d1a-8939-c287c6c62b9d","system_id":"levelo_inurba_marseille","lat":43.27556,"lon":5.38425,"is_reserved":false,"is_disabled":false,"rental_uris":{"android":"levelo://app?vid=ed29c8e5-7ae4-4d1a-8939-c287c6c62b9d","ios":"levelo://app?vid=ed29c8e5-7ae4-4d1a-8939-c287c6c62b9d"},"vehicle_type_id":"4","last_reported":1745248198,"current_range_meters":12000,"station_id":"ce4bhh92rcd13ifvqfi0","pricing_plan_id":"cebpf4jnsgd1na2vs0mg"},{"bike_id":"3b2a5934-fd50-44e9-9afc-dc59ab4012f2","system_id":"levelo_inurba_marseille","lat":43.254913,"lon":5.376314,"is_reserved":false,"is_disabled":false,"rental_uris":{"android":"levelo://app?vid=3b2a5934-fd50-44e9-9afc-dc59ab4012f2","ios":"levelo://app?vid=3b2a5934-fd50-44e9-9afc-dc59ab4012f2"},"vehicle_type_id":"4","last_reported":1745248198,"current_range_meters":12000,"station_id":"ce4bgj92rcd13ifvqbd0","pricing_plan_id":"cebpf4jnsgd1na2vs0mg"},{"bike_id":"fa7b31b9-c592-472f-8bc3-f45ed72065e6","system_id":"levelo_inurba_marseille","lat":43.27501,"lon":5.42446,"is_reserved":false,"is_disabled":false,"rental_uris":{"android":"levelo://app?vid=fa7b31b9-c592-472f-8bc3-f45ed72065e6","ios":"levelo://app?vid=fa7b31b9-c592-472f-8bc3-f45ed72065e6"},"vehicle_type_id":"4","last_reported":1745248198,"current_range_meters":12000,"station_id":"ce4bhn92rcd13ifvqgrg","pricing_plan_id":"cebpf4jnsgd1na2vs0mg"},{"bike_id":"844e7456-605b-4ed0-8ebc-825b064a0fc6","system_id":"levelo_inurba_marseille","lat":43.24181,"lon":5.39726,"is_reserved":false,"is_disabled":false,"rental_uris":{"android":"levelo://app?vid=844e7456-605b-4ed0-8ebc-825b064a0fc6","ios":"levelo://app?vid=844e7456-605b-4ed0-8ebc-825b064a0fc6"},"vehicle_type_id":"4","last_reported":1745248198,"current_range_meters":12000,"station_id":"ce4bhn12rcd13ifvqgpg","pricing_plan_id":"cebpf4jnsgd1na2vs0mg"},{"bike_id":"f4afb6de-d996-4d58-af9b-f54d090b0ab7","system_id":"levelo_inurba_marseille","lat":43.28783,"lon":5.3582,"is_reserved":false,"is_disabled":false,"rental_uris":{"android":"levelo://app?vid=f4afb6de-d996-4d58-af9b-f54d090b0ab7","ios":"levelo://app?vid=f4afb6de-d996-4d58-af9b-f54d090b0ab7"},"vehicle_type_id":"4","last_reported":1745248198,"current_range_meters":12400,"station_id":"","pricing_plan_id":"cebpf4jnsgd1na2vs0mg"},{"bike_id":"5df2e046-277a-4bf6-a27e-d4401d653a9c","system_id":"levelo_inurba_marseille","lat":43.28266,"lon":5.35067,"is_reserved":false,"is_disabled":false,"rental_uris":{"android":"levelo://app?vid=5df2e046-277a-4bf6-a27e-d4401d653a9c","ios":"levelo://app?vid=5df2e046-277a-4bf6-a27e-d4401d653a9c"},"vehicle_type_id":"4","last_reported":1745248198,"current_range_meters":12000,"station_id":"ce4bhbp2rcd13ifvqerg","pricing_plan_id":"cebpf4jnsgd1na2vs0mg"},{"bike_id":"441b9311-74b7-4998-928b-7bb3c6c22424","system_id":"levelo_inurba_marseille","lat":43.27377,"lon":5.36247,"is_reserved":false,"is_disabled":false,"rental_uris":{"android":"levelo://app?vid=441b9311-74b7-4998-928b-7bb3c6c22424","ios":"levelo://app?vid=441b9311-74b7-4998-928b-7bb3c6c22424"},"vehicle_type_id":"4","last_reported":1745248198,"current_range_meters":12400,"station_id":"ce4bhbh2rcd13ifvqeo0","pricing_plan_id":"cebpf4jnsgd1na2vs0mg"},{"bike_id":"08ff8e61-6c9c-43b4-8a86-c15124151f1a","system_id":"levelo_inurba_marseille","lat":43.23965,"lon":5.36624,"is_reserved":false,"is_disabled":false,"rental_uris":{"android":"levelo://app?vid=08ff8e61-6c9c-43b4-8a86-c15124151f1a","ios":"levelo://app?vid=08ff8e61-6c9c-43b4-8a86-c15124151f1a"},"vehicle_type_id":"4","last_reported":1745248198,"current_range_meters":12400,"station_id":"ce4bhi12rcd13ifvqfp0","pricing_plan_id":"cebpf4jnsgd1na2vs0mg"},{"bike_id":"e77ae347-f37e-4c4c-969c-28c30cf9cb72","system_id":"levelo_inurba_marseille","lat":43.2397,"lon":5.36616,"is_reserved":false,"is_disabled":false,"rental_uris":{"android":"levelo://app?vid=e77ae347-f37e-4c4c-969c-28c30cf9cb72","ios":"levelo://app?vid=e77ae347-f37e-4c4c-969c-28c30cf9cb72"},"vehicle_type_id":"4","last_reported":1745248198,"current_range_meters":12400,"station_id":"ce4bhi12rcd13ifvqfp0","pricing_plan_id":"cebpf4jnsgd1na2vs0mg"},{"bike_id":"a567e3aa-50b1-48de-88c7-ba55d41ddd2a","system_id":"levelo_inurba_marseille","lat":43.28275,"lon":5.35099,"is_reserved":false,"is_disabled":false,"rental_uris":{"android":"levelo://app?vid=a567e3aa-50b1-48de-88c7-ba55d41ddd2a","ios":"levelo://app?vid=a567e3aa-50b1-48de-88c7-ba55d41ddd2a"},"vehicle_type_id":"4","last_reported":1745248198,"current_range_meters":12400,"station_id":"ce4bhbp2rcd13ifvqerg","pricing_plan_id":"cebpf4jnsgd1na2vs0mg"},{"bike_id":"ad0f04e2-9801-410a-ab01-cc6291f840b1","system_id":"levelo_inurba_marseille","lat":43.23187,"lon":5.3998,"is_reserved":false,"is_disabled":false,"rental_uris":{"android":"levelo://app?vid=ad0f04e2-9801-410a-ab01-cc6291f840b1","ios":"levelo://app?vid=ad0f04e2-9801-410a-ab01-cc6291f840b1"},"vehicle_type_id":"4","last_reported":1745248198,"current_range_meters":12400,"station_id":"ce4bhn12rcd13ifvqgqg","pricing_plan_id":"cebpf4jnsgd1na2vs0mg"},{"bike_id":"32d0135b-a1cc-4804-9ddc-acacb7254159","system_id":"levelo_inurba_marseille","lat":43.32342,"lon":5.40625,"is_reserved":false,"is_disabled":false,"rental_uris":{"android":"levelo://app?vid=32d0135b-a1cc-4804-9ddc-acacb7254159","ios":"levelo://app?vid=32d0135b-a1cc-4804-9ddc-acacb7254159"},"vehicle_type_id":"4","last_reported":1745248198,"current_range_meters":12800,"station_id":"ce4bhq92rcd13ifvqhjg","pricing_plan_id":"cebpf4jnsgd1na2vs0mg"},{"bike_id":"6ff41629-37fe-4b76-a72c-8c570dc1d96d","system_id":"levelo_inurba_marseille","lat":43.337317,"lon":5.391868,"is_reserved":false,"is_disabled":false,"rental_uris":{"android":"levelo://app?vid=6ff41629-37fe-4b76-a72c-8c570dc1d96d","ios":"levelo://app?vid=6ff41629-37fe-4b76-a72c-8c570dc1d96d"},"vehicle_type_id":"4","last_reported":1745248198,"current_range_meters":12800,"station_id":"ce4bhr92rcd13ifvqhsg","pricing_plan_id":"cebpf4jnsgd1na2vs0mg"},{"bike_id":"505267e1-ee4c-49ec-89f5-51ade884ab6a","system_id":"levelo_inurba_marseille","lat":43.23193,"lon":5.43708,"is_reserved":false,"is_disabled":false,"rental_uris":{"android":"levelo://app?vid=505267e1-ee4c-49ec-89f5-51ade884ab6a","ios":"levelo://app?vid=505267e1-ee4c-49ec-89f5-51ade884ab6a"},"vehicle_type_id":"4","last_reported":1745248198,"current_range_meters":12800,"station_id":"ce4bhmp2rcd13ifvqgog","pricing_plan_id":"cebpf4jnsgd1na2vs0mg"},{"bike_id":"b52b9383-70a6-4483-8ef1-20533ea5a1d0","system_id":"levelo_inurba_marseille","lat":43.27371,"lon":5.36255,"is_reserved":false,"is_disabled":false,"rental_uris":{"android":"levelo://app?vid=b52b9383-70a6-4483-8ef1-20533ea5a1d0","ios":"levelo://app?vid=b52b9383-70a6-4483-8ef1-20533ea5a1d0"},"vehicle_type_id":"4","last_reported":1745248198,"current_range_meters":12800,"station_id":"ce4bhbh2rcd13ifvqeo0","pricing_plan_id":"cebpf4jnsgd1na2vs0mg"},{"bike_id":"61de52c8-7703-449e-942e-9fb0cc264ce9","system_id":"levelo_inurba_marseille","lat":43.29803,"lon":5.40397,"is_reserved":false,"is_disabled":false,"rental_uris":{"android":"levelo://app?vid=61de52c8-7703-449e-942e-9fb0cc264ce9","ios":"levelo://app?vid=61de52c8-7703-449e-942e-9fb0cc264ce9"},"vehicle_type_id":"4","last_reported":1745248198,"current_range_meters":12800,"station_id":"ce4bh112rcd13ifvqd90","pricing_plan_id":"cebpf4jnsgd1na2vs0mg"},{"bike_id":"c6a838f0-9a52-4834-ae4f-0ebeb1935c70","system_id":"levelo_inurba_marseille","lat":43.211934,"lon":5.350732,"is_reserved":false,"is_disabled":false,"rental_uris":{"android":"levelo://app?vid=c6a838f0-9a52-4834-ae4f-0ebeb1935c70","ios":"levelo://app?vid=c6a838f0-9a52-4834-ae4f-0ebeb1935c70"},"vehicle_type_id":"4","last_reported":1745248198,"current_range_meters":13600,"station_id":"","pricing_plan_id":"cebpf4jnsgd1na2vs0mg"},{"bike_id":"95abc6e0-426a-4f5d-ba24-77f360f4df62","system_id":"levelo_inurba_marseille","lat":43.29016,"lon":5.38648,"is_reserved":false,"is_disabled":false,"rental_uris":{"android":"levelo://app?vid=95abc6e0-426a-4f5d-ba24-77f360f4df62","ios":"levelo://app?vid=95abc6e0-426a-4f5d-ba24-77f360f4df62"},"vehicle_type_id":"4","last_reported":1745248198,"current_range_meters":13600,"station_id":"ce4bh4p2rcd13ifvqe0g","pricing_plan_id":"cebpf4jnsgd1na2vs0mg"},{"bike_id":"653ab908-1999-4c30-ab36-9ad3a8e20169","system_id":"levelo_inurba_marseille","lat":43.24145,"lon":5.36406,"is_reserved":false,"is_disabled":false,"rental_uris":{"android":"levelo://app?vid=653ab908-1999-4c30-ab36-9ad3a8e20169","ios":"levelo://app?vid=653ab908-1999-4c30-ab36-9ad3a8e20169"},"vehicle_type_id":"4","last_reported":1745248198,"current_range_meters":13600,"station_id":"cpo36qri1sfpv3e86is0","pricing_plan_id":"cebpf4jnsgd1na2vs0mg"},{"bike_id":"c3a01ae7-cf36-4a51-adb8-0d1dcfbc2324","system_id":"levelo_inurba_marseille","lat":43.28982,"lon":5.37826,"is_reserved":false,"is_disabled":false,"rental_uris":{"android":"levelo://app?vid=c3a01ae7-cf36-4a51-adb8-0d1dcfbc2324","ios":"levelo://app?vid=c3a01ae7-cf36-4a51-adb8-0d1dcfbc2324"},"vehicle_type_id":"4","last_reported":1745248198,"current_range_meters":13600,"station_id":"ce4bh9p2rcd13ifvqed0","pricing_plan_id":"cebpf4jnsgd1na2vs0mg"},{"bike_id":"e94e3d19-d8ed-4017-a26f-669cbe5090dc","system_id":"levelo_inurba_marseille","lat":43.28072,"lon":5.39652,"is_reserved":false,"is_disabled":false,"rental_uris":{"android":"levelo://app?vid=e94e3d19-d8ed-4017-a26f-669cbe5090dc","ios":"levelo://app?vid=e94e3d19-d8ed-4017-a26f-669cbe5090dc"},"vehicle_type_id":"4","last_reported":1745248198,"current_range_meters":13600,"station_id":"ce4bho12rcd13ifvqh2g","pricing_plan_id":"cebpf4jnsgd1na2vs0mg"},{"bike_id":"fd703065-6c14-4c90-a4d8-30a7f6db56be","system_id":"levelo_inurba_marseille","lat":43.303724,"lon":5.424927,"is_reserved":false,"is_disabled":false,"rental_uris":{"android":"levelo://app?vid=fd703065-6c14-4c90-a4d8-30a7f6db56be","ios":"levelo://app?vid=fd703065-6c14-4c90-a4d8-30a7f6db56be"},"vehicle_type_id":"4","last_reported":1745248198,"current_range_meters":14000,"station_id":"ce4bhoh2rcd13ifvqh6g","pricing_plan_id":"cebpf4jnsgd1na2vs0mg"},{"bike_id":"af313202-1cad-4c48-965c-6adc7163e051","system_id":"levelo_inurba_marseille","lat":43.25724,"lon":5.41108,"is_reserved":false,"is_disabled":false,"rental_uris":{"android":"levelo://app?vid=af313202-1cad-4c48-965c-6adc7163e051","ios":"levelo://app?vid=af313202-1cad-4c48-965c-6adc7163e051"},"vehicle_type_id":"4","last_reported":1745248198,"current_range_meters":14000,"station_id":"ce4bhkp2rcd13ifvqgd0","pricing_plan_id":"cebpf4jnsgd1na2vs0mg"},{"bike_id":"0cd6bd58-1e68-46fb-834c-ae6155ab7f5e","system_id":"levelo_inurba_marseille","lat":43.28002,"lon":5.40003,"is_reserved":false,"is_disabled":false,"rental_uris":{"android":"levelo://app?vid=0cd6bd58-1e68-46fb-834c-ae6155ab7f5e","ios":"levelo://app?vid=0cd6bd58-1e68-46fb-834c-ae6155ab7f5e"},"vehicle_type_id":"4","last_reported":1745248198,"current_range_meters":14000,"station_id":"ce4bho92rcd13ifvqh4g","pricing_plan_id":"cebpf4jnsgd1na2vs0mg"},{"bike_id":"126d8d26-a702-4118-9fca-91b2420852f2","system_id":"levelo_inurba_marseille","lat":43.28451,"lon":5.35882,"is_reserved":false,"is_disabled":false,"rental_uris":{"android":"levelo://app?vid=126d8d26-a702-4118-9fca-91b2420852f2","ios":"levelo://app?vid=126d8d26-a702-4118-9fca-91b2420852f2"},"vehicle_type_id":"4","last_reported":1745248198,"current_range_meters":14000,"station_id":"ce4bhah2rcd13ifvqei0","pricing_plan_id":"cebpf4jnsgd1na2vs0mg"},{"bike_id":"87bad6a1-843d-448f-a6af-1039915bb9a6","system_id":"levelo_inurba_marseille","lat":43.31165,"lon":5.38718,"is_reserved":false,"is_disabled":false,"rental_uris":{"android":"levelo://app?vid=87bad6a1-843d-448f-a6af-1039915bb9a6","ios":"levelo://app?vid=87bad6a1-843d-448f-a6af-1039915bb9a6"},"vehicle_type_id":"4","last_reported":1745248198,"current_range_meters":14000,"station_id":"ce4bgv12rcd13ifvqcp0","pricing_plan_id":"cebpf4jnsgd1na2vs0mg"},{"bike_id":"50db0387-7461-40de-84a7-970e01f0c6a9","system_id":"levelo_inurba_marseille","lat":43.24174,"lon":5.36395,"is_reserved":false,"is_disabled":false,"rental_uris":{"android":"levelo://app?vid=50db0387-7461-40de-84a7-970e01f0c6a9","ios":"levelo://app?vid=50db0387-7461-40de-84a7-970e01f0c6a9"},"vehicle_type_id":"4","last_reported":1745248198,"current_range_meters":14000,"station_id":"cpo36qri1sfpv3e86is0","pricing_plan_id":"cebpf4jnsgd1na2vs0mg"},{"bike_id":"6a6d8e3f-cf68-4084-b141-59d40a9cea4d","system_id":"levelo_inurba_marseille","lat":43.23968,"lon":5.36639,"is_reserved":false,"is_disabled":false,"rental_uris":{"android":"levelo://app?vid=6a6d8e3f-cf68-4084-b141-59d40a9cea4d","ios":"levelo://app?vid=6a6d8e3f-cf68-4084-b141-59d40a9cea4d"},"vehicle_type_id":"4","last_reported":1745248198,"current_range_meters":14400,"station_id":"ce4bhi12rcd13ifvqfp0","pricing_plan_id":"cebpf4jnsgd1na2vs0mg"},{"bike_id":"2dc4e79a-33a8-48b0-bf03-f6328f1dc1f6","system_id":"levelo_inurba_marseille","lat":43.32365,"lon":5.38896,"is_reserved":false,"is_disabled":true,"rental_uris":{"android":"levelo://app?vid=2dc4e79a-33a8-48b0-bf03-f6328f1dc1f6","ios":"levelo://app?vid=2dc4e79a-33a8-48b0-bf03-f6328f1dc1f6"},"vehicle_type_id":"4","last_reported":1745248198,"current_range_meters":14400,"station_id":"ce4bhqp2rcd13ifvqhog","pricing_plan_id":"cebpf4jnsgd1na2vs0mg"},{"bike_id":"1ae85bbb-f179-4165-8cb0-de754d6e0939","system_id":"levelo_inurba_marseille","lat":43.23188,"lon":5.39977,"is_reserved":false,"is_disabled":false,"rental_uris":{"android":"levelo://app?vid=1ae85bbb-f179-4165-8cb0-de754d6e0939","ios":"levelo://app?vid=1ae85bbb-f179-4165-8cb0-de754d6e0939"},"vehicle_type_id":"4","last_reported":1745248198,"current_range_meters":14400,"station_id":"ce4bhn12rcd13ifvqgqg","pricing_plan_id":"cebpf4jnsgd1na2vs0mg"},{"bike_id":"10f8fc6f-3090-469b-90c6-f2956b34caf9","system_id":"levelo_inurba_marseille","lat":43.243882,"lon":5.370635,"is_reserved":false,"is_disabled":false,"rental_uris":{"android":"levelo://app?vid=10f8fc6f-3090-469b-90c6-f2956b34caf9","ios":"levelo://app?vid=10f8fc6f-3090-469b-90c6-f2956b34caf9"},"vehicle_type_id":"4","last_reported":1745248198,"current_range_meters":14800,"station_id":"ce4bh9p2rcd13ifvqec0","pricing_plan_id":"cebpf4jnsgd1na2vs0mg"},{"bike_id":"3a02dc86-8da6-4f65-ac51-3de48156f2cc","system_id":"levelo_inurba_marseille","lat":43.28984,"lon":5.37834,"is_reserved":false,"is_disabled":false,"rental_uris":{"android":"levelo://app?vid=3a02dc86-8da6-4f65-ac51-3de48156f2cc","ios":"levelo://app?vid=3a02dc86-8da6-4f65-ac51-3de48156f2cc"},"vehicle_type_id":"4","last_reported":1745248198,"current_range_meters":14400,"station_id":"ce4bh9p2rcd13ifvqed0","pricing_plan_id":"cebpf4jnsgd1na2vs0mg"},{"bike_id":"744ddc16-effa-4bc1-acef-8c51d07c6777","system_id":"levelo_inurba_marseille","lat":43.27845,"lon":5.39212,"is_reserved":false,"is_disabled":false,"rental_uris":{"android":"levelo://app?vid=744ddc16-effa-4bc1-acef-8c51d07c6777","ios":"levelo://app?vid=744ddc16-effa-4bc1-acef-8c51d07c6777"},"vehicle_type_id":"4","last_reported":1745248198,"current_range_meters":15200,"station_id":"ce4bhjp2rcd13ifvqga0","pricing_plan_id":"cebpf4jnsgd1na2vs0mg"},{"bike_id":"279c7f94-06a5-4566-a93c-a758228cfe59","system_id":"levelo_inurba_marseille","lat":43.27376,"lon":5.36251,"is_reserved":false,"is_disabled":false,"rental_uris":{"android":"levelo://app?vid=279c7f94-06a5-4566-a93c-a758228cfe59","ios":"levelo://app?vid=279c7f94-06a5-4566-a93c-a758228cfe59"},"vehicle_type_id":"4","last_reported":1745248198,"current_range_meters":15200,"station_id":"ce4bhbh2rcd13ifvqeo0","pricing_plan_id":"cebpf4jnsgd1na2vs0mg"},{"bike_id":"2be8ba20-31c7-44c1-b692-9c9542f01202","system_id":"levelo_inurba_marseille","lat":43.24075,"lon":5.37759,"is_reserved":false,"is_disabled":false,"rental_uris":{"android":"levelo://app?vid=2be8ba20-31c7-44c1-b692-9c9542f01202","ios":"levelo://app?vid=2be8ba20-31c7-44c1-b692-9c9542f01202"},"vehicle_type_id":"4","last_reported":1745248198,"current_range_meters":15200,"station_id":"ce4bhnp2rcd13ifvqgvg","pricing_plan_id":"cebpf4jnsgd1na2vs0mg"},{"bike_id":"c681b189-b8fc-4c04-8656-8dbbafad48a5","system_id":"levelo_inurba_marseille","lat":43.286237,"lon":5.351013,"is_reserved":false,"is_disabled":false,"rental_uris":{"android":"levelo://app?vid=c681b189-b8fc-4c04-8656-8dbbafad48a5","ios":"levelo://app?vid=c681b189-b8fc-4c04-8656-8dbbafad48a5"},"vehicle_type_id":"4","last_reported":1745248198,"current_range_meters":15200,"station_id":"ce4bhch2rcd13ifvqeug","pricing_plan_id":"cebpf4jnsgd1na2vs0mg"},{"bike_id":"3999f4e2-41bb-4c2d-b4e0-273995b6e2e8","system_id":"levelo_inurba_marseille","lat":43.29029,"lon":5.38643,"is_reserved":false,"is_disabled":false,"rental_uris":{"android":"levelo://app?vid=3999f4e2-41bb-4c2d-b4e0-273995b6e2e8","ios":"levelo://app?vid=3999f4e2-41bb-4c2d-b4e0-273995b6e2e8"},"vehicle_type_id":"4","last_reported":1745248198,"current_range_meters":15200,"station_id":"ce4bh4p2rcd13ifvqe0g","pricing_plan_id":"cebpf4jnsgd1na2vs0mg"},{"bike_id":"28105f12-b355-49c8-9376-d2bf24643575","system_id":"levelo_inurba_marseille","lat":43.23195,"lon":5.35575,"is_reserved":false,"is_disabled":false,"rental_uris":{"android":"levelo://app?vid=28105f12-b355-49c8-9376-d2bf24643575","ios":"levelo://app?vid=28105f12-b355-49c8-9376-d2bf24643575"},"vehicle_type_id":"4","last_reported":1745248198,"current_range_meters":14800,"station_id":"ce4bhu92rcd13ifvqi70","pricing_plan_id":"cebpf4jnsgd1na2vs0mg"},{"bike_id":"f718fdb9-7d03-4510-a401-0de2dfaec0aa","system_id":"levelo_inurba_marseille","lat":43.27366,"lon":5.36225,"is_reserved":false,"is_disabled":false,"rental_uris":{"android":"levelo://app?vid=f718fdb9-7d03-4510-a401-0de2dfaec0aa","ios":"levelo://app?vid=f718fdb9-7d03-4510-a401-0de2dfaec0aa"},"vehicle_type_id":"4","last_reported":1745248198,"current_range_meters":16000,"station_id":"ce4bhbh2rcd13ifvqeo0","pricing_plan_id":"cebpf4jnsgd1na2vs0mg"},{"bike_id":"2cd7ac1e-6fe9-42c4-ba04-8696540dbde9","system_id":"levelo_inurba_marseille","lat":43.296,"lon":5.38104,"is_reserved":false,"is_disabled":false,"rental_uris":{"android":"levelo://app?vid=2cd7ac1e-6fe9-42c4-ba04-8696540dbde9","ios":"levelo://app?vid=2cd7ac1e-6fe9-42c4-ba04-8696540dbde9"},"vehicle_type_id":"4","last_reported":1745248198,"current_range_meters":15200,"station_id":"ce4bgl12rcd13ifvqbo0","pricing_plan_id":"cebpf4jnsgd1na2vs0mg"},{"bike_id":"5d515b38-21f5-4fdf-b0d6-8bff8b3f76cd","system_id":"levelo_inurba_marseille","lat":43.231895,"lon":5.355568,"is_reserved":false,"is_disabled":false,"rental_uris":{"android":"levelo://app?vid=5d515b38-21f5-4fdf-b0d6-8bff8b3f76cd","ios":"levelo://app?vid=5d515b38-21f5-4fdf-b0d6-8bff8b3f76cd"},"vehicle_type_id":"4","last_reported":1745248198,"current_range_meters":16000,"station_id":"ce4bhu92rcd13ifvqi70","pricing_plan_id":"cebpf4jnsgd1na2vs0mg"},{"bike_id":"4032f117-3871-440d-a041-2d606036424c","system_id":"levelo_inurba_marseille","lat":43.24166,"lon":5.36389,"is_reserved":false,"is_disabled":false,"rental_uris":{"android":"levelo://app?vid=4032f117-3871-440d-a041-2d606036424c","ios":"levelo://app?vid=4032f117-3871-440d-a041-2d606036424c"},"vehicle_type_id":"4","last_reported":1745248198,"current_range_meters":16000,"station_id":"cpo36qri1sfpv3e86is0","pricing_plan_id":"cebpf4jnsgd1na2vs0mg"},{"bike_id":"5151fa4d-cd7f-42d0-9fa2-4b32526bb904","system_id":"levelo_inurba_marseille","lat":43.24181,"lon":5.39713,"is_reserved":false,"is_disabled":true,"rental_uris":{"android":"levelo://app?vid=5151fa4d-cd7f-42d0-9fa2-4b32526bb904","ios":"levelo://app?vid=5151fa4d-cd7f-42d0-9fa2-4b32526bb904"},"vehicle_type_id":"4","last_reported":1745248198,"current_range_meters":16400,"station_id":"ce4bhn12rcd13ifvqgpg","pricing_plan_id":"cebpf4jnsgd1na2vs0mg"},{"bike_id":"3786ddc7-c4fb-4849-96f4-93f9171801d1","system_id":"levelo_inurba_marseille","lat":43.25584,"lon":5.38245,"is_reserved":false,"is_disabled":false,"rental_uris":{"android":"levelo://app?vid=3786ddc7-c4fb-4849-96f4-93f9171801d1","ios":"levelo://app?vid=3786ddc7-c4fb-4849-96f4-93f9171801d1"},"vehicle_type_id":"4","last_reported":1745248198,"current_range_meters":16400,"station_id":"ce4bhih2rcd13ifvqfs0","pricing_plan_id":"cebpf4jnsgd1na2vs0mg"},{"bike_id":"afca05cb-9dea-4e13-bae3-b0bd83251e29","system_id":"levelo_inurba_marseille","lat":43.21191,"lon":5.35076,"is_reserved":false,"is_disabled":false,"rental_uris":{"android":"levelo://app?vid=afca05cb-9dea-4e13-bae3-b0bd83251e29","ios":"levelo://app?vid=afca05cb-9dea-4e13-bae3-b0bd83251e29"},"vehicle_type_id":"4","last_reported":1745248198,"current_range_meters":16400,"station_id":"st_cvj6sg6p6f1abm77japg","pricing_plan_id":"cebpf4jnsgd1na2vs0mg"},{"bike_id":"3a9e4e79-76a7-4e9e-986e-c31831c3262d","system_id":"levelo_inurba_marseille","lat":43.28417,"lon":5.34979,"is_reserved":false,"is_disabled":false,"rental_uris":{"android":"levelo://app?vid=3a9e4e79-76a7-4e9e-986e-c31831c3262d","ios":"levelo://app?vid=3a9e4e79-76a7-4e9e-986e-c31831c3262d"},"vehicle_type_id":"4","last_reported":1745248198,"current_range_meters":16400,"station_id":"ce4bhbh2rcd13ifvqepg","pricing_plan_id":"cebpf4jnsgd1na2vs0mg"},{"bike_id":"2f72f2a9-d088-4c20-935c-62bc72f3f3cf","system_id":"levelo_inurba_marseille","lat":43.29029,"lon":5.38644,"is_reserved":false,"is_disabled":false,"rental_uris":{"android":"levelo://app?vid=2f72f2a9-d088-4c20-935c-62bc72f3f3cf","ios":"levelo://app?vid=2f72f2a9-d088-4c20-935c-62bc72f3f3cf"},"vehicle_type_id":"4","last_reported":1745248198,"current_range_meters":16400,"station_id":"ce4bh4p2rcd13ifvqe0g","pricing_plan_id":"cebpf4jnsgd1na2vs0mg"},{"bike_id":"f3bbad32-26cf-4121-a8fd-42c8e0cfb6aa","system_id":"levelo_inurba_marseille","lat":43.231917,"lon":5.355483,"is_reserved":false,"is_disabled":false,"rental_uris":{"android":"levelo://app?vid=f3bbad32-26cf-4121-a8fd-42c8e0cfb6aa","ios":"levelo://app?vid=f3bbad32-26cf-4121-a8fd-42c8e0cfb6aa"},"vehicle_type_id":"4","last_reported":1745248198,"current_range_meters":16400,"station_id":"ce4bhu92rcd13ifvqi70","pricing_plan_id":"cebpf4jnsgd1na2vs0mg"},{"bike_id":"303875a7-e0eb-43a1-8b65-5af5662ca0f8","system_id":"levelo_inurba_marseille","lat":43.2963,"lon":5.37731,"is_reserved":false,"is_disabled":false,"rental_uris":{"android":"levelo://app?vid=303875a7-e0eb-43a1-8b65-5af5662ca0f8","ios":"levelo://app?vid=303875a7-e0eb-43a1-8b65-5af5662ca0f8"},"vehicle_type_id":"4","last_reported":1745248198,"current_range_meters":15200,"station_id":"ce4bgi92rcd13ifvqb90","pricing_plan_id":"cebpf4jnsgd1na2vs0mg"},{"bike_id":"fda1ee92-9bfa-4120-939b-d9ca16b16a7d","system_id":"levelo_inurba_marseille","lat":43.3023,"lon":5.39481,"is_reserved":false,"is_disabled":false,"rental_uris":{"android":"levelo://app?vid=fda1ee92-9bfa-4120-939b-d9ca16b16a7d","ios":"levelo://app?vid=fda1ee92-9bfa-4120-939b-d9ca16b16a7d"},"vehicle_type_id":"4","last_reported":1745248198,"current_range_meters":16400,"station_id":"ce4bh0p2rcd13ifvqd70","pricing_plan_id":"cebpf4jnsgd1na2vs0mg"},{"bike_id":"217bc09c-9054-444f-b0a6-1a91698bbf60","system_id":"levelo_inurba_marseille","lat":43.26197,"lon":5.37454,"is_reserved":false,"is_disabled":true,"rental_uris":{"android":"levelo://app?vid=217bc09c-9054-444f-b0a6-1a91698bbf60","ios":"levelo://app?vid=217bc09c-9054-444f-b0a6-1a91698bbf60"},"vehicle_type_id":"4","last_reported":1745248198,"current_range_meters":16800,"station_id":"ce4bhgp2rcd13ifvqfc0","pricing_plan_id":"cebpf4jnsgd1na2vs0mg"},{"bike_id":"b42cddd9-41c3-4d8e-91db-fe0cf577805b","system_id":"levelo_inurba_marseille","lat":43.26553,"lon":5.37289,"is_reserved":false,"is_disabled":false,"rental_uris":{"android":"levelo://app?vid=b42cddd9-41c3-4d8e-91db-fe0cf577805b","ios":"levelo://app?vid=b42cddd9-41c3-4d8e-91db-fe0cf577805b"},"vehicle_type_id":"4","last_reported":1745248198,"current_range_meters":16800,"station_id":"ce4bhg12rcd13ifvqf70","pricing_plan_id":"cebpf4jnsgd1na2vs0mg"},{"bike_id":"3f1bab17-9b2d-48f6-bdd4-c057187a5399","system_id":"levelo_inurba_marseille","lat":43.24387,"lon":5.37072,"is_reserved":false,"is_disabled":false,"rental_uris":{"android":"levelo://app?vid=3f1bab17-9b2d-48f6-bdd4-c057187a5399","ios":"levelo://app?vid=3f1bab17-9b2d-48f6-bdd4-c057187a5399"},"vehicle_type_id":"4","last_reported":1745248198,"current_range_meters":16800,"station_id":"ce4bhhh2rcd13ifvqfk0","pricing_plan_id":"cebpf4jnsgd1na2vs0mg"},{"bike_id":"437ba25a-ca27-4693-9456-8b815b84766a","system_id":"levelo_inurba_marseille","lat":43.21179,"lon":5.35096,"is_reserved":false,"is_disabled":false,"rental_uris":{"android":"levelo://app?vid=437ba25a-ca27-4693-9456-8b815b84766a","ios":"levelo://app?vid=437ba25a-ca27-4693-9456-8b815b84766a"},"vehicle_type_id":"4","last_reported":1745248198,"current_range_meters":16800,"station_id":"st_cvj6sg6p6f1abm77japg","pricing_plan_id":"cebpf4jnsgd1na2vs0mg"},{"bike_id":"10c5d023-c699-43ea-b1ee-d06f3fde446d","system_id":"levelo_inurba_marseille","lat":43.23145,"lon":5.43715,"is_reserved":false,"is_disabled":false,"rental_uris":{"android":"levelo://app?vid=10c5d023-c699-43ea-b1ee-d06f3fde446d","ios":"levelo://app?vid=10c5d023-c699-43ea-b1ee-d06f3fde446d"},"vehicle_type_id":"4","last_reported":1745248198,"current_range_meters":16800,"station_id":"ce4bhmp2rcd13ifvqgog","pricing_plan_id":"cebpf4jnsgd1na2vs0mg"},{"bike_id":"1f63f9f1-d67b-4860-8358-9cf063fefbbc","system_id":"levelo_inurba_marseille","lat":43.30329,"lon":5.41838,"is_reserved":false,"is_disabled":false,"rental_uris":{"android":"levelo://app?vid=1f63f9f1-d67b-4860-8358-9cf063fefbbc","ios":"levelo://app?vid=1f63f9f1-d67b-4860-8358-9cf063fefbbc"},"vehicle_type_id":"4","last_reported":1745248198,"current_range_meters":16800,"station_id":"ce4bhop2rcd13ifvqh7g","pricing_plan_id":"cebpf4jnsgd1na2vs0mg"},{"bike_id":"b8b1352e-7f7f-4aaf-ab25-db211e7aa0eb","system_id":"levelo_inurba_marseille","lat":43.23963,"lon":5.36622,"is_reserved":false,"is_disabled":false,"rental_uris":{"android":"levelo://app?vid=b8b1352e-7f7f-4aaf-ab25-db211e7aa0eb","ios":"levelo://app?vid=b8b1352e-7f7f-4aaf-ab25-db211e7aa0eb"},"vehicle_type_id":"4","last_reported":1745248198,"current_range_meters":17200,"station_id":"ce4bhi12rcd13ifvqfp0","pricing_plan_id":"cebpf4jnsgd1na2vs0mg"},{"bike_id":"77a2af42-c8b7-4828-a3fa-7c1fa0a3e54c","system_id":"levelo_inurba_marseille","lat":43.295241,"lon":5.39007,"is_reserved":false,"is_disabled":false,"rental_uris":{"android":"levelo://app?vid=77a2af42-c8b7-4828-a3fa-7c1fa0a3e54c","ios":"levelo://app?vid=77a2af42-c8b7-4828-a3fa-7c1fa0a3e54c"},"vehicle_type_id":"4","last_reported":1745248198,"current_range_meters":17200,"station_id":"ce4bh3p2rcd13ifvqdp0","pricing_plan_id":"cebpf4jnsgd1na2vs0mg"},{"bike_id":"b6afa2f8-9307-4fc0-a95e-27a6bb310a41","system_id":"levelo_inurba_marseille","lat":43.28421,"lon":5.34995,"is_reserved":false,"is_disabled":false,"rental_uris":{"android":"levelo://app?vid=b6afa2f8-9307-4fc0-a95e-27a6bb310a41","ios":"levelo://app?vid=b6afa2f8-9307-4fc0-a95e-27a6bb310a41"},"vehicle_type_id":"4","last_reported":1745248198,"current_range_meters":17200,"station_id":"ce4bhbh2rcd13ifvqepg","pricing_plan_id":"cebpf4jnsgd1na2vs0mg"},{"bike_id":"6b4282bc-9432-4c95-847b-7452cf13e716","system_id":"levelo_inurba_marseille","lat":43.28604,"lon":5.37078,"is_reserved":false,"is_disabled":true,"rental_uris":{"android":"levelo://app?vid=6b4282bc-9432-4c95-847b-7452cf13e716","ios":"levelo://app?vid=6b4282bc-9432-4c95-847b-7452cf13e716"},"vehicle_type_id":"4","last_reported":1745248198,"current_range_meters":17600,"station_id":"ce4bht12rcd13ifvqi60","pricing_plan_id":"cebpf4jnsgd1na2vs0mg"},{"bike_id":"2a35ab10-f416-439f-a4fa-784873cd587f","system_id":"levelo_inurba_marseille","lat":43.26957,"lon":5.3863,"is_reserved":false,"is_disabled":true,"rental_uris":{"android":"levelo://app?vid=2a35ab10-f416-439f-a4fa-784873cd587f","ios":"levelo://app?vid=2a35ab10-f416-439f-a4fa-784873cd587f"},"vehicle_type_id":"4","last_reported":1745248198,"current_range_meters":17600,"station_id":"ce4bhh92rcd13ifvqfh0","pricing_plan_id":"cebpf4jnsgd1na2vs0mg"},{"bike_id":"9ec57751-c07f-4d81-ae63-f9b0fba8f0a3","system_id":"levelo_inurba_marseille","lat":43.27216,"lon":5.39182,"is_reserved":false,"is_disabled":false,"rental_uris":{"android":"levelo://app?vid=9ec57751-c07f-4d81-ae63-f9b0fba8f0a3","ios":"levelo://app?vid=9ec57751-c07f-4d81-ae63-f9b0fba8f0a3"},"vehicle_type_id":"4","last_reported":1745248198,"current_range_meters":17600,"station_id":"ce4bhhp2rcd13ifvqfm0","pricing_plan_id":"cebpf4jnsgd1na2vs0mg"},{"bike_id":"137d6f7b-447f-4e55-b338-752dd215843c","system_id":"levelo_inurba_marseille","lat":43.27059,"lon":5.40383,"is_reserved":false,"is_disabled":false,"rental_uris":{"android":"levelo://app?vid=137d6f7b-447f-4e55-b338-752dd215843c","ios":"levelo://app?vid=137d6f7b-447f-4e55-b338-752dd215843c"},"vehicle_type_id":"4","last_reported":1745248198,"current_range_meters":17600,"station_id":"","pricing_plan_id":"cebpf4jnsgd1na2vs0mg"},{"bike_id":"dfeb80c6-474a-4f40-83a2-ddfb1df5aeed","system_id":"levelo_inurba_marseille","lat":43.29007,"lon":5.356203,"is_reserved":false,"is_disabled":false,"rental_uris":{"android":"levelo://app?vid=dfeb80c6-474a-4f40-83a2-ddfb1df5aeed","ios":"levelo://app?vid=dfeb80c6-474a-4f40-83a2-ddfb1df5aeed"},"vehicle_type_id":"4","last_reported":1745248198,"current_range_meters":18000,"station_id":"ce4bhb92rcd13ifvqen0","pricing_plan_id":"cebpf4jnsgd1na2vs0mg"},{"bike_id":"013b0bba-3a8e-4176-aec5-9b030be1a006","system_id":"levelo_inurba_marseille","lat":43.31731,"lon":5.37776,"is_reserved":false,"is_disabled":false,"rental_uris":{"android":"levelo://app?vid=013b0bba-3a8e-4176-aec5-9b030be1a006","ios":"levelo://app?vid=013b0bba-3a8e-4176-aec5-9b030be1a006"},"vehicle_type_id":"4","last_reported":1745248198,"current_range_meters":18000,"station_id":"ce4bgth2rcd13ifvqch0","pricing_plan_id":"cebpf4jnsgd1na2vs0mg"},{"bike_id":"7b2dc864-a4e9-468c-9cee-f3075a20977d","system_id":"levelo_inurba_marseille","lat":43.31059,"lon":5.37816,"is_reserved":false,"is_disabled":false,"rental_uris":{"android":"levelo://app?vid=7b2dc864-a4e9-468c-9cee-f3075a20977d","ios":"levelo://app?vid=7b2dc864-a4e9-468c-9cee-f3075a20977d"},"vehicle_type_id":"4","last_reported":1745248198,"current_range_meters":18000,"station_id":"","pricing_plan_id":"cebpf4jnsgd1na2vs0mg"},{"bike_id":"f3dce5f5-d18b-42fc-a7a5-1c0ae56736af","system_id":"levelo_inurba_marseille","lat":43.29298,"lon":5.38513,"is_reserved":false,"is_disabled":false,"rental_uris":{"android":"levelo://app?vid=f3dce5f5-d18b-42fc-a7a5-1c0ae56736af","ios":"levelo://app?vid=f3dce5f5-d18b-42fc-a7a5-1c0ae56736af"},"vehicle_type_id":"4","last_reported":1745248198,"current_range_meters":18000,"station_id":"","pricing_plan_id":"cebpf4jnsgd1na2vs0mg"},{"bike_id":"b8f79d4f-cf16-4d98-8d62-59d440af629f","system_id":"levelo_inurba_marseille","lat":43.21195,"lon":5.35079,"is_reserved":false,"is_disabled":false,"rental_uris":{"android":"levelo://app?vid=b8f79d4f-cf16-4d98-8d62-59d440af629f","ios":"levelo://app?vid=b8f79d4f-cf16-4d98-8d62-59d440af629f"},"vehicle_type_id":"4","last_reported":1745248198,"current_range_meters":18000,"station_id":"st_cvj6sg6p6f1abm77japg","pricing_plan_id":"cebpf4jnsgd1na2vs0mg"},{"bike_id":"19c65f67-dec2-44e4-86ff-ff51fa79e163","system_id":"levelo_inurba_marseille","lat":43.27633,"lon":5.36143,"is_reserved":false,"is_disabled":false,"rental_uris":{"android":"levelo://app?vid=19c65f67-dec2-44e4-86ff-ff51fa79e163","ios":"levelo://app?vid=19c65f67-dec2-44e4-86ff-ff51fa79e163"},"vehicle_type_id":"4","last_reported":1745248198,"current_range_meters":18000,"station_id":"ce4bgj92rcd13ifvqbe0","pricing_plan_id":"cebpf4jnsgd1na2vs0mg"},{"bike_id":"d2606be6-657c-4219-aeab-7f46231214e7","system_id":"levelo_inurba_marseille","lat":43.23194,"lon":5.355523,"is_reserved":false,"is_disabled":false,"rental_uris":{"android":"levelo://app?vid=d2606be6-657c-4219-aeab-7f46231214e7","ios":"levelo://app?vid=d2606be6-657c-4219-aeab-7f46231214e7"},"vehicle_type_id":"4","last_reported":1745248198,"current_range_meters":17600,"station_id":"ce4bhu92rcd13ifvqi70","pricing_plan_id":"cebpf4jnsgd1na2vs0mg"},{"bike_id":"59053fab-c397-43cf-831f-45562dc96dce","system_id":"levelo_inurba_marseille","lat":43.28272,"lon":5.35063,"is_reserved":false,"is_disabled":false,"rental_uris":{"android":"levelo://app?vid=59053fab-c397-43cf-831f-45562dc96dce","ios":"levelo://app?vid=59053fab-c397-43cf-831f-45562dc96dce"},"vehicle_type_id":"4","last_reported":1745248198,"current_range_meters":18800,"station_id":"ce4bhbp2rcd13ifvqerg","pricing_plan_id":"cebpf4jnsgd1na2vs0mg"},{"bike_id":"c349e582-0c24-4f3f-8c56-60cbcd90caf8","system_id":"levelo_inurba_marseille","lat":43.28438,"lon":5.34987,"is_reserved":false,"is_disabled":false,"rental_uris":{"android":"levelo://app?vid=c349e582-0c24-4f3f-8c56-60cbcd90caf8","ios":"levelo://app?vid=c349e582-0c24-4f3f-8c56-60cbcd90caf8"},"vehicle_type_id":"4","last_reported":1745248198,"current_range_meters":18800,"station_id":"ce4bhbh2rcd13ifvqepg","pricing_plan_id":"cebpf4jnsgd1na2vs0mg"},{"bike_id":"95afd635-6827-4b96-96e2-f038ee903fe3","system_id":"levelo_inurba_marseille","lat":43.26559,"lon":5.37295,"is_reserved":false,"is_disabled":true,"rental_uris":{"android":"levelo://app?vid=95afd635-6827-4b96-96e2-f038ee903fe3","ios":"levelo://app?vid=95afd635-6827-4b96-96e2-f038ee903fe3"},"vehicle_type_id":"4","last_reported":1745248198,"current_range_meters":18800,"station_id":"ce4bhg12rcd13ifvqf70","pricing_plan_id":"cebpf4jnsgd1na2vs0mg"},{"bike_id":"322cb3bd-1b2c-4ec8-9cd5-563729b64d42","system_id":"levelo_inurba_marseille","lat":43.24081,"lon":5.37732,"is_reserved":false,"is_disabled":false,"rental_uris":{"android":"levelo://app?vid=322cb3bd-1b2c-4ec8-9cd5-563729b64d42","ios":"levelo://app?vid=322cb3bd-1b2c-4ec8-9cd5-563729b64d42"},"vehicle_type_id":"4","last_reported":1745248198,"current_range_meters":18800,"station_id":"ce4bhnp2rcd13ifvqgvg","pricing_plan_id":"cebpf4jnsgd1na2vs0mg"},{"bike_id":"c3619817-d67d-47f0-aabb-cbc7bfe2c5c7","system_id":"levelo_inurba_marseille","lat":43.27952,"lon":5.41031,"is_reserved":false,"is_disabled":false,"rental_uris":{"android":"levelo://app?vid=c3619817-d67d-47f0-aabb-cbc7bfe2c5c7","ios":"levelo://app?vid=c3619817-d67d-47f0-aabb-cbc7bfe2c5c7"},"vehicle_type_id":"4","last_reported":1745248198,"current_range_meters":18800,"station_id":"ce4bhnp2rcd13ifvqh0g","pricing_plan_id":"cebpf4jnsgd1na2vs0mg"},{"bike_id":"a831fe87-dc1b-43aa-8b09-6b775ad31748","system_id":"levelo_inurba_marseille","lat":43.284162,"lon":5.375027,"is_reserved":false,"is_disabled":false,"rental_uris":{"android":"levelo://app?vid=a831fe87-dc1b-43aa-8b09-6b775ad31748","ios":"levelo://app?vid=a831fe87-dc1b-43aa-8b09-6b775ad31748"},"vehicle_type_id":"4","last_reported":1745248198,"current_range_meters":18800,"station_id":"ce4bh412rcd13ifvqds0","pricing_plan_id":"cebpf4jnsgd1na2vs0mg"},{"bike_id":"97d10ffb-b1af-4386-a8da-1fc1de2e82e4","system_id":"levelo_inurba_marseille","lat":43.24673,"lon":5.38182,"is_reserved":false,"is_disabled":false,"rental_uris":{"android":"levelo://app?vid=97d10ffb-b1af-4386-a8da-1fc1de2e82e4","ios":"levelo://app?vid=97d10ffb-b1af-4386-a8da-1fc1de2e82e4"},"vehicle_type_id":"4","last_reported":1745248198,"current_range_meters":18800,"station_id":"ce4bhih2rcd13ifvqfr0","pricing_plan_id":"cebpf4jnsgd1na2vs0mg"},{"bike_id":"f9a785bd-1cb0-44ff-ab4c-732bb12aa5ff","system_id":"levelo_inurba_marseille","lat":43.25732,"lon":5.41106,"is_reserved":false,"is_disabled":false,"rental_uris":{"android":"levelo://app?vid=f9a785bd-1cb0-44ff-ab4c-732bb12aa5ff","ios":"levelo://app?vid=f9a785bd-1cb0-44ff-ab4c-732bb12aa5ff"},"vehicle_type_id":"4","last_reported":1745248198,"current_range_meters":18800,"station_id":"ce4bhkp2rcd13ifvqgd0","pricing_plan_id":"cebpf4jnsgd1na2vs0mg"},{"bike_id":"2e2ba945-79bb-43bc-b361-4823134190b4","system_id":"levelo_inurba_marseille","lat":43.31355,"lon":5.38495,"is_reserved":false,"is_disabled":false,"rental_uris":{"android":"levelo://app?vid=2e2ba945-79bb-43bc-b361-4823134190b4","ios":"levelo://app?vid=2e2ba945-79bb-43bc-b361-4823134190b4"},"vehicle_type_id":"4","last_reported":1745248198,"current_range_meters":18800,"station_id":"ce4bgt92rcd13ifvqcf0","pricing_plan_id":"cebpf4jnsgd1na2vs0mg"},{"bike_id":"f84d4bee-360a-492e-80c1-289ced59b8c7","system_id":"levelo_inurba_marseille","lat":43.28674,"lon":5.3637,"is_reserved":false,"is_disabled":false,"rental_uris":{"android":"levelo://app?vid=f84d4bee-360a-492e-80c1-289ced59b8c7","ios":"levelo://app?vid=f84d4bee-360a-492e-80c1-289ced59b8c7"},"vehicle_type_id":"4","last_reported":1745248198,"current_range_meters":18800,"station_id":"ce4bhah2rcd13ifvqej0","pricing_plan_id":"cebpf4jnsgd1na2vs0mg"},{"bike_id":"676fadf4-e51f-41f6-8412-4ab1d020f569","system_id":"levelo_inurba_marseille","lat":43.31085,"lon":5.42428,"is_reserved":false,"is_disabled":false,"rental_uris":{"android":"levelo://app?vid=676fadf4-e51f-41f6-8412-4ab1d020f569","ios":"levelo://app?vid=676fadf4-e51f-41f6-8412-4ab1d020f569"},"vehicle_type_id":"4","last_reported":1745248198,"current_range_meters":18800,"station_id":"ce4bhp92rcd13ifvqhag","pricing_plan_id":"cebpf4jnsgd1na2vs0mg"},{"bike_id":"6a360876-b8d9-4d4e-adc9-a625837346ae","system_id":"levelo_inurba_marseille","lat":43.2417,"lon":5.36402,"is_reserved":false,"is_disabled":false,"rental_uris":{"android":"levelo://app?vid=6a360876-b8d9-4d4e-adc9-a625837346ae","ios":"levelo://app?vid=6a360876-b8d9-4d4e-adc9-a625837346ae"},"vehicle_type_id":"4","last_reported":1745248198,"current_range_meters":19200,"station_id":"cpo36qri1sfpv3e86is0","pricing_plan_id":"cebpf4jnsgd1na2vs0mg"},{"bike_id":"a0810590-6b60-4e1a-8bb9-1c5b3e4d3960","system_id":"levelo_inurba_marseille","lat":43.24146,"lon":5.36422,"is_reserved":false,"is_disabled":false,"rental_uris":{"android":"levelo://app?vid=a0810590-6b60-4e1a-8bb9-1c5b3e4d3960","ios":"levelo://app?vid=a0810590-6b60-4e1a-8bb9-1c5b3e4d3960"},"vehicle_type_id":"4","last_reported":1745248198,"current_range_meters":19200,"station_id":"cpo36qri1sfpv3e86is0","pricing_plan_id":"cebpf4jnsgd1na2vs0mg"},{"bike_id":"b07e6fc5-6e46-4c0f-837f-c8b2ffde9e9d","system_id":"levelo_inurba_marseille","lat":43.27504,"lon":5.42456,"is_reserved":false,"is_disabled":false,"rental_uris":{"android":"levelo://app?vid=b07e6fc5-6e46-4c0f-837f-c8b2ffde9e9d","ios":"levelo://app?vid=b07e6fc5-6e46-4c0f-837f-c8b2ffde9e9d"},"vehicle_type_id":"4","last_reported":1745248198,"current_range_meters":19200,"station_id":"ce4bhn92rcd13ifvqgrg","pricing_plan_id":"cebpf4jnsgd1na2vs0mg"},{"bike_id":"4c302196-62e4-4163-9525-3e3662955db8","system_id":"levelo_inurba_marseille","lat":43.28277,"lon":5.35086,"is_reserved":false,"is_disabled":false,"rental_uris":{"android":"levelo://app?vid=4c302196-62e4-4163-9525-3e3662955db8","ios":"levelo://app?vid=4c302196-62e4-4163-9525-3e3662955db8"},"vehicle_type_id":"4","last_reported":1745248198,"current_range_meters":19200,"station_id":"ce4bhbp2rcd13ifvqerg","pricing_plan_id":"cebpf4jnsgd1na2vs0mg"},{"bike_id":"949a3b98-b3d0-4b58-9e5c-50967c540964","system_id":"levelo_inurba_marseille","lat":43.23659,"lon":5.36235,"is_reserved":false,"is_disabled":false,"rental_uris":{"android":"levelo://app?vid=949a3b98-b3d0-4b58-9e5c-50967c540964","ios":"levelo://app?vid=949a3b98-b3d0-4b58-9e5c-50967c540964"},"vehicle_type_id":"4","last_reported":1745248198,"current_range_meters":19200,"station_id":"","pricing_plan_id":"cebpf4jnsgd1na2vs0mg"},{"bike_id":"29cda68f-bbaf-4bdd-b042-fafa0bc69310","system_id":"levelo_inurba_marseille","lat":43.284,"lon":5.37523,"is_reserved":false,"is_disabled":false,"rental_uris":{"android":"levelo://app?vid=29cda68f-bbaf-4bdd-b042-fafa0bc69310","ios":"levelo://app?vid=29cda68f-bbaf-4bdd-b042-fafa0bc69310"},"vehicle_type_id":"4","last_reported":1745248198,"current_range_meters":19200,"station_id":"ce4bh412rcd13ifvqds0","pricing_plan_id":"cebpf4jnsgd1na2vs0mg"},{"bike_id":"8a5c1dfd-e6a2-4872-a9f8-4eacee34352f","system_id":"levelo_inurba_marseille","lat":43.28874,"lon":5.35838,"is_reserved":false,"is_disabled":false,"rental_uris":{"android":"levelo://app?vid=8a5c1dfd-e6a2-4872-a9f8-4eacee34352f","ios":"levelo://app?vid=8a5c1dfd-e6a2-4872-a9f8-4eacee34352f"},"vehicle_type_id":"4","last_reported":1745248198,"current_range_meters":19600,"station_id":"ce4bhb12rcd13ifvqem0","pricing_plan_id":"cebpf4jnsgd1na2vs0mg"},{"bike_id":"a2c1b296-bf21-4686-8e00-93e3375b31bf","system_id":"levelo_inurba_marseille","lat":43.21188,"lon":5.35074,"is_reserved":false,"is_disabled":false,"rental_uris":{"android":"levelo://app?vid=a2c1b296-bf21-4686-8e00-93e3375b31bf","ios":"levelo://app?vid=a2c1b296-bf21-4686-8e00-93e3375b31bf"},"vehicle_type_id":"4","last_reported":1745248198,"current_range_meters":19600,"station_id":"st_cvj6sg6p6f1abm77japg","pricing_plan_id":"cebpf4jnsgd1na2vs0mg"},{"bike_id":"77c1b6d6-af15-4abb-94f8-18b61539eb44","system_id":"levelo_inurba_marseille","lat":43.27382,"lon":5.36263,"is_reserved":false,"is_disabled":false,"rental_uris":{"android":"levelo://app?vid=77c1b6d6-af15-4abb-94f8-18b61539eb44","ios":"levelo://app?vid=77c1b6d6-af15-4abb-94f8-18b61539eb44"},"vehicle_type_id":"4","last_reported":1745248198,"current_range_meters":19600,"station_id":"ce4bhbh2rcd13ifvqeo0","pricing_plan_id":"cebpf4jnsgd1na2vs0mg"},{"bike_id":"c7ca79a5-c5ed-4644-a396-228302a2cf15","system_id":"levelo_inurba_marseille","lat":43.24665,"lon":5.38163,"is_reserved":false,"is_disabled":false,"rental_uris":{"android":"levelo://app?vid=c7ca79a5-c5ed-4644-a396-228302a2cf15","ios":"levelo://app?vid=c7ca79a5-c5ed-4644-a396-228302a2cf15"},"vehicle_type_id":"4","last_reported":1745248198,"current_range_meters":20000,"station_id":"ce4bhih2rcd13ifvqfr0","pricing_plan_id":"cebpf4jnsgd1na2vs0mg"},{"bike_id":"9d33c346-c11e-4543-b18f-699cb1dbba72","system_id":"levelo_inurba_marseille","lat":43.270691,"lon":5.422818,"is_reserved":false,"is_disabled":false,"rental_uris":{"android":"levelo://app?vid=9d33c346-c11e-4543-b18f-699cb1dbba72","ios":"levelo://app?vid=9d33c346-c11e-4543-b18f-699cb1dbba72"},"vehicle_type_id":"4","last_reported":1745248198,"current_range_meters":20000,"station_id":"ce4bhk92rcd13ifvqgb0","pricing_plan_id":"cebpf4jnsgd1na2vs0mg"},{"bike_id":"2a0f246e-dbc9-4d04-a261-4c4e44edb3ac","system_id":"levelo_inurba_marseille","lat":43.21196,"lon":5.35063,"is_reserved":false,"is_disabled":false,"rental_uris":{"android":"levelo://app?vid=2a0f246e-dbc9-4d04-a261-4c4e44edb3ac","ios":"levelo://app?vid=2a0f246e-dbc9-4d04-a261-4c4e44edb3ac"},"vehicle_type_id":"4","last_reported":1745248198,"current_range_meters":20000,"station_id":"st_cvj6sg6p6f1abm77japg","pricing_plan_id":"cebpf4jnsgd1na2vs0mg"},{"bike_id":"de669b19-6cdc-400a-8587-fcd4a42979ce","system_id":"levelo_inurba_marseille","lat":43.23966,"lon":5.36632,"is_reserved":false,"is_disabled":false,"rental_uris":{"android":"levelo://app?vid=de669b19-6cdc-400a-8587-fcd4a42979ce","ios":"levelo://app?vid=de669b19-6cdc-400a-8587-fcd4a42979ce"},"vehicle_type_id":"4","last_reported":1745248198,"current_range_meters":20000,"station_id":"ce4bhi12rcd13ifvqfp0","pricing_plan_id":"cebpf4jnsgd1na2vs0mg"},{"bike_id":"fb1e2c21-eca8-4e6f-9656-18d2fa8d4cab","system_id":"levelo_inurba_marseille","lat":43.22537,"lon":5.34792,"is_reserved":false,"is_disabled":false,"rental_uris":{"android":"levelo://app?vid=fb1e2c21-eca8-4e6f-9656-18d2fa8d4cab","ios":"levelo://app?vid=fb1e2c21-eca8-4e6f-9656-18d2fa8d4cab"},"vehicle_type_id":"4","last_reported":1745248198,"current_range_meters":20400,"station_id":"","pricing_plan_id":"cebpf4jnsgd1na2vs0mg"},{"bike_id":"21aa6565-a7a5-4626-be84-7dece7537561","system_id":"levelo_inurba_marseille","lat":43.301453,"lon":5.380923,"is_reserved":false,"is_disabled":false,"rental_uris":{"android":"levelo://app?vid=21aa6565-a7a5-4626-be84-7dece7537561","ios":"levelo://app?vid=21aa6565-a7a5-4626-be84-7dece7537561"},"vehicle_type_id":"4","last_reported":1745248198,"current_range_meters":20400,"station_id":"ce4bhbp2rcd13ifvqerg","pricing_plan_id":"cebpf4jnsgd1na2vs0mg"},{"bike_id":"67b66702-9bbc-4d6c-9a35-ee5cc100a53b","system_id":"levelo_inurba_marseille","lat":43.28698,"lon":5.37395,"is_reserved":false,"is_disabled":false,"rental_uris":{"android":"levelo://app?vid=67b66702-9bbc-4d6c-9a35-ee5cc100a53b","ios":"levelo://app?vid=67b66702-9bbc-4d6c-9a35-ee5cc100a53b"},"vehicle_type_id":"4","last_reported":1745248198,"current_range_meters":20400,"station_id":"ce4bh3p2rcd13ifvqdq0","pricing_plan_id":"cebpf4jnsgd1na2vs0mg"},{"bike_id":"cedb6f23-b99f-45f1-bbea-c0429dd58a42","system_id":"levelo_inurba_marseille","lat":43.23958,"lon":5.36663,"is_reserved":false,"is_disabled":false,"rental_uris":{"android":"levelo://app?vid=cedb6f23-b99f-45f1-bbea-c0429dd58a42","ios":"levelo://app?vid=cedb6f23-b99f-45f1-bbea-c0429dd58a42"},"vehicle_type_id":"4","last_reported":1745248198,"current_range_meters":20400,"station_id":"ce4bhi12rcd13ifvqfp0","pricing_plan_id":"cebpf4jnsgd1na2vs0mg"},{"bike_id":"320c4dcc-ac89-40fd-b364-bb2e66ee3338","system_id":"levelo_inurba_marseille","lat":43.23211,"lon":5.40009,"is_reserved":false,"is_disabled":false,"rental_uris":{"android":"levelo://app?vid=320c4dcc-ac89-40fd-b364-bb2e66ee3338","ios":"levelo://app?vid=320c4dcc-ac89-40fd-b364-bb2e66ee3338"},"vehicle_type_id":"4","last_reported":1745248198,"current_range_meters":20400,"station_id":"ce4bhn12rcd13ifvqgqg","pricing_plan_id":"cebpf4jnsgd1na2vs0mg"},{"bike_id":"af140485-047b-43b1-ba5e-998bbd89f7c7","system_id":"levelo_inurba_marseille","lat":43.32661,"lon":5.40996,"is_reserved":false,"is_disabled":false,"rental_uris":{"android":"levelo://app?vid=af140485-047b-43b1-ba5e-998bbd89f7c7","ios":"levelo://app?vid=af140485-047b-43b1-ba5e-998bbd89f7c7"},"vehicle_type_id":"4","last_reported":1745248198,"current_range_meters":20800,"station_id":"ce4bhpp2rcd13ifvqhgg","pricing_plan_id":"cebpf4jnsgd1na2vs0mg"},{"bike_id":"b9999488-a895-4a61-87ea-fd715e3591c9","system_id":"levelo_inurba_marseille","lat":43.29956,"lon":5.41323,"is_reserved":false,"is_disabled":false,"rental_uris":{"android":"levelo://app?vid=b9999488-a895-4a61-87ea-fd715e3591c9","ios":"levelo://app?vid=b9999488-a895-4a61-87ea-fd715e3591c9"},"vehicle_type_id":"4","last_reported":1745248198,"current_range_meters":20800,"station_id":"ce4bhp12rcd13ifvqh9g","pricing_plan_id":"cebpf4jnsgd1na2vs0mg"},{"bike_id":"e45bd67d-3270-43af-925e-dc3b62a530d9","system_id":"levelo_inurba_marseille","lat":43.28272,"lon":5.35057,"is_reserved":false,"is_disabled":false,"rental_uris":{"android":"levelo://app?vid=e45bd67d-3270-43af-925e-dc3b62a530d9","ios":"levelo://app?vid=e45bd67d-3270-43af-925e-dc3b62a530d9"},"vehicle_type_id":"4","last_reported":1745248198,"current_range_meters":20800,"station_id":"ce4bhbp2rcd13ifvqerg","pricing_plan_id":"cebpf4jnsgd1na2vs0mg"},{"bike_id":"ba6be233-dee9-4826-9d5e-83dbb8ea701f","system_id":"levelo_inurba_marseille","lat":43.25953,"lon":5.40905,"is_reserved":false,"is_disabled":false,"rental_uris":{"android":"levelo://app?vid=ba6be233-dee9-4826-9d5e-83dbb8ea701f","ios":"levelo://app?vid=ba6be233-dee9-4826-9d5e-83dbb8ea701f"},