{"last_updated":1692511675,"ttl":30,"version":"2.2","data":{"bikes":[{"bike_id":"3e2a3767-1681-4b47-809a-9b2797cf3886","system_id":"levelo_inurba_marseille","lat":43.31341,"lon":5.367098,"is_reserved":false,"is_disabled":false,"rental_uris":{"android":"levelo://app?vid=3e2a3767-1681-4b47-809a-9b2797cf3886","ios":"levelo://app?vid=3e2a3767-1681-4b47-809a-9b2797cf3886"},"vehicle_type_id":"4","last_reported":1692511675,"current_range_meters":8400,"station_id":"ce4bgr92rcd13ifvqc6g","pricing_plan_id":"free"},{"bike_id":"08022e2c-294c-4ebf-8452-32bcb1cb8509","system_id":"levelo_inurba_marseille","lat":43.31341,"lon":5.367098,"is_reserved":false,"is_disabled":false,"rental_uris":{"android":"levelo://app?vid=08022e2c-294c-4ebf-8452-32bcb1cb8509","ios":"levelo://app?vid=08022e2c-294c-4ebf-8452-32bcb1cb8509"},"vehicle_type_id":"4","last_reported":1692511675,"current_range_meters":31200,"station_id":"ce4bgr92rcd13ifvqc6g","pricing_plan_id":"free"},{"bike_id":"fc915644-bf7f-4f6b-a816-6b1bbfb50d0a","system_id":"levelo_inurba_marseille","lat":43.31351,"lon":5.36726,"is_reserved":false,"is_disabled":false,"rental_uris":{"android":"levelo://app?vid=fc915644-bf7f-4f6b-a816-6b1bbfb50d0a","ios":"levelo://app?vid=fc915644-bf7f-4f6b-a816-6b1bbfb50d0a"},"vehicle_type_id":"4","last_reported":1692511675,"current_range_meters":6400,"station_id":"ce4bgr92rcd13ifvqc6g","pricing_plan_id":"free"},{"bike_id":"f22ca441-4e4e-4660-b824-b2f46943e54d","system_id":"levelo_inurba_marseille","lat":43.312239,"lon":5.368562,"is_reserved":false,"is_disabled":false,"rental_uris":{"android":"levelo://app?vid=f22ca441-4e4e-4660-b824-b2f46943e54d","ios":"levelo://app?vid=f22ca441-4e4e-4660-b824-b2f46943e54d"},"vehicle_type_id":"4","last_reported":1692511675,"current_range_meters":31600,"station_id":"ce4bgl92rcd13ifvqbq0","pricing_plan_id":"free"},{"bike_id":"8aed5a20-ab86-418d-a413-3a4ab3457f5a","system_id":"levelo_inurba_marseille","lat":43.312239,"lon":5.368562,"is_reserved":false,"is_disabled":false,"rental_uris":{"android":"levelo://app?vid=8aed5a20-ab86-418d-a413-3a4ab3457f5a","ios":"levelo://app?vid=8aed5a20-ab86-418d-a413-3a4ab3457f5a"},"vehicle_type_id":"4","last_reported":1692511675,"current_range_meters":29600,"station_id":"ce4bgl92rcd13ifvqbq0","pricing_plan_id":"free"},{"bike_id":"1e1c7e2a-c513-466c-b075-f75db3c4dee9","system_id":"levelo_inurba_marseille","lat":43.309076,"lon":5.368465,"is_reserved":false,"is_disabled":false,"rental_uris":{"android":"levelo://app?vid=1e1c7e2a-c513-466c-b075-f75db3c4dee9","ios":"levelo://app?vid=1e1c7e2a-c513-466c-b075-f75db3c4dee9"},"vehicle_type_id":"4","last_reported":1692511675,"current_range_meters":30400,"station_id":"ce4bgn92rcd13ifvqbvg","pricing_plan_id":"free"},{"bike_id":"63f2097b-7805-4f57-a26f-3109039a56f8","system_id":"levelo_inurba_marseille","lat":43.314811,"lon":5.373103,"is_reserved":false,"is_disabled":false,"rental_uris":{"android":"levelo://app?vid=63f2097b-7805-4f57-a26f-3109039a56f8","ios":"levelo://app?vid=63f2097b-7805-4f57-a26f-3109039a56f8"},"vehicle_type_id":"4","last_reported":1692511675,"current_range_meters":31600,"station_id":"ce4bgt12rcd13ifvqcd0","pricing_plan_id":"free"},{"bike_id":"eca9175b-fbad-4734-9f33-3a5ad9ee081f","system_id":"levelo_inurba_marseille","lat":43.314811,"lon":5.373103,"is_reserved":false,"is_disabled":false,"rental_uris":{"android":"levelo://app?vid=eca9175b-fbad-4734-9f33-3a5ad9ee081f","ios":"levelo://app?vid=eca9175b-fbad-4734-9f33-3a5ad9ee081f"},"vehicle_type_id":"4","last_reported":1692511675,"current_range_meters":4000,"station_id":"ce4bgt12rcd13ifvqcd0","pricing_plan_id":"free"},{"bike_id":"faa28bfc-7657-4d75-b3d2-56252334cfb5","system_id":"levelo_inurba_marseille","lat":43.314811,"lon":5.373103,"is_reserved":false,"is_disabled":false,"rental_uris":{"android":"levelo://app?vid=faa28bfc-7657-4d75-b3d2-56252334cfb5","ios":"levelo://app?vid=faa28bfc-7657-4d75-b3d2-56252334cfb5"},"vehicle_type_id":"4","last_reported":1692511675,"current_range_meters":26000,"station_id":"ce4bgt12rcd13ifvqcd0","pricing_plan_id":"free"},{"bike_id":"078b8839-5dca-482c-b506-bd068d73c26e","system_id":"levelo_inurba_marseille","lat":43.314811,"lon":5.373103,"is_reserved":false,"is_disabled":false,"rental_uris":{"android":"levelo://app?vid=078b8839-5dca-482c-b506-bd068d73c26e","ios":"levelo://app?vid=078b8839-5dca-482c-b506-bd068d73c26e"},"vehicle_type_id":"4","last_reported":1692511675,"current_range_meters":31600,"station_id":"ce4bgt12rcd13ifvqcd0","pricing_plan_id":"free"},{"bike_id":"37430548-a1e8-4138-8cb0-3ee3522afc5c","system_id":"levelo_inurba_marseille","lat":43.314811,"lon":5.373103,"is_reserved":false,"is_disabled":false,"rental_uris":{"android":"levelo://app?vid=37430548-a1e8-4138-8cb0-3ee3522afc5c","ios":"levelo://app?vid=37430548-a1e8-4138-8cb0-3ee3522afc5c"},"vehicle_type_id":"4","last_reported":1692511675,"current_range_meters":27600,"station_id":"ce4bgt12rcd13ifvqcd0","pricing_plan_id":"free"},{"bike_id":"c9e071e7-0847-4f91-a0e0-c26afa8b1871","system_id":"levelo_inurba_marseille","lat":43.314811,"lon":5.373104,"is_reserved":false,"is_disabled":false,"rental_uris":{"android":"levelo://app?vid=c9e071e7-0847-4f91-a0e0-c26afa8b1871","ios":"levelo://app?vid=c9e071e7-0847-4f91-a0e0-c26afa8b1871"},"vehicle_type_id":"4","last_reported":1692511675,"current_range_meters":31600,"station_id":"ce4bgt12rcd13ifvqcd0","pricing_plan_id":"free"},{"bike_id":"904b9fdb-a508-47c9-9ccc-9245695aaebe","system_id":"levelo_inurba_marseille","lat":43.314811,"lon":5.373104,"is_reserved":false,"is_disabled":false,"rental_uris":{"android":"levelo://app?vid=904b9fdb-a508-47c9-9ccc-9245695aaebe","ios":"levelo://app?vid=904b9fdb-a508-47c9-9ccc-9245695aaebe"},"vehicle_type_id":"4","last_reported":1692511675,"current_range_meters":31600,"station_id":"ce4bgt12rcd13ifvqcd0","pricing_plan_id":"free"},{"bike_id":"fcf8ac9e-2d00-47dc-ab8c-d1a8324e56c1","system_id":"levelo_inurba_marseille","lat":43.314811,"lon":5.373103,"is_reserved":false,"is_disabled":false,"rental_uris":{"android":"levelo://app?vid=fcf8ac9e-2d00-47dc-ab8c-d1a8324e56c1","ios":"levelo://app?vid=fcf8ac9e-2d00-47dc-ab8c-d1a8324e56c1"},"vehicle_type_id":"4","last_reported":1692511675,"current_range_meters":5200,"station_id":"ce4bgt12rcd13ifvqcd0","pricing_plan_id":"free"},{"bike_id":"1ec1fc95-3051-4b9e-a138-6c62ea4f1d70","system_id":"levelo_inurba_marseille","lat":43.31521,"lon":5.37305,"is_reserved":false,"is_disabled":false,"rental_uris":{"android":"levelo://app?vid=1ec1fc95-3051-4b9e-a138-6c62ea4f1d70","ios":"levelo://app?vid=1ec1fc95-3051-4b9e-a138-6c62ea4f1d70"},"vehicle_type_id":"4","last_reported":1692511675,"current_range_meters":18400,"station_id":"ce4bgt12rcd13ifvqcd0","pricing_plan_id":"free"},{"bike_id":"854f4d4d-aa5c-42c9-9d8e-ddd63e64c8e2","system_id":"levelo_inurba_marseille","lat":43.309039,"lon":5.371797,"is_reserved":false,"is_disabled":false,"rental_uris":{"android":"levelo://app?vid=854f4d4d-aa5c-42c9-9d8e-ddd63e64c8e2","ios":"levelo://app?vid=854f4d4d-aa5c-42c9-9d8e-ddd63e64c8e2"},"vehicle_type_id":"4","last_reported":1692511675,"current_range_meters":31200,"station_id":"ce4bguh2rcd13ifvqckg","pricing_plan_id":"free"},{"bike_id":"b008fa4f-105a-41ed-9ae1-09f80cc4391c","system_id":"levelo_inurba_marseille","lat":43.30887,"lon":5.372,"is_reserved":false,"is_disabled":false,"rental_uris":{"android":"levelo://app?vid=b008fa4f-105a-41ed-9ae1-09f80cc4391c","ios":"levelo://app?vid=b008fa4f-105a-41ed-9ae1-09f80cc4391c"},"vehicle_type_id":"4","last_reported":1692511675,"current_range_meters":31200,"station_id":"ce4bguh2rcd13ifvqckg","pricing_plan_id":"free"},{"bike_id":"91857754-47dc-4477-8095-b40be8e14feb","system_id":"levelo_inurba_marseille","lat":43.309039,"lon":5.371797,"is_reserved":false,"is_disabled":false,"rental_uris":{"android":"levelo://app?vid=91857754-47dc-4477-8095-b40be8e14feb","ios":"levelo://app?vid=91857754-47dc-4477-8095-b40be8e14feb"},"vehicle_type_id":"4","last_reported":1692511675,"current_range_meters":28800,"station_id":"ce4bguh2rcd13ifvqckg","pricing_plan_id":"free"},{"bike_id":"c40e9598-bd5e-4719-9b77-2141ffdbc3af","system_id":"levelo_inurba_marseille","lat":43.30537,"lon":5.367345,"is_reserved":false,"is_disabled":false,"rental_uris":{"android":"levelo://app?vid=c40e9598-bd5e-4719-9b77-2141ffdbc3af","ios":"levelo://app?vid=c40e9598-bd5e-4719-9b77-2141ffdbc3af"},"vehicle_type_id":"4","last_reported":1692511675,"current_range_meters":25600,"station_id":"ce4bgrp2rcd13ifvqc9g","pricing_plan_id":"free"},{"bike_id":"3ffa8e18-3a2c-42ea-991b-8dce4af30960","system_id":"levelo_inurba_marseille","lat":43.305712,"lon":5.365641,"is_reserved":false,"is_disabled":false,"rental_uris":{"android":"levelo://app?vid=3ffa8e18-3a2c-42ea-991b-8dce4af30960","ios":"levelo://app?vid=3ffa8e18-3a2c-42ea-991b-8dce4af30960"},"vehicle_type_id":"4","last_reported":1692511675,"current_range_meters":9600,"station_id":"ce4bgs12rcd13ifvqcag","pricing_plan_id":"free"},{"bike_id":"386ed8e3-b71e-4f68-86af-202c5b76503e","system_id":"levelo_inurba_marseille","lat":43.30537,"lon":5.367345,"is_reserved":false,"is_disabled":false,"rental_uris":{"android":"levelo://app?vid=386ed8e3-b71e-4f68-86af-202c5b76503e","ios":"levelo://app?vid=386ed8e3-b71e-4f68-86af-202c5b76503e"},"vehicle_type_id":"4","last_reported":1692511675,"current_range_meters":21600,"station_id":"ce4bgrp2rcd13ifvqc9g","pricing_plan_id":"free"},{"bike_id":"844e737c-4c6e-45b7-9e58-901d5d2e2ab5","system_id":"levelo_inurba_marseille","lat":43.305706,"lon":5.365654,"is_reserved":false,"is_disabled":false,"rental_uris":{"android":"levelo://app?vid=844e737c-4c6e-45b7-9e58-901d5d2e2ab5","ios":"levelo://app?vid=844e737c-4c6e-45b7-9e58-901d5d2e2ab5"},"vehicle_type_id":"4","last_reported":1692511675,"current_range_meters":31600,"station_id":"ce4bgs12rcd13ifvqcag","pricing_plan_id":"free"},{"bike_id":"12f3c44d-b02e-4733-990c-64223928ea06","system_id":"levelo_inurba_marseille","lat":43.305706,"lon":5.365654,"is_reserved":false,"is_disabled":false,"rental_uris":{"android":"levelo://app?vid=12f3c44d-b02e-4733-990c-64223928ea06","ios":"levelo://app?vid=12f3c44d-b02e-4733-990c-64223928ea06"},"vehicle_type_id":"4","last_reported":1692511675,"current_range_meters":8800,"station_id":"ce4bgs12rcd13ifvqcag","pricing_plan_id":"free"},{"bike_id":"9fbe6e18-d192-44c2-98b5-cafb68b41aa4","system_id":"levelo_inurba_marseille","lat":43.30533,"lon":5.36529,"is_reserved":false,"is_disabled":false,"rental_uris":{"android":"levelo://app?vid=9fbe6e18-d192-44c2-98b5-cafb68b41aa4","ios":"levelo://app?vid=9fbe6e18-d192-44c2-98b5-cafb68b41aa4"},"vehicle_type_id":"4","last_reported":1692511675,"current_range_meters":8000,"station_id":"ce4bgs12rcd13ifvqcag","pricing_plan_id":"free"},{"bike_id":"d619b710-26f3-4347-872c-89d27731df3e","system_id":"levelo_inurba_marseille","lat":43.305989,"lon":5.37225,"is_reserved":false,"is_disabled":false,"rental_uris":{"android":"levelo://app?vid=d619b710-26f3-4347-872c-89d27731df3e","ios":"levelo://app?vid=d619b710-26f3-4347-872c-89d27731df3e"},"vehicle_type_id":"4","last_reported":1692511675,"current_range_meters":30000,"station_id":"ce4bgqh2rcd13ifvqc4g","pricing_plan_id":"free"},{"bike_id":"53f8bd9d-9f49-44cf-8272-6eed91142c99","system_id":"levelo_inurba_marseille","lat":43.305989,"lon":5.37225,"is_reserved":false,"is_disabled":false,"rental_uris":{"android":"levelo://app?vid=53f8bd9d-9f49-44cf-8272-6eed91142c99","ios":"levelo://app?vid=53f8bd9d-9f49-44cf-8272-6eed91142c99"},"vehicle_type_id":"4","last_reported":1692511675,"current_range_meters":30000,"station_id":"ce4bgqh2rcd13ifvqc4g","pricing_plan_id":"free"},{"bike_id":"94041592-cdd9-4873-b0a1-721b91db882e","system_id":"levelo_inurba_marseille","lat":43.311131,"lon":5.377651,"is_reserved":false,"is_disabled":false,"rental_uris":{"android":"levelo://app?vid=94041592-cdd9-4873-b0a1-721b91db882e","ios":"levelo://app?vid=94041592-cdd9-4873-b0a1-721b91db882e"},"vehicle_type_id":"4","last_reported":1692511675,"current_range_meters":30400,"station_id":"ce4bgt92rcd13ifvqcg0","pricing_plan_id":"free"},{"bike_id":"23fa1577-981b-4b36-b415-bec8d7f47377","system_id":"levelo_inurba_marseille","lat":43.311131,"lon":5.377651,"is_reserved":false,"is_disabled":false,"rental_uris":{"android":"levelo://app?vid=23fa1577-981b-4b36-b415-bec8d7f47377","ios":"levelo://app?vid=23fa1577-981b-4b36-b415-bec8d7f47377"},"vehicle_type_id":"4","last_reported":1692511675,"current_range_meters":25600,"station_id":"ce4bgt92rcd13ifvqcg0","pricing_plan_id":"free"},{"bike_id":"884b3016-eba9-4d91-bba3-e506fab90d45","system_id":"levelo_inurba_marseille","lat":43.311131,"lon":5.377651,"is_reserved":false,"is_disabled":false,"rental_uris":{"android":"levelo://app?vid=884b3016-eba9-4d91-bba3-e506fab90d45","ios":"levelo://app?vid=884b3016-eba9-4d91-bba3-e506fab90d45"},"vehicle_type_id":"4","last_reported":1692511675,"current_range_meters":28400,"station_id":"ce4bgt92rcd13ifvqcg0","pricing_plan_id":"free"},{"bike_id":"cb8d2a5a-c39b-4ace-b0d8-0dd3d44251b4","system_id":"levelo_inurba_marseille","lat":43.311125,"lon":5.377624,"is_reserved":false,"is_disabled":false,"rental_uris":{"android":"levelo://app?vid=cb8d2a5a-c39b-4ace-b0d8-0dd3d44251b4","ios":"levelo://app?vid=cb8d2a5a-c39b-4ace-b0d8-0dd3d44251b4"},"vehicle_type_id":"4","last_reported":1692511675,"current_range_meters":31200,"station_id":"ce4bgt92rcd13ifvqcg0","pricing_plan_id":"free"},{"bike_id":"da1e4bf2-42ac-4a5e-b196-fe8aef49bd3d","system_id":"levelo_inurba_marseille","lat":43.311131,"lon":5.377651,"is_reserved":false,"is_disabled":false,"rental_uris":{"android":"levelo://app?vid=da1e4bf2-42ac-4a5e-b196-fe8aef49bd3d","ios":"levelo://app?vid=da1e4bf2-42ac-4a5e-b196-fe8aef49bd3d"},"vehicle_type_id":"4","last_reported":1692511675,"current_range_meters":30800,"station_id":"ce4bgt92rcd13ifvqcg0","pricing_plan_id":"free"},{"bike_id":"eb22a160-87e7-4911-bf49-43b057b3924c","system_id":"levelo_inurba_marseille","lat":43.311131,"lon":5.377651,"is_reserved":false,"is_disabled":false,"rental_uris":{"android":"levelo://app?vid=eb22a160-87e7-4911-bf49-43b057b3924c","ios":"levelo://app?vid=eb22a160-87e7-4911-bf49-43b057b3924c"},"vehicle_type_id":"4","last_reported":1692511675,"current_range_meters":31600,"station_id":"ce4bgt92rcd13ifvqcg0","pricing_plan_id":"free"},{"bike_id":"41bb4d70-f899-4935-8aa9-7f43cb3abe20","system_id":"levelo_inurba_marseille","lat":43.311131,"lon":5.377651,"is_reserved":false,"is_disabled":false,"rental_uris":{"android":"levelo://app?vid=41bb4d70-f899-4935-8aa9-7f43cb3abe20","ios":"levelo://app?vid=41bb4d70-f899-4935-8aa9-7f43cb3abe20"},"vehicle_type_id":"4","last_reported":1692511675,"current_range_meters":400,"station_id":"ce4bgt92rcd13ifvqcg0","pricing_plan_id":"free"},{"bike_id":"2030aa77-4544-426d-b6be-e6f407d98134","system_id":"levelo_inurba_marseille","lat":43.30785,"lon":5.37653,"is_reserved":false,"is_disabled":false,"rental_uris":{"android":"levelo://app?vid=2030aa77-4544-426d-b6be-e6f407d98134","ios":"levelo://app?vid=2030aa77-4544-426d-b6be-e6f407d98134"},"vehicle_type_id":"4","last_reported":1692511675,"current_range_meters":20800,"station_id":"ce4bgv92rcd13ifvqcq0","pricing_plan_id":"free"},{"bike_id":"97f5da03-53c1-40b1-870d-b944f6e02e6d","system_id":"levelo_inurba_marseille","lat":43.30784,"lon":5.37653,"is_reserved":false,"is_disabled":false,"rental_uris":{"android":"levelo://app?vid=97f5da03-53c1-40b1-870d-b944f6e02e6d","ios":"levelo://app?vid=97f5da03-53c1-40b1-870d-b944f6e02e6d"},"vehicle_type_id":"4","last_reported":1692511675,"current_range_meters":9200,"station_id":"ce4bgv92rcd13ifvqcq0","pricing_plan_id":"free"},{"bike_id":"3891919a-0e41-44e0-8bd0-d7ef18d2ea87","system_id":"levelo_inurba_marseille","lat":43.307945,"lon":5.376487,"is_reserved":false,"is_disabled":false,"rental_uris":{"android":"levelo://app?vid=3891919a-0e41-44e0-8bd0-d7ef18d2ea87","ios":"levelo://app?vid=3891919a-0e41-44e0-8bd0-d7ef18d2ea87"},"vehicle_type_id":"4","last_reported":1692511675,"current_range_meters":8800,"station_id":"ce4bgv92rcd13ifvqcq0","pricing_plan_id":"free"},{"bike_id":"1f18cbaf-dbf3-4748-b1af-0097256116f3","system_id":"levelo_inurba_marseille","lat":43.307945,"lon":5.376487,"is_reserved":false,"is_disabled":false,"rental_uris":{"android":"levelo://app?vid=1f18cbaf-dbf3-4748-b1af-0097256116f3","ios":"levelo://app?vid=1f18cbaf-dbf3-4748-b1af-0097256116f3"},"vehicle_type_id":"4","last_reported":1692511675,"current_range_meters":31200,"station_id":"ce4bgv92rcd13ifvqcq0","pricing_plan_id":"free"},{"bike_id":"1b2c21f1-76d6-4ea7-b906-a83d2ad7ad2e","system_id":"levelo_inurba_marseille","lat":43.307945,"lon":5.376487,"is_reserved":false,"is_disabled":false,"rental_uris":{"android":"levelo://app?vid=1b2c21f1-76d6-4ea7-b906-a83d2ad7ad2e","ios":"levelo://app?vid=1b2c21f1-76d6-4ea7-b906-a83d2ad7ad2e"},"vehicle_type_id":"4","last_reported":1692511675,"current_range_meters":16400,"station_id":"ce4bgv92rcd13ifvqcq0","pricing_plan_id":"free"},{"bike_id":"e92c44c6-bfb0-45fa-b2fe-a367fd139d46","system_id":"levelo_inurba_marseille","lat":43.31695,"lon":5.37729,"is_reserved":false,"is_disabled":false,"rental_uris":{"android":"levelo://app?vid=e92c44c6-bfb0-45fa-b2fe-a367fd139d46","ios":"levelo://app?vid=e92c44c6-bfb0-45fa-b2fe-a367fd139d46"},"vehicle_type_id":"4","last_reported":1692511675,"current_range_meters":18000,"station_id":"ce4bgth2rcd13ifvqch0","pricing_plan_id":"free"},{"bike_id":"414d4b2f-3369-440d-a0e7-70d3732151fb","system_id":"levelo_inurba_marseille","lat":43.307945,"lon":5.376487,"is_reserved":false,"is_disabled":false,"rental_uris":{"android":"levelo://app?vid=414d4b2f-3369-440d-a0e7-70d3732151fb","ios":"levelo://app?vid=414d4b2f-3369-440d-a0e7-70d3732151fb"},"vehicle_type_id":"4","last_reported":1692511675,"current_range_meters":31200,"station_id":"ce4bgv92rcd13ifvqcq0","pricing_plan_id":"free"},{"bike_id":"6813b410-7abd-453e-b164-ba2838b8d577","system_id":"levelo_inurba_marseille","lat":43.31712,"lon":5.37735,"is_reserved":false,"is_disabled":false,"rental_uris":{"android":"levelo://app?vid=6813b410-7abd-453e-b164-ba2838b8d577","ios":"levelo://app?vid=6813b410-7abd-453e-b164-ba2838b8d577"},"vehicle_type_id":"4","last_reported":1692511675,"current_range_meters":3600,"station_id":"ce4bgth2rcd13ifvqch0","pricing_plan_id":"free"},{"bike_id":"ad3aef41-e0b3-47ad-b185-2e5de5ebe866","system_id":"levelo_inurba_marseille","lat":43.317075,"lon":5.377367,"is_reserved":false,"is_disabled":false,"rental_uris":{"android":"levelo://app?vid=ad3aef41-e0b3-47ad-b185-2e5de5ebe866","ios":"levelo://app?vid=ad3aef41-e0b3-47ad-b185-2e5de5ebe866"},"vehicle_type_id":"4","last_reported":1692511675,"current_range_meters":29600,"station_id":"ce4bgth2rcd13ifvqch0","pricing_plan_id":"free"},{"bike_id":"60a188f1-f9d4-42ff-b4a8-4d65de0c076c","system_id":"levelo_inurba_marseille","lat":43.31533,"lon":5.38028,"is_reserved":false,"is_disabled":false,"rental_uris":{"android":"levelo://app?vid=60a188f1-f9d4-42ff-b4a8-4d65de0c076c","ios":"levelo://app?vid=60a188f1-f9d4-42ff-b4a8-4d65de0c076c"},"vehicle_type_id":"4","last_reported":1692511675,"current_range_meters":0,"station_id":"ce4bhsp2rcd13ifvqi50","pricing_plan_id":"free"},{"bike_id":"0871042d-4c98-4a0d-a09d-36eb6b88fae9","system_id":"levelo_inurba_marseille","lat":43.31539,"lon":5.38026,"is_reserved":false,"is_disabled":false,"rental_uris":{"android":"levelo://app?vid=0871042d-4c98-4a0d-a09d-36eb6b88fae9","ios":"levelo://app?vid=0871042d-4c98-4a0d-a09d-36eb6b88fae9"},"vehicle_type_id":"4","last_reported":1692511675,"current_range_meters":21600,"station_id":"ce4bhsp2rcd13ifvqi50","pricing_plan_id":"free"},{"bike_id":"d25633c2-027a-4b2b-98ca-7f8554f64ae3","system_id":"levelo_inurba_marseille","lat":43.315293,"lon":5.380349,"is_reserved":false,"is_disabled":false,"rental_uris":{"android":"levelo://app?vid=d25633c2-027a-4b2b-98ca-7f8554f64ae3","ios":"levelo://app?vid=d25633c2-027a-4b2b-98ca-7f8554f64ae3"},"vehicle_type_id":"4","last_reported":1692511675,"current_range_meters":20000,"station_id":"ce4bhsp2rcd13ifvqi50","pricing_plan_id":"free"},{"bike_id":"8a6153b2-1baf-4d05-8a4e-0a2bbf9560fb","system_id":"levelo_inurba_marseille","lat":43.30184,"lon":5.36628,"is_reserved":false,"is_disabled":false,"rental_uris":{"android":"levelo://app?vid=8a6153b2-1baf-4d05-8a4e-0a2bbf9560fb","ios":"levelo://app?vid=8a6153b2-1baf-4d05-8a4e-0a2bbf9560fb"},"vehicle_type_id":"4","last_reported":1692511675,"current_range_meters":19600,"station_id":"ce4bgrh2rcd13ifvqc8g","pricing_plan_id":"free"},{"bike_id":"4479e1cc-460e-4968-97bc-76291ef48ce7","system_id":"levelo_inurba_marseille","lat":43.301939,"lon":5.366286,"is_reserved":false,"is_disabled":false,"rental_uris":{"android":"levelo://app?vid=4479e1cc-460e-4968-97bc-76291ef48ce7","ios":"levelo://app?vid=4479e1cc-460e-4968-97bc-76291ef48ce7"},"vehicle_type_id":"4","last_reported":1692511675,"current_range_meters":31200,"station_id":"ce4bgrh2rcd13ifvqc8g","pricing_plan_id":"free"},{"bike_id":"70ce5218-0b0a-4b29-b802-3032e7ae8057","system_id":"levelo_inurba_marseille","lat":43.308012,"lon":5.381511,"is_reserved":false,"is_disabled":false,"rental_uris":{"android":"levelo://app?vid=70ce5218-0b0a-4b29-b802-3032e7ae8057","ios":"levelo://app?vid=70ce5218-0b0a-4b29-b802-3032e7ae8057"},"vehicle_type_id":"4","last_reported":1692511675,"current_range_meters":31200,"station_id":"ce4bgt12rcd13ifvqce0","pricing_plan_id":"free"},{"bike_id":"9ee9d6c3-d42f-4afa-b58e-1359430435d2","system_id":"levelo_inurba_marseille","lat":43.30486,"lon":5.37899,"is_reserved":false,"is_disabled":false,"rental_uris":{"android":"levelo://app?vid=9ee9d6c3-d42f-4afa-b58e-1359430435d2","ios":"levelo://app?vid=9ee9d6c3-d42f-4afa-b58e-1359430435d2"},"vehicle_type_id":"4","last_reported":1692511675,"current_range_meters":20400,"station_id":"ce4bgup2rcd13ifvqcn0","pricing_plan_id":"free"},{"bike_id":"efd111e0-9ade-48c9-85af-dfb29e03d611","system_id":"levelo_inurba_marseille","lat":43.304606,"lon":5.379026,"is_reserved":false,"is_disabled":false,"rental_uris":{"android":"levelo://app?vid=efd111e0-9ade-48c9-85af-dfb29e03d611","ios":"levelo://app?vid=efd111e0-9ade-48c9-85af-dfb29e03d611"},"vehicle_type_id":"4","last_reported":1692511675,"current_range_meters":25200,"station_id":"ce4bgup2rcd13ifvqcn0","pricing_plan_id":"free"},{"bike_id":"22bd445f-be4d-410e-ad2e-296fe0c38f3b","system_id":"levelo_inurba_marseille","lat":43.304606,"lon":5.379026,"is_reserved":false,"is_disabled":false,"rental_uris":{"android":"levelo://app?vid=22bd445f-be4d-410e-ad2e-296fe0c38f3b","ios":"levelo://app?vid=22bd445f-be4d-410e-ad2e-296fe0c38f3b"},"vehicle_type_id":"4","last_reported":1692511675,"current_range_meters":31600,"station_id":"ce4bgup2rcd13ifvqcn0","pricing_plan_id":"free"},{"bike_id":"f5d2e1ad-0fe1-4b60-9a87-37cce3a93696","system_id":"levelo_inurba_marseille","lat":43.304606,"lon":5.379026,"is_reserved":false,"is_disabled":false,"rental_uris":{"android":"levelo://app?vid=f5d2e1ad-0fe1-4b60-9a87-37cce3a93696","ios":"levelo://app?vid=f5d2e1ad-0fe1-4b60-9a87-37cce3a93696"},"vehicle_type_id":"4","last_reported":1692511675,"current_range_meters":30800,"station_id":"ce4bgup2rcd13ifvqcn0","pricing_plan_id":"free"},{"bike_id":"6d7980ec-9b32-4d24-8c38-592109fb843d","system_id":"levelo_inurba_marseille","lat":43.304606,"lon":5.379026,"is_reserved":false,"is_disabled":false,"rental_uris":{"android":"levelo://app?vid=6d7980ec-9b32-4d24-8c38-592109fb843d","ios":"levelo://app?vid=6d7980ec-9b32-4d24-8c38-592109fb843d"},"vehicle_type_id":"4","last_reported":1692511675,"current_range_meters":32000,"station_id":"ce4bgup2rcd13ifvqcn0","pricing_plan_id":"free"},{"bike_id":"4412493a-11c6-47c2-ac93-a8ba471abb2c","system_id":"levelo_inurba_marseille","lat":43.304606,"lon":5.379026,"is_reserved":false,"is_disabled":false,"rental_uris":{"android":"levelo://app?vid=4412493a-11c6-47c2-ac93-a8ba471abb2c","ios":"levelo://app?vid=4412493a-11c6-47c2-ac93-a8ba471abb2c"},"vehicle_type_id":"4","last_reported":1692511675,"current_range_meters":19200,"station_id":"ce4bgup2rcd13ifvqcn0","pricing_plan_id":"free"},{"bike_id":"fdb124c2-d2a1-4081-9a62-8575a5c3e7a6","system_id":"levelo_inurba_marseille","lat":43.30462,"lon":5.37904,"is_reserved":false,"is_disabled":false,"rental_uris":{"android":"levelo://app?vid=fdb124c2-d2a1-4081-9a62-8575a5c3e7a6","ios":"levelo://app?vid=fdb124c2-d2a1-4081-9a62-8575a5c3e7a6"},"vehicle_type_id":"4","last_reported":1692511675,"current_range_meters":24000,"station_id":"ce4bgup2rcd13ifvqcn0","pricing_plan_id":"free"},{"bike_id":"2cd28c41-5992-4acd-9d0b-2816fd9f18fc","system_id":"levelo_inurba_marseille","lat":43.304606,"lon":5.379026,"is_reserved":false,"is_disabled":false,"rental_uris":{"android":"levelo://app?vid=2cd28c41-5992-4acd-9d0b-2816fd9f18fc","ios":"levelo://app?vid=2cd28c41-5992-4acd-9d0b-2816fd9f18fc"},"vehicle_type_id":"4","last_reported":1692511675,"current_range_meters":31600,"station_id":"ce4bgup2rcd13ifvqcn0","pricing_plan_id":"free"},{"bike_id":"a644fbc2-e005-4b40-9755-c1c0dce8f1d4","system_id":"levelo_inurba_marseille","lat":43.30148,"lon":5.37409,"is_reserved":false,"is_disabled":false,"rental_uris":{"android":"levelo://app?vid=a644fbc2-e005-4b40-9755-c1c0dce8f1d4","ios":"levelo://app?vid=a644fbc2-e005-4b40-9755-c1c0dce8f1d4"},"vehicle_type_id":"4","last_reported":1692511675,"current_range_meters":30800,"station_id":"ce4bgs92rcd13ifvqcc0","pricing_plan_id":"free"},{"bike_id":"494852fd-ea2c-4ad7-abe8-93212ac05079","system_id":"levelo_inurba_marseille","lat":43.30145,"lon":5.37407,"is_reserved":false,"is_disabled":false,"rental_uris":{"android":"levelo://app?vid=494852fd-ea2c-4ad7-abe8-93212ac05079","ios":"levelo://app?vid=494852fd-ea2c-4ad7-abe8-93212ac05079"},"vehicle_type_id":"4","last_reported":1692511675,"current_range_meters":31200,"station_id":"ce4bgs92rcd13ifvqcc0","pricing_plan_id":"free"},{"bike_id":"43be714e-25e4-4341-bcb5-3847ac10a620","system_id":"levelo_inurba_marseille","lat":43.30143,"lon":5.3742,"is_reserved":false,"is_disabled":false,"rental_uris":{"android":"levelo://app?vid=43be714e-25e4-4341-bcb5-3847ac10a620","ios":"levelo://app?vid=43be714e-25e4-4341-bcb5-3847ac10a620"},"vehicle_type_id":"4","last_reported":1692511675,"current_range_meters":800,"station_id":"ce4bgs92rcd13ifvqcc0","pricing_plan_id":"free"},{"bike_id":"2853069c-edb4-47a8-8b6a-798f5cd95477","system_id":"levelo_inurba_marseille","lat":43.32001,"lon":5.38154,"is_reserved":false,"is_disabled":false,"rental_uris":{"android":"levelo://app?vid=2853069c-edb4-47a8-8b6a-798f5cd95477","ios":"levelo://app?vid=2853069c-edb4-47a8-8b6a-798f5cd95477"},"vehicle_type_id":"4","last_reported":1692511675,"current_range_meters":0,"station_id":"ce4bhr12rcd13ifvqhpg","pricing_plan_id":"free"},{"bike_id":"c2a69b23-1a58-4f42-acd7-57e871955fd5","system_id":"levelo_inurba_marseille","lat":43.299404,"lon":5.365585,"is_reserved":false,"is_disabled":false,"rental_uris":{"android":"levelo://app?vid=c2a69b23-1a58-4f42-acd7-57e871955fd5","ios":"levelo://app?vid=c2a69b23-1a58-4f42-acd7-57e871955fd5"},"vehicle_type_id":"4","last_reported":1692511675,"current_range_meters":9600,"station_id":"ce4bgm92rcd13ifvqbr0","pricing_plan_id":"free"},{"bike_id":"654c7984-79ce-4dcc-b610-cfe09f017ec5","system_id":"levelo_inurba_marseille","lat":43.29963,"lon":5.37165,"is_reserved":false,"is_disabled":false,"rental_uris":{"android":"levelo://app?vid=654c7984-79ce-4dcc-b610-cfe09f017ec5","ios":"levelo://app?vid=654c7984-79ce-4dcc-b610-cfe09f017ec5"},"vehicle_type_id":"4","last_reported":1692511675,"current_range_meters":13200,"station_id":"ce4bgr92rcd13ifvqc7g","pricing_plan_id":"free"},{"bike_id":"a53da616-b936-42ab-9bb0-cec484a1f079","system_id":"levelo_inurba_marseille","lat":43.298433,"lon":5.362774,"is_reserved":false,"is_disabled":false,"rental_uris":{"android":"levelo://app?vid=a53da616-b936-42ab-9bb0-cec484a1f079","ios":"levelo://app?vid=a53da616-b936-42ab-9bb0-cec484a1f079"},"vehicle_type_id":"4","last_reported":1692511675,"current_range_meters":30800,"station_id":"ce4bgpp2rcd13ifvqc3g","pricing_plan_id":"free"},{"bike_id":"3a698fe2-9651-40f0-a50f-ba11b012a2fa","system_id":"levelo_inurba_marseille","lat":43.298433,"lon":5.362774,"is_reserved":false,"is_disabled":false,"rental_uris":{"android":"levelo://app?vid=3a698fe2-9651-40f0-a50f-ba11b012a2fa","ios":"levelo://app?vid=3a698fe2-9651-40f0-a50f-ba11b012a2fa"},"vehicle_type_id":"4","last_reported":1692511675,"current_range_meters":5600,"station_id":"ce4bgpp2rcd13ifvqc3g","pricing_plan_id":"free"},{"bike_id":"27a4ed1d-8d01-4703-bca2-e580e22e076f","system_id":"levelo_inurba_marseille","lat":43.30545,"lon":5.38424,"is_reserved":false,"is_disabled":false,"rental_uris":{"android":"levelo://app?vid=27a4ed1d-8d01-4703-bca2-e580e22e076f","ios":"levelo://app?vid=27a4ed1d-8d01-4703-bca2-e580e22e076f"},"vehicle_type_id":"4","last_reported":1692511675,"current_range_meters":14400,"station_id":"ce4bgg92rcd13ifvqb30","pricing_plan_id":"free"},{"bike_id":"f151a372-c38d-4e54-b396-d25d9ce3ddc5","system_id":"levelo_inurba_marseille","lat":43.298433,"lon":5.362774,"is_reserved":false,"is_disabled":false,"rental_uris":{"android":"levelo://app?vid=f151a372-c38d-4e54-b396-d25d9ce3ddc5","ios":"levelo://app?vid=f151a372-c38d-4e54-b396-d25d9ce3ddc5"},"vehicle_type_id":"4","last_reported":1692511675,"current_range_meters":1600,"station_id":"ce4bgpp2rcd13ifvqc3g","pricing_plan_id":"free"},{"bike_id":"cfa9286b-8f63-4ef0-b244-828dd87c7213","system_id":"levelo_inurba_marseille","lat":43.30536,"lon":5.38427,"is_reserved":false,"is_disabled":false,"rental_uris":{"android":"levelo://app?vid=cfa9286b-8f63-4ef0-b244-828dd87c7213","ios":"levelo://app?vid=cfa9286b-8f63-4ef0-b244-828dd87c7213"},"vehicle_type_id":"4","last_reported":1692511675,"current_range_meters":13200,"station_id":"ce4bgg92rcd13ifvqb30","pricing_plan_id":"free"},{"bike_id":"f2d3f1cb-af47-47f8-b7fa-cebe5aae4bb1","system_id":"levelo_inurba_marseille","lat":43.30535,"lon":5.3843,"is_reserved":false,"is_disabled":false,"rental_uris":{"android":"levelo://app?vid=f2d3f1cb-af47-47f8-b7fa-cebe5aae4bb1","ios":"levelo://app?vid=f2d3f1cb-af47-47f8-b7fa-cebe5aae4bb1"},"vehicle_type_id":"4","last_reported":1692511675,"current_range_meters":24400,"station_id":"ce4bgg92rcd13ifvqb30","pricing_plan_id":"free"},{"bike_id":"dffca9b9-7dca-4c9f-87cc-916579c157ae","system_id":"levelo_inurba_marseille","lat":43.305364,"lon":5.384119,"is_reserved":false,"is_disabled":false,"rental_uris":{"android":"levelo://app?vid=dffca9b9-7dca-4c9f-87cc-916579c157ae","ios":"levelo://app?vid=dffca9b9-7dca-4c9f-87cc-916579c157ae"},"vehicle_type_id":"4","last_reported":1692511675,"current_range_meters":14400,"station_id":"ce4bgg92rcd13ifvqb30","pricing_plan_id":"free"},{"bike_id":"5b85dc91-18f9-4b0d-947f-8fdd25de6d15","system_id":"levelo_inurba_marseille","lat":43.29922,"lon":5.37467,"is_reserved":false,"is_disabled":false,"rental_uris":{"android":"levelo://app?vid=5b85dc91-18f9-4b0d-947f-8fdd25de6d15","ios":"levelo://app?vid=5b85dc91-18f9-4b0d-947f-8fdd25de6d15"},"vehicle_type_id":"4","last_reported":1692511675,"current_range_meters":24400,"station_id":"ce4bgjh2rcd13ifvqbg0","pricing_plan_id":"free"},{"bike_id":"59cfc88a-7877-4078-964c-f4f6e021d526","system_id":"levelo_inurba_marseille","lat":43.30539,"lon":5.38436,"is_reserved":false,"is_disabled":false,"rental_uris":{"android":"levelo://app?vid=59cfc88a-7877-4078-964c-f4f6e021d526","ios":"levelo://app?vid=59cfc88a-7877-4078-964c-f4f6e021d526"},"vehicle_type_id":"4","last_reported":1692511675,"current_range_meters":23600,"station_id":"ce4bgg92rcd13ifvqb30","pricing_plan_id":"free"},{"bike_id":"b885f463-e8c5-42cc-902f-7152167ce1c7","system_id":"levelo_inurba_marseille","lat":43.299243,"lon":5.374807,"is_reserved":false,"is_disabled":false,"rental_uris":{"android":"levelo://app?vid=b885f463-e8c5-42cc-902f-7152167ce1c7","ios":"levelo://app?vid=b885f463-e8c5-42cc-902f-7152167ce1c7"},"vehicle_type_id":"4","last_reported":1692511675,"current_range_meters":31200,"station_id":"ce4bgjh2rcd13ifvqbg0","pricing_plan_id":"free"},{"bike_id":"60a38629-568e-43db-bd42-8a49484fd731","system_id":"levelo_inurba_marseille","lat":43.305364,"lon":5.384119,"is_reserved":false,"is_disabled":false,"rental_uris":{"android":"levelo://app?vid=60a38629-568e-43db-bd42-8a49484fd731","ios":"levelo://app?vid=60a38629-568e-43db-bd42-8a49484fd731"},"vehicle_type_id":"4","last_reported":1692511675,"current_range_meters":31200,"station_id":"ce4bgg92rcd13ifvqb30","pricing_plan_id":"free"},{"bike_id":"ab2d4341-0478-4b54-bcc5-66a861c96486","system_id":"levelo_inurba_marseille","lat":43.305364,"lon":5.384119,"is_reserved":false,"is_disabled":false,"rental_uris":{"android":"levelo://app?vid=ab2d4341-0478-4b54-bcc5-66a861c96486","ios":"levelo://app?vid=ab2d4341-0478-4b54-bcc5-66a861c96486"},"vehicle_type_id":"4","last_reported":1692511675,"current_range_meters":22000,"station_id":"ce4bgg92rcd13ifvqb30","pricing_plan_id":"free"},{"bike_id":"8bb6d4ca-81bd-451c-951e-d3af7629b258","system_id":"levelo_inurba_marseille","lat":43.297774,"lon":5.370875,"is_reserved":false,"is_disabled":false,"rental_uris":{"android":"levelo://app?vid=8bb6d4ca-81bd-451c-951e-d3af7629b258","ios":"levelo://app?vid=8bb6d4ca-81bd-451c-951e-d3af7629b258"},"vehicle_type_id":"4","last_reported":1692511675,"current_range_meters":22000,"station_id":"ce4bgop2rcd13ifvqc1g","pricing_plan_id":"free"},{"bike_id":"b815ce0f-8c6d-460d-8747-b98d1251b4b3","system_id":"levelo_inurba_marseille","lat":43.322872,"lon":5.382756,"is_reserved":false,"is_disabled":false,"rental_uris":{"android":"levelo://app?vid=b815ce0f-8c6d-460d-8747-b98d1251b4b3","ios":"levelo://app?vid=b815ce0f-8c6d-460d-8747-b98d1251b4b3"},"vehicle_type_id":"4","last_reported":1692511675,"current_range_meters":12800,"station_id":"ce4bhr12rcd13ifvqhqg","pricing_plan_id":"free"},{"bike_id":"b9784bc4-a1f4-4e7b-a996-3746dcc4c656","system_id":"levelo_inurba_marseille","lat":43.32285,"lon":5.38279,"is_reserved":false,"is_disabled":false,"rental_uris":{"android":"levelo://app?vid=b9784bc4-a1f4-4e7b-a996-3746dcc4c656","ios":"levelo://app?vid=b9784bc4-a1f4-4e7b-a996-3746dcc4c656"},"vehicle_type_id":"4","last_reported":1692511675,"current_range_meters":7200,"station_id":"ce4bhr12rcd13ifvqhqg","pricing_plan_id":"free"},{"bike_id":"5b5c8cae-b425-4976-9ba8-5ae205664d6b","system_id":"levelo_inurba_marseille","lat":43.32293,"lon":5.38273,"is_reserved":false,"is_disabled":false,"rental_uris":{"android":"levelo://app?vid=5b5c8cae-b425-4976-9ba8-5ae205664d6b","ios":"levelo://app?vid=5b5c8cae-b425-4976-9ba8-5ae205664d6b"},"vehicle_type_id":"4","last_reported":1692511675,"current_range_meters":16000,"station_id":"ce4bhr12rcd13ifvqhqg","pricing_plan_id":"free"},{"bike_id":"a1f7b084-f437-4e0c-8b20-334f54c48d59","system_id":"levelo_inurba_marseille","lat":43.32288,"lon":5.3828,"is_reserved":false,"is_disabled":false,"rental_uris":{"android":"levelo://app?vid=a1f7b084-f437-4e0c-8b20-334f54c48d59","ios":"levelo://app?vid=a1f7b084-f437-4e0c-8b20-334f54c48d59"},"vehicle_type_id":"4","last_reported":1692511675,"current_range_meters":16400,"station_id":"ce4bhr12rcd13ifvqhqg","pricing_plan_id":"free"},{"bike_id":"2ab2c619-9cfb-4da7-9f78-cfb4995f9eec","system_id":"levelo_inurba_marseille","lat":43.328371,"lon":5.366909,"is_reserved":false,"is_disabled":false,"rental_uris":{"android":"levelo://app?vid=2ab2c619-9cfb-4da7-9f78-cfb4995f9eec","ios":"levelo://app?vid=2ab2c619-9cfb-4da7-9f78-cfb4995f9eec"},"vehicle_type_id":"4","last_reported":1692511675,"current_range_meters":4800,"station_id":"ce4bhs92rcd13ifvqi0g","pricing_plan_id":"free"},{"bike_id":"0f135836-946e-4e91-9b15-72b385cbdf04","system_id":"levelo_inurba_marseille","lat":43.328371,"lon":5.366909,"is_reserved":false,"is_disabled":false,"rental_uris":{"android":"levelo://app?vid=0f135836-946e-4e91-9b15-72b385cbdf04","ios":"levelo://app?vid=0f135836-946e-4e91-9b15-72b385cbdf04"},"vehicle_type_id":"4","last_reported":1692511675,"current_range_meters":30000,"station_id":"ce4bhs92rcd13ifvqi0g","pricing_plan_id":"free"},{"bike_id":"a6eaca4d-e5e7-4db0-a760-7ab92bd9f747","system_id":"levelo_inurba_marseille","lat":43.328371,"lon":5.366909,"is_reserved":false,"is_disabled":false,"rental_uris":{"android":"levelo://app?vid=a6eaca4d-e5e7-4db0-a760-7ab92bd9f747","ios":"levelo://app?vid=a6eaca4d-e5e7-4db0-a760-7ab92bd9f747"},"vehicle_type_id":"4","last_reported":1692511675,"current_range_meters":5600,"station_id":"ce4bhs92rcd13ifvqi0g","pricing_plan_id":"free"},{"bike_id":"0e417a67-e27d-42d3-84f6-5c916f52c0db","system_id":"levelo_inurba_marseille","lat":43.297163,"lon":5.365866,"is_reserved":false,"is_disabled":false,"rental_uris":{"android":"levelo://app?vid=0e417a67-e27d-42d3-84f6-5c916f52c0db","ios":"levelo://app?vid=0e417a67-e27d-42d3-84f6-5c916f52c0db"},"vehicle_type_id":"4","last_reported":1692511675,"current_range_meters":30400,"station_id":"ce4bgn12rcd13ifvqbt0","pricing_plan_id":"free"},{"bike_id":"dd789220-e7b5-42c1-b9dc-dc4243148021","system_id":"levelo_inurba_marseille","lat":43.297163,"lon":5.365866,"is_reserved":false,"is_disabled":false,"rental_uris":{"android":"levelo://app?vid=dd789220-e7b5-42c1-b9dc-dc4243148021","ios":"levelo://app?vid=dd789220-e7b5-42c1-b9dc-dc4243148021"},"vehicle_type_id":"4","last_reported":1692511675,"current_range_meters":31600,"station_id":"ce4bgn12rcd13ifvqbt0","pricing_plan_id":"free"},{"bike_id":"a2d7766f-3c86-490b-b17e-18e89dd171e4","system_id":"levelo_inurba_marseille","lat":43.290779,"lon":5.371482,"is_reserved":false,"is_disabled":false,"rental_uris":{"android":"levelo://app?vid=a2d7766f-3c86-490b-b17e-18e89dd171e4","ios":"levelo://app?vid=a2d7766f-3c86-490b-b17e-18e89dd171e4"},"vehicle_type_id":"4","last_reported":1692511675,"current_range_meters":25600,"station_id":"ce4bh5p2rcd13ifvqe4g","pricing_plan_id":"free"},{"bike_id":"bb155e93-116e-494a-9911-2df351c7dae8","system_id":"levelo_inurba_marseille","lat":43.296131,"lon":5.370773,"is_reserved":false,"is_disabled":false,"rental_uris":{"android":"levelo://app?vid=bb155e93-116e-494a-9911-2df351c7dae8","ios":"levelo://app?vid=bb155e93-116e-494a-9911-2df351c7dae8"},"vehicle_type_id":"4","last_reported":1692511675,"current_range_meters":28400,"station_id":"ce4bgnh2rcd13ifvqc0g","pricing_plan_id":"free"},{"bike_id":"d3139180-8ba9-4c91-b6e4-8baae3c22113","system_id":"levelo_inurba_marseille","lat":43.29616,"lon":5.37185,"is_reserved":false,"is_disabled":false,"rental_uris":{"android":"levelo://app?vid=d3139180-8ba9-4c91-b6e4-8baae3c22113","ios":"levelo://app?vid=d3139180-8ba9-4c91-b6e4-8baae3c22113"},"vehicle_type_id":"4","last_reported":1692511675,"current_range_meters":30800,"station_id":"","pricing_plan_id":"free"},{"bike_id":"e0eefc6e-efae-4317-ae1f-3d684f408c90","system_id":"levelo_inurba_marseille","lat":43.29573,"lon":5.367355,"is_reserved":false,"is_disabled":false,"rental_uris":{"android":"levelo://app?vid=e0eefc6e-efae-4317-ae1f-3d684f408c90","ios":"levelo://app?vid=e0eefc6e-efae-4317-ae1f-3d684f408c90"},"vehicle_type_id":"4","last_reported":1692511675,"current_range_meters":30000,"station_id":"ce4bgph2rcd13ifvqc2g","pricing_plan_id":"free"},{"bike_id":"343af2c3-c71c-42ef-b714-9fb202745ef9","system_id":"levelo_inurba_marseille","lat":43.29914,"lon":5.38142,"is_reserved":false,"is_disabled":false,"rental_uris":{"android":"levelo://app?vid=343af2c3-c71c-42ef-b714-9fb202745ef9","ios":"levelo://app?vid=343af2c3-c71c-42ef-b714-9fb202745ef9"},"vehicle_type_id":"4","last_reported":1692511675,"current_range_meters":14800,"station_id":"ce4bgj12rcd13ifvqbc0","pricing_plan_id":"free"},{"bike_id":"8d56238e-b98e-46c0-81b9-c430e12fddf1","system_id":"levelo_inurba_marseille","lat":43.299028,"lon":5.381509,"is_reserved":false,"is_disabled":false,"rental_uris":{"android":"levelo://app?vid=8d56238e-b98e-46c0-81b9-c430e12fddf1","ios":"levelo://app?vid=8d56238e-b98e-46c0-81b9-c430e12fddf1"},"vehicle_type_id":"4","last_reported":1692511675,"current_range_meters":19600,"station_id":"ce4bgj12rcd13ifvqbc0","pricing_plan_id":"free"},{"bike_id":"373647a5-ab6d-4ea7-aedd-25f37c45258f","system_id":"levelo_inurba_marseille","lat":43.299028,"lon":5.381509,"is_reserved":false,"is_disabled":false,"rental_uris":{"android":"levelo://app?vid=373647a5-ab6d-4ea7-aedd-25f37c45258f","ios":"levelo://app?vid=373647a5-ab6d-4ea7-aedd-25f37c45258f"},"vehicle_type_id":"4","last_reported":1692511675,"current_range_meters":28400,"station_id":"ce4bgj12rcd13ifvqbc0","pricing_plan_id":"free"},{"bike_id":"758025e5-6a1f-419d-8432-9aaf8e1bd89b","system_id":"levelo_inurba_marseille","lat":43.304278,"lon":5.388868,"is_reserved":false,"is_disabled":false,"rental_uris":{"android":"levelo://app?vid=758025e5-6a1f-419d-8432-9aaf8e1bd89b","ios":"levelo://app?vid=758025e5-6a1f-419d-8432-9aaf8e1bd89b"},"vehicle_type_id":"4","last_reported":1692511675,"current_range_meters":26400,"station_id":"ce4bgk12rcd13ifvqbi0","pricing_plan_id":"free"},{"bike_id":"9511fab8-7b4d-48bf-a84a-5f7644327bca","system_id":"levelo_inurba_marseille","lat":43.2979,"lon":5.38099,"is_reserved":false,"is_disabled":false,"rental_uris":{"android":"levelo://app?vid=9511fab8-7b4d-48bf-a84a-5f7644327bca","ios":"levelo://app?vid=9511fab8-7b4d-48bf-a84a-5f7644327bca"},"vehicle_type_id":"4","last_reported":1692511675,"current_range_meters":0,"station_id":"ce4bgip2rcd13ifvqbb0","pricing_plan_id":"free"},{"bike_id":"a4df99ce-0488-49dd-a888-94686f562e88","system_id":"levelo_inurba_marseille","lat":43.295748,"lon":5.37522,"is_reserved":false,"is_disabled":false,"rental_uris":{"android":"levelo://app?vid=a4df99ce-0488-49dd-a888-94686f562e88","ios":"levelo://app?vid=a4df99ce-0488-49dd-a888-94686f562e88"},"vehicle_type_id":"4","last_reported":1692511675,"current_range_meters":29200,"station_id":"ce4bgh92rcd13ifvqb50","pricing_plan_id":"free"},{"bike_id":"f69b5ac5-1624-4f1f-8495-a377d7caaa76","system_id":"levelo_inurba_marseille","lat":43.30438,"lon":5.38891,"is_reserved":false,"is_disabled":false,"rental_uris":{"android":"levelo://app?vid=f69b5ac5-1624-4f1f-8495-a377d7caaa76","ios":"levelo://app?vid=f69b5ac5-1624-4f1f-8495-a377d7caaa76"},"vehicle_type_id":"4","last_reported":1692511675,"current_range_meters":0,"station_id":"ce4bgk12rcd13ifvqbi0","pricing_plan_id":"free"},{"bike_id":"0807980a-29f3-4dea-9fe1-f19399be6b6a","system_id":"levelo_inurba_marseille","lat":43.296263,"lon":5.377094,"is_reserved":false,"is_disabled":false,"rental_uris":{"android":"levelo://app?vid=0807980a-29f3-4dea-9fe1-f19399be6b6a","ios":"levelo://app?vid=0807980a-29f3-4dea-9fe1-f19399be6b6a"},"vehicle_type_id":"4","last_reported":1692511675,"current_range_meters":8400,"station_id":"ce4bgi92rcd13ifvqb90","pricing_plan_id":"free"},{"bike_id":"ff538d79-9317-4e41-9327-f66c261ae4a4","system_id":"levelo_inurba_marseille","lat":43.296263,"lon":5.377094,"is_reserved":false,"is_disabled":false,"rental_uris":{"android":"levelo://app?vid=ff538d79-9317-4e41-9327-f66c261ae4a4","ios":"levelo://app?vid=ff538d79-9317-4e41-9327-f66c261ae4a4"},"vehicle_type_id":"4","last_reported":1692511675,"current_range_meters":31600,"station_id":"ce4bgi92rcd13ifvqb90","pricing_plan_id":"free"},{"bike_id":"cc616734-b5c9-43f3-ac02-bd7ddf383203","system_id":"levelo_inurba_marseille","lat":43.299707,"lon":5.384859,"is_reserved":false,"is_disabled":false,"rental_uris":{"android":"levelo://app?vid=cc616734-b5c9-43f3-ac02-bd7ddf383203","ios":"levelo://app?vid=cc616734-b5c9-43f3-ac02-bd7ddf383203"},"vehicle_type_id":"4","last_reported":1692511675,"current_range_meters":25600,"station_id":"ce4bgj92rcd13ifvqbd0","pricing_plan_id":"free"},{"bike_id":"5656444c-a99d-49f5-a00a-a81b08d0b8b5","system_id":"levelo_inurba_marseille","lat":43.299707,"lon":5.384859,"is_reserved":false,"is_disabled":false,"rental_uris":{"android":"levelo://app?vid=5656444c-a99d-49f5-a00a-a81b08d0b8b5","ios":"levelo://app?vid=5656444c-a99d-49f5-a00a-a81b08d0b8b5"},"vehicle_type_id":"4","last_reported":1692511675,"current_range_meters":30000,"station_id":"ce4bgj92rcd13ifvqbd0","pricing_plan_id":"free"},{"bike_id":"37de603b-db5b-4c49-9653-8165e272d88e","system_id":"levelo_inurba_marseille","lat":43.299717,"lon":5.384845,"is_reserved":false,"is_disabled":false,"rental_uris":{"android":"levelo://app?vid=37de603b-db5b-4c49-9653-8165e272d88e","ios":"levelo://app?vid=37de603b-db5b-4c49-9653-8165e272d88e"},"vehicle_type_id":"4","last_reported":1692511675,"current_range_meters":31200,"station_id":"ce4bgj92rcd13ifvqbd0","pricing_plan_id":"free"},{"bike_id":"460bd5d0-97f0-4874-94ff-e8f72266cb8f","system_id":"levelo_inurba_marseille","lat":43.299724,"lon":5.384848,"is_reserved":false,"is_disabled":false,"rental_uris":{"android":"levelo://app?vid=460bd5d0-97f0-4874-94ff-e8f72266cb8f","ios":"levelo://app?vid=460bd5d0-97f0-4874-94ff-e8f72266cb8f"},"vehicle_type_id":"4","last_reported":1692511675,"current_range_meters":30400,"station_id":"ce4bgj92rcd13ifvqbd0","pricing_plan_id":"free"},{"bike_id":"55f08f4d-333e-4077-9882-16e72e12ddbf","system_id":"levelo_inurba_marseille","lat":43.32364,"lon":5.38878,"is_reserved":false,"is_disabled":false,"rental_uris":{"android":"levelo://app?vid=55f08f4d-333e-4077-9882-16e72e12ddbf","ios":"levelo://app?vid=55f08f4d-333e-4077-9882-16e72e12ddbf"},"vehicle_type_id":"4","last_reported":1692511675,"current_range_meters":24800,"station_id":"ce4bhqp2rcd13ifvqhog","pricing_plan_id":"free"},{"bike_id":"21fcea45-e491-4a85-bcbf-bf5cd0b62ccf","system_id":"levelo_inurba_marseille","lat":43.32364,"lon":5.38881,"is_reserved":false,"is_disabled":false,"rental_uris":{"android":"levelo://app?vid=21fcea45-e491-4a85-bcbf-bf5cd0b62ccf","ios":"levelo://app?vid=21fcea45-e491-4a85-bcbf-bf5cd0b62ccf"},"vehicle_type_id":"4","last_reported":1692511675,"current_range_meters":29600,"station_id":"ce4bhqp2rcd13ifvqhog","pricing_plan_id":"free"},{"bike_id":"a97f77a2-1520-4bfc-9df0-0f9c62851caa","system_id":"levelo_inurba_marseille","lat":43.32366,"lon":5.38881,"is_reserved":false,"is_disabled":false,"rental_uris":{"android":"levelo://app?vid=a97f77a2-1520-4bfc-9df0-0f9c62851caa","ios":"levelo://app?vid=a97f77a2-1520-4bfc-9df0-0f9c62851caa"},"vehicle_type_id":"4","last_reported":1692511675,"current_range_meters":25200,"station_id":"ce4bhqp2rcd13ifvqhog","pricing_plan_id":"free"},{"bike_id":"6b6cba89-d2b8-44bb-8454-5df08cf65f67","system_id":"levelo_inurba_marseille","lat":43.32367,"lon":5.38882,"is_reserved":false,"is_disabled":false,"rental_uris":{"android":"levelo://app?vid=6b6cba89-d2b8-44bb-8454-5df08cf65f67","ios":"levelo://app?vid=6b6cba89-d2b8-44bb-8454-5df08cf65f67"},"vehicle_type_id":"4","last_reported":1692511675,"current_range_meters":10000,"station_id":"ce4bhqp2rcd13ifvqhog","pricing_plan_id":"free"},{"bike_id":"0126f869-77bb-4690-a14f-53e2dd9d4689","system_id":"levelo_inurba_marseille","lat":43.3237,"lon":5.38888,"is_reserved":false,"is_disabled":false,"rental_uris":{"android":"levelo://app?vid=0126f869-77bb-4690-a14f-53e2dd9d4689","ios":"levelo://app?vid=0126f869-77bb-4690-a14f-53e2dd9d4689"},"vehicle_type_id":"4","last_reported":1692511675,"current_range_meters":22800,"station_id":"ce4bhqp2rcd13ifvqhog","pricing_plan_id":"free"},{"bike_id":"4a4c62eb-37a2-4070-baf1-67c602d4af6c","system_id":"levelo_inurba_marseille","lat":43.29602,"lon":5.381084,"is_reserved":false,"is_disabled":false,"rental_uris":{"android":"levelo://app?vid=4a4c62eb-37a2-4070-baf1-67c602d4af6c","ios":"levelo://app?vid=4a4c62eb-37a2-4070-baf1-67c602d4af6c"},"vehicle_type_id":"4","last_reported":1692511675,"current_range_meters":13600,"station_id":"ce4bgl12rcd13ifvqbo0","pricing_plan_id":"free"},{"bike_id":"e4599d0c-5641-4bde-92e4-28a45222171d","system_id":"levelo_inurba_marseille","lat":43.293,"lon":5.37185,"is_reserved":false,"is_disabled":false,"rental_uris":{"android":"levelo://app?vid=e4599d0c-5641-4bde-92e4-28a45222171d","ios":"levelo://app?vid=e4599d0c-5641-4bde-92e4-28a45222171d"},"vehicle_type_id":"4","last_reported":1692511675,"current_range_meters":0,"station_id":"ce4bgh92rcd13ifvqb40","pricing_plan_id":"free"},{"bike_id":"38fef587-7cc5-4800-b069-87b8f296a10a","system_id":"levelo_inurba_marseille","lat":43.29306,"lon":5.37469,"is_reserved":false,"is_disabled":false,"rental_uris":{"android":"levelo://app?vid=38fef587-7cc5-4800-b069-87b8f296a10a","ios":"levelo://app?vid=38fef587-7cc5-4800-b069-87b8f296a10a"},"vehicle_type_id":"4","last_reported":1692511675,"current_range_meters":31200,"station_id":"ce4bgi12rcd13ifvqb70","pricing_plan_id":"free"},{"bike_id":"bef6c920-2359-4012-a8db-caece436d1c0","system_id":"levelo_inurba_marseille","lat":43.29304,"lon":5.37466,"is_reserved":false,"is_disabled":false,"rental_uris":{"android":"levelo://app?vid=bef6c920-2359-4012-a8db-caece436d1c0","ios":"levelo://app?vid=bef6c920-2359-4012-a8db-caece436d1c0"},"vehicle_type_id":"4","last_reported":1692511675,"current_range_meters":31200,"station_id":"ce4bgi12rcd13ifvqb70","pricing_plan_id":"free"},{"bike_id":"147ac3aa-bb07-4dfb-bc98-a594818a4f0c","system_id":"levelo_inurba_marseille","lat":43.3032,"lon":5.39194,"is_reserved":false,"is_disabled":false,"rental_uris":{"android":"levelo://app?vid=147ac3aa-bb07-4dfb-bc98-a594818a4f0c","ios":"levelo://app?vid=147ac3aa-bb07-4dfb-bc98-a594818a4f0c"},"vehicle_type_id":"4","last_reported":1692511675,"current_range_meters":25600,"station_id":"ce4bgkh2rcd13ifvqbk0","pricing_plan_id":"free"},{"bike_id":"89146103-62e5-4e27-bb4d-81e8facf3471","system_id":"levelo_inurba_marseille","lat":43.30604,"lon":5.39373,"is_reserved":false,"is_disabled":false,"rental_uris":{"android":"levelo://app?vid=89146103-62e5-4e27-bb4d-81e8facf3471","ios":"levelo://app?vid=89146103-62e5-4e27-bb4d-81e8facf3471"},"vehicle_type_id":"4","last_reported":1692511675,"current_range_meters":31200,"station_id":"ce4bh0p2rcd13ifvqd80","pricing_plan_id":"free"},{"bike_id":"22342db7-7c94-40fb-9223-af26bfe801e9","system_id":"levelo_inurba_marseille","lat":43.303002,"lon":5.392142,"is_reserved":false,"is_disabled":false,"rental_uris":{"android":"levelo://app?vid=22342db7-7c94-40fb-9223-af26bfe801e9","ios":"levelo://app?vid=22342db7-7c94-40fb-9223-af26bfe801e9"},"vehicle_type_id":"4","last_reported":1692511675,"current_range_meters":15200,"station_id":"ce4bgkh2rcd13ifvqbk0","pricing_plan_id":"free"},{"bike_id":"d4a82709-3ab2-41ef-82f6-e0f9ff474b4a","system_id":"levelo_inurba_marseille","lat":43.30304,"lon":5.39219,"is_reserved":false,"is_disabled":false,"rental_uris":{"android":"levelo://app?vid=d4a82709-3ab2-41ef-82f6-e0f9ff474b4a","ios":"levelo://app?vid=d4a82709-3ab2-41ef-82f6-e0f9ff474b4a"},"vehicle_type_id":"4","last_reported":1692511675,"current_range_meters":30800,"station_id":"ce4bgkh2rcd13ifvqbk0","pricing_plan_id":"free"},{"bike_id":"1a2ee988-bb65-4f7b-bbee-02bd6242518f","system_id":"levelo_inurba_marseille","lat":43.30308,"lon":5.39228,"is_reserved":false,"is_disabled":false,"rental_uris":{"android":"levelo://app?vid=1a2ee988-bb65-4f7b-bbee-02bd6242518f","ios":"levelo://app?vid=1a2ee988-bb65-4f7b-bbee-02bd6242518f"},"vehicle_type_id":"4","last_reported":1692511675,"current_range_meters":11600,"station_id":"ce4bgkh2rcd13ifvqbk0","pricing_plan_id":"free"},{"bike_id":"0724f352-a262-45b7-9b71-9a09ff17d945","system_id":"levelo_inurba_marseille","lat":43.30303,"lon":5.39225,"is_reserved":false,"is_disabled":false,"rental_uris":{"android":"levelo://app?vid=0724f352-a262-45b7-9b71-9a09ff17d945","ios":"levelo://app?vid=0724f352-a262-45b7-9b71-9a09ff17d945"},"vehicle_type_id":"4","last_reported":1692511675,"current_range_meters":21600,"station_id":"ce4bgkh2rcd13ifvqbk0","pricing_plan_id":"free"},{"bike_id":"57b51efa-0110-40cc-b1d5-5d5d2db5041c","system_id":"levelo_inurba_marseille","lat":43.30093,"lon":5.39089,"is_reserved":false,"is_disabled":false,"rental_uris":{"android":"levelo://app?vid=57b51efa-0110-40cc-b1d5-5d5d2db5041c","ios":"levelo://app?vid=57b51efa-0110-40cc-b1d5-5d5d2db5041c"},"vehicle_type_id":"4","last_reported":1692511675,"current_range_meters":24800,"station_id":"ce4bh192rcd13ifvqdb0","pricing_plan_id":"free"},{"bike_id":"42356be1-f4af-41fa-b4f5-f5f9cebe4ee0","system_id":"levelo_inurba_marseille","lat":43.291972,"lon":5.357958,"is_reserved":false,"is_disabled":false,"rental_uris":{"android":"levelo://app?vid=42356be1-f4af-41fa-b4f5-f5f9cebe4ee0","ios":"levelo://app?vid=42356be1-f4af-41fa-b4f5-f5f9cebe4ee0"},"vehicle_type_id":"4","last_reported":1692511675,"current_range_meters":29200,"station_id":"ce4bhb12rcd13ifvqel0","pricing_plan_id":"free"},{"bike_id":"553f2c0b-014d-4fea-adc9-66f0b276080c","system_id":"levelo_inurba_marseille","lat":43.29195,"lon":5.35804,"is_reserved":false,"is_disabled":false,"rental_uris":{"android":"levelo://app?vid=553f2c0b-014d-4fea-adc9-66f0b276080c","ios":"levelo://app?vid=553f2c0b-014d-4fea-adc9-66f0b276080c"},"vehicle_type_id":"4","last_reported":1692511675,"current_range_meters":18800,"station_id":"ce4bhb12rcd13ifvqel0","pricing_plan_id":"free"},{"bike_id":"43c782e0-2f9b-4ea1-8bb5-1e7ee5adcb8f","system_id":"levelo_inurba_marseille","lat":43.309038,"lon":5.396546,"is_reserved":false,"is_disabled":false,"rental_uris":{"android":"levelo://app?vid=43c782e0-2f9b-4ea1-8bb5-1e7ee5adcb8f","ios":"levelo://app?vid=43c782e0-2f9b-4ea1-8bb5-1e7ee5adcb8f"},"vehicle_type_id":"4","last_reported":1692511675,"current_range_meters":12800,"station_id":"ce4bh012rcd13ifvqcv0","pricing_plan_id":"free"},{"bike_id":"07f48092-2ee8-45c7-af29-578111da4e71","system_id":"levelo_inurba_marseille","lat":43.29529,"lon":5.385581,"is_reserved":false,"is_disabled":false,"rental_uris":{"android":"levelo://app?vid=07f48092-2ee8-45c7-af29-578111da4e71","ios":"levelo://app?vid=07f48092-2ee8-45c7-af29-578111da4e71"},"vehicle_type_id":"4","last_reported":1692511675,"current_range_meters":30400,"station_id":"ce4bgih2rcd13ifvqba0","pricing_plan_id":"free"},{"bike_id":"b1c87ab6-492c-4430-999b-af0b92799bba","system_id":"levelo_inurba_marseille","lat":43.29529,"lon":5.385581,"is_reserved":false,"is_disabled":false,"rental_uris":{"android":"levelo://app?vid=b1c87ab6-492c-4430-999b-af0b92799bba","ios":"levelo://app?vid=b1c87ab6-492c-4430-999b-af0b92799bba"},"vehicle_type_id":"4","last_reported":1692511675,"current_range_meters":30000,"station_id":"ce4bgih2rcd13ifvqba0","pricing_plan_id":"free"},{"bike_id":"b3b0fd35-fe1c-490e-a2b7-db5cda36e836","system_id":"levelo_inurba_marseille","lat":43.29038,"lon":5.37574,"is_reserved":false,"is_disabled":false,"rental_uris":{"android":"levelo://app?vid=b3b0fd35-fe1c-490e-a2b7-db5cda36e836","ios":"levelo://app?vid=b3b0fd35-fe1c-490e-a2b7-db5cda36e836"},"vehicle_type_id":"4","last_reported":1692511675,"current_range_meters":0,"station_id":"ce4bh692rcd13ifvqe90","pricing_plan_id":"free"},{"bike_id":"9bd75b7d-f9a0-432d-ab35-29682db87f94","system_id":"levelo_inurba_marseille","lat":43.29037,"lon":5.3757,"is_reserved":false,"is_disabled":false,"rental_uris":{"android":"levelo://app?vid=9bd75b7d-f9a0-432d-ab35-29682db87f94","ios":"levelo://app?vid=9bd75b7d-f9a0-432d-ab35-29682db87f94"},"vehicle_type_id":"4","last_reported":1692511675,"current_range_meters":30400,"station_id":"ce4bh692rcd13ifvqe90","pricing_plan_id":"free"},{"bike_id":"79488ae4-4c0a-4f44-98f9-5b1857bb2c7e","system_id":"levelo_inurba_marseille","lat":43.304274,"lon":5.397513,"is_reserved":false,"is_disabled":false,"rental_uris":{"android":"levelo://app?vid=79488ae4-4c0a-4f44-98f9-5b1857bb2c7e","ios":"levelo://app?vid=79488ae4-4c0a-4f44-98f9-5b1857bb2c7e"},"vehicle_type_id":"4","last_reported":1692511675,"current_range_meters":31200,"station_id":"ce4bh092rcd13ifvqd20","pricing_plan_id":"free"},{"bike_id":"a3c1b0d6-f869-47ff-a49f-88656b63506a","system_id":"levelo_inurba_marseille","lat":43.290104,"lon":5.356111,"is_reserved":false,"is_disabled":false,"rental_uris":{"android":"levelo://app?vid=a3c1b0d6-f869-47ff-a49f-88656b63506a","ios":"levelo://app?vid=a3c1b0d6-f869-47ff-a49f-88656b63506a"},"vehicle_type_id":"4","last_reported":1692511675,"current_range_meters":28000,"station_id":"ce4bhb92rcd13ifvqen0","pricing_plan_id":"free"},{"bike_id":"ac4d5439-e326-499c-a8a2-58d7b01dbaff","system_id":"levelo_inurba_marseille","lat":43.290104,"lon":5.356111,"is_reserved":false,"is_disabled":false,"rental_uris":{"android":"levelo://app?vid=ac4d5439-e326-499c-a8a2-58d7b01dbaff","ios":"levelo://app?vid=ac4d5439-e326-499c-a8a2-58d7b01dbaff"},"vehicle_type_id":"4","last_reported":1692511675,"current_range_meters":25200,"station_id":"ce4bhb92rcd13ifvqen0","pricing_plan_id":"free"},{"bike_id":"7dee72c8-a3a4-4116-95b0-bd960299542c","system_id":"levelo_inurba_marseille","lat":43.290104,"lon":5.356111,"is_reserved":false,"is_disabled":false,"rental_uris":{"android":"levelo://app?vid=7dee72c8-a3a4-4116-95b0-bd960299542c","ios":"levelo://app?vid=7dee72c8-a3a4-4116-95b0-bd960299542c"},"vehicle_type_id":"4","last_reported":1692511675,"current_range_meters":27600,"station_id":"ce4bhb92rcd13ifvqen0","pricing_plan_id":"free"},{"bike_id":"20d816b3-f28e-43cb-8799-88d52aa25eea","system_id":"levelo_inurba_marseille","lat":43.290104,"lon":5.356111,"is_reserved":false,"is_disabled":false,"rental_uris":{"android":"levelo://app?vid=20d816b3-f28e-43cb-8799-88d52aa25eea","ios":"levelo://app?vid=20d816b3-f28e-43cb-8799-88d52aa25eea"},"vehicle_type_id":"4","last_reported":1692511675,"current_range_meters":28800,"station_id":"ce4bhb92rcd13ifvqen0","pricing_plan_id":"free"},{"bike_id":"7187da88-af1d-47f4-9a54-87439910c641","system_id":"levelo_inurba_marseille","lat":43.290104,"lon":5.356111,"is_reserved":false,"is_disabled":false,"rental_uris":{"android":"levelo://app?vid=7187da88-af1d-47f4-9a54-87439910c641","ios":"levelo://app?vid=7187da88-af1d-47f4-9a54-87439910c641"},"vehicle_type_id":"4","last_reported":1692511675,"current_range_meters":27600,"station_id":"ce4bhb92rcd13ifvqen0","pricing_plan_id":"free"},{"bike_id":"331b6e0a-8cfc-4305-9eef-0266cde03da7","system_id":"levelo_inurba_marseille","lat":43.3304,"lon":5.38921,"is_reserved":false,"is_disabled":false,"rental_uris":{"android":"levelo://app?vid=331b6e0a-8cfc-4305-9eef-0266cde03da7","ios":"levelo://app?vid=331b6e0a-8cfc-4305-9eef-0266cde03da7"},"vehicle_type_id":"4","last_reported":1692511675,"current_range_meters":14400,"station_id":"ce4bhr92rcd13ifvqhrg","pricing_plan_id":"free"},{"bike_id":"9e24a65c-fe1e-45dc-88b9-dd0cad85064c","system_id":"levelo_inurba_marseille","lat":43.33039,"lon":5.38923,"is_reserved":false,"is_disabled":false,"rental_uris":{"android":"levelo://app?vid=9e24a65c-fe1e-45dc-88b9-dd0cad85064c","ios":"levelo://app?vid=9e24a65c-fe1e-45dc-88b9-dd0cad85064c"},"vehicle_type_id":"4","last_reported":1692511675,"current_range_meters":28400,"station_id":"ce4bhr92rcd13ifvqhrg","pricing_plan_id":"free"},{"bike_id":"16105e4d-cb4a-4aae-91bb-2ecd41a7406b","system_id":"levelo_inurba_marseille","lat":43.33037,"lon":5.38926,"is_reserved":false,"is_disabled":false,"rental_uris":{"android":"levelo://app?vid=16105e4d-cb4a-4aae-91bb-2ecd41a7406b","ios":"levelo://app?vid=16105e4d-cb4a-4aae-91bb-2ecd41a7406b"},"vehicle_type_id":"4","last_reported":1692511675,"current_range_meters":21200,"station_id":"ce4bhr92rcd13ifvqhrg","pricing_plan_id":"free"},{"bike_id":"a5d7998c-4c76-4390-bbcf-8c2a2abd7eba","system_id":"levelo_inurba_marseille","lat":43.3304,"lon":5.38923,"is_reserved":false,"is_disabled":false,"rental_uris":{"android":"levelo://app?vid=a5d7998c-4c76-4390-bbcf-8c2a2abd7eba","ios":"levelo://app?vid=a5d7998c-4c76-4390-bbcf-8c2a2abd7eba"},"vehicle_type_id":"4","last_reported":1692511675,"current_range_meters":30400,"station_id":"ce4bhr92rcd13ifvqhrg","pricing_plan_id":"free"},{"bike_id":"a949fd01-3483-42f9-9716-f3bdd91d7978","system_id":"levelo_inurba_marseille","lat":43.290104,"lon":5.356111,"is_reserved":false,"is_disabled":false,"rental_uris":{"android":"levelo://app?vid=a949fd01-3483-42f9-9716-f3bdd91d7978","ios":"levelo://app?vid=a949fd01-3483-42f9-9716-f3bdd91d7978"},"vehicle_type_id":"4","last_reported":1692511675,"current_range_meters":15200,"station_id":"ce4bhb92rcd13ifvqen0","pricing_plan_id":"free"},{"bike_id":"c8619c93-5f6a-45f4-8e07-c81fcc1e21be","system_id":"levelo_inurba_marseille","lat":43.33044,"lon":5.38919,"is_reserved":false,"is_disabled":false,"rental_uris":{"android":"levelo://app?vid=c8619c93-5f6a-45f4-8e07-c81fcc1e21be","ios":"levelo://app?vid=c8619c93-5f6a-45f4-8e07-c81fcc1e21be"},"vehicle_type_id":"4","last_reported":1692511675,"current_range_meters":26000,"station_id":"ce4bhr92rcd13ifvqhrg","pricing_plan_id":"free"},{"bike_id":"86eac789-1e56-496d-abfa-705e29d378c7","system_id":"levelo_inurba_marseille","lat":43.33043,"lon":5.38921,"is_reserved":false,"is_disabled":false,"rental_uris":{"android":"levelo://app?vid=86eac789-1e56-496d-abfa-705e29d378c7","ios":"levelo://app?vid=86eac789-1e56-496d-abfa-705e29d378c7"},"vehicle_type_id":"4","last_reported":1692511675,"current_range_meters":28400,"station_id":"ce4bhr92rcd13ifvqhrg","pricing_plan_id":"free"},{"bike_id":"3b3e7c42-cded-4bde-b175-99650afa4f17","system_id":"levelo_inurba_marseille","lat":43.33046,"lon":5.38918,"is_reserved":false,"is_disabled":false,"rental_uris":{"android":"levelo://app?vid=3b3e7c42-cded-4bde-b175-99650afa4f17","ios":"levelo://app?vid=3b3e7c42-cded-4bde-b175-99650afa4f17"},"vehicle_type_id":"4","last_reported":1692511675,"current_range_meters":23200,"station_id":"ce4bhr92rcd13ifvqhrg","pricing_plan_id":"free"},{"bike_id":"708f7f21-b221-4c14-94b6-b5d8e3289350","system_id":"levelo_inurba_marseille","lat":43.33045,"lon":5.3892,"is_reserved":false,"is_disabled":false,"rental_uris":{"android":"levelo://app?vid=708f7f21-b221-4c14-94b6-b5d8e3289350","ios":"levelo://app?vid=708f7f21-b221-4c14-94b6-b5d8e3289350"},"vehicle_type_id":"4","last_reported":1692511675,"current_range_meters":19600,"station_id":"ce4bhr92rcd13ifvqhrg","pricing_plan_id":"free"},{"bike_id":"86535332-25ae-4735-984f-2b7a7387a6af","system_id":"levelo_inurba_marseille","lat":43.33044,"lon":5.38922,"is_reserved":false,"is_disabled":false,"rental_uris":{"android":"levelo://app?vid=86535332-25ae-4735-984f-2b7a7387a6af","ios":"levelo://app?vid=86535332-25ae-4735-984f-2b7a7387a6af"},"vehicle_type_id":"4","last_reported":1692511675,"current_range_meters":28800,"station_id":"ce4bhr92rcd13ifvqhrg","pricing_plan_id":"free"},{"bike_id":"70576a93-fbdb-4696-908e-c08c0f1995f8","system_id":"levelo_inurba_marseille","lat":43.33046,"lon":5.3892,"is_reserved":false,"is_disabled":false,"rental_uris":{"android":"levelo://app?vid=70576a93-fbdb-4696-908e-c08c0f1995f8","ios":"levelo://app?vid=70576a93-fbdb-4696-908e-c08c0f1995f8"},"vehicle_type_id":"4","last_reported":1692511675,"current_range_meters":24400,"station_id":"ce4bhr92rcd13ifvqhrg","pricing_plan_id":"free"},{"bike_id":"4acef044-58d4-4046-9f8b-3557af517e74","system_id":"levelo_inurba_marseille","lat":43.33045,"lon":5.38923,"is_reserved":false,"is_disabled":false,"rental_uris":{"android":"levelo://app?vid=4acef044-58d4-4046-9f8b-3557af517e74","ios":"levelo://app?vid=4acef044-58d4-4046-9f8b-3557af517e74"},"vehicle_type_id":"4","last_reported":1692511675,"current_range_meters":11200,"station_id":"ce4bhr92rcd13ifvqhrg","pricing_plan_id":"free"},{"bike_id":"d2b15eb2-4474-4e56-aace-fe335ab0092e","system_id":"levelo_inurba_marseille","lat":43.33047,"lon":5.3892,"is_reserved":false,"is_disabled":false,"rental_uris":{"android":"levelo://app?vid=d2b15eb2-4474-4e56-aace-fe335ab0092e","ios":"levelo://app?vid=d2b15eb2-4474-4e56-aace-fe335ab0092e"},"vehicle_type_id":"4","last_reported":1692511675,"current_range_meters":13600,"station_id":"ce4bhr92rcd13ifvqhrg","pricing_plan_id":"free"},{"bike_id":"024f4d94-1555-4991-925c-5e7448051bbb","system_id":"levelo_inurba_marseille","lat":43.33046,"lon":5.38922,"is_reserved":false,"is_disabled":false,"rental_uris":{"android":"levelo://app?vid=024f4d94-1555-4991-925c-5e7448051bbb","ios":"levelo://app?vid=024f4d94-1555-4991-925c-5e7448051bbb"},"vehicle_type_id":"4","last_reported":1692511675,"current_range_meters":27600,"station_id":"ce4bhr92rcd13ifvqhrg","pricing_plan_id":"free"},{"bike_id":"9ec93851-2c12-4e8a-b52c-89084ec976ac","system_id":"levelo_inurba_marseille","lat":43.33046,"lon":5.38922,"is_reserved":false,"is_disabled":false,"rental_uris":{"android":"levelo://app?vid=9ec93851-2c12-4e8a-b52c-89084ec976ac","ios":"levelo://app?vid=9ec93851-2c12-4e8a-b52c-89084ec976ac"},"vehicle_type_id":"4","last_reported":1692511675,"current_range_meters":1200,"station_id":"ce4bhr92rcd13ifvqhrg","pricing_plan_id":"free"},{"bike_id":"5c8c244a-8618-42d9-abf2-521b07f6577d","system_id":"levelo_inurba_marseille","lat":43.33044,"lon":5.38925,"is_reserved":false,"is_disabled":false,"rental_uris":{"android":"levelo://app?vid=5c8c244a-8618-42d9-abf2-521b07f6577d","ios":"levelo://app?vid=5c8c244a-8618-42d9-abf2-521b07f6577d"},"vehicle_type_id":"4","last_reported":1692511675,"current_range_meters":26400,"station_id":"ce4bhr92rcd13ifvqhrg","pricing_plan_id":"free"},{"bike_id":"eb950724-6c95-4fb2-915f-35b08a8cfd23","system_id":"levelo_inurba_marseille","lat":43.33048,"lon":5.38919,"is_reserved":false,"is_disabled":false,"rental_uris":{"android":"levelo://app?vid=eb950724-6c95-4fb2-915f-35b08a8cfd23","ios":"levelo://app?vid=eb950724-6c95-4fb2-915f-35b08a8cfd23"},"vehicle_type_id":"4","last_reported":1692511675,"current_range_meters":18400,"station_id":"ce4bhr92rcd13ifvqhrg","pricing_plan_id":"free"},{"bike_id":"52662068-d06a-40c1-bfee-ce6664dc3a83","system_id":"levelo_inurba_marseille","lat":43.33048,"lon":5.3892,"is_reserved":false,"is_disabled":false,"rental_uris":{"android":"levelo://app?vid=52662068-d06a-40c1-bfee-ce6664dc3a83","ios":"levelo://app?vid=52662068-d06a-40c1-bfee-ce6664dc3a83"},"vehicle_type_id":"4","last_reported":1692511675,"current_range_meters":2000,"station_id":"ce4bhr92rcd13ifvqhrg","pricing_plan_id":"free"},{"bike_id":"5036c72a-6252-47f4-a9fb-50fd514d506a","system_id":"levelo_inurba_marseille","lat":43.33045,"lon":5.38927,"is_reserved":false,"is_disabled":false,"rental_uris":{"android":"levelo://app?vid=5036c72a-6252-47f4-a9fb-50fd514d506a","ios":"levelo://app?vid=5036c72a-6252-47f4-a9fb-50fd514d506a"},"vehicle_type_id":"4","last_reported":1692511675,"current_range_meters":21200,"station_id":"ce4bhr92rcd13ifvqhrg","pricing_plan_id":"free"},{"bike_id":"7d19a255-9f7a-4d0e-beba-2bfebb3c7b5e","system_id":"levelo_inurba_marseille","lat":43.3305,"lon":5.3892,"is_reserved":false,"is_disabled":false,"rental_uris":{"android":"levelo://app?vid=7d19a255-9f7a-4d0e-beba-2bfebb3c7b5e","ios":"levelo://app?vid=7d19a255-9f7a-4d0e-beba-2bfebb3c7b5e"},"vehicle_type_id":"4","last_reported":1692511675,"current_range_meters":21200,"station_id":"ce4bhr92rcd13ifvqhrg","pricing_plan_id":"free"},{"bike_id":"de450cac-4370-4660-9455-3e94463307a2","system_id":"levelo_inurba_marseille","lat":43.33048,"lon":5.38926,"is_reserved":false,"is_disabled":false,"rental_uris":{"android":"levelo://app?vid=de450cac-4370-4660-9455-3e94463307a2","ios":"levelo://app?vid=de450cac-4370-4660-9455-3e94463307a2"},"vehicle_type_id":"4","last_reported":1692511675,"current_range_meters":16400,"station_id":"ce4bhr92rcd13ifvqhrg","pricing_plan_id":"free"},{"bike_id":"869bf6d1-0465-4382-b1f6-b0afc8d8f7a2","system_id":"levelo_inurba_marseille","lat":43.290995,"lon":5.381361,"is_reserved":false,"is_disabled":false,"rental_uris":{"android":"levelo://app?vid=869bf6d1-0465-4382-b1f6-b0afc8d8f7a2","ios":"levelo://app?vid=869bf6d1-0465-4382-b1f6-b0afc8d8f7a2"},"vehicle_type_id":"4","last_reported":1692511675,"current_range_meters":28000,"station_id":"ce4bh512rcd13ifvqe2g","pricing_plan_id":"free"},{"bike_id":"f2aab0b5-2c19-4d7f-a2da-a92af13b8444","system_id":"levelo_inurba_marseille","lat":43.295169,"lon":5.390426,"is_reserved":false,"is_disabled":false,"rental_uris":{"android":"levelo://app?vid=f2aab0b5-2c19-4d7f-a2da-a92af13b8444","ios":"levelo://app?vid=f2aab0b5-2c19-4d7f-a2da-a92af13b8444"},"vehicle_type_id":"4","last_reported":1692511675,"current_range_meters":28400,"station_id":"ce4bh3p2rcd13ifvqdp0","pricing_plan_id":"free"},{"bike_id":"c8777180-c492-4948-8bd8-577db87b4cc8","system_id":"levelo_inurba_marseille","lat":43.295169,"lon":5.390426,"is_reserved":false,"is_disabled":false,"rental_uris":{"android":"levelo://app?vid=c8777180-c492-4948-8bd8-577db87b4cc8","ios":"levelo://app?vid=c8777180-c492-4948-8bd8-577db87b4cc8"},"vehicle_type_id":"4","last_reported":1692511675,"current_range_meters":31600,"station_id":"ce4bh3p2rcd13ifvqdp0","pricing_plan_id":"free"},{"bike_id":"17c360a3-e983-4fbc-a826-ad337845f2e2","system_id":"levelo_inurba_marseille","lat":43.295169,"lon":5.390426,"is_reserved":false,"is_disabled":false,"rental_uris":{"android":"levelo://app?vid=17c360a3-e983-4fbc-a826-ad337845f2e2","ios":"levelo://app?vid=17c360a3-e983-4fbc-a826-ad337845f2e2"},"vehicle_type_id":"4","last_reported":1692511675,"current_range_meters":31600,"station_id":"ce4bh3p2rcd13ifvqdp0","pricing_plan_id":"free"},{"bike_id":"da7f3787-4c6b-41be-b3a8-564ae37d5b2f","system_id":"levelo_inurba_marseille","lat":43.295169,"lon":5.390426,"is_reserved":false,"is_disabled":false,"rental_uris":{"android":"levelo://app?vid=da7f3787-4c6b-41be-b3a8-564ae37d5b2f","ios":"levelo://app?vid=da7f3787-4c6b-41be-b3a8-564ae37d5b2f"},"vehicle_type_id":"4","last_reported":1692511675,"current_range_meters":29200,"station_id":"ce4bh3p2rcd13ifvqdp0","pricing_plan_id":"free"},{"bike_id":"078f5a2f-f4cd-4a87-9a48-b04c1caccf80","system_id":"levelo_inurba_marseille","lat":43.295169,"lon":5.390426,"is_reserved":false,"is_disabled":false,"rental_uris":{"android":"levelo://app?vid=078f5a2f-f4cd-4a87-9a48-b04c1caccf80","ios":"levelo://app?vid=078f5a2f-f4cd-4a87-9a48-b04c1caccf80"},"vehicle_type_id":"4","last_reported":1692511675,"current_range_meters":22400,"station_id":"ce4bh3p2rcd13ifvqdp0","pricing_plan_id":"free"},{"bike_id":"28721099-8cd9-4231-abc5-4f7d6fc4c8ea","system_id":"levelo_inurba_marseille","lat":43.28856,"lon":5.358371,"is_reserved":false,"is_disabled":false,"rental_uris":{"android":"levelo://app?vid=28721099-8cd9-4231-abc5-4f7d6fc4c8ea","ios":"levelo://app?vid=28721099-8cd9-4231-abc5-4f7d6fc4c8ea"},"vehicle_type_id":"4","last_reported":1692511675,"current_range_meters":0,"station_id":"ce4bhb12rcd13ifvqem0","pricing_plan_id":"free"},{"bike_id":"d6e3a149-f0d1-4d77-ab28-8ba4a21441dd","system_id":"levelo_inurba_marseille","lat":43.31285,"lon":5.40162,"is_reserved":false,"is_disabled":false,"rental_uris":{"android":"levelo://app?vid=d6e3a149-f0d1-4d77-ab28-8ba4a21441dd","ios":"levelo://app?vid=d6e3a149-f0d1-4d77-ab28-8ba4a21441dd"},"vehicle_type_id":"4","last_reported":1692511675,"current_range_meters":31200,"station_id":"ce4bh092rcd13ifvqd30","pricing_plan_id":"free"},{"bike_id":"5b62ba76-0add-43f3-8335-64521d878b13","system_id":"levelo_inurba_marseille","lat":43.31283,"lon":5.40169,"is_reserved":false,"is_disabled":false,"rental_uris":{"android":"levelo://app?vid=5b62ba76-0add-43f3-8335-64521d878b13","ios":"levelo://app?vid=5b62ba76-0add-43f3-8335-64521d878b13"},"vehicle_type_id":"4","last_reported":1692511675,"current_range_meters":31200,"station_id":"ce4bh092rcd13ifvqd30","pricing_plan_id":"free"},{"bike_id":"a39594cb-feef-4e88-b68a-b6ca976c5339","system_id":"levelo_inurba_marseille","lat":43.312609,"lon":5.401662,"is_reserved":false,"is_disabled":false,"rental_uris":{"android":"levelo://app?vid=a39594cb-feef-4e88-b68a-b6ca976c5339","ios":"levelo://app?vid=a39594cb-feef-4e88-b68a-b6ca976c5339"},"vehicle_type_id":"4","last_reported":1692511675,"current_range_meters":31200,"station_id":"ce4bh092rcd13ifvqd30","pricing_plan_id":"free"},{"bike_id":"23d3aede-3791-4940-93c7-e4244dfad9e9","system_id":"levelo_inurba_marseille","lat":43.31283,"lon":5.40171,"is_reserved":false,"is_disabled":false,"rental_uris":{"android":"levelo://app?vid=23d3aede-3791-4940-93c7-e4244dfad9e9","ios":"levelo://app?vid=23d3aede-3791-4940-93c7-e4244dfad9e9"},"vehicle_type_id":"4","last_reported":1692511675,"current_range_meters":14400,"station_id":"ce4bh092rcd13ifvqd30","pricing_plan_id":"free"},{"bike_id":"e637f043-d336-4bbe-b946-80f2461afea8","system_id":"levelo_inurba_marseille","lat":43.31277,"lon":5.40172,"is_reserved":false,"is_disabled":false,"rental_uris":{"android":"levelo://app?vid=e637f043-d336-4bbe-b946-80f2461afea8","ios":"levelo://app?vid=e637f043-d336-4bbe-b946-80f2461afea8"},"vehicle_type_id":"4","last_reported":1692511675,"current_range_meters":20000,"station_id":"ce4bh092rcd13ifvqd30","pricing_plan_id":"free"},{"bike_id":"ec7d02e7-b2c5-4a0b-be07-8fa83483d049","system_id":"levelo_inurba_marseille","lat":43.309371,"lon":5.401449,"is_reserved":false,"is_disabled":false,"rental_uris":{"android":"levelo://app?vid=ec7d02e7-b2c5-4a0b-be07-8fa83483d049","ios":"levelo://app?vid=ec7d02e7-b2c5-4a0b-be07-8fa83483d049"},"vehicle_type_id":"4","last_reported":1692511675,"current_range_meters":18400,"station_id":"ce4bgvp2rcd13ifvqct0","pricing_plan_id":"free"},{"bike_id":"0d48d8dc-c1e3-44c9-83db-4ae454dfd464","system_id":"levelo_inurba_marseille","lat":43.30939,"lon":5.40145,"is_reserved":false,"is_disabled":false,"rental_uris":{"android":"levelo://app?vid=0d48d8dc-c1e3-44c9-83db-4ae454dfd464","ios":"levelo://app?vid=0d48d8dc-c1e3-44c9-83db-4ae454dfd464"},"vehicle_type_id":"4","last_reported":1692511675,"current_range_meters":29600,"station_id":"ce4bgvp2rcd13ifvqct0","pricing_plan_id":"free"},{"bike_id":"f17bc3d6-051b-476c-92d5-5d184d44700b","system_id":"levelo_inurba_marseille","lat":43.312609,"lon":5.401662,"is_reserved":false,"is_disabled":false,"rental_uris":{"android":"levelo://app?vid=f17bc3d6-051b-476c-92d5-5d184d44700b","ios":"levelo://app?vid=f17bc3d6-051b-476c-92d5-5d184d44700b"},"vehicle_type_id":"4","last_reported":1692511675,"current_range_meters":28000,"station_id":"ce4bh092rcd13ifvqd30","pricing_plan_id":"free"},{"bike_id":"3a7ea3a1-3505-422e-ba15-1dba60947359","system_id":"levelo_inurba_marseille","lat":43.309371,"lon":5.401449,"is_reserved":false,"is_disabled":false,"rental_uris":{"android":"levelo://app?vid=3a7ea3a1-3505-422e-ba15-1dba60947359","ios":"levelo://app?vid=3a7ea3a1-3505-422e-ba15-1dba60947359"},"vehicle_type_id":"4","last_reported":1692511675,"current_range_meters":15600,"station_id":"ce4bgvp2rcd13ifvqct0","pricing_plan_id":"free"},{"bike_id":"f935241d-bc76-424b-bbe2-a813cce5af6b","system_id":"levelo_inurba_marseille","lat":43.309371,"lon":5.401449,"is_reserved":false,"is_disabled":false,"rental_uris":{"android":"levelo://app?vid=f935241d-bc76-424b-bbe2-a813cce5af6b","ios":"levelo://app?vid=f935241d-bc76-424b-bbe2-a813cce5af6b"},"vehicle_type_id":"4","last_reported":1692511675,"current_range_meters":23600,"station_id":"ce4bgvp2rcd13ifvqct0","pricing_plan_id":"free"},{"bike_id":"9209b11c-3887-43dd-b2c0-44ee22a88beb","system_id":"levelo_inurba_marseille","lat":43.309371,"lon":5.401449,"is_reserved":false,"is_disabled":false,"rental_uris":{"android":"levelo://app?vid=9209b11c-3887-43dd-b2c0-44ee22a88beb","ios":"levelo://app?vid=9209b11c-3887-43dd-b2c0-44ee22a88beb"},"vehicle_type_id":"4","last_reported":1692511675,"current_range_meters":5600,"station_id":"ce4bgvp2rcd13ifvqct0","pricing_plan_id":"free"},{"bike_id":"fdba5af8-2355-4f92-b9b1-7abebb728036","system_id":"levelo_inurba_marseille","lat":43.309371,"lon":5.401449,"is_reserved":false,"is_disabled":false,"rental_uris":{"android":"levelo://app?vid=fdba5af8-2355-4f92-b9b1-7abebb728036","ios":"levelo://app?vid=fdba5af8-2355-4f92-b9b1-7abebb728036"},"vehicle_type_id":"4","last_reported":1692511675,"current_range_meters":31200,"station_id":"ce4bgvp2rcd13ifvqct0","pricing_plan_id":"free"},{"bike_id":"f73fbd3c-1819-46cd-85b9-75a990ede307","system_id":"levelo_inurba_marseille","lat":43.309371,"lon":5.401449,"is_reserved":false,"is_disabled":false,"rental_uris":{"android":"levelo://app?vid=f73fbd3c-1819-46cd-85b9-75a990ede307","ios":"levelo://app?vid=f73fbd3c-1819-46cd-85b9-75a990ede307"},"vehicle_type_id":"4","last_reported":1692511675,"current_range_meters":28000,"station_id":"ce4bgvp2rcd13ifvqct0","pricing_plan_id":"free"},{"bike_id":"4b820775-cd2d-4cfc-add9-6e9466f8f65a","system_id":"levelo_inurba_marseille","lat":43.312609,"lon":5.401662,"is_reserved":false,"is_disabled":false,"rental_uris":{"android":"levelo://app?vid=4b820775-cd2d-4cfc-add9-6e9466f8f65a","ios":"levelo://app?vid=4b820775-cd2d-4cfc-add9-6e9466f8f65a"},"vehicle_type_id":"4","last_reported":1692511675,"current_range_meters":13200,"station_id":"ce4bh092rcd13ifvqd30","pricing_plan_id":"free"},{"bike_id":"38cd9f63-a18d-4f06-91c5-b8e14018bad3","system_id":"levelo_inurba_marseille","lat":43.30931,"lon":5.40149,"is_reserved":false,"is_disabled":false,"rental_uris":{"android":"levelo://app?vid=38cd9f63-a18d-4f06-91c5-b8e14018bad3","ios":"levelo://app?vid=38cd9f63-a18d-4f06-91c5-b8e14018bad3"},"vehicle_type_id":"4","last_reported":1692511675,"current_range_meters":31200,"station_id":"ce4bgvp2rcd13ifvqct0","pricing_plan_id":"free"},{"bike_id":"808b1089-952a-49b7-bf00-634160d8a659","system_id":"levelo_inurba_marseille","lat":43.3375,"lon":5.37464,"is_reserved":false,"is_disabled":false,"rental_uris":{"android":"levelo://app?vid=808b1089-952a-49b7-bf00-634160d8a659","ios":"levelo://app?vid=808b1089-952a-49b7-bf00-634160d8a659"},"vehicle_type_id":"4","last_reported":1692511675,"current_range_meters":25200,"station_id":"","pricing_plan_id":"free"},{"bike_id":"2526366a-0519-4ef9-b097-307ddc011284","system_id":"levelo_inurba_marseille","lat":43.309371,"lon":5.401449,"is_reserved":false,"is_disabled":false,"rental_uris":{"android":"levelo://app?vid=2526366a-0519-4ef9-b097-307ddc011284","ios":"levelo://app?vid=2526366a-0519-4ef9-b097-307ddc011284"},"vehicle_type_id":"4","last_reported":1692511675,"current_range_meters":22400,"station_id":"ce4bgvp2rcd13ifvqct0","pricing_plan_id":"free"},{"bike_id":"118472c4-e69c-4b1b-aaf1-b866c7e2040b","system_id":"levelo_inurba_marseille","lat":43.30941,"lon":5.40155,"is_reserved":false,"is_disabled":false,"rental_uris":{"android":"levelo://app?vid=118472c4-e69c-4b1b-aaf1-b866c7e2040b","ios":"levelo://app?vid=118472c4-e69c-4b1b-aaf1-b866c7e2040b"},"vehicle_type_id":"4","last_reported":1692511675,"current_range_meters":30800,"station_id":"ce4bgvp2rcd13ifvqct0","pricing_plan_id":"free"},{"bike_id":"e999f68b-d5f0-4aa3-b82e-da9302a3e7fc","system_id":"levelo_inurba_marseille","lat":43.30934,"lon":5.40154,"is_reserved":false,"is_disabled":false,"rental_uris":{"android":"levelo://app?vid=e999f68b-d5f0-4aa3-b82e-da9302a3e7fc","ios":"levelo://app?vid=e999f68b-d5f0-4aa3-b82e-da9302a3e7fc"},"vehicle_type_id":"4","last_reported":1692511675,"current_range_meters":27600,"station_id":"ce4bgvp2rcd13ifvqct0","pricing_plan_id":"free"},{"bike_id":"1f8f5944-99a4-45ec-9dab-5e54412fb947","system_id":"levelo_inurba_marseille","lat":43.309371,"lon":5.401449,"is_reserved":false,"is_disabled":false,"rental_uris":{"android":"levelo://app?vid=1f8f5944-99a4-45ec-9dab-5e54412fb947","ios":"levelo://app?vid=1f8f5944-99a4-45ec-9dab-5e54412fb947"},"vehicle_type_id":"4","last_reported":1692511675,"current_range_meters":4800,"station_id":"ce4bgvp2rcd13ifvqct0","pricing_plan_id":"free"},{"bike_id":"97ea8b00-f737-476f-a8b5-f24b717c5780","system_id":"levelo_inurba_marseille","lat":43.30933,"lon":5.40156,"is_reserved":false,"is_disabled":false,"rental_uris":{"android":"levelo://app?vid=97ea8b00-f737-476f-a8b5-f24b717c5780","ios":"levelo://app?vid=97ea8b00-f737-476f-a8b5-f24b717c5780"},"vehicle_type_id":"4","last_reported":1692511675,"current_range_meters":31200,"station_id":"ce4bgvp2rcd13ifvqct0","pricing_plan_id":"free"},{"bike_id":"2cf7efff-f948-48dd-a94b-9fb1d806d22f","system_id":"levelo_inurba_marseille","lat":43.33773,"lon":5.37433,"is_reserved":false,"is_disabled":false,"rental_uris":{"android":"levelo://app?vid=2cf7efff-f948-48dd-a94b-9fb1d806d22f","ios":"levelo://app?vid=2cf7efff-f948-48dd-a94b-9fb1d806d22f"},"vehicle_type_id":"4","last_reported":1692511675,"current_range_meters":25200,"station_id":"","pricing_plan_id":"free"},{"bike_id":"1011d90d-a19b-4381-943a-ee1dd9f5371b","system_id":"levelo_inurba_marseille","lat":43.301117,"lon":5.398795,"is_reserved":false,"is_disabled":false,"rental_uris":{"android":"levelo://app?vid=1011d90d-a19b-4381-943a-ee1dd9f5371b","ios":"levelo://app?vid=1011d90d-a19b-4381-943a-ee1dd9f5371b"},"vehicle_type_id":"4","last_reported":1692511675,"current_range_meters":30000,"station_id":"ce4bh0h2rcd13ifvqd40","pricing_plan_id":"free"},{"bike_id":"fa251b9f-22d3-48f0-b91b-8fa252123e59","system_id":"levelo_inurba_marseille","lat":43.298681,"lon":5.397225,"is_reserved":false,"is_disabled":false,"rental_uris":{"android":"levelo://app?vid=fa251b9f-22d3-48f0-b91b-8fa252123e59","ios":"levelo://app?vid=fa251b9f-22d3-48f0-b91b-8fa252123e59"},"vehicle_type_id":"4","last_reported":1692511675,"current_range_meters":31200,"station_id":"ce4bh0h2rcd13ifvqd50","pricing_plan_id":"free"},{"bike_id":"23542ef4-3ab2-45de-b0be-af3f2110fe9d","system_id":"levelo_inurba_marseille","lat":43.304188,"lon":5.412904,"is_reserved":false,"is_disabled":false,"rental_uris":{"android":"levelo://app?vid=23542ef4-3ab2-45de-b0be-af3f2110fe9d","ios":"levelo://app?vid=23542ef4-3ab2-45de-b0be-af3f2110fe9d"},"vehicle_type_id":"4","last_reported":1692511675,"current_range_meters":26800,"station_id":"ce4bhop2rcd13ifvqh8g","pricing_plan_id":"free"},{"bike_id":"0783266f-2cb6-4d0d-81e6-3b07153c953e","system_id":"levelo_inurba_marseille","lat":43.298681,"lon":5.397225,"is_reserved":false,"is_disabled":false,"rental_uris":{"android":"levelo://app?vid=0783266f-2cb6-4d0d-81e6-3b07153c953e","ios":"levelo://app?vid=0783266f-2cb6-4d0d-81e6-3b07153c953e"},"vehicle_type_id":"4","last_reported":1692511675,"current_range_meters":30000,"station_id":"ce4bh0h2rcd13ifvqd50","pricing_plan_id":"free"},{"bike_id":"75199276-b705-4ad7-b6a9-49aeaa84628a","system_id":"levelo_inurba_marseille","lat":43.286591,"lon":5.363346,"is_reserved":false,"is_disabled":false,"rental_uris":{"android":"levelo://app?vid=75199276-b705-4ad7-b6a9-49aeaa84628a","ios":"levelo://app?vid=75199276-b705-4ad7-b6a9-49aeaa84628a"},"vehicle_type_id":"4","last_reported":1692511675,"current_range_meters":30400,"station_id":"ce4bhah2rcd13ifvqej0","pricing_plan_id":"free"},{"bike_id":"2ce365fd-2fb9-47ef-9dcc-7c7d9b9207d9","system_id":"levelo_inurba_marseille","lat":43.298681,"lon":5.397225,"is_reserved":false,"is_disabled":false,"rental_uris":{"android":"levelo://app?vid=2ce365fd-2fb9-47ef-9dcc-7c7d9b9207d9","ios":"levelo://app?vid=2ce365fd-2fb9-47ef-9dcc-7c7d9b9207d9"},"vehicle_type_id":"4","last_reported":1692511675,"current_range_meters":31600,"station_id":"ce4bh0h2rcd13ifvqd50","pricing_plan_id":"free"},{"bike_id":"c74c6718-c75b-4a0d-8fa2-8ee95d11ade6","system_id":"levelo_inurba_marseille","lat":43.295194,"lon":5.39397,"is_reserved":false,"is_disabled":false,"rental_uris":{"android":"levelo://app?vid=c74c6718-c75b-4a0d-8fa2-8ee95d11ade6","ios":"levelo://app?vid=c74c6718-c75b-4a0d-8fa2-8ee95d11ade6"},"vehicle_type_id":"4","last_reported":1692511675,"current_range_meters":3200,"station_id":"ce4bh292rcd13ifvqdf0","pricing_plan_id":"free"},{"bike_id":"25b3e2d2-ac3e-48ca-8f6e-1a8c916a574e","system_id":"levelo_inurba_marseille","lat":43.295196,"lon":5.39397,"is_reserved":false,"is_disabled":false,"rental_uris":{"android":"levelo://app?vid=25b3e2d2-ac3e-48ca-8f6e-1a8c916a574e","ios":"levelo://app?vid=25b3e2d2-ac3e-48ca-8f6e-1a8c916a574e"},"vehicle_type_id":"4","last_reported":1692511675,"current_range_meters":31600,"station_id":"ce4bh292rcd13ifvqdf0","pricing_plan_id":"free"},{"bike_id":"104fc7a2-0d1a-4b89-bf01-160ac146aac4","system_id":"levelo_inurba_marseille","lat":43.295196,"lon":5.39397,"is_reserved":false,"is_disabled":false,"rental_uris":{"android":"levelo://app?vid=104fc7a2-0d1a-4b89-bf01-160ac146aac4","ios":"levelo://app?vid=104fc7a2-0d1a-4b89-bf01-160ac146aac4"},"vehicle_type_id":"4","last_reported":1692511675,"current_range_meters":21600,"station_id":"ce4bh292rcd13ifvqdf0","pricing_plan_id":"free"},{"bike_id":"68f79223-07fc-40b1-af6b-7ef0416b999b","system_id":"levelo_inurba_marseille","lat":43.295194,"lon":5.39397,"is_reserved":false,"is_disabled":false,"rental_uris":{"android":"levelo://app?vid=68f79223-07fc-40b1-af6b-7ef0416b999b","ios":"levelo://app?vid=68f79223-07fc-40b1-af6b-7ef0416b999b"},"vehicle_type_id":"4","last_reported":1692511675,"current_range_meters":24800,"station_id":"ce4bh292rcd13ifvqdf0","pricing_plan_id":"free"},{"bike_id":"a2f90f58-11dc-43ef-81c0-8ca58122b043","system_id":"levelo_inurba_marseille","lat":43.302759,"lon":5.400793,"is_reserved":false,"is_disabled":false,"rental_uris":{"android":"levelo://app?vid=a2f90f58-11dc-43ef-81c0-8ca58122b043","ios":"levelo://app?vid=a2f90f58-11dc-43ef-81c0-8ca58122b043"},"vehicle_type_id":"4","last_reported":1692511675,"current_range_meters":20400,"station_id":"ce4bgvh2rcd13ifvqcs0","pricing_plan_id":"free"},{"bike_id":"f7e4098d-0db0-4a8f-9d9b-a3c6fa55bb2c","system_id":"levelo_inurba_marseille","lat":43.290336,"lon":5.386425,"is_reserved":false,"is_disabled":false,"rental_uris":{"android":"levelo://app?vid=f7e4098d-0db0-4a8f-9d9b-a3c6fa55bb2c","ios":"levelo://app?vid=f7e4098d-0db0-4a8f-9d9b-a3c6fa55bb2c"},"vehicle_type_id":"4","last_reported":1692511675,"current_range_meters":22400,"station_id":"ce4bh4p2rcd13ifvqe0g","pricing_plan_id":"free"},{"bike_id":"36b66adb-1837-484f-a576-86919bb0ab95","system_id":"levelo_inurba_marseille","lat":43.290336,"lon":5.386425,"is_reserved":false,"is_disabled":false,"rental_uris":{"android":"levelo://app?vid=36b66adb-1837-484f-a576-86919bb0ab95","ios":"levelo://app?vid=36b66adb-1837-484f-a576-86919bb0ab95"},"vehicle_type_id":"4","last_reported":1692511675,"current_range_meters":28800,"station_id":"ce4bh4p2rcd13ifvqe0g","pricing_plan_id":"free"},{"bike_id":"da316603-6749-4d6b-a024-9aa160c64611","system_id":"levelo_inurba_marseille","lat":43.302759,"lon":5.400793,"is_reserved":false,"is_disabled":false,"rental_uris":{"android":"levelo://app?vid=da316603-6749-4d6b-a024-9aa160c64611","ios":"levelo://app?vid=da316603-6749-4d6b-a024-9aa160c64611"},"vehicle_type_id":"4","last_reported":1692511675,"current_range_meters":31600,"station_id":"ce4bgvh2rcd13ifvqcs0","pricing_plan_id":"free"},{"bike_id":"c6dd3d83-8bde-435a-b895-ee66de9b2197","system_id":"levelo_inurba_marseille","lat":43.302759,"lon":5.400793,"is_reserved":false,"is_disabled":false,"rental_uris":{"android":"levelo://app?vid=c6dd3d83-8bde-435a-b895-ee66de9b2197","ios":"levelo://app?vid=c6dd3d83-8bde-435a-b895-ee66de9b2197"},"vehicle_type_id":"4","last_reported":1692511675,"current_range_meters":31600,"station_id":"ce4bgvh2rcd13ifvqcs0","pricing_plan_id":"free"},{"bike_id":"24a32764-9cfa-445a-8cc5-9478fca2ecbf","system_id":"levelo_inurba_marseille","lat":43.302759,"lon":5.400793,"is_reserved":false,"is_disabled":false,"rental_uris":{"android":"levelo://app?vid=24a32764-9cfa-445a-8cc5-9478fca2ecbf","ios":"levelo://app?vid=24a32764-9cfa-445a-8cc5-9478fca2ecbf"},"vehicle_type_id":"4","last_reported":1692511675,"current_range_meters":30800,"station_id":"ce4bgvh2rcd13ifvqcs0","pricing_plan_id":"free"},{"bike_id":"02076c38-02f2-454a-a923-24f3ba4cf21a","system_id":"levelo_inurba_marseille","lat":43.302759,"lon":5.400793,"is_reserved":false,"is_disabled":false,"rental_uris":{"android":"levelo://app?vid=02076c38-02f2-454a-a923-24f3ba4cf21a","ios":"levelo://app?vid=02076c38-02f2-454a-a923-24f3ba4cf21a"},"vehicle_type_id":"4","last_reported":1692511675,"current_range_meters":31600,"station_id":"ce4bgvh2rcd13ifvqcs0","pricing_plan_id":"free"},{"bike_id":"700935f5-1170-4cdb-8238-55d63c74c23b","system_id":"levelo_inurba_marseille","lat":43.302759,"lon":5.400793,"is_reserved":false,"is_disabled":false,"rental_uris":{"android":"levelo://app?vid=700935f5-1170-4cdb-8238-55d63c74c23b","ios":"levelo://app?vid=700935f5-1170-4cdb-8238-55d63c74c23b"},"vehicle_type_id":"4","last_reported":1692511675,"current_range_meters":26800,"station_id":"ce4bgvh2rcd13ifvqcs0","pricing_plan_id":"free"},{"bike_id":"f33cf668-2b4f-400b-b15b-10c10dc74be5","system_id":"levelo_inurba_marseille","lat":43.302759,"lon":5.400793,"is_reserved":false,"is_disabled":false,"rental_uris":{"android":"levelo://app?vid=f33cf668-2b4f-400b-b15b-10c10dc74be5","ios":"levelo://app?vid=f33cf668-2b4f-400b-b15b-10c10dc74be5"},"vehicle_type_id":"4","last_reported":1692511675,"current_range_meters":31600,"station_id":"ce4bgvh2rcd13ifvqcs0","pricing_plan_id":"free"},{"bike_id":"7af33a0f-faa4-459a-8ff7-b29e7a95bfcc","system_id":"levelo_inurba_marseille","lat":43.302759,"lon":5.400793,"is_reserved":false,"is_disabled":false,"rental_uris":{"android":"levelo://app?vid=7af33a0f-faa4-459a-8ff7-b29e7a95bfcc","ios":"levelo://app?vid=7af33a0f-faa4-459a-8ff7-b29e7a95bfcc"},"vehicle_type_id":"4","last_reported":1692511675,"current_range_meters":31200,"station_id":"ce4bgvh2rcd13ifvqcs0","pricing_plan_id":"free"},{"bike_id":"4ae00035-f661-4343-8548-c6a621612092","system_id":"levelo_inurba_marseille","lat":43.302759,"lon":5.400793,"is_reserved":false,"is_disabled":false,"rental_uris":{"android":"levelo://app?vid=4ae00035-f661-4343-8548-c6a621612092","ios":"levelo://app?vid=4ae00035-f661-4343-8548-c6a621612092"},"vehicle_type_id":"4","last_reported":1692511675,"current_range_meters":31600,"station_id":"ce4bgvh2rcd13ifvqcs0","pricing_plan_id":"free"},{"bike_id":"77f690d2-59aa-4836-8abb-a03fd6b57c3c","system_id":"levelo_inurba_marseille","lat":43.31643,"lon":5.40434,"is_reserved":false,"is_disabled":false,"rental_uris":{"android":"levelo://app?vid=77f690d2-59aa-4836-8abb-a03fd6b57c3c","ios":"levelo://app?vid=77f690d2-59aa-4836-8abb-a03fd6b57c3c"},"vehicle_type_id":"4","last_reported":1692511675,"current_range_meters":30400,"station_id":"ce4bh012rcd13ifvqd00","pricing_plan_id":"free"},{"bike_id":"6a13e00c-5c02-4bf2-a000-3257752288a2","system_id":"levelo_inurba_marseille","lat":43.31645,"lon":5.40437,"is_reserved":false,"is_disabled":false,"rental_uris":{"android":"levelo://app?vid=6a13e00c-5c02-4bf2-a000-3257752288a2","ios":"levelo://app?vid=6a13e00c-5c02-4bf2-a000-3257752288a2"},"vehicle_type_id":"4","last_reported":1692511675,"current_range_meters":10800,"station_id":"ce4bh012rcd13ifvqd00","pricing_plan_id":"free"},{"bike_id":"9884d10a-f71f-46d9-a317-89f19dcdaf89","system_id":"levelo_inurba_marseille","lat":43.31651,"lon":5.40437,"is_reserved":false,"is_disabled":false,"rental_uris":{"android":"levelo://app?vid=9884d10a-f71f-46d9-a317-89f19dcdaf89","ios":"levelo://app?vid=9884d10a-f71f-46d9-a317-89f19dcdaf89"},"vehicle_type_id":"4","last_reported":1692511675,"current_range_meters":7600,"station_id":"ce4bh012rcd13ifvqd00","pricing_plan_id":"free"},{"bike_id":"bb05d5de-a596-4577-ba70-a59463fa439c","system_id":"levelo_inurba_marseille","lat":43.31645,"lon":5.40439,"is_reserved":false,"is_disabled":false,"rental_uris":{"android":"levelo://app?vid=bb05d5de-a596-4577-ba70-a59463fa439c","ios":"levelo://app?vid=bb05d5de-a596-4577-ba70-a59463fa439c"},"vehicle_type_id":"4","last_reported":1692511675,"current_range_meters":31200,"station_id":"ce4bh012rcd13ifvqd00","pricing_plan_id":"free"},{"bike_id":"ede3cb35-ef45-47b7-8e45-bfa997cf1250","system_id":"levelo_inurba_marseille","lat":43.31646,"lon":5.40439,"is_reserved":false,"is_disabled":false,"rental_uris":{"android":"levelo://app?vid=ede3cb35-ef45-47b7-8e45-bfa997cf1250","ios":"levelo://app?vid=ede3cb35-ef45-47b7-8e45-bfa997cf1250"},"vehicle_type_id":"4","last_reported":1692511675,"current_range_meters":29600,"station_id":"ce4bh012rcd13ifvqd00","pricing_plan_id":"free"},{"bike_id":"7da9e437-1e79-4b5f-9ab0-65254ac17dd7","system_id":"levelo_inurba_marseille","lat":43.31648,"lon":5.40442,"is_reserved":false,"is_disabled":false,"rental_uris":{"android":"levelo://app?vid=7da9e437-1e79-4b5f-9ab0-65254ac17dd7","ios":"levelo://app?vid=7da9e437-1e79-4b5f-9ab0-65254ac17dd7"},"vehicle_type_id":"4","last_reported":1692511675,"current_range_meters":22800,"station_id":"ce4bh012rcd13ifvqd00","pricing_plan_id":"free"},{"bike_id":"74b870e5-4cf1-4227-808d-feb4bf18ad1a","system_id":"levelo_inurba_marseille","lat":43.291994,"lon":5.392907,"is_reserved":false,"is_disabled":false,"rental_uris":{"android":"levelo://app?vid=74b870e5-4cf1-4227-808d-feb4bf18ad1a","ios":"levelo://app?vid=74b870e5-4cf1-4227-808d-feb4bf18ad1a"},"vehicle_type_id":"4","last_reported":1692511675,"current_range_meters":26400,"station_id":"ce4bh192rcd13ifvqdd0","pricing_plan_id":"free"},{"bike_id":"df33f7b0-50e0-4ed8-9daf-9ff98e9fe60b","system_id":"levelo_inurba_marseille","lat":43.291994,"lon":5.392907,"is_reserved":false,"is_disabled":false,"rental_uris":{"android":"levelo://app?vid=df33f7b0-50e0-4ed8-9daf-9ff98e9fe60b","ios":"levelo://app?vid=df33f7b0-50e0-4ed8-9daf-9ff98e9fe60b"},"vehicle_type_id":"4","last_reported":1692511675,"current_range_meters":31600,"station_id":"ce4bh192rcd13ifvqdd0","pricing_plan_id":"free"},{"bike_id":"c6894e34-03a2-4d4f-bc54-6952aaf665f5","system_id":"levelo_inurba_marseille","lat":43.284534,"lon":5.358662,"is_reserved":false,"is_disabled":false,"rental_uris":{"android":"levelo://app?vid=c6894e34-03a2-4d4f-bc54-6952aaf665f5","ios":"levelo://app?vid=c6894e34-03a2-4d4f-bc54-6952aaf665f5"},"vehicle_type_id":"4","last_reported":1692511675,"current_range_meters":31600,"station_id":"ce4bhah2rcd13ifvqei0","pricing_plan_id":"free"},{"bike_id":"863352c1-a89f-4cfd-bade-b09f3c5f6ecb","system_id":"levelo_inurba_marseille","lat":43.284538,"lon":5.358657,"is_reserved":false,"is_disabled":false,"rental_uris":{"android":"levelo://app?vid=863352c1-a89f-4cfd-bade-b09f3c5f6ecb","ios":"levelo://app?vid=863352c1-a89f-4cfd-bade-b09f3c5f6ecb"},"vehicle_type_id":"4","last_reported":1692511675,"current_range_meters":32000,"station_id":"ce4bhah2rcd13ifvqei0","pricing_plan_id":"free"},{"bike_id":"f4ebc368-5b24-45ad-9c0c-ff5d494e3485","system_id":"levelo_inurba_marseille","lat":43.284538,"lon":5.358657,"is_reserved":false,"is_disabled":false,"rental_uris":{"android":"levelo://app?vid=f4ebc368-5b24-45ad-9c0c-ff5d494e3485","ios":"levelo://app?vid=f4ebc368-5b24-45ad-9c0c-ff5d494e3485"},"vehicle_type_id":"4","last_reported":1692511675,"current_range_meters":26800,"station_id":"ce4bhah2rcd13ifvqei0","pricing_plan_id":"free"},{"bike_id":"75bf11c5-641f-469a-a939-e15e8ea98bf8","system_id":"levelo_inurba_marseille","lat":43.284538,"lon":5.358657,"is_reserved":false,"is_disabled":false,"rental_uris":{"android":"levelo://app?vid=75bf11c5-641f-469a-a939-e15e8ea98bf8","ios":"levelo://app?vid=75bf11c5-641f-469a-a939-e15e8ea98bf8"},"vehicle_type_id":"4","last_reported":1692511675,"current_range_meters":22800,"station_id":"ce4bhah2rcd13ifvqei0","pricing_plan_id":"free"},{"bike_id":"85203a91-9e44-4c4d-a1a3-fc01461dd0f4","system_id":"levelo_inurba_marseille","lat":43.284534,"lon":5.358662,"is_reserved":false,"is_disabled":false,"rental_uris":{"android":"levelo://app?vid=85203a91-9e44-4c4d-a1a3-fc01461dd0f4","ios":"levelo://app?vid=85203a91-9e44-4c4d-a1a3-fc01461dd0f4"},"vehicle_type_id":"4","last_reported":1692511675,"current_range_meters":8800,"station_id":"ce4bhah2rcd13ifvqei0","pricing_plan_id":"free"},{"bike_id":"d4c280b7-86a6-44dc-99a5-8c11b9135797","system_id":"levelo_inurba_marseille","lat":43.284538,"lon":5.358657,"is_reserved":false,"is_disabled":false,"rental_uris":{"android":"levelo://app?vid=d4c280b7-86a6-44dc-99a5-8c11b9135797","ios":"levelo://app?vid=d4c280b7-86a6-44dc-99a5-8c11b9135797"},"vehicle_type_id":"4","last_reported":1692511675,"current_range_meters":21200,"station_id":"ce4bhah2rcd13ifvqei0","pricing_plan_id":"free"},{"bike_id":"a017db76-8965-4fdf-8862-a45a4c40e619","system_id":"levelo_inurba_marseille","lat":43.29447,"lon":5.39746,"is_reserved":false,"is_disabled":false,"rental_uris":{"android":"levelo://app?vid=a017db76-8965-4fdf-8862-a45a4c40e619","ios":"levelo://app?vid=a017db76-8965-4fdf-8862-a45a4c40e619"},"vehicle_type_id":"4","last_reported":1692511675,"current_range_meters":30400,"station_id":"ce4bh3h2rcd13ifvqdo0","pricing_plan_id":"free"},{"bike_id":"0dfed0fa-28a6-45de-87f0-e7588e6707b6","system_id":"levelo_inurba_marseille","lat":43.284534,"lon":5.358662,"is_reserved":false,"is_disabled":false,"rental_uris":{"android":"levelo://app?vid=0dfed0fa-28a6-45de-87f0-e7588e6707b6","ios":"levelo://app?vid=0dfed0fa-28a6-45de-87f0-e7588e6707b6"},"vehicle_type_id":"4","last_reported":1692511675,"current_range_meters":30800,"station_id":"ce4bhah2rcd13ifvqei0","pricing_plan_id":"free"},{"bike_id":"35eec3a1-aa54-4990-8eb4-78e6c0dd24d0","system_id":"levelo_inurba_marseille","lat":43.285856,"lon":5.350771,"is_reserved":false,"is_disabled":false,"rental_uris":{"android":"levelo://app?vid=35eec3a1-aa54-4990-8eb4-78e6c0dd24d0","ios":"levelo://app?vid=35eec3a1-aa54-4990-8eb4-78e6c0dd24d0"},"vehicle_type_id":"4","last_reported":1692511675,"current_range_meters":7200,"station_id":"ce4bhch2rcd13ifvqeug","pricing_plan_id":"free"},{"bike_id":"4f3af883-9c85-447f-800a-3880b1c4bfd9","system_id":"levelo_inurba_marseille","lat":43.28418,"lon":5.37511,"is_reserved":false,"is_disabled":false,"rental_uris":{"android":"levelo://app?vid=4f3af883-9c85-447f-800a-3880b1c4bfd9","ios":"levelo://app?vid=4f3af883-9c85-447f-800a-3880b1c4bfd9"},"vehicle_type_id":"4","last_reported":1692511675,"current_range_meters":6800,"station_id":"ce4bh412rcd13ifvqds0","pricing_plan_id":"free"},{"bike_id":"2363d3b5-6c15-401a-a59c-ee80bd4af927","system_id":"levelo_inurba_marseille","lat":43.28415,"lon":5.37522,"is_reserved":false,"is_disabled":false,"rental_uris":{"android":"levelo://app?vid=2363d3b5-6c15-401a-a59c-ee80bd4af927","ios":"levelo://app?vid=2363d3b5-6c15-401a-a59c-ee80bd4af927"},"vehicle_type_id":"4","last_reported":1692511675,"current_range_meters":18000,"station_id":"ce4bh412rcd13ifvqds0","pricing_plan_id":"free"},{"bike_id":"fc62c0c5-551b-43b8-bfaf-2a81d2428c26","system_id":"levelo_inurba_marseille","lat":43.28414,"lon":5.37518,"is_reserved":false,"is_disabled":false,"rental_uris":{"android":"levelo://app?vid=fc62c0c5-551b-43b8-bfaf-2a81d2428c26","ios":"levelo://app?vid=fc62c0c5-551b-43b8-bfaf-2a81d2428c26"},"vehicle_type_id":"4","last_reported":1692511675,"current_range_meters":16400,"station_id":"ce4bh412rcd13ifvqds0","pricing_plan_id":"free"},{"bike_id":"d9f035da-122a-4bb3-9100-4d19a5e8ac43","system_id":"levelo_inurba_marseille","lat":43.28411,"lon":5.37519,"is_reserved":false,"is_disabled":false,"rental_uris":{"android":"levelo://app?vid=d9f035da-122a-4bb3-9100-4d19a5e8ac43","ios":"levelo://app?vid=d9f035da-122a-4bb3-9100-4d19a5e8ac43"},"vehicle_type_id":"4","last_reported":1692511675,"current_range_meters":30800,"station_id":"ce4bh412rcd13ifvqds0","pricing_plan_id":"free"},{"bike_id":"421edb56-fd9d-4d06-ac51-d7c7fc385f64","system_id":"levelo_inurba_marseille","lat":43.2841,"lon":5.37516,"is_reserved":false,"is_disabled":false,"rental_uris":{"android":"levelo://app?vid=421edb56-fd9d-4d06-ac51-d7c7fc385f64","ios":"levelo://app?vid=421edb56-fd9d-4d06-ac51-d7c7fc385f64"},"vehicle_type_id":"4","last_reported":1692511675,"current_range_meters":30400,"station_id":"ce4bh412rcd13ifvqds0","pricing_plan_id":"free"},{"bike_id":"7e5fed5d-5df4-48c6-bac9-f328ba1c60c5","system_id":"levelo_inurba_marseille","lat":43.28407,"lon":5.37515,"is_reserved":false,"is_disabled":false,"rental_uris":{"android":"levelo://app?vid=7e5fed5d-5df4-48c6-bac9-f328ba1c60c5","ios":"levelo://app?vid=7e5fed5d-5df4-48c6-bac9-f328ba1c60c5"},"vehicle_type_id":"4","last_reported":1692511675,"current_range_meters":30400,"station_id":"ce4bh412rcd13ifvqds0","pricing_plan_id":"free"},{"bike_id":"2ec4ed84-d131-48b0-bdce-16bddb8b680e","system_id":"levelo_inurba_marseille","lat":43.295713,"lon":5.399639,"is_reserved":false,"is_disabled":false,"rental_uris":{"android":"levelo://app?vid=2ec4ed84-d131-48b0-bdce-16bddb8b680e","ios":"levelo://app?vid=2ec4ed84-d131-48b0-bdce-16bddb8b680e"},"vehicle_type_id":"4","last_reported":1692511675,"current_range_meters":31600,"station_id":"ce4bh312rcd13ifvqdj0","pricing_plan_id":"free"},{"bike_id":"2e0eb212-f5e8-48f4-843c-41d24dc183ea","system_id":"levelo_inurba_marseille","lat":43.28405,"lon":5.37522,"is_reserved":false,"is_disabled":false,"rental_uris":{"android":"levelo://app?vid=2e0eb212-f5e8-48f4-843c-41d24dc183ea","ios":"levelo://app?vid=2e0eb212-f5e8-48f4-843c-41d24dc183ea"},"vehicle_type_id":"4","last_reported":1692511675,"current_range_meters":27600,"station_id":"ce4bh412rcd13ifvqds0","pricing_plan_id":"free"},