{"last_updated":1704197566,"ttl":30,"version":"2.2","data":{"bikes":[{"bike_id":"4ca3c03b-77c4-4cab-a5ac-9bdadef7281d","system_id":"levelo_inurba_marseille","lat":43.31341,"lon":5.367098,"is_reserved":false,"is_disabled":false,"rental_uris":{"android":"levelo://app?vid=4ca3c03b-77c4-4cab-a5ac-9bdadef7281d","ios":"levelo://app?vid=4ca3c03b-77c4-4cab-a5ac-9bdadef7281d"},"vehicle_type_id":"4","last_reported":1704197567,"current_range_meters":14000,"station_id":"ce4bgr92rcd13ifvqc6g","pricing_plan_id":"free"},{"bike_id":"0f9aea24-df7b-452e-9ec9-508a486be078","system_id":"levelo_inurba_marseille","lat":43.313391,"lon":5.36706,"is_reserved":false,"is_disabled":false,"rental_uris":{"android":"levelo://app?vid=0f9aea24-df7b-452e-9ec9-508a486be078","ios":"levelo://app?vid=0f9aea24-df7b-452e-9ec9-508a486be078"},"vehicle_type_id":"4","last_reported":1704197567,"current_range_meters":31600,"station_id":"ce4bgr92rcd13ifvqc6g","pricing_plan_id":"free"},{"bike_id":"94815bb6-a315-4397-9caa-22f1e5bd1b4d","system_id":"levelo_inurba_marseille","lat":43.31341,"lon":5.367098,"is_reserved":false,"is_disabled":false,"rental_uris":{"android":"levelo://app?vid=94815bb6-a315-4397-9caa-22f1e5bd1b4d","ios":"levelo://app?vid=94815bb6-a315-4397-9caa-22f1e5bd1b4d"},"vehicle_type_id":"4","last_reported":1704197567,"current_range_meters":26400,"station_id":"ce4bgr92rcd13ifvqc6g","pricing_plan_id":"free"},{"bike_id":"3544ae93-e3f3-4447-9813-9dd1706656b8","system_id":"levelo_inurba_marseille","lat":43.31341,"lon":5.367098,"is_reserved":false,"is_disabled":false,"rental_uris":{"android":"levelo://app?vid=3544ae93-e3f3-4447-9813-9dd1706656b8","ios":"levelo://app?vid=3544ae93-e3f3-4447-9813-9dd1706656b8"},"vehicle_type_id":"4","last_reported":1704197567,"current_range_meters":29600,"station_id":"ce4bgr92rcd13ifvqc6g","pricing_plan_id":"free"},{"bike_id":"50ffb39d-c405-4192-ba10-8fe04060eef3","system_id":"levelo_inurba_marseille","lat":43.31341,"lon":5.367098,"is_reserved":false,"is_disabled":false,"rental_uris":{"android":"levelo://app?vid=50ffb39d-c405-4192-ba10-8fe04060eef3","ios":"levelo://app?vid=50ffb39d-c405-4192-ba10-8fe04060eef3"},"vehicle_type_id":"4","last_reported":1704197567,"current_range_meters":32000,"station_id":"ce4bgr92rcd13ifvqc6g","pricing_plan_id":"free"},{"bike_id":"c1bb20c0-6380-4f3c-aed9-cff20efe3a85","system_id":"levelo_inurba_marseille","lat":43.313391,"lon":5.36706,"is_reserved":false,"is_disabled":false,"rental_uris":{"android":"levelo://app?vid=c1bb20c0-6380-4f3c-aed9-cff20efe3a85","ios":"levelo://app?vid=c1bb20c0-6380-4f3c-aed9-cff20efe3a85"},"vehicle_type_id":"4","last_reported":1704197567,"current_range_meters":27600,"station_id":"ce4bgr92rcd13ifvqc6g","pricing_plan_id":"free"},{"bike_id":"3f6fcf22-34f3-498b-bfaa-b340667e201d","system_id":"levelo_inurba_marseille","lat":43.31341,"lon":5.367098,"is_reserved":false,"is_disabled":false,"rental_uris":{"android":"levelo://app?vid=3f6fcf22-34f3-498b-bfaa-b340667e201d","ios":"levelo://app?vid=3f6fcf22-34f3-498b-bfaa-b340667e201d"},"vehicle_type_id":"4","last_reported":1704197567,"current_range_meters":25200,"station_id":"ce4bgr92rcd13ifvqc6g","pricing_plan_id":"free"},{"bike_id":"8e72b23e-828b-4675-953a-7a07bf4f8706","system_id":"levelo_inurba_marseille","lat":43.31341,"lon":5.367098,"is_reserved":false,"is_disabled":false,"rental_uris":{"android":"levelo://app?vid=8e72b23e-828b-4675-953a-7a07bf4f8706","ios":"levelo://app?vid=8e72b23e-828b-4675-953a-7a07bf4f8706"},"vehicle_type_id":"4","last_reported":1704197567,"current_range_meters":24400,"station_id":"ce4bgr92rcd13ifvqc6g","pricing_plan_id":"free"},{"bike_id":"c1b80ecb-004d-40b8-a66c-0a40d64d44c0","system_id":"levelo_inurba_marseille","lat":43.312239,"lon":5.368562,"is_reserved":false,"is_disabled":false,"rental_uris":{"android":"levelo://app?vid=c1b80ecb-004d-40b8-a66c-0a40d64d44c0","ios":"levelo://app?vid=c1b80ecb-004d-40b8-a66c-0a40d64d44c0"},"vehicle_type_id":"4","last_reported":1704197567,"current_range_meters":13600,"station_id":"ce4bgl92rcd13ifvqbq0","pricing_plan_id":"free"},{"bike_id":"b1f4b770-d8cd-4b5d-8d62-196df1c33ce5","system_id":"levelo_inurba_marseille","lat":43.312239,"lon":5.368562,"is_reserved":false,"is_disabled":false,"rental_uris":{"android":"levelo://app?vid=b1f4b770-d8cd-4b5d-8d62-196df1c33ce5","ios":"levelo://app?vid=b1f4b770-d8cd-4b5d-8d62-196df1c33ce5"},"vehicle_type_id":"4","last_reported":1704197567,"current_range_meters":25600,"station_id":"ce4bgl92rcd13ifvqbq0","pricing_plan_id":"free"},{"bike_id":"ab65979a-b67f-4fcc-9ce8-e9b5f3c8c97e","system_id":"levelo_inurba_marseille","lat":43.312239,"lon":5.368562,"is_reserved":false,"is_disabled":false,"rental_uris":{"android":"levelo://app?vid=ab65979a-b67f-4fcc-9ce8-e9b5f3c8c97e","ios":"levelo://app?vid=ab65979a-b67f-4fcc-9ce8-e9b5f3c8c97e"},"vehicle_type_id":"4","last_reported":1704197567,"current_range_meters":32000,"station_id":"ce4bgl92rcd13ifvqbq0","pricing_plan_id":"free"},{"bike_id":"16e2b7ca-bbc9-4f1f-8d8e-64f8e49944d9","system_id":"levelo_inurba_marseille","lat":43.312239,"lon":5.368562,"is_reserved":false,"is_disabled":false,"rental_uris":{"android":"levelo://app?vid=16e2b7ca-bbc9-4f1f-8d8e-64f8e49944d9","ios":"levelo://app?vid=16e2b7ca-bbc9-4f1f-8d8e-64f8e49944d9"},"vehicle_type_id":"4","last_reported":1704197567,"current_range_meters":31200,"station_id":"ce4bgl92rcd13ifvqbq0","pricing_plan_id":"free"},{"bike_id":"f8515c16-45ec-43ac-86e4-c20f8afafe4d","system_id":"levelo_inurba_marseille","lat":43.312239,"lon":5.368562,"is_reserved":false,"is_disabled":false,"rental_uris":{"android":"levelo://app?vid=f8515c16-45ec-43ac-86e4-c20f8afafe4d","ios":"levelo://app?vid=f8515c16-45ec-43ac-86e4-c20f8afafe4d"},"vehicle_type_id":"4","last_reported":1704197567,"current_range_meters":32000,"station_id":"ce4bgl92rcd13ifvqbq0","pricing_plan_id":"free"},{"bike_id":"35565607-172d-4dea-a0a2-86b98321545b","system_id":"levelo_inurba_marseille","lat":43.312239,"lon":5.368562,"is_reserved":false,"is_disabled":false,"rental_uris":{"android":"levelo://app?vid=35565607-172d-4dea-a0a2-86b98321545b","ios":"levelo://app?vid=35565607-172d-4dea-a0a2-86b98321545b"},"vehicle_type_id":"4","last_reported":1704197567,"current_range_meters":19200,"station_id":"ce4bgl92rcd13ifvqbq0","pricing_plan_id":"free"},{"bike_id":"d84b4337-d35d-4290-a812-d91d2101cf7e","system_id":"levelo_inurba_marseille","lat":43.312239,"lon":5.368562,"is_reserved":false,"is_disabled":false,"rental_uris":{"android":"levelo://app?vid=d84b4337-d35d-4290-a812-d91d2101cf7e","ios":"levelo://app?vid=d84b4337-d35d-4290-a812-d91d2101cf7e"},"vehicle_type_id":"4","last_reported":1704197567,"current_range_meters":24000,"station_id":"ce4bgl92rcd13ifvqbq0","pricing_plan_id":"free"},{"bike_id":"e4ded75e-0c76-422e-a6d9-7bf57e0b6643","system_id":"levelo_inurba_marseille","lat":43.309076,"lon":5.368465,"is_reserved":false,"is_disabled":false,"rental_uris":{"android":"levelo://app?vid=e4ded75e-0c76-422e-a6d9-7bf57e0b6643","ios":"levelo://app?vid=e4ded75e-0c76-422e-a6d9-7bf57e0b6643"},"vehicle_type_id":"4","last_reported":1704197567,"current_range_meters":32000,"station_id":"ce4bgn92rcd13ifvqbvg","pricing_plan_id":"free"},{"bike_id":"b1f544ee-d202-402d-9b9d-fbbdc29578a9","system_id":"levelo_inurba_marseille","lat":43.309076,"lon":5.368465,"is_reserved":false,"is_disabled":false,"rental_uris":{"android":"levelo://app?vid=b1f544ee-d202-402d-9b9d-fbbdc29578a9","ios":"levelo://app?vid=b1f544ee-d202-402d-9b9d-fbbdc29578a9"},"vehicle_type_id":"4","last_reported":1704197567,"current_range_meters":28000,"station_id":"ce4bgn92rcd13ifvqbvg","pricing_plan_id":"free"},{"bike_id":"1e91ba6c-8283-47ea-b797-a2e7408bd0aa","system_id":"levelo_inurba_marseille","lat":43.309076,"lon":5.368465,"is_reserved":false,"is_disabled":false,"rental_uris":{"android":"levelo://app?vid=1e91ba6c-8283-47ea-b797-a2e7408bd0aa","ios":"levelo://app?vid=1e91ba6c-8283-47ea-b797-a2e7408bd0aa"},"vehicle_type_id":"4","last_reported":1704197567,"current_range_meters":31200,"station_id":"ce4bgn92rcd13ifvqbvg","pricing_plan_id":"free"},{"bike_id":"03753275-7fdb-46fb-8df4-86eff7b6fe9f","system_id":"levelo_inurba_marseille","lat":43.309076,"lon":5.368465,"is_reserved":false,"is_disabled":false,"rental_uris":{"android":"levelo://app?vid=03753275-7fdb-46fb-8df4-86eff7b6fe9f","ios":"levelo://app?vid=03753275-7fdb-46fb-8df4-86eff7b6fe9f"},"vehicle_type_id":"4","last_reported":1704197567,"current_range_meters":30000,"station_id":"ce4bgn92rcd13ifvqbvg","pricing_plan_id":"free"},{"bike_id":"8267dbea-2a54-4384-b91d-21cbc74b0c21","system_id":"levelo_inurba_marseille","lat":43.309076,"lon":5.368465,"is_reserved":false,"is_disabled":false,"rental_uris":{"android":"levelo://app?vid=8267dbea-2a54-4384-b91d-21cbc74b0c21","ios":"levelo://app?vid=8267dbea-2a54-4384-b91d-21cbc74b0c21"},"vehicle_type_id":"4","last_reported":1704197567,"current_range_meters":24800,"station_id":"ce4bgn92rcd13ifvqbvg","pricing_plan_id":"free"},{"bike_id":"31552cb0-712b-4b85-8b30-dd172d01c221","system_id":"levelo_inurba_marseille","lat":43.314811,"lon":5.373103,"is_reserved":false,"is_disabled":false,"rental_uris":{"android":"levelo://app?vid=31552cb0-712b-4b85-8b30-dd172d01c221","ios":"levelo://app?vid=31552cb0-712b-4b85-8b30-dd172d01c221"},"vehicle_type_id":"4","last_reported":1704197567,"current_range_meters":27200,"station_id":"ce4bgt12rcd13ifvqcd0","pricing_plan_id":"free"},{"bike_id":"ccdd6085-f6f4-453a-93a6-5204a749986c","system_id":"levelo_inurba_marseille","lat":43.314811,"lon":5.373104,"is_reserved":false,"is_disabled":false,"rental_uris":{"android":"levelo://app?vid=ccdd6085-f6f4-453a-93a6-5204a749986c","ios":"levelo://app?vid=ccdd6085-f6f4-453a-93a6-5204a749986c"},"vehicle_type_id":"4","last_reported":1704197567,"current_range_meters":16000,"station_id":"ce4bgt12rcd13ifvqcd0","pricing_plan_id":"free"},{"bike_id":"89d83627-758b-490c-a8d6-623311fe47b1","system_id":"levelo_inurba_marseille","lat":43.314811,"lon":5.373104,"is_reserved":false,"is_disabled":false,"rental_uris":{"android":"levelo://app?vid=89d83627-758b-490c-a8d6-623311fe47b1","ios":"levelo://app?vid=89d83627-758b-490c-a8d6-623311fe47b1"},"vehicle_type_id":"4","last_reported":1704197567,"current_range_meters":29200,"station_id":"ce4bgt12rcd13ifvqcd0","pricing_plan_id":"free"},{"bike_id":"7382b5da-0d10-40ed-aa01-bea75a98967a","system_id":"levelo_inurba_marseille","lat":43.309039,"lon":5.371797,"is_reserved":false,"is_disabled":false,"rental_uris":{"android":"levelo://app?vid=7382b5da-0d10-40ed-aa01-bea75a98967a","ios":"levelo://app?vid=7382b5da-0d10-40ed-aa01-bea75a98967a"},"vehicle_type_id":"4","last_reported":1704197567,"current_range_meters":24800,"station_id":"ce4bguh2rcd13ifvqckg","pricing_plan_id":"free"},{"bike_id":"bc378bba-9345-44ad-8340-cc5ab12e623f","system_id":"levelo_inurba_marseille","lat":43.305712,"lon":5.365641,"is_reserved":false,"is_disabled":false,"rental_uris":{"android":"levelo://app?vid=bc378bba-9345-44ad-8340-cc5ab12e623f","ios":"levelo://app?vid=bc378bba-9345-44ad-8340-cc5ab12e623f"},"vehicle_type_id":"4","last_reported":1704197567,"current_range_meters":20400,"station_id":"ce4bgs12rcd13ifvqcag","pricing_plan_id":"free"},{"bike_id":"9f69727b-7856-408b-9df7-f6a0c19c260e","system_id":"levelo_inurba_marseille","lat":43.305714,"lon":5.365633,"is_reserved":false,"is_disabled":false,"rental_uris":{"android":"levelo://app?vid=9f69727b-7856-408b-9df7-f6a0c19c260e","ios":"levelo://app?vid=9f69727b-7856-408b-9df7-f6a0c19c260e"},"vehicle_type_id":"4","last_reported":1704197567,"current_range_meters":17200,"station_id":"ce4bgs12rcd13ifvqcag","pricing_plan_id":"free"},{"bike_id":"01a815ad-bef9-4183-b398-27314af7a673","system_id":"levelo_inurba_marseille","lat":43.305368,"lon":5.367343,"is_reserved":false,"is_disabled":false,"rental_uris":{"android":"levelo://app?vid=01a815ad-bef9-4183-b398-27314af7a673","ios":"levelo://app?vid=01a815ad-bef9-4183-b398-27314af7a673"},"vehicle_type_id":"4","last_reported":1704197567,"current_range_meters":27600,"station_id":"ce4bgrp2rcd13ifvqc9g","pricing_plan_id":"free"},{"bike_id":"66606ac8-e12d-4a05-b5a5-b1f3b85138d5","system_id":"levelo_inurba_marseille","lat":43.305706,"lon":5.365654,"is_reserved":false,"is_disabled":false,"rental_uris":{"android":"levelo://app?vid=66606ac8-e12d-4a05-b5a5-b1f3b85138d5","ios":"levelo://app?vid=66606ac8-e12d-4a05-b5a5-b1f3b85138d5"},"vehicle_type_id":"4","last_reported":1704197567,"current_range_meters":30000,"station_id":"ce4bgs12rcd13ifvqcag","pricing_plan_id":"free"},{"bike_id":"b30c0912-cae2-483b-a693-19578ecaab16","system_id":"levelo_inurba_marseille","lat":43.305706,"lon":5.365654,"is_reserved":false,"is_disabled":false,"rental_uris":{"android":"levelo://app?vid=b30c0912-cae2-483b-a693-19578ecaab16","ios":"levelo://app?vid=b30c0912-cae2-483b-a693-19578ecaab16"},"vehicle_type_id":"4","last_reported":1704197567,"current_range_meters":2000,"station_id":"ce4bgs12rcd13ifvqcag","pricing_plan_id":"free"},{"bike_id":"edd189bd-e63f-4880-b785-c1463635efa6","system_id":"levelo_inurba_marseille","lat":43.305706,"lon":5.365654,"is_reserved":false,"is_disabled":false,"rental_uris":{"android":"levelo://app?vid=edd189bd-e63f-4880-b785-c1463635efa6","ios":"levelo://app?vid=edd189bd-e63f-4880-b785-c1463635efa6"},"vehicle_type_id":"4","last_reported":1704197567,"current_range_meters":26000,"station_id":"ce4bgs12rcd13ifvqcag","pricing_plan_id":"free"},{"bike_id":"ac25c690-f8be-438c-a426-5ca9bd06b85e","system_id":"levelo_inurba_marseille","lat":43.305706,"lon":5.365654,"is_reserved":false,"is_disabled":false,"rental_uris":{"android":"levelo://app?vid=ac25c690-f8be-438c-a426-5ca9bd06b85e","ios":"levelo://app?vid=ac25c690-f8be-438c-a426-5ca9bd06b85e"},"vehicle_type_id":"4","last_reported":1704197567,"current_range_meters":30000,"station_id":"ce4bgs12rcd13ifvqcag","pricing_plan_id":"free"},{"bike_id":"de8d4f07-f88a-4365-97c3-5c2dc652ca27","system_id":"levelo_inurba_marseille","lat":43.305989,"lon":5.37225,"is_reserved":false,"is_disabled":false,"rental_uris":{"android":"levelo://app?vid=de8d4f07-f88a-4365-97c3-5c2dc652ca27","ios":"levelo://app?vid=de8d4f07-f88a-4365-97c3-5c2dc652ca27"},"vehicle_type_id":"4","last_reported":1704197567,"current_range_meters":31600,"station_id":"ce4bgqh2rcd13ifvqc4g","pricing_plan_id":"free"},{"bike_id":"1981d35a-1a63-49a0-93e7-3ab3c0d92059","system_id":"levelo_inurba_marseille","lat":43.305368,"lon":5.367343,"is_reserved":false,"is_disabled":false,"rental_uris":{"android":"levelo://app?vid=1981d35a-1a63-49a0-93e7-3ab3c0d92059","ios":"levelo://app?vid=1981d35a-1a63-49a0-93e7-3ab3c0d92059"},"vehicle_type_id":"4","last_reported":1704197567,"current_range_meters":23200,"station_id":"ce4bgrp2rcd13ifvqc9g","pricing_plan_id":"free"},{"bike_id":"94da44d6-c2f1-4f50-b0ff-c581ad324d9e","system_id":"levelo_inurba_marseille","lat":43.305989,"lon":5.37225,"is_reserved":false,"is_disabled":false,"rental_uris":{"android":"levelo://app?vid=94da44d6-c2f1-4f50-b0ff-c581ad324d9e","ios":"levelo://app?vid=94da44d6-c2f1-4f50-b0ff-c581ad324d9e"},"vehicle_type_id":"4","last_reported":1704197567,"current_range_meters":27600,"station_id":"ce4bgqh2rcd13ifvqc4g","pricing_plan_id":"free"},{"bike_id":"25af9e1c-886c-4f64-92f2-5ca68e46ae4a","system_id":"levelo_inurba_marseille","lat":43.31722,"lon":5.37668,"is_reserved":false,"is_disabled":false,"rental_uris":{"android":"levelo://app?vid=25af9e1c-886c-4f64-92f2-5ca68e46ae4a","ios":"levelo://app?vid=25af9e1c-886c-4f64-92f2-5ca68e46ae4a"},"vehicle_type_id":"4","last_reported":1704197567,"current_range_meters":14400,"station_id":"","pricing_plan_id":"free"},{"bike_id":"14d39bfc-027b-4c9d-a17b-7723340cfd9f","system_id":"levelo_inurba_marseille","lat":43.298433,"lon":5.362774,"is_reserved":false,"is_disabled":false,"rental_uris":{"android":"levelo://app?vid=14d39bfc-027b-4c9d-a17b-7723340cfd9f","ios":"levelo://app?vid=14d39bfc-027b-4c9d-a17b-7723340cfd9f"},"vehicle_type_id":"4","last_reported":1704197567,"current_range_meters":27600,"station_id":"ce4bgpp2rcd13ifvqc3g","pricing_plan_id":"free"},{"bike_id":"bf05fe41-776b-4eec-a09f-95527f084f3b","system_id":"levelo_inurba_marseille","lat":43.31532,"lon":5.38038,"is_reserved":false,"is_disabled":false,"rental_uris":{"android":"levelo://app?vid=bf05fe41-776b-4eec-a09f-95527f084f3b","ios":"levelo://app?vid=bf05fe41-776b-4eec-a09f-95527f084f3b"},"vehicle_type_id":"4","last_reported":1704197567,"current_range_meters":22400,"station_id":"ce4bhsp2rcd13ifvqi50","pricing_plan_id":"free"},{"bike_id":"5fca0688-1ddb-4f9e-9a29-b57325fa9134","system_id":"levelo_inurba_marseille","lat":43.301939,"lon":5.366286,"is_reserved":false,"is_disabled":false,"rental_uris":{"android":"levelo://app?vid=5fca0688-1ddb-4f9e-9a29-b57325fa9134","ios":"levelo://app?vid=5fca0688-1ddb-4f9e-9a29-b57325fa9134"},"vehicle_type_id":"4","last_reported":1704197567,"current_range_meters":22400,"station_id":"ce4bgrh2rcd13ifvqc8g","pricing_plan_id":"free"},{"bike_id":"3744887d-fc49-4db2-bec7-b43abe12b694","system_id":"levelo_inurba_marseille","lat":43.301939,"lon":5.366286,"is_reserved":false,"is_disabled":false,"rental_uris":{"android":"levelo://app?vid=3744887d-fc49-4db2-bec7-b43abe12b694","ios":"levelo://app?vid=3744887d-fc49-4db2-bec7-b43abe12b694"},"vehicle_type_id":"4","last_reported":1704197567,"current_range_meters":23600,"station_id":"ce4bgrh2rcd13ifvqc8g","pricing_plan_id":"free"},{"bike_id":"16738c86-0208-4f6c-98be-a487e2dae45d","system_id":"levelo_inurba_marseille","lat":43.308012,"lon":5.381511,"is_reserved":false,"is_disabled":false,"rental_uris":{"android":"levelo://app?vid=16738c86-0208-4f6c-98be-a487e2dae45d","ios":"levelo://app?vid=16738c86-0208-4f6c-98be-a487e2dae45d"},"vehicle_type_id":"4","last_reported":1704197567,"current_range_meters":18800,"station_id":"ce4bgt12rcd13ifvqce0","pricing_plan_id":"free"},{"bike_id":"1d28c124-332e-46c0-805f-c89cd84eb58d","system_id":"levelo_inurba_marseille","lat":43.308012,"lon":5.381511,"is_reserved":false,"is_disabled":false,"rental_uris":{"android":"levelo://app?vid=1d28c124-332e-46c0-805f-c89cd84eb58d","ios":"levelo://app?vid=1d28c124-332e-46c0-805f-c89cd84eb58d"},"vehicle_type_id":"4","last_reported":1704197567,"current_range_meters":4000,"station_id":"ce4bgt12rcd13ifvqce0","pricing_plan_id":"free"},{"bike_id":"5377074b-30e2-4d67-825b-9deb3b1dbed3","system_id":"levelo_inurba_marseille","lat":43.304708,"lon":5.379039,"is_reserved":false,"is_disabled":false,"rental_uris":{"android":"levelo://app?vid=5377074b-30e2-4d67-825b-9deb3b1dbed3","ios":"levelo://app?vid=5377074b-30e2-4d67-825b-9deb3b1dbed3"},"vehicle_type_id":"4","last_reported":1704197567,"current_range_meters":11200,"station_id":"","pricing_plan_id":"free"},{"bike_id":"e8ed4a3b-4438-4018-b3d3-c3d64a945ab6","system_id":"levelo_inurba_marseille","lat":43.304606,"lon":5.379026,"is_reserved":false,"is_disabled":false,"rental_uris":{"android":"levelo://app?vid=e8ed4a3b-4438-4018-b3d3-c3d64a945ab6","ios":"levelo://app?vid=e8ed4a3b-4438-4018-b3d3-c3d64a945ab6"},"vehicle_type_id":"4","last_reported":1704197567,"current_range_meters":28400,"station_id":"ce4bgup2rcd13ifvqcn0","pricing_plan_id":"free"},{"bike_id":"575d9d6a-2088-4e2f-94e1-a2124d0537d8","system_id":"levelo_inurba_marseille","lat":43.304606,"lon":5.379026,"is_reserved":false,"is_disabled":false,"rental_uris":{"android":"levelo://app?vid=575d9d6a-2088-4e2f-94e1-a2124d0537d8","ios":"levelo://app?vid=575d9d6a-2088-4e2f-94e1-a2124d0537d8"},"vehicle_type_id":"4","last_reported":1704197567,"current_range_meters":30400,"station_id":"ce4bgup2rcd13ifvqcn0","pricing_plan_id":"free"},{"bike_id":"22c522dc-a80b-4206-9f4f-800ae9e694b5","system_id":"levelo_inurba_marseille","lat":43.304606,"lon":5.379026,"is_reserved":false,"is_disabled":false,"rental_uris":{"android":"levelo://app?vid=22c522dc-a80b-4206-9f4f-800ae9e694b5","ios":"levelo://app?vid=22c522dc-a80b-4206-9f4f-800ae9e694b5"},"vehicle_type_id":"4","last_reported":1704197567,"current_range_meters":28400,"station_id":"ce4bgup2rcd13ifvqcn0","pricing_plan_id":"free"},{"bike_id":"4c4910a8-b87e-4c13-b856-37ef8615c163","system_id":"levelo_inurba_marseille","lat":43.324759,"lon":5.365608,"is_reserved":false,"is_disabled":false,"rental_uris":{"android":"levelo://app?vid=4c4910a8-b87e-4c13-b856-37ef8615c163","ios":"levelo://app?vid=4c4910a8-b87e-4c13-b856-37ef8615c163"},"vehicle_type_id":"4","last_reported":1704197567,"current_range_meters":19200,"station_id":"ce4bhs12rcd13ifvqhvg","pricing_plan_id":"free"},{"bike_id":"6677fce4-19d4-45b2-9fe8-2ccdce6a480d","system_id":"levelo_inurba_marseille","lat":43.302761,"lon":5.376999,"is_reserved":false,"is_disabled":false,"rental_uris":{"android":"levelo://app?vid=6677fce4-19d4-45b2-9fe8-2ccdce6a480d","ios":"levelo://app?vid=6677fce4-19d4-45b2-9fe8-2ccdce6a480d"},"vehicle_type_id":"4","last_reported":1704197567,"current_range_meters":28400,"station_id":"","pricing_plan_id":"free"},{"bike_id":"53e58bff-5cc2-4fa5-9503-d09da584cb1c","system_id":"levelo_inurba_marseille","lat":43.30143,"lon":5.37413,"is_reserved":false,"is_disabled":false,"rental_uris":{"android":"levelo://app?vid=53e58bff-5cc2-4fa5-9503-d09da584cb1c","ios":"levelo://app?vid=53e58bff-5cc2-4fa5-9503-d09da584cb1c"},"vehicle_type_id":"4","last_reported":1704197567,"current_range_meters":12000,"station_id":"ce4bgs92rcd13ifvqcc0","pricing_plan_id":"free"},{"bike_id":"13acac2f-635d-4ecc-927b-aac5f004c4fe","system_id":"levelo_inurba_marseille","lat":43.301429,"lon":5.37413,"is_reserved":false,"is_disabled":false,"rental_uris":{"android":"levelo://app?vid=13acac2f-635d-4ecc-927b-aac5f004c4fe","ios":"levelo://app?vid=13acac2f-635d-4ecc-927b-aac5f004c4fe"},"vehicle_type_id":"4","last_reported":1704197567,"current_range_meters":29200,"station_id":"ce4bgs92rcd13ifvqcc0","pricing_plan_id":"free"},{"bike_id":"2cc9b7e4-06d1-4c51-a576-c2f751e2f1c3","system_id":"levelo_inurba_marseille","lat":43.30143,"lon":5.37413,"is_reserved":false,"is_disabled":false,"rental_uris":{"android":"levelo://app?vid=2cc9b7e4-06d1-4c51-a576-c2f751e2f1c3","ios":"levelo://app?vid=2cc9b7e4-06d1-4c51-a576-c2f751e2f1c3"},"vehicle_type_id":"4","last_reported":1704197567,"current_range_meters":28400,"station_id":"ce4bgs92rcd13ifvqcc0","pricing_plan_id":"free"},{"bike_id":"fced6129-6121-46df-9d68-095794a7b10a","system_id":"levelo_inurba_marseille","lat":43.301429,"lon":5.37413,"is_reserved":false,"is_disabled":false,"rental_uris":{"android":"levelo://app?vid=fced6129-6121-46df-9d68-095794a7b10a","ios":"levelo://app?vid=fced6129-6121-46df-9d68-095794a7b10a"},"vehicle_type_id":"4","last_reported":1704197567,"current_range_meters":19200,"station_id":"ce4bgs92rcd13ifvqcc0","pricing_plan_id":"free"},{"bike_id":"68d97fea-c490-4a52-8e38-20b449fcd061","system_id":"levelo_inurba_marseille","lat":43.313571,"lon":5.384829,"is_reserved":false,"is_disabled":false,"rental_uris":{"android":"levelo://app?vid=68d97fea-c490-4a52-8e38-20b449fcd061","ios":"levelo://app?vid=68d97fea-c490-4a52-8e38-20b449fcd061"},"vehicle_type_id":"4","last_reported":1704197567,"current_range_meters":29200,"station_id":"ce4bgt92rcd13ifvqcf0","pricing_plan_id":"free"},{"bike_id":"17504bde-947a-4cd6-98b3-9a4c66aca99b","system_id":"levelo_inurba_marseille","lat":43.313827,"lon":5.385007,"is_reserved":false,"is_disabled":false,"rental_uris":{"android":"levelo://app?vid=17504bde-947a-4cd6-98b3-9a4c66aca99b","ios":"levelo://app?vid=17504bde-947a-4cd6-98b3-9a4c66aca99b"},"vehicle_type_id":"4","last_reported":1704197567,"current_range_meters":21200,"station_id":"ce4bgt92rcd13ifvqcf0","pricing_plan_id":"free"},{"bike_id":"231da0ad-0cf5-45a6-97d0-26e7a61bd1b9","system_id":"levelo_inurba_marseille","lat":43.299222,"lon":5.365554,"is_reserved":false,"is_disabled":false,"rental_uris":{"android":"levelo://app?vid=231da0ad-0cf5-45a6-97d0-26e7a61bd1b9","ios":"levelo://app?vid=231da0ad-0cf5-45a6-97d0-26e7a61bd1b9"},"vehicle_type_id":"4","last_reported":1704197567,"current_range_meters":21600,"station_id":"ce4bgm92rcd13ifvqbr0","pricing_plan_id":"free"},{"bike_id":"dcdec2f5-23b5-45ef-86b5-12f5e905a088","system_id":"levelo_inurba_marseille","lat":43.299765,"lon":5.371801,"is_reserved":false,"is_disabled":false,"rental_uris":{"android":"levelo://app?vid=dcdec2f5-23b5-45ef-86b5-12f5e905a088","ios":"levelo://app?vid=dcdec2f5-23b5-45ef-86b5-12f5e905a088"},"vehicle_type_id":"4","last_reported":1704197567,"current_range_meters":18400,"station_id":"","pricing_plan_id":"free"},{"bike_id":"4d169e01-cd59-4322-9249-d9c2568e8930","system_id":"levelo_inurba_marseille","lat":43.299724,"lon":5.371829,"is_reserved":false,"is_disabled":false,"rental_uris":{"android":"levelo://app?vid=4d169e01-cd59-4322-9249-d9c2568e8930","ios":"levelo://app?vid=4d169e01-cd59-4322-9249-d9c2568e8930"},"vehicle_type_id":"4","last_reported":1704197567,"current_range_meters":22800,"station_id":"ce4bgr92rcd13ifvqc7g","pricing_plan_id":"free"},{"bike_id":"d5d394b4-e82c-43cb-929c-0d3667c2749e","system_id":"levelo_inurba_marseille","lat":43.299243,"lon":5.37481,"is_reserved":false,"is_disabled":false,"rental_uris":{"android":"levelo://app?vid=d5d394b4-e82c-43cb-929c-0d3667c2749e","ios":"levelo://app?vid=d5d394b4-e82c-43cb-929c-0d3667c2749e"},"vehicle_type_id":"4","last_reported":1704197567,"current_range_meters":25200,"station_id":"ce4bgjh2rcd13ifvqbg0","pricing_plan_id":"free"},{"bike_id":"2c912897-a0f0-4f8a-a060-cc1bb6c183bf","system_id":"levelo_inurba_marseille","lat":43.311722,"lon":5.387247,"is_reserved":false,"is_disabled":false,"rental_uris":{"android":"levelo://app?vid=2c912897-a0f0-4f8a-a060-cc1bb6c183bf","ios":"levelo://app?vid=2c912897-a0f0-4f8a-a060-cc1bb6c183bf"},"vehicle_type_id":"4","last_reported":1704197567,"current_range_meters":26400,"station_id":"ce4bgv12rcd13ifvqcp0","pricing_plan_id":"free"},{"bike_id":"953621c2-df52-4a1d-9c70-98f28b8d4989","system_id":"levelo_inurba_marseille","lat":43.311722,"lon":5.387247,"is_reserved":false,"is_disabled":false,"rental_uris":{"android":"levelo://app?vid=953621c2-df52-4a1d-9c70-98f28b8d4989","ios":"levelo://app?vid=953621c2-df52-4a1d-9c70-98f28b8d4989"},"vehicle_type_id":"4","last_reported":1704197567,"current_range_meters":23600,"station_id":"ce4bgv12rcd13ifvqcp0","pricing_plan_id":"free"},{"bike_id":"8bdad38a-16ee-4a78-83da-2876f6e2575a","system_id":"levelo_inurba_marseille","lat":43.297774,"lon":5.370875,"is_reserved":false,"is_disabled":false,"rental_uris":{"android":"levelo://app?vid=8bdad38a-16ee-4a78-83da-2876f6e2575a","ios":"levelo://app?vid=8bdad38a-16ee-4a78-83da-2876f6e2575a"},"vehicle_type_id":"4","last_reported":1704197567,"current_range_meters":24800,"station_id":"ce4bgop2rcd13ifvqc1g","pricing_plan_id":"free"},{"bike_id":"d2a0a1d5-193a-41f3-abc5-b5fe2ba15eb3","system_id":"levelo_inurba_marseille","lat":43.305364,"lon":5.384119,"is_reserved":false,"is_disabled":false,"rental_uris":{"android":"levelo://app?vid=d2a0a1d5-193a-41f3-abc5-b5fe2ba15eb3","ios":"levelo://app?vid=d2a0a1d5-193a-41f3-abc5-b5fe2ba15eb3"},"vehicle_type_id":"4","last_reported":1704197567,"current_range_meters":17200,"station_id":"ce4bgg92rcd13ifvqb30","pricing_plan_id":"free"},{"bike_id":"0a99af18-dfe6-49d4-bc90-0038ead01ebf","system_id":"levelo_inurba_marseille","lat":43.328371,"lon":5.366909,"is_reserved":false,"is_disabled":false,"rental_uris":{"android":"levelo://app?vid=0a99af18-dfe6-49d4-bc90-0038ead01ebf","ios":"levelo://app?vid=0a99af18-dfe6-49d4-bc90-0038ead01ebf"},"vehicle_type_id":"4","last_reported":1704197567,"current_range_meters":23600,"station_id":"ce4bhs92rcd13ifvqi0g","pricing_plan_id":"free"},{"bike_id":"370cccf7-c9ba-46c2-819b-c8e8cacc4c21","system_id":"levelo_inurba_marseille","lat":43.3277,"lon":5.37458,"is_reserved":false,"is_disabled":false,"rental_uris":{"android":"levelo://app?vid=370cccf7-c9ba-46c2-819b-c8e8cacc4c21","ios":"levelo://app?vid=370cccf7-c9ba-46c2-819b-c8e8cacc4c21"},"vehicle_type_id":"4","last_reported":1704197567,"current_range_meters":8800,"station_id":"","pricing_plan_id":"free"},{"bike_id":"8562c70f-5fb8-4caa-bb62-c506e55d61cf","system_id":"levelo_inurba_marseille","lat":43.29573,"lon":5.367355,"is_reserved":false,"is_disabled":false,"rental_uris":{"android":"levelo://app?vid=8562c70f-5fb8-4caa-bb62-c506e55d61cf","ios":"levelo://app?vid=8562c70f-5fb8-4caa-bb62-c506e55d61cf"},"vehicle_type_id":"4","last_reported":1704197567,"current_range_meters":26800,"station_id":"ce4bgph2rcd13ifvqc2g","pricing_plan_id":"free"},{"bike_id":"9157f969-ac6a-4a10-8081-21d2fb4fe957","system_id":"levelo_inurba_marseille","lat":43.29573,"lon":5.367355,"is_reserved":false,"is_disabled":false,"rental_uris":{"android":"levelo://app?vid=9157f969-ac6a-4a10-8081-21d2fb4fe957","ios":"levelo://app?vid=9157f969-ac6a-4a10-8081-21d2fb4fe957"},"vehicle_type_id":"4","last_reported":1704197567,"current_range_meters":28800,"station_id":"ce4bgph2rcd13ifvqc2g","pricing_plan_id":"free"},{"bike_id":"b75cc8a0-4081-4f59-96ea-0dd84b28b08d","system_id":"levelo_inurba_marseille","lat":43.29573,"lon":5.367355,"is_reserved":false,"is_disabled":false,"rental_uris":{"android":"levelo://app?vid=b75cc8a0-4081-4f59-96ea-0dd84b28b08d","ios":"levelo://app?vid=b75cc8a0-4081-4f59-96ea-0dd84b28b08d"},"vehicle_type_id":"4","last_reported":1704197567,"current_range_meters":21600,"station_id":"ce4bgph2rcd13ifvqc2g","pricing_plan_id":"free"},{"bike_id":"f2f96cc4-d07e-4508-931f-1214e5579128","system_id":"levelo_inurba_marseille","lat":43.296921,"lon":5.376579,"is_reserved":false,"is_disabled":false,"rental_uris":{"android":"levelo://app?vid=f2f96cc4-d07e-4508-931f-1214e5579128","ios":"levelo://app?vid=f2f96cc4-d07e-4508-931f-1214e5579128"},"vehicle_type_id":"4","last_reported":1704197567,"current_range_meters":20000,"station_id":"ce4bgkh2rcd13ifvqbl0","pricing_plan_id":"free"},{"bike_id":"6fae1fa6-f2a7-492f-9dea-e7c7c22ac1ca","system_id":"levelo_inurba_marseille","lat":43.297262,"lon":5.376936,"is_reserved":false,"is_disabled":false,"rental_uris":{"android":"levelo://app?vid=6fae1fa6-f2a7-492f-9dea-e7c7c22ac1ca","ios":"levelo://app?vid=6fae1fa6-f2a7-492f-9dea-e7c7c22ac1ca"},"vehicle_type_id":"4","last_reported":1704197567,"current_range_meters":27600,"station_id":"ce4bgkh2rcd13ifvqbl0","pricing_plan_id":"free"},{"bike_id":"8aa9507d-935f-41d4-bbc9-57305660be04","system_id":"levelo_inurba_marseille","lat":43.29725,"lon":5.37697,"is_reserved":false,"is_disabled":false,"rental_uris":{"android":"levelo://app?vid=8aa9507d-935f-41d4-bbc9-57305660be04","ios":"levelo://app?vid=8aa9507d-935f-41d4-bbc9-57305660be04"},"vehicle_type_id":"4","last_reported":1704197567,"current_range_meters":16800,"station_id":"ce4bgkh2rcd13ifvqbl0","pricing_plan_id":"free"},{"bike_id":"7b4f5263-c4df-4e40-afe3-fc2bfde43620","system_id":"levelo_inurba_marseille","lat":43.296935,"lon":5.376544,"is_reserved":false,"is_disabled":false,"rental_uris":{"android":"levelo://app?vid=7b4f5263-c4df-4e40-afe3-fc2bfde43620","ios":"levelo://app?vid=7b4f5263-c4df-4e40-afe3-fc2bfde43620"},"vehicle_type_id":"4","last_reported":1704197567,"current_range_meters":30800,"station_id":"ce4bgkh2rcd13ifvqbl0","pricing_plan_id":"free"},{"bike_id":"36989266-de8b-4ad2-9dea-b076aa6a9bfd","system_id":"levelo_inurba_marseille","lat":43.296921,"lon":5.376579,"is_reserved":false,"is_disabled":false,"rental_uris":{"android":"levelo://app?vid=36989266-de8b-4ad2-9dea-b076aa6a9bfd","ios":"levelo://app?vid=36989266-de8b-4ad2-9dea-b076aa6a9bfd"},"vehicle_type_id":"4","last_reported":1704197567,"current_range_meters":3600,"station_id":"ce4bgkh2rcd13ifvqbl0","pricing_plan_id":"free"},{"bike_id":"d089d559-3f2e-48bc-98a7-154866aa7f0a","system_id":"levelo_inurba_marseille","lat":43.299028,"lon":5.381509,"is_reserved":false,"is_disabled":false,"rental_uris":{"android":"levelo://app?vid=d089d559-3f2e-48bc-98a7-154866aa7f0a","ios":"levelo://app?vid=d089d559-3f2e-48bc-98a7-154866aa7f0a"},"vehicle_type_id":"4","last_reported":1704197567,"current_range_meters":31200,"station_id":"ce4bgj12rcd13ifvqbc0","pricing_plan_id":"free"},{"bike_id":"6691f0a1-0046-454e-89c0-abce04d8376c","system_id":"levelo_inurba_marseille","lat":43.299028,"lon":5.381509,"is_reserved":false,"is_disabled":false,"rental_uris":{"android":"levelo://app?vid=6691f0a1-0046-454e-89c0-abce04d8376c","ios":"levelo://app?vid=6691f0a1-0046-454e-89c0-abce04d8376c"},"vehicle_type_id":"4","last_reported":1704197567,"current_range_meters":8800,"station_id":"ce4bgj12rcd13ifvqbc0","pricing_plan_id":"free"},{"bike_id":"d6fc599f-bb14-4acb-a793-fd11ec9e2a44","system_id":"levelo_inurba_marseille","lat":43.299022,"lon":5.38137,"is_reserved":false,"is_disabled":false,"rental_uris":{"android":"levelo://app?vid=d6fc599f-bb14-4acb-a793-fd11ec9e2a44","ios":"levelo://app?vid=d6fc599f-bb14-4acb-a793-fd11ec9e2a44"},"vehicle_type_id":"4","last_reported":1704197567,"current_range_meters":19600,"station_id":"ce4bgj12rcd13ifvqbc0","pricing_plan_id":"free"},{"bike_id":"8678fd13-05b5-4a59-a095-eea5133e8538","system_id":"levelo_inurba_marseille","lat":43.299028,"lon":5.381509,"is_reserved":false,"is_disabled":false,"rental_uris":{"android":"levelo://app?vid=8678fd13-05b5-4a59-a095-eea5133e8538","ios":"levelo://app?vid=8678fd13-05b5-4a59-a095-eea5133e8538"},"vehicle_type_id":"4","last_reported":1704197567,"current_range_meters":26400,"station_id":"ce4bgj12rcd13ifvqbc0","pricing_plan_id":"free"},{"bike_id":"dfad2dab-f0b6-4a6d-80e3-34ab7831b287","system_id":"levelo_inurba_marseille","lat":43.299028,"lon":5.381509,"is_reserved":false,"is_disabled":false,"rental_uris":{"android":"levelo://app?vid=dfad2dab-f0b6-4a6d-80e3-34ab7831b287","ios":"levelo://app?vid=dfad2dab-f0b6-4a6d-80e3-34ab7831b287"},"vehicle_type_id":"4","last_reported":1704197567,"current_range_meters":14800,"station_id":"ce4bgj12rcd13ifvqbc0","pricing_plan_id":"free"},{"bike_id":"934df303-6780-4e74-997f-0f9cc28c8803","system_id":"levelo_inurba_marseille","lat":43.299028,"lon":5.381509,"is_reserved":false,"is_disabled":false,"rental_uris":{"android":"levelo://app?vid=934df303-6780-4e74-997f-0f9cc28c8803","ios":"levelo://app?vid=934df303-6780-4e74-997f-0f9cc28c8803"},"vehicle_type_id":"4","last_reported":1704197567,"current_range_meters":25200,"station_id":"ce4bgj12rcd13ifvqbc0","pricing_plan_id":"free"},{"bike_id":"398ecf67-9819-4c6c-8dce-a90ffd28c19e","system_id":"levelo_inurba_marseille","lat":43.309589,"lon":5.390258,"is_reserved":false,"is_disabled":false,"rental_uris":{"android":"levelo://app?vid=398ecf67-9819-4c6c-8dce-a90ffd28c19e","ios":"levelo://app?vid=398ecf67-9819-4c6c-8dce-a90ffd28c19e"},"vehicle_type_id":"4","last_reported":1704197567,"current_range_meters":30400,"station_id":"ce4bgup2rcd13ifvqco0","pricing_plan_id":"free"},{"bike_id":"1059a3e9-8f9a-49c8-bf4f-1d6ec740643a","system_id":"levelo_inurba_marseille","lat":43.29882,"lon":5.38139,"is_reserved":false,"is_disabled":false,"rental_uris":{"android":"levelo://app?vid=1059a3e9-8f9a-49c8-bf4f-1d6ec740643a","ios":"levelo://app?vid=1059a3e9-8f9a-49c8-bf4f-1d6ec740643a"},"vehicle_type_id":"4","last_reported":1704197567,"current_range_meters":10800,"station_id":"","pricing_plan_id":"free"},{"bike_id":"3b2dd60e-9e72-4c75-885a-eede1525b37c","system_id":"levelo_inurba_marseille","lat":43.29578,"lon":5.37501,"is_reserved":false,"is_disabled":false,"rental_uris":{"android":"levelo://app?vid=3b2dd60e-9e72-4c75-885a-eede1525b37c","ios":"levelo://app?vid=3b2dd60e-9e72-4c75-885a-eede1525b37c"},"vehicle_type_id":"4","last_reported":1704197567,"current_range_meters":30000,"station_id":"ce4bgh92rcd13ifvqb50","pricing_plan_id":"free"},{"bike_id":"f96b2ac2-5174-4688-a555-8cc956f97da8","system_id":"levelo_inurba_marseille","lat":43.295748,"lon":5.37522,"is_reserved":false,"is_disabled":false,"rental_uris":{"android":"levelo://app?vid=f96b2ac2-5174-4688-a555-8cc956f97da8","ios":"levelo://app?vid=f96b2ac2-5174-4688-a555-8cc956f97da8"},"vehicle_type_id":"4","last_reported":1704197567,"current_range_meters":31600,"station_id":"ce4bgh92rcd13ifvqb50","pricing_plan_id":"free"},{"bike_id":"8bbc712c-fea1-4d82-b159-8e5679417662","system_id":"levelo_inurba_marseille","lat":43.295748,"lon":5.37522,"is_reserved":false,"is_disabled":false,"rental_uris":{"android":"levelo://app?vid=8bbc712c-fea1-4d82-b159-8e5679417662","ios":"levelo://app?vid=8bbc712c-fea1-4d82-b159-8e5679417662"},"vehicle_type_id":"4","last_reported":1704197567,"current_range_meters":30000,"station_id":"ce4bgh92rcd13ifvqb50","pricing_plan_id":"free"},{"bike_id":"69598bc9-7659-4067-916d-814899b3a554","system_id":"levelo_inurba_marseille","lat":43.296263,"lon":5.377094,"is_reserved":false,"is_disabled":false,"rental_uris":{"android":"levelo://app?vid=69598bc9-7659-4067-916d-814899b3a554","ios":"levelo://app?vid=69598bc9-7659-4067-916d-814899b3a554"},"vehicle_type_id":"4","last_reported":1704197567,"current_range_meters":16400,"station_id":"ce4bgi92rcd13ifvqb90","pricing_plan_id":"free"},{"bike_id":"d60802d6-4f47-444a-b234-883690eec05b","system_id":"levelo_inurba_marseille","lat":43.33062,"lon":5.3627,"is_reserved":false,"is_disabled":false,"rental_uris":{"android":"levelo://app?vid=d60802d6-4f47-444a-b234-883690eec05b","ios":"levelo://app?vid=d60802d6-4f47-444a-b234-883690eec05b"},"vehicle_type_id":"4","last_reported":1704197567,"current_range_meters":16000,"station_id":"","pricing_plan_id":"free"},{"bike_id":"f67b4ce4-0c9c-4cd2-b119-b472dfee5204","system_id":"levelo_inurba_marseille","lat":43.29538,"lon":5.375,"is_reserved":false,"is_disabled":false,"rental_uris":{"android":"levelo://app?vid=f67b4ce4-0c9c-4cd2-b119-b472dfee5204","ios":"levelo://app?vid=f67b4ce4-0c9c-4cd2-b119-b472dfee5204"},"vehicle_type_id":"4","last_reported":1704197567,"current_range_meters":22000,"station_id":"ce4bgi92rcd13ifvqb90","pricing_plan_id":"free"},{"bike_id":"7119845d-00aa-4d9f-be8c-fc97d41f1380","system_id":"levelo_inurba_marseille","lat":43.297594,"lon":5.381134,"is_reserved":false,"is_disabled":false,"rental_uris":{"android":"levelo://app?vid=7119845d-00aa-4d9f-be8c-fc97d41f1380","ios":"levelo://app?vid=7119845d-00aa-4d9f-be8c-fc97d41f1380"},"vehicle_type_id":"4","last_reported":1704197567,"current_range_meters":4400,"station_id":"ce4bgip2rcd13ifvqbb0","pricing_plan_id":"free"},{"bike_id":"adc6cb98-8dcc-4ab3-855d-569c025a5ced","system_id":"levelo_inurba_marseille","lat":43.32367,"lon":5.388836,"is_reserved":false,"is_disabled":false,"rental_uris":{"android":"levelo://app?vid=adc6cb98-8dcc-4ab3-855d-569c025a5ced","ios":"levelo://app?vid=adc6cb98-8dcc-4ab3-855d-569c025a5ced"},"vehicle_type_id":"4","last_reported":1704197567,"current_range_meters":26800,"station_id":"ce4bhqp2rcd13ifvqhog","pricing_plan_id":"free"},{"bike_id":"06880a87-1d2f-452a-aea3-1c4b96cf9b3f","system_id":"levelo_inurba_marseille","lat":43.32367,"lon":5.388836,"is_reserved":false,"is_disabled":false,"rental_uris":{"android":"levelo://app?vid=06880a87-1d2f-452a-aea3-1c4b96cf9b3f","ios":"levelo://app?vid=06880a87-1d2f-452a-aea3-1c4b96cf9b3f"},"vehicle_type_id":"4","last_reported":1704197567,"current_range_meters":21600,"station_id":"ce4bhqp2rcd13ifvqhog","pricing_plan_id":"free"},{"bike_id":"9061aec6-e2b8-41cf-af97-c70b836f27d4","system_id":"levelo_inurba_marseille","lat":43.29601,"lon":5.381084,"is_reserved":false,"is_disabled":false,"rental_uris":{"android":"levelo://app?vid=9061aec6-e2b8-41cf-af97-c70b836f27d4","ios":"levelo://app?vid=9061aec6-e2b8-41cf-af97-c70b836f27d4"},"vehicle_type_id":"4","last_reported":1704197567,"current_range_meters":16000,"station_id":"ce4bgl12rcd13ifvqbo0","pricing_plan_id":"free"},{"bike_id":"09aa56a9-98e3-4db0-bbbb-928ce68adb0d","system_id":"levelo_inurba_marseille","lat":43.29601,"lon":5.381084,"is_reserved":false,"is_disabled":false,"rental_uris":{"android":"levelo://app?vid=09aa56a9-98e3-4db0-bbbb-928ce68adb0d","ios":"levelo://app?vid=09aa56a9-98e3-4db0-bbbb-928ce68adb0d"},"vehicle_type_id":"4","last_reported":1704197567,"current_range_meters":18400,"station_id":"ce4bgl12rcd13ifvqbo0","pricing_plan_id":"free"},{"bike_id":"fa1df77d-b470-4e99-a292-2f51a0ad3c05","system_id":"levelo_inurba_marseille","lat":43.302759,"lon":5.400793,"is_reserved":false,"is_disabled":false,"rental_uris":{"android":"levelo://app?vid=fa1df77d-b470-4e99-a292-2f51a0ad3c05","ios":"levelo://app?vid=fa1df77d-b470-4e99-a292-2f51a0ad3c05"},"vehicle_type_id":"4","last_reported":1704197567,"current_range_meters":28800,"station_id":"ce4bgvh2rcd13ifvqcs0","pricing_plan_id":"free"},{"bike_id":"bae3db67-92d7-4c5c-a9e5-2f7d1403ff8b","system_id":"levelo_inurba_marseille","lat":43.29601,"lon":5.381084,"is_reserved":false,"is_disabled":false,"rental_uris":{"android":"levelo://app?vid=bae3db67-92d7-4c5c-a9e5-2f7d1403ff8b","ios":"levelo://app?vid=bae3db67-92d7-4c5c-a9e5-2f7d1403ff8b"},"vehicle_type_id":"4","last_reported":1704197567,"current_range_meters":400,"station_id":"ce4bgl12rcd13ifvqbo0","pricing_plan_id":"free"},{"bike_id":"e41db039-5c96-4bc5-8392-5ee004b397e7","system_id":"levelo_inurba_marseille","lat":43.293259,"lon":5.371586,"is_reserved":false,"is_disabled":false,"rental_uris":{"android":"levelo://app?vid=e41db039-5c96-4bc5-8392-5ee004b397e7","ios":"levelo://app?vid=e41db039-5c96-4bc5-8392-5ee004b397e7"},"vehicle_type_id":"4","last_reported":1704197567,"current_range_meters":9600,"station_id":"ce4bgh92rcd13ifvqb40","pricing_plan_id":"free"},{"bike_id":"3f1f7f1a-d122-481b-be02-2ecb45c1fca3","system_id":"levelo_inurba_marseille","lat":43.293259,"lon":5.371586,"is_reserved":false,"is_disabled":false,"rental_uris":{"android":"levelo://app?vid=3f1f7f1a-d122-481b-be02-2ecb45c1fca3","ios":"levelo://app?vid=3f1f7f1a-d122-481b-be02-2ecb45c1fca3"},"vehicle_type_id":"4","last_reported":1704197567,"current_range_meters":17200,"station_id":"ce4bgh92rcd13ifvqb40","pricing_plan_id":"free"},{"bike_id":"30ab8e9f-a28e-4313-8d23-3291530b3a70","system_id":"levelo_inurba_marseille","lat":43.292749,"lon":5.368402,"is_reserved":false,"is_disabled":false,"rental_uris":{"android":"levelo://app?vid=30ab8e9f-a28e-4313-8d23-3291530b3a70","ios":"levelo://app?vid=30ab8e9f-a28e-4313-8d23-3291530b3a70"},"vehicle_type_id":"4","last_reported":1704197567,"current_range_meters":10000,"station_id":"ce4bhbp2rcd13ifvqesg","pricing_plan_id":"free"},{"bike_id":"ba35a09f-2233-46a6-8121-64579987a8de","system_id":"levelo_inurba_marseille","lat":43.292749,"lon":5.368402,"is_reserved":false,"is_disabled":false,"rental_uris":{"android":"levelo://app?vid=ba35a09f-2233-46a6-8121-64579987a8de","ios":"levelo://app?vid=ba35a09f-2233-46a6-8121-64579987a8de"},"vehicle_type_id":"4","last_reported":1704197567,"current_range_meters":29600,"station_id":"ce4bhbp2rcd13ifvqesg","pricing_plan_id":"free"},{"bike_id":"050cca44-6b83-461b-ba70-4fa978d140cc","system_id":"levelo_inurba_marseille","lat":43.292749,"lon":5.368402,"is_reserved":false,"is_disabled":false,"rental_uris":{"android":"levelo://app?vid=050cca44-6b83-461b-ba70-4fa978d140cc","ios":"levelo://app?vid=050cca44-6b83-461b-ba70-4fa978d140cc"},"vehicle_type_id":"4","last_reported":1704197567,"current_range_meters":19600,"station_id":"ce4bhbp2rcd13ifvqesg","pricing_plan_id":"free"},{"bike_id":"bd8e1d8e-3962-4e29-940d-48ef9eef38f0","system_id":"levelo_inurba_marseille","lat":43.293009,"lon":5.374584,"is_reserved":false,"is_disabled":false,"rental_uris":{"android":"levelo://app?vid=bd8e1d8e-3962-4e29-940d-48ef9eef38f0","ios":"levelo://app?vid=bd8e1d8e-3962-4e29-940d-48ef9eef38f0"},"vehicle_type_id":"4","last_reported":1704197567,"current_range_meters":18400,"station_id":"ce4bgi12rcd13ifvqb70","pricing_plan_id":"free"},{"bike_id":"fc6d6354-6289-4081-91da-265a778f9370","system_id":"levelo_inurba_marseille","lat":43.293009,"lon":5.374584,"is_reserved":false,"is_disabled":false,"rental_uris":{"android":"levelo://app?vid=fc6d6354-6289-4081-91da-265a778f9370","ios":"levelo://app?vid=fc6d6354-6289-4081-91da-265a778f9370"},"vehicle_type_id":"4","last_reported":1704197567,"current_range_meters":11600,"station_id":"ce4bgi12rcd13ifvqb70","pricing_plan_id":"free"},{"bike_id":"d27a11fe-2c9a-4dec-aeef-c3da514ec55d","system_id":"levelo_inurba_marseille","lat":43.2936,"lon":5.37835,"is_reserved":false,"is_disabled":false,"rental_uris":{"android":"levelo://app?vid=d27a11fe-2c9a-4dec-aeef-c3da514ec55d","ios":"levelo://app?vid=d27a11fe-2c9a-4dec-aeef-c3da514ec55d"},"vehicle_type_id":"4","last_reported":1704197567,"current_range_meters":12800,"station_id":"ce4bgjh2rcd13ifvqbf0","pricing_plan_id":"free"},{"bike_id":"1a1481de-040b-486d-8984-45afdbe85ebb","system_id":"levelo_inurba_marseille","lat":43.29253,"lon":5.3739,"is_reserved":false,"is_disabled":false,"rental_uris":{"android":"levelo://app?vid=1a1481de-040b-486d-8984-45afdbe85ebb","ios":"levelo://app?vid=1a1481de-040b-486d-8984-45afdbe85ebb"},"vehicle_type_id":"4","last_reported":1704197567,"current_range_meters":16400,"station_id":"","pricing_plan_id":"free"},{"bike_id":"41412e25-f165-40f3-a976-91fb80b9b0ec","system_id":"levelo_inurba_marseille","lat":43.292311,"lon":5.360731,"is_reserved":false,"is_disabled":false,"rental_uris":{"android":"levelo://app?vid=41412e25-f165-40f3-a976-91fb80b9b0ec","ios":"levelo://app?vid=41412e25-f165-40f3-a976-91fb80b9b0ec"},"vehicle_type_id":"4","last_reported":1704197567,"current_range_meters":24000,"station_id":"ce4bhbh2rcd13ifvqeqg","pricing_plan_id":"free"},{"bike_id":"f4cec07f-16dd-4612-82b0-9b0b850dded3","system_id":"levelo_inurba_marseille","lat":43.29263,"lon":5.37623,"is_reserved":false,"is_disabled":false,"rental_uris":{"android":"levelo://app?vid=f4cec07f-16dd-4612-82b0-9b0b850dded3","ios":"levelo://app?vid=f4cec07f-16dd-4612-82b0-9b0b850dded3"},"vehicle_type_id":"4","last_reported":1704197567,"current_range_meters":22000,"station_id":"ce4bgi12rcd13ifvqb70","pricing_plan_id":"free"},{"bike_id":"3d0b347f-6953-4256-8b00-c38b2c51f848","system_id":"levelo_inurba_marseille","lat":43.291675,"lon":5.371583,"is_reserved":false,"is_disabled":false,"rental_uris":{"android":"levelo://app?vid=3d0b347f-6953-4256-8b00-c38b2c51f848","ios":"levelo://app?vid=3d0b347f-6953-4256-8b00-c38b2c51f848"},"vehicle_type_id":"4","last_reported":1704197567,"current_range_meters":20000,"station_id":"ce4bha92rcd13ifvqeh0","pricing_plan_id":"free"},{"bike_id":"1441c9d2-49c5-43f6-accd-b1b702c6507c","system_id":"levelo_inurba_marseille","lat":43.291675,"lon":5.371583,"is_reserved":false,"is_disabled":false,"rental_uris":{"android":"levelo://app?vid=1441c9d2-49c5-43f6-accd-b1b702c6507c","ios":"levelo://app?vid=1441c9d2-49c5-43f6-accd-b1b702c6507c"},"vehicle_type_id":"4","last_reported":1704197567,"current_range_meters":31600,"station_id":"ce4bha92rcd13ifvqeh0","pricing_plan_id":"free"},{"bike_id":"44661b12-8208-43fd-a507-bab2b483f65e","system_id":"levelo_inurba_marseille","lat":43.291675,"lon":5.371583,"is_reserved":false,"is_disabled":false,"rental_uris":{"android":"levelo://app?vid=44661b12-8208-43fd-a507-bab2b483f65e","ios":"levelo://app?vid=44661b12-8208-43fd-a507-bab2b483f65e"},"vehicle_type_id":"4","last_reported":1704197567,"current_range_meters":25200,"station_id":"ce4bha92rcd13ifvqeh0","pricing_plan_id":"free"},{"bike_id":"b867ee5d-18ed-4142-b5f4-c3f22497a1ef","system_id":"levelo_inurba_marseille","lat":43.291671,"lon":5.371575,"is_reserved":false,"is_disabled":false,"rental_uris":{"android":"levelo://app?vid=b867ee5d-18ed-4142-b5f4-c3f22497a1ef","ios":"levelo://app?vid=b867ee5d-18ed-4142-b5f4-c3f22497a1ef"},"vehicle_type_id":"4","last_reported":1704197567,"current_range_meters":16000,"station_id":"ce4bha92rcd13ifvqeh0","pricing_plan_id":"free"},{"bike_id":"51d3d695-cd75-4377-baa5-d4d3a0a0be3b","system_id":"levelo_inurba_marseille","lat":43.313291,"lon":5.396838,"is_reserved":false,"is_disabled":false,"rental_uris":{"android":"levelo://app?vid=51d3d695-cd75-4377-baa5-d4d3a0a0be3b","ios":"levelo://app?vid=51d3d695-cd75-4377-baa5-d4d3a0a0be3b"},"vehicle_type_id":"4","last_reported":1704197567,"current_range_meters":28000,"station_id":"ce4bgvp2rcd13ifvqcu0","pricing_plan_id":"free"},{"bike_id":"1142f7a3-aa84-4a1a-9be4-f9657f2b15ad","system_id":"levelo_inurba_marseille","lat":43.305364,"lon":5.384119,"is_reserved":false,"is_disabled":false,"rental_uris":{"android":"levelo://app?vid=1142f7a3-aa84-4a1a-9be4-f9657f2b15ad","ios":"levelo://app?vid=1142f7a3-aa84-4a1a-9be4-f9657f2b15ad"},"vehicle_type_id":"4","last_reported":1704197567,"current_range_meters":27200,"station_id":"ce4bgg92rcd13ifvqb30","pricing_plan_id":"free"},{"bike_id":"477daa15-a0c0-4c18-a0cc-9701079817aa","system_id":"levelo_inurba_marseille","lat":43.313291,"lon":5.396838,"is_reserved":false,"is_disabled":false,"rental_uris":{"android":"levelo://app?vid=477daa15-a0c0-4c18-a0cc-9701079817aa","ios":"levelo://app?vid=477daa15-a0c0-4c18-a0cc-9701079817aa"},"vehicle_type_id":"4","last_reported":1704197567,"current_range_meters":26800,"station_id":"ce4bgvp2rcd13ifvqcu0","pricing_plan_id":"free"},{"bike_id":"13f5c904-4918-456b-95fc-24794c373204","system_id":"levelo_inurba_marseille","lat":43.29529,"lon":5.385581,"is_reserved":false,"is_disabled":false,"rental_uris":{"android":"levelo://app?vid=13f5c904-4918-456b-95fc-24794c373204","ios":"levelo://app?vid=13f5c904-4918-456b-95fc-24794c373204"},"vehicle_type_id":"4","last_reported":1704197567,"current_range_meters":26000,"station_id":"ce4bgih2rcd13ifvqba0","pricing_plan_id":"free"},{"bike_id":"426ca8ba-c3ef-427f-b806-ed33bccfe88c","system_id":"levelo_inurba_marseille","lat":43.302008,"lon":5.394694,"is_reserved":false,"is_disabled":false,"rental_uris":{"android":"levelo://app?vid=426ca8ba-c3ef-427f-b806-ed33bccfe88c","ios":"levelo://app?vid=426ca8ba-c3ef-427f-b806-ed33bccfe88c"},"vehicle_type_id":"4","last_reported":1704197567,"current_range_meters":26800,"station_id":"ce4bh0p2rcd13ifvqd70","pricing_plan_id":"free"},{"bike_id":"18c999f1-3292-4a5a-8ab8-d4f967f0abbf","system_id":"levelo_inurba_marseille","lat":43.290631,"lon":5.359244,"is_reserved":false,"is_disabled":false,"rental_uris":{"android":"levelo://app?vid=18c999f1-3292-4a5a-8ab8-d4f967f0abbf","ios":"levelo://app?vid=18c999f1-3292-4a5a-8ab8-d4f967f0abbf"},"vehicle_type_id":"4","last_reported":1704197567,"current_range_meters":28400,"station_id":"ce4bha92rcd13ifvqeg0","pricing_plan_id":"free"},{"bike_id":"bfc4df51-efd7-412f-8c63-fabb807818f1","system_id":"levelo_inurba_marseille","lat":43.294162,"lon":5.386292,"is_reserved":false,"is_disabled":false,"rental_uris":{"android":"levelo://app?vid=bfc4df51-efd7-412f-8c63-fabb807818f1","ios":"levelo://app?vid=bfc4df51-efd7-412f-8c63-fabb807818f1"},"vehicle_type_id":"4","last_reported":1704197567,"current_range_meters":23200,"station_id":"ce4bh2h2rcd13ifvqdh0","pricing_plan_id":"free"},{"bike_id":"eb925b4a-854e-4a29-92b9-c27abaef80fc","system_id":"levelo_inurba_marseille","lat":43.290327,"lon":5.375711,"is_reserved":false,"is_disabled":false,"rental_uris":{"android":"levelo://app?vid=eb925b4a-854e-4a29-92b9-c27abaef80fc","ios":"levelo://app?vid=eb925b4a-854e-4a29-92b9-c27abaef80fc"},"vehicle_type_id":"4","last_reported":1704197567,"current_range_meters":25200,"station_id":"ce4bh692rcd13ifvqe90","pricing_plan_id":"free"},{"bike_id":"2a0cda84-362a-4367-8870-ea848f62b676","system_id":"levelo_inurba_marseille","lat":43.289184,"lon":5.366408,"is_reserved":false,"is_disabled":false,"rental_uris":{"android":"levelo://app?vid=2a0cda84-362a-4367-8870-ea848f62b676","ios":"levelo://app?vid=2a0cda84-362a-4367-8870-ea848f62b676"},"vehicle_type_id":"4","last_reported":1704197567,"current_range_meters":26000,"station_id":"ce4bhap2rcd13ifvqek0","pricing_plan_id":"free"},{"bike_id":"60d022bb-2cd2-4657-b812-7f04e77d4327","system_id":"levelo_inurba_marseille","lat":43.289184,"lon":5.366408,"is_reserved":false,"is_disabled":false,"rental_uris":{"android":"levelo://app?vid=60d022bb-2cd2-4657-b812-7f04e77d4327","ios":"levelo://app?vid=60d022bb-2cd2-4657-b812-7f04e77d4327"},"vehicle_type_id":"4","last_reported":1704197567,"current_range_meters":18800,"station_id":"ce4bhap2rcd13ifvqek0","pricing_plan_id":"free"},{"bike_id":"6c5a4555-8966-4d75-93c8-fec294e77f97","system_id":"levelo_inurba_marseille","lat":43.289184,"lon":5.366408,"is_reserved":false,"is_disabled":false,"rental_uris":{"android":"levelo://app?vid=6c5a4555-8966-4d75-93c8-fec294e77f97","ios":"levelo://app?vid=6c5a4555-8966-4d75-93c8-fec294e77f97"},"vehicle_type_id":"4","last_reported":1704197567,"current_range_meters":23600,"station_id":"ce4bhap2rcd13ifvqek0","pricing_plan_id":"free"},{"bike_id":"a1d67c86-cb80-4b08-8583-7fd66adde98c","system_id":"levelo_inurba_marseille","lat":43.292644,"lon":5.384257,"is_reserved":false,"is_disabled":false,"rental_uris":{"android":"levelo://app?vid=a1d67c86-cb80-4b08-8583-7fd66adde98c","ios":"levelo://app?vid=a1d67c86-cb80-4b08-8583-7fd66adde98c"},"vehicle_type_id":"4","last_reported":1704197567,"current_range_meters":21600,"station_id":"ce4bh692rcd13ifvqea0","pricing_plan_id":"free"},{"bike_id":"32f9cd44-0c40-4b88-9a94-a5def52681f8","system_id":"levelo_inurba_marseille","lat":43.290995,"lon":5.381361,"is_reserved":false,"is_disabled":false,"rental_uris":{"android":"levelo://app?vid=32f9cd44-0c40-4b88-9a94-a5def52681f8","ios":"levelo://app?vid=32f9cd44-0c40-4b88-9a94-a5def52681f8"},"vehicle_type_id":"4","last_reported":1704197567,"current_range_meters":25600,"station_id":"ce4bh512rcd13ifvqe2g","pricing_plan_id":"free"},{"bike_id":"baae62ef-a6c1-49e4-a4d8-0187bb5cfe3a","system_id":"levelo_inurba_marseille","lat":43.295169,"lon":5.390426,"is_reserved":false,"is_disabled":false,"rental_uris":{"android":"levelo://app?vid=baae62ef-a6c1-49e4-a4d8-0187bb5cfe3a","ios":"levelo://app?vid=baae62ef-a6c1-49e4-a4d8-0187bb5cfe3a"},"vehicle_type_id":"4","last_reported":1704197567,"current_range_meters":22400,"station_id":"ce4bh3p2rcd13ifvqdp0","pricing_plan_id":"free"},{"bike_id":"13d41c86-d361-4b17-ae49-6b5491dd4e85","system_id":"levelo_inurba_marseille","lat":43.330442,"lon":5.389148,"is_reserved":false,"is_disabled":false,"rental_uris":{"android":"levelo://app?vid=13d41c86-d361-4b17-ae49-6b5491dd4e85","ios":"levelo://app?vid=13d41c86-d361-4b17-ae49-6b5491dd4e85"},"vehicle_type_id":"4","last_reported":1704197567,"current_range_meters":24400,"station_id":"ce4bhr92rcd13ifvqhrg","pricing_plan_id":"free"},{"bike_id":"bf59a622-22de-4742-9de1-ad6cb8c691a7","system_id":"levelo_inurba_marseille","lat":43.295169,"lon":5.390426,"is_reserved":false,"is_disabled":false,"rental_uris":{"android":"levelo://app?vid=bf59a622-22de-4742-9de1-ad6cb8c691a7","ios":"levelo://app?vid=bf59a622-22de-4742-9de1-ad6cb8c691a7"},"vehicle_type_id":"4","last_reported":1704197567,"current_range_meters":1600,"station_id":"ce4bh3p2rcd13ifvqdp0","pricing_plan_id":"free"},{"bike_id":"3c0073bf-11cb-4a00-b1c7-db34eca465f7","system_id":"levelo_inurba_marseille","lat":43.28856,"lon":5.358371,"is_reserved":false,"is_disabled":false,"rental_uris":{"android":"levelo://app?vid=3c0073bf-11cb-4a00-b1c7-db34eca465f7","ios":"levelo://app?vid=3c0073bf-11cb-4a00-b1c7-db34eca465f7"},"vehicle_type_id":"4","last_reported":1704197567,"current_range_meters":19200,"station_id":"ce4bhb12rcd13ifvqem0","pricing_plan_id":"free"},{"bike_id":"b6760735-96db-493f-a7f3-551494815c1a","system_id":"levelo_inurba_marseille","lat":43.28856,"lon":5.358371,"is_reserved":false,"is_disabled":false,"rental_uris":{"android":"levelo://app?vid=b6760735-96db-493f-a7f3-551494815c1a","ios":"levelo://app?vid=b6760735-96db-493f-a7f3-551494815c1a"},"vehicle_type_id":"4","last_reported":1704197567,"current_range_meters":16000,"station_id":"ce4bhb12rcd13ifvqem0","pricing_plan_id":"free"},{"bike_id":"9c05b357-4a72-4d70-a376-c9a0ff723f71","system_id":"levelo_inurba_marseille","lat":43.301117,"lon":5.398795,"is_reserved":false,"is_disabled":false,"rental_uris":{"android":"levelo://app?vid=9c05b357-4a72-4d70-a376-c9a0ff723f71","ios":"levelo://app?vid=9c05b357-4a72-4d70-a376-c9a0ff723f71"},"vehicle_type_id":"4","last_reported":1704197567,"current_range_meters":24800,"station_id":"ce4bh0h2rcd13ifvqd40","pricing_plan_id":"free"},{"bike_id":"fdbc1ad3-e7dc-4c7a-9f10-475c3de50da7","system_id":"levelo_inurba_marseille","lat":43.309371,"lon":5.401449,"is_reserved":false,"is_disabled":false,"rental_uris":{"android":"levelo://app?vid=fdbc1ad3-e7dc-4c7a-9f10-475c3de50da7","ios":"levelo://app?vid=fdbc1ad3-e7dc-4c7a-9f10-475c3de50da7"},"vehicle_type_id":"4","last_reported":1704197567,"current_range_meters":14000,"station_id":"ce4bgvp2rcd13ifvqct0","pricing_plan_id":"free"},{"bike_id":"7bff5d96-c9da-413f-9076-7fbeec946e12","system_id":"levelo_inurba_marseille","lat":43.33754,"lon":5.37457,"is_reserved":false,"is_disabled":false,"rental_uris":{"android":"levelo://app?vid=7bff5d96-c9da-413f-9076-7fbeec946e12","ios":"levelo://app?vid=7bff5d96-c9da-413f-9076-7fbeec946e12"},"vehicle_type_id":"4","last_reported":1704197567,"current_range_meters":27600,"station_id":"","pricing_plan_id":"free"},{"bike_id":"297937fb-d282-4007-afb9-441b5718e045","system_id":"levelo_inurba_marseille","lat":43.309371,"lon":5.401449,"is_reserved":false,"is_disabled":false,"rental_uris":{"android":"levelo://app?vid=297937fb-d282-4007-afb9-441b5718e045","ios":"levelo://app?vid=297937fb-d282-4007-afb9-441b5718e045"},"vehicle_type_id":"4","last_reported":1704197567,"current_range_meters":18000,"station_id":"ce4bgvp2rcd13ifvqct0","pricing_plan_id":"free"},{"bike_id":"1c86c5a0-cffc-4faa-94a1-6cf5f93206ea","system_id":"levelo_inurba_marseille","lat":43.337605,"lon":5.374572,"is_reserved":false,"is_disabled":false,"rental_uris":{"android":"levelo://app?vid=1c86c5a0-cffc-4faa-94a1-6cf5f93206ea","ios":"levelo://app?vid=1c86c5a0-cffc-4faa-94a1-6cf5f93206ea"},"vehicle_type_id":"4","last_reported":1704197567,"current_range_meters":6400,"station_id":"","pricing_plan_id":"free"},{"bike_id":"46bcbd8a-0b5f-4b89-aac9-34812a85cd49","system_id":"levelo_inurba_marseille","lat":43.337681,"lon":5.374847,"is_reserved":false,"is_disabled":false,"rental_uris":{"android":"levelo://app?vid=46bcbd8a-0b5f-4b89-aac9-34812a85cd49","ios":"levelo://app?vid=46bcbd8a-0b5f-4b89-aac9-34812a85cd49"},"vehicle_type_id":"4","last_reported":1704197567,"current_range_meters":15200,"station_id":"","pricing_plan_id":"free"},{"bike_id":"5fedcdaf-3933-484b-982a-f47abe4fad5a","system_id":"levelo_inurba_marseille","lat":43.301117,"lon":5.398795,"is_reserved":false,"is_disabled":false,"rental_uris":{"android":"levelo://app?vid=5fedcdaf-3933-484b-982a-f47abe4fad5a","ios":"levelo://app?vid=5fedcdaf-3933-484b-982a-f47abe4fad5a"},"vehicle_type_id":"4","last_reported":1704197567,"current_range_meters":25200,"station_id":"ce4bh0h2rcd13ifvqd40","pricing_plan_id":"free"},{"bike_id":"a452ba05-db3f-4047-a6af-ce3d22291907","system_id":"levelo_inurba_marseille","lat":43.298681,"lon":5.397225,"is_reserved":false,"is_disabled":false,"rental_uris":{"android":"levelo://app?vid=a452ba05-db3f-4047-a6af-ce3d22291907","ios":"levelo://app?vid=a452ba05-db3f-4047-a6af-ce3d22291907"},"vehicle_type_id":"4","last_reported":1704197567,"current_range_meters":29600,"station_id":"ce4bh0h2rcd13ifvqd50","pricing_plan_id":"free"},{"bike_id":"f1afac13-e5d9-4703-963d-9b4619b1dca9","system_id":"levelo_inurba_marseille","lat":43.286591,"lon":5.363346,"is_reserved":false,"is_disabled":false,"rental_uris":{"android":"levelo://app?vid=f1afac13-e5d9-4703-963d-9b4619b1dca9","ios":"levelo://app?vid=f1afac13-e5d9-4703-963d-9b4619b1dca9"},"vehicle_type_id":"4","last_reported":1704197567,"current_range_meters":10800,"station_id":"ce4bhah2rcd13ifvqej0","pricing_plan_id":"free"},{"bike_id":"9370359e-21de-4005-887c-06e73cc9a31f","system_id":"levelo_inurba_marseille","lat":43.286591,"lon":5.363346,"is_reserved":false,"is_disabled":false,"rental_uris":{"android":"levelo://app?vid=9370359e-21de-4005-887c-06e73cc9a31f","ios":"levelo://app?vid=9370359e-21de-4005-887c-06e73cc9a31f"},"vehicle_type_id":"4","last_reported":1704197567,"current_range_meters":15600,"station_id":"ce4bhah2rcd13ifvqej0","pricing_plan_id":"free"},{"bike_id":"5060c219-2743-4463-8b5b-a733409ea7c1","system_id":"levelo_inurba_marseille","lat":43.286591,"lon":5.363346,"is_reserved":false,"is_disabled":false,"rental_uris":{"android":"levelo://app?vid=5060c219-2743-4463-8b5b-a733409ea7c1","ios":"levelo://app?vid=5060c219-2743-4463-8b5b-a733409ea7c1"},"vehicle_type_id":"4","last_reported":1704197567,"current_range_meters":28400,"station_id":"ce4bhah2rcd13ifvqej0","pricing_plan_id":"free"},{"bike_id":"9ea910c4-1698-4ef3-bc0b-7a4aae83f84b","system_id":"levelo_inurba_marseille","lat":43.28665,"lon":5.36357,"is_reserved":false,"is_disabled":false,"rental_uris":{"android":"levelo://app?vid=9ea910c4-1698-4ef3-bc0b-7a4aae83f84b","ios":"levelo://app?vid=9ea910c4-1698-4ef3-bc0b-7a4aae83f84b"},"vehicle_type_id":"4","last_reported":1704197567,"current_range_meters":17200,"station_id":"ce4bhah2rcd13ifvqej0","pricing_plan_id":"free"},{"bike_id":"342b8815-e6d2-4c3d-901d-ef4d3b2e600c","system_id":"levelo_inurba_marseille","lat":43.286961,"lon":5.373785,"is_reserved":false,"is_disabled":false,"rental_uris":{"android":"levelo://app?vid=342b8815-e6d2-4c3d-901d-ef4d3b2e600c","ios":"levelo://app?vid=342b8815-e6d2-4c3d-901d-ef4d3b2e600c"},"vehicle_type_id":"4","last_reported":1704197567,"current_range_meters":25600,"station_id":"ce4bh3p2rcd13ifvqdq0","pricing_plan_id":"free"},{"bike_id":"6ae37ec0-7e05-4484-81af-e4ca3a1ebe21","system_id":"levelo_inurba_marseille","lat":43.286961,"lon":5.373785,"is_reserved":false,"is_disabled":false,"rental_uris":{"android":"levelo://app?vid=6ae37ec0-7e05-4484-81af-e4ca3a1ebe21","ios":"levelo://app?vid=6ae37ec0-7e05-4484-81af-e4ca3a1ebe21"},"vehicle_type_id":"4","last_reported":1704197567,"current_range_meters":10000,"station_id":"ce4bh3p2rcd13ifvqdq0","pricing_plan_id":"free"},{"bike_id":"f182ad30-578d-439a-b895-037c49f93cbb","system_id":"levelo_inurba_marseille","lat":43.28039,"lon":5.369297,"is_reserved":false,"is_disabled":false,"rental_uris":{"android":"levelo://app?vid=f182ad30-578d-439a-b895-037c49f93cbb","ios":"levelo://app?vid=f182ad30-578d-439a-b895-037c49f93cbb"},"vehicle_type_id":"4","last_reported":1704197567,"current_range_meters":31600,"station_id":"ce4bha12rcd13ifvqef0","pricing_plan_id":"free"},{"bike_id":"f04c0197-8bb7-4d15-ac5b-e74e1042e935","system_id":"levelo_inurba_marseille","lat":43.286039,"lon":5.370679,"is_reserved":false,"is_disabled":false,"rental_uris":{"android":"levelo://app?vid=f04c0197-8bb7-4d15-ac5b-e74e1042e935","ios":"levelo://app?vid=f04c0197-8bb7-4d15-ac5b-e74e1042e935"},"vehicle_type_id":"4","last_reported":1704197567,"current_range_meters":28400,"station_id":"ce4bht12rcd13ifvqi60","pricing_plan_id":"free"},{"bike_id":"40579999-f28a-4f53-8fc1-32606a609e63","system_id":"levelo_inurba_marseille","lat":43.286039,"lon":5.370679,"is_reserved":false,"is_disabled":false,"rental_uris":{"android":"levelo://app?vid=40579999-f28a-4f53-8fc1-32606a609e63","ios":"levelo://app?vid=40579999-f28a-4f53-8fc1-32606a609e63"},"vehicle_type_id":"4","last_reported":1704197567,"current_range_meters":31200,"station_id":"ce4bht12rcd13ifvqi60","pricing_plan_id":"free"},{"bike_id":"102b8121-ee53-408e-8829-c9b9fc6aef90","system_id":"levelo_inurba_marseille","lat":43.286039,"lon":5.370679,"is_reserved":false,"is_disabled":false,"rental_uris":{"android":"levelo://app?vid=102b8121-ee53-408e-8829-c9b9fc6aef90","ios":"levelo://app?vid=102b8121-ee53-408e-8829-c9b9fc6aef90"},"vehicle_type_id":"4","last_reported":1704197567,"current_range_meters":14400,"station_id":"ce4bht12rcd13ifvqi60","pricing_plan_id":"free"},{"bike_id":"d9795646-69c0-4b3e-bcef-3d2a77703458","system_id":"levelo_inurba_marseille","lat":43.286039,"lon":5.370679,"is_reserved":false,"is_disabled":false,"rental_uris":{"android":"levelo://app?vid=d9795646-69c0-4b3e-bcef-3d2a77703458","ios":"levelo://app?vid=d9795646-69c0-4b3e-bcef-3d2a77703458"},"vehicle_type_id":"4","last_reported":1704197567,"current_range_meters":22400,"station_id":"ce4bht12rcd13ifvqi60","pricing_plan_id":"free"},{"bike_id":"f9cd0216-8441-43a2-bacc-953e16290406","system_id":"levelo_inurba_marseille","lat":43.286039,"lon":5.370681,"is_reserved":false,"is_disabled":false,"rental_uris":{"android":"levelo://app?vid=f9cd0216-8441-43a2-bacc-953e16290406","ios":"levelo://app?vid=f9cd0216-8441-43a2-bacc-953e16290406"},"vehicle_type_id":"4","last_reported":1704197567,"current_range_meters":20000,"station_id":"ce4bht12rcd13ifvqi60","pricing_plan_id":"free"},{"bike_id":"9b0c9e9e-977c-43ca-8676-217c423ef706","system_id":"levelo_inurba_marseille","lat":43.31692,"lon":5.40464,"is_reserved":false,"is_disabled":false,"rental_uris":{"android":"levelo://app?vid=9b0c9e9e-977c-43ca-8676-217c423ef706","ios":"levelo://app?vid=9b0c9e9e-977c-43ca-8676-217c423ef706"},"vehicle_type_id":"4","last_reported":1704197567,"current_range_meters":28400,"station_id":"ce4bh012rcd13ifvqd00","pricing_plan_id":"free"},{"bike_id":"fe9d9231-9266-42cd-b245-ed8ea3c0bdbb","system_id":"levelo_inurba_marseille","lat":43.31698,"lon":5.40465,"is_reserved":false,"is_disabled":false,"rental_uris":{"android":"levelo://app?vid=fe9d9231-9266-42cd-b245-ed8ea3c0bdbb","ios":"levelo://app?vid=fe9d9231-9266-42cd-b245-ed8ea3c0bdbb"},"vehicle_type_id":"4","last_reported":1704197567,"current_range_meters":20400,"station_id":"ce4bh012rcd13ifvqd00","pricing_plan_id":"free"},{"bike_id":"604055b8-3479-4377-b4c9-01471b088b8a","system_id":"levelo_inurba_marseille","lat":43.284534,"lon":5.358662,"is_reserved":false,"is_disabled":false,"rental_uris":{"android":"levelo://app?vid=604055b8-3479-4377-b4c9-01471b088b8a","ios":"levelo://app?vid=604055b8-3479-4377-b4c9-01471b088b8a"},"vehicle_type_id":"4","last_reported":1704197567,"current_range_meters":18000,"station_id":"ce4bhah2rcd13ifvqei0","pricing_plan_id":"free"},{"bike_id":"d6cbde5c-cd11-43f8-8957-8a501e2c7853","system_id":"levelo_inurba_marseille","lat":43.284534,"lon":5.358662,"is_reserved":false,"is_disabled":false,"rental_uris":{"android":"levelo://app?vid=d6cbde5c-cd11-43f8-8957-8a501e2c7853","ios":"levelo://app?vid=d6cbde5c-cd11-43f8-8957-8a501e2c7853"},"vehicle_type_id":"4","last_reported":1704197567,"current_range_meters":30800,"station_id":"ce4bhah2rcd13ifvqei0","pricing_plan_id":"free"},{"bike_id":"08ec7859-00c1-4ca0-8ceb-f2f50be8e031","system_id":"levelo_inurba_marseille","lat":43.285856,"lon":5.350771,"is_reserved":false,"is_disabled":false,"rental_uris":{"android":"levelo://app?vid=08ec7859-00c1-4ca0-8ceb-f2f50be8e031","ios":"levelo://app?vid=08ec7859-00c1-4ca0-8ceb-f2f50be8e031"},"vehicle_type_id":"4","last_reported":1704197567,"current_range_meters":31200,"station_id":"ce4bhch2rcd13ifvqeug","pricing_plan_id":"free"},{"bike_id":"ac9ffd8a-fdd1-4e19-a68b-2f09517347c9","system_id":"levelo_inurba_marseille","lat":43.286103,"lon":5.351079,"is_reserved":false,"is_disabled":false,"rental_uris":{"android":"levelo://app?vid=ac9ffd8a-fdd1-4e19-a68b-2f09517347c9","ios":"levelo://app?vid=ac9ffd8a-fdd1-4e19-a68b-2f09517347c9"},"vehicle_type_id":"4","last_reported":1704197567,"current_range_meters":20000,"station_id":"ce4bhch2rcd13ifvqeug","pricing_plan_id":"free"},{"bike_id":"95bebced-653e-4dde-ae1f-201b003341aa","system_id":"levelo_inurba_marseille","lat":43.283998,"lon":5.375062,"is_reserved":false,"is_disabled":false,"rental_uris":{"android":"levelo://app?vid=95bebced-653e-4dde-ae1f-201b003341aa","ios":"levelo://app?vid=95bebced-653e-4dde-ae1f-201b003341aa"},"vehicle_type_id":"4","last_reported":1704197567,"current_range_meters":22800,"station_id":"ce4bh412rcd13ifvqds0","pricing_plan_id":"free"},{"bike_id":"0a81f5d3-c8c7-497c-9ade-939288df2f52","system_id":"levelo_inurba_marseille","lat":43.286595,"lon":5.386795,"is_reserved":false,"is_disabled":false,"rental_uris":{"android":"levelo://app?vid=0a81f5d3-c8c7-497c-9ade-939288df2f52","ios":"levelo://app?vid=0a81f5d3-c8c7-497c-9ade-939288df2f52"},"vehicle_type_id":"4","last_reported":1704197567,"current_range_meters":28800,"station_id":"ce4bh492rcd13ifvqdug","pricing_plan_id":"free"},{"bike_id":"89112d64-ccbf-4364-afe6-d1338820fb67","system_id":"levelo_inurba_marseille","lat":43.319179,"lon":5.407725,"is_reserved":false,"is_disabled":false,"rental_uris":{"android":"levelo://app?vid=89112d64-ccbf-4364-afe6-d1338820fb67","ios":"levelo://app?vid=89112d64-ccbf-4364-afe6-d1338820fb67"},"vehicle_type_id":"4","last_reported":1704197567,"current_range_meters":29200,"station_id":"ce4bhq12rcd13ifvqhig","pricing_plan_id":"free"},{"bike_id":"57aa4e80-760d-4e3c-a199-3d58309f5f3c","system_id":"levelo_inurba_marseille","lat":43.261782,"lon":5.374515,"is_reserved":false,"is_disabled":false,"rental_uris":{"android":"levelo://app?vid=57aa4e80-760d-4e3c-a199-3d58309f5f3c","ios":"levelo://app?vid=57aa4e80-760d-4e3c-a199-3d58309f5f3c"},"vehicle_type_id":"4","last_reported":1704197567,"current_range_meters":31600,"station_id":"ce4bhgp2rcd13ifvqfc0","pricing_plan_id":"free"},{"bike_id":"3a34192a-8b34-47a6-8d79-245a33690514","system_id":"levelo_inurba_marseille","lat":43.33717,"lon":5.391857,"is_reserved":false,"is_disabled":false,"rental_uris":{"android":"levelo://app?vid=3a34192a-8b34-47a6-8d79-245a33690514","ios":"levelo://app?vid=3a34192a-8b34-47a6-8d79-245a33690514"},"vehicle_type_id":"4","last_reported":1704197567,"current_range_meters":28800,"station_id":"ce4bhr92rcd13ifvqhsg","pricing_plan_id":"free"},{"bike_id":"90a3742a-b6b1-431b-bfa6-9984c3222dd1","system_id":"levelo_inurba_marseille","lat":43.33717,"lon":5.391857,"is_reserved":false,"is_disabled":false,"rental_uris":{"android":"levelo://app?vid=90a3742a-b6b1-431b-bfa6-9984c3222dd1","ios":"levelo://app?vid=90a3742a-b6b1-431b-bfa6-9984c3222dd1"},"vehicle_type_id":"4","last_reported":1704197567,"current_range_meters":26400,"station_id":"ce4bhr92rcd13ifvqhsg","pricing_plan_id":"free"},{"bike_id":"78bb1215-3373-4d3f-b7bd-f79703d6e8c0","system_id":"levelo_inurba_marseille","lat":43.323464,"lon":5.406297,"is_reserved":false,"is_disabled":false,"rental_uris":{"android":"levelo://app?vid=78bb1215-3373-4d3f-b7bd-f79703d6e8c0","ios":"levelo://app?vid=78bb1215-3373-4d3f-b7bd-f79703d6e8c0"},"vehicle_type_id":"4","last_reported":1704197567,"current_range_meters":27200,"station_id":"ce4bhq92rcd13ifvqhjg","pricing_plan_id":"free"},{"bike_id":"1860c054-e673-4084-804e-8832a59aeb53","system_id":"levelo_inurba_marseille","lat":43.33727,"lon":5.3918,"is_reserved":false,"is_disabled":false,"rental_uris":{"android":"levelo://app?vid=1860c054-e673-4084-804e-8832a59aeb53","ios":"levelo://app?vid=1860c054-e673-4084-804e-8832a59aeb53"},"vehicle_type_id":"4","last_reported":1704197567,"current_range_meters":24000,"station_id":"ce4bhr92rcd13ifvqhsg","pricing_plan_id":"free"},{"bike_id":"d3837f57-b992-4c84-a0a7-b545d2582111","system_id":"levelo_inurba_marseille","lat":43.323464,"lon":5.406297,"is_reserved":false,"is_disabled":false,"rental_uris":{"android":"levelo://app?vid=d3837f57-b992-4c84-a0a7-b545d2582111","ios":"levelo://app?vid=d3837f57-b992-4c84-a0a7-b545d2582111"},"vehicle_type_id":"4","last_reported":1704197567,"current_range_meters":30000,"station_id":"ce4bhq92rcd13ifvqhjg","pricing_plan_id":"free"},{"bike_id":"8af6642b-e526-4770-8a06-6b115e68c32b","system_id":"levelo_inurba_marseille","lat":43.33726,"lon":5.39185,"is_reserved":false,"is_disabled":false,"rental_uris":{"android":"levelo://app?vid=8af6642b-e526-4770-8a06-6b115e68c32b","ios":"levelo://app?vid=8af6642b-e526-4770-8a06-6b115e68c32b"},"vehicle_type_id":"4","last_reported":1704197567,"current_range_meters":20800,"station_id":"ce4bhr92rcd13ifvqhsg","pricing_plan_id":"free"},{"bike_id":"279c24e1-5891-4e70-a317-d0f5cce47927","system_id":"levelo_inurba_marseille","lat":43.323464,"lon":5.406297,"is_reserved":false,"is_disabled":false,"rental_uris":{"android":"levelo://app?vid=279c24e1-5891-4e70-a317-d0f5cce47927","ios":"levelo://app?vid=279c24e1-5891-4e70-a317-d0f5cce47927"},"vehicle_type_id":"4","last_reported":1704197567,"current_range_meters":28800,"station_id":"ce4bhq92rcd13ifvqhjg","pricing_plan_id":"free"},{"bike_id":"cad58e46-6675-4e5e-b9b6-8c5dd4bcc074","system_id":"levelo_inurba_marseille","lat":43.288501,"lon":5.393087,"is_reserved":false,"is_disabled":false,"rental_uris":{"android":"levelo://app?vid=cad58e46-6675-4e5e-b9b6-8c5dd4bcc074","ios":"levelo://app?vid=cad58e46-6675-4e5e-b9b6-8c5dd4bcc074"},"vehicle_type_id":"4","last_reported":1704197567,"current_range_meters":26800,"station_id":"ce4bh2p2rcd13ifvqdi0","pricing_plan_id":"free"},{"bike_id":"2bf3b15f-b183-462f-9e3c-1860778a95ce","system_id":"levelo_inurba_marseille","lat":43.288501,"lon":5.393087,"is_reserved":false,"is_disabled":false,"rental_uris":{"android":"levelo://app?vid=2bf3b15f-b183-462f-9e3c-1860778a95ce","ios":"levelo://app?vid=2bf3b15f-b183-462f-9e3c-1860778a95ce"},"vehicle_type_id":"4","last_reported":1704197567,"current_range_meters":6000,"station_id":"ce4bh2p2rcd13ifvqdi0","pricing_plan_id":"free"},{"bike_id":"ee5d5ab8-3a03-452f-ad45-05d947472897","system_id":"levelo_inurba_marseille","lat":43.288501,"lon":5.393087,"is_reserved":false,"is_disabled":false,"rental_uris":{"android":"levelo://app?vid=ee5d5ab8-3a03-452f-ad45-05d947472897","ios":"levelo://app?vid=ee5d5ab8-3a03-452f-ad45-05d947472897"},"vehicle_type_id":"4","last_reported":1704197567,"current_range_meters":25200,"station_id":"ce4bh2p2rcd13ifvqdi0","pricing_plan_id":"free"},{"bike_id":"9ac62f63-dd4f-4023-bff5-9c8d8f34f59f","system_id":"levelo_inurba_marseille","lat":43.288501,"lon":5.393087,"is_reserved":false,"is_disabled":false,"rental_uris":{"android":"levelo://app?vid=9ac62f63-dd4f-4023-bff5-9c8d8f34f59f","ios":"levelo://app?vid=9ac62f63-dd4f-4023-bff5-9c8d8f34f59f"},"vehicle_type_id":"4","last_reported":1704197567,"current_range_meters":22400,"station_id":"ce4bh2p2rcd13ifvqdi0","pricing_plan_id":"free"},{"bike_id":"a695e86e-9722-4d14-84e8-80e39951e0fd","system_id":"levelo_inurba_marseille","lat":43.283498,"lon":5.380948,"is_reserved":false,"is_disabled":false,"rental_uris":{"android":"levelo://app?vid=a695e86e-9722-4d14-84e8-80e39951e0fd","ios":"levelo://app?vid=a695e86e-9722-4d14-84e8-80e39951e0fd"},"vehicle_type_id":"4","last_reported":1704197567,"current_range_meters":22400,"station_id":"ce4bh412rcd13ifvqdr0","pricing_plan_id":"free"},{"bike_id":"27b160c3-0323-42aa-81c8-d3acaae384e0","system_id":"levelo_inurba_marseille","lat":43.283494,"lon":5.380945,"is_reserved":false,"is_disabled":false,"rental_uris":{"android":"levelo://app?vid=27b160c3-0323-42aa-81c8-d3acaae384e0","ios":"levelo://app?vid=27b160c3-0323-42aa-81c8-d3acaae384e0"},"vehicle_type_id":"4","last_reported":1704197567,"current_range_meters":16800,"station_id":"ce4bh412rcd13ifvqdr0","pricing_plan_id":"free"},{"bike_id":"5bb4e61f-199d-4e4d-9fe8-253c3096889c","system_id":"levelo_inurba_marseille","lat":43.283498,"lon":5.380948,"is_reserved":false,"is_disabled":false,"rental_uris":{"android":"levelo://app?vid=5bb4e61f-199d-4e4d-9fe8-253c3096889c","ios":"levelo://app?vid=5bb4e61f-199d-4e4d-9fe8-253c3096889c"},"vehicle_type_id":"4","last_reported":1704197567,"current_range_meters":19200,"station_id":"ce4bh412rcd13ifvqdr0","pricing_plan_id":"free"},{"bike_id":"ccb613a6-4ded-4531-8215-e2342b68aea2","system_id":"levelo_inurba_marseille","lat":43.283498,"lon":5.380948,"is_reserved":false,"is_disabled":false,"rental_uris":{"android":"levelo://app?vid=ccb613a6-4ded-4531-8215-e2342b68aea2","ios":"levelo://app?vid=ccb613a6-4ded-4531-8215-e2342b68aea2"},"vehicle_type_id":"4","last_reported":1704197567,"current_range_meters":13200,"station_id":"ce4bh412rcd13ifvqdr0","pricing_plan_id":"free"},{"bike_id":"2f1b45be-d3a1-42a4-a736-b56379149f9a","system_id":"levelo_inurba_marseille","lat":43.284219,"lon":5.3497,"is_reserved":false,"is_disabled":false,"rental_uris":{"android":"levelo://app?vid=2f1b45be-d3a1-42a4-a736-b56379149f9a","ios":"levelo://app?vid=2f1b45be-d3a1-42a4-a736-b56379149f9a"},"vehicle_type_id":"4","last_reported":1704197567,"current_range_meters":26400,"station_id":"ce4bhbh2rcd13ifvqepg","pricing_plan_id":"free"},{"bike_id":"21080396-864c-439d-883c-a3baed753ad0","system_id":"levelo_inurba_marseille","lat":43.284219,"lon":5.3497,"is_reserved":false,"is_disabled":false,"rental_uris":{"android":"levelo://app?vid=21080396-864c-439d-883c-a3baed753ad0","ios":"levelo://app?vid=21080396-864c-439d-883c-a3baed753ad0"},"vehicle_type_id":"4","last_reported":1704197567,"current_range_meters":30000,"station_id":"ce4bhbh2rcd13ifvqepg","pricing_plan_id":"free"},{"bike_id":"f76460b9-0f49-422b-87b3-1456557c16fa","system_id":"levelo_inurba_marseille","lat":43.292724,"lon":5.401131,"is_reserved":false,"is_disabled":false,"rental_uris":{"android":"levelo://app?vid=f76460b9-0f49-422b-87b3-1456557c16fa","ios":"levelo://app?vid=f76460b9-0f49-422b-87b3-1456557c16fa"},"vehicle_type_id":"4","last_reported":1704197567,"current_range_meters":23200,"station_id":"ce4bh312rcd13ifvqdk0","pricing_plan_id":"free"},{"bike_id":"7525f33d-08b9-4904-95f8-e65a4f82b99a","system_id":"levelo_inurba_marseille","lat":43.292724,"lon":5.401131,"is_reserved":false,"is_disabled":false,"rental_uris":{"android":"levelo://app?vid=7525f33d-08b9-4904-95f8-e65a4f82b99a","ios":"levelo://app?vid=7525f33d-08b9-4904-95f8-e65a4f82b99a"},"vehicle_type_id":"4","last_reported":1704197567,"current_range_meters":15600,"station_id":"ce4bh312rcd13ifvqdk0","pricing_plan_id":"free"},{"bike_id":"718f7772-abd8-4936-9519-f8d4f6d57a67","system_id":"levelo_inurba_marseille","lat":43.292724,"lon":5.401131,"is_reserved":false,"is_disabled":false,"rental_uris":{"android":"levelo://app?vid=718f7772-abd8-4936-9519-f8d4f6d57a67","ios":"levelo://app?vid=718f7772-abd8-4936-9519-f8d4f6d57a67"},"vehicle_type_id":"4","last_reported":1704197567,"current_range_meters":10800,"station_id":"ce4bh312rcd13ifvqdk0","pricing_plan_id":"free"},{"bike_id":"e1a71a1e-f882-4b50-b7eb-58559752d9f2","system_id":"levelo_inurba_marseille","lat":43.292724,"lon":5.401131,"is_reserved":false,"is_disabled":false,"rental_uris":{"android":"levelo://app?vid=e1a71a1e-f882-4b50-b7eb-58559752d9f2","ios":"levelo://app?vid=e1a71a1e-f882-4b50-b7eb-58559752d9f2"},"vehicle_type_id":"4","last_reported":1704197567,"current_range_meters":16800,"station_id":"ce4bh312rcd13ifvqdk0","pricing_plan_id":"free"},{"bike_id":"dd6c19b3-4989-43b9-a5c0-3b6740da86bb","system_id":"levelo_inurba_marseille","lat":43.280382,"lon":5.369291,"is_reserved":false,"is_disabled":false,"rental_uris":{"android":"levelo://app?vid=dd6c19b3-4989-43b9-a5c0-3b6740da86bb","ios":"levelo://app?vid=dd6c19b3-4989-43b9-a5c0-3b6740da86bb"},"vehicle_type_id":"4","last_reported":1704197567,"current_range_meters":22800,"station_id":"ce4bha12rcd13ifvqef0","pricing_plan_id":"free"},{"bike_id":"b7cb68cc-956b-4d94-95e3-9edde036a4db","system_id":"levelo_inurba_marseille","lat":43.28039,"lon":5.369297,"is_reserved":false,"is_disabled":false,"rental_uris":{"android":"levelo://app?vid=b7cb68cc-956b-4d94-95e3-9edde036a4db","ios":"levelo://app?vid=b7cb68cc-956b-4d94-95e3-9edde036a4db"},"vehicle_type_id":"4","last_reported":1704197567,"current_range_meters":25200,"station_id":"ce4bha12rcd13ifvqef0","pricing_plan_id":"free"},{"bike_id":"a9b4875a-066f-4c9c-8c01-b55bd2ed06be","system_id":"levelo_inurba_marseille","lat":43.283502,"lon":5.386471,"is_reserved":false,"is_disabled":false,"rental_uris":{"android":"levelo://app?vid=a9b4875a-066f-4c9c-8c01-b55bd2ed06be","ios":"levelo://app?vid=a9b4875a-066f-4c9c-8c01-b55bd2ed06be"},"vehicle_type_id":"4","last_reported":1704197567,"current_range_meters":22400,"station_id":"ce4bh492rcd13ifvqdvg","pricing_plan_id":"free"},{"bike_id":"65b5e44d-dae6-4652-9166-7bc18b0539ac","system_id":"levelo_inurba_marseille","lat":43.283502,"lon":5.386471,"is_reserved":false,"is_disabled":false,"rental_uris":{"android":"levelo://app?vid=65b5e44d-dae6-4652-9166-7bc18b0539ac","ios":"levelo://app?vid=65b5e44d-dae6-4652-9166-7bc18b0539ac"},"vehicle_type_id":"4","last_reported":1704197567,"current_range_meters":14800,"station_id":"ce4bh492rcd13ifvqdvg","pricing_plan_id":"free"},{"bike_id":"d982fa1e-213f-4ae1-9ff9-8c3f459d07c3","system_id":"levelo_inurba_marseille","lat":43.280382,"lon":5.369291,"is_reserved":false,"is_disabled":false,"rental_uris":{"android":"levelo://app?vid=d982fa1e-213f-4ae1-9ff9-8c3f459d07c3","ios":"levelo://app?vid=d982fa1e-213f-4ae1-9ff9-8c3f459d07c3"},"vehicle_type_id":"4","last_reported":1704197567,"current_range_meters":20400,"station_id":"ce4bha12rcd13ifvqef0","pricing_plan_id":"free"},{"bike_id":"b75fa342-351f-4dae-96ac-34b030e428ab","system_id":"levelo_inurba_marseille","lat":43.29034,"lon":5.39966,"is_reserved":false,"is_disabled":false,"rental_uris":{"android":"levelo://app?vid=b75fa342-351f-4dae-96ac-34b030e428ab","ios":"levelo://app?vid=b75fa342-351f-4dae-96ac-34b030e428ab"},"vehicle_type_id":"4","last_reported":1704197567,"current_range_meters":25200,"station_id":"ce4bh392rcd13ifvqdm0","pricing_plan_id":"free"},{"bike_id":"19c799bd-089e-4936-a17b-ea0f3230858a","system_id":"levelo_inurba_marseille","lat":43.296263,"lon":5.40601,"is_reserved":false,"is_disabled":false,"rental_uris":{"android":"levelo://app?vid=19c799bd-089e-4936-a17b-ea0f3230858a","ios":"levelo://app?vid=19c799bd-089e-4936-a17b-ea0f3230858a"},"vehicle_type_id":"4","last_reported":1704197567,"current_range_meters":14800,"station_id":"ce4bh0h2rcd13ifvqd60","pricing_plan_id":"free"},{"bike_id":"4d230e76-49d0-42c1-ac2d-b0da22fb6dc7","system_id":"levelo_inurba_marseille","lat":43.296263,"lon":5.40601,"is_reserved":false,"is_disabled":false,"rental_uris":{"android":"levelo://app?vid=4d230e76-49d0-42c1-ac2d-b0da22fb6dc7","ios":"levelo://app?vid=4d230e76-49d0-42c1-ac2d-b0da22fb6dc7"},"vehicle_type_id":"4","last_reported":1704197567,"current_range_meters":23600,"station_id":"ce4bh0h2rcd13ifvqd60","pricing_plan_id":"free"},{"bike_id":"ef2295b2-81eb-4752-b46f-557120e3173e","system_id":"levelo_inurba_marseille","lat":43.285742,"lon":5.395004,"is_reserved":false,"is_disabled":false,"rental_uris":{"android":"levelo://app?vid=ef2295b2-81eb-4752-b46f-557120e3173e","ios":"levelo://app?vid=ef2295b2-81eb-4752-b46f-557120e3173e"},"vehicle_type_id":"4","last_reported":1704197567,"current_range_meters":32000,"station_id":"ce4bh292rcd13ifvqdg0","pricing_plan_id":"free"},{"bike_id":"725da3f3-432d-49c8-b050-29f0979b20ad","system_id":"levelo_inurba_marseille","lat":43.285742,"lon":5.395004,"is_reserved":false,"is_disabled":false,"rental_uris":{"android":"levelo://app?vid=725da3f3-432d-49c8-b050-29f0979b20ad","ios":"levelo://app?vid=725da3f3-432d-49c8-b050-29f0979b20ad"},"vehicle_type_id":"4","last_reported":1704197567,"current_range_meters":23200,"station_id":"ce4bh292rcd13ifvqdg0","pricing_plan_id":"free"},{"bike_id":"63ef493a-db4b-4496-ad1b-ba396f3c1336","system_id":"levelo_inurba_marseille","lat":43.336134,"lon":5.410341,"is_reserved":false,"is_disabled":false,"rental_uris":{"android":"levelo://app?vid=63ef493a-db4b-4496-ad1b-ba396f3c1336","ios":"levelo://app?vid=63ef493a-db4b-4496-ad1b-ba396f3c1336"},"vehicle_type_id":"4","last_reported":1704197567,"current_range_meters":27600,"station_id":"ce4bhqh2rcd13ifvqhmg","pricing_plan_id":"free"},{"bike_id":"d99e553a-a500-4558-ae84-2ddf3a4797c0","system_id":"levelo_inurba_marseille","lat":43.304188,"lon":5.412904,"is_reserved":false,"is_disabled":false,"rental_uris":{"android":"levelo://app?vid=d99e553a-a500-4558-ae84-2ddf3a4797c0","ios":"levelo://app?vid=d99e553a-a500-4558-ae84-2ddf3a4797c0"},"vehicle_type_id":"4","last_reported":1704197567,"current_range_meters":21200,"station_id":"ce4bhop2rcd13ifvqh8g","pricing_plan_id":"free"},{"bike_id":"6a3727e3-b715-4f45-b12d-1135bba0b454","system_id":"levelo_inurba_marseille","lat":43.304188,"lon":5.412904,"is_reserved":false,"is_disabled":false,"rental_uris":{"android":"levelo://app?vid=6a3727e3-b715-4f45-b12d-1135bba0b454","ios":"levelo://app?vid=6a3727e3-b715-4f45-b12d-1135bba0b454"},"vehicle_type_id":"4","last_reported":1704197567,"current_range_meters":6800,"station_id":"ce4bhop2rcd13ifvqh8g","pricing_plan_id":"free"},{"bike_id":"8571ddf1-8157-46ba-b747-ea46713afd05","system_id":"levelo_inurba_marseille","lat":43.292818,"lon":5.406539,"is_reserved":false,"is_disabled":false,"rental_uris":{"android":"levelo://app?vid=8571ddf1-8157-46ba-b747-ea46713afd05","ios":"levelo://app?vid=8571ddf1-8157-46ba-b747-ea46713afd05"},"vehicle_type_id":"4","last_reported":1704197567,"current_range_meters":0,"station_id":"","pricing_plan_id":"free"},{"bike_id":"2228fc57-9858-4817-badf-f0bd1a9f3edc","system_id":"levelo_inurba_marseille","lat":43.287154,"lon":5.399979,"is_reserved":false,"is_disabled":false,"rental_uris":{"android":"levelo://app?vid=2228fc57-9858-4817-badf-f0bd1a9f3edc","ios":"levelo://app?vid=2228fc57-9858-4817-badf-f0bd1a9f3edc"},"vehicle_type_id":"4","last_reported":1704197567,"current_range_meters":29200,"station_id":"ce4bho92rcd13ifvqh3g","pricing_plan_id":"free"},{"bike_id":"e5adf89a-10ee-4e07-b9b2-4771808f9929","system_id":"levelo_inurba_marseille","lat":43.287154,"lon":5.399979,"is_reserved":false,"is_disabled":false,"rental_uris":{"android":"levelo://app?vid=e5adf89a-10ee-4e07-b9b2-4771808f9929","ios":"levelo://app?vid=e5adf89a-10ee-4e07-b9b2-4771808f9929"},"vehicle_type_id":"4","last_reported":1704197567,"current_range_meters":29600,"station_id":"ce4bho92rcd13ifvqh3g","pricing_plan_id":"free"},{"bike_id":"45120a21-f343-45ce-8fb6-e06904f75898","system_id":"levelo_inurba_marseille","lat":43.320045,"lon":5.415046,"is_reserved":false,"is_disabled":false,"rental_uris":{"android":"levelo://app?vid=45120a21-f343-45ce-8fb6-e06904f75898","ios":"levelo://app?vid=45120a21-f343-45ce-8fb6-e06904f75898"},"vehicle_type_id":"4","last_reported":1704197567,"current_range_meters":31600,"station_id":"ce4bhq92rcd13ifvqhkg","pricing_plan_id":"free"},{"bike_id":"f9530c49-7fc9-486b-b364-e2af9dc79720","system_id":"levelo_inurba_marseille","lat":43.320045,"lon":5.415046,"is_reserved":false,"is_disabled":false,"rental_uris":{"android":"levelo://app?vid=f9530c49-7fc9-486b-b364-e2af9dc79720","ios":"levelo://app?vid=f9530c49-7fc9-486b-b364-e2af9dc79720"},"vehicle_type_id":"4","last_reported":1704197567,"current_range_meters":15600,"station_id":"ce4bhq92rcd13ifvqhkg","pricing_plan_id":"free"},{"bike_id":"bb000b98-d6f1-45dd-b9b9-4eafd47a8444","system_id":"levelo_inurba_marseille","lat":43.320045,"lon":5.415046,"is_reserved":false,"is_disabled":false,"rental_uris":{"android":"levelo://app?vid=bb000b98-d6f1-45dd-b9b9-4eafd47a8444","ios":"levelo://app?vid=bb000b98-d6f1-45dd-b9b9-4eafd47a8444"},"vehicle_type_id":"4","last_reported":1704197567,"current_range_meters":26800,"station_id":"ce4bhq92rcd13ifvqhkg","pricing_plan_id":"free"},{"bike_id":"4ef8c5e7-8128-4e6b-b5f6-b4ad68a3bb49","system_id":"levelo_inurba_marseille","lat":43.279742,"lon":5.38744,"is_reserved":false,"is_disabled":false,"rental_uris":{"android":"levelo://app?vid=4ef8c5e7-8128-4e6b-b5f6-b4ad68a3bb49","ios":"levelo://app?vid=4ef8c5e7-8128-4e6b-b5f6-b4ad68a3bb49"},"vehicle_type_id":"4","last_reported":1704197567,"current_range_meters":26400,"station_id":"ce4bhg12rcd13ifvqf80","pricing_plan_id":"free"},{"bike_id":"63983c2b-474d-469a-8d5b-29f7f947a33a","system_id":"levelo_inurba_marseille","lat":43.279742,"lon":5.38744,"is_reserved":false,"is_disabled":false,"rental_uris":{"android":"levelo://app?vid=63983c2b-474d-469a-8d5b-29f7f947a33a","ios":"levelo://app?vid=63983c2b-474d-469a-8d5b-29f7f947a33a"},"vehicle_type_id":"4","last_reported":1704197567,"current_range_meters":26800,"station_id":"ce4bhg12rcd13ifvqf80","pricing_plan_id":"free"},{"bike_id":"e9e342a5-71f4-448a-a0e1-6ff4791eca67","system_id":"levelo_inurba_marseille","lat":43.320045,"lon":5.415046,"is_reserved":false,"is_disabled":false,"rental_uris":{"android":"levelo://app?vid=e9e342a5-71f4-448a-a0e1-6ff4791eca67","ios":"levelo://app?vid=e9e342a5-71f4-448a-a0e1-6ff4791eca67"},"vehicle_type_id":"4","last_reported":1704197567,"current_range_meters":32000,"station_id":"ce4bhq92rcd13ifvqhkg","pricing_plan_id":"free"},{"bike_id":"a7cf208f-b7fd-4e71-8fb4-8deac05f1f46","system_id":"levelo_inurba_marseille","lat":43.27618,"lon":5.361009,"is_reserved":false,"is_disabled":false,"rental_uris":{"android":"levelo://app?vid=a7cf208f-b7fd-4e71-8fb4-8deac05f1f46","ios":"levelo://app?vid=a7cf208f-b7fd-4e71-8fb4-8deac05f1f46"},"vehicle_type_id":"4","last_reported":1704197567,"current_range_meters":20800,"station_id":"ce4bgj92rcd13ifvqbe0","pricing_plan_id":"free"},{"bike_id":"493c529d-4816-4d54-82ca-cf1d3517820d","system_id":"levelo_inurba_marseille","lat":43.325233,"lon":5.414318,"is_reserved":false,"is_disabled":false,"rental_uris":{"android":"levelo://app?vid=493c529d-4816-4d54-82ca-cf1d3517820d","ios":"levelo://app?vid=493c529d-4816-4d54-82ca-cf1d3517820d"},"vehicle_type_id":"4","last_reported":1704197567,"current_range_meters":27600,"station_id":"ce4bhq12rcd13ifvqhhg","pricing_plan_id":"free"},{"bike_id":"0e7898ca-bae7-4dc8-9e3a-8312b02faa42","system_id":"levelo_inurba_marseille","lat":43.280784,"lon":5.396622,"is_reserved":false,"is_disabled":false,"rental_uris":{"android":"levelo://app?vid=0e7898ca-bae7-4dc8-9e3a-8312b02faa42","ios":"levelo://app?vid=0e7898ca-bae7-4dc8-9e3a-8312b02faa42"},"vehicle_type_id":"4","last_reported":1704197567,"current_range_meters":22400,"station_id":"ce4bho12rcd13ifvqh2g","pricing_plan_id":"free"},{"bike_id":"93965c1d-cbd8-4a4c-953d-b0143e662572","system_id":"levelo_inurba_marseille","lat":43.303837,"lon":5.418724,"is_reserved":false,"is_disabled":false,"rental_uris":{"android":"levelo://app?vid=93965c1d-cbd8-4a4c-953d-b0143e662572","ios":"levelo://app?vid=93965c1d-cbd8-4a4c-953d-b0143e662572"},"vehicle_type_id":"4","last_reported":1704197567,"current_range_meters":28000,"station_id":"ce4bhop2rcd13ifvqh7g","pricing_plan_id":"free"},{"bike_id":"c0cb737d-27c7-44a7-93f8-a87bf763ed37","system_id":"levelo_inurba_marseille","lat":43.278401,"lon":5.392152,"is_reserved":false,"is_disabled":false,"rental_uris":{"android":"levelo://app?vid=c0cb737d-27c7-44a7-93f8-a87bf763ed37","ios":"levelo://app?vid=c0cb737d-27c7-44a7-93f8-a87bf763ed37"},"vehicle_type_id":"4","last_reported":1704197567,"current_range_meters":14400,"station_id":"ce4bhjp2rcd13ifvqga0","pricing_plan_id":"free"},{"bike_id":"72fcfe75-3449-4594-8465-a5d86ec07d19","system_id":"levelo_inurba_marseille","lat":43.278367,"lon":5.392077,"is_reserved":false,"is_disabled":false,"rental_uris":{"android":"levelo://app?vid=72fcfe75-3449-4594-8465-a5d86ec07d19","ios":"levelo://app?vid=72fcfe75-3449-4594-8465-a5d86ec07d19"},"vehicle_type_id":"4","last_reported":1704197567,"current_range_meters":28400,"station_id":"ce4bhjp2rcd13ifvqga0","pricing_plan_id":"free"},{"bike_id":"b2e64161-bed0-442d-9e12-361d365ea82c","system_id":"levelo_inurba_marseille","lat":43.279952,"lon":5.400085,"is_reserved":false,"is_disabled":false,"rental_uris":{"android":"levelo://app?vid=b2e64161-bed0-442d-9e12-361d365ea82c","ios":"levelo://app?vid=b2e64161-bed0-442d-9e12-361d365ea82c"},"vehicle_type_id":"4","last_reported":1704197567,"current_range_meters":31200,"station_id":"ce4bho92rcd13ifvqh4g","pricing_plan_id":"free"},{"bike_id":"40a6490a-7a82-4760-aa4e-e343f1aa848b","system_id":"levelo_inurba_marseille","lat":43.279952,"lon":5.400085,"is_reserved":false,"is_disabled":false,"rental_uris":{"android":"levelo://app?vid=40a6490a-7a82-4760-aa4e-e343f1aa848b","ios":"levelo://app?vid=40a6490a-7a82-4760-aa4e-e343f1aa848b"},"vehicle_type_id":"4","last_reported":1704197567,"current_range_meters":8400,"station_id":"ce4bho92rcd13ifvqh4g","pricing_plan_id":"free"},{"bike_id":"2d68f679-42a3-4a63-8bd6-9ebdf4c92577","system_id":"levelo_inurba_marseille","lat":43.279952,"lon":5.400085,"is_reserved":false,"is_disabled":false,"rental_uris":{"android":"levelo://app?vid=2d68f679-42a3-4a63-8bd6-9ebdf4c92577","ios":"levelo://app?vid=2d68f679-42a3-4a63-8bd6-9ebdf4c92577"},"vehicle_type_id":"4","last_reported":1704197567,"current_range_meters":18800,"station_id":"ce4bho92rcd13ifvqh4g","pricing_plan_id":"free"},{"bike_id":"4760841b-4fd7-4b7d-aef3-782de75b0909","system_id":"levelo_inurba_marseille","lat":43.317121,"lon":5.423936,"is_reserved":false,"is_disabled":false,"rental_uris":{"android":"levelo://app?vid=4760841b-4fd7-4b7d-aef3-782de75b0909","ios":"levelo://app?vid=4760841b-4fd7-4b7d-aef3-782de75b0909"},"vehicle_type_id":"4","last_reported":1704197567,"current_range_meters":22400,"station_id":"ce4bhp92rcd13ifvqhbg","pricing_plan_id":"free"},{"bike_id":"5e3452d0-bbc8-463b-8852-ec98e809d5a0","system_id":"levelo_inurba_marseille","lat":43.317121,"lon":5.423936,"is_reserved":false,"is_disabled":false,"rental_uris":{"android":"levelo://app?vid=5e3452d0-bbc8-463b-8852-ec98e809d5a0","ios":"levelo://app?vid=5e3452d0-bbc8-463b-8852-ec98e809d5a0"},"vehicle_type_id":"4","last_reported":1704197567,"current_range_meters":32000,"station_id":"ce4bhp92rcd13ifvqhbg","pricing_plan_id":"free"},{"bike_id":"f3e351f0-7ca3-497e-a450-69da3118abd7","system_id":"levelo_inurba_marseille","lat":43.31723,"lon":5.42406,"is_reserved":false,"is_disabled":false,"rental_uris":{"android":"levelo://app?vid=f3e351f0-7ca3-497e-a450-69da3118abd7","ios":"levelo://app?vid=f3e351f0-7ca3-497e-a450-69da3118abd7"},"vehicle_type_id":"4","last_reported":1704197567,"current_range_meters":24800,"station_id":"ce4bhp92rcd13ifvqhbg","pricing_plan_id":"free"},{"bike_id":"eb56ca18-ac85-401b-985c-b6a30c1e61f1","system_id":"levelo_inurba_marseille","lat":43.310785,"lon":5.424305,"is_reserved":false,"is_disabled":false,"rental_uris":{"android":"levelo://app?vid=eb56ca18-ac85-401b-985c-b6a30c1e61f1","ios":"levelo://app?vid=eb56ca18-ac85-401b-985c-b6a30c1e61f1"},"vehicle_type_id":"4","last_reported":1704197567,"current_range_meters":28000,"station_id":"ce4bhp92rcd13ifvqhag","pricing_plan_id":"free"},{"bike_id":"e2340435-a767-4a07-9db0-637fd4bce462","system_id":"levelo_inurba_marseille","lat":43.317121,"lon":5.423936,"is_reserved":false,"is_disabled":false,"rental_uris":{"android":"levelo://app?vid=e2340435-a767-4a07-9db0-637fd4bce462","ios":"levelo://app?vid=e2340435-a767-4a07-9db0-637fd4bce462"},"vehicle_type_id":"4","last_reported":1704197567,"current_range_meters":10400,"station_id":"ce4bhp92rcd13ifvqhbg","pricing_plan_id":"free"},{"bike_id":"47f8cb60-186e-4e83-96aa-050d47af2974","system_id":"levelo_inurba_marseille","lat":43.34137,"lon":5.409078,"is_reserved":false,"is_disabled":false,"rental_uris":{"android":"levelo://app?vid=47f8cb60-186e-4e83-96aa-050d47af2974","ios":"levelo://app?vid=47f8cb60-186e-4e83-96aa-050d47af2974"},"vehicle_type_id":"4","last_reported":1704197567,"current_range_meters":12400,"station_id":"ce4bhqh2rcd13ifvqhlg","pricing_plan_id":"free"},{"bike_id":"d7a0f436-4a10-430d-9dfa-fb613b9a9e9c","system_id":"levelo_inurba_marseille","lat":43.340804,"lon":5.410219,"is_reserved":false,"is_disabled":false,"rental_uris":{"android":"levelo://app?vid=d7a0f436-4a10-430d-9dfa-fb613b9a9e9c","ios":"levelo://app?vid=d7a0f436-4a10-430d-9dfa-fb613b9a9e9c"},"vehicle_type_id":"4","last_reported":1704197567,"current_range_meters":20400,"station_id":"ce4bhqh2rcd13ifvqhlg","pricing_plan_id":"free"},{"bike_id":"34feb82b-7908-45f2-9332-d15461fd3262","system_id":"levelo_inurba_marseille","lat":43.273129,"lon":5.390725,"is_reserved":false,"is_disabled":false,"rental_uris":{"android":"levelo://app?vid=34feb82b-7908-45f2-9332-d15461fd3262","ios":"levelo://app?vid=34feb82b-7908-45f2-9332-d15461fd3262"},"vehicle_type_id":"4","last_reported":1704197567,"current_range_meters":25600,"station_id":"ce4bhgp2rcd13ifvqfe0","pricing_plan_id":"free"},{"bike_id":"d6f95a70-c9ed-433f-92b8-5e4ba4dca2e4","system_id":"levelo_inurba_marseille","lat":43.274099,"lon":5.394019,"is_reserved":false,"is_disabled":false,"rental_uris":{"android":"levelo://app?vid=d6f95a70-c9ed-433f-92b8-5e4ba4dca2e4","ios":"levelo://app?vid=d6f95a70-c9ed-433f-92b8-5e4ba4dca2e4"},"vehicle_type_id":"4","last_reported":1704197567,"current_range_meters":31600,"station_id":"ce4bhdp2rcd13ifvqf20","pricing_plan_id":"free"},{"bike_id":"74d40ba2-d997-4cdc-9bff-7cc6a34f64d1","system_id":"levelo_inurba_marseille","lat":43.273129,"lon":5.390725,"is_reserved":false,"is_disabled":false,"rental_uris":{"android":"levelo://app?vid=74d40ba2-d997-4cdc-9bff-7cc6a34f64d1","ios":"levelo://app?vid=74d40ba2-d997-4cdc-9bff-7cc6a34f64d1"},"vehicle_type_id":"4","last_reported":1704197567,"current_range_meters":28400,"station_id":"ce4bhgp2rcd13ifvqfe0","pricing_plan_id":"free"},{"bike_id":"943bcc48-e632-4273-b6e8-5dbbdadd3d07","system_id":"levelo_inurba_marseille","lat":43.304096,"lon":5.425385,"is_reserved":false,"is_disabled":false,"rental_uris":{"android":"levelo://app?vid=943bcc48-e632-4273-b6e8-5dbbdadd3d07","ios":"levelo://app?vid=943bcc48-e632-4273-b6e8-5dbbdadd3d07"},"vehicle_type_id":"4","last_reported":1704197567,"current_range_meters":15600,"station_id":"ce4bhoh2rcd13ifvqh6g","pricing_plan_id":"free"},{"bike_id":"659b5bb0-4d1b-4a82-b6aa-c06bf50695e6","system_id":"levelo_inurba_marseille","lat":43.295511,"lon":5.422926,"is_reserved":false,"is_disabled":false,"rental_uris":{"android":"levelo://app?vid=659b5bb0-4d1b-4a82-b6aa-c06bf50695e6","ios":"levelo://app?vid=659b5bb0-4d1b-4a82-b6aa-c06bf50695e6"},"vehicle_type_id":"4","last_reported":1704197567,"current_range_meters":31600,"station_id":"ce4bhph2rcd13ifvqhdg","pricing_plan_id":"free"},{"bike_id":"d97f32bb-ebf7-4775-aba0-4259227bf342","system_id":"levelo_inurba_marseille","lat":43.295523,"lon":5.422926,"is_reserved":false,"is_disabled":false,"rental_uris":{"android":"levelo://app?vid=d97f32bb-ebf7-4775-aba0-4259227bf342","ios":"levelo://app?vid=d97f32bb-ebf7-4775-aba0-4259227bf342"},"vehicle_type_id":"4","last_reported":1704197567,"current_range_meters":27600,"station_id":"ce4bhph2rcd13ifvqhdg","pricing_plan_id":"free"},{"bike_id":"a1de90e0-a402-47ae-9f9d-c4770dc8cf3f","system_id":"levelo_inurba_marseille","lat":43.272124,"lon":5.391768,"is_reserved":false,"is_disabled":false,"rental_uris":{"android":"levelo://app?vid=a1de90e0-a402-47ae-9f9d-c4770dc8cf3f","ios":"levelo://app?vid=a1de90e0-a402-47ae-9f9d-c4770dc8cf3f"},"vehicle_type_id":"4","last_reported":1704197567,"current_range_meters":30400,"station_id":"ce4bhhp2rcd13ifvqfm0","pricing_plan_id":"free"},{"bike_id":"efc7f66d-dd11-4264-a42d-015194c775da","system_id":"levelo_inurba_marseille","lat":43.272116,"lon":5.391747,"is_reserved":false,"is_disabled":false,"rental_uris":{"android":"levelo://app?vid=efc7f66d-dd11-4264-a42d-015194c775da","ios":"levelo://app?vid=efc7f66d-dd11-4264-a42d-015194c775da"},"vehicle_type_id":"4","last_reported":1704197567,"current_range_meters":26000,"station_id":"ce4bhhp2rcd13ifvqfm0","pricing_plan_id":"free"},{"bike_id":"777d77a3-de66-4b7c-b2b8-e6883db7c94f","system_id":"levelo_inurba_marseille","lat":43.278128,"lon":5.407195,"is_reserved":false,"is_disabled":false,"rental_uris":{"android":"levelo://app?vid=777d77a3-de66-4b7c-b2b8-e6883db7c94f","ios":"levelo://app?vid=777d77a3-de66-4b7c-b2b8-e6883db7c94f"},"vehicle_type_id":"4","last_reported":1704197567,"current_range_meters":26800,"station_id":"ce4bhnh2rcd13ifvqgtg","pricing_plan_id":"free"},{"bike_id":"be6a9141-036d-47a4-89cf-72f53e5f3f83","system_id":"levelo_inurba_marseille","lat":43.269467,"lon":5.386439,"is_reserved":false,"is_disabled":false,"rental_uris":{"android":"levelo://app?vid=be6a9141-036d-47a4-89cf-72f53e5f3f83","ios":"levelo://app?vid=be6a9141-036d-47a4-89cf-72f53e5f3f83"},"vehicle_type_id":"4","last_reported":1704197567,"current_range_meters":7600,"station_id":"ce4bhh92rcd13ifvqfh0","pricing_plan_id":"free"},{"bike_id":"2e74240c-c9f6-4a2f-acb0-3bcc4ca24e5d","system_id":"levelo_inurba_marseille","lat":43.278128,"lon":5.407195,"is_reserved":false,"is_disabled":false,"rental_uris":{"android":"levelo://app?vid=2e74240c-c9f6-4a2f-acb0-3bcc4ca24e5d","ios":"levelo://app?vid=2e74240c-c9f6-4a2f-acb0-3bcc4ca24e5d"},"vehicle_type_id":"4","last_reported":1704197567,"current_range_meters":26800,"station_id":"ce4bhnh2rcd13ifvqgtg","pricing_plan_id":"free"},{"bike_id":"349db091-1618-4c17-b4ab-2f8a15c21560","system_id":"levelo_inurba_marseille","lat":43.269467,"lon":5.386439,"is_reserved":false,"is_disabled":false,"rental_uris":{"android":"levelo://app?vid=349db091-1618-4c17-b4ab-2f8a15c21560","ios":"levelo://app?vid=349db091-1618-4c17-b4ab-2f8a15c21560"},"vehicle_type_id":"4","last_reported":1704197567,"current_range_meters":18400,"station_id":"ce4bhh92rcd13ifvqfh0","pricing_plan_id":"free"},