{"last_updated":1683831887,"ttl":30,"version":"2.2","data":{"bikes":[{"bike_id":"634f3891-a60a-46bd-b58f-258ffeef9930","system_id":"levelo_inurba_marseille","lat":43.312239,"lon":5.368562,"is_reserved":false,"is_disabled":false,"rental_uris":{"android":"levelo://app?vid=634f3891-a60a-46bd-b58f-258ffeef9930","ios":"levelo://app?vid=634f3891-a60a-46bd-b58f-258ffeef9930"},"vehicle_type_id":"4","last_reported":1683831887,"current_range_meters":26400,"station_id":"ce4bgl92rcd13ifvqbq0","pricing_plan_id":"free"},{"bike_id":"9e73ac15-2ec6-438a-8b2a-1c76cf0698bb","system_id":"levelo_inurba_marseille","lat":43.312239,"lon":5.368562,"is_reserved":false,"is_disabled":false,"rental_uris":{"android":"levelo://app?vid=9e73ac15-2ec6-438a-8b2a-1c76cf0698bb","ios":"levelo://app?vid=9e73ac15-2ec6-438a-8b2a-1c76cf0698bb"},"vehicle_type_id":"4","last_reported":1683831887,"current_range_meters":5200,"station_id":"ce4bgl92rcd13ifvqbq0","pricing_plan_id":"free"},{"bike_id":"0ae934da-8e6e-4e8c-b64d-8647b24ab0d9","system_id":"levelo_inurba_marseille","lat":43.312239,"lon":5.368562,"is_reserved":false,"is_disabled":false,"rental_uris":{"android":"levelo://app?vid=0ae934da-8e6e-4e8c-b64d-8647b24ab0d9","ios":"levelo://app?vid=0ae934da-8e6e-4e8c-b64d-8647b24ab0d9"},"vehicle_type_id":"4","last_reported":1683831887,"current_range_meters":15600,"station_id":"ce4bgl92rcd13ifvqbq0","pricing_plan_id":"free"},{"bike_id":"107b07ca-25e9-4f14-b714-c858719b3b22","system_id":"levelo_inurba_marseille","lat":43.314811,"lon":5.373103,"is_reserved":false,"is_disabled":false,"rental_uris":{"android":"levelo://app?vid=107b07ca-25e9-4f14-b714-c858719b3b22","ios":"levelo://app?vid=107b07ca-25e9-4f14-b714-c858719b3b22"},"vehicle_type_id":"4","last_reported":1683831887,"current_range_meters":1200,"station_id":"ce4bgt12rcd13ifvqcd0","pricing_plan_id":"free"},{"bike_id":"d288020f-a6f3-4585-972d-dfc775558452","system_id":"levelo_inurba_marseille","lat":43.314811,"lon":5.373103,"is_reserved":false,"is_disabled":false,"rental_uris":{"android":"levelo://app?vid=d288020f-a6f3-4585-972d-dfc775558452","ios":"levelo://app?vid=d288020f-a6f3-4585-972d-dfc775558452"},"vehicle_type_id":"4","last_reported":1683831887,"current_range_meters":8000,"station_id":"ce4bgt12rcd13ifvqcd0","pricing_plan_id":"free"},{"bike_id":"c0745a2a-6fc0-4016-8091-14e17c079708","system_id":"levelo_inurba_marseille","lat":43.305989,"lon":5.37225,"is_reserved":false,"is_disabled":false,"rental_uris":{"android":"levelo://app?vid=c0745a2a-6fc0-4016-8091-14e17c079708","ios":"levelo://app?vid=c0745a2a-6fc0-4016-8091-14e17c079708"},"vehicle_type_id":"4","last_reported":1683831887,"current_range_meters":8400,"station_id":"ce4bgqh2rcd13ifvqc4g","pricing_plan_id":"free"},{"bike_id":"2faac5b9-c2fa-48a5-835c-a687ec1cf409","system_id":"levelo_inurba_marseille","lat":43.303046,"lon":5.368981,"is_reserved":false,"is_disabled":false,"rental_uris":{"android":"levelo://app?vid=2faac5b9-c2fa-48a5-835c-a687ec1cf409","ios":"levelo://app?vid=2faac5b9-c2fa-48a5-835c-a687ec1cf409"},"vehicle_type_id":"4","last_reported":1683831887,"current_range_meters":5200,"station_id":"ce4bgqh2rcd13ifvqc5g","pricing_plan_id":"free"},{"bike_id":"09800373-eca1-447f-8e43-dc5d1834a922","system_id":"levelo_inurba_marseille","lat":43.315293,"lon":5.380349,"is_reserved":false,"is_disabled":false,"rental_uris":{"android":"levelo://app?vid=09800373-eca1-447f-8e43-dc5d1834a922","ios":"levelo://app?vid=09800373-eca1-447f-8e43-dc5d1834a922"},"vehicle_type_id":"4","last_reported":1683831887,"current_range_meters":18400,"station_id":"ce4bhsp2rcd13ifvqi50","pricing_plan_id":"free"},{"bike_id":"fab4efcf-32c0-451e-a846-0a8e5d5fdd22","system_id":"levelo_inurba_marseille","lat":43.315289,"lon":5.380349,"is_reserved":false,"is_disabled":false,"rental_uris":{"android":"levelo://app?vid=fab4efcf-32c0-451e-a846-0a8e5d5fdd22","ios":"levelo://app?vid=fab4efcf-32c0-451e-a846-0a8e5d5fdd22"},"vehicle_type_id":"4","last_reported":1683831887,"current_range_meters":1200,"station_id":"ce4bhsp2rcd13ifvqi50","pricing_plan_id":"free"},{"bike_id":"4dfc1c0b-1a8a-445f-ac49-54d181c77a7d","system_id":"levelo_inurba_marseille","lat":43.301939,"lon":5.366286,"is_reserved":false,"is_disabled":false,"rental_uris":{"android":"levelo://app?vid=4dfc1c0b-1a8a-445f-ac49-54d181c77a7d","ios":"levelo://app?vid=4dfc1c0b-1a8a-445f-ac49-54d181c77a7d"},"vehicle_type_id":"4","last_reported":1683831887,"current_range_meters":12800,"station_id":"ce4bgrh2rcd13ifvqc8g","pricing_plan_id":"free"},{"bike_id":"d34ef0bb-de69-49de-867e-8f5e5b738bba","system_id":"levelo_inurba_marseille","lat":43.308012,"lon":5.381511,"is_reserved":false,"is_disabled":false,"rental_uris":{"android":"levelo://app?vid=d34ef0bb-de69-49de-867e-8f5e5b738bba","ios":"levelo://app?vid=d34ef0bb-de69-49de-867e-8f5e5b738bba"},"vehicle_type_id":"4","last_reported":1683831887,"current_range_meters":13600,"station_id":"ce4bgt12rcd13ifvqce0","pricing_plan_id":"free"},{"bike_id":"b8e8e9c8-0e4f-4683-876d-24e4ad8b60fa","system_id":"levelo_inurba_marseille","lat":43.308012,"lon":5.381511,"is_reserved":false,"is_disabled":false,"rental_uris":{"android":"levelo://app?vid=b8e8e9c8-0e4f-4683-876d-24e4ad8b60fa","ios":"levelo://app?vid=b8e8e9c8-0e4f-4683-876d-24e4ad8b60fa"},"vehicle_type_id":"4","last_reported":1683831887,"current_range_meters":0,"station_id":"ce4bgt12rcd13ifvqce0","pricing_plan_id":"free"},{"bike_id":"c98b2548-fa26-48ee-a0af-647856c62e1b","system_id":"levelo_inurba_marseille","lat":43.304606,"lon":5.379026,"is_reserved":false,"is_disabled":false,"rental_uris":{"android":"levelo://app?vid=c98b2548-fa26-48ee-a0af-647856c62e1b","ios":"levelo://app?vid=c98b2548-fa26-48ee-a0af-647856c62e1b"},"vehicle_type_id":"4","last_reported":1683831887,"current_range_meters":10400,"station_id":"ce4bgup2rcd13ifvqcn0","pricing_plan_id":"free"},{"bike_id":"fba7eb1f-086b-4e72-b041-ab539a46265a","system_id":"levelo_inurba_marseille","lat":43.304606,"lon":5.379026,"is_reserved":false,"is_disabled":false,"rental_uris":{"android":"levelo://app?vid=fba7eb1f-086b-4e72-b041-ab539a46265a","ios":"levelo://app?vid=fba7eb1f-086b-4e72-b041-ab539a46265a"},"vehicle_type_id":"4","last_reported":1683831887,"current_range_meters":18800,"station_id":"ce4bgup2rcd13ifvqcn0","pricing_plan_id":"free"},{"bike_id":"c84d783a-f22d-445a-a5a0-d08c11ad3183","system_id":"levelo_inurba_marseille","lat":43.313571,"lon":5.384829,"is_reserved":false,"is_disabled":false,"rental_uris":{"android":"levelo://app?vid=c84d783a-f22d-445a-a5a0-d08c11ad3183","ios":"levelo://app?vid=c84d783a-f22d-445a-a5a0-d08c11ad3183"},"vehicle_type_id":"4","last_reported":1683831887,"current_range_meters":8800,"station_id":"ce4bgt92rcd13ifvqcf0","pricing_plan_id":"free"},{"bike_id":"599be1eb-3fff-41e5-9536-c39b671b5e3a","system_id":"levelo_inurba_marseille","lat":43.313571,"lon":5.384829,"is_reserved":false,"is_disabled":false,"rental_uris":{"android":"levelo://app?vid=599be1eb-3fff-41e5-9536-c39b671b5e3a","ios":"levelo://app?vid=599be1eb-3fff-41e5-9536-c39b671b5e3a"},"vehicle_type_id":"4","last_reported":1683831887,"current_range_meters":23200,"station_id":"ce4bgt92rcd13ifvqcf0","pricing_plan_id":"free"},{"bike_id":"87f4f7a0-e835-4266-a6a6-6b76db8494eb","system_id":"levelo_inurba_marseille","lat":43.313571,"lon":5.384829,"is_reserved":false,"is_disabled":false,"rental_uris":{"android":"levelo://app?vid=87f4f7a0-e835-4266-a6a6-6b76db8494eb","ios":"levelo://app?vid=87f4f7a0-e835-4266-a6a6-6b76db8494eb"},"vehicle_type_id":"4","last_reported":1683831887,"current_range_meters":31600,"station_id":"ce4bgt92rcd13ifvqcf0","pricing_plan_id":"free"},{"bike_id":"11355a26-ce04-4637-b186-e63c722271b4","system_id":"levelo_inurba_marseille","lat":43.31374,"lon":5.38516,"is_reserved":false,"is_disabled":false,"rental_uris":{"android":"levelo://app?vid=11355a26-ce04-4637-b186-e63c722271b4","ios":"levelo://app?vid=11355a26-ce04-4637-b186-e63c722271b4"},"vehicle_type_id":"4","last_reported":1683831887,"current_range_meters":14000,"station_id":"ce4bgt92rcd13ifvqcf0","pricing_plan_id":"free"},{"bike_id":"295ec637-4035-4eb5-86e6-bc79b0d75117","system_id":"levelo_inurba_marseille","lat":43.298433,"lon":5.362774,"is_reserved":false,"is_disabled":false,"rental_uris":{"android":"levelo://app?vid=295ec637-4035-4eb5-86e6-bc79b0d75117","ios":"levelo://app?vid=295ec637-4035-4eb5-86e6-bc79b0d75117"},"vehicle_type_id":"4","last_reported":1683831887,"current_range_meters":18400,"station_id":"ce4bgpp2rcd13ifvqc3g","pricing_plan_id":"free"},{"bike_id":"a7cb464d-3c72-4251-937d-c8c037760a67","system_id":"levelo_inurba_marseille","lat":43.299243,"lon":5.37481,"is_reserved":false,"is_disabled":false,"rental_uris":{"android":"levelo://app?vid=a7cb464d-3c72-4251-937d-c8c037760a67","ios":"levelo://app?vid=a7cb464d-3c72-4251-937d-c8c037760a67"},"vehicle_type_id":"4","last_reported":1683831887,"current_range_meters":400,"station_id":"ce4bgjh2rcd13ifvqbg0","pricing_plan_id":"free"},{"bike_id":"ca52098e-3e11-44f5-9317-f05f48878e47","system_id":"levelo_inurba_marseille","lat":43.29922,"lon":5.37461,"is_reserved":false,"is_disabled":false,"rental_uris":{"android":"levelo://app?vid=ca52098e-3e11-44f5-9317-f05f48878e47","ios":"levelo://app?vid=ca52098e-3e11-44f5-9317-f05f48878e47"},"vehicle_type_id":"4","last_reported":1683831887,"current_range_meters":0,"station_id":"ce4bgjh2rcd13ifvqbg0","pricing_plan_id":"free"},{"bike_id":"121db5a2-8a55-4bd0-9a28-48277fb09de5","system_id":"levelo_inurba_marseille","lat":43.299243,"lon":5.374807,"is_reserved":false,"is_disabled":false,"rental_uris":{"android":"levelo://app?vid=121db5a2-8a55-4bd0-9a28-48277fb09de5","ios":"levelo://app?vid=121db5a2-8a55-4bd0-9a28-48277fb09de5"},"vehicle_type_id":"4","last_reported":1683831887,"current_range_meters":26400,"station_id":"ce4bgjh2rcd13ifvqbg0","pricing_plan_id":"free"},{"bike_id":"64a9efdf-452c-4305-8bfa-6fc8d134a66c","system_id":"levelo_inurba_marseille","lat":43.305364,"lon":5.384119,"is_reserved":false,"is_disabled":false,"rental_uris":{"android":"levelo://app?vid=64a9efdf-452c-4305-8bfa-6fc8d134a66c","ios":"levelo://app?vid=64a9efdf-452c-4305-8bfa-6fc8d134a66c"},"vehicle_type_id":"4","last_reported":1683831887,"current_range_meters":16000,"station_id":"ce4bgg92rcd13ifvqb30","pricing_plan_id":"free"},{"bike_id":"2f96f4b7-d3f1-4b87-b98f-caf50ba6d13d","system_id":"levelo_inurba_marseille","lat":43.3277,"lon":5.36688,"is_reserved":false,"is_disabled":false,"rental_uris":{"android":"levelo://app?vid=2f96f4b7-d3f1-4b87-b98f-caf50ba6d13d","ios":"levelo://app?vid=2f96f4b7-d3f1-4b87-b98f-caf50ba6d13d"},"vehicle_type_id":"4","last_reported":1683831887,"current_range_meters":19200,"station_id":"","pricing_plan_id":"free"},{"bike_id":"b1262093-6340-4ea8-b5dd-a5236523aa86","system_id":"levelo_inurba_marseille","lat":43.297832,"lon":5.371089,"is_reserved":false,"is_disabled":false,"rental_uris":{"android":"levelo://app?vid=b1262093-6340-4ea8-b5dd-a5236523aa86","ios":"levelo://app?vid=b1262093-6340-4ea8-b5dd-a5236523aa86"},"vehicle_type_id":"4","last_reported":1683831887,"current_range_meters":11200,"station_id":"","pricing_plan_id":"free"},{"bike_id":"dc1b8ebd-dede-429a-b119-0ca47be45320","system_id":"levelo_inurba_marseille","lat":43.297774,"lon":5.370875,"is_reserved":false,"is_disabled":false,"rental_uris":{"android":"levelo://app?vid=dc1b8ebd-dede-429a-b119-0ca47be45320","ios":"levelo://app?vid=dc1b8ebd-dede-429a-b119-0ca47be45320"},"vehicle_type_id":"4","last_reported":1683831887,"current_range_meters":18400,"station_id":"ce4bgop2rcd13ifvqc1g","pricing_plan_id":"free"},{"bike_id":"b2eeddbd-d0fd-4228-90de-f8e410a5b73a","system_id":"levelo_inurba_marseille","lat":43.297774,"lon":5.370875,"is_reserved":false,"is_disabled":false,"rental_uris":{"android":"levelo://app?vid=b2eeddbd-d0fd-4228-90de-f8e410a5b73a","ios":"levelo://app?vid=b2eeddbd-d0fd-4228-90de-f8e410a5b73a"},"vehicle_type_id":"4","last_reported":1683831887,"current_range_meters":6800,"station_id":"ce4bgop2rcd13ifvqc1g","pricing_plan_id":"free"},{"bike_id":"8d5e5079-bd8b-4d9e-befa-1fc5855d1999","system_id":"levelo_inurba_marseille","lat":43.297794,"lon":5.370888,"is_reserved":false,"is_disabled":false,"rental_uris":{"android":"levelo://app?vid=8d5e5079-bd8b-4d9e-befa-1fc5855d1999","ios":"levelo://app?vid=8d5e5079-bd8b-4d9e-befa-1fc5855d1999"},"vehicle_type_id":"4","last_reported":1683831887,"current_range_meters":16400,"station_id":"ce4bgop2rcd13ifvqc1g","pricing_plan_id":"free"},{"bike_id":"1f7c0b96-7431-4ec2-8cf3-535dbbd5d7b0","system_id":"levelo_inurba_marseille","lat":43.328371,"lon":5.366912,"is_reserved":false,"is_disabled":false,"rental_uris":{"android":"levelo://app?vid=1f7c0b96-7431-4ec2-8cf3-535dbbd5d7b0","ios":"levelo://app?vid=1f7c0b96-7431-4ec2-8cf3-535dbbd5d7b0"},"vehicle_type_id":"4","last_reported":1683831887,"current_range_meters":27200,"station_id":"ce4bhs92rcd13ifvqi0g","pricing_plan_id":"free"},{"bike_id":"9466398a-ab63-492b-a983-e43b41d0acd9","system_id":"levelo_inurba_marseille","lat":43.32832,"lon":5.36682,"is_reserved":false,"is_disabled":false,"rental_uris":{"android":"levelo://app?vid=9466398a-ab63-492b-a983-e43b41d0acd9","ios":"levelo://app?vid=9466398a-ab63-492b-a983-e43b41d0acd9"},"vehicle_type_id":"4","last_reported":1683831887,"current_range_meters":8800,"station_id":"ce4bhs92rcd13ifvqi0g","pricing_plan_id":"free"},{"bike_id":"2be82f79-e3a2-4567-8fca-bd9d15afdecb","system_id":"levelo_inurba_marseille","lat":43.32833,"lon":5.36681,"is_reserved":false,"is_disabled":false,"rental_uris":{"android":"levelo://app?vid=2be82f79-e3a2-4567-8fca-bd9d15afdecb","ios":"levelo://app?vid=2be82f79-e3a2-4567-8fca-bd9d15afdecb"},"vehicle_type_id":"4","last_reported":1683831887,"current_range_meters":24000,"station_id":"ce4bhs92rcd13ifvqi0g","pricing_plan_id":"free"},{"bike_id":"afcb6986-356b-4859-8c29-ac34da7debef","system_id":"levelo_inurba_marseille","lat":43.32834,"lon":5.36677,"is_reserved":false,"is_disabled":false,"rental_uris":{"android":"levelo://app?vid=afcb6986-356b-4859-8c29-ac34da7debef","ios":"levelo://app?vid=afcb6986-356b-4859-8c29-ac34da7debef"},"vehicle_type_id":"4","last_reported":1683831887,"current_range_meters":22800,"station_id":"ce4bhs92rcd13ifvqi0g","pricing_plan_id":"free"},{"bike_id":"a43bb755-57b3-4dca-9972-7e70c5be6ed9","system_id":"levelo_inurba_marseille","lat":43.32835,"lon":5.36677,"is_reserved":false,"is_disabled":false,"rental_uris":{"android":"levelo://app?vid=a43bb755-57b3-4dca-9972-7e70c5be6ed9","ios":"levelo://app?vid=a43bb755-57b3-4dca-9972-7e70c5be6ed9"},"vehicle_type_id":"4","last_reported":1683831887,"current_range_meters":10400,"station_id":"ce4bhs92rcd13ifvqi0g","pricing_plan_id":"free"},{"bike_id":"b4b5d2f8-79bb-4164-9d73-764bd2366590","system_id":"levelo_inurba_marseille","lat":43.32842,"lon":5.36676,"is_reserved":false,"is_disabled":false,"rental_uris":{"android":"levelo://app?vid=b4b5d2f8-79bb-4164-9d73-764bd2366590","ios":"levelo://app?vid=b4b5d2f8-79bb-4164-9d73-764bd2366590"},"vehicle_type_id":"4","last_reported":1683831887,"current_range_meters":0,"station_id":"ce4bhs92rcd13ifvqi0g","pricing_plan_id":"free"},{"bike_id":"f650815c-65f7-455a-8b37-aff3706cd233","system_id":"levelo_inurba_marseille","lat":43.30307,"lon":5.38516,"is_reserved":false,"is_disabled":false,"rental_uris":{"android":"levelo://app?vid=f650815c-65f7-455a-8b37-aff3706cd233","ios":"levelo://app?vid=f650815c-65f7-455a-8b37-aff3706cd233"},"vehicle_type_id":"4","last_reported":1683831887,"current_range_meters":9600,"station_id":"","pricing_plan_id":"free"},{"bike_id":"44d60100-6223-465e-9afe-1718a8ebdd92","system_id":"levelo_inurba_marseille","lat":43.296129,"lon":5.370777,"is_reserved":false,"is_disabled":false,"rental_uris":{"android":"levelo://app?vid=44d60100-6223-465e-9afe-1718a8ebdd92","ios":"levelo://app?vid=44d60100-6223-465e-9afe-1718a8ebdd92"},"vehicle_type_id":"4","last_reported":1683831887,"current_range_meters":2400,"station_id":"ce4bgnh2rcd13ifvqc0g","pricing_plan_id":"free"},{"bike_id":"5a95379c-8bf2-44fc-a753-744859d0c0ea","system_id":"levelo_inurba_marseille","lat":43.296921,"lon":5.376579,"is_reserved":false,"is_disabled":false,"rental_uris":{"android":"levelo://app?vid=5a95379c-8bf2-44fc-a753-744859d0c0ea","ios":"levelo://app?vid=5a95379c-8bf2-44fc-a753-744859d0c0ea"},"vehicle_type_id":"4","last_reported":1683831887,"current_range_meters":8400,"station_id":"ce4bgkh2rcd13ifvqbl0","pricing_plan_id":"free"},{"bike_id":"401ec951-1a68-44c5-8d61-1c07209996b8","system_id":"levelo_inurba_marseille","lat":43.299028,"lon":5.381509,"is_reserved":false,"is_disabled":false,"rental_uris":{"android":"levelo://app?vid=401ec951-1a68-44c5-8d61-1c07209996b8","ios":"levelo://app?vid=401ec951-1a68-44c5-8d61-1c07209996b8"},"vehicle_type_id":"4","last_reported":1683831887,"current_range_meters":4000,"station_id":"ce4bgj12rcd13ifvqbc0","pricing_plan_id":"free"},{"bike_id":"3d619420-6fda-4de3-b445-28ea0db02782","system_id":"levelo_inurba_marseille","lat":43.296921,"lon":5.376579,"is_reserved":false,"is_disabled":false,"rental_uris":{"android":"levelo://app?vid=3d619420-6fda-4de3-b445-28ea0db02782","ios":"levelo://app?vid=3d619420-6fda-4de3-b445-28ea0db02782"},"vehicle_type_id":"4","last_reported":1683831887,"current_range_meters":0,"station_id":"ce4bgkh2rcd13ifvqbl0","pricing_plan_id":"free"},{"bike_id":"3eaa3545-c47b-45dc-9a26-6f5e7ed2ed00","system_id":"levelo_inurba_marseille","lat":43.309589,"lon":5.390258,"is_reserved":false,"is_disabled":false,"rental_uris":{"android":"levelo://app?vid=3eaa3545-c47b-45dc-9a26-6f5e7ed2ed00","ios":"levelo://app?vid=3eaa3545-c47b-45dc-9a26-6f5e7ed2ed00"},"vehicle_type_id":"4","last_reported":1683831887,"current_range_meters":12400,"station_id":"ce4bgup2rcd13ifvqco0","pricing_plan_id":"free"},{"bike_id":"92f7853c-2c2e-46c6-8383-94daf1a6da68","system_id":"levelo_inurba_marseille","lat":43.309589,"lon":5.390258,"is_reserved":false,"is_disabled":false,"rental_uris":{"android":"levelo://app?vid=92f7853c-2c2e-46c6-8383-94daf1a6da68","ios":"levelo://app?vid=92f7853c-2c2e-46c6-8383-94daf1a6da68"},"vehicle_type_id":"4","last_reported":1683831887,"current_range_meters":6400,"station_id":"ce4bgup2rcd13ifvqco0","pricing_plan_id":"free"},{"bike_id":"9db086e2-c5f4-4246-bfe3-5cd54baed79f","system_id":"levelo_inurba_marseille","lat":43.31761,"lon":5.39013,"is_reserved":false,"is_disabled":false,"rental_uris":{"android":"levelo://app?vid=9db086e2-c5f4-4246-bfe3-5cd54baed79f","ios":"levelo://app?vid=9db086e2-c5f4-4246-bfe3-5cd54baed79f"},"vehicle_type_id":"4","last_reported":1683831887,"current_range_meters":25200,"station_id":"ce4bhqp2rcd13ifvqhng","pricing_plan_id":"free"},{"bike_id":"18247572-db94-47e1-9692-beac11a93a7b","system_id":"levelo_inurba_marseille","lat":43.317557,"lon":5.390173,"is_reserved":false,"is_disabled":false,"rental_uris":{"android":"levelo://app?vid=18247572-db94-47e1-9692-beac11a93a7b","ios":"levelo://app?vid=18247572-db94-47e1-9692-beac11a93a7b"},"vehicle_type_id":"4","last_reported":1683831887,"current_range_meters":4800,"station_id":"ce4bhqp2rcd13ifvqhng","pricing_plan_id":"free"},{"bike_id":"2d7ddae0-75c5-4f27-bb77-758cf5ca3c9f","system_id":"levelo_inurba_marseille","lat":43.317557,"lon":5.390173,"is_reserved":false,"is_disabled":false,"rental_uris":{"android":"levelo://app?vid=2d7ddae0-75c5-4f27-bb77-758cf5ca3c9f","ios":"levelo://app?vid=2d7ddae0-75c5-4f27-bb77-758cf5ca3c9f"},"vehicle_type_id":"4","last_reported":1683831887,"current_range_meters":15200,"station_id":"ce4bhqp2rcd13ifvqhng","pricing_plan_id":"free"},{"bike_id":"8128bf0a-e817-4f56-a609-37c577f5d054","system_id":"levelo_inurba_marseille","lat":43.31755,"lon":5.3902,"is_reserved":false,"is_disabled":false,"rental_uris":{"android":"levelo://app?vid=8128bf0a-e817-4f56-a609-37c577f5d054","ios":"levelo://app?vid=8128bf0a-e817-4f56-a609-37c577f5d054"},"vehicle_type_id":"4","last_reported":1683831887,"current_range_meters":7600,"station_id":"ce4bhqp2rcd13ifvqhng","pricing_plan_id":"free"},{"bike_id":"f6350567-364b-4d1d-90e2-d0a6b9fd0084","system_id":"levelo_inurba_marseille","lat":43.29802,"lon":5.38097,"is_reserved":false,"is_disabled":false,"rental_uris":{"android":"levelo://app?vid=f6350567-364b-4d1d-90e2-d0a6b9fd0084","ios":"levelo://app?vid=f6350567-364b-4d1d-90e2-d0a6b9fd0084"},"vehicle_type_id":"4","last_reported":1683831887,"current_range_meters":0,"station_id":"ce4bgip2rcd13ifvqbb0","pricing_plan_id":"free"},{"bike_id":"ce2ba6d0-3b0a-40fd-9347-824bc1977744","system_id":"levelo_inurba_marseille","lat":43.304278,"lon":5.388868,"is_reserved":false,"is_disabled":false,"rental_uris":{"android":"levelo://app?vid=ce2ba6d0-3b0a-40fd-9347-824bc1977744","ios":"levelo://app?vid=ce2ba6d0-3b0a-40fd-9347-824bc1977744"},"vehicle_type_id":"4","last_reported":1683831887,"current_range_meters":28000,"station_id":"ce4bgk12rcd13ifvqbi0","pricing_plan_id":"free"},{"bike_id":"89f542f1-53e0-4e10-970b-5d8bdfaabea7","system_id":"levelo_inurba_marseille","lat":43.304278,"lon":5.388868,"is_reserved":false,"is_disabled":false,"rental_uris":{"android":"levelo://app?vid=89f542f1-53e0-4e10-970b-5d8bdfaabea7","ios":"levelo://app?vid=89f542f1-53e0-4e10-970b-5d8bdfaabea7"},"vehicle_type_id":"4","last_reported":1683831887,"current_range_meters":2000,"station_id":"ce4bgk12rcd13ifvqbi0","pricing_plan_id":"free"},{"bike_id":"19aa6e9f-b099-4ae3-b95c-c76198c2c554","system_id":"levelo_inurba_marseille","lat":43.298037,"lon":5.381066,"is_reserved":false,"is_disabled":false,"rental_uris":{"android":"levelo://app?vid=19aa6e9f-b099-4ae3-b95c-c76198c2c554","ios":"levelo://app?vid=19aa6e9f-b099-4ae3-b95c-c76198c2c554"},"vehicle_type_id":"4","last_reported":1683831887,"current_range_meters":24800,"station_id":"ce4bgip2rcd13ifvqbb0","pricing_plan_id":"free"},{"bike_id":"b7a03e14-8de5-46a5-9961-0dc888499288","system_id":"levelo_inurba_marseille","lat":43.304274,"lon":5.388873,"is_reserved":false,"is_disabled":false,"rental_uris":{"android":"levelo://app?vid=b7a03e14-8de5-46a5-9961-0dc888499288","ios":"levelo://app?vid=b7a03e14-8de5-46a5-9961-0dc888499288"},"vehicle_type_id":"4","last_reported":1683831887,"current_range_meters":0,"station_id":"ce4bgk12rcd13ifvqbi0","pricing_plan_id":"free"},{"bike_id":"8c2b84c1-ef38-429b-ad22-b84c98d4586a","system_id":"levelo_inurba_marseille","lat":43.295279,"lon":5.375048,"is_reserved":false,"is_disabled":false,"rental_uris":{"android":"levelo://app?vid=8c2b84c1-ef38-429b-ad22-b84c98d4586a","ios":"levelo://app?vid=8c2b84c1-ef38-429b-ad22-b84c98d4586a"},"vehicle_type_id":"4","last_reported":1683831887,"current_range_meters":22800,"station_id":"ce4bgkp2rcd13ifvqbmg","pricing_plan_id":"free"},{"bike_id":"e314e816-173b-4784-b85d-4d9878d099e9","system_id":"levelo_inurba_marseille","lat":43.295279,"lon":5.375048,"is_reserved":false,"is_disabled":false,"rental_uris":{"android":"levelo://app?vid=e314e816-173b-4784-b85d-4d9878d099e9","ios":"levelo://app?vid=e314e816-173b-4784-b85d-4d9878d099e9"},"vehicle_type_id":"4","last_reported":1683831887,"current_range_meters":22000,"station_id":"ce4bgkp2rcd13ifvqbmg","pricing_plan_id":"free"},{"bike_id":"ff358ba4-0e24-405a-80c9-330d2e47b4f3","system_id":"levelo_inurba_marseille","lat":43.295279,"lon":5.375048,"is_reserved":false,"is_disabled":false,"rental_uris":{"android":"levelo://app?vid=ff358ba4-0e24-405a-80c9-330d2e47b4f3","ios":"levelo://app?vid=ff358ba4-0e24-405a-80c9-330d2e47b4f3"},"vehicle_type_id":"4","last_reported":1683831887,"current_range_meters":22000,"station_id":"ce4bgkp2rcd13ifvqbmg","pricing_plan_id":"free"},{"bike_id":"f826386b-b73d-4b30-8e7b-8f80505a2b60","system_id":"levelo_inurba_marseille","lat":43.29602,"lon":5.381084,"is_reserved":false,"is_disabled":false,"rental_uris":{"android":"levelo://app?vid=f826386b-b73d-4b30-8e7b-8f80505a2b60","ios":"levelo://app?vid=f826386b-b73d-4b30-8e7b-8f80505a2b60"},"vehicle_type_id":"4","last_reported":1683831887,"current_range_meters":2000,"station_id":"ce4bgl12rcd13ifvqbo0","pricing_plan_id":"free"},{"bike_id":"fe3210e6-329e-4a2b-9d66-5f6f2d768533","system_id":"levelo_inurba_marseille","lat":43.29602,"lon":5.381084,"is_reserved":false,"is_disabled":false,"rental_uris":{"android":"levelo://app?vid=fe3210e6-329e-4a2b-9d66-5f6f2d768533","ios":"levelo://app?vid=fe3210e6-329e-4a2b-9d66-5f6f2d768533"},"vehicle_type_id":"4","last_reported":1683831887,"current_range_meters":9600,"station_id":"ce4bgl12rcd13ifvqbo0","pricing_plan_id":"free"},{"bike_id":"78ceb565-aa7e-4666-aec4-b41143d9c075","system_id":"levelo_inurba_marseille","lat":43.29602,"lon":5.381084,"is_reserved":false,"is_disabled":false,"rental_uris":{"android":"levelo://app?vid=78ceb565-aa7e-4666-aec4-b41143d9c075","ios":"levelo://app?vid=78ceb565-aa7e-4666-aec4-b41143d9c075"},"vehicle_type_id":"4","last_reported":1683831887,"current_range_meters":27600,"station_id":"ce4bgl12rcd13ifvqbo0","pricing_plan_id":"free"},{"bike_id":"3274624b-219a-40a8-aa5f-164b877f3113","system_id":"levelo_inurba_marseille","lat":43.293249,"lon":5.371578,"is_reserved":false,"is_disabled":false,"rental_uris":{"android":"levelo://app?vid=3274624b-219a-40a8-aa5f-164b877f3113","ios":"levelo://app?vid=3274624b-219a-40a8-aa5f-164b877f3113"},"vehicle_type_id":"4","last_reported":1683831887,"current_range_meters":20800,"station_id":"ce4bgh92rcd13ifvqb40","pricing_plan_id":"free"},{"bike_id":"aec078ee-8478-48ad-97f7-d9b45f1234a1","system_id":"levelo_inurba_marseille","lat":43.292749,"lon":5.368402,"is_reserved":false,"is_disabled":false,"rental_uris":{"android":"levelo://app?vid=aec078ee-8478-48ad-97f7-d9b45f1234a1","ios":"levelo://app?vid=aec078ee-8478-48ad-97f7-d9b45f1234a1"},"vehicle_type_id":"4","last_reported":1683831887,"current_range_meters":2800,"station_id":"ce4bhbp2rcd13ifvqesg","pricing_plan_id":"free"},{"bike_id":"683ce386-1fd8-4ce7-a51d-8918d58d9730","system_id":"levelo_inurba_marseille","lat":43.293249,"lon":5.371578,"is_reserved":false,"is_disabled":false,"rental_uris":{"android":"levelo://app?vid=683ce386-1fd8-4ce7-a51d-8918d58d9730","ios":"levelo://app?vid=683ce386-1fd8-4ce7-a51d-8918d58d9730"},"vehicle_type_id":"4","last_reported":1683831887,"current_range_meters":3600,"station_id":"ce4bgh92rcd13ifvqb40","pricing_plan_id":"free"},{"bike_id":"ddbf18c5-fcf4-4d71-942e-9275bada2d45","system_id":"levelo_inurba_marseille","lat":43.29301,"lon":5.37179,"is_reserved":false,"is_disabled":false,"rental_uris":{"android":"levelo://app?vid=ddbf18c5-fcf4-4d71-942e-9275bada2d45","ios":"levelo://app?vid=ddbf18c5-fcf4-4d71-942e-9275bada2d45"},"vehicle_type_id":"4","last_reported":1683831887,"current_range_meters":400,"station_id":"","pricing_plan_id":"free"},{"bike_id":"a506f7e7-db60-4157-8602-a436c29a0f1c","system_id":"levelo_inurba_marseille","lat":43.292749,"lon":5.368402,"is_reserved":false,"is_disabled":false,"rental_uris":{"android":"levelo://app?vid=a506f7e7-db60-4157-8602-a436c29a0f1c","ios":"levelo://app?vid=a506f7e7-db60-4157-8602-a436c29a0f1c"},"vehicle_type_id":"4","last_reported":1683831887,"current_range_meters":2800,"station_id":"ce4bhbp2rcd13ifvqesg","pricing_plan_id":"free"},{"bike_id":"1e705572-1746-4676-9426-2433bbc0b977","system_id":"levelo_inurba_marseille","lat":43.29295,"lon":5.37469,"is_reserved":false,"is_disabled":false,"rental_uris":{"android":"levelo://app?vid=1e705572-1746-4676-9426-2433bbc0b977","ios":"levelo://app?vid=1e705572-1746-4676-9426-2433bbc0b977"},"vehicle_type_id":"4","last_reported":1683831887,"current_range_meters":30400,"station_id":"ce4bgi12rcd13ifvqb70","pricing_plan_id":"free"},{"bike_id":"5bd84b74-a916-44d9-b7f3-6be5aa55951a","system_id":"levelo_inurba_marseille","lat":43.2936,"lon":5.37835,"is_reserved":false,"is_disabled":false,"rental_uris":{"android":"levelo://app?vid=5bd84b74-a916-44d9-b7f3-6be5aa55951a","ios":"levelo://app?vid=5bd84b74-a916-44d9-b7f3-6be5aa55951a"},"vehicle_type_id":"4","last_reported":1683831887,"current_range_meters":30400,"station_id":"ce4bgjh2rcd13ifvqbf0","pricing_plan_id":"free"},{"bike_id":"e2a7bc65-6ea1-4414-a8b2-f3c60c65f3be","system_id":"levelo_inurba_marseille","lat":43.30085,"lon":5.390856,"is_reserved":false,"is_disabled":false,"rental_uris":{"android":"levelo://app?vid=e2a7bc65-6ea1-4414-a8b2-f3c60c65f3be","ios":"levelo://app?vid=e2a7bc65-6ea1-4414-a8b2-f3c60c65f3be"},"vehicle_type_id":"4","last_reported":1683831887,"current_range_meters":11600,"station_id":"ce4bh192rcd13ifvqdb0","pricing_plan_id":"free"},{"bike_id":"17e38c6f-8dff-4bea-a5be-8045ae669134","system_id":"levelo_inurba_marseille","lat":43.30085,"lon":5.390856,"is_reserved":false,"is_disabled":false,"rental_uris":{"android":"levelo://app?vid=17e38c6f-8dff-4bea-a5be-8045ae669134","ios":"levelo://app?vid=17e38c6f-8dff-4bea-a5be-8045ae669134"},"vehicle_type_id":"4","last_reported":1683831887,"current_range_meters":15200,"station_id":"ce4bh192rcd13ifvqdb0","pricing_plan_id":"free"},{"bike_id":"444ccc45-eb43-4f31-9cb8-0253a709a12f","system_id":"levelo_inurba_marseille","lat":43.30085,"lon":5.390856,"is_reserved":false,"is_disabled":false,"rental_uris":{"android":"levelo://app?vid=444ccc45-eb43-4f31-9cb8-0253a709a12f","ios":"levelo://app?vid=444ccc45-eb43-4f31-9cb8-0253a709a12f"},"vehicle_type_id":"4","last_reported":1683831887,"current_range_meters":8000,"station_id":"ce4bh192rcd13ifvqdb0","pricing_plan_id":"free"},{"bike_id":"e9db0986-493b-4262-859b-8bc0106589a4","system_id":"levelo_inurba_marseille","lat":43.30085,"lon":5.390856,"is_reserved":false,"is_disabled":false,"rental_uris":{"android":"levelo://app?vid=e9db0986-493b-4262-859b-8bc0106589a4","ios":"levelo://app?vid=e9db0986-493b-4262-859b-8bc0106589a4"},"vehicle_type_id":"4","last_reported":1683831887,"current_range_meters":12800,"station_id":"ce4bh192rcd13ifvqdb0","pricing_plan_id":"free"},{"bike_id":"3b39b96f-b5c6-4bb2-a499-a8ab1fd82228","system_id":"levelo_inurba_marseille","lat":43.30085,"lon":5.390856,"is_reserved":false,"is_disabled":false,"rental_uris":{"android":"levelo://app?vid=3b39b96f-b5c6-4bb2-a499-a8ab1fd82228","ios":"levelo://app?vid=3b39b96f-b5c6-4bb2-a499-a8ab1fd82228"},"vehicle_type_id":"4","last_reported":1683831887,"current_range_meters":9200,"station_id":"ce4bh192rcd13ifvqdb0","pricing_plan_id":"free"},{"bike_id":"dd54f993-af56-47d1-b9d9-1fe6f10a98ea","system_id":"levelo_inurba_marseille","lat":43.291671,"lon":5.371575,"is_reserved":false,"is_disabled":false,"rental_uris":{"android":"levelo://app?vid=dd54f993-af56-47d1-b9d9-1fe6f10a98ea","ios":"levelo://app?vid=dd54f993-af56-47d1-b9d9-1fe6f10a98ea"},"vehicle_type_id":"4","last_reported":1683831887,"current_range_meters":12800,"station_id":"ce4bha92rcd13ifvqeh0","pricing_plan_id":"free"},{"bike_id":"9b51ed4f-0a62-4a18-b214-34b086020e48","system_id":"levelo_inurba_marseille","lat":43.291675,"lon":5.371583,"is_reserved":false,"is_disabled":false,"rental_uris":{"android":"levelo://app?vid=9b51ed4f-0a62-4a18-b214-34b086020e48","ios":"levelo://app?vid=9b51ed4f-0a62-4a18-b214-34b086020e48"},"vehicle_type_id":"4","last_reported":1683831887,"current_range_meters":400,"station_id":"ce4bha92rcd13ifvqeh0","pricing_plan_id":"free"},{"bike_id":"fae5e2e8-3fa3-45d6-8139-7dc1d484c3eb","system_id":"levelo_inurba_marseille","lat":43.291671,"lon":5.371575,"is_reserved":false,"is_disabled":false,"rental_uris":{"android":"levelo://app?vid=fae5e2e8-3fa3-45d6-8139-7dc1d484c3eb","ios":"levelo://app?vid=fae5e2e8-3fa3-45d6-8139-7dc1d484c3eb"},"vehicle_type_id":"4","last_reported":1683831887,"current_range_meters":16400,"station_id":"ce4bha92rcd13ifvqeh0","pricing_plan_id":"free"},{"bike_id":"a1fe5b59-7da8-425a-a401-7bcb1737e24f","system_id":"levelo_inurba_marseille","lat":43.29216,"lon":5.35833,"is_reserved":false,"is_disabled":false,"rental_uris":{"android":"levelo://app?vid=a1fe5b59-7da8-425a-a401-7bcb1737e24f","ios":"levelo://app?vid=a1fe5b59-7da8-425a-a401-7bcb1737e24f"},"vehicle_type_id":"4","last_reported":1683831887,"current_range_meters":9200,"station_id":"","pricing_plan_id":"free"},{"bike_id":"d75d0732-878b-4369-882e-f19fe8db6782","system_id":"levelo_inurba_marseille","lat":43.29199,"lon":5.35816,"is_reserved":false,"is_disabled":false,"rental_uris":{"android":"levelo://app?vid=d75d0732-878b-4369-882e-f19fe8db6782","ios":"levelo://app?vid=d75d0732-878b-4369-882e-f19fe8db6782"},"vehicle_type_id":"4","last_reported":1683831887,"current_range_meters":14800,"station_id":"","pricing_plan_id":"free"},{"bike_id":"8e291836-c71f-4e6a-9d2c-3f10b76f718e","system_id":"levelo_inurba_marseille","lat":43.29198,"lon":5.35814,"is_reserved":false,"is_disabled":false,"rental_uris":{"android":"levelo://app?vid=8e291836-c71f-4e6a-9d2c-3f10b76f718e","ios":"levelo://app?vid=8e291836-c71f-4e6a-9d2c-3f10b76f718e"},"vehicle_type_id":"4","last_reported":1683831887,"current_range_meters":16800,"station_id":"","pricing_plan_id":"free"},{"bike_id":"b5fe510c-6df3-47c7-b1a4-b887a08664e9","system_id":"levelo_inurba_marseille","lat":43.309038,"lon":5.396546,"is_reserved":false,"is_disabled":false,"rental_uris":{"android":"levelo://app?vid=b5fe510c-6df3-47c7-b1a4-b887a08664e9","ios":"levelo://app?vid=b5fe510c-6df3-47c7-b1a4-b887a08664e9"},"vehicle_type_id":"4","last_reported":1683831887,"current_range_meters":2800,"station_id":"ce4bh012rcd13ifvqcv0","pricing_plan_id":"free"},{"bike_id":"b1688492-1a62-4d1e-a0f8-928de1a5ce80","system_id":"levelo_inurba_marseille","lat":43.309038,"lon":5.396546,"is_reserved":false,"is_disabled":false,"rental_uris":{"android":"levelo://app?vid=b1688492-1a62-4d1e-a0f8-928de1a5ce80","ios":"levelo://app?vid=b1688492-1a62-4d1e-a0f8-928de1a5ce80"},"vehicle_type_id":"4","last_reported":1683831887,"current_range_meters":6400,"station_id":"ce4bh012rcd13ifvqcv0","pricing_plan_id":"free"},{"bike_id":"4f9350fc-4b13-4992-84b3-2a3efeccacae","system_id":"levelo_inurba_marseille","lat":43.309038,"lon":5.396546,"is_reserved":false,"is_disabled":false,"rental_uris":{"android":"levelo://app?vid=4f9350fc-4b13-4992-84b3-2a3efeccacae","ios":"levelo://app?vid=4f9350fc-4b13-4992-84b3-2a3efeccacae"},"vehicle_type_id":"4","last_reported":1683831887,"current_range_meters":21600,"station_id":"ce4bh012rcd13ifvqcv0","pricing_plan_id":"free"},{"bike_id":"8cff9d44-c78f-4cd2-b6f4-f78b5b90e1b4","system_id":"levelo_inurba_marseille","lat":43.309038,"lon":5.396546,"is_reserved":false,"is_disabled":false,"rental_uris":{"android":"levelo://app?vid=8cff9d44-c78f-4cd2-b6f4-f78b5b90e1b4","ios":"levelo://app?vid=8cff9d44-c78f-4cd2-b6f4-f78b5b90e1b4"},"vehicle_type_id":"4","last_reported":1683831887,"current_range_meters":30800,"station_id":"ce4bh012rcd13ifvqcv0","pricing_plan_id":"free"},{"bike_id":"6b9313bb-eb8b-43db-85bd-9639e8d98403","system_id":"levelo_inurba_marseille","lat":43.309038,"lon":5.396546,"is_reserved":false,"is_disabled":false,"rental_uris":{"android":"levelo://app?vid=6b9313bb-eb8b-43db-85bd-9639e8d98403","ios":"levelo://app?vid=6b9313bb-eb8b-43db-85bd-9639e8d98403"},"vehicle_type_id":"4","last_reported":1683831887,"current_range_meters":14800,"station_id":"ce4bh012rcd13ifvqcv0","pricing_plan_id":"free"},{"bike_id":"2d72918a-0a65-455b-9f4a-e5125fa03012","system_id":"levelo_inurba_marseille","lat":43.3133,"lon":5.39693,"is_reserved":false,"is_disabled":false,"rental_uris":{"android":"levelo://app?vid=2d72918a-0a65-455b-9f4a-e5125fa03012","ios":"levelo://app?vid=2d72918a-0a65-455b-9f4a-e5125fa03012"},"vehicle_type_id":"4","last_reported":1683831887,"current_range_meters":3600,"station_id":"ce4bgvp2rcd13ifvqcu0","pricing_plan_id":"free"},{"bike_id":"9c781ae8-341e-4c24-9287-7dca908894b0","system_id":"levelo_inurba_marseille","lat":43.31318,"lon":5.39694,"is_reserved":false,"is_disabled":false,"rental_uris":{"android":"levelo://app?vid=9c781ae8-341e-4c24-9287-7dca908894b0","ios":"levelo://app?vid=9c781ae8-341e-4c24-9287-7dca908894b0"},"vehicle_type_id":"4","last_reported":1683831887,"current_range_meters":10800,"station_id":"ce4bgvp2rcd13ifvqcu0","pricing_plan_id":"free"},{"bike_id":"f0bacf1e-5ca7-4e49-99b4-d044c3fbdea0","system_id":"levelo_inurba_marseille","lat":43.31329,"lon":5.39694,"is_reserved":false,"is_disabled":false,"rental_uris":{"android":"levelo://app?vid=f0bacf1e-5ca7-4e49-99b4-d044c3fbdea0","ios":"levelo://app?vid=f0bacf1e-5ca7-4e49-99b4-d044c3fbdea0"},"vehicle_type_id":"4","last_reported":1683831887,"current_range_meters":1600,"station_id":"ce4bgvp2rcd13ifvqcu0","pricing_plan_id":"free"},{"bike_id":"b95c60c6-66e5-426e-8cdb-2728632759a7","system_id":"levelo_inurba_marseille","lat":43.313291,"lon":5.396838,"is_reserved":false,"is_disabled":false,"rental_uris":{"android":"levelo://app?vid=b95c60c6-66e5-426e-8cdb-2728632759a7","ios":"levelo://app?vid=b95c60c6-66e5-426e-8cdb-2728632759a7"},"vehicle_type_id":"4","last_reported":1683831887,"current_range_meters":1200,"station_id":"ce4bgvp2rcd13ifvqcu0","pricing_plan_id":"free"},{"bike_id":"867a0806-578c-4311-aec3-987ab4749fe5","system_id":"levelo_inurba_marseille","lat":43.313291,"lon":5.396838,"is_reserved":false,"is_disabled":false,"rental_uris":{"android":"levelo://app?vid=867a0806-578c-4311-aec3-987ab4749fe5","ios":"levelo://app?vid=867a0806-578c-4311-aec3-987ab4749fe5"},"vehicle_type_id":"4","last_reported":1683831887,"current_range_meters":7600,"station_id":"ce4bgvp2rcd13ifvqcu0","pricing_plan_id":"free"},{"bike_id":"bbdb49f9-a9d2-4746-8164-05438f82bf6c","system_id":"levelo_inurba_marseille","lat":43.309038,"lon":5.396546,"is_reserved":false,"is_disabled":false,"rental_uris":{"android":"levelo://app?vid=bbdb49f9-a9d2-4746-8164-05438f82bf6c","ios":"levelo://app?vid=bbdb49f9-a9d2-4746-8164-05438f82bf6c"},"vehicle_type_id":"4","last_reported":1683831887,"current_range_meters":30000,"station_id":"ce4bh012rcd13ifvqcv0","pricing_plan_id":"free"},{"bike_id":"b126e2a7-b553-466f-8a1c-72be379b30c0","system_id":"levelo_inurba_marseille","lat":43.313291,"lon":5.396838,"is_reserved":false,"is_disabled":false,"rental_uris":{"android":"levelo://app?vid=b126e2a7-b553-466f-8a1c-72be379b30c0","ios":"levelo://app?vid=b126e2a7-b553-466f-8a1c-72be379b30c0"},"vehicle_type_id":"4","last_reported":1683831887,"current_range_meters":19200,"station_id":"ce4bgvp2rcd13ifvqcu0","pricing_plan_id":"free"},{"bike_id":"a8dfed8a-56df-4e30-9215-2620076dd475","system_id":"levelo_inurba_marseille","lat":43.31326,"lon":5.39699,"is_reserved":false,"is_disabled":false,"rental_uris":{"android":"levelo://app?vid=a8dfed8a-56df-4e30-9215-2620076dd475","ios":"levelo://app?vid=a8dfed8a-56df-4e30-9215-2620076dd475"},"vehicle_type_id":"4","last_reported":1683831887,"current_range_meters":6400,"station_id":"ce4bgvp2rcd13ifvqcu0","pricing_plan_id":"free"},{"bike_id":"89194808-5c37-4adc-8194-0c75e8d3c734","system_id":"levelo_inurba_marseille","lat":43.313291,"lon":5.396838,"is_reserved":false,"is_disabled":false,"rental_uris":{"android":"levelo://app?vid=89194808-5c37-4adc-8194-0c75e8d3c734","ios":"levelo://app?vid=89194808-5c37-4adc-8194-0c75e8d3c734"},"vehicle_type_id":"4","last_reported":1683831887,"current_range_meters":1200,"station_id":"ce4bgvp2rcd13ifvqcu0","pricing_plan_id":"free"},{"bike_id":"33c3dea9-4c1f-452f-89ed-554afd0b40fc","system_id":"levelo_inurba_marseille","lat":43.309038,"lon":5.396546,"is_reserved":false,"is_disabled":false,"rental_uris":{"android":"levelo://app?vid=33c3dea9-4c1f-452f-89ed-554afd0b40fc","ios":"levelo://app?vid=33c3dea9-4c1f-452f-89ed-554afd0b40fc"},"vehicle_type_id":"4","last_reported":1683831887,"current_range_meters":17600,"station_id":"ce4bh012rcd13ifvqcv0","pricing_plan_id":"free"},{"bike_id":"b7d3e4d2-4008-401a-bb2a-bfa26f81eed8","system_id":"levelo_inurba_marseille","lat":43.29529,"lon":5.385581,"is_reserved":false,"is_disabled":false,"rental_uris":{"android":"levelo://app?vid=b7d3e4d2-4008-401a-bb2a-bfa26f81eed8","ios":"levelo://app?vid=b7d3e4d2-4008-401a-bb2a-bfa26f81eed8"},"vehicle_type_id":"4","last_reported":1683831887,"current_range_meters":0,"station_id":"ce4bgih2rcd13ifvqba0","pricing_plan_id":"free"},{"bike_id":"7189a3b0-084c-4a9d-9252-3c90fc905eba","system_id":"levelo_inurba_marseille","lat":43.309038,"lon":5.396546,"is_reserved":false,"is_disabled":false,"rental_uris":{"android":"levelo://app?vid=7189a3b0-084c-4a9d-9252-3c90fc905eba","ios":"levelo://app?vid=7189a3b0-084c-4a9d-9252-3c90fc905eba"},"vehicle_type_id":"4","last_reported":1683831887,"current_range_meters":7200,"station_id":"ce4bh012rcd13ifvqcv0","pricing_plan_id":"free"},{"bike_id":"143eafba-b9dc-44e4-92da-9e27be0d0c84","system_id":"levelo_inurba_marseille","lat":43.29529,"lon":5.385581,"is_reserved":false,"is_disabled":false,"rental_uris":{"android":"levelo://app?vid=143eafba-b9dc-44e4-92da-9e27be0d0c84","ios":"levelo://app?vid=143eafba-b9dc-44e4-92da-9e27be0d0c84"},"vehicle_type_id":"4","last_reported":1683831887,"current_range_meters":0,"station_id":"ce4bgih2rcd13ifvqba0","pricing_plan_id":"free"},{"bike_id":"3ff3717a-a64a-4d9b-82e1-f52a7089d80d","system_id":"levelo_inurba_marseille","lat":43.29529,"lon":5.385581,"is_reserved":false,"is_disabled":false,"rental_uris":{"android":"levelo://app?vid=3ff3717a-a64a-4d9b-82e1-f52a7089d80d","ios":"levelo://app?vid=3ff3717a-a64a-4d9b-82e1-f52a7089d80d"},"vehicle_type_id":"4","last_reported":1683831887,"current_range_meters":28400,"station_id":"ce4bgih2rcd13ifvqba0","pricing_plan_id":"free"},{"bike_id":"e5e504eb-9178-4085-a38b-5ff1b13c7685","system_id":"levelo_inurba_marseille","lat":43.29529,"lon":5.385581,"is_reserved":false,"is_disabled":false,"rental_uris":{"android":"levelo://app?vid=e5e504eb-9178-4085-a38b-5ff1b13c7685","ios":"levelo://app?vid=e5e504eb-9178-4085-a38b-5ff1b13c7685"},"vehicle_type_id":"4","last_reported":1683831887,"current_range_meters":6800,"station_id":"ce4bgih2rcd13ifvqba0","pricing_plan_id":"free"},{"bike_id":"c4abafb2-972b-482e-9a95-05f83c2588ec","system_id":"levelo_inurba_marseille","lat":43.2953,"lon":5.38547,"is_reserved":false,"is_disabled":false,"rental_uris":{"android":"levelo://app?vid=c4abafb2-972b-482e-9a95-05f83c2588ec","ios":"levelo://app?vid=c4abafb2-972b-482e-9a95-05f83c2588ec"},"vehicle_type_id":"4","last_reported":1683831887,"current_range_meters":12800,"station_id":"ce4bgih2rcd13ifvqba0","pricing_plan_id":"free"},{"bike_id":"29e5ff42-b97a-4f1c-a643-ac8380861ecd","system_id":"levelo_inurba_marseille","lat":43.290624,"lon":5.359245,"is_reserved":false,"is_disabled":false,"rental_uris":{"android":"levelo://app?vid=29e5ff42-b97a-4f1c-a643-ac8380861ecd","ios":"levelo://app?vid=29e5ff42-b97a-4f1c-a643-ac8380861ecd"},"vehicle_type_id":"4","last_reported":1683831887,"current_range_meters":2400,"station_id":"ce4bha92rcd13ifvqeg0","pricing_plan_id":"free"},{"bike_id":"8de187a8-1d8c-4396-beb9-cb6032030250","system_id":"levelo_inurba_marseille","lat":43.290624,"lon":5.359245,"is_reserved":false,"is_disabled":false,"rental_uris":{"android":"levelo://app?vid=8de187a8-1d8c-4396-beb9-cb6032030250","ios":"levelo://app?vid=8de187a8-1d8c-4396-beb9-cb6032030250"},"vehicle_type_id":"4","last_reported":1683831887,"current_range_meters":27200,"station_id":"ce4bha92rcd13ifvqeg0","pricing_plan_id":"free"},{"bike_id":"4c033138-1ea8-4e67-9998-ad8ff532c267","system_id":"levelo_inurba_marseille","lat":43.290631,"lon":5.359244,"is_reserved":false,"is_disabled":false,"rental_uris":{"android":"levelo://app?vid=4c033138-1ea8-4e67-9998-ad8ff532c267","ios":"levelo://app?vid=4c033138-1ea8-4e67-9998-ad8ff532c267"},"vehicle_type_id":"4","last_reported":1683831887,"current_range_meters":19600,"station_id":"ce4bha92rcd13ifvqeg0","pricing_plan_id":"free"},{"bike_id":"3c665711-a129-4dfb-ab0e-efcb6c69ada2","system_id":"levelo_inurba_marseille","lat":43.290624,"lon":5.359245,"is_reserved":false,"is_disabled":false,"rental_uris":{"android":"levelo://app?vid=3c665711-a129-4dfb-ab0e-efcb6c69ada2","ios":"levelo://app?vid=3c665711-a129-4dfb-ab0e-efcb6c69ada2"},"vehicle_type_id":"4","last_reported":1683831887,"current_range_meters":31600,"station_id":"ce4bha92rcd13ifvqeg0","pricing_plan_id":"free"},{"bike_id":"e1fe4519-b91b-411a-9f3b-cda3c220af65","system_id":"levelo_inurba_marseille","lat":43.290631,"lon":5.359244,"is_reserved":false,"is_disabled":false,"rental_uris":{"android":"levelo://app?vid=e1fe4519-b91b-411a-9f3b-cda3c220af65","ios":"levelo://app?vid=e1fe4519-b91b-411a-9f3b-cda3c220af65"},"vehicle_type_id":"4","last_reported":1683831887,"current_range_meters":5200,"station_id":"ce4bha92rcd13ifvqeg0","pricing_plan_id":"free"},{"bike_id":"2bb2b1b1-0125-4088-8954-301dd3529db7","system_id":"levelo_inurba_marseille","lat":43.290631,"lon":5.359244,"is_reserved":false,"is_disabled":false,"rental_uris":{"android":"levelo://app?vid=2bb2b1b1-0125-4088-8954-301dd3529db7","ios":"levelo://app?vid=2bb2b1b1-0125-4088-8954-301dd3529db7"},"vehicle_type_id":"4","last_reported":1683831887,"current_range_meters":26000,"station_id":"ce4bha92rcd13ifvqeg0","pricing_plan_id":"free"},{"bike_id":"eb138541-24c0-47fd-a5b4-d63fe8df2cae","system_id":"levelo_inurba_marseille","lat":43.290319,"lon":5.375732,"is_reserved":false,"is_disabled":false,"rental_uris":{"android":"levelo://app?vid=eb138541-24c0-47fd-a5b4-d63fe8df2cae","ios":"levelo://app?vid=eb138541-24c0-47fd-a5b4-d63fe8df2cae"},"vehicle_type_id":"4","last_reported":1683831887,"current_range_meters":22000,"station_id":"ce4bh692rcd13ifvqe90","pricing_plan_id":"free"},{"bike_id":"9a596f70-c86a-4497-8b5a-4a147296d4e0","system_id":"levelo_inurba_marseille","lat":43.294162,"lon":5.386292,"is_reserved":false,"is_disabled":false,"rental_uris":{"android":"levelo://app?vid=9a596f70-c86a-4497-8b5a-4a147296d4e0","ios":"levelo://app?vid=9a596f70-c86a-4497-8b5a-4a147296d4e0"},"vehicle_type_id":"4","last_reported":1683831887,"current_range_meters":7200,"station_id":"ce4bh2h2rcd13ifvqdh0","pricing_plan_id":"free"},{"bike_id":"54542aab-2ca5-4fae-a8c6-04f0a1704590","system_id":"levelo_inurba_marseille","lat":43.29417,"lon":5.38624,"is_reserved":false,"is_disabled":false,"rental_uris":{"android":"levelo://app?vid=54542aab-2ca5-4fae-a8c6-04f0a1704590","ios":"levelo://app?vid=54542aab-2ca5-4fae-a8c6-04f0a1704590"},"vehicle_type_id":"4","last_reported":1683831887,"current_range_meters":12400,"station_id":"ce4bh2h2rcd13ifvqdh0","pricing_plan_id":"free"},{"bike_id":"d4c6c819-fa97-4fb4-93c4-e091daf75bb8","system_id":"levelo_inurba_marseille","lat":43.29415,"lon":5.38621,"is_reserved":false,"is_disabled":false,"rental_uris":{"android":"levelo://app?vid=d4c6c819-fa97-4fb4-93c4-e091daf75bb8","ios":"levelo://app?vid=d4c6c819-fa97-4fb4-93c4-e091daf75bb8"},"vehicle_type_id":"4","last_reported":1683831887,"current_range_meters":14400,"station_id":"ce4bh2h2rcd13ifvqdh0","pricing_plan_id":"free"},{"bike_id":"5cb89ddf-8158-4157-8c81-8ea862fd72ff","system_id":"levelo_inurba_marseille","lat":43.29414,"lon":5.38623,"is_reserved":false,"is_disabled":false,"rental_uris":{"android":"levelo://app?vid=5cb89ddf-8158-4157-8c81-8ea862fd72ff","ios":"levelo://app?vid=5cb89ddf-8158-4157-8c81-8ea862fd72ff"},"vehicle_type_id":"4","last_reported":1683831887,"current_range_meters":16000,"station_id":"ce4bh2h2rcd13ifvqdh0","pricing_plan_id":"free"},{"bike_id":"8eee0747-ffb3-480c-b5b5-a751ff0b52bf","system_id":"levelo_inurba_marseille","lat":43.289184,"lon":5.366408,"is_reserved":false,"is_disabled":false,"rental_uris":{"android":"levelo://app?vid=8eee0747-ffb3-480c-b5b5-a751ff0b52bf","ios":"levelo://app?vid=8eee0747-ffb3-480c-b5b5-a751ff0b52bf"},"vehicle_type_id":"4","last_reported":1683831887,"current_range_meters":24000,"station_id":"ce4bhap2rcd13ifvqek0","pricing_plan_id":"free"},{"bike_id":"da82fe22-d28e-4b2d-b076-78bb90038d2b","system_id":"levelo_inurba_marseille","lat":43.290319,"lon":5.375732,"is_reserved":false,"is_disabled":false,"rental_uris":{"android":"levelo://app?vid=da82fe22-d28e-4b2d-b076-78bb90038d2b","ios":"levelo://app?vid=da82fe22-d28e-4b2d-b076-78bb90038d2b"},"vehicle_type_id":"4","last_reported":1683831887,"current_range_meters":2400,"station_id":"ce4bh692rcd13ifvqe90","pricing_plan_id":"free"},{"bike_id":"4262a1c6-36e4-4ea7-916c-0268aba9f47b","system_id":"levelo_inurba_marseille","lat":43.289184,"lon":5.366408,"is_reserved":false,"is_disabled":false,"rental_uris":{"android":"levelo://app?vid=4262a1c6-36e4-4ea7-916c-0268aba9f47b","ios":"levelo://app?vid=4262a1c6-36e4-4ea7-916c-0268aba9f47b"},"vehicle_type_id":"4","last_reported":1683831887,"current_range_meters":6800,"station_id":"ce4bhap2rcd13ifvqek0","pricing_plan_id":"free"},{"bike_id":"f3728568-e80f-4b53-a13c-7b6518b8ab0c","system_id":"levelo_inurba_marseille","lat":43.289184,"lon":5.366408,"is_reserved":false,"is_disabled":false,"rental_uris":{"android":"levelo://app?vid=f3728568-e80f-4b53-a13c-7b6518b8ab0c","ios":"levelo://app?vid=f3728568-e80f-4b53-a13c-7b6518b8ab0c"},"vehicle_type_id":"4","last_reported":1683831887,"current_range_meters":17600,"station_id":"ce4bhap2rcd13ifvqek0","pricing_plan_id":"free"},{"bike_id":"59e9751c-3862-454f-8d88-dea7b2b5e887","system_id":"levelo_inurba_marseille","lat":43.289184,"lon":5.366408,"is_reserved":false,"is_disabled":false,"rental_uris":{"android":"levelo://app?vid=59e9751c-3862-454f-8d88-dea7b2b5e887","ios":"levelo://app?vid=59e9751c-3862-454f-8d88-dea7b2b5e887"},"vehicle_type_id":"4","last_reported":1683831887,"current_range_meters":19200,"station_id":"ce4bhap2rcd13ifvqek0","pricing_plan_id":"free"},{"bike_id":"583c04d8-b24c-4d27-95b6-6082a11af535","system_id":"levelo_inurba_marseille","lat":43.289184,"lon":5.366408,"is_reserved":false,"is_disabled":false,"rental_uris":{"android":"levelo://app?vid=583c04d8-b24c-4d27-95b6-6082a11af535","ios":"levelo://app?vid=583c04d8-b24c-4d27-95b6-6082a11af535"},"vehicle_type_id":"4","last_reported":1683831887,"current_range_meters":7200,"station_id":"ce4bhap2rcd13ifvqek0","pricing_plan_id":"free"},{"bike_id":"3daf7c34-74a8-4d29-b66f-85ea73f86d61","system_id":"levelo_inurba_marseille","lat":43.289184,"lon":5.366408,"is_reserved":false,"is_disabled":false,"rental_uris":{"android":"levelo://app?vid=3daf7c34-74a8-4d29-b66f-85ea73f86d61","ios":"levelo://app?vid=3daf7c34-74a8-4d29-b66f-85ea73f86d61"},"vehicle_type_id":"4","last_reported":1683831887,"current_range_meters":24000,"station_id":"ce4bhap2rcd13ifvqek0","pricing_plan_id":"free"},{"bike_id":"265d9ce7-28ae-4ca7-aac6-c3fbdbc16787","system_id":"levelo_inurba_marseille","lat":43.289184,"lon":5.366408,"is_reserved":false,"is_disabled":false,"rental_uris":{"android":"levelo://app?vid=265d9ce7-28ae-4ca7-aac6-c3fbdbc16787","ios":"levelo://app?vid=265d9ce7-28ae-4ca7-aac6-c3fbdbc16787"},"vehicle_type_id":"4","last_reported":1683831887,"current_range_meters":5600,"station_id":"ce4bhap2rcd13ifvqek0","pricing_plan_id":"free"},{"bike_id":"96508dd3-e75e-447b-9060-f0fce6780cc4","system_id":"levelo_inurba_marseille","lat":43.289468,"lon":5.363719,"is_reserved":false,"is_disabled":false,"rental_uris":{"android":"levelo://app?vid=96508dd3-e75e-447b-9060-f0fce6780cc4","ios":"levelo://app?vid=96508dd3-e75e-447b-9060-f0fce6780cc4"},"vehicle_type_id":"4","last_reported":1683831887,"current_range_meters":14400,"station_id":"ce4bhc92rcd13ifvqetg","pricing_plan_id":"free"},{"bike_id":"11090de8-b9fb-4441-bf5f-d5a2e9df1115","system_id":"levelo_inurba_marseille","lat":43.29279,"lon":5.38431,"is_reserved":false,"is_disabled":false,"rental_uris":{"android":"levelo://app?vid=11090de8-b9fb-4441-bf5f-d5a2e9df1115","ios":"levelo://app?vid=11090de8-b9fb-4441-bf5f-d5a2e9df1115"},"vehicle_type_id":"4","last_reported":1683831887,"current_range_meters":0,"station_id":"ce4bh692rcd13ifvqea0","pricing_plan_id":"free"},{"bike_id":"7e724c29-3b7f-4b62-b575-8a7b49844a51","system_id":"levelo_inurba_marseille","lat":43.292644,"lon":5.384257,"is_reserved":false,"is_disabled":false,"rental_uris":{"android":"levelo://app?vid=7e724c29-3b7f-4b62-b575-8a7b49844a51","ios":"levelo://app?vid=7e724c29-3b7f-4b62-b575-8a7b49844a51"},"vehicle_type_id":"4","last_reported":1683831887,"current_range_meters":26400,"station_id":"ce4bh692rcd13ifvqea0","pricing_plan_id":"free"},{"bike_id":"181fd9eb-a9cc-4115-be8b-9c936cc8ddb2","system_id":"levelo_inurba_marseille","lat":43.290417,"lon":5.355965,"is_reserved":false,"is_disabled":false,"rental_uris":{"android":"levelo://app?vid=181fd9eb-a9cc-4115-be8b-9c936cc8ddb2","ios":"levelo://app?vid=181fd9eb-a9cc-4115-be8b-9c936cc8ddb2"},"vehicle_type_id":"4","last_reported":1683831887,"current_range_meters":0,"station_id":"ce4bhb92rcd13ifvqen0","pricing_plan_id":"free"},{"bike_id":"27c5e084-4dcb-41fd-adee-415524d565d1","system_id":"levelo_inurba_marseille","lat":43.292644,"lon":5.384257,"is_reserved":false,"is_disabled":false,"rental_uris":{"android":"levelo://app?vid=27c5e084-4dcb-41fd-adee-415524d565d1","ios":"levelo://app?vid=27c5e084-4dcb-41fd-adee-415524d565d1"},"vehicle_type_id":"4","last_reported":1683831887,"current_range_meters":0,"station_id":"ce4bh692rcd13ifvqea0","pricing_plan_id":"free"},{"bike_id":"ded74cd8-cb1d-43d3-9ef4-7e4b8bb94d2b","system_id":"levelo_inurba_marseille","lat":43.29263,"lon":5.38434,"is_reserved":false,"is_disabled":false,"rental_uris":{"android":"levelo://app?vid=ded74cd8-cb1d-43d3-9ef4-7e4b8bb94d2b","ios":"levelo://app?vid=ded74cd8-cb1d-43d3-9ef4-7e4b8bb94d2b"},"vehicle_type_id":"4","last_reported":1683831887,"current_range_meters":12800,"station_id":"ce4bh692rcd13ifvqea0","pricing_plan_id":"free"},{"bike_id":"a6b5910e-c3e8-49a7-b22c-08b3584d1e71","system_id":"levelo_inurba_marseille","lat":43.2927,"lon":5.38451,"is_reserved":false,"is_disabled":false,"rental_uris":{"android":"levelo://app?vid=a6b5910e-c3e8-49a7-b22c-08b3584d1e71","ios":"levelo://app?vid=a6b5910e-c3e8-49a7-b22c-08b3584d1e71"},"vehicle_type_id":"4","last_reported":1683831887,"current_range_meters":26800,"station_id":"ce4bh692rcd13ifvqea0","pricing_plan_id":"free"},{"bike_id":"beaff1fa-b965-430c-bac2-40a920974077","system_id":"levelo_inurba_marseille","lat":43.292644,"lon":5.384257,"is_reserved":false,"is_disabled":false,"rental_uris":{"android":"levelo://app?vid=beaff1fa-b965-430c-bac2-40a920974077","ios":"levelo://app?vid=beaff1fa-b965-430c-bac2-40a920974077"},"vehicle_type_id":"4","last_reported":1683831887,"current_range_meters":1200,"station_id":"ce4bh692rcd13ifvqea0","pricing_plan_id":"free"},{"bike_id":"8fe4de54-99f6-4123-aae7-362b71abe442","system_id":"levelo_inurba_marseille","lat":43.292644,"lon":5.384257,"is_reserved":false,"is_disabled":false,"rental_uris":{"android":"levelo://app?vid=8fe4de54-99f6-4123-aae7-362b71abe442","ios":"levelo://app?vid=8fe4de54-99f6-4123-aae7-362b71abe442"},"vehicle_type_id":"4","last_reported":1683831887,"current_range_meters":13200,"station_id":"ce4bh692rcd13ifvqea0","pricing_plan_id":"free"},{"bike_id":"b3e3a37e-eea1-4183-bc4a-ec0b03aaaeda","system_id":"levelo_inurba_marseille","lat":43.292644,"lon":5.384257,"is_reserved":false,"is_disabled":false,"rental_uris":{"android":"levelo://app?vid=b3e3a37e-eea1-4183-bc4a-ec0b03aaaeda","ios":"levelo://app?vid=b3e3a37e-eea1-4183-bc4a-ec0b03aaaeda"},"vehicle_type_id":"4","last_reported":1683831887,"current_range_meters":7200,"station_id":"ce4bh692rcd13ifvqea0","pricing_plan_id":"free"},{"bike_id":"04d7a729-124b-4922-adf7-2d42343d9652","system_id":"levelo_inurba_marseille","lat":43.29257,"lon":5.38435,"is_reserved":false,"is_disabled":false,"rental_uris":{"android":"levelo://app?vid=04d7a729-124b-4922-adf7-2d42343d9652","ios":"levelo://app?vid=04d7a729-124b-4922-adf7-2d42343d9652"},"vehicle_type_id":"4","last_reported":1683831887,"current_range_meters":0,"station_id":"","pricing_plan_id":"free"},{"bike_id":"ff2819bd-abc4-40a2-8226-0ef7fecda992","system_id":"levelo_inurba_marseille","lat":43.292644,"lon":5.384257,"is_reserved":false,"is_disabled":false,"rental_uris":{"android":"levelo://app?vid=ff2819bd-abc4-40a2-8226-0ef7fecda992","ios":"levelo://app?vid=ff2819bd-abc4-40a2-8226-0ef7fecda992"},"vehicle_type_id":"4","last_reported":1683831887,"current_range_meters":4400,"station_id":"ce4bh692rcd13ifvqea0","pricing_plan_id":"free"},{"bike_id":"7e3c8b47-15fd-4b01-ab5b-c4715c415b4f","system_id":"levelo_inurba_marseille","lat":43.290104,"lon":5.356111,"is_reserved":false,"is_disabled":false,"rental_uris":{"android":"levelo://app?vid=7e3c8b47-15fd-4b01-ab5b-c4715c415b4f","ios":"levelo://app?vid=7e3c8b47-15fd-4b01-ab5b-c4715c415b4f"},"vehicle_type_id":"4","last_reported":1683831887,"current_range_meters":16400,"station_id":"ce4bhb92rcd13ifvqen0","pricing_plan_id":"free"},{"bike_id":"75896dd4-6382-42e4-9f9c-b166af27695d","system_id":"levelo_inurba_marseille","lat":43.29012,"lon":5.35612,"is_reserved":false,"is_disabled":false,"rental_uris":{"android":"levelo://app?vid=75896dd4-6382-42e4-9f9c-b166af27695d","ios":"levelo://app?vid=75896dd4-6382-42e4-9f9c-b166af27695d"},"vehicle_type_id":"4","last_reported":1683831887,"current_range_meters":24400,"station_id":"ce4bhb92rcd13ifvqen0","pricing_plan_id":"free"},{"bike_id":"faa96f17-b2d0-4d0e-ac12-1ca775556f52","system_id":"levelo_inurba_marseille","lat":43.29012,"lon":5.35612,"is_reserved":false,"is_disabled":false,"rental_uris":{"android":"levelo://app?vid=faa96f17-b2d0-4d0e-ac12-1ca775556f52","ios":"levelo://app?vid=faa96f17-b2d0-4d0e-ac12-1ca775556f52"},"vehicle_type_id":"4","last_reported":1683831887,"current_range_meters":20800,"station_id":"ce4bhb92rcd13ifvqen0","pricing_plan_id":"free"},{"bike_id":"ef66e2f1-d4ad-40ad-83a7-34953ed066cd","system_id":"levelo_inurba_marseille","lat":43.33041,"lon":5.38918,"is_reserved":false,"is_disabled":false,"rental_uris":{"android":"levelo://app?vid=ef66e2f1-d4ad-40ad-83a7-34953ed066cd","ios":"levelo://app?vid=ef66e2f1-d4ad-40ad-83a7-34953ed066cd"},"vehicle_type_id":"4","last_reported":1683831887,"current_range_meters":16800,"station_id":"ce4bhr92rcd13ifvqhrg","pricing_plan_id":"free"},{"bike_id":"1b7ea463-b32a-4479-a408-bd3709b61c63","system_id":"levelo_inurba_marseille","lat":43.290104,"lon":5.356111,"is_reserved":false,"is_disabled":false,"rental_uris":{"android":"levelo://app?vid=1b7ea463-b32a-4479-a408-bd3709b61c63","ios":"levelo://app?vid=1b7ea463-b32a-4479-a408-bd3709b61c63"},"vehicle_type_id":"4","last_reported":1683831887,"current_range_meters":18800,"station_id":"ce4bhb92rcd13ifvqen0","pricing_plan_id":"free"},{"bike_id":"be69fedf-0f84-4f5b-90a5-5baef202c45d","system_id":"levelo_inurba_marseille","lat":43.290104,"lon":5.356111,"is_reserved":false,"is_disabled":false,"rental_uris":{"android":"levelo://app?vid=be69fedf-0f84-4f5b-90a5-5baef202c45d","ios":"levelo://app?vid=be69fedf-0f84-4f5b-90a5-5baef202c45d"},"vehicle_type_id":"4","last_reported":1683831887,"current_range_meters":1600,"station_id":"ce4bhb92rcd13ifvqen0","pricing_plan_id":"free"},{"bike_id":"211b7316-10de-4bc7-a044-db2211126bbf","system_id":"levelo_inurba_marseille","lat":43.3304,"lon":5.3892,"is_reserved":false,"is_disabled":false,"rental_uris":{"android":"levelo://app?vid=211b7316-10de-4bc7-a044-db2211126bbf","ios":"levelo://app?vid=211b7316-10de-4bc7-a044-db2211126bbf"},"vehicle_type_id":"4","last_reported":1683831887,"current_range_meters":18000,"station_id":"ce4bhr92rcd13ifvqhrg","pricing_plan_id":"free"},{"bike_id":"518082fb-52cc-4c89-97e5-f9686a606b88","system_id":"levelo_inurba_marseille","lat":43.290104,"lon":5.356111,"is_reserved":false,"is_disabled":false,"rental_uris":{"android":"levelo://app?vid=518082fb-52cc-4c89-97e5-f9686a606b88","ios":"levelo://app?vid=518082fb-52cc-4c89-97e5-f9686a606b88"},"vehicle_type_id":"4","last_reported":1683831887,"current_range_meters":26400,"station_id":"ce4bhb92rcd13ifvqen0","pricing_plan_id":"free"},{"bike_id":"64618708-f932-40a4-b226-b3eaffff2ff9","system_id":"levelo_inurba_marseille","lat":43.290104,"lon":5.356111,"is_reserved":false,"is_disabled":false,"rental_uris":{"android":"levelo://app?vid=64618708-f932-40a4-b226-b3eaffff2ff9","ios":"levelo://app?vid=64618708-f932-40a4-b226-b3eaffff2ff9"},"vehicle_type_id":"4","last_reported":1683831887,"current_range_meters":20400,"station_id":"ce4bhb92rcd13ifvqen0","pricing_plan_id":"free"},{"bike_id":"55938851-9ccd-4e4c-b9e3-a79c87b70c78","system_id":"levelo_inurba_marseille","lat":43.33043,"lon":5.38917,"is_reserved":false,"is_disabled":false,"rental_uris":{"android":"levelo://app?vid=55938851-9ccd-4e4c-b9e3-a79c87b70c78","ios":"levelo://app?vid=55938851-9ccd-4e4c-b9e3-a79c87b70c78"},"vehicle_type_id":"4","last_reported":1683831887,"current_range_meters":0,"station_id":"ce4bhr92rcd13ifvqhrg","pricing_plan_id":"free"},{"bike_id":"33736b28-32c3-4eed-b752-4ece855a1c18","system_id":"levelo_inurba_marseille","lat":43.290104,"lon":5.356111,"is_reserved":false,"is_disabled":false,"rental_uris":{"android":"levelo://app?vid=33736b28-32c3-4eed-b752-4ece855a1c18","ios":"levelo://app?vid=33736b28-32c3-4eed-b752-4ece855a1c18"},"vehicle_type_id":"4","last_reported":1683831887,"current_range_meters":4400,"station_id":"ce4bhb92rcd13ifvqen0","pricing_plan_id":"free"},{"bike_id":"eb9c1069-6fcc-4052-90a5-6b75bbaeaa66","system_id":"levelo_inurba_marseille","lat":43.33044,"lon":5.38918,"is_reserved":false,"is_disabled":false,"rental_uris":{"android":"levelo://app?vid=eb9c1069-6fcc-4052-90a5-6b75bbaeaa66","ios":"levelo://app?vid=eb9c1069-6fcc-4052-90a5-6b75bbaeaa66"},"vehicle_type_id":"4","last_reported":1683831887,"current_range_meters":7200,"station_id":"ce4bhr92rcd13ifvqhrg","pricing_plan_id":"free"},{"bike_id":"fc29cd69-c79b-40e9-8a0b-d5aab5e56704","system_id":"levelo_inurba_marseille","lat":43.290104,"lon":5.356111,"is_reserved":false,"is_disabled":false,"rental_uris":{"android":"levelo://app?vid=fc29cd69-c79b-40e9-8a0b-d5aab5e56704","ios":"levelo://app?vid=fc29cd69-c79b-40e9-8a0b-d5aab5e56704"},"vehicle_type_id":"4","last_reported":1683831887,"current_range_meters":27200,"station_id":"ce4bhb92rcd13ifvqen0","pricing_plan_id":"free"},{"bike_id":"f55f9613-885a-4d9f-b9d0-876dd874452b","system_id":"levelo_inurba_marseille","lat":43.33047,"lon":5.38916,"is_reserved":false,"is_disabled":false,"rental_uris":{"android":"levelo://app?vid=f55f9613-885a-4d9f-b9d0-876dd874452b","ios":"levelo://app?vid=f55f9613-885a-4d9f-b9d0-876dd874452b"},"vehicle_type_id":"4","last_reported":1683831887,"current_range_meters":22800,"station_id":"ce4bhr92rcd13ifvqhrg","pricing_plan_id":"free"},{"bike_id":"dcc144aa-a9bd-4c08-8a4a-dd77e94ea628","system_id":"levelo_inurba_marseille","lat":43.33047,"lon":5.38919,"is_reserved":false,"is_disabled":false,"rental_uris":{"android":"levelo://app?vid=dcc144aa-a9bd-4c08-8a4a-dd77e94ea628","ios":"levelo://app?vid=dcc144aa-a9bd-4c08-8a4a-dd77e94ea628"},"vehicle_type_id":"4","last_reported":1683831887,"current_range_meters":0,"station_id":"","pricing_plan_id":"free"},{"bike_id":"154bd7a0-b17c-47e4-a248-4f695cb75ec6","system_id":"levelo_inurba_marseille","lat":43.33046,"lon":5.38921,"is_reserved":false,"is_disabled":false,"rental_uris":{"android":"levelo://app?vid=154bd7a0-b17c-47e4-a248-4f695cb75ec6","ios":"levelo://app?vid=154bd7a0-b17c-47e4-a248-4f695cb75ec6"},"vehicle_type_id":"4","last_reported":1683831887,"current_range_meters":22800,"station_id":"ce4bhr92rcd13ifvqhrg","pricing_plan_id":"free"},{"bike_id":"035cd5eb-4277-45ad-baf1-f5e60f7ffb4a","system_id":"levelo_inurba_marseille","lat":43.29005,"lon":5.3561,"is_reserved":false,"is_disabled":false,"rental_uris":{"android":"levelo://app?vid=035cd5eb-4277-45ad-baf1-f5e60f7ffb4a","ios":"levelo://app?vid=035cd5eb-4277-45ad-baf1-f5e60f7ffb4a"},"vehicle_type_id":"4","last_reported":1683831887,"current_range_meters":10800,"station_id":"ce4bhb92rcd13ifvqen0","pricing_plan_id":"free"},{"bike_id":"878682fe-ce53-4ea9-84ba-17996af6e452","system_id":"levelo_inurba_marseille","lat":43.29005,"lon":5.35608,"is_reserved":false,"is_disabled":false,"rental_uris":{"android":"levelo://app?vid=878682fe-ce53-4ea9-84ba-17996af6e452","ios":"levelo://app?vid=878682fe-ce53-4ea9-84ba-17996af6e452"},"vehicle_type_id":"4","last_reported":1683831887,"current_range_meters":31200,"station_id":"ce4bhb92rcd13ifvqen0","pricing_plan_id":"free"},{"bike_id":"f20efe4e-97a3-4ef1-abe5-c1b8c1a0daba","system_id":"levelo_inurba_marseille","lat":43.290104,"lon":5.356111,"is_reserved":false,"is_disabled":false,"rental_uris":{"android":"levelo://app?vid=f20efe4e-97a3-4ef1-abe5-c1b8c1a0daba","ios":"levelo://app?vid=f20efe4e-97a3-4ef1-abe5-c1b8c1a0daba"},"vehicle_type_id":"4","last_reported":1683831887,"current_range_meters":26800,"station_id":"ce4bhb92rcd13ifvqen0","pricing_plan_id":"free"},{"bike_id":"dae26ea2-bc41-4c9e-8d1b-d8f651b9ba81","system_id":"levelo_inurba_marseille","lat":43.29005,"lon":5.35605,"is_reserved":false,"is_disabled":false,"rental_uris":{"android":"levelo://app?vid=dae26ea2-bc41-4c9e-8d1b-d8f651b9ba81","ios":"levelo://app?vid=dae26ea2-bc41-4c9e-8d1b-d8f651b9ba81"},"vehicle_type_id":"4","last_reported":1683831887,"current_range_meters":0,"station_id":"ce4bhb92rcd13ifvqen0","pricing_plan_id":"free"},{"bike_id":"203b2f11-a3b5-475b-8f41-939e1d33a596","system_id":"levelo_inurba_marseille","lat":43.33049,"lon":5.3892,"is_reserved":false,"is_disabled":false,"rental_uris":{"android":"levelo://app?vid=203b2f11-a3b5-475b-8f41-939e1d33a596","ios":"levelo://app?vid=203b2f11-a3b5-475b-8f41-939e1d33a596"},"vehicle_type_id":"4","last_reported":1683831887,"current_range_meters":27200,"station_id":"ce4bhr92rcd13ifvqhrg","pricing_plan_id":"free"},{"bike_id":"381dd613-f7ee-45ea-91da-143311852d1f","system_id":"levelo_inurba_marseille","lat":43.29003,"lon":5.35609,"is_reserved":false,"is_disabled":false,"rental_uris":{"android":"levelo://app?vid=381dd613-f7ee-45ea-91da-143311852d1f","ios":"levelo://app?vid=381dd613-f7ee-45ea-91da-143311852d1f"},"vehicle_type_id":"4","last_reported":1683831887,"current_range_meters":0,"station_id":"ce4bhb92rcd13ifvqen0","pricing_plan_id":"free"},{"bike_id":"291e92dd-c2ab-4c58-b1dd-0973f1c413d5","system_id":"levelo_inurba_marseille","lat":43.33045,"lon":5.38928,"is_reserved":false,"is_disabled":false,"rental_uris":{"android":"levelo://app?vid=291e92dd-c2ab-4c58-b1dd-0973f1c413d5","ios":"levelo://app?vid=291e92dd-c2ab-4c58-b1dd-0973f1c413d5"},"vehicle_type_id":"4","last_reported":1683831887,"current_range_meters":24800,"station_id":"ce4bhr92rcd13ifvqhrg","pricing_plan_id":"free"},{"bike_id":"03aca303-8661-4c8f-b913-e657a13561b0","system_id":"levelo_inurba_marseille","lat":43.29003,"lon":5.35606,"is_reserved":false,"is_disabled":false,"rental_uris":{"android":"levelo://app?vid=03aca303-8661-4c8f-b913-e657a13561b0","ios":"levelo://app?vid=03aca303-8661-4c8f-b913-e657a13561b0"},"vehicle_type_id":"4","last_reported":1683831887,"current_range_meters":0,"station_id":"ce4bhb92rcd13ifvqen0","pricing_plan_id":"free"},{"bike_id":"22a789aa-dc67-4ff6-b512-159a5e831dfe","system_id":"levelo_inurba_marseille","lat":43.29002,"lon":5.35608,"is_reserved":false,"is_disabled":false,"rental_uris":{"android":"levelo://app?vid=22a789aa-dc67-4ff6-b512-159a5e831dfe","ios":"levelo://app?vid=22a789aa-dc67-4ff6-b512-159a5e831dfe"},"vehicle_type_id":"4","last_reported":1683831887,"current_range_meters":0,"station_id":"ce4bhb92rcd13ifvqen0","pricing_plan_id":"free"},{"bike_id":"b2762af6-feb0-422f-a5b7-a9914f7259ff","system_id":"levelo_inurba_marseille","lat":43.29,"lon":5.35608,"is_reserved":false,"is_disabled":false,"rental_uris":{"android":"levelo://app?vid=b2762af6-feb0-422f-a5b7-a9914f7259ff","ios":"levelo://app?vid=b2762af6-feb0-422f-a5b7-a9914f7259ff"},"vehicle_type_id":"4","last_reported":1683831887,"current_range_meters":6400,"station_id":"ce4bhb92rcd13ifvqen0","pricing_plan_id":"free"},{"bike_id":"aaeb6680-2207-467c-ac17-7bcd21a038ba","system_id":"levelo_inurba_marseille","lat":43.29,"lon":5.35608,"is_reserved":false,"is_disabled":false,"rental_uris":{"android":"levelo://app?vid=aaeb6680-2207-467c-ac17-7bcd21a038ba","ios":"levelo://app?vid=aaeb6680-2207-467c-ac17-7bcd21a038ba"},"vehicle_type_id":"4","last_reported":1683831887,"current_range_meters":0,"station_id":"ce4bhb92rcd13ifvqen0","pricing_plan_id":"free"},{"bike_id":"94f7f6e0-6812-4bb8-bfbd-23abae7854e7","system_id":"levelo_inurba_marseille","lat":43.28996,"lon":5.35608,"is_reserved":false,"is_disabled":false,"rental_uris":{"android":"levelo://app?vid=94f7f6e0-6812-4bb8-bfbd-23abae7854e7","ios":"levelo://app?vid=94f7f6e0-6812-4bb8-bfbd-23abae7854e7"},"vehicle_type_id":"4","last_reported":1683831887,"current_range_meters":16000,"station_id":"","pricing_plan_id":"free"},{"bike_id":"ab192ea4-3970-44c9-9d9a-000dbae77ee3","system_id":"levelo_inurba_marseille","lat":43.290995,"lon":5.381361,"is_reserved":false,"is_disabled":false,"rental_uris":{"android":"levelo://app?vid=ab192ea4-3970-44c9-9d9a-000dbae77ee3","ios":"levelo://app?vid=ab192ea4-3970-44c9-9d9a-000dbae77ee3"},"vehicle_type_id":"4","last_reported":1683831887,"current_range_meters":0,"station_id":"ce4bh512rcd13ifvqe2g","pricing_plan_id":"free"},{"bike_id":"685b4045-ff8b-445d-ac8c-7696e718373e","system_id":"levelo_inurba_marseille","lat":43.289743,"lon":5.378304,"is_reserved":false,"is_disabled":false,"rental_uris":{"android":"levelo://app?vid=685b4045-ff8b-445d-ac8c-7696e718373e","ios":"levelo://app?vid=685b4045-ff8b-445d-ac8c-7696e718373e"},"vehicle_type_id":"4","last_reported":1683831887,"current_range_meters":4400,"station_id":"ce4bh9p2rcd13ifvqed0","pricing_plan_id":"free"},{"bike_id":"b4b39268-3abf-4f4a-a0e4-52244da9a53a","system_id":"levelo_inurba_marseille","lat":43.28856,"lon":5.358371,"is_reserved":false,"is_disabled":false,"rental_uris":{"android":"levelo://app?vid=b4b39268-3abf-4f4a-a0e4-52244da9a53a","ios":"levelo://app?vid=b4b39268-3abf-4f4a-a0e4-52244da9a53a"},"vehicle_type_id":"4","last_reported":1683831887,"current_range_meters":24400,"station_id":"ce4bhb12rcd13ifvqem0","pricing_plan_id":"free"},{"bike_id":"c4021901-a9c3-4d42-b783-ce6991355322","system_id":"levelo_inurba_marseille","lat":43.33083,"lon":5.39053,"is_reserved":false,"is_disabled":false,"rental_uris":{"android":"levelo://app?vid=c4021901-a9c3-4d42-b783-ce6991355322","ios":"levelo://app?vid=c4021901-a9c3-4d42-b783-ce6991355322"},"vehicle_type_id":"4","last_reported":1683831887,"current_range_meters":0,"station_id":"","pricing_plan_id":"free"},{"bike_id":"07c09652-a375-4e07-b544-478aed47fcbb","system_id":"levelo_inurba_marseille","lat":43.28856,"lon":5.358371,"is_reserved":false,"is_disabled":false,"rental_uris":{"android":"levelo://app?vid=07c09652-a375-4e07-b544-478aed47fcbb","ios":"levelo://app?vid=07c09652-a375-4e07-b544-478aed47fcbb"},"vehicle_type_id":"4","last_reported":1683831887,"current_range_meters":6000,"station_id":"ce4bhb12rcd13ifvqem0","pricing_plan_id":"free"},{"bike_id":"1ae28bd7-c220-4767-bb54-a194de2d1ca9","system_id":"levelo_inurba_marseille","lat":43.28856,"lon":5.358371,"is_reserved":false,"is_disabled":false,"rental_uris":{"android":"levelo://app?vid=1ae28bd7-c220-4767-bb54-a194de2d1ca9","ios":"levelo://app?vid=1ae28bd7-c220-4767-bb54-a194de2d1ca9"},"vehicle_type_id":"4","last_reported":1683831887,"current_range_meters":18000,"station_id":"ce4bhb12rcd13ifvqem0","pricing_plan_id":"free"},{"bike_id":"0693a76e-00d0-4673-ad0e-13d8a14367c2","system_id":"levelo_inurba_marseille","lat":43.28856,"lon":5.358371,"is_reserved":false,"is_disabled":false,"rental_uris":{"android":"levelo://app?vid=0693a76e-00d0-4673-ad0e-13d8a14367c2","ios":"levelo://app?vid=0693a76e-00d0-4673-ad0e-13d8a14367c2"},"vehicle_type_id":"4","last_reported":1683831887,"current_range_meters":4400,"station_id":"ce4bhb12rcd13ifvqem0","pricing_plan_id":"free"},{"bike_id":"4f252e65-e480-4a8f-9278-ab1dfd67121e","system_id":"levelo_inurba_marseille","lat":43.28856,"lon":5.358371,"is_reserved":false,"is_disabled":false,"rental_uris":{"android":"levelo://app?vid=4f252e65-e480-4a8f-9278-ab1dfd67121e","ios":"levelo://app?vid=4f252e65-e480-4a8f-9278-ab1dfd67121e"},"vehicle_type_id":"4","last_reported":1683831887,"current_range_meters":0,"station_id":"ce4bhb12rcd13ifvqem0","pricing_plan_id":"free"},{"bike_id":"5092c268-7bfe-4872-8dbb-ea7a979d6715","system_id":"levelo_inurba_marseille","lat":43.28856,"lon":5.358371,"is_reserved":false,"is_disabled":false,"rental_uris":{"android":"levelo://app?vid=5092c268-7bfe-4872-8dbb-ea7a979d6715","ios":"levelo://app?vid=5092c268-7bfe-4872-8dbb-ea7a979d6715"},"vehicle_type_id":"4","last_reported":1683831887,"current_range_meters":7600,"station_id":"ce4bhb12rcd13ifvqem0","pricing_plan_id":"free"},{"bike_id":"5b09ff4e-44aa-473c-b19e-cc495c36479c","system_id":"levelo_inurba_marseille","lat":43.28856,"lon":5.358371,"is_reserved":false,"is_disabled":false,"rental_uris":{"android":"levelo://app?vid=5b09ff4e-44aa-473c-b19e-cc495c36479c","ios":"levelo://app?vid=5b09ff4e-44aa-473c-b19e-cc495c36479c"},"vehicle_type_id":"4","last_reported":1683831887,"current_range_meters":18000,"station_id":"ce4bhb12rcd13ifvqem0","pricing_plan_id":"free"},{"bike_id":"b580e0e2-2f8d-4df7-94bc-e067ad6ab0cb","system_id":"levelo_inurba_marseille","lat":43.32686,"lon":5.39611,"is_reserved":false,"is_disabled":false,"rental_uris":{"android":"levelo://app?vid=b580e0e2-2f8d-4df7-94bc-e067ad6ab0cb","ios":"levelo://app?vid=b580e0e2-2f8d-4df7-94bc-e067ad6ab0cb"},"vehicle_type_id":"4","last_reported":1683831887,"current_range_meters":14800,"station_id":"","pricing_plan_id":"free"},{"bike_id":"7c56c76c-733e-4eb1-9830-931e734057aa","system_id":"levelo_inurba_marseille","lat":43.33767,"lon":5.37465,"is_reserved":false,"is_disabled":false,"rental_uris":{"android":"levelo://app?vid=7c56c76c-733e-4eb1-9830-931e734057aa","ios":"levelo://app?vid=7c56c76c-733e-4eb1-9830-931e734057aa"},"vehicle_type_id":"4","last_reported":1683831887,"current_range_meters":28000,"station_id":"","pricing_plan_id":"free"},{"bike_id":"9e3cc95c-d365-4d30-95a7-0e048152d637","system_id":"levelo_inurba_marseille","lat":43.286591,"lon":5.363346,"is_reserved":false,"is_disabled":false,"rental_uris":{"android":"levelo://app?vid=9e3cc95c-d365-4d30-95a7-0e048152d637","ios":"levelo://app?vid=9e3cc95c-d365-4d30-95a7-0e048152d637"},"vehicle_type_id":"4","last_reported":1683831887,"current_range_meters":13600,"station_id":"ce4bhah2rcd13ifvqej0","pricing_plan_id":"free"},{"bike_id":"91675983-6472-43cf-99b4-7ccaeb63232c","system_id":"levelo_inurba_marseille","lat":43.286591,"lon":5.363346,"is_reserved":false,"is_disabled":false,"rental_uris":{"android":"levelo://app?vid=91675983-6472-43cf-99b4-7ccaeb63232c","ios":"levelo://app?vid=91675983-6472-43cf-99b4-7ccaeb63232c"},"vehicle_type_id":"4","last_reported":1683831887,"current_range_meters":21600,"station_id":"ce4bhah2rcd13ifvqej0","pricing_plan_id":"free"},{"bike_id":"6c2e3b69-9159-417b-8bfa-d230992ca7a4","system_id":"levelo_inurba_marseille","lat":43.286591,"lon":5.363346,"is_reserved":false,"is_disabled":false,"rental_uris":{"android":"levelo://app?vid=6c2e3b69-9159-417b-8bfa-d230992ca7a4","ios":"levelo://app?vid=6c2e3b69-9159-417b-8bfa-d230992ca7a4"},"vehicle_type_id":"4","last_reported":1683831887,"current_range_meters":10000,"station_id":"ce4bhah2rcd13ifvqej0","pricing_plan_id":"free"},{"bike_id":"dde08a80-06cc-47ec-95c2-d5f0d88341ff","system_id":"levelo_inurba_marseille","lat":43.286593,"lon":5.363346,"is_reserved":false,"is_disabled":false,"rental_uris":{"android":"levelo://app?vid=dde08a80-06cc-47ec-95c2-d5f0d88341ff","ios":"levelo://app?vid=dde08a80-06cc-47ec-95c2-d5f0d88341ff"},"vehicle_type_id":"4","last_reported":1683831887,"current_range_meters":8000,"station_id":"ce4bhah2rcd13ifvqej0","pricing_plan_id":"free"},{"bike_id":"d41a7e33-7fb1-4ed6-9fc4-9e8f11ad9e88","system_id":"levelo_inurba_marseille","lat":43.295194,"lon":5.39397,"is_reserved":false,"is_disabled":false,"rental_uris":{"android":"levelo://app?vid=d41a7e33-7fb1-4ed6-9fc4-9e8f11ad9e88","ios":"levelo://app?vid=d41a7e33-7fb1-4ed6-9fc4-9e8f11ad9e88"},"vehicle_type_id":"4","last_reported":1683831887,"current_range_meters":2800,"station_id":"ce4bh292rcd13ifvqdf0","pricing_plan_id":"free"},{"bike_id":"7931051b-ff7d-4ca7-bbc7-027abafb1061","system_id":"levelo_inurba_marseille","lat":43.295196,"lon":5.39397,"is_reserved":false,"is_disabled":false,"rental_uris":{"android":"levelo://app?vid=7931051b-ff7d-4ca7-bbc7-027abafb1061","ios":"levelo://app?vid=7931051b-ff7d-4ca7-bbc7-027abafb1061"},"vehicle_type_id":"4","last_reported":1683831887,"current_range_meters":6400,"station_id":"ce4bh292rcd13ifvqdf0","pricing_plan_id":"free"},{"bike_id":"7f2f7cc3-1429-4dc8-aa67-a02ebfc561af","system_id":"levelo_inurba_marseille","lat":43.295194,"lon":5.39397,"is_reserved":false,"is_disabled":false,"rental_uris":{"android":"levelo://app?vid=7f2f7cc3-1429-4dc8-aa67-a02ebfc561af","ios":"levelo://app?vid=7f2f7cc3-1429-4dc8-aa67-a02ebfc561af"},"vehicle_type_id":"4","last_reported":1683831887,"current_range_meters":27600,"station_id":"ce4bh292rcd13ifvqdf0","pricing_plan_id":"free"},{"bike_id":"6f6273e5-d914-4a15-8fa7-e3d298df410e","system_id":"levelo_inurba_marseille","lat":43.295196,"lon":5.39397,"is_reserved":false,"is_disabled":false,"rental_uris":{"android":"levelo://app?vid=6f6273e5-d914-4a15-8fa7-e3d298df410e","ios":"levelo://app?vid=6f6273e5-d914-4a15-8fa7-e3d298df410e"},"vehicle_type_id":"4","last_reported":1683831887,"current_range_meters":15200,"station_id":"ce4bh292rcd13ifvqdf0","pricing_plan_id":"free"},{"bike_id":"2287a716-1792-426a-83d7-694d279d4ff9","system_id":"levelo_inurba_marseille","lat":43.295194,"lon":5.39397,"is_reserved":false,"is_disabled":false,"rental_uris":{"android":"levelo://app?vid=2287a716-1792-426a-83d7-694d279d4ff9","ios":"levelo://app?vid=2287a716-1792-426a-83d7-694d279d4ff9"},"vehicle_type_id":"4","last_reported":1683831887,"current_range_meters":7600,"station_id":"ce4bh292rcd13ifvqdf0","pricing_plan_id":"free"},{"bike_id":"994f47c5-07d6-4bbb-9a39-4a95ca61ca6f","system_id":"levelo_inurba_marseille","lat":43.295194,"lon":5.39397,"is_reserved":false,"is_disabled":false,"rental_uris":{"android":"levelo://app?vid=994f47c5-07d6-4bbb-9a39-4a95ca61ca6f","ios":"levelo://app?vid=994f47c5-07d6-4bbb-9a39-4a95ca61ca6f"},"vehicle_type_id":"4","last_reported":1683831887,"current_range_meters":0,"station_id":"ce4bh292rcd13ifvqdf0","pricing_plan_id":"free"},{"bike_id":"86796564-7a35-4c56-9e78-992fd500dba1","system_id":"levelo_inurba_marseille","lat":43.295196,"lon":5.39397,"is_reserved":false,"is_disabled":false,"rental_uris":{"android":"levelo://app?vid=86796564-7a35-4c56-9e78-992fd500dba1","ios":"levelo://app?vid=86796564-7a35-4c56-9e78-992fd500dba1"},"vehicle_type_id":"4","last_reported":1683831887,"current_range_meters":8800,"station_id":"ce4bh292rcd13ifvqdf0","pricing_plan_id":"free"},{"bike_id":"97f95c39-5732-431f-90c5-b1f54f8a94d5","system_id":"levelo_inurba_marseille","lat":43.295194,"lon":5.39397,"is_reserved":false,"is_disabled":false,"rental_uris":{"android":"levelo://app?vid=97f95c39-5732-431f-90c5-b1f54f8a94d5","ios":"levelo://app?vid=97f95c39-5732-431f-90c5-b1f54f8a94d5"},"vehicle_type_id":"4","last_reported":1683831887,"current_range_meters":16800,"station_id":"ce4bh292rcd13ifvqdf0","pricing_plan_id":"free"},{"bike_id":"b1435322-0ceb-4aa9-94a0-41d173c47623","system_id":"levelo_inurba_marseille","lat":43.295196,"lon":5.39397,"is_reserved":false,"is_disabled":false,"rental_uris":{"android":"levelo://app?vid=b1435322-0ceb-4aa9-94a0-41d173c47623","ios":"levelo://app?vid=b1435322-0ceb-4aa9-94a0-41d173c47623"},"vehicle_type_id":"4","last_reported":1683831887,"current_range_meters":20000,"station_id":"ce4bh292rcd13ifvqdf0","pricing_plan_id":"free"},{"bike_id":"47cbb5c8-4490-44d5-850f-82139616c211","system_id":"levelo_inurba_marseille","lat":43.29515,"lon":5.39401,"is_reserved":false,"is_disabled":false,"rental_uris":{"android":"levelo://app?vid=47cbb5c8-4490-44d5-850f-82139616c211","ios":"levelo://app?vid=47cbb5c8-4490-44d5-850f-82139616c211"},"vehicle_type_id":"4","last_reported":1683831887,"current_range_meters":17600,"station_id":"ce4bh292rcd13ifvqdf0","pricing_plan_id":"free"},{"bike_id":"e26a7435-4807-451c-ac90-8e489a65cae7","system_id":"levelo_inurba_marseille","lat":43.295194,"lon":5.39397,"is_reserved":false,"is_disabled":false,"rental_uris":{"android":"levelo://app?vid=e26a7435-4807-451c-ac90-8e489a65cae7","ios":"levelo://app?vid=e26a7435-4807-451c-ac90-8e489a65cae7"},"vehicle_type_id":"4","last_reported":1683831887,"current_range_meters":16400,"station_id":"ce4bh292rcd13ifvqdf0","pricing_plan_id":"free"},{"bike_id":"331ea8c0-e919-4de2-9c2b-718aa0964353","system_id":"levelo_inurba_marseille","lat":43.302759,"lon":5.400793,"is_reserved":false,"is_disabled":false,"rental_uris":{"android":"levelo://app?vid=331ea8c0-e919-4de2-9c2b-718aa0964353","ios":"levelo://app?vid=331ea8c0-e919-4de2-9c2b-718aa0964353"},"vehicle_type_id":"4","last_reported":1683831887,"current_range_meters":26800,"station_id":"ce4bgvh2rcd13ifvqcs0","pricing_plan_id":"free"},{"bike_id":"c784f507-7053-41ab-a2de-6e5143607d0e","system_id":"levelo_inurba_marseille","lat":43.302759,"lon":5.400793,"is_reserved":false,"is_disabled":false,"rental_uris":{"android":"levelo://app?vid=c784f507-7053-41ab-a2de-6e5143607d0e","ios":"levelo://app?vid=c784f507-7053-41ab-a2de-6e5143607d0e"},"vehicle_type_id":"4","last_reported":1683831887,"current_range_meters":8400,"station_id":"ce4bgvh2rcd13ifvqcs0","pricing_plan_id":"free"},{"bike_id":"3d66eff7-2911-4776-9050-3c091612bf78","system_id":"levelo_inurba_marseille","lat":43.302759,"lon":5.400793,"is_reserved":false,"is_disabled":false,"rental_uris":{"android":"levelo://app?vid=3d66eff7-2911-4776-9050-3c091612bf78","ios":"levelo://app?vid=3d66eff7-2911-4776-9050-3c091612bf78"},"vehicle_type_id":"4","last_reported":1683831887,"current_range_meters":10400,"station_id":"ce4bgvh2rcd13ifvqcs0","pricing_plan_id":"free"},{"bike_id":"8c8202d9-ea3b-4182-a2ff-912af7ac5e2f","system_id":"levelo_inurba_marseille","lat":43.302759,"lon":5.400793,"is_reserved":false,"is_disabled":false,"rental_uris":{"android":"levelo://app?vid=8c8202d9-ea3b-4182-a2ff-912af7ac5e2f","ios":"levelo://app?vid=8c8202d9-ea3b-4182-a2ff-912af7ac5e2f"},"vehicle_type_id":"4","last_reported":1683831887,"current_range_meters":6400,"station_id":"ce4bgvh2rcd13ifvqcs0","pricing_plan_id":"free"},{"bike_id":"c34f11f0-30b7-433f-8ee6-2d835895c44d","system_id":"levelo_inurba_marseille","lat":43.286039,"lon":5.370679,"is_reserved":false,"is_disabled":false,"rental_uris":{"android":"levelo://app?vid=c34f11f0-30b7-433f-8ee6-2d835895c44d","ios":"levelo://app?vid=c34f11f0-30b7-433f-8ee6-2d835895c44d"},"vehicle_type_id":"4","last_reported":1683831887,"current_range_meters":28000,"station_id":"ce4bht12rcd13ifvqi60","pricing_plan_id":"free"},{"bike_id":"ceb320f3-fdfb-40f2-bd4e-849f86cf3d64","system_id":"levelo_inurba_marseille","lat":43.286039,"lon":5.370679,"is_reserved":false,"is_disabled":false,"rental_uris":{"android":"levelo://app?vid=ceb320f3-fdfb-40f2-bd4e-849f86cf3d64","ios":"levelo://app?vid=ceb320f3-fdfb-40f2-bd4e-849f86cf3d64"},"vehicle_type_id":"4","last_reported":1683831887,"current_range_meters":11600,"station_id":"ce4bht12rcd13ifvqi60","pricing_plan_id":"free"},{"bike_id":"742fc298-88d3-40c0-8b42-a3eae1a7061e","system_id":"levelo_inurba_marseille","lat":43.286039,"lon":5.370681,"is_reserved":false,"is_disabled":false,"rental_uris":{"android":"levelo://app?vid=742fc298-88d3-40c0-8b42-a3eae1a7061e","ios":"levelo://app?vid=742fc298-88d3-40c0-8b42-a3eae1a7061e"},"vehicle_type_id":"4","last_reported":1683831887,"current_range_meters":30400,"station_id":"ce4bht12rcd13ifvqi60","pricing_plan_id":"free"},{"bike_id":"281fa2d6-5cc6-4700-9a84-d76537d8c9d0","system_id":"levelo_inurba_marseille","lat":43.286039,"lon":5.370679,"is_reserved":false,"is_disabled":false,"rental_uris":{"android":"levelo://app?vid=281fa2d6-5cc6-4700-9a84-d76537d8c9d0","ios":"levelo://app?vid=281fa2d6-5cc6-4700-9a84-d76537d8c9d0"},"vehicle_type_id":"4","last_reported":1683831887,"current_range_meters":31600,"station_id":"ce4bht12rcd13ifvqi60","pricing_plan_id":"free"},{"bike_id":"848f2907-dab2-4967-8fd0-41eb23c24209","system_id":"levelo_inurba_marseille","lat":43.286039,"lon":5.370679,"is_reserved":false,"is_disabled":false,"rental_uris":{"android":"levelo://app?vid=848f2907-dab2-4967-8fd0-41eb23c24209","ios":"levelo://app?vid=848f2907-dab2-4967-8fd0-41eb23c24209"},"vehicle_type_id":"4","last_reported":1683831887,"current_range_meters":31200,"station_id":"ce4bht12rcd13ifvqi60","pricing_plan_id":"free"},{"bike_id":"14cc38db-2f9e-41d7-8d81-894361656ff6","system_id":"levelo_inurba_marseille","lat":43.286039,"lon":5.370681,"is_reserved":false,"is_disabled":false,"rental_uris":{"android":"levelo://app?vid=14cc38db-2f9e-41d7-8d81-894361656ff6","ios":"levelo://app?vid=14cc38db-2f9e-41d7-8d81-894361656ff6"},"vehicle_type_id":"4","last_reported":1683831887,"current_range_meters":10800,"station_id":"ce4bht12rcd13ifvqi60","pricing_plan_id":"free"},{"bike_id":"a8321a2f-8aba-4b04-bfbb-e735d24c28fb","system_id":"levelo_inurba_marseille","lat":43.286039,"lon":5.370679,"is_reserved":false,"is_disabled":false,"rental_uris":{"android":"levelo://app?vid=a8321a2f-8aba-4b04-bfbb-e735d24c28fb","ios":"levelo://app?vid=a8321a2f-8aba-4b04-bfbb-e735d24c28fb"},"vehicle_type_id":"4","last_reported":1683831887,"current_range_meters":18000,"station_id":"ce4bht12rcd13ifvqi60","pricing_plan_id":"free"},{"bike_id":"b3345545-3256-4e30-9a35-4c79ece76446","system_id":"levelo_inurba_marseille","lat":43.286039,"lon":5.370681,"is_reserved":false,"is_disabled":false,"rental_uris":{"android":"levelo://app?vid=b3345545-3256-4e30-9a35-4c79ece76446","ios":"levelo://app?vid=b3345545-3256-4e30-9a35-4c79ece76446"},"vehicle_type_id":"4","last_reported":1683831887,"current_range_meters":22000,"station_id":"ce4bht12rcd13ifvqi60","pricing_plan_id":"free"},{"bike_id":"f93079db-112c-4944-a451-0aef17232561","system_id":"levelo_inurba_marseille","lat":43.287184,"lon":5.37937,"is_reserved":false,"is_disabled":false,"rental_uris":{"android":"levelo://app?vid=f93079db-112c-4944-a451-0aef17232561","ios":"levelo://app?vid=f93079db-112c-4944-a451-0aef17232561"},"vehicle_type_id":"4","last_reported":1683831887,"current_range_meters":11600,"station_id":"ce4bh9p2rcd13ifvqec0","pricing_plan_id":"free"},{"bike_id":"3831de5b-d3ef-4771-897b-b275916ac354","system_id":"levelo_inurba_marseille","lat":43.316517,"lon":5.404375,"is_reserved":false,"is_disabled":false,"rental_uris":{"android":"levelo://app?vid=3831de5b-d3ef-4771-897b-b275916ac354","ios":"levelo://app?vid=3831de5b-d3ef-4771-897b-b275916ac354"},"vehicle_type_id":"4","last_reported":1683831887,"current_range_meters":0,"station_id":"ce4bh012rcd13ifvqd00","pricing_plan_id":"free"},{"bike_id":"e9de2bf1-79b4-4e4f-825b-c823633b6caa","system_id":"levelo_inurba_marseille","lat":43.316517,"lon":5.404375,"is_reserved":false,"is_disabled":false,"rental_uris":{"android":"levelo://app?vid=e9de2bf1-79b4-4e4f-825b-c823633b6caa","ios":"levelo://app?vid=e9de2bf1-79b4-4e4f-825b-c823633b6caa"},"vehicle_type_id":"4","last_reported":1683831887,"current_range_meters":10800,"station_id":"ce4bh012rcd13ifvqd00","pricing_plan_id":"free"},{"bike_id":"e515d082-b630-45a5-8415-1a214d2a93f9","system_id":"levelo_inurba_marseille","lat":43.33884,"lon":5.35494,"is_reserved":false,"is_disabled":false,"rental_uris":{"android":"levelo://app?vid=e515d082-b630-45a5-8415-1a214d2a93f9","ios":"levelo://app?vid=e515d082-b630-45a5-8415-1a214d2a93f9"},"vehicle_type_id":"4","last_reported":1683831887,"current_range_meters":1600,"station_id":"","pricing_plan_id":"free"},{"bike_id":"e12d6c36-4f79-44f6-b394-1778ce14a038","system_id":"levelo_inurba_marseille","lat":43.291994,"lon":5.392907,"is_reserved":false,"is_disabled":false,"rental_uris":{"android":"levelo://app?vid=e12d6c36-4f79-44f6-b394-1778ce14a038","ios":"levelo://app?vid=e12d6c36-4f79-44f6-b394-1778ce14a038"},"vehicle_type_id":"4","last_reported":1683831887,"current_range_meters":9600,"station_id":"ce4bh192rcd13ifvqdd0","pricing_plan_id":"free"},{"bike_id":"a581d911-054a-4d32-9889-3a02250190f1","system_id":"levelo_inurba_marseille","lat":43.291994,"lon":5.392907,"is_reserved":false,"is_disabled":false,"rental_uris":{"android":"levelo://app?vid=a581d911-054a-4d32-9889-3a02250190f1","ios":"levelo://app?vid=a581d911-054a-4d32-9889-3a02250190f1"},"vehicle_type_id":"4","last_reported":1683831887,"current_range_meters":16000,"station_id":"ce4bh192rcd13ifvqdd0","pricing_plan_id":"free"},{"bike_id":"12908d3c-c2e0-4563-8026-b48589b429ea","system_id":"levelo_inurba_marseille","lat":43.284534,"lon":5.358662,"is_reserved":false,"is_disabled":false,"rental_uris":{"android":"levelo://app?vid=12908d3c-c2e0-4563-8026-b48589b429ea","ios":"levelo://app?vid=12908d3c-c2e0-4563-8026-b48589b429ea"},"vehicle_type_id":"4","last_reported":1683831887,"current_range_meters":18000,"station_id":"ce4bhah2rcd13ifvqei0","pricing_plan_id":"free"},{"bike_id":"7f91c3c9-a6ec-4cc3-a3f5-75698355bff8","system_id":"levelo_inurba_marseille","lat":43.284534,"lon":5.358662,"is_reserved":false,"is_disabled":false,"rental_uris":{"android":"levelo://app?vid=7f91c3c9-a6ec-4cc3-a3f5-75698355bff8","ios":"levelo://app?vid=7f91c3c9-a6ec-4cc3-a3f5-75698355bff8"},"vehicle_type_id":"4","last_reported":1683831887,"current_range_meters":21200,"station_id":"ce4bhah2rcd13ifvqei0","pricing_plan_id":"free"},{"bike_id":"40870914-e4fe-4b6f-87cd-8ebcc4f1f989","system_id":"levelo_inurba_marseille","lat":43.284534,"lon":5.358662,"is_reserved":false,"is_disabled":false,"rental_uris":{"android":"levelo://app?vid=40870914-e4fe-4b6f-87cd-8ebcc4f1f989","ios":"levelo://app?vid=40870914-e4fe-4b6f-87cd-8ebcc4f1f989"},"vehicle_type_id":"4","last_reported":1683831887,"current_range_meters":18400,"station_id":"ce4bhah2rcd13ifvqei0","pricing_plan_id":"free"},{"bike_id":"1bddfe32-b8b3-407e-a30f-a339622a801b","system_id":"levelo_inurba_marseille","lat":43.284534,"lon":5.358662,"is_reserved":false,"is_disabled":false,"rental_uris":{"android":"levelo://app?vid=1bddfe32-b8b3-407e-a30f-a339622a801b","ios":"levelo://app?vid=1bddfe32-b8b3-407e-a30f-a339622a801b"},"vehicle_type_id":"4","last_reported":1683831887,"current_range_meters":9200,"station_id":"ce4bhah2rcd13ifvqei0","pricing_plan_id":"free"},{"bike_id":"640eed80-2be7-4c55-86da-808b254b4973","system_id":"levelo_inurba_marseille","lat":43.284534,"lon":5.358662,"is_reserved":false,"is_disabled":false,"rental_uris":{"android":"levelo://app?vid=640eed80-2be7-4c55-86da-808b254b4973","ios":"levelo://app?vid=640eed80-2be7-4c55-86da-808b254b4973"},"vehicle_type_id":"4","last_reported":1683831887,"current_range_meters":14800,"station_id":"ce4bhah2rcd13ifvqei0","pricing_plan_id":"free"},{"bike_id":"617f8467-f49b-4b42-afec-1f9f6d39c9c2","system_id":"levelo_inurba_marseille","lat":43.284534,"lon":5.358662,"is_reserved":false,"is_disabled":false,"rental_uris":{"android":"levelo://app?vid=617f8467-f49b-4b42-afec-1f9f6d39c9c2","ios":"levelo://app?vid=617f8467-f49b-4b42-afec-1f9f6d39c9c2"},"vehicle_type_id":"4","last_reported":1683831887,"current_range_meters":18800,"station_id":"ce4bhah2rcd13ifvqei0","pricing_plan_id":"free"},{"bike_id":"afb0e273-e365-48b3-809f-c448745728a3","system_id":"levelo_inurba_marseille","lat":43.284534,"lon":5.358662,"is_reserved":false,"is_disabled":false,"rental_uris":{"android":"levelo://app?vid=afb0e273-e365-48b3-809f-c448745728a3","ios":"levelo://app?vid=afb0e273-e365-48b3-809f-c448745728a3"},"vehicle_type_id":"4","last_reported":1683831887,"current_range_meters":21200,"station_id":"ce4bhah2rcd13ifvqei0","pricing_plan_id":"free"},{"bike_id":"f79a4966-49fb-4116-934f-6bac4987897d","system_id":"levelo_inurba_marseille","lat":43.284534,"lon":5.358662,"is_reserved":false,"is_disabled":false,"rental_uris":{"android":"levelo://app?vid=f79a4966-49fb-4116-934f-6bac4987897d","ios":"levelo://app?vid=f79a4966-49fb-4116-934f-6bac4987897d"},"vehicle_type_id":"4","last_reported":1683831887,"current_range_meters":6800,"station_id":"ce4bhah2rcd13ifvqei0","pricing_plan_id":"free"},{"bike_id":"05c88aa4-2137-4669-afc4-5b2eac840005","system_id":"levelo_inurba_marseille","lat":43.284534,"lon":5.358662,"is_reserved":false,"is_disabled":false,"rental_uris":{"android":"levelo://app?vid=05c88aa4-2137-4669-afc4-5b2eac840005","ios":"levelo://app?vid=05c88aa4-2137-4669-afc4-5b2eac840005"},"vehicle_type_id":"4","last_reported":1683831887,"current_range_meters":30800,"station_id":"ce4bhah2rcd13ifvqei0","pricing_plan_id":"free"},{"bike_id":"c99af658-0625-425c-bb12-0f719b23fac1","system_id":"levelo_inurba_marseille","lat":43.284534,"lon":5.358662,"is_reserved":false,"is_disabled":false,"rental_uris":{"android":"levelo://app?vid=c99af658-0625-425c-bb12-0f719b23fac1","ios":"levelo://app?vid=c99af658-0625-425c-bb12-0f719b23fac1"},"vehicle_type_id":"4","last_reported":1683831887,"current_range_meters":18400,"station_id":"ce4bhah2rcd13ifvqei0","pricing_plan_id":"free"},{"bike_id":"1b44bec4-7364-4c8f-b3ec-d7d366e6a842","system_id":"levelo_inurba_marseille","lat":43.284534,"lon":5.358662,"is_reserved":false,"is_disabled":false,"rental_uris":{"android":"levelo://app?vid=1b44bec4-7364-4c8f-b3ec-d7d366e6a842","ios":"levelo://app?vid=1b44bec4-7364-4c8f-b3ec-d7d366e6a842"},"vehicle_type_id":"4","last_reported":1683831887,"current_range_meters":2400,"station_id":"ce4bhah2rcd13ifvqei0","pricing_plan_id":"free"},{"bike_id":"85121a95-064d-47df-998d-286191cc92a4","system_id":"levelo_inurba_marseille","lat":43.284534,"lon":5.358662,"is_reserved":false,"is_disabled":false,"rental_uris":{"android":"levelo://app?vid=85121a95-064d-47df-998d-286191cc92a4","ios":"levelo://app?vid=85121a95-064d-47df-998d-286191cc92a4"},"vehicle_type_id":"4","last_reported":1683831887,"current_range_meters":23600,"station_id":"ce4bhah2rcd13ifvqei0","pricing_plan_id":"free"},{"bike_id":"06b74a32-1e69-484f-996c-7950204b7711","system_id":"levelo_inurba_marseille","lat":43.285848,"lon":5.350787,"is_reserved":false,"is_disabled":false,"rental_uris":{"android":"levelo://app?vid=06b74a32-1e69-484f-996c-7950204b7711","ios":"levelo://app?vid=06b74a32-1e69-484f-996c-7950204b7711"},"vehicle_type_id":"4","last_reported":1683831887,"current_range_meters":1200,"station_id":"ce4bhch2rcd13ifvqeug","pricing_plan_id":"free"},{"bike_id":"f41f0cc4-e547-4138-992b-5ac069152eb9","system_id":"levelo_inurba_marseille","lat":43.28624,"lon":5.35104,"is_reserved":false,"is_disabled":false,"rental_uris":{"android":"levelo://app?vid=f41f0cc4-e547-4138-992b-5ac069152eb9","ios":"levelo://app?vid=f41f0cc4-e547-4138-992b-5ac069152eb9"},"vehicle_type_id":"4","last_reported":1683831887,"current_range_meters":6800,"station_id":"","pricing_plan_id":"free"},{"bike_id":"5a85cd83-df86-46cb-be56-9337d30690fa","system_id":"levelo_inurba_marseille","lat":43.28617,"lon":5.35101,"is_reserved":false,"is_disabled":false,"rental_uris":{"android":"levelo://app?vid=5a85cd83-df86-46cb-be56-9337d30690fa","ios":"levelo://app?vid=5a85cd83-df86-46cb-be56-9337d30690fa"},"vehicle_type_id":"4","last_reported":1683831887,"current_range_meters":20400,"station_id":"","pricing_plan_id":"free"},{"bike_id":"40162e51-1f1b-49c6-9360-425f1b54f372","system_id":"levelo_inurba_marseille","lat":43.286138,"lon":5.351006,"is_reserved":false,"is_disabled":false,"rental_uris":{"android":"levelo://app?vid=40162e51-1f1b-49c6-9360-425f1b54f372","ios":"levelo://app?vid=40162e51-1f1b-49c6-9360-425f1b54f372"},"vehicle_type_id":"4","last_reported":1683831887,"current_range_meters":22800,"station_id":"","pricing_plan_id":"free"},{"bike_id":"b6394904-dd16-4319-b0e6-0b08b12b5000","system_id":"levelo_inurba_marseille","lat":43.295713,"lon":5.399639,"is_reserved":false,"is_disabled":false,"rental_uris":{"android":"levelo://app?vid=b6394904-dd16-4319-b0e6-0b08b12b5000","ios":"levelo://app?vid=b6394904-dd16-4319-b0e6-0b08b12b5000"},"vehicle_type_id":"4","last_reported":1683831887,"current_range_meters":6800,"station_id":"ce4bh312rcd13ifvqdj0","pricing_plan_id":"free"},{"bike_id":"14552f0d-0862-4cef-a769-0797b2d41be6","system_id":"levelo_inurba_marseille","lat":43.295713,"lon":5.399639,"is_reserved":false,"is_disabled":false,"rental_uris":{"android":"levelo://app?vid=14552f0d-0862-4cef-a769-0797b2d41be6","ios":"levelo://app?vid=14552f0d-0862-4cef-a769-0797b2d41be6"},"vehicle_type_id":"4","last_reported":1683831887,"current_range_meters":18800,"station_id":"ce4bh312rcd13ifvqdj0","pricing_plan_id":"free"},{"bike_id":"24584e6d-b035-42a9-a11d-e15f7f8ed874","system_id":"levelo_inurba_marseille","lat":43.295713,"lon":5.399639,"is_reserved":false,"is_disabled":false,"rental_uris":{"android":"levelo://app?vid=24584e6d-b035-42a9-a11d-e15f7f8ed874","ios":"levelo://app?vid=24584e6d-b035-42a9-a11d-e15f7f8ed874"},"vehicle_type_id":"4","last_reported":1683831887,"current_range_meters":18000,"station_id":"ce4bh312rcd13ifvqdj0","pricing_plan_id":"free"},{"bike_id":"b8e100a5-df0c-48b9-a151-6820cc49a9bd","system_id":"levelo_inurba_marseille","lat":43.295713,"lon":5.399639,"is_reserved":false,"is_disabled":false,"rental_uris":{"android":"levelo://app?vid=b8e100a5-df0c-48b9-a151-6820cc49a9bd","ios":"levelo://app?vid=b8e100a5-df0c-48b9-a151-6820cc49a9bd"},"vehicle_type_id":"4","last_reported":1683831887,"current_range_meters":14400,"station_id":"ce4bh312rcd13ifvqdj0","pricing_plan_id":"free"},{"bike_id":"fa808cb5-c07e-4d4a-894c-3ca8776d97d1","system_id":"levelo_inurba_marseille","lat":43.295713,"lon":5.399639,"is_reserved":false,"is_disabled":false,"rental_uris":{"android":"levelo://app?vid=fa808cb5-c07e-4d4a-894c-3ca8776d97d1","ios":"levelo://app?vid=fa808cb5-c07e-4d4a-894c-3ca8776d97d1"},"vehicle_type_id":"4","last_reported":1683831887,"current_range_meters":6800,"station_id":"ce4bh312rcd13ifvqdj0","pricing_plan_id":"free"},{"bike_id":"ae59be71-09bb-44cc-abba-f7f626922dd4","system_id":"levelo_inurba_marseille","lat":43.295713,"lon":5.399639,"is_reserved":false,"is_disabled":false,"rental_uris":{"android":"levelo://app?vid=ae59be71-09bb-44cc-abba-f7f626922dd4","ios":"levelo://app?vid=ae59be71-09bb-44cc-abba-f7f626922dd4"},"vehicle_type_id":"4","last_reported":1683831887,"current_range_meters":15600,"station_id":"ce4bh312rcd13ifvqdj0","pricing_plan_id":"free"},{"bike_id":"0f75063a-86e9-4c44-b0b1-04195895913e","system_id":"levelo_inurba_marseille","lat":43.295713,"lon":5.399639,"is_reserved":false,"is_disabled":false,"rental_uris":{"android":"levelo://app?vid=0f75063a-86e9-4c44-b0b1-04195895913e","ios":"levelo://app?vid=0f75063a-86e9-4c44-b0b1-04195895913e"},"vehicle_type_id":"4","last_reported":1683831887,"current_range_meters":9600,"station_id":"ce4bh312rcd13ifvqdj0","pricing_plan_id":"free"},{"bike_id":"631c5092-dee8-4edb-bbec-f0908119c310","system_id":"levelo_inurba_marseille","lat":43.295713,"lon":5.399639,"is_reserved":false,"is_disabled":false,"rental_uris":{"android":"levelo://app?vid=631c5092-dee8-4edb-bbec-f0908119c310","ios":"levelo://app?vid=631c5092-dee8-4edb-bbec-f0908119c310"},"vehicle_type_id":"4","last_reported":1683831887,"current_range_meters":15200,"station_id":"ce4bh312rcd13ifvqdj0","pricing_plan_id":"free"},{"bike_id":"70ba78a6-a505-4de0-863e-ddf9a95091d8","system_id":"levelo_inurba_marseille","lat":43.295691,"lon":5.399989,"is_reserved":false,"is_disabled":false,"rental_uris":{"android":"levelo://app?vid=70ba78a6-a505-4de0-863e-ddf9a95091d8","ios":"levelo://app?vid=70ba78a6-a505-4de0-863e-ddf9a95091d8"},"vehicle_type_id":"4","last_reported":1683831887,"current_range_meters":17600,"station_id":"ce4bh312rcd13ifvqdj0","pricing_plan_id":"free"},{"bike_id":"e0e4e327-bb99-4c1c-a5cb-ab6707e1905b","system_id":"levelo_inurba_marseille","lat":43.286595,"lon":5.386795,"is_reserved":false,"is_disabled":false,"rental_uris":{"android":"levelo://app?vid=e0e4e327-bb99-4c1c-a5cb-ab6707e1905b","ios":"levelo://app?vid=e0e4e327-bb99-4c1c-a5cb-ab6707e1905b"},"vehicle_type_id":"4","last_reported":1683831887,"current_range_meters":12800,"station_id":"ce4bh492rcd13ifvqdug","pricing_plan_id":"free"},{"bike_id":"3b2d101c-a9f8-4404-9955-e825cfda0721","system_id":"levelo_inurba_marseille","lat":43.286595,"lon":5.386795,"is_reserved":false,"is_disabled":false,"rental_uris":{"android":"levelo://app?vid=3b2d101c-a9f8-4404-9955-e825cfda0721","ios":"levelo://app?vid=3b2d101c-a9f8-4404-9955-e825cfda0721"},"vehicle_type_id":"4","last_reported":1683831887,"current_range_meters":23200,"station_id":"ce4bh492rcd13ifvqdug","pricing_plan_id":"free"},{"bike_id":"eb491c16-7b06-4654-b956-c2132cfa79a4","system_id":"levelo_inurba_marseille","lat":43.286595,"lon":5.386795,"is_reserved":false,"is_disabled":false,"rental_uris":{"android":"levelo://app?vid=eb491c16-7b06-4654-b956-c2132cfa79a4","ios":"levelo://app?vid=eb491c16-7b06-4654-b956-c2132cfa79a4"},"vehicle_type_id":"4","last_reported":1683831887,"current_range_meters":2000,"station_id":"ce4bh492rcd13ifvqdug","pricing_plan_id":"free"},