{"last_updated":1728814134,"ttl":60,"version":"2.2","data":{"bikes":[{"bike_id":"eb4a2b74-8f6f-4cd5-8f39-235777662b3b","system_id":"levelo_inurba_marseille","lat":43.2717,"lon":5.40994,"is_reserved":false,"is_disabled":false,"rental_uris":{"android":"levelo://app?vid=eb4a2b74-8f6f-4cd5-8f39-235777662b3b","ios":"levelo://app?vid=eb4a2b74-8f6f-4cd5-8f39-235777662b3b"},"vehicle_type_id":"4","last_reported":1728814134,"current_range_meters":25200,"station_id":"ce4bhl12rcd13ifvqgf0","pricing_plan_id":"cebpf4jnsgd1na2vs0mg"},{"bike_id":"a88cc3d5-4214-4799-a463-c01d33dbb23e","system_id":"levelo_inurba_marseille","lat":43.25008,"lon":5.38916,"is_reserved":false,"is_disabled":false,"rental_uris":{"android":"levelo://app?vid=a88cc3d5-4214-4799-a463-c01d33dbb23e","ios":"levelo://app?vid=a88cc3d5-4214-4799-a463-c01d33dbb23e"},"vehicle_type_id":"4","last_reported":1728814134,"current_range_meters":16400,"station_id":"ce4bhgp2rcd13ifvqfd0","pricing_plan_id":"cebpf4jnsgd1na2vs0mg"},{"bike_id":"8a36bb65-dd05-437f-adaf-66c35c91f8ff","system_id":"levelo_inurba_marseille","lat":43.24172,"lon":5.36399,"is_reserved":false,"is_disabled":false,"rental_uris":{"android":"levelo://app?vid=8a36bb65-dd05-437f-adaf-66c35c91f8ff","ios":"levelo://app?vid=8a36bb65-dd05-437f-adaf-66c35c91f8ff"},"vehicle_type_id":"4","last_reported":1728814134,"current_range_meters":36000,"station_id":"cpo36qri1sfpv3e86is0","pricing_plan_id":"cebpf4jnsgd1na2vs0mg"},{"bike_id":"1686b530-b4fc-4ed4-82f9-80942bd858e4","system_id":"levelo_inurba_marseille","lat":43.29261,"lon":5.38448,"is_reserved":false,"is_disabled":false,"rental_uris":{"android":"levelo://app?vid=1686b530-b4fc-4ed4-82f9-80942bd858e4","ios":"levelo://app?vid=1686b530-b4fc-4ed4-82f9-80942bd858e4"},"vehicle_type_id":"4","last_reported":1728814134,"current_range_meters":25600,"station_id":"ce4bh692rcd13ifvqea0","pricing_plan_id":"cebpf4jnsgd1na2vs0mg"},{"bike_id":"480c36bc-dd66-41df-b09a-76735c76211b","system_id":"levelo_inurba_marseille","lat":43.27995,"lon":5.41656,"is_reserved":false,"is_disabled":false,"rental_uris":{"android":"levelo://app?vid=480c36bc-dd66-41df-b09a-76735c76211b","ios":"levelo://app?vid=480c36bc-dd66-41df-b09a-76735c76211b"},"vehicle_type_id":"4","last_reported":1728814134,"current_range_meters":36400,"station_id":"ce4bho12rcd13ifvqh1g","pricing_plan_id":"cebpf4jnsgd1na2vs0mg"},{"bike_id":"26b3feb2-760b-44ef-9fa3-f7975815070f","system_id":"levelo_inurba_marseille","lat":43.28925,"lon":5.38402,"is_reserved":false,"is_disabled":false,"rental_uris":{"android":"levelo://app?vid=26b3feb2-760b-44ef-9fa3-f7975815070f","ios":"levelo://app?vid=26b3feb2-760b-44ef-9fa3-f7975815070f"},"vehicle_type_id":"4","last_reported":1728814134,"current_range_meters":22800,"station_id":"ce4bh612rcd13ifvqe6g","pricing_plan_id":"cebpf4jnsgd1na2vs0mg"},{"bike_id":"0cd993dc-190c-4d56-bce5-0c30cce473ad","system_id":"levelo_inurba_marseille","lat":43.33021,"lon":5.39034,"is_reserved":false,"is_disabled":false,"rental_uris":{"android":"levelo://app?vid=0cd993dc-190c-4d56-bce5-0c30cce473ad","ios":"levelo://app?vid=0cd993dc-190c-4d56-bce5-0c30cce473ad"},"vehicle_type_id":"4","last_reported":1728814134,"current_range_meters":38800,"station_id":"ce4bhr92rcd13ifvqhrg","pricing_plan_id":"cebpf4jnsgd1na2vs0mg"},{"bike_id":"109f9277-d62b-4747-8132-6adab2ce9ed7","system_id":"levelo_inurba_marseille","lat":43.26483,"lon":5.3955,"is_reserved":false,"is_disabled":false,"rental_uris":{"android":"levelo://app?vid=109f9277-d62b-4747-8132-6adab2ce9ed7","ios":"levelo://app?vid=109f9277-d62b-4747-8132-6adab2ce9ed7"},"vehicle_type_id":"4","last_reported":1728814134,"current_range_meters":38800,"station_id":"ce4bhi12rcd13ifvqfq0","pricing_plan_id":"cebpf4jnsgd1na2vs0mg"},{"bike_id":"e49be7dd-1e95-4af1-8431-31f4173ce85d","system_id":"levelo_inurba_marseille","lat":43.32108,"lon":5.36765,"is_reserved":false,"is_disabled":false,"rental_uris":{"android":"levelo://app?vid=e49be7dd-1e95-4af1-8431-31f4173ce85d","ios":"levelo://app?vid=e49be7dd-1e95-4af1-8431-31f4173ce85d"},"vehicle_type_id":"4","last_reported":1728814134,"current_range_meters":37600,"station_id":"ce4bhrh2rcd13ifvqhug","pricing_plan_id":"cebpf4jnsgd1na2vs0mg"},{"bike_id":"61432fa4-e69a-43e1-a752-60da459a1e2e","system_id":"levelo_inurba_marseille","lat":43.33733,"lon":5.39188,"is_reserved":false,"is_disabled":false,"rental_uris":{"android":"levelo://app?vid=61432fa4-e69a-43e1-a752-60da459a1e2e","ios":"levelo://app?vid=61432fa4-e69a-43e1-a752-60da459a1e2e"},"vehicle_type_id":"4","last_reported":1728814134,"current_range_meters":32800,"station_id":"ce4bhr92rcd13ifvqhsg","pricing_plan_id":"cebpf4jnsgd1na2vs0mg"},{"bike_id":"c38b0dbf-048e-4a60-9083-4aead275433a","system_id":"levelo_inurba_marseille","lat":43.27178,"lon":5.40994,"is_reserved":false,"is_disabled":false,"rental_uris":{"android":"levelo://app?vid=c38b0dbf-048e-4a60-9083-4aead275433a","ios":"levelo://app?vid=c38b0dbf-048e-4a60-9083-4aead275433a"},"vehicle_type_id":"4","last_reported":1728814134,"current_range_meters":37600,"station_id":"ce4bhl12rcd13ifvqgf0","pricing_plan_id":"cebpf4jnsgd1na2vs0mg"},{"bike_id":"dd5cabdb-bd69-4eef-ad0b-45e06fa9618a","system_id":"levelo_inurba_marseille","lat":43.29774,"lon":5.39372,"is_reserved":false,"is_disabled":false,"rental_uris":{"android":"levelo://app?vid=dd5cabdb-bd69-4eef-ad0b-45e06fa9618a","ios":"levelo://app?vid=dd5cabdb-bd69-4eef-ad0b-45e06fa9618a"},"vehicle_type_id":"4","last_reported":1728814134,"current_range_meters":38800,"station_id":"chh1huq6cuj3fo74tm60","pricing_plan_id":"cebpf4jnsgd1na2vs0mg"},{"bike_id":"b26e96e1-4330-44cb-985a-c96ff3359907","system_id":"levelo_inurba_marseille","lat":43.3014,"lon":5.38062,"is_reserved":false,"is_disabled":false,"rental_uris":{"android":"levelo://app?vid=b26e96e1-4330-44cb-985a-c96ff3359907","ios":"levelo://app?vid=b26e96e1-4330-44cb-985a-c96ff3359907"},"vehicle_type_id":"4","last_reported":1728814134,"current_range_meters":29600,"station_id":"ce4bgjp2rcd13ifvqbh0","pricing_plan_id":"cebpf4jnsgd1na2vs0mg"},{"bike_id":"c5c33660-077d-4f97-b2f0-40691ac09116","system_id":"levelo_inurba_marseille","lat":43.2439,"lon":5.37064,"is_reserved":false,"is_disabled":false,"rental_uris":{"android":"levelo://app?vid=c5c33660-077d-4f97-b2f0-40691ac09116","ios":"levelo://app?vid=c5c33660-077d-4f97-b2f0-40691ac09116"},"vehicle_type_id":"4","last_reported":1728814134,"current_range_meters":34800,"station_id":"ce4bhhh2rcd13ifvqfk0","pricing_plan_id":"cebpf4jnsgd1na2vs0mg"},{"bike_id":"931d1f9c-4cb2-40a2-a856-914a1c55fcf3","system_id":"levelo_inurba_marseille","lat":43.24571,"lon":5.41662,"is_reserved":false,"is_disabled":false,"rental_uris":{"android":"levelo://app?vid=931d1f9c-4cb2-40a2-a856-914a1c55fcf3","ios":"levelo://app?vid=931d1f9c-4cb2-40a2-a856-914a1c55fcf3"},"vehicle_type_id":"4","last_reported":1728814134,"current_range_meters":8000,"station_id":"","pricing_plan_id":"cebpf4jnsgd1na2vs0mg"},{"bike_id":"17da52e6-f94b-4b73-afcf-548daf5aa7dc","system_id":"levelo_inurba_marseille","lat":43.30416,"lon":5.41286,"is_reserved":false,"is_disabled":false,"rental_uris":{"android":"levelo://app?vid=17da52e6-f94b-4b73-afcf-548daf5aa7dc","ios":"levelo://app?vid=17da52e6-f94b-4b73-afcf-548daf5aa7dc"},"vehicle_type_id":"4","last_reported":1728814134,"current_range_meters":2000,"station_id":"ce4bhop2rcd13ifvqh8g","pricing_plan_id":"cebpf4jnsgd1na2vs0mg"},{"bike_id":"d5d48db9-4e9f-43e1-9423-77b8cb672fb6","system_id":"levelo_inurba_marseille","lat":43.28374,"lon":5.38633,"is_reserved":false,"is_disabled":false,"rental_uris":{"android":"levelo://app?vid=d5d48db9-4e9f-43e1-9423-77b8cb672fb6","ios":"levelo://app?vid=d5d48db9-4e9f-43e1-9423-77b8cb672fb6"},"vehicle_type_id":"4","last_reported":1728814134,"current_range_meters":28400,"station_id":"ce4bh492rcd13ifvqdvg","pricing_plan_id":"cebpf4jnsgd1na2vs0mg"},{"bike_id":"56529199-b18a-4213-b005-2f4cf2a5c278","system_id":"levelo_inurba_marseille","lat":43.29226,"lon":5.36061,"is_reserved":false,"is_disabled":false,"rental_uris":{"android":"levelo://app?vid=56529199-b18a-4213-b005-2f4cf2a5c278","ios":"levelo://app?vid=56529199-b18a-4213-b005-2f4cf2a5c278"},"vehicle_type_id":"4","last_reported":1728814134,"current_range_meters":22000,"station_id":"ce4bhbh2rcd13ifvqeqg","pricing_plan_id":"cebpf4jnsgd1na2vs0mg"},{"bike_id":"80ccdb87-c225-40c6-871c-76b9a75a2603","system_id":"levelo_inurba_marseille","lat":43.27565,"lon":5.38426,"is_reserved":false,"is_disabled":false,"rental_uris":{"android":"levelo://app?vid=80ccdb87-c225-40c6-871c-76b9a75a2603","ios":"levelo://app?vid=80ccdb87-c225-40c6-871c-76b9a75a2603"},"vehicle_type_id":"4","last_reported":1728814134,"current_range_meters":38800,"station_id":"ce4bhh92rcd13ifvqfi0","pricing_plan_id":"cebpf4jnsgd1na2vs0mg"},{"bike_id":"dee41c9d-caa5-4b3f-857d-6226540d0c76","system_id":"levelo_inurba_marseille","lat":43.29051,"lon":5.35923,"is_reserved":false,"is_disabled":false,"rental_uris":{"android":"levelo://app?vid=dee41c9d-caa5-4b3f-857d-6226540d0c76","ios":"levelo://app?vid=dee41c9d-caa5-4b3f-857d-6226540d0c76"},"vehicle_type_id":"4","last_reported":1728814134,"current_range_meters":37600,"station_id":"ce4bha92rcd13ifvqeg0","pricing_plan_id":"cebpf4jnsgd1na2vs0mg"},{"bike_id":"6905c5d3-8624-4dea-b3a0-3fea8278ff35","system_id":"levelo_inurba_marseille","lat":43.2956,"lon":5.42283,"is_reserved":false,"is_disabled":false,"rental_uris":{"android":"levelo://app?vid=6905c5d3-8624-4dea-b3a0-3fea8278ff35","ios":"levelo://app?vid=6905c5d3-8624-4dea-b3a0-3fea8278ff35"},"vehicle_type_id":"4","last_reported":1728814134,"current_range_meters":9200,"station_id":"ce4bhph2rcd13ifvqhdg","pricing_plan_id":"cebpf4jnsgd1na2vs0mg"},{"bike_id":"ecc23fb2-64e5-4d73-9363-c6a133c704bf","system_id":"levelo_inurba_marseille","lat":43.294373,"lon":5.397508,"is_reserved":false,"is_disabled":false,"rental_uris":{"android":"levelo://app?vid=ecc23fb2-64e5-4d73-9363-c6a133c704bf","ios":"levelo://app?vid=ecc23fb2-64e5-4d73-9363-c6a133c704bf"},"vehicle_type_id":"4","last_reported":1728814134,"current_range_meters":30000,"station_id":"ce4bh3h2rcd13ifvqdo0","pricing_plan_id":"cebpf4jnsgd1na2vs0mg"},{"bike_id":"6b2daff3-9851-4dff-9081-e0ec010599e4","system_id":"levelo_inurba_marseille","lat":43.314515,"lon":5.37384,"is_reserved":false,"is_disabled":false,"rental_uris":{"android":"levelo://app?vid=6b2daff3-9851-4dff-9081-e0ec010599e4","ios":"levelo://app?vid=6b2daff3-9851-4dff-9081-e0ec010599e4"},"vehicle_type_id":"4","last_reported":1728814134,"current_range_meters":32800,"station_id":"","pricing_plan_id":"cebpf4jnsgd1na2vs0mg"},{"bike_id":"3f3b7010-e9d4-41f2-a1b3-8178a2b81157","system_id":"levelo_inurba_marseille","lat":43.24672,"lon":5.38169,"is_reserved":false,"is_disabled":false,"rental_uris":{"android":"levelo://app?vid=3f3b7010-e9d4-41f2-a1b3-8178a2b81157","ios":"levelo://app?vid=3f3b7010-e9d4-41f2-a1b3-8178a2b81157"},"vehicle_type_id":"4","last_reported":1728814134,"current_range_meters":12000,"station_id":"ce4bhih2rcd13ifvqfr0","pricing_plan_id":"cebpf4jnsgd1na2vs0mg"},{"bike_id":"f8fd929e-ef12-4998-8e1d-12522bd05de2","system_id":"levelo_inurba_marseille","lat":43.33024,"lon":5.3904,"is_reserved":false,"is_disabled":false,"rental_uris":{"android":"levelo://app?vid=f8fd929e-ef12-4998-8e1d-12522bd05de2","ios":"levelo://app?vid=f8fd929e-ef12-4998-8e1d-12522bd05de2"},"vehicle_type_id":"4","last_reported":1728814134,"current_range_meters":38000,"station_id":"ce4bhr92rcd13ifvqhrg","pricing_plan_id":"cebpf4jnsgd1na2vs0mg"},{"bike_id":"7fd1cae2-c0ec-41e3-baae-0e095464e86c","system_id":"levelo_inurba_marseille","lat":43.29528,"lon":5.39961,"is_reserved":false,"is_disabled":false,"rental_uris":{"android":"levelo://app?vid=7fd1cae2-c0ec-41e3-baae-0e095464e86c","ios":"levelo://app?vid=7fd1cae2-c0ec-41e3-baae-0e095464e86c"},"vehicle_type_id":"4","last_reported":1728814134,"current_range_meters":11200,"station_id":"ce4bh312rcd13ifvqdj0","pricing_plan_id":"cebpf4jnsgd1na2vs0mg"},{"bike_id":"57d93243-8cbc-4c50-93e2-4f938999af7c","system_id":"levelo_inurba_marseille","lat":43.29974,"lon":5.37189,"is_reserved":false,"is_disabled":false,"rental_uris":{"android":"levelo://app?vid=57d93243-8cbc-4c50-93e2-4f938999af7c","ios":"levelo://app?vid=57d93243-8cbc-4c50-93e2-4f938999af7c"},"vehicle_type_id":"4","last_reported":1728814134,"current_range_meters":30000,"station_id":"ce4bgr92rcd13ifvqc7g","pricing_plan_id":"cebpf4jnsgd1na2vs0mg"},{"bike_id":"fa08456f-0316-46ca-b497-6c7d63a7f841","system_id":"levelo_inurba_marseille","lat":43.23196,"lon":5.35547,"is_reserved":false,"is_disabled":false,"rental_uris":{"android":"levelo://app?vid=fa08456f-0316-46ca-b497-6c7d63a7f841","ios":"levelo://app?vid=fa08456f-0316-46ca-b497-6c7d63a7f841"},"vehicle_type_id":"4","last_reported":1728814134,"current_range_meters":35600,"station_id":"ce4bhu92rcd13ifvqi70","pricing_plan_id":"cebpf4jnsgd1na2vs0mg"},{"bike_id":"af72dc5b-e02f-4efa-8cbd-41822bfef337","system_id":"levelo_inurba_marseille","lat":43.27994,"lon":5.40018,"is_reserved":false,"is_disabled":false,"rental_uris":{"android":"levelo://app?vid=af72dc5b-e02f-4efa-8cbd-41822bfef337","ios":"levelo://app?vid=af72dc5b-e02f-4efa-8cbd-41822bfef337"},"vehicle_type_id":"4","last_reported":1728814134,"current_range_meters":38800,"station_id":"ce4bho92rcd13ifvqh4g","pricing_plan_id":"cebpf4jnsgd1na2vs0mg"},{"bike_id":"86851483-6460-4f2a-8d92-b3b47e5c55aa","system_id":"levelo_inurba_marseille","lat":43.23958,"lon":5.36635,"is_reserved":false,"is_disabled":false,"rental_uris":{"android":"levelo://app?vid=86851483-6460-4f2a-8d92-b3b47e5c55aa","ios":"levelo://app?vid=86851483-6460-4f2a-8d92-b3b47e5c55aa"},"vehicle_type_id":"4","last_reported":1728814134,"current_range_meters":38800,"station_id":"ce4bhi12rcd13ifvqfp0","pricing_plan_id":"cebpf4jnsgd1na2vs0mg"},{"bike_id":"4f76aab2-1521-4c63-b1e0-3eebf92c0a02","system_id":"levelo_inurba_marseille","lat":43.28931,"lon":5.36397,"is_reserved":false,"is_disabled":false,"rental_uris":{"android":"levelo://app?vid=4f76aab2-1521-4c63-b1e0-3eebf92c0a02","ios":"levelo://app?vid=4f76aab2-1521-4c63-b1e0-3eebf92c0a02"},"vehicle_type_id":"4","last_reported":1728814134,"current_range_meters":16000,"station_id":"ce4bhc92rcd13ifvqetg","pricing_plan_id":"cebpf4jnsgd1na2vs0mg"},{"bike_id":"900d410e-a263-4441-80a1-af67345a66d2","system_id":"levelo_inurba_marseille","lat":43.24391,"lon":5.37062,"is_reserved":false,"is_disabled":false,"rental_uris":{"android":"levelo://app?vid=900d410e-a263-4441-80a1-af67345a66d2","ios":"levelo://app?vid=900d410e-a263-4441-80a1-af67345a66d2"},"vehicle_type_id":"4","last_reported":1728814134,"current_range_meters":12800,"station_id":"ce4bhhh2rcd13ifvqfk0","pricing_plan_id":"cebpf4jnsgd1na2vs0mg"},{"bike_id":"e80b8432-a948-4e0f-bc1a-140358f69ef8","system_id":"levelo_inurba_marseille","lat":43.27992,"lon":5.41664,"is_reserved":false,"is_disabled":false,"rental_uris":{"android":"levelo://app?vid=e80b8432-a948-4e0f-bc1a-140358f69ef8","ios":"levelo://app?vid=e80b8432-a948-4e0f-bc1a-140358f69ef8"},"vehicle_type_id":"4","last_reported":1728814134,"current_range_meters":38000,"station_id":"ce4bho12rcd13ifvqh1g","pricing_plan_id":"cebpf4jnsgd1na2vs0mg"},{"bike_id":"a9a9a4b5-5c49-474f-8f41-09f9027f45b4","system_id":"levelo_inurba_marseille","lat":43.22935,"lon":5.35376,"is_reserved":false,"is_disabled":false,"rental_uris":{"android":"levelo://app?vid=a9a9a4b5-5c49-474f-8f41-09f9027f45b4","ios":"levelo://app?vid=a9a9a4b5-5c49-474f-8f41-09f9027f45b4"},"vehicle_type_id":"4","last_reported":1728814134,"current_range_meters":28000,"station_id":"cpo3532slgdg3j2ikp40","pricing_plan_id":"cebpf4jnsgd1na2vs0mg"},{"bike_id":"d2f18166-66b7-44ad-87ac-f02517f134af","system_id":"levelo_inurba_marseille","lat":43.28938,"lon":5.39625,"is_reserved":false,"is_disabled":false,"rental_uris":{"android":"levelo://app?vid=d2f18166-66b7-44ad-87ac-f02517f134af","ios":"levelo://app?vid=d2f18166-66b7-44ad-87ac-f02517f134af"},"vehicle_type_id":"4","last_reported":1728814134,"current_range_meters":24000,"station_id":"ce4bh3h2rcd13ifvqdn0","pricing_plan_id":"cebpf4jnsgd1na2vs0mg"},{"bike_id":"f1628678-6351-4048-ace7-66f7afbe517a","system_id":"levelo_inurba_marseille","lat":43.29051,"lon":5.35936,"is_reserved":false,"is_disabled":false,"rental_uris":{"android":"levelo://app?vid=f1628678-6351-4048-ace7-66f7afbe517a","ios":"levelo://app?vid=f1628678-6351-4048-ace7-66f7afbe517a"},"vehicle_type_id":"4","last_reported":1728814134,"current_range_meters":30800,"station_id":"ce4bha92rcd13ifvqeg0","pricing_plan_id":"cebpf4jnsgd1na2vs0mg"},{"bike_id":"777ea66e-9e4e-45a9-b448-b95c37d4a8c2","system_id":"levelo_inurba_marseille","lat":43.283924,"lon":5.382137,"is_reserved":false,"is_disabled":false,"rental_uris":{"android":"levelo://app?vid=777ea66e-9e4e-45a9-b448-b95c37d4a8c2","ios":"levelo://app?vid=777ea66e-9e4e-45a9-b448-b95c37d4a8c2"},"vehicle_type_id":"4","last_reported":1728814134,"current_range_meters":8000,"station_id":"ce4bh692rcd13ifvqe90","pricing_plan_id":"cebpf4jnsgd1na2vs0mg"},{"bike_id":"c971e44b-f067-4870-9424-5afe85ae4524","system_id":"levelo_inurba_marseille","lat":43.32052,"lon":5.41558,"is_reserved":false,"is_disabled":false,"rental_uris":{"android":"levelo://app?vid=c971e44b-f067-4870-9424-5afe85ae4524","ios":"levelo://app?vid=c971e44b-f067-4870-9424-5afe85ae4524"},"vehicle_type_id":"4","last_reported":1728814134,"current_range_meters":22400,"station_id":"ce4bhq92rcd13ifvqhkg","pricing_plan_id":"cebpf4jnsgd1na2vs0mg"},{"bike_id":"c923e002-49f8-4af2-8b84-acc62074ff69","system_id":"levelo_inurba_marseille","lat":43.30328,"lon":5.40436,"is_reserved":false,"is_disabled":false,"rental_uris":{"android":"levelo://app?vid=c923e002-49f8-4af2-8b84-acc62074ff69","ios":"levelo://app?vid=c923e002-49f8-4af2-8b84-acc62074ff69"},"vehicle_type_id":"4","last_reported":1728814134,"current_range_meters":35600,"station_id":"ce4bh012rcd13ifvqd10","pricing_plan_id":"cebpf4jnsgd1na2vs0mg"},{"bike_id":"6ac87f61-919c-4714-ae49-c9fedb52d895","system_id":"levelo_inurba_marseille","lat":43.261891,"lon":5.374496,"is_reserved":false,"is_disabled":false,"rental_uris":{"android":"levelo://app?vid=6ac87f61-919c-4714-ae49-c9fedb52d895","ios":"levelo://app?vid=6ac87f61-919c-4714-ae49-c9fedb52d895"},"vehicle_type_id":"4","last_reported":1728814134,"current_range_meters":32400,"station_id":"ce4bhhp2rcd13ifvqfm0","pricing_plan_id":"cebpf4jnsgd1na2vs0mg"},{"bike_id":"3e4f306a-0193-49a5-ae54-ea2787574907","system_id":"levelo_inurba_marseille","lat":43.24391,"lon":5.37067,"is_reserved":false,"is_disabled":false,"rental_uris":{"android":"levelo://app?vid=3e4f306a-0193-49a5-ae54-ea2787574907","ios":"levelo://app?vid=3e4f306a-0193-49a5-ae54-ea2787574907"},"vehicle_type_id":"4","last_reported":1728814134,"current_range_meters":36000,"station_id":"ce4bhhh2rcd13ifvqfk0","pricing_plan_id":"cebpf4jnsgd1na2vs0mg"},{"bike_id":"f6581013-d91f-4a90-9ef7-674f4e86e30d","system_id":"levelo_inurba_marseille","lat":43.26057,"lon":5.39399,"is_reserved":false,"is_disabled":false,"rental_uris":{"android":"levelo://app?vid=f6581013-d91f-4a90-9ef7-674f4e86e30d","ios":"levelo://app?vid=f6581013-d91f-4a90-9ef7-674f4e86e30d"},"vehicle_type_id":"4","last_reported":1728814134,"current_range_meters":38800,"station_id":"ce4bhh92rcd13ifvqfj0","pricing_plan_id":"cebpf4jnsgd1na2vs0mg"},{"bike_id":"1faf5929-d207-48dc-8def-a8b0678810d5","system_id":"levelo_inurba_marseille","lat":43.29222,"lon":5.36076,"is_reserved":false,"is_disabled":false,"rental_uris":{"android":"levelo://app?vid=1faf5929-d207-48dc-8def-a8b0678810d5","ios":"levelo://app?vid=1faf5929-d207-48dc-8def-a8b0678810d5"},"vehicle_type_id":"4","last_reported":1728814134,"current_range_meters":36400,"station_id":"ce4bhbh2rcd13ifvqeqg","pricing_plan_id":"cebpf4jnsgd1na2vs0mg"},{"bike_id":"cec1e807-225d-4073-b5be-e6b643c96f31","system_id":"levelo_inurba_marseille","lat":43.24999,"lon":5.38925,"is_reserved":false,"is_disabled":false,"rental_uris":{"android":"levelo://app?vid=cec1e807-225d-4073-b5be-e6b643c96f31","ios":"levelo://app?vid=cec1e807-225d-4073-b5be-e6b643c96f31"},"vehicle_type_id":"4","last_reported":1728814134,"current_range_meters":14800,"station_id":"ce4bhgp2rcd13ifvqfd0","pricing_plan_id":"cebpf4jnsgd1na2vs0mg"},{"bike_id":"0c5a1e5b-223f-4823-b9d2-d0b796dd3e79","system_id":"levelo_inurba_marseille","lat":43.28006,"lon":5.40008,"is_reserved":false,"is_disabled":false,"rental_uris":{"android":"levelo://app?vid=0c5a1e5b-223f-4823-b9d2-d0b796dd3e79","ios":"levelo://app?vid=0c5a1e5b-223f-4823-b9d2-d0b796dd3e79"},"vehicle_type_id":"4","last_reported":1728814134,"current_range_meters":38400,"station_id":"ce4bho92rcd13ifvqh4g","pricing_plan_id":"cebpf4jnsgd1na2vs0mg"},{"bike_id":"259ce230-49e0-41a0-91ad-6adbca53c3ab","system_id":"levelo_inurba_marseille","lat":43.255,"lon":5.37652,"is_reserved":false,"is_disabled":false,"rental_uris":{"android":"levelo://app?vid=259ce230-49e0-41a0-91ad-6adbca53c3ab","ios":"levelo://app?vid=259ce230-49e0-41a0-91ad-6adbca53c3ab"},"vehicle_type_id":"4","last_reported":1728814134,"current_range_meters":38000,"station_id":"ce4bhh12rcd13ifvqff0","pricing_plan_id":"cebpf4jnsgd1na2vs0mg"},{"bike_id":"fce64ce7-88b3-471b-aac0-f30f3e66d244","system_id":"levelo_inurba_marseille","lat":43.25086,"lon":5.39524,"is_reserved":false,"is_disabled":false,"rental_uris":{"android":"levelo://app?vid=fce64ce7-88b3-471b-aac0-f30f3e66d244","ios":"levelo://app?vid=fce64ce7-88b3-471b-aac0-f30f3e66d244"},"vehicle_type_id":"4","last_reported":1728814134,"current_range_meters":31200,"station_id":"ce4bhm12rcd13ifvqgkg","pricing_plan_id":"cebpf4jnsgd1na2vs0mg"},{"bike_id":"87424418-509f-453a-9aa8-4518e170c0d1","system_id":"levelo_inurba_marseille","lat":43.31715,"lon":5.37742,"is_reserved":false,"is_disabled":false,"rental_uris":{"android":"levelo://app?vid=87424418-509f-453a-9aa8-4518e170c0d1","ios":"levelo://app?vid=87424418-509f-453a-9aa8-4518e170c0d1"},"vehicle_type_id":"4","last_reported":1728814134,"current_range_meters":25600,"station_id":"ce4bgth2rcd13ifvqch0","pricing_plan_id":"cebpf4jnsgd1na2vs0mg"},{"bike_id":"2514e379-ef51-4a82-ad33-9bf543f02120","system_id":"levelo_inurba_marseille","lat":43.29237,"lon":5.36056,"is_reserved":false,"is_disabled":false,"rental_uris":{"android":"levelo://app?vid=2514e379-ef51-4a82-ad33-9bf543f02120","ios":"levelo://app?vid=2514e379-ef51-4a82-ad33-9bf543f02120"},"vehicle_type_id":"4","last_reported":1728814134,"current_range_meters":5600,"station_id":"ce4bhbh2rcd13ifvqeqg","pricing_plan_id":"cebpf4jnsgd1na2vs0mg"},{"bike_id":"3545951b-894d-4495-afdf-84cb7b3b25b3","system_id":"levelo_inurba_marseille","lat":43.23196,"lon":5.35545,"is_reserved":false,"is_disabled":false,"rental_uris":{"android":"levelo://app?vid=3545951b-894d-4495-afdf-84cb7b3b25b3","ios":"levelo://app?vid=3545951b-894d-4495-afdf-84cb7b3b25b3"},"vehicle_type_id":"4","last_reported":1728814134,"current_range_meters":32800,"station_id":"ce4bhu92rcd13ifvqi70","pricing_plan_id":"cebpf4jnsgd1na2vs0mg"},{"bike_id":"94b5b3e5-1466-4cd8-b5b3-d5cbebabce80","system_id":"levelo_inurba_marseille","lat":43.23961,"lon":5.3664,"is_reserved":false,"is_disabled":false,"rental_uris":{"android":"levelo://app?vid=94b5b3e5-1466-4cd8-b5b3-d5cbebabce80","ios":"levelo://app?vid=94b5b3e5-1466-4cd8-b5b3-d5cbebabce80"},"vehicle_type_id":"4","last_reported":1728814134,"current_range_meters":6800,"station_id":"ce4bhi12rcd13ifvqfp0","pricing_plan_id":"cebpf4jnsgd1na2vs0mg"},{"bike_id":"dcb5c470-2f3d-4200-bff7-9bc05814b797","system_id":"levelo_inurba_marseille","lat":43.284058,"lon":5.375191,"is_reserved":false,"is_disabled":false,"rental_uris":{"android":"levelo://app?vid=dcb5c470-2f3d-4200-bff7-9bc05814b797","ios":"levelo://app?vid=dcb5c470-2f3d-4200-bff7-9bc05814b797"},"vehicle_type_id":"4","last_reported":1728814134,"current_range_meters":32400,"station_id":"ce4bh412rcd13ifvqds0","pricing_plan_id":"cebpf4jnsgd1na2vs0mg"},{"bike_id":"19767c7e-4ed0-457f-bcde-dbef8a4b6308","system_id":"levelo_inurba_marseille","lat":43.24386,"lon":5.3706,"is_reserved":false,"is_disabled":false,"rental_uris":{"android":"levelo://app?vid=19767c7e-4ed0-457f-bcde-dbef8a4b6308","ios":"levelo://app?vid=19767c7e-4ed0-457f-bcde-dbef8a4b6308"},"vehicle_type_id":"4","last_reported":1728814134,"current_range_meters":33200,"station_id":"ce4bhhh2rcd13ifvqfk0","pricing_plan_id":"cebpf4jnsgd1na2vs0mg"},{"bike_id":"9437f91b-b3c2-473e-854a-b43e672c884c","system_id":"levelo_inurba_marseille","lat":43.28616,"lon":5.35105,"is_reserved":false,"is_disabled":false,"rental_uris":{"android":"levelo://app?vid=9437f91b-b3c2-473e-854a-b43e672c884c","ios":"levelo://app?vid=9437f91b-b3c2-473e-854a-b43e672c884c"},"vehicle_type_id":"4","last_reported":1728814134,"current_range_meters":17200,"station_id":"ce4bhch2rcd13ifvqeug","pricing_plan_id":"cebpf4jnsgd1na2vs0mg"},{"bike_id":"ddd8071c-e197-43f6-b7d5-51b8315e08bd","system_id":"levelo_inurba_marseille","lat":43.23189,"lon":5.35562,"is_reserved":false,"is_disabled":false,"rental_uris":{"android":"levelo://app?vid=ddd8071c-e197-43f6-b7d5-51b8315e08bd","ios":"levelo://app?vid=ddd8071c-e197-43f6-b7d5-51b8315e08bd"},"vehicle_type_id":"4","last_reported":1728814134,"current_range_meters":15200,"station_id":"ce4bhu92rcd13ifvqi70","pricing_plan_id":"cebpf4jnsgd1na2vs0mg"},{"bike_id":"6bd13d82-f155-4f47-a46d-1bea849ea499","system_id":"levelo_inurba_marseille","lat":43.28268,"lon":5.35071,"is_reserved":false,"is_disabled":false,"rental_uris":{"android":"levelo://app?vid=6bd13d82-f155-4f47-a46d-1bea849ea499","ios":"levelo://app?vid=6bd13d82-f155-4f47-a46d-1bea849ea499"},"vehicle_type_id":"4","last_reported":1728814134,"current_range_meters":34000,"station_id":"ce4bhbp2rcd13ifvqerg","pricing_plan_id":"cebpf4jnsgd1na2vs0mg"},{"bike_id":"25ed2710-8c35-44e6-81fd-8fc7cf6b54a8","system_id":"levelo_inurba_marseille","lat":43.274948,"lon":5.424466,"is_reserved":false,"is_disabled":false,"rental_uris":{"android":"levelo://app?vid=25ed2710-8c35-44e6-81fd-8fc7cf6b54a8","ios":"levelo://app?vid=25ed2710-8c35-44e6-81fd-8fc7cf6b54a8"},"vehicle_type_id":"4","last_reported":1728814134,"current_range_meters":22000,"station_id":"ce4bhn92rcd13ifvqgrg","pricing_plan_id":"cebpf4jnsgd1na2vs0mg"},{"bike_id":"a208bf3c-b93a-4803-b5a6-cffd4ee766e0","system_id":"levelo_inurba_marseille","lat":43.29257,"lon":5.38444,"is_reserved":false,"is_disabled":false,"rental_uris":{"android":"levelo://app?vid=a208bf3c-b93a-4803-b5a6-cffd4ee766e0","ios":"levelo://app?vid=a208bf3c-b93a-4803-b5a6-cffd4ee766e0"},"vehicle_type_id":"4","last_reported":1728814134,"current_range_meters":29600,"station_id":"ce4bh692rcd13ifvqea0","pricing_plan_id":"cebpf4jnsgd1na2vs0mg"},{"bike_id":"ebfc3a19-cecb-49af-8d26-1527024c360f","system_id":"levelo_inurba_marseille","lat":43.29849,"lon":5.36286,"is_reserved":false,"is_disabled":false,"rental_uris":{"android":"levelo://app?vid=ebfc3a19-cecb-49af-8d26-1527024c360f","ios":"levelo://app?vid=ebfc3a19-cecb-49af-8d26-1527024c360f"},"vehicle_type_id":"4","last_reported":1728814134,"current_range_meters":28000,"station_id":"ce4bgpp2rcd13ifvqc3g","pricing_plan_id":"cebpf4jnsgd1na2vs0mg"},{"bike_id":"3568bb6a-ff56-4932-b065-3f63a3c1d59e","system_id":"levelo_inurba_marseille","lat":43.26807,"lon":5.40271,"is_reserved":false,"is_disabled":false,"rental_uris":{"android":"levelo://app?vid=3568bb6a-ff56-4932-b065-3f63a3c1d59e","ios":"levelo://app?vid=3568bb6a-ff56-4932-b065-3f63a3c1d59e"},"vehicle_type_id":"4","last_reported":1728814134,"current_range_meters":38400,"station_id":"ce501612rcd8frsf0b60","pricing_plan_id":"cebpf4jnsgd1na2vs0mg"},{"bike_id":"85482c86-edc2-493a-a3a9-3820de066abd","system_id":"levelo_inurba_marseille","lat":43.29223,"lon":5.36078,"is_reserved":false,"is_disabled":false,"rental_uris":{"android":"levelo://app?vid=85482c86-edc2-493a-a3a9-3820de066abd","ios":"levelo://app?vid=85482c86-edc2-493a-a3a9-3820de066abd"},"vehicle_type_id":"4","last_reported":1728814134,"current_range_meters":32000,"station_id":"ce4bhbh2rcd13ifvqeqg","pricing_plan_id":"cebpf4jnsgd1na2vs0mg"},{"bike_id":"03cb69f8-355b-4581-a3ef-870918351202","system_id":"levelo_inurba_marseille","lat":43.29223,"lon":5.36064,"is_reserved":false,"is_disabled":false,"rental_uris":{"android":"levelo://app?vid=03cb69f8-355b-4581-a3ef-870918351202","ios":"levelo://app?vid=03cb69f8-355b-4581-a3ef-870918351202"},"vehicle_type_id":"4","last_reported":1728814134,"current_range_meters":31200,"station_id":"ce4bhbh2rcd13ifvqeqg","pricing_plan_id":"cebpf4jnsgd1na2vs0mg"},{"bike_id":"e10ae7eb-03c9-4c22-ae10-740a84e74109","system_id":"levelo_inurba_marseille","lat":43.26568,"lon":5.39871,"is_reserved":false,"is_disabled":false,"rental_uris":{"android":"levelo://app?vid=e10ae7eb-03c9-4c22-ae10-740a84e74109","ios":"levelo://app?vid=e10ae7eb-03c9-4c22-ae10-740a84e74109"},"vehicle_type_id":"4","last_reported":1728814134,"current_range_meters":36000,"station_id":"ce4bhi12rcd13ifvqfq0","pricing_plan_id":"cebpf4jnsgd1na2vs0mg"},{"bike_id":"4ced6a6b-d101-47cc-9567-bea0ab2c7a3e","system_id":"levelo_inurba_marseille","lat":43.29848,"lon":5.36288,"is_reserved":false,"is_disabled":false,"rental_uris":{"android":"levelo://app?vid=4ced6a6b-d101-47cc-9567-bea0ab2c7a3e","ios":"levelo://app?vid=4ced6a6b-d101-47cc-9567-bea0ab2c7a3e"},"vehicle_type_id":"4","last_reported":1728814134,"current_range_meters":33600,"station_id":"ce4bgpp2rcd13ifvqc3g","pricing_plan_id":"cebpf4jnsgd1na2vs0mg"},{"bike_id":"12bc8687-0dde-4c73-bb0c-7d2708f5d8dd","system_id":"levelo_inurba_marseille","lat":43.30282,"lon":5.37695,"is_reserved":false,"is_disabled":false,"rental_uris":{"android":"levelo://app?vid=12bc8687-0dde-4c73-bb0c-7d2708f5d8dd","ios":"levelo://app?vid=12bc8687-0dde-4c73-bb0c-7d2708f5d8dd"},"vehicle_type_id":"4","last_reported":1728814134,"current_range_meters":38000,"station_id":"ce4bguh2rcd13ifvqcj0","pricing_plan_id":"cebpf4jnsgd1na2vs0mg"},{"bike_id":"e3cd8953-9e5a-44ad-a5cd-debf49a539ae","system_id":"levelo_inurba_marseille","lat":43.212565,"lon":5.354456,"is_reserved":false,"is_disabled":false,"rental_uris":{"android":"levelo://app?vid=e3cd8953-9e5a-44ad-a5cd-debf49a539ae","ios":"levelo://app?vid=e3cd8953-9e5a-44ad-a5cd-debf49a539ae"},"vehicle_type_id":"4","last_reported":1728814134,"current_range_meters":22000,"station_id":"","pricing_plan_id":"cebpf4jnsgd1na2vs0mg"},{"bike_id":"c4fbd0f0-b12c-4897-aaf0-bd7178c3daed","system_id":"levelo_inurba_marseille","lat":43.29218,"lon":5.3607,"is_reserved":false,"is_disabled":false,"rental_uris":{"android":"levelo://app?vid=c4fbd0f0-b12c-4897-aaf0-bd7178c3daed","ios":"levelo://app?vid=c4fbd0f0-b12c-4897-aaf0-bd7178c3daed"},"vehicle_type_id":"4","last_reported":1728814134,"current_range_meters":27600,"station_id":"ce4bhbh2rcd13ifvqeqg","pricing_plan_id":"cebpf4jnsgd1na2vs0mg"},{"bike_id":"53481144-5f5c-4acf-9f73-e042e6bba806","system_id":"levelo_inurba_marseille","lat":43.27952,"lon":5.41048,"is_reserved":false,"is_disabled":false,"rental_uris":{"android":"levelo://app?vid=53481144-5f5c-4acf-9f73-e042e6bba806","ios":"levelo://app?vid=53481144-5f5c-4acf-9f73-e042e6bba806"},"vehicle_type_id":"4","last_reported":1728814134,"current_range_meters":38000,"station_id":"ce4bhnp2rcd13ifvqh0g","pricing_plan_id":"cebpf4jnsgd1na2vs0mg"},{"bike_id":"744d7d46-a030-452d-827a-600610e2a098","system_id":"levelo_inurba_marseille","lat":43.231927,"lon":5.399877,"is_reserved":false,"is_disabled":false,"rental_uris":{"android":"levelo://app?vid=744d7d46-a030-452d-827a-600610e2a098","ios":"levelo://app?vid=744d7d46-a030-452d-827a-600610e2a098"},"vehicle_type_id":"4","last_reported":1728814134,"current_range_meters":34800,"station_id":"ce4bhn12rcd13ifvqgqg","pricing_plan_id":"cebpf4jnsgd1na2vs0mg"},{"bike_id":"e6a8aec1-d448-48fb-b2d3-480453e7edf3","system_id":"levelo_inurba_marseille","lat":43.31698,"lon":5.3982,"is_reserved":false,"is_disabled":false,"rental_uris":{"android":"levelo://app?vid=e6a8aec1-d448-48fb-b2d3-480453e7edf3","ios":"levelo://app?vid=e6a8aec1-d448-48fb-b2d3-480453e7edf3"},"vehicle_type_id":"4","last_reported":1728814134,"current_range_meters":5600,"station_id":"","pricing_plan_id":"cebpf4jnsgd1na2vs0mg"},{"bike_id":"eb7636e0-5129-425f-b8d2-e0f159f1728e","system_id":"levelo_inurba_marseille","lat":43.29896,"lon":5.43669,"is_reserved":false,"is_disabled":false,"rental_uris":{"android":"levelo://app?vid=eb7636e0-5129-425f-b8d2-e0f159f1728e","ios":"levelo://app?vid=eb7636e0-5129-425f-b8d2-e0f159f1728e"},"vehicle_type_id":"4","last_reported":1728814134,"current_range_meters":37600,"station_id":"ce4bhpp2rcd13ifvqhfg","pricing_plan_id":"cebpf4jnsgd1na2vs0mg"},{"bike_id":"8a5d22a7-52c0-40cd-985b-9431f57a882b","system_id":"levelo_inurba_marseille","lat":43.28611,"lon":5.37065,"is_reserved":false,"is_disabled":false,"rental_uris":{"android":"levelo://app?vid=8a5d22a7-52c0-40cd-985b-9431f57a882b","ios":"levelo://app?vid=8a5d22a7-52c0-40cd-985b-9431f57a882b"},"vehicle_type_id":"4","last_reported":1728814134,"current_range_meters":6400,"station_id":"ce4bht12rcd13ifvqi60","pricing_plan_id":"cebpf4jnsgd1na2vs0mg"},{"bike_id":"d786daa7-6195-4ad4-9d67-6b3a9d97ab5c","system_id":"levelo_inurba_marseille","lat":43.24388,"lon":5.37062,"is_reserved":false,"is_disabled":false,"rental_uris":{"android":"levelo://app?vid=d786daa7-6195-4ad4-9d67-6b3a9d97ab5c","ios":"levelo://app?vid=d786daa7-6195-4ad4-9d67-6b3a9d97ab5c"},"vehicle_type_id":"4","last_reported":1728814134,"current_range_meters":6800,"station_id":"ce4bhhh2rcd13ifvqfk0","pricing_plan_id":"cebpf4jnsgd1na2vs0mg"},{"bike_id":"92c1af36-5649-40f5-84ed-a7b062884571","system_id":"levelo_inurba_marseille","lat":43.23963,"lon":5.36639,"is_reserved":false,"is_disabled":false,"rental_uris":{"android":"levelo://app?vid=92c1af36-5649-40f5-84ed-a7b062884571","ios":"levelo://app?vid=92c1af36-5649-40f5-84ed-a7b062884571"},"vehicle_type_id":"4","last_reported":1728814134,"current_range_meters":29600,"station_id":"ce4bhi12rcd13ifvqfp0","pricing_plan_id":"cebpf4jnsgd1na2vs0mg"},{"bike_id":"3b75fe99-810f-40ef-9f84-d5b1cf667dc9","system_id":"levelo_inurba_marseille","lat":43.23147,"lon":5.43707,"is_reserved":false,"is_disabled":false,"rental_uris":{"android":"levelo://app?vid=3b75fe99-810f-40ef-9f84-d5b1cf667dc9","ios":"levelo://app?vid=3b75fe99-810f-40ef-9f84-d5b1cf667dc9"},"vehicle_type_id":"4","last_reported":1728814134,"current_range_meters":25200,"station_id":"ce4bhmp2rcd13ifvqgog","pricing_plan_id":"cebpf4jnsgd1na2vs0mg"},{"bike_id":"6cb5b02c-2401-484a-8b7d-b4d2106d6b08","system_id":"levelo_inurba_marseille","lat":43.23189,"lon":5.35565,"is_reserved":false,"is_disabled":false,"rental_uris":{"android":"levelo://app?vid=6cb5b02c-2401-484a-8b7d-b4d2106d6b08","ios":"levelo://app?vid=6cb5b02c-2401-484a-8b7d-b4d2106d6b08"},"vehicle_type_id":"4","last_reported":1728814134,"current_range_meters":26000,"station_id":"ce4bhu92rcd13ifvqi70","pricing_plan_id":"cebpf4jnsgd1na2vs0mg"},{"bike_id":"55967bbb-72e4-4bb6-a17f-4fff379f5a5c","system_id":"levelo_inurba_marseille","lat":43.30531,"lon":5.36714,"is_reserved":false,"is_disabled":false,"rental_uris":{"android":"levelo://app?vid=55967bbb-72e4-4bb6-a17f-4fff379f5a5c","ios":"levelo://app?vid=55967bbb-72e4-4bb6-a17f-4fff379f5a5c"},"vehicle_type_id":"4","last_reported":1728814134,"current_range_meters":16000,"station_id":"ce4bgrp2rcd13ifvqc9g","pricing_plan_id":"cebpf4jnsgd1na2vs0mg"},{"bike_id":"f7dd1dc7-fa4b-4758-aac5-4419d54d56ad","system_id":"levelo_inurba_marseille","lat":43.31756,"lon":5.3902,"is_reserved":false,"is_disabled":false,"rental_uris":{"android":"levelo://app?vid=f7dd1dc7-fa4b-4758-aac5-4419d54d56ad","ios":"levelo://app?vid=f7dd1dc7-fa4b-4758-aac5-4419d54d56ad"},"vehicle_type_id":"4","last_reported":1728814134,"current_range_meters":38800,"station_id":"ce4bhqp2rcd13ifvqhng","pricing_plan_id":"cebpf4jnsgd1na2vs0mg"},{"bike_id":"fc04e4f9-24ae-47de-b59c-5b22d7d2e112","system_id":"levelo_inurba_marseille","lat":43.27201,"lon":5.39194,"is_reserved":false,"is_disabled":false,"rental_uris":{"android":"levelo://app?vid=fc04e4f9-24ae-47de-b59c-5b22d7d2e112","ios":"levelo://app?vid=fc04e4f9-24ae-47de-b59c-5b22d7d2e112"},"vehicle_type_id":"4","last_reported":1728814134,"current_range_meters":29600,"station_id":"ce4bhhp2rcd13ifvqfm0","pricing_plan_id":"cebpf4jnsgd1na2vs0mg"},{"bike_id":"921eb451-a108-4fbf-a5fa-bf0205374997","system_id":"levelo_inurba_marseille","lat":43.263814,"lon":5.377806,"is_reserved":false,"is_disabled":false,"rental_uris":{"android":"levelo://app?vid=921eb451-a108-4fbf-a5fa-bf0205374997","ios":"levelo://app?vid=921eb451-a108-4fbf-a5fa-bf0205374997"},"vehicle_type_id":"4","last_reported":1728814134,"current_range_meters":33600,"station_id":"ce4bhh92rcd13ifvqfj0","pricing_plan_id":"cebpf4jnsgd1na2vs0mg"},{"bike_id":"dbf4f8c9-99b8-4387-a4b7-eb47b9df871d","system_id":"levelo_inurba_marseille","lat":43.2958,"lon":5.36742,"is_reserved":false,"is_disabled":false,"rental_uris":{"android":"levelo://app?vid=dbf4f8c9-99b8-4387-a4b7-eb47b9df871d","ios":"levelo://app?vid=dbf4f8c9-99b8-4387-a4b7-eb47b9df871d"},"vehicle_type_id":"4","last_reported":1728814134,"current_range_meters":37600,"station_id":"ce4bgph2rcd13ifvqc2g","pricing_plan_id":"cebpf4jnsgd1na2vs0mg"},{"bike_id":"1fccf500-e293-4f95-b659-64c2caa56204","system_id":"levelo_inurba_marseille","lat":43.26195,"lon":5.37449,"is_reserved":false,"is_disabled":false,"rental_uris":{"android":"levelo://app?vid=1fccf500-e293-4f95-b659-64c2caa56204","ios":"levelo://app?vid=1fccf500-e293-4f95-b659-64c2caa56204"},"vehicle_type_id":"4","last_reported":1728814134,"current_range_meters":33600,"station_id":"ce4bhgp2rcd13ifvqfc0","pricing_plan_id":"cebpf4jnsgd1na2vs0mg"},{"bike_id":"5df723d6-d6ce-4d1c-a2be-666f09f3a71c","system_id":"levelo_inurba_marseille","lat":43.25582,"lon":5.38222,"is_reserved":false,"is_disabled":false,"rental_uris":{"android":"levelo://app?vid=5df723d6-d6ce-4d1c-a2be-666f09f3a71c","ios":"levelo://app?vid=5df723d6-d6ce-4d1c-a2be-666f09f3a71c"},"vehicle_type_id":"4","last_reported":1728814134,"current_range_meters":18000,"station_id":"ce4bhih2rcd13ifvqfs0","pricing_plan_id":"cebpf4jnsgd1na2vs0mg"},{"bike_id":"93c67bb6-f3a7-4124-b0e0-cae02a19fde7","system_id":"levelo_inurba_marseille","lat":43.29559,"lon":5.42288,"is_reserved":false,"is_disabled":false,"rental_uris":{"android":"levelo://app?vid=93c67bb6-f3a7-4124-b0e0-cae02a19fde7","ios":"levelo://app?vid=93c67bb6-f3a7-4124-b0e0-cae02a19fde7"},"vehicle_type_id":"4","last_reported":1728814134,"current_range_meters":28800,"station_id":"ce4bhph2rcd13ifvqhdg","pricing_plan_id":"cebpf4jnsgd1na2vs0mg"},{"bike_id":"1c7f46ab-9878-4239-9653-d4c2bf952d47","system_id":"levelo_inurba_marseille","lat":43.27061,"lon":5.40259,"is_reserved":false,"is_disabled":false,"rental_uris":{"android":"levelo://app?vid=1c7f46ab-9878-4239-9653-d4c2bf952d47","ios":"levelo://app?vid=1c7f46ab-9878-4239-9653-d4c2bf952d47"},"vehicle_type_id":"4","last_reported":1728814134,"current_range_meters":38800,"station_id":"ce4bhk92rcd13ifvqgc0","pricing_plan_id":"cebpf4jnsgd1na2vs0mg"},{"bike_id":"f463bffd-395b-45c4-87b1-620a763388ae","system_id":"levelo_inurba_marseille","lat":43.25862,"lon":5.39904,"is_reserved":false,"is_disabled":false,"rental_uris":{"android":"levelo://app?vid=f463bffd-395b-45c4-87b1-620a763388ae","ios":"levelo://app?vid=f463bffd-395b-45c4-87b1-620a763388ae"},"vehicle_type_id":"4","last_reported":1728814134,"current_range_meters":32400,"station_id":"ce4bhl92rcd13ifvqghg","pricing_plan_id":"cebpf4jnsgd1na2vs0mg"},{"bike_id":"9d671549-67ad-4eb0-ace0-50f59d8a0c79","system_id":"levelo_inurba_marseille","lat":43.31109,"lon":5.38064,"is_reserved":false,"is_disabled":false,"rental_uris":{"android":"levelo://app?vid=9d671549-67ad-4eb0-ace0-50f59d8a0c79","ios":"levelo://app?vid=9d671549-67ad-4eb0-ace0-50f59d8a0c79"},"vehicle_type_id":"4","last_reported":1728814134,"current_range_meters":24800,"station_id":"ce4bgt92rcd13ifvqcf0","pricing_plan_id":"cebpf4jnsgd1na2vs0mg"},{"bike_id":"019140ae-e316-4d6f-a884-a5f5edd517e4","system_id":"levelo_inurba_marseille","lat":43.29223,"lon":5.36046,"is_reserved":false,"is_disabled":false,"rental_uris":{"android":"levelo://app?vid=019140ae-e316-4d6f-a884-a5f5edd517e4","ios":"levelo://app?vid=019140ae-e316-4d6f-a884-a5f5edd517e4"},"vehicle_type_id":"4","last_reported":1728814134,"current_range_meters":30000,"station_id":"ce4bhbh2rcd13ifvqeqg","pricing_plan_id":"cebpf4jnsgd1na2vs0mg"},{"bike_id":"6e44ecfc-563a-4023-8981-74ef344b6549","system_id":"levelo_inurba_marseille","lat":43.301453,"lon":5.380855,"is_reserved":false,"is_disabled":false,"rental_uris":{"android":"levelo://app?vid=6e44ecfc-563a-4023-8981-74ef344b6549","ios":"levelo://app?vid=6e44ecfc-563a-4023-8981-74ef344b6549"},"vehicle_type_id":"4","last_reported":1728814134,"current_range_meters":23200,"station_id":"ce4bgjp2rcd13ifvqbh0","pricing_plan_id":"cebpf4jnsgd1na2vs0mg"},{"bike_id":"25e59862-8a09-482d-b3a5-7138deb4afc5","system_id":"levelo_inurba_marseille","lat":43.2306,"lon":5.35491,"is_reserved":false,"is_disabled":false,"rental_uris":{"android":"levelo://app?vid=25e59862-8a09-482d-b3a5-7138deb4afc5","ios":"levelo://app?vid=25e59862-8a09-482d-b3a5-7138deb4afc5"},"vehicle_type_id":"4","last_reported":1728814134,"current_range_meters":6000,"station_id":"cpo3342slgdg3j2ifvpg","pricing_plan_id":"cebpf4jnsgd1na2vs0mg"},{"bike_id":"1d8e914a-c39b-4757-aeb8-66f1732b6460","system_id":"levelo_inurba_marseille","lat":43.29299,"lon":5.37459,"is_reserved":false,"is_disabled":false,"rental_uris":{"android":"levelo://app?vid=1d8e914a-c39b-4757-aeb8-66f1732b6460","ios":"levelo://app?vid=1d8e914a-c39b-4757-aeb8-66f1732b6460"},"vehicle_type_id":"4","last_reported":1728814134,"current_range_meters":10000,"station_id":"ce4bgi12rcd13ifvqb70","pricing_plan_id":"cebpf4jnsgd1na2vs0mg"},{"bike_id":"6b14bddd-f424-4aaf-9276-7791da9e0639","system_id":"levelo_inurba_marseille","lat":43.30124,"lon":5.39876,"is_reserved":false,"is_disabled":false,"rental_uris":{"android":"levelo://app?vid=6b14bddd-f424-4aaf-9276-7791da9e0639","ios":"levelo://app?vid=6b14bddd-f424-4aaf-9276-7791da9e0639"},"vehicle_type_id":"4","last_reported":1728814134,"current_range_meters":22000,"station_id":"ce4bh0h2rcd13ifvqd40","pricing_plan_id":"cebpf4jnsgd1na2vs0mg"},{"bike_id":"4f5333fa-3838-4e8f-a035-eeb1d47f3ae0","system_id":"levelo_inurba_marseille","lat":43.23058,"lon":5.35491,"is_reserved":false,"is_disabled":false,"rental_uris":{"android":"levelo://app?vid=4f5333fa-3838-4e8f-a035-eeb1d47f3ae0","ios":"levelo://app?vid=4f5333fa-3838-4e8f-a035-eeb1d47f3ae0"},"vehicle_type_id":"4","last_reported":1728814134,"current_range_meters":18000,"station_id":"cpo3342slgdg3j2ifvpg","pricing_plan_id":"cebpf4jnsgd1na2vs0mg"},{"bike_id":"b933402b-d1ca-49a8-bbf7-fb19281d941c","system_id":"levelo_inurba_marseille","lat":43.23195,"lon":5.35559,"is_reserved":false,"is_disabled":false,"rental_uris":{"android":"levelo://app?vid=b933402b-d1ca-49a8-bbf7-fb19281d941c","ios":"levelo://app?vid=b933402b-d1ca-49a8-bbf7-fb19281d941c"},"vehicle_type_id":"4","last_reported":1728814134,"current_range_meters":16000,"station_id":"ce4bhu92rcd13ifvqi70","pricing_plan_id":"cebpf4jnsgd1na2vs0mg"},{"bike_id":"0c1ecff5-69ed-46a2-bcca-316b26b87952","system_id":"levelo_inurba_marseille","lat":43.25572,"lon":5.38242,"is_reserved":false,"is_disabled":false,"rental_uris":{"android":"levelo://app?vid=0c1ecff5-69ed-46a2-bcca-316b26b87952","ios":"levelo://app?vid=0c1ecff5-69ed-46a2-bcca-316b26b87952"},"vehicle_type_id":"4","last_reported":1728814134,"current_range_meters":32400,"station_id":"ce4bhih2rcd13ifvqfs0","pricing_plan_id":"cebpf4jnsgd1na2vs0mg"},{"bike_id":"b93565f8-de9c-4c62-a2b3-9e29acf33317","system_id":"levelo_inurba_marseille","lat":43.262024,"lon":5.379289,"is_reserved":false,"is_disabled":false,"rental_uris":{"android":"levelo://app?vid=b93565f8-de9c-4c62-a2b3-9e29acf33317","ios":"levelo://app?vid=b93565f8-de9c-4c62-a2b3-9e29acf33317"},"vehicle_type_id":"4","last_reported":1728814134,"current_range_meters":34800,"station_id":"ce4bhjp2rcd13ifvqg90","pricing_plan_id":"cebpf4jnsgd1na2vs0mg"},{"bike_id":"d8b1ce1d-838b-48bb-86eb-0245b55493ec","system_id":"levelo_inurba_marseille","lat":43.29849,"lon":5.36289,"is_reserved":false,"is_disabled":false,"rental_uris":{"android":"levelo://app?vid=d8b1ce1d-838b-48bb-86eb-0245b55493ec","ios":"levelo://app?vid=d8b1ce1d-838b-48bb-86eb-0245b55493ec"},"vehicle_type_id":"4","last_reported":1728814134,"current_range_meters":32000,"station_id":"ce4bgpp2rcd13ifvqc3g","pricing_plan_id":"cebpf4jnsgd1na2vs0mg"},{"bike_id":"d751b74f-afbb-4075-ac46-9547555eee0f","system_id":"levelo_inurba_marseille","lat":43.323689,"lon":5.388819,"is_reserved":false,"is_disabled":false,"rental_uris":{"android":"levelo://app?vid=d751b74f-afbb-4075-ac46-9547555eee0f","ios":"levelo://app?vid=d751b74f-afbb-4075-ac46-9547555eee0f"},"vehicle_type_id":"4","last_reported":1728814134,"current_range_meters":16000,"station_id":"ce4bhqp2rcd13ifvqhog","pricing_plan_id":"cebpf4jnsgd1na2vs0mg"},{"bike_id":"4cdb1ae0-80b9-468a-93e8-fa51f8b8195b","system_id":"levelo_inurba_marseille","lat":43.32663,"lon":5.40998,"is_reserved":false,"is_disabled":false,"rental_uris":{"android":"levelo://app?vid=4cdb1ae0-80b9-468a-93e8-fa51f8b8195b","ios":"levelo://app?vid=4cdb1ae0-80b9-468a-93e8-fa51f8b8195b"},"vehicle_type_id":"4","last_reported":1728814134,"current_range_meters":38800,"station_id":"ce4bhpp2rcd13ifvqhgg","pricing_plan_id":"cebpf4jnsgd1na2vs0mg"},{"bike_id":"cd867221-b315-4e4a-8a11-8de9fc1c099a","system_id":"levelo_inurba_marseille","lat":43.25004,"lon":5.38929,"is_reserved":false,"is_disabled":false,"rental_uris":{"android":"levelo://app?vid=cd867221-b315-4e4a-8a11-8de9fc1c099a","ios":"levelo://app?vid=cd867221-b315-4e4a-8a11-8de9fc1c099a"},"vehicle_type_id":"4","last_reported":1728814134,"current_range_meters":36400,"station_id":"ce4bhgp2rcd13ifvqfd0","pricing_plan_id":"cebpf4jnsgd1na2vs0mg"},{"bike_id":"9d0e307c-cca0-4b29-be05-f1dd1610130d","system_id":"levelo_inurba_marseille","lat":43.24395,"lon":5.37057,"is_reserved":false,"is_disabled":false,"rental_uris":{"android":"levelo://app?vid=9d0e307c-cca0-4b29-be05-f1dd1610130d","ios":"levelo://app?vid=9d0e307c-cca0-4b29-be05-f1dd1610130d"},"vehicle_type_id":"4","last_reported":1728814134,"current_range_meters":6800,"station_id":"ce4bhhh2rcd13ifvqfk0","pricing_plan_id":"cebpf4jnsgd1na2vs0mg"},{"bike_id":"a80b3ec3-8ad2-484d-9326-63d5d725e170","system_id":"levelo_inurba_marseille","lat":43.29553,"lon":5.42282,"is_reserved":false,"is_disabled":false,"rental_uris":{"android":"levelo://app?vid=a80b3ec3-8ad2-484d-9326-63d5d725e170","ios":"levelo://app?vid=a80b3ec3-8ad2-484d-9326-63d5d725e170"},"vehicle_type_id":"4","last_reported":1728814134,"current_range_meters":28800,"station_id":"ce4bhph2rcd13ifvqhdg","pricing_plan_id":"cebpf4jnsgd1na2vs0mg"},{"bike_id":"ad384203-41b2-41a3-bdd9-e89e71f4a9b5","system_id":"levelo_inurba_marseille","lat":43.24387,"lon":5.37053,"is_reserved":false,"is_disabled":false,"rental_uris":{"android":"levelo://app?vid=ad384203-41b2-41a3-bdd9-e89e71f4a9b5","ios":"levelo://app?vid=ad384203-41b2-41a3-bdd9-e89e71f4a9b5"},"vehicle_type_id":"4","last_reported":1728814134,"current_range_meters":17600,"station_id":"ce4bhhh2rcd13ifvqfk0","pricing_plan_id":"cebpf4jnsgd1na2vs0mg"},{"bike_id":"b4971d6c-9cfe-4bb0-aeda-5cdeacd0c89e","system_id":"levelo_inurba_marseille","lat":43.24387,"lon":5.37062,"is_reserved":false,"is_disabled":false,"rental_uris":{"android":"levelo://app?vid=b4971d6c-9cfe-4bb0-aeda-5cdeacd0c89e","ios":"levelo://app?vid=b4971d6c-9cfe-4bb0-aeda-5cdeacd0c89e"},"vehicle_type_id":"4","last_reported":1728814134,"current_range_meters":25600,"station_id":"ce4bhhh2rcd13ifvqfk0","pricing_plan_id":"cebpf4jnsgd1na2vs0mg"},{"bike_id":"b95d3e73-4220-492b-80db-42c87cb6cfab","system_id":"levelo_inurba_marseille","lat":43.31274,"lon":5.40168,"is_reserved":false,"is_disabled":false,"rental_uris":{"android":"levelo://app?vid=b95d3e73-4220-492b-80db-42c87cb6cfab","ios":"levelo://app?vid=b95d3e73-4220-492b-80db-42c87cb6cfab"},"vehicle_type_id":"4","last_reported":1728814134,"current_range_meters":30400,"station_id":"ce4bh092rcd13ifvqd30","pricing_plan_id":"cebpf4jnsgd1na2vs0mg"},{"bike_id":"853c239c-b58e-44c6-afba-e564e7cedb86","system_id":"levelo_inurba_marseille","lat":43.33028,"lon":5.39041,"is_reserved":false,"is_disabled":false,"rental_uris":{"android":"levelo://app?vid=853c239c-b58e-44c6-afba-e564e7cedb86","ios":"levelo://app?vid=853c239c-b58e-44c6-afba-e564e7cedb86"},"vehicle_type_id":"4","last_reported":1728814134,"current_range_meters":37600,"station_id":"ce4bhr92rcd13ifvqhrg","pricing_plan_id":"cebpf4jnsgd1na2vs0mg"},{"bike_id":"a3f13861-b630-4cf8-ba16-b0447a675519","system_id":"levelo_inurba_marseille","lat":43.29263,"lon":5.3844,"is_reserved":false,"is_disabled":false,"rental_uris":{"android":"levelo://app?vid=a3f13861-b630-4cf8-ba16-b0447a675519","ios":"levelo://app?vid=a3f13861-b630-4cf8-ba16-b0447a675519"},"vehicle_type_id":"4","last_reported":1728814134,"current_range_meters":31200,"station_id":"ce4bh692rcd13ifvqea0","pricing_plan_id":"cebpf4jnsgd1na2vs0mg"},{"bike_id":"d0669eff-9b7a-4981-96e7-b75f1c9e508c","system_id":"levelo_inurba_marseille","lat":43.29291,"lon":5.37459,"is_reserved":false,"is_disabled":false,"rental_uris":{"android":"levelo://app?vid=d0669eff-9b7a-4981-96e7-b75f1c9e508c","ios":"levelo://app?vid=d0669eff-9b7a-4981-96e7-b75f1c9e508c"},"vehicle_type_id":"4","last_reported":1728814134,"current_range_meters":26800,"station_id":"ce4bgi12rcd13ifvqb70","pricing_plan_id":"cebpf4jnsgd1na2vs0mg"},{"bike_id":"2ac07c82-6d1a-486c-a46b-f0f2e4293c37","system_id":"levelo_inurba_marseille","lat":43.24805,"lon":5.37456,"is_reserved":false,"is_disabled":false,"rental_uris":{"android":"levelo://app?vid=2ac07c82-6d1a-486c-a46b-f0f2e4293c37","ios":"levelo://app?vid=2ac07c82-6d1a-486c-a46b-f0f2e4293c37"},"vehicle_type_id":"4","last_reported":1728814134,"current_range_meters":36800,"station_id":"ce4bhgh2rcd13ifvqfb0","pricing_plan_id":"cebpf4jnsgd1na2vs0mg"},{"bike_id":"b07d947f-da80-474c-85d5-8ab68230fd90","system_id":"levelo_inurba_marseille","lat":43.33729,"lon":5.39199,"is_reserved":false,"is_disabled":false,"rental_uris":{"android":"levelo://app?vid=b07d947f-da80-474c-85d5-8ab68230fd90","ios":"levelo://app?vid=b07d947f-da80-474c-85d5-8ab68230fd90"},"vehicle_type_id":"4","last_reported":1728814134,"current_range_meters":18000,"station_id":"ce4bhr92rcd13ifvqhsg","pricing_plan_id":"cebpf4jnsgd1na2vs0mg"},{"bike_id":"d04f65da-962b-4a4a-8276-6bc7d4c0035c","system_id":"levelo_inurba_marseille","lat":43.24665,"lon":5.38167,"is_reserved":false,"is_disabled":false,"rental_uris":{"android":"levelo://app?vid=d04f65da-962b-4a4a-8276-6bc7d4c0035c","ios":"levelo://app?vid=d04f65da-962b-4a4a-8276-6bc7d4c0035c"},"vehicle_type_id":"4","last_reported":1728814134,"current_range_meters":20000,"station_id":"ce4bhih2rcd13ifvqfr0","pricing_plan_id":"cebpf4jnsgd1na2vs0mg"},{"bike_id":"2175c6ed-f85c-4b66-af4a-a49beabf030b","system_id":"levelo_inurba_marseille","lat":43.301941,"lon":5.389982,"is_reserved":false,"is_disabled":false,"rental_uris":{"android":"levelo://app?vid=2175c6ed-f85c-4b66-af4a-a49beabf030b","ios":"levelo://app?vid=2175c6ed-f85c-4b66-af4a-a49beabf030b"},"vehicle_type_id":"4","last_reported":1728814134,"current_range_meters":22800,"station_id":"ce4bgkh2rcd13ifvqbk0","pricing_plan_id":"cebpf4jnsgd1na2vs0mg"},{"bike_id":"05496e9b-2f31-4ab7-9146-f7aa83ef8354","system_id":"levelo_inurba_marseille","lat":43.29789,"lon":5.39367,"is_reserved":false,"is_disabled":false,"rental_uris":{"android":"levelo://app?vid=05496e9b-2f31-4ab7-9146-f7aa83ef8354","ios":"levelo://app?vid=05496e9b-2f31-4ab7-9146-f7aa83ef8354"},"vehicle_type_id":"4","last_reported":1728814134,"current_range_meters":38400,"station_id":"chh1huq6cuj3fo74tm60","pricing_plan_id":"cebpf4jnsgd1na2vs0mg"},{"bike_id":"5d1bd124-f7b9-4efc-8ac6-4a05d4a99454","system_id":"levelo_inurba_marseille","lat":43.29209,"lon":5.35786,"is_reserved":false,"is_disabled":false,"rental_uris":{"android":"levelo://app?vid=5d1bd124-f7b9-4efc-8ac6-4a05d4a99454","ios":"levelo://app?vid=5d1bd124-f7b9-4efc-8ac6-4a05d4a99454"},"vehicle_type_id":"4","last_reported":1728814134,"current_range_meters":24400,"station_id":"ce4bhb12rcd13ifvqel0","pricing_plan_id":"cebpf4jnsgd1na2vs0mg"},{"bike_id":"73fb4fa9-dc78-4fa7-8b15-772b35193805","system_id":"levelo_inurba_marseille","lat":43.26937,"lon":5.38912,"is_reserved":false,"is_disabled":false,"rental_uris":{"android":"levelo://app?vid=73fb4fa9-dc78-4fa7-8b15-772b35193805","ios":"levelo://app?vid=73fb4fa9-dc78-4fa7-8b15-772b35193805"},"vehicle_type_id":"4","last_reported":1728814134,"current_range_meters":17600,"station_id":"ce4bhhh2rcd13ifvqfl0","pricing_plan_id":"cebpf4jnsgd1na2vs0mg"},{"bike_id":"8e01aa00-7906-486f-ba57-d5ef8ea712a5","system_id":"levelo_inurba_marseille","lat":43.30534,"lon":5.36704,"is_reserved":false,"is_disabled":false,"rental_uris":{"android":"levelo://app?vid=8e01aa00-7906-486f-ba57-d5ef8ea712a5","ios":"levelo://app?vid=8e01aa00-7906-486f-ba57-d5ef8ea712a5"},"vehicle_type_id":"4","last_reported":1728814134,"current_range_meters":38800,"station_id":"ce4bgrp2rcd13ifvqc9g","pricing_plan_id":"cebpf4jnsgd1na2vs0mg"},{"bike_id":"17289d87-c34f-4ba9-ac47-6067514ef77e","system_id":"levelo_inurba_marseille","lat":43.26058,"lon":5.39396,"is_reserved":false,"is_disabled":false,"rental_uris":{"android":"levelo://app?vid=17289d87-c34f-4ba9-ac47-6067514ef77e","ios":"levelo://app?vid=17289d87-c34f-4ba9-ac47-6067514ef77e"},"vehicle_type_id":"4","last_reported":1728814134,"current_range_meters":38800,"station_id":"ce4bhh92rcd13ifvqfj0","pricing_plan_id":"cebpf4jnsgd1na2vs0mg"},{"bike_id":"e1f9486c-3843-42a6-aacd-4c828c67520a","system_id":"levelo_inurba_marseille","lat":43.23052,"lon":5.35494,"is_reserved":false,"is_disabled":false,"rental_uris":{"android":"levelo://app?vid=e1f9486c-3843-42a6-aacd-4c828c67520a","ios":"levelo://app?vid=e1f9486c-3843-42a6-aacd-4c828c67520a"},"vehicle_type_id":"4","last_reported":1728814134,"current_range_meters":30800,"station_id":"cpo3342slgdg3j2ifvpg","pricing_plan_id":"cebpf4jnsgd1na2vs0mg"},{"bike_id":"0ed02b61-0f38-4602-830b-cbdfd1c7723f","system_id":"levelo_inurba_marseille","lat":43.2922,"lon":5.36055,"is_reserved":false,"is_disabled":false,"rental_uris":{"android":"levelo://app?vid=0ed02b61-0f38-4602-830b-cbdfd1c7723f","ios":"levelo://app?vid=0ed02b61-0f38-4602-830b-cbdfd1c7723f"},"vehicle_type_id":"4","last_reported":1728814134,"current_range_meters":32000,"station_id":"ce4bhbh2rcd13ifvqeqg","pricing_plan_id":"cebpf4jnsgd1na2vs0mg"},{"bike_id":"17f0a58b-fa96-470d-a1b0-89c2a0c2bfbe","system_id":"levelo_inurba_marseille","lat":43.23193,"lon":5.35556,"is_reserved":false,"is_disabled":false,"rental_uris":{"android":"levelo://app?vid=17f0a58b-fa96-470d-a1b0-89c2a0c2bfbe","ios":"levelo://app?vid=17f0a58b-fa96-470d-a1b0-89c2a0c2bfbe"},"vehicle_type_id":"4","last_reported":1728814134,"current_range_meters":17200,"station_id":"ce4bhu92rcd13ifvqi70","pricing_plan_id":"cebpf4jnsgd1na2vs0mg"},{"bike_id":"d457114d-0ec6-434e-83be-1c00e31a7346","system_id":"levelo_inurba_marseille","lat":43.28648,"lon":5.36996,"is_reserved":false,"is_disabled":false,"rental_uris":{"android":"levelo://app?vid=d457114d-0ec6-434e-83be-1c00e31a7346","ios":"levelo://app?vid=d457114d-0ec6-434e-83be-1c00e31a7346"},"vehicle_type_id":"4","last_reported":1728814134,"current_range_meters":38800,"station_id":"ce4bh692rcd13ifvqea0","pricing_plan_id":"cebpf4jnsgd1na2vs0mg"},{"bike_id":"9767619a-3281-47be-939c-b6e115d5bcf9","system_id":"levelo_inurba_marseille","lat":43.27993,"lon":5.4001,"is_reserved":false,"is_disabled":false,"rental_uris":{"android":"levelo://app?vid=9767619a-3281-47be-939c-b6e115d5bcf9","ios":"levelo://app?vid=9767619a-3281-47be-939c-b6e115d5bcf9"},"vehicle_type_id":"4","last_reported":1728814134,"current_range_meters":36800,"station_id":"ce4bho92rcd13ifvqh4g","pricing_plan_id":"cebpf4jnsgd1na2vs0mg"},{"bike_id":"0383fd16-e9b8-4410-b536-493a9708d1c6","system_id":"levelo_inurba_marseille","lat":43.33023,"lon":5.39042,"is_reserved":false,"is_disabled":false,"rental_uris":{"android":"levelo://app?vid=0383fd16-e9b8-4410-b536-493a9708d1c6","ios":"levelo://app?vid=0383fd16-e9b8-4410-b536-493a9708d1c6"},"vehicle_type_id":"4","last_reported":1728814134,"current_range_meters":38800,"station_id":"ce4bhr92rcd13ifvqhrg","pricing_plan_id":"cebpf4jnsgd1na2vs0mg"},{"bike_id":"b25409bc-df4d-476a-893e-c6a5838692b2","system_id":"levelo_inurba_marseille","lat":43.23193,"lon":5.35554,"is_reserved":false,"is_disabled":false,"rental_uris":{"android":"levelo://app?vid=b25409bc-df4d-476a-893e-c6a5838692b2","ios":"levelo://app?vid=b25409bc-df4d-476a-893e-c6a5838692b2"},"vehicle_type_id":"4","last_reported":1728814134,"current_range_meters":39200,"station_id":"ce4bhu92rcd13ifvqi70","pricing_plan_id":"cebpf4jnsgd1na2vs0mg"},{"bike_id":"98475a40-001b-4293-a8bb-1f62368d4804","system_id":"levelo_inurba_marseille","lat":43.27814,"lon":5.40712,"is_reserved":false,"is_disabled":false,"rental_uris":{"android":"levelo://app?vid=98475a40-001b-4293-a8bb-1f62368d4804","ios":"levelo://app?vid=98475a40-001b-4293-a8bb-1f62368d4804"},"vehicle_type_id":"4","last_reported":1728814134,"current_range_meters":37600,"station_id":"ce4bhnh2rcd13ifvqgtg","pricing_plan_id":"cebpf4jnsgd1na2vs0mg"},{"bike_id":"8fb2b431-bcb9-46ba-80fb-e26e84592fc5","system_id":"levelo_inurba_marseille","lat":43.23191,"lon":5.35555,"is_reserved":false,"is_disabled":false,"rental_uris":{"android":"levelo://app?vid=8fb2b431-bcb9-46ba-80fb-e26e84592fc5","ios":"levelo://app?vid=8fb2b431-bcb9-46ba-80fb-e26e84592fc5"},"vehicle_type_id":"4","last_reported":1728814134,"current_range_meters":27600,"station_id":"ce4bhu92rcd13ifvqi70","pricing_plan_id":"cebpf4jnsgd1na2vs0mg"},{"bike_id":"d737c553-9bf5-4503-9920-f6b5ee4d74c4","system_id":"levelo_inurba_marseille","lat":43.33024,"lon":5.39036,"is_reserved":false,"is_disabled":false,"rental_uris":{"android":"levelo://app?vid=d737c553-9bf5-4503-9920-f6b5ee4d74c4","ios":"levelo://app?vid=d737c553-9bf5-4503-9920-f6b5ee4d74c4"},"vehicle_type_id":"4","last_reported":1728814134,"current_range_meters":35200,"station_id":"ce4bhr92rcd13ifvqhrg","pricing_plan_id":"cebpf4jnsgd1na2vs0mg"},{"bike_id":"a1dcda45-16ec-447d-8c8f-682c9cf8dee4","system_id":"levelo_inurba_marseille","lat":43.29782,"lon":5.37107,"is_reserved":false,"is_disabled":false,"rental_uris":{"android":"levelo://app?vid=a1dcda45-16ec-447d-8c8f-682c9cf8dee4","ios":"levelo://app?vid=a1dcda45-16ec-447d-8c8f-682c9cf8dee4"},"vehicle_type_id":"4","last_reported":1728814134,"current_range_meters":38000,"station_id":"ce4bgop2rcd13ifvqc1g","pricing_plan_id":"cebpf4jnsgd1na2vs0mg"},{"bike_id":"e2f25126-29b7-4581-a4fe-9e458716fb1d","system_id":"levelo_inurba_marseille","lat":43.23955,"lon":5.36642,"is_reserved":false,"is_disabled":false,"rental_uris":{"android":"levelo://app?vid=e2f25126-29b7-4581-a4fe-9e458716fb1d","ios":"levelo://app?vid=e2f25126-29b7-4581-a4fe-9e458716fb1d"},"vehicle_type_id":"4","last_reported":1728814134,"current_range_meters":24400,"station_id":"ce4bhi12rcd13ifvqfp0","pricing_plan_id":"cebpf4jnsgd1na2vs0mg"},{"bike_id":"f9299ab5-265b-4147-a6f9-c2f4b5d294ef","system_id":"levelo_inurba_marseille","lat":43.2407,"lon":5.37764,"is_reserved":false,"is_disabled":false,"rental_uris":{"android":"levelo://app?vid=f9299ab5-265b-4147-a6f9-c2f4b5d294ef","ios":"levelo://app?vid=f9299ab5-265b-4147-a6f9-c2f4b5d294ef"},"vehicle_type_id":"4","last_reported":1728814134,"current_range_meters":37600,"station_id":"ce4bhnp2rcd13ifvqgvg","pricing_plan_id":"cebpf4jnsgd1na2vs0mg"},{"bike_id":"6746abcb-d28b-4802-b21a-150ec671a4ca","system_id":"levelo_inurba_marseille","lat":43.23193,"lon":5.35551,"is_reserved":false,"is_disabled":false,"rental_uris":{"android":"levelo://app?vid=6746abcb-d28b-4802-b21a-150ec671a4ca","ios":"levelo://app?vid=6746abcb-d28b-4802-b21a-150ec671a4ca"},"vehicle_type_id":"4","last_reported":1728814134,"current_range_meters":23200,"station_id":"ce4bhu92rcd13ifvqi70","pricing_plan_id":"cebpf4jnsgd1na2vs0mg"},{"bike_id":"418cb9e2-d68f-4964-8c94-6d138f14576b","system_id":"levelo_inurba_marseille","lat":43.26201,"lon":5.37918,"is_reserved":false,"is_disabled":false,"rental_uris":{"android":"levelo://app?vid=418cb9e2-d68f-4964-8c94-6d138f14576b","ios":"levelo://app?vid=418cb9e2-d68f-4964-8c94-6d138f14576b"},"vehicle_type_id":"4","last_reported":1728814134,"current_range_meters":39200,"station_id":"ce4bhjp2rcd13ifvqg90","pricing_plan_id":"cebpf4jnsgd1na2vs0mg"},{"bike_id":"094b29e5-79f8-4fb1-afe4-cbfbbb1b9cd4","system_id":"levelo_inurba_marseille","lat":43.23179,"lon":5.39991,"is_reserved":false,"is_disabled":false,"rental_uris":{"android":"levelo://app?vid=094b29e5-79f8-4fb1-afe4-cbfbbb1b9cd4","ios":"levelo://app?vid=094b29e5-79f8-4fb1-afe4-cbfbbb1b9cd4"},"vehicle_type_id":"4","last_reported":1728814134,"current_range_meters":37600,"station_id":"ce4bhn12rcd13ifvqgqg","pricing_plan_id":"cebpf4jnsgd1na2vs0mg"},{"bike_id":"c0419195-57e5-40c7-aa7c-a5c918a82dd1","system_id":"levelo_inurba_marseille","lat":43.25088,"lon":5.39524,"is_reserved":false,"is_disabled":false,"rental_uris":{"android":"levelo://app?vid=c0419195-57e5-40c7-aa7c-a5c918a82dd1","ios":"levelo://app?vid=c0419195-57e5-40c7-aa7c-a5c918a82dd1"},"vehicle_type_id":"4","last_reported":1728814134,"current_range_meters":20000,"station_id":"ce4bhm12rcd13ifvqgkg","pricing_plan_id":"cebpf4jnsgd1na2vs0mg"},{"bike_id":"3fa88251-5b7b-4aa6-b230-6a990243c89a","system_id":"levelo_inurba_marseille","lat":43.29277,"lon":5.4011,"is_reserved":false,"is_disabled":false,"rental_uris":{"android":"levelo://app?vid=3fa88251-5b7b-4aa6-b230-6a990243c89a","ios":"levelo://app?vid=3fa88251-5b7b-4aa6-b230-6a990243c89a"},"vehicle_type_id":"4","last_reported":1728814134,"current_range_meters":27200,"station_id":"ce4bh312rcd13ifvqdk0","pricing_plan_id":"cebpf4jnsgd1na2vs0mg"},{"bike_id":"3db7f7c5-b15c-4ed0-af39-c7fb2d16e6a4","system_id":"levelo_inurba_marseille","lat":43.30549,"lon":5.36556,"is_reserved":false,"is_disabled":false,"rental_uris":{"android":"levelo://app?vid=3db7f7c5-b15c-4ed0-af39-c7fb2d16e6a4","ios":"levelo://app?vid=3db7f7c5-b15c-4ed0-af39-c7fb2d16e6a4"},"vehicle_type_id":"4","last_reported":1728814134,"current_range_meters":34000,"station_id":"ce4bgs12rcd13ifvqcag","pricing_plan_id":"cebpf4jnsgd1na2vs0mg"},{"bike_id":"2a8e7543-1e5f-4691-8b7c-e1e91cf3d75c","system_id":"levelo_inurba_marseille","lat":43.2511,"lon":5.40324,"is_reserved":false,"is_disabled":false,"rental_uris":{"android":"levelo://app?vid=2a8e7543-1e5f-4691-8b7c-e1e91cf3d75c","ios":"levelo://app?vid=2a8e7543-1e5f-4691-8b7c-e1e91cf3d75c"},"vehicle_type_id":"4","last_reported":1728814134,"current_range_meters":38800,"station_id":"ce4bhlh2rcd13ifvqgig","pricing_plan_id":"cebpf4jnsgd1na2vs0mg"},{"bike_id":"81cd8990-7350-4041-b029-a704423aeae9","system_id":"levelo_inurba_marseille","lat":43.24666,"lon":5.38169,"is_reserved":false,"is_disabled":false,"rental_uris":{"android":"levelo://app?vid=81cd8990-7350-4041-b029-a704423aeae9","ios":"levelo://app?vid=81cd8990-7350-4041-b029-a704423aeae9"},"vehicle_type_id":"4","last_reported":1728814134,"current_range_meters":21600,"station_id":"ce4bhih2rcd13ifvqfr0","pricing_plan_id":"cebpf4jnsgd1na2vs0mg"},{"bike_id":"8df76210-c1cb-4a21-b1a3-10b5629722e8","system_id":"levelo_inurba_marseille","lat":43.23181,"lon":5.40001,"is_reserved":false,"is_disabled":false,"rental_uris":{"android":"levelo://app?vid=8df76210-c1cb-4a21-b1a3-10b5629722e8","ios":"levelo://app?vid=8df76210-c1cb-4a21-b1a3-10b5629722e8"},"vehicle_type_id":"4","last_reported":1728814134,"current_range_meters":3600,"station_id":"ce4bhn12rcd13ifvqgqg","pricing_plan_id":"cebpf4jnsgd1na2vs0mg"},{"bike_id":"e184a16c-e55c-462b-82b1-156bc42af4b4","system_id":"levelo_inurba_marseille","lat":43.28151,"lon":5.42644,"is_reserved":false,"is_disabled":false,"rental_uris":{"android":"levelo://app?vid=e184a16c-e55c-462b-82b1-156bc42af4b4","ios":"levelo://app?vid=e184a16c-e55c-462b-82b1-156bc42af4b4"},"vehicle_type_id":"4","last_reported":1728814134,"current_range_meters":38400,"station_id":"ce4bhnh2rcd13ifvqgug","pricing_plan_id":"cebpf4jnsgd1na2vs0mg"},{"bike_id":"a9d8d00f-2b10-40cd-af9b-04b4ae45f2bc","system_id":"levelo_inurba_marseille","lat":43.24386,"lon":5.37054,"is_reserved":false,"is_disabled":false,"rental_uris":{"android":"levelo://app?vid=a9d8d00f-2b10-40cd-af9b-04b4ae45f2bc","ios":"levelo://app?vid=a9d8d00f-2b10-40cd-af9b-04b4ae45f2bc"},"vehicle_type_id":"4","last_reported":1728814134,"current_range_meters":23200,"station_id":"ce4bhhh2rcd13ifvqfk0","pricing_plan_id":"cebpf4jnsgd1na2vs0mg"},{"bike_id":"2fd1336f-d07d-47fb-92a0-9d4c4517c69a","system_id":"levelo_inurba_marseille","lat":43.26196,"lon":5.37929,"is_reserved":false,"is_disabled":false,"rental_uris":{"android":"levelo://app?vid=2fd1336f-d07d-47fb-92a0-9d4c4517c69a","ios":"levelo://app?vid=2fd1336f-d07d-47fb-92a0-9d4c4517c69a"},"vehicle_type_id":"4","last_reported":1728814134,"current_range_meters":9600,"station_id":"ce4bhjp2rcd13ifvqg90","pricing_plan_id":"cebpf4jnsgd1na2vs0mg"},{"bike_id":"ac0c50f0-2a0d-4500-a022-b95b0b3c9bb5","system_id":"levelo_inurba_marseille","lat":43.28703,"lon":5.37399,"is_reserved":false,"is_disabled":false,"rental_uris":{"android":"levelo://app?vid=ac0c50f0-2a0d-4500-a022-b95b0b3c9bb5","ios":"levelo://app?vid=ac0c50f0-2a0d-4500-a022-b95b0b3c9bb5"},"vehicle_type_id":"4","last_reported":1728814134,"current_range_meters":37600,"station_id":"ce4bh3p2rcd13ifvqdq0","pricing_plan_id":"cebpf4jnsgd1na2vs0mg"},{"bike_id":"3e2b4898-bb26-41ed-a70c-2a474867ed24","system_id":"levelo_inurba_marseille","lat":43.24808,"lon":5.3746,"is_reserved":false,"is_disabled":false,"rental_uris":{"android":"levelo://app?vid=3e2b4898-bb26-41ed-a70c-2a474867ed24","ios":"levelo://app?vid=3e2b4898-bb26-41ed-a70c-2a474867ed24"},"vehicle_type_id":"4","last_reported":1728814134,"current_range_meters":24400,"station_id":"ce4bhgh2rcd13ifvqfb0","pricing_plan_id":"cebpf4jnsgd1na2vs0mg"},{"bike_id":"49799a82-784b-40c7-9ab3-3d2a23696762","system_id":"levelo_inurba_marseille","lat":43.29224,"lon":5.36075,"is_reserved":false,"is_disabled":false,"rental_uris":{"android":"levelo://app?vid=49799a82-784b-40c7-9ab3-3d2a23696762","ios":"levelo://app?vid=49799a82-784b-40c7-9ab3-3d2a23696762"},"vehicle_type_id":"4","last_reported":1728814134,"current_range_meters":6400,"station_id":"ce4bhbh2rcd13ifvqeqg","pricing_plan_id":"cebpf4jnsgd1na2vs0mg"},{"bike_id":"e53d9dac-6d16-4334-ad56-d0d38fcf4eb7","system_id":"levelo_inurba_marseille","lat":43.27963,"lon":5.41809,"is_reserved":false,"is_disabled":false,"rental_uris":{"android":"levelo://app?vid=e53d9dac-6d16-4334-ad56-d0d38fcf4eb7","ios":"levelo://app?vid=e53d9dac-6d16-4334-ad56-d0d38fcf4eb7"},"vehicle_type_id":"4","last_reported":1728814134,"current_range_meters":24800,"station_id":"","pricing_plan_id":"cebpf4jnsgd1na2vs0mg"},{"bike_id":"ef3c2056-4554-4d9f-8f98-21df988d44dd","system_id":"levelo_inurba_marseille","lat":43.284668,"lon":5.358782,"is_reserved":false,"is_disabled":false,"rental_uris":{"android":"levelo://app?vid=ef3c2056-4554-4d9f-8f98-21df988d44dd","ios":"levelo://app?vid=ef3c2056-4554-4d9f-8f98-21df988d44dd"},"vehicle_type_id":"4","last_reported":1728814134,"current_range_meters":14000,"station_id":"ce4bhah2rcd13ifvqei0","pricing_plan_id":"cebpf4jnsgd1na2vs0mg"},{"bike_id":"08c6f7c2-20c6-4709-911b-9bec2e68962d","system_id":"levelo_inurba_marseille","lat":43.30185,"lon":5.3663,"is_reserved":false,"is_disabled":false,"rental_uris":{"android":"levelo://app?vid=08c6f7c2-20c6-4709-911b-9bec2e68962d","ios":"levelo://app?vid=08c6f7c2-20c6-4709-911b-9bec2e68962d"},"vehicle_type_id":"4","last_reported":1728814134,"current_range_meters":24400,"station_id":"ce4bgrh2rcd13ifvqc8g","pricing_plan_id":"cebpf4jnsgd1na2vs0mg"},{"bike_id":"cdde71fa-933f-47ef-8a23-39142a076aea","system_id":"levelo_inurba_marseille","lat":43.295542,"lon":5.422937,"is_reserved":false,"is_disabled":false,"rental_uris":{"android":"levelo://app?vid=cdde71fa-933f-47ef-8a23-39142a076aea","ios":"levelo://app?vid=cdde71fa-933f-47ef-8a23-39142a076aea"},"vehicle_type_id":"4","last_reported":1728814134,"current_range_meters":38800,"station_id":"ce4bhph2rcd13ifvqhdg","pricing_plan_id":"cebpf4jnsgd1na2vs0mg"},{"bike_id":"2c4c4fdd-4be3-40ba-ae9f-53b1d6165fc5","system_id":"levelo_inurba_marseille","lat":43.28846,"lon":5.35841,"is_reserved":false,"is_disabled":false,"rental_uris":{"android":"levelo://app?vid=2c4c4fdd-4be3-40ba-ae9f-53b1d6165fc5","ios":"levelo://app?vid=2c4c4fdd-4be3-40ba-ae9f-53b1d6165fc5"},"vehicle_type_id":"4","last_reported":1728814134,"current_range_meters":8000,"station_id":"ce4bhb12rcd13ifvqem0","pricing_plan_id":"cebpf4jnsgd1na2vs0mg"},{"bike_id":"6cbcd04d-48fc-4b1c-9aa0-2a71f3ba4bb0","system_id":"levelo_inurba_marseille","lat":43.30958,"lon":5.39037,"is_reserved":false,"is_disabled":false,"rental_uris":{"android":"levelo://app?vid=6cbcd04d-48fc-4b1c-9aa0-2a71f3ba4bb0","ios":"levelo://app?vid=6cbcd04d-48fc-4b1c-9aa0-2a71f3ba4bb0"},"vehicle_type_id":"4","last_reported":1728814134,"current_range_meters":38800,"station_id":"ce4bgup2rcd13ifvqco0","pricing_plan_id":"cebpf4jnsgd1na2vs0mg"},{"bike_id":"f5f4bcc9-b87f-44ae-b45e-8fc105691959","system_id":"levelo_inurba_marseille","lat":43.325672,"lon":5.399877,"is_reserved":false,"is_disabled":false,"rental_uris":{"android":"levelo://app?vid=f5f4bcc9-b87f-44ae-b45e-8fc105691959","ios":"levelo://app?vid=f5f4bcc9-b87f-44ae-b45e-8fc105691959"},"vehicle_type_id":"4","last_reported":1728814134,"current_range_meters":16400,"station_id":"","pricing_plan_id":"cebpf4jnsgd1na2vs0mg"},{"bike_id":"a465586a-d30b-47b3-85f2-237e53626834","system_id":"levelo_inurba_marseille","lat":43.23177,"lon":5.39992,"is_reserved":false,"is_disabled":false,"rental_uris":{"android":"levelo://app?vid=a465586a-d30b-47b3-85f2-237e53626834","ios":"levelo://app?vid=a465586a-d30b-47b3-85f2-237e53626834"},"vehicle_type_id":"4","last_reported":1728814134,"current_range_meters":22400,"station_id":"ce4bhn12rcd13ifvqgqg","pricing_plan_id":"cebpf4jnsgd1na2vs0mg"},{"bike_id":"49316722-f5ca-469e-b328-cdeaebfb0c7f","system_id":"levelo_inurba_marseille","lat":43.239571,"lon":5.366354,"is_reserved":false,"is_disabled":false,"rental_uris":{"android":"levelo://app?vid=49316722-f5ca-469e-b328-cdeaebfb0c7f","ios":"levelo://app?vid=49316722-f5ca-469e-b328-cdeaebfb0c7f"},"vehicle_type_id":"4","last_reported":1728814134,"current_range_meters":6400,"station_id":"ce4bhi12rcd13ifvqfp0","pricing_plan_id":"cebpf4jnsgd1na2vs0mg"},{"bike_id":"05fc7462-45f1-45e4-b094-d7f235cbf287","system_id":"levelo_inurba_marseille","lat":43.30213,"lon":5.39466,"is_reserved":false,"is_disabled":false,"rental_uris":{"android":"levelo://app?vid=05fc7462-45f1-45e4-b094-d7f235cbf287","ios":"levelo://app?vid=05fc7462-45f1-45e4-b094-d7f235cbf287"},"vehicle_type_id":"4","last_reported":1728814134,"current_range_meters":38800,"station_id":"ce4bh0p2rcd13ifvqd70","pricing_plan_id":"cebpf4jnsgd1na2vs0mg"},{"bike_id":"2161a8ba-aa43-475e-8cf3-eb30ad070ad3","system_id":"levelo_inurba_marseille","lat":43.25496,"lon":5.37649,"is_reserved":false,"is_disabled":false,"rental_uris":{"android":"levelo://app?vid=2161a8ba-aa43-475e-8cf3-eb30ad070ad3","ios":"levelo://app?vid=2161a8ba-aa43-475e-8cf3-eb30ad070ad3"},"vehicle_type_id":"4","last_reported":1728814134,"current_range_meters":36400,"station_id":"ce4bhh12rcd13ifvqff0","pricing_plan_id":"cebpf4jnsgd1na2vs0mg"},{"bike_id":"a8845487-5cae-4cbf-980b-f567ff1cb577","system_id":"levelo_inurba_marseille","lat":43.301514,"lon":5.380695,"is_reserved":false,"is_disabled":false,"rental_uris":{"android":"levelo://app?vid=a8845487-5cae-4cbf-980b-f567ff1cb577","ios":"levelo://app?vid=a8845487-5cae-4cbf-980b-f567ff1cb577"},"vehicle_type_id":"4","last_reported":1728814134,"current_range_meters":16400,"station_id":"ce4bgjp2rcd13ifvqbh0","pricing_plan_id":"cebpf4jnsgd1na2vs0mg"},{"bike_id":"87820c25-47c6-46bc-9188-86fd88b5d808","system_id":"levelo_inurba_marseille","lat":43.2942,"lon":5.38618,"is_reserved":false,"is_disabled":false,"rental_uris":{"android":"levelo://app?vid=87820c25-47c6-46bc-9188-86fd88b5d808","ios":"levelo://app?vid=87820c25-47c6-46bc-9188-86fd88b5d808"},"vehicle_type_id":"4","last_reported":1728814134,"current_range_meters":24800,"station_id":"ce4bh2h2rcd13ifvqdh0","pricing_plan_id":"cebpf4jnsgd1na2vs0mg"},{"bike_id":"aad69708-28ac-43e6-945e-619f5a7c6bfd","system_id":"levelo_inurba_marseille","lat":43.33781,"lon":5.37443,"is_reserved":false,"is_disabled":false,"rental_uris":{"android":"levelo://app?vid=aad69708-28ac-43e6-945e-619f5a7c6bfd","ios":"levelo://app?vid=aad69708-28ac-43e6-945e-619f5a7c6bfd"},"vehicle_type_id":"4","last_reported":1728814134,"current_range_meters":34000,"station_id":"","pricing_plan_id":"cebpf4jnsgd1na2vs0mg"},{"bike_id":"83f9e641-5c97-4c02-b801-e565896261f4","system_id":"levelo_inurba_marseille","lat":43.26778,"lon":5.3942,"is_reserved":false,"is_disabled":false,"rental_uris":{"android":"levelo://app?vid=83f9e641-5c97-4c02-b801-e565896261f4","ios":"levelo://app?vid=83f9e641-5c97-4c02-b801-e565896261f4"},"vehicle_type_id":"4","last_reported":1728814134,"current_range_meters":38800,"station_id":"ce4bhh12rcd13ifvqfg0","pricing_plan_id":"cebpf4jnsgd1na2vs0mg"},{"bike_id":"71cf7286-1207-48ea-9905-84e8b1d59926","system_id":"levelo_inurba_marseille","lat":43.23155,"lon":5.43702,"is_reserved":false,"is_disabled":false,"rental_uris":{"android":"levelo://app?vid=71cf7286-1207-48ea-9905-84e8b1d59926","ios":"levelo://app?vid=71cf7286-1207-48ea-9905-84e8b1d59926"},"vehicle_type_id":"4","last_reported":1728814134,"current_range_meters":32400,"station_id":"ce4bhmp2rcd13ifvqgog","pricing_plan_id":"cebpf4jnsgd1na2vs0mg"},{"bike_id":"ea39c797-b988-42ce-87fc-d3810657b21c","system_id":"levelo_inurba_marseille","lat":43.316744,"lon":5.404817,"is_reserved":false,"is_disabled":false,"rental_uris":{"android":"levelo://app?vid=ea39c797-b988-42ce-87fc-d3810657b21c","ios":"levelo://app?vid=ea39c797-b988-42ce-87fc-d3810657b21c"},"vehicle_type_id":"4","last_reported":1728814134,"current_range_meters":27200,"station_id":"ce4bh012rcd13ifvqd00","pricing_plan_id":"cebpf4jnsgd1na2vs0mg"},{"bike_id":"0dae5d7d-14c2-4e05-8cae-0f045d118b6d","system_id":"levelo_inurba_marseille","lat":43.26494,"lon":5.39548,"is_reserved":false,"is_disabled":false,"rental_uris":{"android":"levelo://app?vid=0dae5d7d-14c2-4e05-8cae-0f045d118b6d","ios":"levelo://app?vid=0dae5d7d-14c2-4e05-8cae-0f045d118b6d"},"vehicle_type_id":"4","last_reported":1728814134,"current_range_meters":37600,"station_id":"ce4bhi12rcd13ifvqfq0","pricing_plan_id":"cebpf4jnsgd1na2vs0mg"},{"bike_id":"e988947c-25d5-4dd6-adb7-ec2701b5dae5","system_id":"levelo_inurba_marseille","lat":43.3169,"lon":5.40477,"is_reserved":false,"is_disabled":false,"rental_uris":{"android":"levelo://app?vid=e988947c-25d5-4dd6-adb7-ec2701b5dae5","ios":"levelo://app?vid=e988947c-25d5-4dd6-adb7-ec2701b5dae5"},"vehicle_type_id":"4","last_reported":1728814134,"current_range_meters":32400,"station_id":"ce4bh012rcd13ifvqd00","pricing_plan_id":"cebpf4jnsgd1na2vs0mg"},{"bike_id":"08dcee72-42fb-4bea-b663-b225d8d1b4c5","system_id":"levelo_inurba_marseille","lat":43.2782,"lon":5.39204,"is_reserved":false,"is_disabled":false,"rental_uris":{"android":"levelo://app?vid=08dcee72-42fb-4bea-b663-b225d8d1b4c5","ios":"levelo://app?vid=08dcee72-42fb-4bea-b663-b225d8d1b4c5"},"vehicle_type_id":"4","last_reported":1728814134,"current_range_meters":38800,"station_id":"ce4bhjp2rcd13ifvqga0","pricing_plan_id":"cebpf4jnsgd1na2vs0mg"},{"bike_id":"9b63e08c-92a9-474f-94c2-a5402b510f01","system_id":"levelo_inurba_marseille","lat":43.2319,"lon":5.35556,"is_reserved":false,"is_disabled":false,"rental_uris":{"android":"levelo://app?vid=9b63e08c-92a9-474f-94c2-a5402b510f01","ios":"levelo://app?vid=9b63e08c-92a9-474f-94c2-a5402b510f01"},"vehicle_type_id":"4","last_reported":1728814134,"current_range_meters":3600,"station_id":"ce4bhu92rcd13ifvqi70","pricing_plan_id":"cebpf4jnsgd1na2vs0mg"},{"bike_id":"8509fa5d-c6d9-4cb2-b4b1-4f2065b2666e","system_id":"levelo_inurba_marseille","lat":43.28344,"lon":5.41016,"is_reserved":false,"is_disabled":false,"rental_uris":{"android":"levelo://app?vid=8509fa5d-c6d9-4cb2-b4b1-4f2065b2666e","ios":"levelo://app?vid=8509fa5d-c6d9-4cb2-b4b1-4f2065b2666e"},"vehicle_type_id":"4","last_reported":1728814134,"current_range_meters":3600,"station_id":"","pricing_plan_id":"cebpf4jnsgd1na2vs0mg"},{"bike_id":"16a14b49-4758-47c2-8aba-768c60fbef18","system_id":"levelo_inurba_marseille","lat":43.24178,"lon":5.39713,"is_reserved":false,"is_disabled":false,"rental_uris":{"android":"levelo://app?vid=16a14b49-4758-47c2-8aba-768c60fbef18","ios":"levelo://app?vid=16a14b49-4758-47c2-8aba-768c60fbef18"},"vehicle_type_id":"4","last_reported":1728814134,"current_range_meters":28800,"station_id":"ce4bhn12rcd13ifvqgpg","pricing_plan_id":"cebpf4jnsgd1na2vs0mg"},{"bike_id":"a259a349-5d70-48d0-a371-4ef9bd000460","system_id":"levelo_inurba_marseille","lat":43.29619,"lon":5.37705,"is_reserved":false,"is_disabled":false,"rental_uris":{"android":"levelo://app?vid=a259a349-5d70-48d0-a371-4ef9bd000460","ios":"levelo://app?vid=a259a349-5d70-48d0-a371-4ef9bd000460"},"vehicle_type_id":"4","last_reported":1728814134,"current_range_meters":38800,"station_id":"ce4bgi92rcd13ifvqb90","pricing_plan_id":"cebpf4jnsgd1na2vs0mg"},{"bike_id":"f9deceb6-28a5-4114-9300-91a207614eec","system_id":"levelo_inurba_marseille","lat":43.24664,"lon":5.38164,"is_reserved":false,"is_disabled":false,"rental_uris":{"android":"levelo://app?vid=f9deceb6-28a5-4114-9300-91a207614eec","ios":"levelo://app?vid=f9deceb6-28a5-4114-9300-91a207614eec"},"vehicle_type_id":"4","last_reported":1728814134,"current_range_meters":19200,"station_id":"ce4bhih2rcd13ifvqfr0","pricing_plan_id":"cebpf4jnsgd1na2vs0mg"},{"bike_id":"82c6105d-3700-4614-bdf3-fbc77fc4c5fc","system_id":"levelo_inurba_marseille","lat":43.24807,"lon":5.37456,"is_reserved":false,"is_disabled":false,"rental_uris":{"android":"levelo://app?vid=82c6105d-3700-4614-bdf3-fbc77fc4c5fc","ios":"levelo://app?vid=82c6105d-3700-4614-bdf3-fbc77fc4c5fc"},"vehicle_type_id":"4","last_reported":1728814134,"current_range_meters":35200,"station_id":"ce4bhgh2rcd13ifvqfb0","pricing_plan_id":"cebpf4jnsgd1na2vs0mg"},{"bike_id":"90f27a1c-b51c-463c-b8ce-eb65fee8f9f2","system_id":"levelo_inurba_marseille","lat":43.32008,"lon":5.41445,"is_reserved":false,"is_disabled":false,"rental_uris":{"android":"levelo://app?vid=90f27a1c-b51c-463c-b8ce-eb65fee8f9f2","ios":"levelo://app?vid=90f27a1c-b51c-463c-b8ce-eb65fee8f9f2"},"vehicle_type_id":"4","last_reported":1728814134,"current_range_meters":8400,"station_id":"ce4bhq92rcd13ifvqhkg","pricing_plan_id":"cebpf4jnsgd1na2vs0mg"},{"bike_id":"152e98bb-1551-4eeb-9e40-8143aa1bccc5","system_id":"levelo_inurba_marseille","lat":43.27058,"lon":5.402633,"is_reserved":false,"is_disabled":false,"rental_uris":{"android":"levelo://app?vid=152e98bb-1551-4eeb-9e40-8143aa1bccc5","ios":"levelo://app?vid=152e98bb-1551-4eeb-9e40-8143aa1bccc5"},"vehicle_type_id":"4","last_reported":1728814134,"current_range_meters":27600,"station_id":"ce4bhk92rcd13ifvqgc0","pricing_plan_id":"cebpf4jnsgd1na2vs0mg"},{"bike_id":"27311a75-ebb6-43d6-9fb5-f3ba72a10e0e","system_id":"levelo_inurba_marseille","lat":43.29905,"lon":5.43677,"is_reserved":false,"is_disabled":false,"rental_uris":{"android":"levelo://app?vid=27311a75-ebb6-43d6-9fb5-f3ba72a10e0e","ios":"levelo://app?vid=27311a75-ebb6-43d6-9fb5-f3ba72a10e0e"},"vehicle_type_id":"4","last_reported":1728814134,"current_range_meters":17600,"station_id":"ce4bhpp2rcd13ifvqhfg","pricing_plan_id":"cebpf4jnsgd1na2vs0mg"},{"bike_id":"a0e83e15-eb74-4615-b9e7-343a62851465","system_id":"levelo_inurba_marseille","lat":43.251169,"lon":5.403174,"is_reserved":false,"is_disabled":false,"rental_uris":{"android":"levelo://app?vid=a0e83e15-eb74-4615-b9e7-343a62851465","ios":"levelo://app?vid=a0e83e15-eb74-4615-b9e7-343a62851465"},"vehicle_type_id":"4","last_reported":1728814134,"current_range_meters":38800,"station_id":"ce4bhlh2rcd13ifvqgig","pricing_plan_id":"cebpf4jnsgd1na2vs0mg"},{"bike_id":"992944b9-d550-41f2-8b48-4c62892e4026","system_id":"levelo_inurba_marseille","lat":43.29223,"lon":5.36076,"is_reserved":false,"is_disabled":false,"rental_uris":{"android":"levelo://app?vid=992944b9-d550-41f2-8b48-4c62892e4026","ios":"levelo://app?vid=992944b9-d550-41f2-8b48-4c62892e4026"},"vehicle_type_id":"4","last_reported":1728814134,"current_range_meters":6800,"station_id":"ce4bhbh2rcd13ifvqeqg","pricing_plan_id":"cebpf4jnsgd1na2vs0mg"},{"bike_id":"0c5531ae-532c-4270-8639-657efe30e267","system_id":"levelo_inurba_marseille","lat":43.291754,"lon":5.3716,"is_reserved":false,"is_disabled":false,"rental_uris":{"android":"levelo://app?vid=0c5531ae-532c-4270-8639-657efe30e267","ios":"levelo://app?vid=0c5531ae-532c-4270-8639-657efe30e267"},"vehicle_type_id":"4","last_reported":1728814134,"current_range_meters":33200,"station_id":"ce4bha92rcd13ifvqeh0","pricing_plan_id":"cebpf4jnsgd1na2vs0mg"},{"bike_id":"8dcda4f3-a012-4536-a7ae-633c0eae9030","system_id":"levelo_inurba_marseille","lat":43.29007,"lon":5.35616,"is_reserved":false,"is_disabled":false,"rental_uris":{"android":"levelo://app?vid=8dcda4f3-a012-4536-a7ae-633c0eae9030","ios":"levelo://app?vid=8dcda4f3-a012-4536-a7ae-633c0eae9030"},"vehicle_type_id":"4","last_reported":1728814134,"current_range_meters":28800,"station_id":"ce4bhb92rcd13ifvqen0","pricing_plan_id":"cebpf4jnsgd1na2vs0mg"},{"bike_id":"88b79e56-a2d3-465f-99b6-a44de22d1842","system_id":"levelo_inurba_marseille","lat":43.30543,"lon":5.36564,"is_reserved":false,"is_disabled":false,"rental_uris":{"android":"levelo://app?vid=88b79e56-a2d3-465f-99b6-a44de22d1842","ios":"levelo://app?vid=88b79e56-a2d3-465f-99b6-a44de22d1842"},"vehicle_type_id":"4","last_reported":1728814134,"current_range_meters":13600,"station_id":"ce4bgs12rcd13ifvqcag","pricing_plan_id":"cebpf4jnsgd1na2vs0mg"},{"bike_id":"c125659c-958d-46e0-903b-368579960dd5","system_id":"levelo_inurba_marseille","lat":43.24383,"lon":5.37061,"is_reserved":false,"is_disabled":false,"rental_uris":{"android":"levelo://app?vid=c125659c-958d-46e0-903b-368579960dd5","ios":"levelo://app?vid=c125659c-958d-46e0-903b-368579960dd5"},"vehicle_type_id":"4","last_reported":1728814134,"current_range_meters":28000,"station_id":"ce4bhhh2rcd13ifvqfk0","pricing_plan_id":"cebpf4jnsgd1na2vs0mg"},{"bike_id":"9e0a9b4e-2024-4d9c-b516-9bc070242925","system_id":"levelo_inurba_marseille","lat":43.32366,"lon":5.38881,"is_reserved":false,"is_disabled":false,"rental_uris":{"android":"levelo://app?vid=9e0a9b4e-2024-4d9c-b516-9bc070242925","ios":"levelo://app?vid=9e0a9b4e-2024-4d9c-b516-9bc070242925"},"vehicle_type_id":"4","last_reported":1728814134,"current_range_meters":35200,"station_id":"ce4bhqp2rcd13ifvqhog","pricing_plan_id":"cebpf4jnsgd1na2vs0mg"},{"bike_id":"51397a06-4aa6-4537-8b53-47367b527c2d","system_id":"levelo_inurba_marseille","lat":43.27823,"lon":5.40723,"is_reserved":false,"is_disabled":false,"rental_uris":{"android":"levelo://app?vid=51397a06-4aa6-4537-8b53-47367b527c2d","ios":"levelo://app?vid=51397a06-4aa6-4537-8b53-47367b527c2d"},"vehicle_type_id":"4","last_reported":1728814134,"current_range_meters":38000,"station_id":"ce4bhnh2rcd13ifvqgtg","pricing_plan_id":"cebpf4jnsgd1na2vs0mg"},{"bike_id":"3caf68e8-3d29-4273-afe3-ba07e63f6407","system_id":"levelo_inurba_marseille","lat":43.23053,"lon":5.35492,"is_reserved":false,"is_disabled":false,"rental_uris":{"android":"levelo://app?vid=3caf68e8-3d29-4273-afe3-ba07e63f6407","ios":"levelo://app?vid=3caf68e8-3d29-4273-afe3-ba07e63f6407"},"vehicle_type_id":"4","last_reported":1728814134,"current_range_meters":7200,"station_id":"cpo3342slgdg3j2ifvpg","pricing_plan_id":"cebpf4jnsgd1na2vs0mg"},{"bike_id":"5a87e280-d6b8-4d4d-92d3-a2c3a72ef59b","system_id":"levelo_inurba_marseille","lat":43.341483,"lon":5.409031,"is_reserved":false,"is_disabled":false,"rental_uris":{"android":"levelo://app?vid=5a87e280-d6b8-4d4d-92d3-a2c3a72ef59b","ios":"levelo://app?vid=5a87e280-d6b8-4d4d-92d3-a2c3a72ef59b"},"vehicle_type_id":"4","last_reported":1728814134,"current_range_meters":30000,"station_id":"ce4bhqh2rcd13ifvqhlg","pricing_plan_id":"cebpf4jnsgd1na2vs0mg"},{"bike_id":"9cacb173-9fa0-435e-897a-b9760cbecab3","system_id":"levelo_inurba_marseille","lat":43.29008,"lon":5.35607,"is_reserved":false,"is_disabled":false,"rental_uris":{"android":"levelo://app?vid=9cacb173-9fa0-435e-897a-b9760cbecab3","ios":"levelo://app?vid=9cacb173-9fa0-435e-897a-b9760cbecab3"},"vehicle_type_id":"4","last_reported":1728814134,"current_range_meters":23200,"station_id":"ce4bhb92rcd13ifvqen0","pricing_plan_id":"cebpf4jnsgd1na2vs0mg"},{"bike_id":"c5a187db-e278-4e0a-b184-28c59c5e6a1a","system_id":"levelo_inurba_marseille","lat":43.32535,"lon":5.4145,"is_reserved":false,"is_disabled":false,"rental_uris":{"android":"levelo://app?vid=c5a187db-e278-4e0a-b184-28c59c5e6a1a","ios":"levelo://app?vid=c5a187db-e278-4e0a-b184-28c59c5e6a1a"},"vehicle_type_id":"4","last_reported":1728814134,"current_range_meters":37600,"station_id":"ce4bhq12rcd13ifvqhhg","pricing_plan_id":"cebpf4jnsgd1na2vs0mg"},{"bike_id":"cba59919-95e6-42ff-83c9-6bcf45674d60","system_id":"levelo_inurba_marseille","lat":43.32288,"lon":5.38267,"is_reserved":false,"is_disabled":false,"rental_uris":{"android":"levelo://app?vid=cba59919-95e6-42ff-83c9-6bcf45674d60","ios":"levelo://app?vid=cba59919-95e6-42ff-83c9-6bcf45674d60"},"vehicle_type_id":"4","last_reported":1728814134,"current_range_meters":37600,"station_id":"ce4bhr12rcd13ifvqhqg","pricing_plan_id":"cebpf4jnsgd1na2vs0mg"},{"bike_id":"610bfb8b-3e91-4e90-b1f9-7f3d953e2cb4","system_id":"levelo_inurba_marseille","lat":43.24394,"lon":5.37067,"is_reserved":false,"is_disabled":false,"rental_uris":{"android":"levelo://app?vid=610bfb8b-3e91-4e90-b1f9-7f3d953e2cb4","ios":"levelo://app?vid=610bfb8b-3e91-4e90-b1f9-7f3d953e2cb4"},"vehicle_type_id":"4","last_reported":1728814134,"current_range_meters":22800,"station_id":"ce4bhhh2rcd13ifvqfk0","pricing_plan_id":"cebpf4jnsgd1na2vs0mg"},{"bike_id":"42006aa6-7aec-4704-bb84-014f53bba7f6","system_id":"levelo_inurba_marseille","lat":43.33026,"lon":5.39038,"is_reserved":false,"is_disabled":false,"rental_uris":{"android":"levelo://app?vid=42006aa6-7aec-4704-bb84-014f53bba7f6","ios":"levelo://app?vid=42006aa6-7aec-4704-bb84-014f53bba7f6"},"vehicle_type_id":"4","last_reported":1728814134,"current_range_meters":30000,"station_id":"ce4bhr92rcd13ifvqhrg","pricing_plan_id":"cebpf4jnsgd1na2vs0mg"},{"bike_id":"de511b08-20cb-4c36-bbd7-f8a8394049a3","system_id":"levelo_inurba_marseille","lat":43.29897,"lon":5.4366,"is_reserved":false,"is_disabled":false,"rental_uris":{"android":"levelo://app?vid=de511b08-20cb-4c36-bbd7-f8a8394049a3","ios":"levelo://app?vid=de511b08-20cb-4c36-bbd7-f8a8394049a3"},"vehicle_type_id":"4","last_reported":1728814134,"current_range_meters":18000,"station_id":"ce4bhpp2rcd13ifvqhfg","pricing_plan_id":"cebpf4jnsgd1na2vs0mg"},{"bike_id":"f71a0b8b-26c6-4269-91c9-34f818f4738d","system_id":"levelo_inurba_marseille","lat":43.24997,"lon":5.38933,"is_reserved":false,"is_disabled":false,"rental_uris":{"android":"levelo://app?vid=f71a0b8b-26c6-4269-91c9-34f818f4738d","ios":"levelo://app?vid=f71a0b8b-26c6-4269-91c9-34f818f4738d"},"vehicle_type_id":"4","last_reported":1728814134,"current_range_meters":19600,"station_id":"ce4bhgp2rcd13ifvqfd0","pricing_plan_id":"cebpf4jnsgd1na2vs0mg"},{"bike_id":"d7215565-d2da-49d8-bb03-f240cea7a629","system_id":"levelo_inurba_marseille","lat":43.289368,"lon":5.363657,"is_reserved":false,"is_disabled":false,"rental_uris":{"android":"levelo://app?vid=d7215565-d2da-49d8-bb03-f240cea7a629","ios":"levelo://app?vid=d7215565-d2da-49d8-bb03-f240cea7a629"},"vehicle_type_id":"4","last_reported":1728814134,"current_range_meters":14800,"station_id":"ce4bhc92rcd13ifvqetg","pricing_plan_id":"cebpf4jnsgd1na2vs0mg"},{"bike_id":"291efc1d-a2d0-4ef0-b2a8-bd1ff094018a","system_id":"levelo_inurba_marseille","lat":43.23193,"lon":5.35557,"is_reserved":false,"is_disabled":false,"rental_uris":{"android":"levelo://app?vid=291efc1d-a2d0-4ef0-b2a8-bd1ff094018a","ios":"levelo://app?vid=291efc1d-a2d0-4ef0-b2a8-bd1ff094018a"},"vehicle_type_id":"4","last_reported":1728814134,"current_range_meters":12800,"station_id":"ce4bhu92rcd13ifvqi70","pricing_plan_id":"cebpf4jnsgd1na2vs0mg"},{"bike_id":"6a72076e-8660-4298-82f3-0adfb3ba2bdd","system_id":"levelo_inurba_marseille","lat":43.24998,"lon":5.38932,"is_reserved":false,"is_disabled":false,"rental_uris":{"android":"levelo://app?vid=6a72076e-8660-4298-82f3-0adfb3ba2bdd","ios":"levelo://app?vid=6a72076e-8660-4298-82f3-0adfb3ba2bdd"},"vehicle_type_id":"4","last_reported":1728814134,"current_range_meters":19200,"station_id":"ce4bhgp2rcd13ifvqfd0","pricing_plan_id":"cebpf4jnsgd1na2vs0mg"},{"bike_id":"462a3896-9d65-4e0e-98f4-e59d9ad14514","system_id":"levelo_inurba_marseille","lat":43.27058,"lon":5.40266,"is_reserved":false,"is_disabled":false,"rental_uris":{"android":"levelo://app?vid=462a3896-9d65-4e0e-98f4-e59d9ad14514","ios":"levelo://app?vid=462a3896-9d65-4e0e-98f4-e59d9ad14514"},"vehicle_type_id":"4","last_reported":1728814134,"current_range_meters":37600,"station_id":"ce4bhk92rcd13ifvqgc0","pricing_plan_id":"cebpf4jnsgd1na2vs0mg"},{"bike_id":"8eb5e8c7-5ba5-4d04-9248-917b20970616","system_id":"levelo_inurba_marseille","lat":43.24171,"lon":5.36401,"is_reserved":false,"is_disabled":false,"rental_uris":{"android":"levelo://app?vid=8eb5e8c7-5ba5-4d04-9248-917b20970616","ios":"levelo://app?vid=8eb5e8c7-5ba5-4d04-9248-917b20970616"},"vehicle_type_id":"4","last_reported":1728814134,"current_range_meters":34800,"station_id":"cpo36qri1sfpv3e86is0","pricing_plan_id":"cebpf4jnsgd1na2vs0mg"},{"bike_id":"8838fc28-e8b4-48d6-93d5-580704412c00","system_id":"levelo_inurba_marseille","lat":43.29618,"lon":5.37718,"is_reserved":false,"is_disabled":false,"rental_uris":{"android":"levelo://app?vid=8838fc28-e8b4-48d6-93d5-580704412c00","ios":"levelo://app?vid=8838fc28-e8b4-48d6-93d5-580704412c00"},"vehicle_type_id":"4","last_reported":1728814134,"current_range_meters":36400,"station_id":"ce4bgi92rcd13ifvqb90","pricing_plan_id":"cebpf4jnsgd1na2vs0mg"},{"bike_id":"eac728ce-81b7-4b31-8e0a-8d32bd62a59f","system_id":"levelo_inurba_marseille","lat":43.29165,"lon":5.37156,"is_reserved":false,"is_disabled":false,"rental_uris":{"android":"levelo://app?vid=eac728ce-81b7-4b31-8e0a-8d32bd62a59f","ios":"levelo://app?vid=eac728ce-81b7-4b31-8e0a-8d32bd62a59f"},"vehicle_type_id":"4","last_reported":1728814134,"current_range_meters":36800,"station_id":"ce4bhap2rcd13ifvqek0","pricing_plan_id":"cebpf4jnsgd1na2vs0mg"},{"bike_id":"adf7f252-dbc1-459a-8043-ad1f1eca0157","system_id":"levelo_inurba_marseille","lat":43.33731,"lon":5.39181,"is_reserved":false,"is_disabled":false,"rental_uris":{"android":"levelo://app?vid=adf7f252-dbc1-459a-8043-ad1f1eca0157","ios":"levelo://app?vid=adf7f252-dbc1-459a-8043-ad1f1eca0157"},"vehicle_type_id":"4","last_reported":1728814134,"current_range_meters":34800,"station_id":"ce4bhr92rcd13ifvqhsg","pricing_plan_id":"cebpf4jnsgd1na2vs0mg"},{"bike_id":"0b4afb29-37be-41d6-88fa-21e23bce8b94","system_id":"levelo_inurba_marseille","lat":43.24167,"lon":5.36405,"is_reserved":false,"is_disabled":false,"rental_uris":{"android":"levelo://app?vid=0b4afb29-37be-41d6-88fa-21e23bce8b94","ios":"levelo://app?vid=0b4afb29-37be-41d6-88fa-21e23bce8b94"},"vehicle_type_id":"4","last_reported":1728814134,"current_range_meters":12000,"station_id":"cpo36qri1sfpv3e86is0","pricing_plan_id":"cebpf4jnsgd1na2vs0mg"},{"bike_id":"7368293e-5deb-41c7-9a13-c579bb677748","system_id":"levelo_inurba_marseille","lat":43.28269,"lon":5.35065,"is_reserved":false,"is_disabled":false,"rental_uris":{"android":"levelo://app?vid=7368293e-5deb-41c7-9a13-c579bb677748","ios":"levelo://app?vid=7368293e-5deb-41c7-9a13-c579bb677748"},"vehicle_type_id":"4","last_reported":1728814134,"current_range_meters":30000,"station_id":"ce4bhbp2rcd13ifvqerg","pricing_plan_id":"cebpf4jnsgd1na2vs0mg"},{"bike_id":"8f4d6609-ff06-46e3-a61e-9ed064e3b859","system_id":"levelo_inurba_marseille","lat":43.25502,"lon":5.37649,"is_reserved":false,"is_disabled":false,"rental_uris":{"android":"levelo://app?vid=8f4d6609-ff06-46e3-a61e-9ed064e3b859","ios":"levelo://app?vid=8f4d6609-ff06-46e3-a61e-9ed064e3b859"},"vehicle_type_id":"4","last_reported":1728814134,"current_range_meters":34800,"station_id":"ce4bhh12rcd13ifvqff0","pricing_plan_id":"cebpf4jnsgd1na2vs0mg"},{"bike_id":"e12cfa40-a007-4b37-a4ab-ca80d746c598","system_id":"levelo_inurba_marseille","lat":43.26777,"lon":5.39423,"is_reserved":false,"is_disabled":false,"rental_uris":{"android":"levelo://app?vid=e12cfa40-a007-4b37-a4ab-ca80d746c598","ios":"levelo://app?vid=e12cfa40-a007-4b37-a4ab-ca80d746c598"},"vehicle_type_id":"4","last_reported":1728814134,"current_range_meters":38800,"station_id":"ce4bhh12rcd13ifvqfg0","pricing_plan_id":"cebpf4jnsgd1na2vs0mg"},{"bike_id":"6fdadf2c-d2e3-4f21-8c22-0728ee5ba860","system_id":"levelo_inurba_marseille","lat":43.32047,"lon":5.41569,"is_reserved":false,"is_disabled":false,"rental_uris":{"android":"levelo://app?vid=6fdadf2c-d2e3-4f21-8c22-0728ee5ba860","ios":"levelo://app?vid=6fdadf2c-d2e3-4f21-8c22-0728ee5ba860"},"vehicle_type_id":"4","last_reported":1728814134,"current_range_meters":24400,"station_id":"ce4bhq92rcd13ifvqhkg","pricing_plan_id":"cebpf4jnsgd1na2vs0mg"},{"bike_id":"28addaf3-fd02-4355-a106-26ba7b670554","system_id":"levelo_inurba_marseille","lat":43.27941,"lon":5.41049,"is_reserved":false,"is_disabled":false,"rental_uris":{"android":"levelo://app?vid=28addaf3-fd02-4355-a106-26ba7b670554","ios":"levelo://app?vid=28addaf3-fd02-4355-a106-26ba7b670554"},"vehicle_type_id":"4","last_reported":1728814134,"current_range_meters":37600,"station_id":"ce4bhnp2rcd13ifvqh0g","pricing_plan_id":"cebpf4jnsgd1na2vs0mg"},{"bike_id":"40f4a0a9-e4f3-46a2-a2da-83ab9f6b18da","system_id":"levelo_inurba_marseille","lat":43.30356,"lon":5.41888,"is_reserved":false,"is_disabled":false,"rental_uris":{"android":"levelo://app?vid=40f4a0a9-e4f3-46a2-a2da-83ab9f6b18da","ios":"levelo://app?vid=40f4a0a9-e4f3-46a2-a2da-83ab9f6b18da"},"vehicle_type_id":"4","last_reported":1728814134,"current_range_meters":27600,"station_id":"ce4bhop2rcd13ifvqh7g","pricing_plan_id":"cebpf4jnsgd1na2vs0mg"},{"bike_id":"19d9e745-41fd-4c65-8313-510b282ea8f1","system_id":"levelo_inurba_marseille","lat":43.2926,"lon":5.38438,"is_reserved":false,"is_disabled":false,"rental_uris":{"android":"levelo://app?vid=19d9e745-41fd-4c65-8313-510b282ea8f1","ios":"levelo://app?vid=19d9e745-41fd-4c65-8313-510b282ea8f1"},"vehicle_type_id":"4","last_reported":1728814134,"current_range_meters":7200,"station_id":"ce4bh692rcd13ifvqea0","pricing_plan_id":"cebpf4jnsgd1na2vs0mg"},{"bike_id":"0df3f02f-bce5-4232-a024-175f9f59ec92","system_id":"levelo_inurba_marseille","lat":43.27672,"lon":5.38893,"is_reserved":false,"is_disabled":false,"rental_uris":{"android":"levelo://app?vid=0df3f02f-bce5-4232-a024-175f9f59ec92","ios":"levelo://app?vid=0df3f02f-bce5-4232-a024-175f9f59ec92"},"vehicle_type_id":"4","last_reported":1728814134,"current_range_meters":38800,"station_id":"ce4bhi12rcd13ifvqfo0","pricing_plan_id":"cebpf4jnsgd1na2vs0mg"},{"bike_id":"593f5a72-f11e-4736-bfc7-032df0e5bd67","system_id":"levelo_inurba_marseille","lat":43.25574,"lon":5.38232,"is_reserved":false,"is_disabled":false,"rental_uris":{"android":"levelo://app?vid=593f5a72-f11e-4736-bfc7-032df0e5bd67","ios":"levelo://app?vid=593f5a72-f11e-4736-bfc7-032df0e5bd67"},"vehicle_type_id":"4","last_reported":1728814134,"current_range_meters":8400,"station_id":"ce4bhih2rcd13ifvqfs0","pricing_plan_id":"cebpf4jnsgd1na2vs0mg"},{"bike_id":"32940cdd-02e4-41ba-bd8f-9bb5e1954064","system_id":"levelo_inurba_marseille","lat":43.29063,"lon":5.46293,"is_reserved":false,"is_disabled":false,"rental_uris":{"android":"levelo://app?vid=32940cdd-02e4-41ba-bd8f-9bb5e1954064","ios":"levelo://app?vid=32940cdd-02e4-41ba-bd8f-9bb5e1954064"},"vehicle_type_id":"4","last_reported":1728814134,"current_range_meters":6800,"station_id":"","pricing_plan_id":"cebpf4jnsgd1na2vs0mg"},{"bike_id":"a0c0b69c-3020-4870-8a36-f2b84f108fca","system_id":"levelo_inurba_marseille","lat":43.25928,"lon":5.40908,"is_reserved":false,"is_disabled":false,"rental_uris":{"android":"levelo://app?vid=a0c0b69c-3020-4870-8a36-f2b84f108fca","ios":"levelo://app?vid=a0c0b69c-3020-4870-8a36-f2b84f108fca"},"vehicle_type_id":"4","last_reported":1728814134,"current_range_meters":10000,"station_id":"ce4bhm92rcd13ifvqglg","pricing_plan_id":"cebpf4jnsgd1na2vs0mg"},{"bike_id":"a4b3e1fe-1ac6-4115-a899-59fe164bb0ae","system_id":"levelo_inurba_marseille","lat":43.25001,"lon":5.38931,"is_reserved":false,"is_disabled":false,"rental_uris":{"android":"levelo://app?vid=a4b3e1fe-1ac6-4115-a899-59fe164bb0ae","ios":"levelo://app?vid=a4b3e1fe-1ac6-4115-a899-59fe164bb0ae"},"vehicle_type_id":"4","last_reported":1728814134,"current_range_meters":38800,"station_id":"ce4bhgp2rcd13ifvqfd0","pricing_plan_id":"cebpf4jnsgd1na2vs0mg"},{"bike_id":"904466af-25d0-423c-9edb-fb7fc8114abe","system_id":"levelo_inurba_marseille","lat":43.23197,"lon":5.35548,"is_reserved":false,"is_disabled":false,"rental_uris":{"android":"levelo://app?vid=904466af-25d0-423c-9edb-fb7fc8114abe","ios":"levelo://app?vid=904466af-25d0-423c-9edb-fb7fc8114abe"},"vehicle_type_id":"4","last_reported":1728814134,"current_range_meters":11200,"station_id":"ce4bhu92rcd13ifvqi70","pricing_plan_id":"cebpf4jnsgd1na2vs0mg"},{"bike_id":"e2e73c29-a9c2-46a0-8cfa-a56708db1d11","system_id":"levelo_inurba_marseille","lat":43.23151,"lon":5.43723,"is_reserved":false,"is_disabled":false,"rental_uris":{"android":"levelo://app?vid=e2e73c29-a9c2-46a0-8cfa-a56708db1d11","ios":"levelo://app?vid=e2e73c29-a9c2-46a0-8cfa-a56708db1d11"},"vehicle_type_id":"4","last_reported":1728814134,"current_range_meters":28400,"station_id":"ce4bhmp2rcd13ifvqgog","pricing_plan_id":"cebpf4jnsgd1na2vs0mg"},{"bike_id":"e417769b-5374-4d69-8046-9be2e4363abe","system_id":"levelo_inurba_marseille","lat":43.24648,"lon":5.38894,"is_reserved":false,"is_disabled":false,"rental_uris":{"android":"levelo://app?vid=e417769b-5374-4d69-8046-9be2e4363abe","ios":"levelo://app?vid=e417769b-5374-4d69-8046-9be2e4363abe"},"vehicle_type_id":"4","last_reported":1728814134,"current_range_meters":20000,"station_id":"ce4bhg12rcd13ifvqf60","pricing_plan_id":"cebpf4jnsgd1na2vs0mg"},{"bike_id":"a501c0e5-7dff-4ee3-9586-4fe137467313","system_id":"levelo_inurba_marseille","lat":43.33022,"lon":5.39036,"is_reserved":false,"is_disabled":false,"rental_uris":{"android":"levelo://app?vid=a501c0e5-7dff-4ee3-9586-4fe137467313","ios":"levelo://app?vid=a501c0e5-7dff-4ee3-9586-4fe137467313"},"vehicle_type_id":"4","last_reported":1728814134,"current_range_meters":21600,"station_id":"ce4bhr92rcd13ifvqhrg","pricing_plan_id":"cebpf4jnsgd1na2vs0mg"},{"bike_id":"737f5cd1-84f9-4aef-965c-087b3e7592ef","system_id":"levelo_inurba_marseille","lat":43.27574,"lon":5.38415,"is_reserved":false,"is_disabled":false,"rental_uris":{"android":"levelo://app?vid=737f5cd1-84f9-4aef-965c-087b3e7592ef","ios":"levelo://app?vid=737f5cd1-84f9-4aef-965c-087b3e7592ef"},"vehicle_type_id":"4","last_reported":1728814134,"current_range_meters":38800,"station_id":"ce4bhh92rcd13ifvqfi0","pricing_plan_id":"cebpf4jnsgd1na2vs0mg"},{"bike_id":"7b44e1ad-e3d4-449d-a4f2-c264fde8bb79","system_id":"levelo_inurba_marseille","lat":43.24813,"lon":5.37458,"is_reserved":false,"is_disabled":false,"rental_uris":{"android":"levelo://app?vid=7b44e1ad-e3d4-449d-a4f2-c264fde8bb79","ios":"levelo://app?vid=7b44e1ad-e3d4-449d-a4f2-c264fde8bb79"},"vehicle_type_id":"4","last_reported":1728814134,"current_range_meters":22400,"station_id":"ce4bhgh2rcd13ifvqfb0","pricing_plan_id":"cebpf4jnsgd1na2vs0mg"},{"bike_id":"4f167f6f-2c96-430a-8a3d-b76ab9fe3eb3","system_id":"levelo_inurba_marseille","lat":43.28919,"lon":5.38404,"is_reserved":false,"is_disabled":false,"rental_uris":{"android":"levelo://app?vid=4f167f6f-2c96-430a-8a3d-b76ab9fe3eb3","ios":"levelo://app?vid=4f167f6f-2c96-430a-8a3d-b76ab9fe3eb3"},"vehicle_type_id":"4","last_reported":1728814134,"current_range_meters":18000,"station_id":"ce4bh612rcd13ifvqe6g","pricing_plan_id":"cebpf4jnsgd1na2vs0mg"},