{"last_updated":1686416756,"ttl":30,"version":"2.2","data":{"bikes":[{"bike_id":"e215e44b-264e-4626-ae88-2d3a12aefe09","system_id":"levelo_inurba_marseille","lat":43.309076,"lon":5.368465,"is_reserved":false,"is_disabled":false,"rental_uris":{"android":"levelo://app?vid=e215e44b-264e-4626-ae88-2d3a12aefe09","ios":"levelo://app?vid=e215e44b-264e-4626-ae88-2d3a12aefe09"},"vehicle_type_id":"4","last_reported":1686416757,"current_range_meters":12800,"station_id":"ce4bgn92rcd13ifvqbvg","pricing_plan_id":"free"},{"bike_id":"2dbc8303-1e1a-4d08-9dee-6babc9247d38","system_id":"levelo_inurba_marseille","lat":43.30682,"lon":5.36608,"is_reserved":false,"is_disabled":false,"rental_uris":{"android":"levelo://app?vid=2dbc8303-1e1a-4d08-9dee-6babc9247d38","ios":"levelo://app?vid=2dbc8303-1e1a-4d08-9dee-6babc9247d38"},"vehicle_type_id":"4","last_reported":1686416757,"current_range_meters":25200,"station_id":"","pricing_plan_id":"free"},{"bike_id":"726e69fe-0789-44cc-8872-aafade0684ce","system_id":"levelo_inurba_marseille","lat":43.306,"lon":5.36574,"is_reserved":false,"is_disabled":false,"rental_uris":{"android":"levelo://app?vid=726e69fe-0789-44cc-8872-aafade0684ce","ios":"levelo://app?vid=726e69fe-0789-44cc-8872-aafade0684ce"},"vehicle_type_id":"4","last_reported":1686416757,"current_range_meters":8400,"station_id":"","pricing_plan_id":"free"},{"bike_id":"c006050f-112e-44da-9ce0-0e26bf86a8d2","system_id":"levelo_inurba_marseille","lat":43.311179,"lon":5.377719,"is_reserved":false,"is_disabled":false,"rental_uris":{"android":"levelo://app?vid=c006050f-112e-44da-9ce0-0e26bf86a8d2","ios":"levelo://app?vid=c006050f-112e-44da-9ce0-0e26bf86a8d2"},"vehicle_type_id":"4","last_reported":1686416757,"current_range_meters":27200,"station_id":"ce4bhhh2rcd13ifvqfl0","pricing_plan_id":"free"},{"bike_id":"12a9cd77-87f2-467d-a292-41b2c8e1f05a","system_id":"levelo_inurba_marseille","lat":43.30459,"lon":5.36832,"is_reserved":false,"is_disabled":false,"rental_uris":{"android":"levelo://app?vid=12a9cd77-87f2-467d-a292-41b2c8e1f05a","ios":"levelo://app?vid=12a9cd77-87f2-467d-a292-41b2c8e1f05a"},"vehicle_type_id":"4","last_reported":1686416757,"current_range_meters":12800,"station_id":"","pricing_plan_id":"free"},{"bike_id":"87410876-cb0a-475c-8616-0ef366eef1aa","system_id":"levelo_inurba_marseille","lat":43.317075,"lon":5.377367,"is_reserved":false,"is_disabled":false,"rental_uris":{"android":"levelo://app?vid=87410876-cb0a-475c-8616-0ef366eef1aa","ios":"levelo://app?vid=87410876-cb0a-475c-8616-0ef366eef1aa"},"vehicle_type_id":"4","last_reported":1686416757,"current_range_meters":29600,"station_id":"ce4bgth2rcd13ifvqch0","pricing_plan_id":"free"},{"bike_id":"6ca7f4f0-9c0c-44fb-aa3e-979faab6c99c","system_id":"levelo_inurba_marseille","lat":43.3059,"lon":5.37467,"is_reserved":false,"is_disabled":false,"rental_uris":{"android":"levelo://app?vid=6ca7f4f0-9c0c-44fb-aa3e-979faab6c99c","ios":"levelo://app?vid=6ca7f4f0-9c0c-44fb-aa3e-979faab6c99c"},"vehicle_type_id":"4","last_reported":1686416757,"current_range_meters":29200,"station_id":"","pricing_plan_id":"free"},{"bike_id":"8eca7e10-d6e4-4c71-9168-0a9e8f05aff4","system_id":"levelo_inurba_marseille","lat":43.31083,"lon":5.3799,"is_reserved":false,"is_disabled":false,"rental_uris":{"android":"levelo://app?vid=8eca7e10-d6e4-4c71-9168-0a9e8f05aff4","ios":"levelo://app?vid=8eca7e10-d6e4-4c71-9168-0a9e8f05aff4"},"vehicle_type_id":"4","last_reported":1686416757,"current_range_meters":16000,"station_id":"","pricing_plan_id":"free"},{"bike_id":"74a04bc0-94bf-4d82-be0b-b745ecfee398","system_id":"levelo_inurba_marseille","lat":43.315289,"lon":5.380349,"is_reserved":false,"is_disabled":false,"rental_uris":{"android":"levelo://app?vid=74a04bc0-94bf-4d82-be0b-b745ecfee398","ios":"levelo://app?vid=74a04bc0-94bf-4d82-be0b-b745ecfee398"},"vehicle_type_id":"4","last_reported":1686416757,"current_range_meters":11600,"station_id":"ce4bhsp2rcd13ifvqi50","pricing_plan_id":"free"},{"bike_id":"1410445f-13b0-4d5d-a361-43cbac959e78","system_id":"levelo_inurba_marseille","lat":43.304606,"lon":5.379026,"is_reserved":false,"is_disabled":false,"rental_uris":{"android":"levelo://app?vid=1410445f-13b0-4d5d-a361-43cbac959e78","ios":"levelo://app?vid=1410445f-13b0-4d5d-a361-43cbac959e78"},"vehicle_type_id":"4","last_reported":1686416757,"current_range_meters":26400,"station_id":"ce4bgup2rcd13ifvqcn0","pricing_plan_id":"free"},{"bike_id":"8b1f4253-f239-4ada-80be-23884609e89c","system_id":"levelo_inurba_marseille","lat":43.304606,"lon":5.379026,"is_reserved":false,"is_disabled":false,"rental_uris":{"android":"levelo://app?vid=8b1f4253-f239-4ada-80be-23884609e89c","ios":"levelo://app?vid=8b1f4253-f239-4ada-80be-23884609e89c"},"vehicle_type_id":"4","last_reported":1686416757,"current_range_meters":27600,"station_id":"ce4bgup2rcd13ifvqcn0","pricing_plan_id":"free"},{"bike_id":"32ced4bf-388f-4626-9550-a215dff5b2e0","system_id":"levelo_inurba_marseille","lat":43.304606,"lon":5.379026,"is_reserved":false,"is_disabled":false,"rental_uris":{"android":"levelo://app?vid=32ced4bf-388f-4626-9550-a215dff5b2e0","ios":"levelo://app?vid=32ced4bf-388f-4626-9550-a215dff5b2e0"},"vehicle_type_id":"4","last_reported":1686416757,"current_range_meters":31200,"station_id":"ce4bgup2rcd13ifvqcn0","pricing_plan_id":"free"},{"bike_id":"f7726b56-d9f9-44f7-a303-7457cb9a9c6b","system_id":"levelo_inurba_marseille","lat":43.304606,"lon":5.379026,"is_reserved":false,"is_disabled":false,"rental_uris":{"android":"levelo://app?vid=f7726b56-d9f9-44f7-a303-7457cb9a9c6b","ios":"levelo://app?vid=f7726b56-d9f9-44f7-a303-7457cb9a9c6b"},"vehicle_type_id":"4","last_reported":1686416757,"current_range_meters":31200,"station_id":"ce4bgup2rcd13ifvqcn0","pricing_plan_id":"free"},{"bike_id":"69920c32-fff5-4e47-b54c-6493c9cb2318","system_id":"levelo_inurba_marseille","lat":43.31639,"lon":5.38273,"is_reserved":false,"is_disabled":false,"rental_uris":{"android":"levelo://app?vid=69920c32-fff5-4e47-b54c-6493c9cb2318","ios":"levelo://app?vid=69920c32-fff5-4e47-b54c-6493c9cb2318"},"vehicle_type_id":"4","last_reported":1686416757,"current_range_meters":10000,"station_id":"","pricing_plan_id":"free"},{"bike_id":"a812a9f3-defe-4992-81e4-39fd21ba0e8a","system_id":"levelo_inurba_marseille","lat":43.304606,"lon":5.379026,"is_reserved":false,"is_disabled":false,"rental_uris":{"android":"levelo://app?vid=a812a9f3-defe-4992-81e4-39fd21ba0e8a","ios":"levelo://app?vid=a812a9f3-defe-4992-81e4-39fd21ba0e8a"},"vehicle_type_id":"4","last_reported":1686416757,"current_range_meters":29600,"station_id":"ce4bgup2rcd13ifvqcn0","pricing_plan_id":"free"},{"bike_id":"2d658624-8d2d-4d2b-b82f-7982af329fc6","system_id":"levelo_inurba_marseille","lat":43.304606,"lon":5.379026,"is_reserved":false,"is_disabled":false,"rental_uris":{"android":"levelo://app?vid=2d658624-8d2d-4d2b-b82f-7982af329fc6","ios":"levelo://app?vid=2d658624-8d2d-4d2b-b82f-7982af329fc6"},"vehicle_type_id":"4","last_reported":1686416757,"current_range_meters":29600,"station_id":"ce4bgup2rcd13ifvqcn0","pricing_plan_id":"free"},{"bike_id":"f1be1e78-8ab6-4f43-a88a-5f5d14b713c7","system_id":"levelo_inurba_marseille","lat":43.304606,"lon":5.379026,"is_reserved":false,"is_disabled":false,"rental_uris":{"android":"levelo://app?vid=f1be1e78-8ab6-4f43-a88a-5f5d14b713c7","ios":"levelo://app?vid=f1be1e78-8ab6-4f43-a88a-5f5d14b713c7"},"vehicle_type_id":"4","last_reported":1686416757,"current_range_meters":28400,"station_id":"ce4bgup2rcd13ifvqcn0","pricing_plan_id":"free"},{"bike_id":"bf75d1d4-5575-4672-b3f7-f4c8d2334e50","system_id":"levelo_inurba_marseille","lat":43.304606,"lon":5.379026,"is_reserved":false,"is_disabled":false,"rental_uris":{"android":"levelo://app?vid=bf75d1d4-5575-4672-b3f7-f4c8d2334e50","ios":"levelo://app?vid=bf75d1d4-5575-4672-b3f7-f4c8d2334e50"},"vehicle_type_id":"4","last_reported":1686416757,"current_range_meters":28800,"station_id":"ce4bgup2rcd13ifvqcn0","pricing_plan_id":"free"},{"bike_id":"81f5e210-01f9-4bbc-bee1-38d10827b9e0","system_id":"levelo_inurba_marseille","lat":43.304606,"lon":5.379026,"is_reserved":false,"is_disabled":false,"rental_uris":{"android":"levelo://app?vid=81f5e210-01f9-4bbc-bee1-38d10827b9e0","ios":"levelo://app?vid=81f5e210-01f9-4bbc-bee1-38d10827b9e0"},"vehicle_type_id":"4","last_reported":1686416757,"current_range_meters":31200,"station_id":"ce4bgup2rcd13ifvqcn0","pricing_plan_id":"free"},{"bike_id":"d84aab8e-0146-4fdd-b8eb-7dcc82711b05","system_id":"levelo_inurba_marseille","lat":43.30143,"lon":5.37413,"is_reserved":false,"is_disabled":false,"rental_uris":{"android":"levelo://app?vid=d84aab8e-0146-4fdd-b8eb-7dcc82711b05","ios":"levelo://app?vid=d84aab8e-0146-4fdd-b8eb-7dcc82711b05"},"vehicle_type_id":"4","last_reported":1686416757,"current_range_meters":18400,"station_id":"ce4bgs92rcd13ifvqcc0","pricing_plan_id":"free"},{"bike_id":"81bc9488-b2fe-4764-a5b9-711ee178f511","system_id":"levelo_inurba_marseille","lat":43.319935,"lon":5.381699,"is_reserved":false,"is_disabled":false,"rental_uris":{"android":"levelo://app?vid=81bc9488-b2fe-4764-a5b9-711ee178f511","ios":"levelo://app?vid=81bc9488-b2fe-4764-a5b9-711ee178f511"},"vehicle_type_id":"4","last_reported":1686416757,"current_range_meters":21200,"station_id":"ce4bhr12rcd13ifvqhpg","pricing_plan_id":"free"},{"bike_id":"b3150f72-e222-478e-8925-04341ec61e18","system_id":"levelo_inurba_marseille","lat":43.319935,"lon":5.381699,"is_reserved":false,"is_disabled":false,"rental_uris":{"android":"levelo://app?vid=b3150f72-e222-478e-8925-04341ec61e18","ios":"levelo://app?vid=b3150f72-e222-478e-8925-04341ec61e18"},"vehicle_type_id":"4","last_reported":1686416757,"current_range_meters":0,"station_id":"ce4bhr12rcd13ifvqhpg","pricing_plan_id":"free"},{"bike_id":"ca0dd757-d7f4-474d-a368-6df8cc5337c9","system_id":"levelo_inurba_marseille","lat":43.298433,"lon":5.362774,"is_reserved":false,"is_disabled":false,"rental_uris":{"android":"levelo://app?vid=ca0dd757-d7f4-474d-a368-6df8cc5337c9","ios":"levelo://app?vid=ca0dd757-d7f4-474d-a368-6df8cc5337c9"},"vehicle_type_id":"4","last_reported":1686416757,"current_range_meters":0,"station_id":"ce4bgpp2rcd13ifvqc3g","pricing_plan_id":"free"},{"bike_id":"52be01aa-6986-4175-88e4-8120b12bfb5a","system_id":"levelo_inurba_marseille","lat":43.311722,"lon":5.387247,"is_reserved":false,"is_disabled":false,"rental_uris":{"android":"levelo://app?vid=52be01aa-6986-4175-88e4-8120b12bfb5a","ios":"levelo://app?vid=52be01aa-6986-4175-88e4-8120b12bfb5a"},"vehicle_type_id":"4","last_reported":1686416757,"current_range_meters":800,"station_id":"ce4bgv12rcd13ifvqcp0","pricing_plan_id":"free"},{"bike_id":"590b5c4c-d761-4d75-81c0-f201e585bc80","system_id":"levelo_inurba_marseille","lat":43.3117,"lon":5.38716,"is_reserved":false,"is_disabled":false,"rental_uris":{"android":"levelo://app?vid=590b5c4c-d761-4d75-81c0-f201e585bc80","ios":"levelo://app?vid=590b5c4c-d761-4d75-81c0-f201e585bc80"},"vehicle_type_id":"4","last_reported":1686416757,"current_range_meters":6400,"station_id":"ce4bgv12rcd13ifvqcp0","pricing_plan_id":"free"},{"bike_id":"431a1f72-4fd7-41f8-a460-490c3ad60c19","system_id":"levelo_inurba_marseille","lat":43.32832,"lon":5.36682,"is_reserved":false,"is_disabled":false,"rental_uris":{"android":"levelo://app?vid=431a1f72-4fd7-41f8-a460-490c3ad60c19","ios":"levelo://app?vid=431a1f72-4fd7-41f8-a460-490c3ad60c19"},"vehicle_type_id":"4","last_reported":1686416757,"current_range_meters":31200,"station_id":"ce4bhs92rcd13ifvqi0g","pricing_plan_id":"free"},{"bike_id":"368b8a4a-b37b-4982-aafe-097faf38f7ce","system_id":"levelo_inurba_marseille","lat":43.328371,"lon":5.366909,"is_reserved":false,"is_disabled":false,"rental_uris":{"android":"levelo://app?vid=368b8a4a-b37b-4982-aafe-097faf38f7ce","ios":"levelo://app?vid=368b8a4a-b37b-4982-aafe-097faf38f7ce"},"vehicle_type_id":"4","last_reported":1686416757,"current_range_meters":6800,"station_id":"ce4bhs92rcd13ifvqi0g","pricing_plan_id":"free"},{"bike_id":"03114c25-71f1-4ffc-b23f-3909ed4d045b","system_id":"levelo_inurba_marseille","lat":43.29708,"lon":5.36621,"is_reserved":false,"is_disabled":false,"rental_uris":{"android":"levelo://app?vid=03114c25-71f1-4ffc-b23f-3909ed4d045b","ios":"levelo://app?vid=03114c25-71f1-4ffc-b23f-3909ed4d045b"},"vehicle_type_id":"4","last_reported":1686416757,"current_range_meters":12000,"station_id":"","pricing_plan_id":"free"},{"bike_id":"a171b683-f844-4b6f-8205-0c579bd8e9e8","system_id":"levelo_inurba_marseille","lat":43.32841,"lon":5.36675,"is_reserved":false,"is_disabled":false,"rental_uris":{"android":"levelo://app?vid=a171b683-f844-4b6f-8205-0c579bd8e9e8","ios":"levelo://app?vid=a171b683-f844-4b6f-8205-0c579bd8e9e8"},"vehicle_type_id":"4","last_reported":1686416757,"current_range_meters":31200,"station_id":"ce4bhs92rcd13ifvqi0g","pricing_plan_id":"free"},{"bike_id":"40fa5f0f-9471-4446-b526-3274902600a2","system_id":"levelo_inurba_marseille","lat":43.309589,"lon":5.390258,"is_reserved":false,"is_disabled":false,"rental_uris":{"android":"levelo://app?vid=40fa5f0f-9471-4446-b526-3274902600a2","ios":"levelo://app?vid=40fa5f0f-9471-4446-b526-3274902600a2"},"vehicle_type_id":"4","last_reported":1686416757,"current_range_meters":2400,"station_id":"ce4bgup2rcd13ifvqco0","pricing_plan_id":"free"},{"bike_id":"fe2da142-80a2-45d9-826e-aeb571a72168","system_id":"levelo_inurba_marseille","lat":43.29801,"lon":5.38111,"is_reserved":false,"is_disabled":false,"rental_uris":{"android":"levelo://app?vid=fe2da142-80a2-45d9-826e-aeb571a72168","ios":"levelo://app?vid=fe2da142-80a2-45d9-826e-aeb571a72168"},"vehicle_type_id":"4","last_reported":1686416757,"current_range_meters":0,"station_id":"ce4bgip2rcd13ifvqbb0","pricing_plan_id":"free"},{"bike_id":"4ecd2d7d-3f7c-43d9-a8fd-acbb80873fc8","system_id":"levelo_inurba_marseille","lat":43.29771,"lon":5.38097,"is_reserved":false,"is_disabled":false,"rental_uris":{"android":"levelo://app?vid=4ecd2d7d-3f7c-43d9-a8fd-acbb80873fc8","ios":"levelo://app?vid=4ecd2d7d-3f7c-43d9-a8fd-acbb80873fc8"},"vehicle_type_id":"4","last_reported":1686416757,"current_range_meters":20000,"station_id":"","pricing_plan_id":"free"},{"bike_id":"4564928c-5e1e-4a7d-abc2-d9414c4045d2","system_id":"levelo_inurba_marseille","lat":43.295279,"lon":5.375048,"is_reserved":false,"is_disabled":false,"rental_uris":{"android":"levelo://app?vid=4564928c-5e1e-4a7d-abc2-d9414c4045d2","ios":"levelo://app?vid=4564928c-5e1e-4a7d-abc2-d9414c4045d2"},"vehicle_type_id":"4","last_reported":1686416757,"current_range_meters":0,"station_id":"ce4bgkp2rcd13ifvqbmg","pricing_plan_id":"free"},{"bike_id":"f03c7781-c54f-438e-8de1-313427dd27bd","system_id":"levelo_inurba_marseille","lat":43.32367,"lon":5.388836,"is_reserved":false,"is_disabled":false,"rental_uris":{"android":"levelo://app?vid=f03c7781-c54f-438e-8de1-313427dd27bd","ios":"levelo://app?vid=f03c7781-c54f-438e-8de1-313427dd27bd"},"vehicle_type_id":"4","last_reported":1686416757,"current_range_meters":9600,"station_id":"ce4bhqp2rcd13ifvqhog","pricing_plan_id":"free"},{"bike_id":"b5b45f94-49d1-4ad2-8eb9-432ac03505f5","system_id":"levelo_inurba_marseille","lat":43.32366,"lon":5.38885,"is_reserved":false,"is_disabled":false,"rental_uris":{"android":"levelo://app?vid=b5b45f94-49d1-4ad2-8eb9-432ac03505f5","ios":"levelo://app?vid=b5b45f94-49d1-4ad2-8eb9-432ac03505f5"},"vehicle_type_id":"4","last_reported":1686416757,"current_range_meters":6800,"station_id":"ce4bhqp2rcd13ifvqhog","pricing_plan_id":"free"},{"bike_id":"3b15afa4-92a5-4de4-b099-d1a73d024711","system_id":"levelo_inurba_marseille","lat":43.323663,"lon":5.388856,"is_reserved":false,"is_disabled":false,"rental_uris":{"android":"levelo://app?vid=3b15afa4-92a5-4de4-b099-d1a73d024711","ios":"levelo://app?vid=3b15afa4-92a5-4de4-b099-d1a73d024711"},"vehicle_type_id":"4","last_reported":1686416757,"current_range_meters":16000,"station_id":"ce4bhqp2rcd13ifvqhog","pricing_plan_id":"free"},{"bike_id":"8e2faadc-7211-47e7-a664-d7ad7a55f2f5","system_id":"levelo_inurba_marseille","lat":43.32367,"lon":5.38887,"is_reserved":false,"is_disabled":false,"rental_uris":{"android":"levelo://app?vid=8e2faadc-7211-47e7-a664-d7ad7a55f2f5","ios":"levelo://app?vid=8e2faadc-7211-47e7-a664-d7ad7a55f2f5"},"vehicle_type_id":"4","last_reported":1686416757,"current_range_meters":12000,"station_id":"ce4bhqp2rcd13ifvqhog","pricing_plan_id":"free"},{"bike_id":"c7a27754-5982-4e4a-80c9-9624bab91d4a","system_id":"levelo_inurba_marseille","lat":43.292802,"lon":5.368485,"is_reserved":false,"is_disabled":false,"rental_uris":{"android":"levelo://app?vid=c7a27754-5982-4e4a-80c9-9624bab91d4a","ios":"levelo://app?vid=c7a27754-5982-4e4a-80c9-9624bab91d4a"},"vehicle_type_id":"4","last_reported":1686416757,"current_range_meters":6400,"station_id":"","pricing_plan_id":"free"},{"bike_id":"61e4ccfd-dc98-4837-8123-2dfa5e087f42","system_id":"levelo_inurba_marseille","lat":43.293723,"lon":5.378443,"is_reserved":false,"is_disabled":false,"rental_uris":{"android":"levelo://app?vid=61e4ccfd-dc98-4837-8123-2dfa5e087f42","ios":"levelo://app?vid=61e4ccfd-dc98-4837-8123-2dfa5e087f42"},"vehicle_type_id":"4","last_reported":1686416757,"current_range_meters":3200,"station_id":"","pricing_plan_id":"free"},{"bike_id":"da18d172-afc3-458c-ace5-86828bf8296b","system_id":"levelo_inurba_marseille","lat":43.291768,"lon":5.371482,"is_reserved":false,"is_disabled":false,"rental_uris":{"android":"levelo://app?vid=da18d172-afc3-458c-ace5-86828bf8296b","ios":"levelo://app?vid=da18d172-afc3-458c-ace5-86828bf8296b"},"vehicle_type_id":"4","last_reported":1686416757,"current_range_meters":4800,"station_id":"","pricing_plan_id":"free"},{"bike_id":"244c30f0-3058-4aaa-ade8-f1c81bffc720","system_id":"levelo_inurba_marseille","lat":43.292663,"lon":5.376394,"is_reserved":false,"is_disabled":false,"rental_uris":{"android":"levelo://app?vid=244c30f0-3058-4aaa-ade8-f1c81bffc720","ios":"levelo://app?vid=244c30f0-3058-4aaa-ade8-f1c81bffc720"},"vehicle_type_id":"4","last_reported":1686416757,"current_range_meters":0,"station_id":"ce4bgi12rcd13ifvqb80","pricing_plan_id":"free"},{"bike_id":"0d7c4552-8ef1-4710-8da4-c5de9c9edc7e","system_id":"levelo_inurba_marseille","lat":43.298764,"lon":5.388973,"is_reserved":false,"is_disabled":false,"rental_uris":{"android":"levelo://app?vid=0d7c4552-8ef1-4710-8da4-c5de9c9edc7e","ios":"levelo://app?vid=0d7c4552-8ef1-4710-8da4-c5de9c9edc7e"},"vehicle_type_id":"4","last_reported":1686416757,"current_range_meters":0,"station_id":"ce4bh392rcd13ifvqdl0","pricing_plan_id":"free"},{"bike_id":"a922a9f5-fea5-49ff-ac01-d12f16622f4e","system_id":"levelo_inurba_marseille","lat":43.30957,"lon":5.39653,"is_reserved":false,"is_disabled":false,"rental_uris":{"android":"levelo://app?vid=a922a9f5-fea5-49ff-ac01-d12f16622f4e","ios":"levelo://app?vid=a922a9f5-fea5-49ff-ac01-d12f16622f4e"},"vehicle_type_id":"4","last_reported":1686416757,"current_range_meters":20000,"station_id":"","pricing_plan_id":"free"},{"bike_id":"bfd9ee0f-109f-41ae-aea8-3d1fe462948d","system_id":"levelo_inurba_marseille","lat":43.313291,"lon":5.396838,"is_reserved":false,"is_disabled":false,"rental_uris":{"android":"levelo://app?vid=bfd9ee0f-109f-41ae-aea8-3d1fe462948d","ios":"levelo://app?vid=bfd9ee0f-109f-41ae-aea8-3d1fe462948d"},"vehicle_type_id":"4","last_reported":1686416757,"current_range_meters":7600,"station_id":"ce4bgvp2rcd13ifvqcu0","pricing_plan_id":"free"},{"bike_id":"00f33c81-ecd5-42f1-8b68-153410b9254f","system_id":"levelo_inurba_marseille","lat":43.31328,"lon":5.39689,"is_reserved":false,"is_disabled":false,"rental_uris":{"android":"levelo://app?vid=00f33c81-ecd5-42f1-8b68-153410b9254f","ios":"levelo://app?vid=00f33c81-ecd5-42f1-8b68-153410b9254f"},"vehicle_type_id":"4","last_reported":1686416757,"current_range_meters":2800,"station_id":"ce4bgvp2rcd13ifvqcu0","pricing_plan_id":"free"},{"bike_id":"d082e67c-21fe-4d2c-842d-4c02d94f5bc8","system_id":"levelo_inurba_marseille","lat":43.29529,"lon":5.385581,"is_reserved":false,"is_disabled":false,"rental_uris":{"android":"levelo://app?vid=d082e67c-21fe-4d2c-842d-4c02d94f5bc8","ios":"levelo://app?vid=d082e67c-21fe-4d2c-842d-4c02d94f5bc8"},"vehicle_type_id":"4","last_reported":1686416757,"current_range_meters":22400,"station_id":"ce4bgih2rcd13ifvqba0","pricing_plan_id":"free"},{"bike_id":"5c2ab697-4162-4534-9d3d-66f7c11feb1f","system_id":"levelo_inurba_marseille","lat":43.29529,"lon":5.385581,"is_reserved":false,"is_disabled":false,"rental_uris":{"android":"levelo://app?vid=5c2ab697-4162-4534-9d3d-66f7c11feb1f","ios":"levelo://app?vid=5c2ab697-4162-4534-9d3d-66f7c11feb1f"},"vehicle_type_id":"4","last_reported":1686416757,"current_range_meters":0,"station_id":"ce4bgih2rcd13ifvqba0","pricing_plan_id":"free"},{"bike_id":"417d337d-6eb7-4d72-8552-ae29b000e360","system_id":"levelo_inurba_marseille","lat":43.29529,"lon":5.385581,"is_reserved":false,"is_disabled":false,"rental_uris":{"android":"levelo://app?vid=417d337d-6eb7-4d72-8552-ae29b000e360","ios":"levelo://app?vid=417d337d-6eb7-4d72-8552-ae29b000e360"},"vehicle_type_id":"4","last_reported":1686416757,"current_range_meters":23600,"station_id":"ce4bgih2rcd13ifvqba0","pricing_plan_id":"free"},{"bike_id":"f2ee2deb-0257-4405-a6df-cd6a2d683f9a","system_id":"levelo_inurba_marseille","lat":43.290779,"lon":5.371482,"is_reserved":false,"is_disabled":false,"rental_uris":{"android":"levelo://app?vid=f2ee2deb-0257-4405-a6df-cd6a2d683f9a","ios":"levelo://app?vid=f2ee2deb-0257-4405-a6df-cd6a2d683f9a"},"vehicle_type_id":"4","last_reported":1686416757,"current_range_meters":0,"station_id":"ce4bh5p2rcd13ifvqe4g","pricing_plan_id":"free"},{"bike_id":"0dc5e514-6831-4a88-a6e0-42c50f68df02","system_id":"levelo_inurba_marseille","lat":43.302008,"lon":5.394694,"is_reserved":false,"is_disabled":false,"rental_uris":{"android":"levelo://app?vid=0dc5e514-6831-4a88-a6e0-42c50f68df02","ios":"levelo://app?vid=0dc5e514-6831-4a88-a6e0-42c50f68df02"},"vehicle_type_id":"4","last_reported":1686416757,"current_range_meters":5600,"station_id":"ce4bh0p2rcd13ifvqd70","pricing_plan_id":"free"},{"bike_id":"94c6b128-c168-4f5a-a17c-d93af95ee203","system_id":"levelo_inurba_marseille","lat":43.294153,"lon":5.386305,"is_reserved":false,"is_disabled":false,"rental_uris":{"android":"levelo://app?vid=94c6b128-c168-4f5a-a17c-d93af95ee203","ios":"levelo://app?vid=94c6b128-c168-4f5a-a17c-d93af95ee203"},"vehicle_type_id":"4","last_reported":1686416757,"current_range_meters":400,"station_id":"ce4bh2h2rcd13ifvqdh0","pricing_plan_id":"free"},{"bike_id":"ace40907-9e82-4ff0-b066-8f9e078676e6","system_id":"levelo_inurba_marseille","lat":43.290327,"lon":5.375711,"is_reserved":false,"is_disabled":false,"rental_uris":{"android":"levelo://app?vid=ace40907-9e82-4ff0-b066-8f9e078676e6","ios":"levelo://app?vid=ace40907-9e82-4ff0-b066-8f9e078676e6"},"vehicle_type_id":"4","last_reported":1686416757,"current_range_meters":26400,"station_id":"ce4bh692rcd13ifvqe90","pricing_plan_id":"free"},{"bike_id":"832a3233-f63f-4364-b5bf-5c40184e3f12","system_id":"levelo_inurba_marseille","lat":43.294162,"lon":5.386292,"is_reserved":false,"is_disabled":false,"rental_uris":{"android":"levelo://app?vid=832a3233-f63f-4364-b5bf-5c40184e3f12","ios":"levelo://app?vid=832a3233-f63f-4364-b5bf-5c40184e3f12"},"vehicle_type_id":"4","last_reported":1686416757,"current_range_meters":3600,"station_id":"ce4bh2h2rcd13ifvqdh0","pricing_plan_id":"free"},{"bike_id":"7c9028cf-8df3-42dc-b405-936496ddd488","system_id":"levelo_inurba_marseille","lat":43.294032,"lon":5.386342,"is_reserved":false,"is_disabled":false,"rental_uris":{"android":"levelo://app?vid=7c9028cf-8df3-42dc-b405-936496ddd488","ios":"levelo://app?vid=7c9028cf-8df3-42dc-b405-936496ddd488"},"vehicle_type_id":"4","last_reported":1686416757,"current_range_meters":24800,"station_id":"ce4bhg12rcd13ifvqf80","pricing_plan_id":"free"},{"bike_id":"49a5a38f-8947-4ccd-98fb-c391ecad038d","system_id":"levelo_inurba_marseille","lat":43.292644,"lon":5.384257,"is_reserved":false,"is_disabled":false,"rental_uris":{"android":"levelo://app?vid=49a5a38f-8947-4ccd-98fb-c391ecad038d","ios":"levelo://app?vid=49a5a38f-8947-4ccd-98fb-c391ecad038d"},"vehicle_type_id":"4","last_reported":1686416757,"current_range_meters":23600,"station_id":"ce4bh692rcd13ifvqea0","pricing_plan_id":"free"},{"bike_id":"eebb0572-4916-4105-a791-7d74572be411","system_id":"levelo_inurba_marseille","lat":43.290103,"lon":5.356114,"is_reserved":false,"is_disabled":false,"rental_uris":{"android":"levelo://app?vid=eebb0572-4916-4105-a791-7d74572be411","ios":"levelo://app?vid=eebb0572-4916-4105-a791-7d74572be411"},"vehicle_type_id":"4","last_reported":1686416757,"current_range_meters":4400,"station_id":"ce4bhb92rcd13ifvqen0","pricing_plan_id":"free"},{"bike_id":"4cb98aac-66c7-4d0e-b970-d8eaec72f9ae","system_id":"levelo_inurba_marseille","lat":43.290995,"lon":5.381361,"is_reserved":false,"is_disabled":false,"rental_uris":{"android":"levelo://app?vid=4cb98aac-66c7-4d0e-b970-d8eaec72f9ae","ios":"levelo://app?vid=4cb98aac-66c7-4d0e-b970-d8eaec72f9ae"},"vehicle_type_id":"4","last_reported":1686416757,"current_range_meters":22400,"station_id":"ce4bh512rcd13ifvqe2g","pricing_plan_id":"free"},{"bike_id":"39d1e3d7-4490-45ac-a22a-0eaf183e6bcc","system_id":"levelo_inurba_marseille","lat":43.29789,"lon":5.39341,"is_reserved":false,"is_disabled":false,"rental_uris":{"android":"levelo://app?vid=39d1e3d7-4490-45ac-a22a-0eaf183e6bcc","ios":"levelo://app?vid=39d1e3d7-4490-45ac-a22a-0eaf183e6bcc"},"vehicle_type_id":"4","last_reported":1686416757,"current_range_meters":1200,"station_id":"","pricing_plan_id":"free"},{"bike_id":"d1e79c47-88c0-41ec-bfd8-d2ccd28a6cf0","system_id":"levelo_inurba_marseille","lat":43.33746,"lon":5.37463,"is_reserved":false,"is_disabled":false,"rental_uris":{"android":"levelo://app?vid=d1e79c47-88c0-41ec-bfd8-d2ccd28a6cf0","ios":"levelo://app?vid=d1e79c47-88c0-41ec-bfd8-d2ccd28a6cf0"},"vehicle_type_id":"4","last_reported":1686416757,"current_range_meters":30800,"station_id":"","pricing_plan_id":"free"},{"bike_id":"715ef321-1c3f-4aa6-9889-3394874b38a3","system_id":"levelo_inurba_marseille","lat":43.309371,"lon":5.401449,"is_reserved":false,"is_disabled":false,"rental_uris":{"android":"levelo://app?vid=715ef321-1c3f-4aa6-9889-3394874b38a3","ios":"levelo://app?vid=715ef321-1c3f-4aa6-9889-3394874b38a3"},"vehicle_type_id":"4","last_reported":1686416757,"current_range_meters":14000,"station_id":"ce4bgvp2rcd13ifvqct0","pricing_plan_id":"free"},{"bike_id":"265c0905-166c-408b-8d33-95a8e86424e1","system_id":"levelo_inurba_marseille","lat":43.337582,"lon":5.374483,"is_reserved":false,"is_disabled":false,"rental_uris":{"android":"levelo://app?vid=265c0905-166c-408b-8d33-95a8e86424e1","ios":"levelo://app?vid=265c0905-166c-408b-8d33-95a8e86424e1"},"vehicle_type_id":"4","last_reported":1686416757,"current_range_meters":15600,"station_id":"","pricing_plan_id":"free"},{"bike_id":"fb041ec1-b611-46eb-9d8b-3229cfb3396a","system_id":"levelo_inurba_marseille","lat":43.33768,"lon":5.37459,"is_reserved":false,"is_disabled":false,"rental_uris":{"android":"levelo://app?vid=fb041ec1-b611-46eb-9d8b-3229cfb3396a","ios":"levelo://app?vid=fb041ec1-b611-46eb-9d8b-3229cfb3396a"},"vehicle_type_id":"4","last_reported":1686416757,"current_range_meters":22800,"station_id":"","pricing_plan_id":"free"},{"bike_id":"85d0dec8-0225-478c-ab85-73aff927bae3","system_id":"levelo_inurba_marseille","lat":43.295194,"lon":5.39397,"is_reserved":false,"is_disabled":false,"rental_uris":{"android":"levelo://app?vid=85d0dec8-0225-478c-ab85-73aff927bae3","ios":"levelo://app?vid=85d0dec8-0225-478c-ab85-73aff927bae3"},"vehicle_type_id":"4","last_reported":1686416757,"current_range_meters":24800,"station_id":"ce4bh292rcd13ifvqdf0","pricing_plan_id":"free"},{"bike_id":"ec88b02e-547c-4a09-b486-7ffe5deb9b8d","system_id":"levelo_inurba_marseille","lat":43.295194,"lon":5.39397,"is_reserved":false,"is_disabled":false,"rental_uris":{"android":"levelo://app?vid=ec88b02e-547c-4a09-b486-7ffe5deb9b8d","ios":"levelo://app?vid=ec88b02e-547c-4a09-b486-7ffe5deb9b8d"},"vehicle_type_id":"4","last_reported":1686416757,"current_range_meters":22800,"station_id":"ce4bh292rcd13ifvqdf0","pricing_plan_id":"free"},{"bike_id":"cdba34f5-d190-4ff0-af58-dd8659074df5","system_id":"levelo_inurba_marseille","lat":43.287184,"lon":5.37937,"is_reserved":false,"is_disabled":false,"rental_uris":{"android":"levelo://app?vid=cdba34f5-d190-4ff0-af58-dd8659074df5","ios":"levelo://app?vid=cdba34f5-d190-4ff0-af58-dd8659074df5"},"vehicle_type_id":"4","last_reported":1686416757,"current_range_meters":0,"station_id":"ce4bh9p2rcd13ifvqec0","pricing_plan_id":"free"},{"bike_id":"5bc6da8b-c28d-4cff-9f97-9f586f739ddc","system_id":"levelo_inurba_marseille","lat":43.316517,"lon":5.404375,"is_reserved":false,"is_disabled":false,"rental_uris":{"android":"levelo://app?vid=5bc6da8b-c28d-4cff-9f97-9f586f739ddc","ios":"levelo://app?vid=5bc6da8b-c28d-4cff-9f97-9f586f739ddc"},"vehicle_type_id":"4","last_reported":1686416757,"current_range_meters":18000,"station_id":"ce4bh012rcd13ifvqd00","pricing_plan_id":"free"},{"bike_id":"0c32c3aa-3767-4aa2-92bd-eaccf9728762","system_id":"levelo_inurba_marseille","lat":43.284534,"lon":5.358662,"is_reserved":false,"is_disabled":false,"rental_uris":{"android":"levelo://app?vid=0c32c3aa-3767-4aa2-92bd-eaccf9728762","ios":"levelo://app?vid=0c32c3aa-3767-4aa2-92bd-eaccf9728762"},"vehicle_type_id":"4","last_reported":1686416757,"current_range_meters":24000,"station_id":"ce4bhah2rcd13ifvqei0","pricing_plan_id":"free"},{"bike_id":"bca77d7b-33bc-4682-9c96-62ec30b77385","system_id":"levelo_inurba_marseille","lat":43.28461,"lon":5.35893,"is_reserved":false,"is_disabled":false,"rental_uris":{"android":"levelo://app?vid=bca77d7b-33bc-4682-9c96-62ec30b77385","ios":"levelo://app?vid=bca77d7b-33bc-4682-9c96-62ec30b77385"},"vehicle_type_id":"4","last_reported":1686416757,"current_range_meters":18400,"station_id":"ce4bhah2rcd13ifvqei0","pricing_plan_id":"free"},{"bike_id":"06d13f19-0cbf-4ce3-ac01-82816905cde5","system_id":"levelo_inurba_marseille","lat":43.296277,"lon":5.377108,"is_reserved":false,"is_disabled":false,"rental_uris":{"android":"levelo://app?vid=06d13f19-0cbf-4ce3-ac01-82816905cde5","ios":"levelo://app?vid=06d13f19-0cbf-4ce3-ac01-82816905cde5"},"vehicle_type_id":"4","last_reported":1686416757,"current_range_meters":22000,"station_id":"ce4bgi92rcd13ifvqb90","pricing_plan_id":"free"},{"bike_id":"6bf52bf0-1337-4037-80f8-b7d219738e48","system_id":"levelo_inurba_marseille","lat":43.296263,"lon":5.40601,"is_reserved":false,"is_disabled":false,"rental_uris":{"android":"levelo://app?vid=6bf52bf0-1337-4037-80f8-b7d219738e48","ios":"levelo://app?vid=6bf52bf0-1337-4037-80f8-b7d219738e48"},"vehicle_type_id":"4","last_reported":1686416757,"current_range_meters":24000,"station_id":"ce4bh0h2rcd13ifvqd60","pricing_plan_id":"free"},{"bike_id":"a76eff34-476b-4159-a3bf-8006bbcf5d2e","system_id":"levelo_inurba_marseille","lat":43.295713,"lon":5.399639,"is_reserved":false,"is_disabled":false,"rental_uris":{"android":"levelo://app?vid=a76eff34-476b-4159-a3bf-8006bbcf5d2e","ios":"levelo://app?vid=a76eff34-476b-4159-a3bf-8006bbcf5d2e"},"vehicle_type_id":"4","last_reported":1686416757,"current_range_meters":17600,"station_id":"ce4bh312rcd13ifvqdj0","pricing_plan_id":"free"},{"bike_id":"72f3b79d-4c30-495f-84c9-c208941ac89e","system_id":"levelo_inurba_marseille","lat":43.295713,"lon":5.399639,"is_reserved":false,"is_disabled":false,"rental_uris":{"android":"levelo://app?vid=72f3b79d-4c30-495f-84c9-c208941ac89e","ios":"levelo://app?vid=72f3b79d-4c30-495f-84c9-c208941ac89e"},"vehicle_type_id":"4","last_reported":1686416757,"current_range_meters":18400,"station_id":"ce4bh312rcd13ifvqdj0","pricing_plan_id":"free"},{"bike_id":"4f056c82-a3ea-4dcd-a1dd-4b28e270d7d0","system_id":"levelo_inurba_marseille","lat":43.29421,"lon":5.39831,"is_reserved":false,"is_disabled":false,"rental_uris":{"android":"levelo://app?vid=4f056c82-a3ea-4dcd-a1dd-4b28e270d7d0","ios":"levelo://app?vid=4f056c82-a3ea-4dcd-a1dd-4b28e270d7d0"},"vehicle_type_id":"4","last_reported":1686416757,"current_range_meters":6000,"station_id":"","pricing_plan_id":"free"},{"bike_id":"7cee8e31-41b5-4468-a73a-b60780607147","system_id":"levelo_inurba_marseille","lat":43.33615,"lon":5.39227,"is_reserved":false,"is_disabled":false,"rental_uris":{"android":"levelo://app?vid=7cee8e31-41b5-4468-a73a-b60780607147","ios":"levelo://app?vid=7cee8e31-41b5-4468-a73a-b60780607147"},"vehicle_type_id":"4","last_reported":1686416757,"current_range_meters":1600,"station_id":"","pricing_plan_id":"free"},{"bike_id":"deb583eb-96fb-4a10-97e9-a4d5ee7da756","system_id":"levelo_inurba_marseille","lat":43.32339,"lon":5.40619,"is_reserved":false,"is_disabled":false,"rental_uris":{"android":"levelo://app?vid=deb583eb-96fb-4a10-97e9-a4d5ee7da756","ios":"levelo://app?vid=deb583eb-96fb-4a10-97e9-a4d5ee7da756"},"vehicle_type_id":"4","last_reported":1686416757,"current_range_meters":10800,"station_id":"ce4bhq92rcd13ifvqhjg","pricing_plan_id":"free"},{"bike_id":"06cff570-236d-434b-b41a-bcb364e7356f","system_id":"levelo_inurba_marseille","lat":43.323464,"lon":5.406297,"is_reserved":false,"is_disabled":false,"rental_uris":{"android":"levelo://app?vid=06cff570-236d-434b-b41a-bcb364e7356f","ios":"levelo://app?vid=06cff570-236d-434b-b41a-bcb364e7356f"},"vehicle_type_id":"4","last_reported":1686416757,"current_range_meters":29600,"station_id":"ce4bhq92rcd13ifvqhjg","pricing_plan_id":"free"},{"bike_id":"64eead76-2dc1-42bd-a4a2-05cec358379d","system_id":"levelo_inurba_marseille","lat":43.32339,"lon":5.40624,"is_reserved":false,"is_disabled":false,"rental_uris":{"android":"levelo://app?vid=64eead76-2dc1-42bd-a4a2-05cec358379d","ios":"levelo://app?vid=64eead76-2dc1-42bd-a4a2-05cec358379d"},"vehicle_type_id":"4","last_reported":1686416757,"current_range_meters":30000,"station_id":"ce4bhq92rcd13ifvqhjg","pricing_plan_id":"free"},{"bike_id":"30333e77-7cc7-4ad5-b030-c99c7af00601","system_id":"levelo_inurba_marseille","lat":43.3234,"lon":5.40626,"is_reserved":false,"is_disabled":false,"rental_uris":{"android":"levelo://app?vid=30333e77-7cc7-4ad5-b030-c99c7af00601","ios":"levelo://app?vid=30333e77-7cc7-4ad5-b030-c99c7af00601"},"vehicle_type_id":"4","last_reported":1686416757,"current_range_meters":31200,"station_id":"ce4bhq92rcd13ifvqhjg","pricing_plan_id":"free"},{"bike_id":"a3079b4d-45c0-4654-a084-416319c5cab5","system_id":"levelo_inurba_marseille","lat":43.32343,"lon":5.40627,"is_reserved":false,"is_disabled":false,"rental_uris":{"android":"levelo://app?vid=a3079b4d-45c0-4654-a084-416319c5cab5","ios":"levelo://app?vid=a3079b4d-45c0-4654-a084-416319c5cab5"},"vehicle_type_id":"4","last_reported":1686416757,"current_range_meters":31200,"station_id":"ce4bhq92rcd13ifvqhjg","pricing_plan_id":"free"},{"bike_id":"7d89e3b5-958d-47f6-80fa-adc2175a1ff9","system_id":"levelo_inurba_marseille","lat":43.32349,"lon":5.40628,"is_reserved":false,"is_disabled":false,"rental_uris":{"android":"levelo://app?vid=7d89e3b5-958d-47f6-80fa-adc2175a1ff9","ios":"levelo://app?vid=7d89e3b5-958d-47f6-80fa-adc2175a1ff9"},"vehicle_type_id":"4","last_reported":1686416757,"current_range_meters":30800,"station_id":"ce4bhq92rcd13ifvqhjg","pricing_plan_id":"free"},{"bike_id":"f0654307-b38f-4dc0-8557-f8c61e98a877","system_id":"levelo_inurba_marseille","lat":43.28467,"lon":5.38427,"is_reserved":false,"is_disabled":false,"rental_uris":{"android":"levelo://app?vid=f0654307-b38f-4dc0-8557-f8c61e98a877","ios":"levelo://app?vid=f0654307-b38f-4dc0-8557-f8c61e98a877"},"vehicle_type_id":"4","last_reported":1686416757,"current_range_meters":0,"station_id":"ce4bh512rcd13ifvqe3g","pricing_plan_id":"free"},{"bike_id":"ae232d39-b160-410f-a53c-e104a0631f2e","system_id":"levelo_inurba_marseille","lat":43.32412,"lon":5.40676,"is_reserved":false,"is_disabled":false,"rental_uris":{"android":"levelo://app?vid=ae232d39-b160-410f-a53c-e104a0631f2e","ios":"levelo://app?vid=ae232d39-b160-410f-a53c-e104a0631f2e"},"vehicle_type_id":"4","last_reported":1686416757,"current_range_meters":16000,"station_id":"","pricing_plan_id":"free"},{"bike_id":"4404b0cc-e7f4-47e7-92c0-cdb2529b1c48","system_id":"levelo_inurba_marseille","lat":43.29202,"lon":5.40051,"is_reserved":false,"is_disabled":false,"rental_uris":{"android":"levelo://app?vid=4404b0cc-e7f4-47e7-92c0-cdb2529b1c48","ios":"levelo://app?vid=4404b0cc-e7f4-47e7-92c0-cdb2529b1c48"},"vehicle_type_id":"4","last_reported":1686416757,"current_range_meters":4000,"station_id":"","pricing_plan_id":"free"},{"bike_id":"ef46f84e-7b4e-4bbb-bd7e-06ea4de2f987","system_id":"levelo_inurba_marseille","lat":43.283502,"lon":5.386471,"is_reserved":false,"is_disabled":false,"rental_uris":{"android":"levelo://app?vid=ef46f84e-7b4e-4bbb-bd7e-06ea4de2f987","ios":"levelo://app?vid=ef46f84e-7b4e-4bbb-bd7e-06ea4de2f987"},"vehicle_type_id":"4","last_reported":1686416757,"current_range_meters":0,"station_id":"ce4bh492rcd13ifvqdvg","pricing_plan_id":"free"},{"bike_id":"543fc50b-0a83-4aa6-ac2c-99f4ea31df7a","system_id":"levelo_inurba_marseille","lat":43.282744,"lon":5.350533,"is_reserved":false,"is_disabled":false,"rental_uris":{"android":"levelo://app?vid=543fc50b-0a83-4aa6-ac2c-99f4ea31df7a","ios":"levelo://app?vid=543fc50b-0a83-4aa6-ac2c-99f4ea31df7a"},"vehicle_type_id":"4","last_reported":1686416757,"current_range_meters":0,"station_id":"ce4bhbp2rcd13ifvqerg","pricing_plan_id":"free"},{"bike_id":"46cffdc0-8d96-4478-b95b-969e6c19f6f8","system_id":"levelo_inurba_marseille","lat":43.2963,"lon":5.406,"is_reserved":false,"is_disabled":false,"rental_uris":{"android":"levelo://app?vid=46cffdc0-8d96-4478-b95b-969e6c19f6f8","ios":"levelo://app?vid=46cffdc0-8d96-4478-b95b-969e6c19f6f8"},"vehicle_type_id":"4","last_reported":1686416757,"current_range_meters":0,"station_id":"ce4bh0h2rcd13ifvqd60","pricing_plan_id":"free"},{"bike_id":"4e9719af-0088-40a4-ac23-ca9d340598ae","system_id":"levelo_inurba_marseille","lat":43.326605,"lon":5.409903,"is_reserved":false,"is_disabled":false,"rental_uris":{"android":"levelo://app?vid=4e9719af-0088-40a4-ac23-ca9d340598ae","ios":"levelo://app?vid=4e9719af-0088-40a4-ac23-ca9d340598ae"},"vehicle_type_id":"4","last_reported":1686416757,"current_range_meters":8800,"station_id":"ce4bhpp2rcd13ifvqhgg","pricing_plan_id":"free"},{"bike_id":"e6d2d6c4-9ff2-40c7-a6f0-61f3764984b8","system_id":"levelo_inurba_marseille","lat":43.3206,"lon":5.41534,"is_reserved":false,"is_disabled":false,"rental_uris":{"android":"levelo://app?vid=e6d2d6c4-9ff2-40c7-a6f0-61f3764984b8","ios":"levelo://app?vid=e6d2d6c4-9ff2-40c7-a6f0-61f3764984b8"},"vehicle_type_id":"4","last_reported":1686416757,"current_range_meters":27200,"station_id":"","pricing_plan_id":"free"},{"bike_id":"bb24800c-0201-48a4-8f1a-b6e1e15bfcc2","system_id":"levelo_inurba_marseille","lat":43.32053,"lon":5.41542,"is_reserved":false,"is_disabled":false,"rental_uris":{"android":"levelo://app?vid=bb24800c-0201-48a4-8f1a-b6e1e15bfcc2","ios":"levelo://app?vid=bb24800c-0201-48a4-8f1a-b6e1e15bfcc2"},"vehicle_type_id":"4","last_reported":1686416757,"current_range_meters":23200,"station_id":"","pricing_plan_id":"free"},{"bike_id":"57fc2d9d-005a-48a6-8819-4bfaf2ecdc6f","system_id":"levelo_inurba_marseille","lat":43.32053,"lon":5.41545,"is_reserved":false,"is_disabled":false,"rental_uris":{"android":"levelo://app?vid=57fc2d9d-005a-48a6-8819-4bfaf2ecdc6f","ios":"levelo://app?vid=57fc2d9d-005a-48a6-8819-4bfaf2ecdc6f"},"vehicle_type_id":"4","last_reported":1686416757,"current_range_meters":26000,"station_id":"","pricing_plan_id":"free"},{"bike_id":"03669867-3532-4381-b124-51d2614b61b5","system_id":"levelo_inurba_marseille","lat":43.3205,"lon":5.41569,"is_reserved":false,"is_disabled":false,"rental_uris":{"android":"levelo://app?vid=03669867-3532-4381-b124-51d2614b61b5","ios":"levelo://app?vid=03669867-3532-4381-b124-51d2614b61b5"},"vehicle_type_id":"4","last_reported":1686416757,"current_range_meters":24800,"station_id":"","pricing_plan_id":"free"},{"bike_id":"085bd568-ec40-4961-8fff-65962dfcc170","system_id":"levelo_inurba_marseille","lat":43.3253,"lon":5.41425,"is_reserved":false,"is_disabled":false,"rental_uris":{"android":"levelo://app?vid=085bd568-ec40-4961-8fff-65962dfcc170","ios":"levelo://app?vid=085bd568-ec40-4961-8fff-65962dfcc170"},"vehicle_type_id":"4","last_reported":1686416757,"current_range_meters":29200,"station_id":"ce4bhq12rcd13ifvqhhg","pricing_plan_id":"free"},{"bike_id":"7b1fb008-df1a-4975-9baf-3e73bafef613","system_id":"levelo_inurba_marseille","lat":43.325233,"lon":5.414318,"is_reserved":false,"is_disabled":false,"rental_uris":{"android":"levelo://app?vid=7b1fb008-df1a-4975-9baf-3e73bafef613","ios":"levelo://app?vid=7b1fb008-df1a-4975-9baf-3e73bafef613"},"vehicle_type_id":"4","last_reported":1686416757,"current_range_meters":15200,"station_id":"ce4bhq12rcd13ifvqhhg","pricing_plan_id":"free"},{"bike_id":"ee425127-e6b4-4db3-8522-235750c981af","system_id":"levelo_inurba_marseille","lat":43.280784,"lon":5.396622,"is_reserved":false,"is_disabled":false,"rental_uris":{"android":"levelo://app?vid=ee425127-e6b4-4db3-8522-235750c981af","ios":"levelo://app?vid=ee425127-e6b4-4db3-8522-235750c981af"},"vehicle_type_id":"4","last_reported":1686416757,"current_range_meters":0,"station_id":"ce4bho12rcd13ifvqh2g","pricing_plan_id":"free"},{"bike_id":"bc3b5b32-b2af-4dfa-8e81-4a926ca94a2c","system_id":"levelo_inurba_marseille","lat":43.27577,"lon":5.38422,"is_reserved":false,"is_disabled":false,"rental_uris":{"android":"levelo://app?vid=bc3b5b32-b2af-4dfa-8e81-4a926ca94a2c","ios":"levelo://app?vid=bc3b5b32-b2af-4dfa-8e81-4a926ca94a2c"},"vehicle_type_id":"4","last_reported":1686416757,"current_range_meters":18400,"station_id":"","pricing_plan_id":"free"},{"bike_id":"87302f0e-7ca0-43cd-a812-a4ae000fed3c","system_id":"levelo_inurba_marseille","lat":43.273609,"lon":5.362708,"is_reserved":false,"is_disabled":false,"rental_uris":{"android":"levelo://app?vid=87302f0e-7ca0-43cd-a812-a4ae000fed3c","ios":"levelo://app?vid=87302f0e-7ca0-43cd-a812-a4ae000fed3c"},"vehicle_type_id":"4","last_reported":1686416757,"current_range_meters":2800,"station_id":"ce4bhbh2rcd13ifvqeo0","pricing_plan_id":"free"},{"bike_id":"2a839302-639f-48fa-81e8-3d776494104f","system_id":"levelo_inurba_marseille","lat":43.273609,"lon":5.362708,"is_reserved":false,"is_disabled":false,"rental_uris":{"android":"levelo://app?vid=2a839302-639f-48fa-81e8-3d776494104f","ios":"levelo://app?vid=2a839302-639f-48fa-81e8-3d776494104f"},"vehicle_type_id":"4","last_reported":1686416757,"current_range_meters":2400,"station_id":"ce4bhbh2rcd13ifvqeo0","pricing_plan_id":"free"},{"bike_id":"5d0612c0-b331-4e83-89f4-48858ddc4741","system_id":"levelo_inurba_marseille","lat":43.33616,"lon":5.41016,"is_reserved":false,"is_disabled":false,"rental_uris":{"android":"levelo://app?vid=5d0612c0-b331-4e83-89f4-48858ddc4741","ios":"levelo://app?vid=5d0612c0-b331-4e83-89f4-48858ddc4741"},"vehicle_type_id":"4","last_reported":1686416757,"current_range_meters":31200,"station_id":"ce4bhqh2rcd13ifvqhmg","pricing_plan_id":"free"},{"bike_id":"999a2447-8a1b-46eb-b4a9-89d3aabdaa41","system_id":"levelo_inurba_marseille","lat":43.30417,"lon":5.42546,"is_reserved":false,"is_disabled":false,"rental_uris":{"android":"levelo://app?vid=999a2447-8a1b-46eb-b4a9-89d3aabdaa41","ios":"levelo://app?vid=999a2447-8a1b-46eb-b4a9-89d3aabdaa41"},"vehicle_type_id":"4","last_reported":1686416757,"current_range_meters":24400,"station_id":"ce4bhoh2rcd13ifvqh6g","pricing_plan_id":"free"},{"bike_id":"7aacb9cc-c9b5-4b15-8ee8-c353965a2fd7","system_id":"levelo_inurba_marseille","lat":43.269467,"lon":5.386439,"is_reserved":false,"is_disabled":false,"rental_uris":{"android":"levelo://app?vid=7aacb9cc-c9b5-4b15-8ee8-c353965a2fd7","ios":"levelo://app?vid=7aacb9cc-c9b5-4b15-8ee8-c353965a2fd7"},"vehicle_type_id":"4","last_reported":1686416757,"current_range_meters":2400,"station_id":"ce4bhh92rcd13ifvqfh0","pricing_plan_id":"free"},{"bike_id":"9eb2c780-9359-49e9-8d50-b1284e9b05bf","system_id":"levelo_inurba_marseille","lat":43.269467,"lon":5.386439,"is_reserved":false,"is_disabled":false,"rental_uris":{"android":"levelo://app?vid=9eb2c780-9359-49e9-8d50-b1284e9b05bf","ios":"levelo://app?vid=9eb2c780-9359-49e9-8d50-b1284e9b05bf"},"vehicle_type_id":"4","last_reported":1686416757,"current_range_meters":1600,"station_id":"ce4bhh92rcd13ifvqfh0","pricing_plan_id":"free"},{"bike_id":"e09c3f44-8b09-4a14-9afd-6022d58ab0ea","system_id":"levelo_inurba_marseille","lat":43.269467,"lon":5.386439,"is_reserved":false,"is_disabled":false,"rental_uris":{"android":"levelo://app?vid=e09c3f44-8b09-4a14-9afd-6022d58ab0ea","ios":"levelo://app?vid=e09c3f44-8b09-4a14-9afd-6022d58ab0ea"},"vehicle_type_id":"4","last_reported":1686416757,"current_range_meters":25600,"station_id":"ce4bhh92rcd13ifvqfh0","pricing_plan_id":"free"},{"bike_id":"15f2d771-48c2-4f49-8871-4f62d26ecd83","system_id":"levelo_inurba_marseille","lat":43.27996,"lon":5.416624,"is_reserved":false,"is_disabled":false,"rental_uris":{"android":"levelo://app?vid=15f2d771-48c2-4f49-8871-4f62d26ecd83","ios":"levelo://app?vid=15f2d771-48c2-4f49-8871-4f62d26ecd83"},"vehicle_type_id":"4","last_reported":1686416757,"current_range_meters":0,"station_id":"ce4bho12rcd13ifvqh1g","pricing_plan_id":"free"},{"bike_id":"447c63d4-a54e-46c0-af21-498e3fcd85ce","system_id":"levelo_inurba_marseille","lat":43.33071,"lon":5.42948,"is_reserved":false,"is_disabled":false,"rental_uris":{"android":"levelo://app?vid=447c63d4-a54e-46c0-af21-498e3fcd85ce","ios":"levelo://app?vid=447c63d4-a54e-46c0-af21-498e3fcd85ce"},"vehicle_type_id":"4","last_reported":1686416757,"current_range_meters":21200,"station_id":"","pricing_plan_id":"free"},{"bike_id":"8bae052b-3edc-4345-85b1-d116189b7c89","system_id":"levelo_inurba_marseille","lat":43.33067,"lon":5.42966,"is_reserved":false,"is_disabled":false,"rental_uris":{"android":"levelo://app?vid=8bae052b-3edc-4345-85b1-d116189b7c89","ios":"levelo://app?vid=8bae052b-3edc-4345-85b1-d116189b7c89"},"vehicle_type_id":"4","last_reported":1686416757,"current_range_meters":12400,"station_id":"","pricing_plan_id":"free"},{"bike_id":"6853ea80-78f9-4825-8105-002e10c67b8f","system_id":"levelo_inurba_marseille","lat":43.33067,"lon":5.42969,"is_reserved":false,"is_disabled":false,"rental_uris":{"android":"levelo://app?vid=6853ea80-78f9-4825-8105-002e10c67b8f","ios":"levelo://app?vid=6853ea80-78f9-4825-8105-002e10c67b8f"},"vehicle_type_id":"4","last_reported":1686416757,"current_range_meters":18400,"station_id":"","pricing_plan_id":"free"},{"bike_id":"09706511-9637-4cfb-a8cf-69d9cc386777","system_id":"levelo_inurba_marseille","lat":43.27114,"lon":5.40329,"is_reserved":false,"is_disabled":false,"rental_uris":{"android":"levelo://app?vid=09706511-9637-4cfb-a8cf-69d9cc386777","ios":"levelo://app?vid=09706511-9637-4cfb-a8cf-69d9cc386777"},"vehicle_type_id":"4","last_reported":1686416757,"current_range_meters":28800,"station_id":"","pricing_plan_id":"free"},{"bike_id":"1e50d4c5-46cf-4d7c-9130-3b1369edbffb","system_id":"levelo_inurba_marseille","lat":43.27555,"lon":5.41284,"is_reserved":false,"is_disabled":false,"rental_uris":{"android":"levelo://app?vid=1e50d4c5-46cf-4d7c-9130-3b1369edbffb","ios":"levelo://app?vid=1e50d4c5-46cf-4d7c-9130-3b1369edbffb"},"vehicle_type_id":"4","last_reported":1686416757,"current_range_meters":19600,"station_id":"","pricing_plan_id":"free"},{"bike_id":"cc655f33-7e9e-4745-bdc6-9838516ec4c9","system_id":"levelo_inurba_marseille","lat":43.231919,"lon":5.355532,"is_reserved":false,"is_disabled":false,"rental_uris":{"android":"levelo://app?vid=cc655f33-7e9e-4745-bdc6-9838516ec4c9","ios":"levelo://app?vid=cc655f33-7e9e-4745-bdc6-9838516ec4c9"},"vehicle_type_id":"4","last_reported":1686416757,"current_range_meters":2000,"station_id":"ce4bhu92rcd13ifvqi70","pricing_plan_id":"free"},{"bike_id":"91d94c71-8533-4efc-a134-db40f05119ac","system_id":"levelo_inurba_marseille","lat":43.26234,"lon":5.37046,"is_reserved":false,"is_disabled":false,"rental_uris":{"android":"levelo://app?vid=91d94c71-8533-4efc-a134-db40f05119ac","ios":"levelo://app?vid=91d94c71-8533-4efc-a134-db40f05119ac"},"vehicle_type_id":"4","last_reported":1686416757,"current_range_meters":16000,"station_id":"","pricing_plan_id":"free"},{"bike_id":"0a8dfe5b-594e-4f5b-9bdd-96241df413fc","system_id":"levelo_inurba_marseille","lat":43.261782,"lon":5.374515,"is_reserved":false,"is_disabled":false,"rental_uris":{"android":"levelo://app?vid=0a8dfe5b-594e-4f5b-9bdd-96241df413fc","ios":"levelo://app?vid=0a8dfe5b-594e-4f5b-9bdd-96241df413fc"},"vehicle_type_id":"4","last_reported":1686416757,"current_range_meters":8400,"station_id":"ce4bhgp2rcd13ifvqfc0","pricing_plan_id":"free"},{"bike_id":"8e920f77-983f-4229-98ed-76d9d541cfc9","system_id":"levelo_inurba_marseille","lat":43.27184,"lon":5.40988,"is_reserved":false,"is_disabled":false,"rental_uris":{"android":"levelo://app?vid=8e920f77-983f-4229-98ed-76d9d541cfc9","ios":"levelo://app?vid=8e920f77-983f-4229-98ed-76d9d541cfc9"},"vehicle_type_id":"4","last_reported":1686416757,"current_range_meters":12000,"station_id":"","pricing_plan_id":"free"},{"bike_id":"d1ec23aa-41f6-44c8-b08d-1930ca296976","system_id":"levelo_inurba_marseille","lat":43.27183,"lon":5.40994,"is_reserved":false,"is_disabled":false,"rental_uris":{"android":"levelo://app?vid=d1ec23aa-41f6-44c8-b08d-1930ca296976","ios":"levelo://app?vid=d1ec23aa-41f6-44c8-b08d-1930ca296976"},"vehicle_type_id":"4","last_reported":1686416757,"current_range_meters":10000,"station_id":"","pricing_plan_id":"free"},{"bike_id":"70ace59c-b8ca-41c5-81b6-224329f6958b","system_id":"levelo_inurba_marseille","lat":43.262012,"lon":5.379307,"is_reserved":false,"is_disabled":false,"rental_uris":{"android":"levelo://app?vid=70ace59c-b8ca-41c5-81b6-224329f6958b","ios":"levelo://app?vid=70ace59c-b8ca-41c5-81b6-224329f6958b"},"vehicle_type_id":"4","last_reported":1686416757,"current_range_meters":0,"station_id":"ce4bhjp2rcd13ifvqg90","pricing_plan_id":"free"},{"bike_id":"90aeef16-9344-4f26-8498-774e690c095d","system_id":"levelo_inurba_marseille","lat":43.267959,"lon":5.402685,"is_reserved":false,"is_disabled":false,"rental_uris":{"android":"levelo://app?vid=90aeef16-9344-4f26-8498-774e690c095d","ios":"levelo://app?vid=90aeef16-9344-4f26-8498-774e690c095d"},"vehicle_type_id":"4","last_reported":1686416757,"current_range_meters":19600,"station_id":"ce501612rcd8frsf0b60","pricing_plan_id":"free"},{"bike_id":"387dda57-7343-4db6-bc10-20db60e7dca6","system_id":"levelo_inurba_marseille","lat":43.27167,"lon":5.40993,"is_reserved":false,"is_disabled":false,"rental_uris":{"android":"levelo://app?vid=387dda57-7343-4db6-bc10-20db60e7dca6","ios":"levelo://app?vid=387dda57-7343-4db6-bc10-20db60e7dca6"},"vehicle_type_id":"4","last_reported":1686416757,"current_range_meters":5200,"station_id":"","pricing_plan_id":"free"},{"bike_id":"a3d8898c-42ea-4424-b229-590f5f81bdad","system_id":"levelo_inurba_marseille","lat":43.26365,"lon":5.39252,"is_reserved":false,"is_disabled":false,"rental_uris":{"android":"levelo://app?vid=a3d8898c-42ea-4424-b229-590f5f81bdad","ios":"levelo://app?vid=a3d8898c-42ea-4424-b229-590f5f81bdad"},"vehicle_type_id":"4","last_reported":1686416757,"current_range_meters":15600,"station_id":"","pricing_plan_id":"free"},{"bike_id":"8198bf1c-107d-495f-b226-50acd880893f","system_id":"levelo_inurba_marseille","lat":43.298768,"lon":5.43643,"is_reserved":false,"is_disabled":false,"rental_uris":{"android":"levelo://app?vid=8198bf1c-107d-495f-b226-50acd880893f","ios":"levelo://app?vid=8198bf1c-107d-495f-b226-50acd880893f"},"vehicle_type_id":"4","last_reported":1686416757,"current_range_meters":29200,"station_id":"ce4bhpp2rcd13ifvqhfg","pricing_plan_id":"free"},{"bike_id":"a5b17771-de25-459f-a635-b718575b3b69","system_id":"levelo_inurba_marseille","lat":43.29902,"lon":5.43682,"is_reserved":false,"is_disabled":false,"rental_uris":{"android":"levelo://app?vid=a5b17771-de25-459f-a635-b718575b3b69","ios":"levelo://app?vid=a5b17771-de25-459f-a635-b718575b3b69"},"vehicle_type_id":"4","last_reported":1686416757,"current_range_meters":21200,"station_id":"","pricing_plan_id":"free"},{"bike_id":"0abd466f-ae7a-4789-a218-e3b2c168a2b3","system_id":"levelo_inurba_marseille","lat":43.25961,"lon":5.3755,"is_reserved":false,"is_disabled":false,"rental_uris":{"android":"levelo://app?vid=0abd466f-ae7a-4789-a218-e3b2c168a2b3","ios":"levelo://app?vid=0abd466f-ae7a-4789-a218-e3b2c168a2b3"},"vehicle_type_id":"4","last_reported":1686416757,"current_range_meters":1600,"station_id":"","pricing_plan_id":"free"},{"bike_id":"bd5da142-9e08-421a-929d-5d8b54469f1b","system_id":"levelo_inurba_marseille","lat":43.26782,"lon":5.41148,"is_reserved":false,"is_disabled":false,"rental_uris":{"android":"levelo://app?vid=bd5da142-9e08-421a-929d-5d8b54469f1b","ios":"levelo://app?vid=bd5da142-9e08-421a-929d-5d8b54469f1b"},"vehicle_type_id":"4","last_reported":1686416757,"current_range_meters":15600,"station_id":"","pricing_plan_id":"free"},{"bike_id":"f5950f01-5980-4665-aaa6-1d3ec17181c8","system_id":"levelo_inurba_marseille","lat":43.2607,"lon":5.393983,"is_reserved":false,"is_disabled":false,"rental_uris":{"android":"levelo://app?vid=f5950f01-5980-4665-aaa6-1d3ec17181c8","ios":"levelo://app?vid=f5950f01-5980-4665-aaa6-1d3ec17181c8"},"vehicle_type_id":"4","last_reported":1686416757,"current_range_meters":5600,"station_id":"ce4bhh92rcd13ifvqfj0","pricing_plan_id":"free"},{"bike_id":"e84f9986-654a-49b7-9d97-df5b3f3e1bd0","system_id":"levelo_inurba_marseille","lat":43.275028,"lon":5.424534,"is_reserved":false,"is_disabled":false,"rental_uris":{"android":"levelo://app?vid=e84f9986-654a-49b7-9d97-df5b3f3e1bd0","ios":"levelo://app?vid=e84f9986-654a-49b7-9d97-df5b3f3e1bd0"},"vehicle_type_id":"4","last_reported":1686416757,"current_range_meters":18000,"station_id":"ce4bhn92rcd13ifvqgrg","pricing_plan_id":"free"},{"bike_id":"8362e633-701d-430c-ac6c-21badf738d70","system_id":"levelo_inurba_marseille","lat":43.275028,"lon":5.424534,"is_reserved":false,"is_disabled":false,"rental_uris":{"android":"levelo://app?vid=8362e633-701d-430c-ac6c-21badf738d70","ios":"levelo://app?vid=8362e633-701d-430c-ac6c-21badf738d70"},"vehicle_type_id":"4","last_reported":1686416757,"current_range_meters":20400,"station_id":"ce4bhn92rcd13ifvqgrg","pricing_plan_id":"free"},{"bike_id":"c2131edf-b958-481a-bfa2-f7e37202c14d","system_id":"levelo_inurba_marseille","lat":43.26083,"lon":5.39769,"is_reserved":false,"is_disabled":false,"rental_uris":{"android":"levelo://app?vid=c2131edf-b958-481a-bfa2-f7e37202c14d","ios":"levelo://app?vid=c2131edf-b958-481a-bfa2-f7e37202c14d"},"vehicle_type_id":"4","last_reported":1686416757,"current_range_meters":7200,"station_id":"ce4bhi12rcd13ifvqfq0","pricing_plan_id":"free"},{"bike_id":"a781a343-b241-4f95-ab3c-8b2df648c6cb","system_id":"levelo_inurba_marseille","lat":43.33312,"lon":5.44167,"is_reserved":false,"is_disabled":false,"rental_uris":{"android":"levelo://app?vid=a781a343-b241-4f95-ab3c-8b2df648c6cb","ios":"levelo://app?vid=a781a343-b241-4f95-ab3c-8b2df648c6cb"},"vehicle_type_id":"4","last_reported":1686416757,"current_range_meters":5200,"station_id":"","pricing_plan_id":"free"},{"bike_id":"aa069271-70bd-41fe-9bb6-f9833cddad4b","system_id":"levelo_inurba_marseille","lat":43.27072,"lon":5.42281,"is_reserved":false,"is_disabled":false,"rental_uris":{"android":"levelo://app?vid=aa069271-70bd-41fe-9bb6-f9833cddad4b","ios":"levelo://app?vid=aa069271-70bd-41fe-9bb6-f9833cddad4b"},"vehicle_type_id":"4","last_reported":1686416757,"current_range_meters":31200,"station_id":"ce4bhk92rcd13ifvqgb0","pricing_plan_id":"free"},{"bike_id":"ea75c2c5-8561-4314-a103-38c08005ff32","system_id":"levelo_inurba_marseille","lat":43.270721,"lon":5.422764,"is_reserved":false,"is_disabled":false,"rental_uris":{"android":"levelo://app?vid=ea75c2c5-8561-4314-a103-38c08005ff32","ios":"levelo://app?vid=ea75c2c5-8561-4314-a103-38c08005ff32"},"vehicle_type_id":"4","last_reported":1686416757,"current_range_meters":20400,"station_id":"ce4bhk92rcd13ifvqgb0","pricing_plan_id":"free"},{"bike_id":"8c1d53ba-5a6e-4bae-8086-4dbf4d87f924","system_id":"levelo_inurba_marseille","lat":43.25175,"lon":5.37342,"is_reserved":false,"is_disabled":false,"rental_uris":{"android":"levelo://app?vid=8c1d53ba-5a6e-4bae-8086-4dbf4d87f924","ios":"levelo://app?vid=8c1d53ba-5a6e-4bae-8086-4dbf4d87f924"},"vehicle_type_id":"4","last_reported":1686416757,"current_range_meters":31200,"station_id":"","pricing_plan_id":"free"},{"bike_id":"ca1a9c22-9bd1-404d-bca0-3066cc8ae75a","system_id":"levelo_inurba_marseille","lat":43.259013,"lon":5.409301,"is_reserved":false,"is_disabled":false,"rental_uris":{"android":"levelo://app?vid=ca1a9c22-9bd1-404d-bca0-3066cc8ae75a","ios":"levelo://app?vid=ca1a9c22-9bd1-404d-bca0-3066cc8ae75a"},"vehicle_type_id":"4","last_reported":1686416757,"current_range_meters":0,"station_id":"ce4bhm92rcd13ifvqglg","pricing_plan_id":"free"},{"bike_id":"877037ec-53a0-4b34-988f-d216cea3fc27","system_id":"levelo_inurba_marseille","lat":43.250009,"lon":5.389195,"is_reserved":false,"is_disabled":false,"rental_uris":{"android":"levelo://app?vid=877037ec-53a0-4b34-988f-d216cea3fc27","ios":"levelo://app?vid=877037ec-53a0-4b34-988f-d216cea3fc27"},"vehicle_type_id":"4","last_reported":1686416757,"current_range_meters":28800,"station_id":"ce4bhgp2rcd13ifvqfd0","pricing_plan_id":"free"},{"bike_id":"fe2319c5-92a9-4ae7-8ce1-1181054965d9","system_id":"levelo_inurba_marseille","lat":43.2479,"lon":5.374457,"is_reserved":false,"is_disabled":false,"rental_uris":{"android":"levelo://app?vid=fe2319c5-92a9-4ae7-8ce1-1181054965d9","ios":"levelo://app?vid=fe2319c5-92a9-4ae7-8ce1-1181054965d9"},"vehicle_type_id":"4","last_reported":1686416757,"current_range_meters":9600,"station_id":"ce4bhgh2rcd13ifvqfb0","pricing_plan_id":"free"},{"bike_id":"587e86c3-c119-46f1-93ae-bb340a8f42cf","system_id":"levelo_inurba_marseille","lat":43.24992,"lon":5.38945,"is_reserved":false,"is_disabled":false,"rental_uris":{"android":"levelo://app?vid=587e86c3-c119-46f1-93ae-bb340a8f42cf","ios":"levelo://app?vid=587e86c3-c119-46f1-93ae-bb340a8f42cf"},"vehicle_type_id":"4","last_reported":1686416757,"current_range_meters":28800,"station_id":"ce4bhgp2rcd13ifvqfd0","pricing_plan_id":"free"},{"bike_id":"a3b17d08-1924-438f-891e-cee8cdbee293","system_id":"levelo_inurba_marseille","lat":43.2479,"lon":5.374457,"is_reserved":false,"is_disabled":false,"rental_uris":{"android":"levelo://app?vid=a3b17d08-1924-438f-891e-cee8cdbee293","ios":"levelo://app?vid=a3b17d08-1924-438f-891e-cee8cdbee293"},"vehicle_type_id":"4","last_reported":1686416757,"current_range_meters":11600,"station_id":"ce4bhgh2rcd13ifvqfb0","pricing_plan_id":"free"},{"bike_id":"b47c872d-f68d-4b89-b988-06deb24c6ec5","system_id":"levelo_inurba_marseille","lat":43.24666,"lon":5.38162,"is_reserved":false,"is_disabled":false,"rental_uris":{"android":"levelo://app?vid=b47c872d-f68d-4b89-b988-06deb24c6ec5","ios":"levelo://app?vid=b47c872d-f68d-4b89-b988-06deb24c6ec5"},"vehicle_type_id":"4","last_reported":1686416757,"current_range_meters":11600,"station_id":"","pricing_plan_id":"free"},{"bike_id":"cf14ea0a-2eee-4e43-81f4-3ee9e2ee8f2c","system_id":"levelo_inurba_marseille","lat":43.24693,"lon":5.382096,"is_reserved":false,"is_disabled":false,"rental_uris":{"android":"levelo://app?vid=cf14ea0a-2eee-4e43-81f4-3ee9e2ee8f2c","ios":"levelo://app?vid=cf14ea0a-2eee-4e43-81f4-3ee9e2ee8f2c"},"vehicle_type_id":"4","last_reported":1686416757,"current_range_meters":400,"station_id":"ce4bhih2rcd13ifvqfr0","pricing_plan_id":"free"},{"bike_id":"7864ac60-33a6-4814-b927-650e67606b32","system_id":"levelo_inurba_marseille","lat":43.24693,"lon":5.382096,"is_reserved":false,"is_disabled":false,"rental_uris":{"android":"levelo://app?vid=7864ac60-33a6-4814-b927-650e67606b32","ios":"levelo://app?vid=7864ac60-33a6-4814-b927-650e67606b32"},"vehicle_type_id":"4","last_reported":1686416757,"current_range_meters":22800,"station_id":"ce4bhih2rcd13ifvqfr0","pricing_plan_id":"free"},{"bike_id":"7972fe64-a07e-4679-a65c-48b102d3b44c","system_id":"levelo_inurba_marseille","lat":43.24693,"lon":5.382096,"is_reserved":false,"is_disabled":false,"rental_uris":{"android":"levelo://app?vid=7972fe64-a07e-4679-a65c-48b102d3b44c","ios":"levelo://app?vid=7972fe64-a07e-4679-a65c-48b102d3b44c"},"vehicle_type_id":"4","last_reported":1686416757,"current_range_meters":18400,"station_id":"ce4bhih2rcd13ifvqfr0","pricing_plan_id":"free"},{"bike_id":"b749ec5b-4da6-40b3-b650-b39cddb31554","system_id":"levelo_inurba_marseille","lat":43.24662,"lon":5.3817,"is_reserved":false,"is_disabled":false,"rental_uris":{"android":"levelo://app?vid=b749ec5b-4da6-40b3-b650-b39cddb31554","ios":"levelo://app?vid=b749ec5b-4da6-40b3-b650-b39cddb31554"},"vehicle_type_id":"4","last_reported":1686416757,"current_range_meters":7600,"station_id":"","pricing_plan_id":"free"},{"bike_id":"d6a2bf40-f487-462c-ac15-f2adc6900c0b","system_id":"levelo_inurba_marseille","lat":43.24659,"lon":5.3816,"is_reserved":false,"is_disabled":false,"rental_uris":{"android":"levelo://app?vid=d6a2bf40-f487-462c-ac15-f2adc6900c0b","ios":"levelo://app?vid=d6a2bf40-f487-462c-ac15-f2adc6900c0b"},"vehicle_type_id":"4","last_reported":1686416757,"current_range_meters":12400,"station_id":"","pricing_plan_id":"free"},{"bike_id":"de7a0eff-c3bf-4ae5-b8e8-00227e964efc","system_id":"levelo_inurba_marseille","lat":43.25102,"lon":5.403214,"is_reserved":false,"is_disabled":false,"rental_uris":{"android":"levelo://app?vid=de7a0eff-c3bf-4ae5-b8e8-00227e964efc","ios":"levelo://app?vid=de7a0eff-c3bf-4ae5-b8e8-00227e964efc"},"vehicle_type_id":"4","last_reported":1686416757,"current_range_meters":11600,"station_id":"ce4bhlh2rcd13ifvqgig","pricing_plan_id":"free"},{"bike_id":"70d58ed8-cd7d-48d9-a5e6-3c4a9ff94e79","system_id":"levelo_inurba_marseille","lat":43.246461,"lon":5.389014,"is_reserved":false,"is_disabled":false,"rental_uris":{"android":"levelo://app?vid=70d58ed8-cd7d-48d9-a5e6-3c4a9ff94e79","ios":"levelo://app?vid=70d58ed8-cd7d-48d9-a5e6-3c4a9ff94e79"},"vehicle_type_id":"4","last_reported":1686416757,"current_range_meters":28800,"station_id":"ce4bhg12rcd13ifvqf60","pricing_plan_id":"free"},{"bike_id":"a1d42821-4f26-492d-85e6-26bf9ab76b05","system_id":"levelo_inurba_marseille","lat":43.24644,"lon":5.38912,"is_reserved":false,"is_disabled":false,"rental_uris":{"android":"levelo://app?vid=a1d42821-4f26-492d-85e6-26bf9ab76b05","ios":"levelo://app?vid=a1d42821-4f26-492d-85e6-26bf9ab76b05"},"vehicle_type_id":"4","last_reported":1686416757,"current_range_meters":30400,"station_id":"ce4bhg12rcd13ifvqf60","pricing_plan_id":"free"},{"bike_id":"56d1d180-f50f-402b-9fee-f65564b63952","system_id":"levelo_inurba_marseille","lat":43.245581,"lon":5.395069,"is_reserved":false,"is_disabled":false,"rental_uris":{"android":"levelo://app?vid=56d1d180-f50f-402b-9fee-f65564b63952","ios":"levelo://app?vid=56d1d180-f50f-402b-9fee-f65564b63952"},"vehicle_type_id":"4","last_reported":1686416757,"current_range_meters":31200,"station_id":"ce4bhlp2rcd13ifvqgjg","pricing_plan_id":"free"},{"bike_id":"7b92bb4e-c37f-408a-b8c5-8d9651549545","system_id":"levelo_inurba_marseille","lat":43.29012,"lon":5.45985,"is_reserved":false,"is_disabled":false,"rental_uris":{"android":"levelo://app?vid=7b92bb4e-c37f-408a-b8c5-8d9651549545","ios":"levelo://app?vid=7b92bb4e-c37f-408a-b8c5-8d9651549545"},"vehicle_type_id":"4","last_reported":1686416757,"current_range_meters":21200,"station_id":"","pricing_plan_id":"free"},{"bike_id":"10b76708-6967-490a-a533-967bd3049e53","system_id":"levelo_inurba_marseille","lat":43.239588,"lon":5.366238,"is_reserved":false,"is_disabled":false,"rental_uris":{"android":"levelo://app?vid=10b76708-6967-490a-a533-967bd3049e53","ios":"levelo://app?vid=10b76708-6967-490a-a533-967bd3049e53"},"vehicle_type_id":"4","last_reported":1686416757,"current_range_meters":12800,"station_id":"ce4bhi12rcd13ifvqfp0","pricing_plan_id":"free"},{"bike_id":"e710428e-bfe9-40ae-bcba-c611a016b2fa","system_id":"levelo_inurba_marseille","lat":43.239588,"lon":5.366238,"is_reserved":false,"is_disabled":false,"rental_uris":{"android":"levelo://app?vid=e710428e-bfe9-40ae-bcba-c611a016b2fa","ios":"levelo://app?vid=e710428e-bfe9-40ae-bcba-c611a016b2fa"},"vehicle_type_id":"4","last_reported":1686416757,"current_range_meters":30800,"station_id":"ce4bhi12rcd13ifvqfp0","pricing_plan_id":"free"},{"bike_id":"82777177-4146-4f55-bb2c-55f07715a970","system_id":"levelo_inurba_marseille","lat":43.239588,"lon":5.366238,"is_reserved":false,"is_disabled":false,"rental_uris":{"android":"levelo://app?vid=82777177-4146-4f55-bb2c-55f07715a970","ios":"levelo://app?vid=82777177-4146-4f55-bb2c-55f07715a970"},"vehicle_type_id":"4","last_reported":1686416757,"current_range_meters":31200,"station_id":"ce4bhi12rcd13ifvqfp0","pricing_plan_id":"free"},{"bike_id":"a5ba3912-5bb4-4ecf-adab-dfee0d199d46","system_id":"levelo_inurba_marseille","lat":43.241782,"lon":5.397261,"is_reserved":false,"is_disabled":false,"rental_uris":{"android":"levelo://app?vid=a5ba3912-5bb4-4ecf-adab-dfee0d199d46","ios":"levelo://app?vid=a5ba3912-5bb4-4ecf-adab-dfee0d199d46"},"vehicle_type_id":"4","last_reported":1686416757,"current_range_meters":27200,"station_id":"ce4bhn12rcd13ifvqgpg","pricing_plan_id":"free"},{"bike_id":"3c0d63a1-bf77-4a3b-9def-ae8da33f563f","system_id":"levelo_inurba_marseille","lat":43.23852,"lon":5.38968,"is_reserved":false,"is_disabled":false,"rental_uris":{"android":"levelo://app?vid=3c0d63a1-bf77-4a3b-9def-ae8da33f563f","ios":"levelo://app?vid=3c0d63a1-bf77-4a3b-9def-ae8da33f563f"},"vehicle_type_id":"4","last_reported":1686416757,"current_range_meters":4400,"station_id":"","pricing_plan_id":"free"},{"bike_id":"12de3828-4c9c-4f12-a7b0-5aa63b2a0c06","system_id":"levelo_inurba_marseille","lat":43.24836,"lon":5.42359,"is_reserved":false,"is_disabled":false,"rental_uris":{"android":"levelo://app?vid=12de3828-4c9c-4f12-a7b0-5aa63b2a0c06","ios":"levelo://app?vid=12de3828-4c9c-4f12-a7b0-5aa63b2a0c06"},"vehicle_type_id":"4","last_reported":1686416757,"current_range_meters":18800,"station_id":"","pricing_plan_id":"free"},{"bike_id":"0101ec48-5f0a-4de8-a29e-d371dac1b744","system_id":"levelo_inurba_marseille","lat":43.23197,"lon":5.35566,"is_reserved":false,"is_disabled":false,"rental_uris":{"android":"levelo://app?vid=0101ec48-5f0a-4de8-a29e-d371dac1b744","ios":"levelo://app?vid=0101ec48-5f0a-4de8-a29e-d371dac1b744"},"vehicle_type_id":"4","last_reported":1686416757,"current_range_meters":30400,"station_id":"ce4bhu92rcd13ifvqi70","pricing_plan_id":"free"},{"bike_id":"caaba9e1-90eb-4e70-b41e-a2f6cceb3da1","system_id":"levelo_inurba_marseille","lat":43.231978,"lon":5.355523,"is_reserved":false,"is_disabled":false,"rental_uris":{"android":"levelo://app?vid=caaba9e1-90eb-4e70-b41e-a2f6cceb3da1","ios":"levelo://app?vid=caaba9e1-90eb-4e70-b41e-a2f6cceb3da1"},"vehicle_type_id":"4","last_reported":1686416757,"current_range_meters":16000,"station_id":"ce4bhu92rcd13ifvqi70","pricing_plan_id":"free"},{"bike_id":"9027a1ac-201d-41d4-8a6f-bd3ef1626537","system_id":"levelo_inurba_marseille","lat":43.231977,"lon":5.35552,"is_reserved":false,"is_disabled":false,"rental_uris":{"android":"levelo://app?vid=9027a1ac-201d-41d4-8a6f-bd3ef1626537","ios":"levelo://app?vid=9027a1ac-201d-41d4-8a6f-bd3ef1626537"},"vehicle_type_id":"4","last_reported":1686416757,"current_range_meters":18400,"station_id":"ce4bhu92rcd13ifvqi70","pricing_plan_id":"free"},{"bike_id":"a5ce98b6-cb35-48e7-a2c7-ffed384a2ec2","system_id":"levelo_inurba_marseille","lat":43.231923,"lon":5.355545,"is_reserved":false,"is_disabled":false,"rental_uris":{"android":"levelo://app?vid=a5ce98b6-cb35-48e7-a2c7-ffed384a2ec2","ios":"levelo://app?vid=a5ce98b6-cb35-48e7-a2c7-ffed384a2ec2"},"vehicle_type_id":"4","last_reported":1686416757,"current_range_meters":3200,"station_id":"ce4bhu92rcd13ifvqi70","pricing_plan_id":"free"},{"bike_id":"2285596b-418c-4ae4-adeb-01942313177b","system_id":"levelo_inurba_marseille","lat":43.23197,"lon":5.355545,"is_reserved":false,"is_disabled":false,"rental_uris":{"android":"levelo://app?vid=2285596b-418c-4ae4-adeb-01942313177b","ios":"levelo://app?vid=2285596b-418c-4ae4-adeb-01942313177b"},"vehicle_type_id":"4","last_reported":1686416757,"current_range_meters":28800,"station_id":"ce4bhu92rcd13ifvqi70","pricing_plan_id":"free"},{"bike_id":"bec282f4-4a68-44a7-80e0-183b1b1a5ddc","system_id":"levelo_inurba_marseille","lat":43.23196,"lon":5.35565,"is_reserved":false,"is_disabled":false,"rental_uris":{"android":"levelo://app?vid=bec282f4-4a68-44a7-80e0-183b1b1a5ddc","ios":"levelo://app?vid=bec282f4-4a68-44a7-80e0-183b1b1a5ddc"},"vehicle_type_id":"4","last_reported":1686416757,"current_range_meters":23600,"station_id":"ce4bhu92rcd13ifvqi70","pricing_plan_id":"free"},{"bike_id":"a0952f2b-d31a-496b-9aa3-f4ebb14eb140","system_id":"levelo_inurba_marseille","lat":43.23197,"lon":5.35544,"is_reserved":false,"is_disabled":false,"rental_uris":{"android":"levelo://app?vid=a0952f2b-d31a-496b-9aa3-f4ebb14eb140","ios":"levelo://app?vid=a0952f2b-d31a-496b-9aa3-f4ebb14eb140"},"vehicle_type_id":"4","last_reported":1686416757,"current_range_meters":2000,"station_id":"ce4bhu92rcd13ifvqi70","pricing_plan_id":"free"},{"bike_id":"03fc3b0c-1a1b-480a-8fc7-5bdacf8ef59b","system_id":"levelo_inurba_marseille","lat":43.231919,"lon":5.355532,"is_reserved":false,"is_disabled":false,"rental_uris":{"android":"levelo://app?vid=03fc3b0c-1a1b-480a-8fc7-5bdacf8ef59b","ios":"levelo://app?vid=03fc3b0c-1a1b-480a-8fc7-5bdacf8ef59b"},"vehicle_type_id":"4","last_reported":1686416757,"current_range_meters":31200,"station_id":"ce4bhu92rcd13ifvqi70","pricing_plan_id":"free"},{"bike_id":"a1305350-7b79-420e-b069-f189d8ad8c83","system_id":"levelo_inurba_marseille","lat":43.231964,"lon":5.355495,"is_reserved":false,"is_disabled":false,"rental_uris":{"android":"levelo://app?vid=a1305350-7b79-420e-b069-f189d8ad8c83","ios":"levelo://app?vid=a1305350-7b79-420e-b069-f189d8ad8c83"},"vehicle_type_id":"4","last_reported":1686416757,"current_range_meters":30800,"station_id":"ce4bhu92rcd13ifvqi70","pricing_plan_id":"free"},{"bike_id":"054948c7-b448-4f55-ae20-b964028de2df","system_id":"levelo_inurba_marseille","lat":43.231919,"lon":5.355532,"is_reserved":false,"is_disabled":false,"rental_uris":{"android":"levelo://app?vid=054948c7-b448-4f55-ae20-b964028de2df","ios":"levelo://app?vid=054948c7-b448-4f55-ae20-b964028de2df"},"vehicle_type_id":"4","last_reported":1686416757,"current_range_meters":4400,"station_id":"ce4bhu92rcd13ifvqi70","pricing_plan_id":"free"},{"bike_id":"f4055306-ed12-4770-965b-c3500487729e","system_id":"levelo_inurba_marseille","lat":43.23195,"lon":5.35554,"is_reserved":false,"is_disabled":false,"rental_uris":{"android":"levelo://app?vid=f4055306-ed12-4770-965b-c3500487729e","ios":"levelo://app?vid=f4055306-ed12-4770-965b-c3500487729e"},"vehicle_type_id":"4","last_reported":1686416757,"current_range_meters":31200,"station_id":"ce4bhu92rcd13ifvqi70","pricing_plan_id":"free"},{"bike_id":"0a59d98a-cb5b-422e-b761-8bf64f3c7b44","system_id":"levelo_inurba_marseille","lat":43.23195,"lon":5.35553,"is_reserved":false,"is_disabled":false,"rental_uris":{"android":"levelo://app?vid=0a59d98a-cb5b-422e-b761-8bf64f3c7b44","ios":"levelo://app?vid=0a59d98a-cb5b-422e-b761-8bf64f3c7b44"},"vehicle_type_id":"4","last_reported":1686416757,"current_range_meters":31200,"station_id":"ce4bhu92rcd13ifvqi70","pricing_plan_id":"free"},{"bike_id":"0b5585a7-1d9a-45ab-965c-a3ad5f00595e","system_id":"levelo_inurba_marseille","lat":43.23193,"lon":5.35569,"is_reserved":false,"is_disabled":false,"rental_uris":{"android":"levelo://app?vid=0b5585a7-1d9a-45ab-965c-a3ad5f00595e","ios":"levelo://app?vid=0b5585a7-1d9a-45ab-965c-a3ad5f00595e"},"vehicle_type_id":"4","last_reported":1686416757,"current_range_meters":16000,"station_id":"ce4bhu92rcd13ifvqi70","pricing_plan_id":"free"},{"bike_id":"718bf399-2a1b-4e23-8a46-7027c392538e","system_id":"levelo_inurba_marseille","lat":43.23193,"lon":5.35558,"is_reserved":false,"is_disabled":false,"rental_uris":{"android":"levelo://app?vid=718bf399-2a1b-4e23-8a46-7027c392538e","ios":"levelo://app?vid=718bf399-2a1b-4e23-8a46-7027c392538e"},"vehicle_type_id":"4","last_reported":1686416757,"current_range_meters":26800,"station_id":"ce4bhu92rcd13ifvqi70","pricing_plan_id":"free"},{"bike_id":"6fe4d5f9-fc0d-4509-8325-9e7e23bf55ba","system_id":"levelo_inurba_marseille","lat":43.23194,"lon":5.35542,"is_reserved":false,"is_disabled":false,"rental_uris":{"android":"levelo://app?vid=6fe4d5f9-fc0d-4509-8325-9e7e23bf55ba","ios":"levelo://app?vid=6fe4d5f9-fc0d-4509-8325-9e7e23bf55ba"},"vehicle_type_id":"4","last_reported":1686416757,"current_range_meters":24800,"station_id":"ce4bhu92rcd13ifvqi70","pricing_plan_id":"free"},{"bike_id":"987badf1-6864-4d73-bd5a-9314b906e12a","system_id":"levelo_inurba_marseille","lat":43.231928,"lon":5.355549,"is_reserved":false,"is_disabled":false,"rental_uris":{"android":"levelo://app?vid=987badf1-6864-4d73-bd5a-9314b906e12a","ios":"levelo://app?vid=987badf1-6864-4d73-bd5a-9314b906e12a"},"vehicle_type_id":"4","last_reported":1686416757,"current_range_meters":24800,"station_id":"ce4bhu92rcd13ifvqi70","pricing_plan_id":"free"},{"bike_id":"1cca9504-1ca6-4304-ae6b-96ac919e2b67","system_id":"levelo_inurba_marseille","lat":43.231929,"lon":5.355525,"is_reserved":false,"is_disabled":false,"rental_uris":{"android":"levelo://app?vid=1cca9504-1ca6-4304-ae6b-96ac919e2b67","ios":"levelo://app?vid=1cca9504-1ca6-4304-ae6b-96ac919e2b67"},"vehicle_type_id":"4","last_reported":1686416757,"current_range_meters":10800,"station_id":"ce4bhu92rcd13ifvqi70","pricing_plan_id":"free"},{"bike_id":"ca8f5a4a-5b38-40f9-8c6a-034efe1a91df","system_id":"levelo_inurba_marseille","lat":43.231924,"lon":5.355546,"is_reserved":false,"is_disabled":false,"rental_uris":{"android":"levelo://app?vid=ca8f5a4a-5b38-40f9-8c6a-034efe1a91df","ios":"levelo://app?vid=ca8f5a4a-5b38-40f9-8c6a-034efe1a91df"},"vehicle_type_id":"4","last_reported":1686416757,"current_range_meters":30000,"station_id":"ce4bhu92rcd13ifvqi70","pricing_plan_id":"free"},{"bike_id":"c63bbd7d-e8bf-4b1a-8c3d-53c96a698b13","system_id":"levelo_inurba_marseille","lat":43.23192,"lon":5.35548,"is_reserved":false,"is_disabled":false,"rental_uris":{"android":"levelo://app?vid=c63bbd7d-e8bf-4b1a-8c3d-53c96a698b13","ios":"levelo://app?vid=c63bbd7d-e8bf-4b1a-8c3d-53c96a698b13"},"vehicle_type_id":"4","last_reported":1686416757,"current_range_meters":31200,"station_id":"ce4bhu92rcd13ifvqi70","pricing_plan_id":"free"},{"bike_id":"aa5198ae-fb4d-4888-b807-d3bd63fcc7ff","system_id":"levelo_inurba_marseille","lat":43.23191,"lon":5.35551,"is_reserved":false,"is_disabled":false,"rental_uris":{"android":"levelo://app?vid=aa5198ae-fb4d-4888-b807-d3bd63fcc7ff","ios":"levelo://app?vid=aa5198ae-fb4d-4888-b807-d3bd63fcc7ff"},"vehicle_type_id":"4","last_reported":1686416757,"current_range_meters":30800,"station_id":"ce4bhu92rcd13ifvqi70","pricing_plan_id":"free"},{"bike_id":"08d5fc92-4c87-4bfc-a488-62152cdc28a8","system_id":"levelo_inurba_marseille","lat":43.23189,"lon":5.35554,"is_reserved":false,"is_disabled":false,"rental_uris":{"android":"levelo://app?vid=08d5fc92-4c87-4bfc-a488-62152cdc28a8","ios":"levelo://app?vid=08d5fc92-4c87-4bfc-a488-62152cdc28a8"},"vehicle_type_id":"4","last_reported":1686416757,"current_range_meters":31200,"station_id":"ce4bhu92rcd13ifvqi70","pricing_plan_id":"free"},{"bike_id":"c78af53f-fb28-403e-afaf-62f552a1a853","system_id":"levelo_inurba_marseille","lat":43.23188,"lon":5.35564,"is_reserved":false,"is_disabled":false,"rental_uris":{"android":"levelo://app?vid=c78af53f-fb28-403e-afaf-62f552a1a853","ios":"levelo://app?vid=c78af53f-fb28-403e-afaf-62f552a1a853"},"vehicle_type_id":"4","last_reported":1686416757,"current_range_meters":21600,"station_id":"ce4bhu92rcd13ifvqi70","pricing_plan_id":"free"},{"bike_id":"a04c8117-507b-446a-ae36-671f78db8cd5","system_id":"levelo_inurba_marseille","lat":43.231793,"lon":5.400044,"is_reserved":false,"is_disabled":false,"rental_uris":{"android":"levelo://app?vid=a04c8117-507b-446a-ae36-671f78db8cd5","ios":"levelo://app?vid=a04c8117-507b-446a-ae36-671f78db8cd5"},"vehicle_type_id":"4","last_reported":1686416757,"current_range_meters":31200,"station_id":"ce4bhn12rcd13ifvqgqg","pricing_plan_id":"free"},{"bike_id":"005a79c3-7dd7-4eb7-87e8-97a841a6054a","system_id":"levelo_inurba_marseille","lat":43.2319,"lon":5.39991,"is_reserved":false,"is_disabled":false,"rental_uris":{"android":"levelo://app?vid=005a79c3-7dd7-4eb7-87e8-97a841a6054a","ios":"levelo://app?vid=005a79c3-7dd7-4eb7-87e8-97a841a6054a"},"vehicle_type_id":"4","last_reported":1686416757,"current_range_meters":17600,"station_id":"ce4bhn12rcd13ifvqgqg","pricing_plan_id":"free"},{"bike_id":"074da808-e548-45d7-b6a1-8924ccf487a7","system_id":"levelo_inurba_marseille","lat":43.231794,"lon":5.400052,"is_reserved":false,"is_disabled":false,"rental_uris":{"android":"levelo://app?vid=074da808-e548-45d7-b6a1-8924ccf487a7","ios":"levelo://app?vid=074da808-e548-45d7-b6a1-8924ccf487a7"},"vehicle_type_id":"4","last_reported":1686416757,"current_range_meters":24000,"station_id":"ce4bhn12rcd13ifvqgqg","pricing_plan_id":"free"},{"bike_id":"16c24b60-a6f5-43c3-99a9-e67bb0123055","system_id":"levelo_inurba_marseille","lat":43.231794,"lon":5.400052,"is_reserved":false,"is_disabled":false,"rental_uris":{"android":"levelo://app?vid=16c24b60-a6f5-43c3-99a9-e67bb0123055","ios":"levelo://app?vid=16c24b60-a6f5-43c3-99a9-e67bb0123055"},"vehicle_type_id":"4","last_reported":1686416757,"current_range_meters":800,"station_id":"ce4bhn12rcd13ifvqgqg","pricing_plan_id":"free"}]}}