{"last_updated":1762694215,"ttl":60,"version":"2.2","data":{"bikes":[{"bike_id":"cc3d642d-c1e8-47c1-af66-d9349a9641ac","system_id":"levelo_inurba_marseille","lat":43.22554,"lon":5.41626,"is_reserved":false,"is_disabled":false,"rental_uris":{"android":"levelo://app?vid=cc3d642d-c1e8-47c1-af66-d9349a9641ac","ios":"levelo://app?vid=cc3d642d-c1e8-47c1-af66-d9349a9641ac"},"vehicle_type_id":"4","last_reported":1762694215,"current_range_meters":2800,"station_id":"st_d2o4gvlbi1j2169b742g","pricing_plan_id":"cebpf4jnsgd1na2vs0mg"},{"bike_id":"c03bd52b-534b-4ae1-bb73-924e391fe2f5","system_id":"levelo_inurba_marseille","lat":43.2551,"lon":5.37664,"is_reserved":false,"is_disabled":true,"rental_uris":{"android":"levelo://app?vid=c03bd52b-534b-4ae1-bb73-924e391fe2f5","ios":"levelo://app?vid=c03bd52b-534b-4ae1-bb73-924e391fe2f5"},"vehicle_type_id":"4","last_reported":1762694215,"current_range_meters":2800,"station_id":"ce4bhh12rcd13ifvqff0","pricing_plan_id":"cebpf4jnsgd1na2vs0mg"},{"bike_id":"c42fbb85-e4c9-4f8e-bf9e-988bab76fe1c","system_id":"levelo_inurba_marseille","lat":43.265613,"lon":5.390048,"is_reserved":false,"is_disabled":false,"rental_uris":{"android":"levelo://app?vid=c42fbb85-e4c9-4f8e-bf9e-988bab76fe1c","ios":"levelo://app?vid=c42fbb85-e4c9-4f8e-bf9e-988bab76fe1c"},"vehicle_type_id":"4","last_reported":1762694215,"current_range_meters":2800,"station_id":"ce4bhe12rcd13ifvqf30","pricing_plan_id":"cebpf4jnsgd1na2vs0mg"},{"bike_id":"3d5c101c-82a6-4eee-80ba-6e85b708be15","system_id":"levelo_inurba_marseille","lat":43.2119,"lon":5.35091,"is_reserved":false,"is_disabled":false,"rental_uris":{"android":"levelo://app?vid=3d5c101c-82a6-4eee-80ba-6e85b708be15","ios":"levelo://app?vid=3d5c101c-82a6-4eee-80ba-6e85b708be15"},"vehicle_type_id":"4","last_reported":1762694215,"current_range_meters":2800,"station_id":"st_cvj6sg6p6f1abm77japg","pricing_plan_id":"cebpf4jnsgd1na2vs0mg"},{"bike_id":"da020267-3a20-4584-9e80-3c72388d8ba6","system_id":"levelo_inurba_marseille","lat":43.29398,"lon":5.37376,"is_reserved":false,"is_disabled":false,"rental_uris":{"android":"levelo://app?vid=da020267-3a20-4584-9e80-3c72388d8ba6","ios":"levelo://app?vid=da020267-3a20-4584-9e80-3c72388d8ba6"},"vehicle_type_id":"4","last_reported":1762694215,"current_range_meters":2800,"station_id":"ce4bhhh2rcd13ifvqfk0","pricing_plan_id":"cebpf4jnsgd1na2vs0mg"},{"bike_id":"5e244f18-e691-49a5-ae19-cab1c18dc3e6","system_id":"levelo_inurba_marseille","lat":43.26695,"lon":5.38961,"is_reserved":false,"is_disabled":false,"rental_uris":{"android":"levelo://app?vid=5e244f18-e691-49a5-ae19-cab1c18dc3e6","ios":"levelo://app?vid=5e244f18-e691-49a5-ae19-cab1c18dc3e6"},"vehicle_type_id":"4","last_reported":1762694215,"current_range_meters":2800,"station_id":"ce4bgrh2rcd13ifvqc8g","pricing_plan_id":"cebpf4jnsgd1na2vs0mg"},{"bike_id":"348bf609-07f6-4ffc-add0-6df7615d023f","system_id":"levelo_inurba_marseille","lat":43.337669,"lon":5.37438,"is_reserved":false,"is_disabled":false,"rental_uris":{"android":"levelo://app?vid=348bf609-07f6-4ffc-add0-6df7615d023f","ios":"levelo://app?vid=348bf609-07f6-4ffc-add0-6df7615d023f"},"vehicle_type_id":"4","last_reported":1762694215,"current_range_meters":2800,"station_id":"","pricing_plan_id":"cebpf4jnsgd1na2vs0mg"},{"bike_id":"21dd7555-35f0-4252-8956-e0df9f5c47a9","system_id":"levelo_inurba_marseille","lat":43.26054,"lon":5.39401,"is_reserved":false,"is_disabled":false,"rental_uris":{"android":"levelo://app?vid=21dd7555-35f0-4252-8956-e0df9f5c47a9","ios":"levelo://app?vid=21dd7555-35f0-4252-8956-e0df9f5c47a9"},"vehicle_type_id":"4","last_reported":1762694215,"current_range_meters":2800,"station_id":"ce4bhh92rcd13ifvqfj0","pricing_plan_id":"cebpf4jnsgd1na2vs0mg"},{"bike_id":"25ee87f2-cef8-4fdd-8993-89a74a3852fe","system_id":"levelo_inurba_marseille","lat":43.31219,"lon":5.38701,"is_reserved":false,"is_disabled":false,"rental_uris":{"android":"levelo://app?vid=25ee87f2-cef8-4fdd-8993-89a74a3852fe","ios":"levelo://app?vid=25ee87f2-cef8-4fdd-8993-89a74a3852fe"},"vehicle_type_id":"4","last_reported":1762694215,"current_range_meters":2800,"station_id":"","pricing_plan_id":"cebpf4jnsgd1na2vs0mg"},{"bike_id":"34c14480-831b-41a9-b30b-a1e8f994a110","system_id":"levelo_inurba_marseille","lat":43.30812,"lon":5.37187,"is_reserved":false,"is_disabled":false,"rental_uris":{"android":"levelo://app?vid=34c14480-831b-41a9-b30b-a1e8f994a110","ios":"levelo://app?vid=34c14480-831b-41a9-b30b-a1e8f994a110"},"vehicle_type_id":"4","last_reported":1762694215,"current_range_meters":3200,"station_id":"","pricing_plan_id":"cebpf4jnsgd1na2vs0mg"},{"bike_id":"75bb4ab2-4ec3-458c-a1d7-1f6e211df785","system_id":"levelo_inurba_marseille","lat":43.2815,"lon":5.4264,"is_reserved":false,"is_disabled":false,"rental_uris":{"android":"levelo://app?vid=75bb4ab2-4ec3-458c-a1d7-1f6e211df785","ios":"levelo://app?vid=75bb4ab2-4ec3-458c-a1d7-1f6e211df785"},"vehicle_type_id":"4","last_reported":1762694215,"current_range_meters":3200,"station_id":"ce4bhnh2rcd13ifvqgug","pricing_plan_id":"cebpf4jnsgd1na2vs0mg"},{"bike_id":"b244e63f-2736-4592-bd42-3ed07c477bf1","system_id":"levelo_inurba_marseille","lat":43.30291,"lon":5.36935,"is_reserved":false,"is_disabled":false,"rental_uris":{"android":"levelo://app?vid=b244e63f-2736-4592-bd42-3ed07c477bf1","ios":"levelo://app?vid=b244e63f-2736-4592-bd42-3ed07c477bf1"},"vehicle_type_id":"4","last_reported":1762694215,"current_range_meters":3200,"station_id":"ce4bgqh2rcd13ifvqc5g","pricing_plan_id":"cebpf4jnsgd1na2vs0mg"},{"bike_id":"5bee8f0f-57fe-4257-a72a-04a4967570b5","system_id":"levelo_inurba_marseille","lat":43.300375,"lon":5.377162,"is_reserved":false,"is_disabled":false,"rental_uris":{"android":"levelo://app?vid=5bee8f0f-57fe-4257-a72a-04a4967570b5","ios":"levelo://app?vid=5bee8f0f-57fe-4257-a72a-04a4967570b5"},"vehicle_type_id":"4","last_reported":1762694215,"current_range_meters":3200,"station_id":"","pricing_plan_id":"cebpf4jnsgd1na2vs0mg"},{"bike_id":"ea058717-4dea-4931-bd40-83bfcbe91c54","system_id":"levelo_inurba_marseille","lat":43.26952,"lon":5.38631,"is_reserved":false,"is_disabled":false,"rental_uris":{"android":"levelo://app?vid=ea058717-4dea-4931-bd40-83bfcbe91c54","ios":"levelo://app?vid=ea058717-4dea-4931-bd40-83bfcbe91c54"},"vehicle_type_id":"4","last_reported":1762694215,"current_range_meters":3200,"station_id":"ce4bhh92rcd13ifvqfh0","pricing_plan_id":"cebpf4jnsgd1na2vs0mg"},{"bike_id":"b93e1c2a-ed94-4ee7-b38b-5610f0644bf6","system_id":"levelo_inurba_marseille","lat":43.26935,"lon":5.40262,"is_reserved":false,"is_disabled":false,"rental_uris":{"android":"levelo://app?vid=b93e1c2a-ed94-4ee7-b38b-5610f0644bf6","ios":"levelo://app?vid=b93e1c2a-ed94-4ee7-b38b-5610f0644bf6"},"vehicle_type_id":"4","last_reported":1762694215,"current_range_meters":3200,"station_id":"cjm6bp8fraef2m0cb0m0","pricing_plan_id":"cebpf4jnsgd1na2vs0mg"},{"bike_id":"912bacef-8341-41a8-a872-a80dbda9843a","system_id":"levelo_inurba_marseille","lat":43.30132,"lon":5.39882,"is_reserved":false,"is_disabled":true,"rental_uris":{"android":"levelo://app?vid=912bacef-8341-41a8-a872-a80dbda9843a","ios":"levelo://app?vid=912bacef-8341-41a8-a872-a80dbda9843a"},"vehicle_type_id":"4","last_reported":1762694215,"current_range_meters":3600,"station_id":"ce4bh0h2rcd13ifvqd40","pricing_plan_id":"cebpf4jnsgd1na2vs0mg"},{"bike_id":"4fa93e58-ad51-41bb-b7cd-c71dad4e22b9","system_id":"levelo_inurba_marseille","lat":43.21191,"lon":5.35077,"is_reserved":false,"is_disabled":true,"rental_uris":{"android":"levelo://app?vid=4fa93e58-ad51-41bb-b7cd-c71dad4e22b9","ios":"levelo://app?vid=4fa93e58-ad51-41bb-b7cd-c71dad4e22b9"},"vehicle_type_id":"4","last_reported":1762694215,"current_range_meters":3600,"station_id":"st_cvj6sg6p6f1abm77japg","pricing_plan_id":"cebpf4jnsgd1na2vs0mg"},{"bike_id":"f114550f-0e97-467f-a15f-491fe7ea5021","system_id":"levelo_inurba_marseille","lat":43.2933,"lon":5.37171,"is_reserved":false,"is_disabled":true,"rental_uris":{"android":"levelo://app?vid=f114550f-0e97-467f-a15f-491fe7ea5021","ios":"levelo://app?vid=f114550f-0e97-467f-a15f-491fe7ea5021"},"vehicle_type_id":"4","last_reported":1762694215,"current_range_meters":4000,"station_id":"ce4bgh92rcd13ifvqb40","pricing_plan_id":"cebpf4jnsgd1na2vs0mg"},{"bike_id":"2bda9569-8855-4749-9a29-a9c55ba153ed","system_id":"levelo_inurba_marseille","lat":43.22553,"lon":5.41638,"is_reserved":false,"is_disabled":false,"rental_uris":{"android":"levelo://app?vid=2bda9569-8855-4749-9a29-a9c55ba153ed","ios":"levelo://app?vid=2bda9569-8855-4749-9a29-a9c55ba153ed"},"vehicle_type_id":"4","last_reported":1762694215,"current_range_meters":4000,"station_id":"st_d2o4gvlbi1j2169b742g","pricing_plan_id":"cebpf4jnsgd1na2vs0mg"},{"bike_id":"3a4150e2-857d-4e7d-a453-4a6d40c36efc","system_id":"levelo_inurba_marseille","lat":43.225325,"lon":5.348343,"is_reserved":false,"is_disabled":false,"rental_uris":{"android":"levelo://app?vid=3a4150e2-857d-4e7d-a453-4a6d40c36efc","ios":"levelo://app?vid=3a4150e2-857d-4e7d-a453-4a6d40c36efc"},"vehicle_type_id":"4","last_reported":1762694215,"current_range_meters":4000,"station_id":"","pricing_plan_id":"cebpf4jnsgd1na2vs0mg"},{"bike_id":"c162ea56-eee8-42dc-bff5-7d89d622da47","system_id":"levelo_inurba_marseille","lat":43.28941,"lon":5.36638,"is_reserved":false,"is_disabled":false,"rental_uris":{"android":"levelo://app?vid=c162ea56-eee8-42dc-bff5-7d89d622da47","ios":"levelo://app?vid=c162ea56-eee8-42dc-bff5-7d89d622da47"},"vehicle_type_id":"4","last_reported":1762694215,"current_range_meters":4000,"station_id":"ce4bhap2rcd13ifvqek0","pricing_plan_id":"cebpf4jnsgd1na2vs0mg"},{"bike_id":"594d5e71-dd82-4fb4-bfb3-d1a7563a3fc5","system_id":"levelo_inurba_marseille","lat":43.24546,"lon":5.39521,"is_reserved":false,"is_disabled":false,"rental_uris":{"android":"levelo://app?vid=594d5e71-dd82-4fb4-bfb3-d1a7563a3fc5","ios":"levelo://app?vid=594d5e71-dd82-4fb4-bfb3-d1a7563a3fc5"},"vehicle_type_id":"4","last_reported":1762694215,"current_range_meters":4400,"station_id":"ce4bhlp2rcd13ifvqgjg","pricing_plan_id":"cebpf4jnsgd1na2vs0mg"},{"bike_id":"8b19ce32-3fd2-4d35-9616-dffbd1943dee","system_id":"levelo_inurba_marseille","lat":43.21196,"lon":5.35075,"is_reserved":false,"is_disabled":false,"rental_uris":{"android":"levelo://app?vid=8b19ce32-3fd2-4d35-9616-dffbd1943dee","ios":"levelo://app?vid=8b19ce32-3fd2-4d35-9616-dffbd1943dee"},"vehicle_type_id":"4","last_reported":1762694215,"current_range_meters":4800,"station_id":"st_cvj6sg6p6f1abm77japg","pricing_plan_id":"cebpf4jnsgd1na2vs0mg"},{"bike_id":"b9311ee7-e7f7-4720-a668-f2ef239d6b6e","system_id":"levelo_inurba_marseille","lat":43.21193,"lon":5.35069,"is_reserved":false,"is_disabled":false,"rental_uris":{"android":"levelo://app?vid=b9311ee7-e7f7-4720-a668-f2ef239d6b6e","ios":"levelo://app?vid=b9311ee7-e7f7-4720-a668-f2ef239d6b6e"},"vehicle_type_id":"4","last_reported":1762694215,"current_range_meters":4800,"station_id":"st_cvj6sg6p6f1abm77japg","pricing_plan_id":"cebpf4jnsgd1na2vs0mg"},{"bike_id":"a0ea519d-554f-42a0-93a3-d4c181552c78","system_id":"levelo_inurba_marseille","lat":43.31279,"lon":5.37752,"is_reserved":false,"is_disabled":false,"rental_uris":{"android":"levelo://app?vid=a0ea519d-554f-42a0-93a3-d4c181552c78","ios":"levelo://app?vid=a0ea519d-554f-42a0-93a3-d4c181552c78"},"vehicle_type_id":"4","last_reported":1762694215,"current_range_meters":4800,"station_id":"","pricing_plan_id":"cebpf4jnsgd1na2vs0mg"},{"bike_id":"0484b816-67fd-4425-b207-d6bb8a861766","system_id":"levelo_inurba_marseille","lat":43.230563,"lon":5.354869,"is_reserved":false,"is_disabled":false,"rental_uris":{"android":"levelo://app?vid=0484b816-67fd-4425-b207-d6bb8a861766","ios":"levelo://app?vid=0484b816-67fd-4425-b207-d6bb8a861766"},"vehicle_type_id":"4","last_reported":1762694215,"current_range_meters":4800,"station_id":"cpo3342slgdg3j2ifvpg","pricing_plan_id":"cebpf4jnsgd1na2vs0mg"},{"bike_id":"8e020290-5932-4578-9a45-53e87de685b1","system_id":"levelo_inurba_marseille","lat":43.24619,"lon":5.43168,"is_reserved":false,"is_disabled":false,"rental_uris":{"android":"levelo://app?vid=8e020290-5932-4578-9a45-53e87de685b1","ios":"levelo://app?vid=8e020290-5932-4578-9a45-53e87de685b1"},"vehicle_type_id":"4","last_reported":1762694215,"current_range_meters":4800,"station_id":"st_d2m6c4gdas8pm72e190g","pricing_plan_id":"cebpf4jnsgd1na2vs0mg"},{"bike_id":"4faf5e10-1799-47f7-a2b1-80eb0756337a","system_id":"levelo_inurba_marseille","lat":43.27073,"lon":5.383113,"is_reserved":false,"is_disabled":false,"rental_uris":{"android":"levelo://app?vid=4faf5e10-1799-47f7-a2b1-80eb0756337a","ios":"levelo://app?vid=4faf5e10-1799-47f7-a2b1-80eb0756337a"},"vehicle_type_id":"4","last_reported":1762694215,"current_range_meters":4800,"station_id":"st_d3n2fo6cfp8s73cte1j0","pricing_plan_id":"cebpf4jnsgd1na2vs0mg"},{"bike_id":"987d6c3c-4820-45b3-b99e-edf1ccb98e78","system_id":"levelo_inurba_marseille","lat":43.22559,"lon":5.41615,"is_reserved":false,"is_disabled":false,"rental_uris":{"android":"levelo://app?vid=987d6c3c-4820-45b3-b99e-edf1ccb98e78","ios":"levelo://app?vid=987d6c3c-4820-45b3-b99e-edf1ccb98e78"},"vehicle_type_id":"4","last_reported":1762694215,"current_range_meters":5600,"station_id":"st_d2o4gvlbi1j2169b742g","pricing_plan_id":"cebpf4jnsgd1na2vs0mg"},{"bike_id":"c8cdcda3-a96e-40ea-8a80-30f8629822ca","system_id":"levelo_inurba_marseille","lat":43.22925,"lon":5.35378,"is_reserved":false,"is_disabled":false,"rental_uris":{"android":"levelo://app?vid=c8cdcda3-a96e-40ea-8a80-30f8629822ca","ios":"levelo://app?vid=c8cdcda3-a96e-40ea-8a80-30f8629822ca"},"vehicle_type_id":"4","last_reported":1762694215,"current_range_meters":5600,"station_id":"cpo3532slgdg3j2ikp40","pricing_plan_id":"cebpf4jnsgd1na2vs0mg"},{"bike_id":"97fe665f-7fcb-4de7-ae2f-64bba041a1fb","system_id":"levelo_inurba_marseille","lat":43.28264,"lon":5.35062,"is_reserved":false,"is_disabled":false,"rental_uris":{"android":"levelo://app?vid=97fe665f-7fcb-4de7-ae2f-64bba041a1fb","ios":"levelo://app?vid=97fe665f-7fcb-4de7-ae2f-64bba041a1fb"},"vehicle_type_id":"4","last_reported":1762694215,"current_range_meters":5600,"station_id":"ce4bhbp2rcd13ifvqerg","pricing_plan_id":"cebpf4jnsgd1na2vs0mg"},{"bike_id":"3e6cdb8c-0f4b-4f3a-b934-3937b1708b1e","system_id":"levelo_inurba_marseille","lat":43.31224,"lon":5.36845,"is_reserved":false,"is_disabled":false,"rental_uris":{"android":"levelo://app?vid=3e6cdb8c-0f4b-4f3a-b934-3937b1708b1e","ios":"levelo://app?vid=3e6cdb8c-0f4b-4f3a-b934-3937b1708b1e"},"vehicle_type_id":"4","last_reported":1762694215,"current_range_meters":5600,"station_id":"ce4bgl92rcd13ifvqbq0","pricing_plan_id":"cebpf4jnsgd1na2vs0mg"},{"bike_id":"5c17ed12-8897-4f84-bbfc-85419a7f8038","system_id":"levelo_inurba_marseille","lat":43.27093,"lon":5.39423,"is_reserved":false,"is_disabled":false,"rental_uris":{"android":"levelo://app?vid=5c17ed12-8897-4f84-bbfc-85419a7f8038","ios":"levelo://app?vid=5c17ed12-8897-4f84-bbfc-85419a7f8038"},"vehicle_type_id":"4","last_reported":1762694215,"current_range_meters":5600,"station_id":"","pricing_plan_id":"cebpf4jnsgd1na2vs0mg"},{"bike_id":"63a92d10-2f0d-4b8e-affe-4cfbc4248545","system_id":"levelo_inurba_marseille","lat":43.21188,"lon":5.35083,"is_reserved":false,"is_disabled":false,"rental_uris":{"android":"levelo://app?vid=63a92d10-2f0d-4b8e-affe-4cfbc4248545","ios":"levelo://app?vid=63a92d10-2f0d-4b8e-affe-4cfbc4248545"},"vehicle_type_id":"4","last_reported":1762694215,"current_range_meters":5600,"station_id":"st_cvj6sg6p6f1abm77japg","pricing_plan_id":"cebpf4jnsgd1na2vs0mg"},{"bike_id":"5ec6be0d-4d3c-43a0-98a3-4557cfc6175b","system_id":"levelo_inurba_marseille","lat":43.30882,"lon":5.39654,"is_reserved":false,"is_disabled":false,"rental_uris":{"android":"levelo://app?vid=5ec6be0d-4d3c-43a0-98a3-4557cfc6175b","ios":"levelo://app?vid=5ec6be0d-4d3c-43a0-98a3-4557cfc6175b"},"vehicle_type_id":"4","last_reported":1762694215,"current_range_meters":5600,"station_id":"ce4bh012rcd13ifvqcv0","pricing_plan_id":"cebpf4jnsgd1na2vs0mg"},{"bike_id":"c0e935d5-2b78-4049-8c7e-bd7fb4571827","system_id":"levelo_inurba_marseille","lat":43.28939,"lon":5.36648,"is_reserved":false,"is_disabled":false,"rental_uris":{"android":"levelo://app?vid=c0e935d5-2b78-4049-8c7e-bd7fb4571827","ios":"levelo://app?vid=c0e935d5-2b78-4049-8c7e-bd7fb4571827"},"vehicle_type_id":"4","last_reported":1762694215,"current_range_meters":5600,"station_id":"ce4bhap2rcd13ifvqek0","pricing_plan_id":"cebpf4jnsgd1na2vs0mg"},{"bike_id":"3db9fe43-41a1-4035-970c-83d429b99f69","system_id":"levelo_inurba_marseille","lat":43.225208,"lon":5.348463,"is_reserved":false,"is_disabled":false,"rental_uris":{"android":"levelo://app?vid=3db9fe43-41a1-4035-970c-83d429b99f69","ios":"levelo://app?vid=3db9fe43-41a1-4035-970c-83d429b99f69"},"vehicle_type_id":"4","last_reported":1762694215,"current_range_meters":6000,"station_id":"ce4bhu92rcd13ifvqi70","pricing_plan_id":"cebpf4jnsgd1na2vs0mg"},{"bike_id":"c50510f3-b6ab-4c35-bdb9-53302850a2eb","system_id":"levelo_inurba_marseille","lat":43.28148,"lon":5.42654,"is_reserved":false,"is_disabled":false,"rental_uris":{"android":"levelo://app?vid=c50510f3-b6ab-4c35-bdb9-53302850a2eb","ios":"levelo://app?vid=c50510f3-b6ab-4c35-bdb9-53302850a2eb"},"vehicle_type_id":"4","last_reported":1762694215,"current_range_meters":6000,"station_id":"ce4bhnh2rcd13ifvqgug","pricing_plan_id":"cebpf4jnsgd1na2vs0mg"},{"bike_id":"26aad628-bd01-4664-890e-ba85447bad9f","system_id":"levelo_inurba_marseille","lat":43.303332,"lon":5.40429,"is_reserved":false,"is_disabled":true,"rental_uris":{"android":"levelo://app?vid=26aad628-bd01-4664-890e-ba85447bad9f","ios":"levelo://app?vid=26aad628-bd01-4664-890e-ba85447bad9f"},"vehicle_type_id":"4","last_reported":1762694215,"current_range_meters":6000,"station_id":"ce4bh012rcd13ifvqd10","pricing_plan_id":"cebpf4jnsgd1na2vs0mg"},{"bike_id":"6c6f65b3-0314-4d51-ad33-575d2b20e8f4","system_id":"levelo_inurba_marseille","lat":43.21737,"lon":5.34608,"is_reserved":false,"is_disabled":false,"rental_uris":{"android":"levelo://app?vid=6c6f65b3-0314-4d51-ad33-575d2b20e8f4","ios":"levelo://app?vid=6c6f65b3-0314-4d51-ad33-575d2b20e8f4"},"vehicle_type_id":"4","last_reported":1762694215,"current_range_meters":6000,"station_id":"st_cvj6r9ubvosntc0bgbag","pricing_plan_id":"cebpf4jnsgd1na2vs0mg"},{"bike_id":"b05048b6-3636-4628-97b9-678771374061","system_id":"levelo_inurba_marseille","lat":43.30548,"lon":5.36728,"is_reserved":false,"is_disabled":true,"rental_uris":{"android":"levelo://app?vid=b05048b6-3636-4628-97b9-678771374061","ios":"levelo://app?vid=b05048b6-3636-4628-97b9-678771374061"},"vehicle_type_id":"4","last_reported":1762694215,"current_range_meters":6000,"station_id":"ce4bgrp2rcd13ifvqc9g","pricing_plan_id":"cebpf4jnsgd1na2vs0mg"},{"bike_id":"8656368a-6aed-4876-a49e-fdef310d50aa","system_id":"levelo_inurba_marseille","lat":43.26209,"lon":5.37443,"is_reserved":false,"is_disabled":false,"rental_uris":{"android":"levelo://app?vid=8656368a-6aed-4876-a49e-fdef310d50aa","ios":"levelo://app?vid=8656368a-6aed-4876-a49e-fdef310d50aa"},"vehicle_type_id":"4","last_reported":1762694215,"current_range_meters":6000,"station_id":"ce4bhgp2rcd13ifvqfc0","pricing_plan_id":"cebpf4jnsgd1na2vs0mg"},{"bike_id":"7cedef10-0920-4eba-a6d0-e51287122b4d","system_id":"levelo_inurba_marseille","lat":43.26778,"lon":5.394168,"is_reserved":false,"is_disabled":false,"rental_uris":{"android":"levelo://app?vid=7cedef10-0920-4eba-a6d0-e51287122b4d","ios":"levelo://app?vid=7cedef10-0920-4eba-a6d0-e51287122b4d"},"vehicle_type_id":"4","last_reported":1762694215,"current_range_meters":6000,"station_id":"ce4bhh12rcd13ifvqfg0","pricing_plan_id":"cebpf4jnsgd1na2vs0mg"},{"bike_id":"d13f7aac-3326-47eb-8c83-0485dd333747","system_id":"levelo_inurba_marseille","lat":43.304761,"lon":5.392636,"is_reserved":false,"is_disabled":false,"rental_uris":{"android":"levelo://app?vid=d13f7aac-3326-47eb-8c83-0485dd333747","ios":"levelo://app?vid=d13f7aac-3326-47eb-8c83-0485dd333747"},"vehicle_type_id":"4","last_reported":1762694215,"current_range_meters":6000,"station_id":"","pricing_plan_id":"cebpf4jnsgd1na2vs0mg"},{"bike_id":"b1b32335-7048-4e8e-9b57-6d069f9ce490","system_id":"levelo_inurba_marseille","lat":43.24806,"lon":5.37461,"is_reserved":false,"is_disabled":false,"rental_uris":{"android":"levelo://app?vid=b1b32335-7048-4e8e-9b57-6d069f9ce490","ios":"levelo://app?vid=b1b32335-7048-4e8e-9b57-6d069f9ce490"},"vehicle_type_id":"4","last_reported":1762694215,"current_range_meters":6000,"station_id":"ce4bhgh2rcd13ifvqfb0","pricing_plan_id":"cebpf4jnsgd1na2vs0mg"},{"bike_id":"b091ac8e-aa50-4495-920f-41686b470670","system_id":"levelo_inurba_marseille","lat":43.27371,"lon":5.36261,"is_reserved":false,"is_disabled":false,"rental_uris":{"android":"levelo://app?vid=b091ac8e-aa50-4495-920f-41686b470670","ios":"levelo://app?vid=b091ac8e-aa50-4495-920f-41686b470670"},"vehicle_type_id":"4","last_reported":1762694215,"current_range_meters":6400,"station_id":"ce4bhbh2rcd13ifvqeo0","pricing_plan_id":"cebpf4jnsgd1na2vs0mg"},{"bike_id":"72a4fab4-b7bf-4f14-b6cb-841bc4aaaaa8","system_id":"levelo_inurba_marseille","lat":43.2119,"lon":5.35076,"is_reserved":false,"is_disabled":false,"rental_uris":{"android":"levelo://app?vid=72a4fab4-b7bf-4f14-b6cb-841bc4aaaaa8","ios":"levelo://app?vid=72a4fab4-b7bf-4f14-b6cb-841bc4aaaaa8"},"vehicle_type_id":"4","last_reported":1762694215,"current_range_meters":6400,"station_id":"st_cvj6sg6p6f1abm77japg","pricing_plan_id":"cebpf4jnsgd1na2vs0mg"},{"bike_id":"161fa35b-4177-47a0-9077-38a69e2d3458","system_id":"levelo_inurba_marseille","lat":43.31231,"lon":5.36877,"is_reserved":false,"is_disabled":false,"rental_uris":{"android":"levelo://app?vid=161fa35b-4177-47a0-9077-38a69e2d3458","ios":"levelo://app?vid=161fa35b-4177-47a0-9077-38a69e2d3458"},"vehicle_type_id":"4","last_reported":1762694215,"current_range_meters":6400,"station_id":"ce4bgl92rcd13ifvqbq0","pricing_plan_id":"cebpf4jnsgd1na2vs0mg"},{"bike_id":"997c3a52-2534-48dc-b4db-1c908c588ffa","system_id":"levelo_inurba_marseille","lat":43.30957,"lon":5.39035,"is_reserved":false,"is_disabled":false,"rental_uris":{"android":"levelo://app?vid=997c3a52-2534-48dc-b4db-1c908c588ffa","ios":"levelo://app?vid=997c3a52-2534-48dc-b4db-1c908c588ffa"},"vehicle_type_id":"4","last_reported":1762694215,"current_range_meters":6400,"station_id":"ce4bgup2rcd13ifvqco0","pricing_plan_id":"cebpf4jnsgd1na2vs0mg"},{"bike_id":"03f5dd28-0573-42f9-98ca-4cb2c333484c","system_id":"levelo_inurba_marseille","lat":43.25489,"lon":5.37651,"is_reserved":false,"is_disabled":false,"rental_uris":{"android":"levelo://app?vid=03f5dd28-0573-42f9-98ca-4cb2c333484c","ios":"levelo://app?vid=03f5dd28-0573-42f9-98ca-4cb2c333484c"},"vehicle_type_id":"4","last_reported":1762694215,"current_range_meters":6800,"station_id":"ce4bhh12rcd13ifvqff0","pricing_plan_id":"cebpf4jnsgd1na2vs0mg"},{"bike_id":"6cf41981-a9a7-454b-86a9-21837618d7e9","system_id":"levelo_inurba_marseille","lat":43.26494,"lon":5.39536,"is_reserved":false,"is_disabled":false,"rental_uris":{"android":"levelo://app?vid=6cf41981-a9a7-454b-86a9-21837618d7e9","ios":"levelo://app?vid=6cf41981-a9a7-454b-86a9-21837618d7e9"},"vehicle_type_id":"4","last_reported":1762694215,"current_range_meters":6800,"station_id":"ce4bhi12rcd13ifvqfq0","pricing_plan_id":"cebpf4jnsgd1na2vs0mg"},{"bike_id":"12812244-78d2-40b3-8a97-7c3c76ae7853","system_id":"levelo_inurba_marseille","lat":43.28593,"lon":5.35103,"is_reserved":false,"is_disabled":false,"rental_uris":{"android":"levelo://app?vid=12812244-78d2-40b3-8a97-7c3c76ae7853","ios":"levelo://app?vid=12812244-78d2-40b3-8a97-7c3c76ae7853"},"vehicle_type_id":"4","last_reported":1762694215,"current_range_meters":6800,"station_id":"ce4bhch2rcd13ifvqeug","pricing_plan_id":"cebpf4jnsgd1na2vs0mg"},{"bike_id":"8babf27a-a0db-487e-b991-86b48f494bb7","system_id":"levelo_inurba_marseille","lat":43.27052,"lon":5.40263,"is_reserved":false,"is_disabled":false,"rental_uris":{"android":"levelo://app?vid=8babf27a-a0db-487e-b991-86b48f494bb7","ios":"levelo://app?vid=8babf27a-a0db-487e-b991-86b48f494bb7"},"vehicle_type_id":"4","last_reported":1762694215,"current_range_meters":6800,"station_id":"ce4bhk92rcd13ifvqgc0","pricing_plan_id":"cebpf4jnsgd1na2vs0mg"},{"bike_id":"bfe333a7-50e8-480c-a683-bb344fefa869","system_id":"levelo_inurba_marseille","lat":43.245427,"lon":5.395217,"is_reserved":false,"is_disabled":false,"rental_uris":{"android":"levelo://app?vid=bfe333a7-50e8-480c-a683-bb344fefa869","ios":"levelo://app?vid=bfe333a7-50e8-480c-a683-bb344fefa869"},"vehicle_type_id":"4","last_reported":1762694215,"current_range_meters":6800,"station_id":"","pricing_plan_id":"cebpf4jnsgd1na2vs0mg"},{"bike_id":"813fab06-8629-4da1-aa0c-22e0a76ccae4","system_id":"levelo_inurba_marseille","lat":43.26194,"lon":5.37452,"is_reserved":false,"is_disabled":false,"rental_uris":{"android":"levelo://app?vid=813fab06-8629-4da1-aa0c-22e0a76ccae4","ios":"levelo://app?vid=813fab06-8629-4da1-aa0c-22e0a76ccae4"},"vehicle_type_id":"4","last_reported":1762694215,"current_range_meters":6800,"station_id":"ce4bhgp2rcd13ifvqfc0","pricing_plan_id":"cebpf4jnsgd1na2vs0mg"},{"bike_id":"920c9da0-d65d-45f8-9450-0179826af422","system_id":"levelo_inurba_marseille","lat":43.21189,"lon":5.35075,"is_reserved":false,"is_disabled":false,"rental_uris":{"android":"levelo://app?vid=920c9da0-d65d-45f8-9450-0179826af422","ios":"levelo://app?vid=920c9da0-d65d-45f8-9450-0179826af422"},"vehicle_type_id":"4","last_reported":1762694215,"current_range_meters":6800,"station_id":"st_cvj6sg6p6f1abm77japg","pricing_plan_id":"cebpf4jnsgd1na2vs0mg"},{"bike_id":"71285b32-60e5-4f03-8854-03cd2bae50c4","system_id":"levelo_inurba_marseille","lat":43.27615,"lon":5.36104,"is_reserved":false,"is_disabled":false,"rental_uris":{"android":"levelo://app?vid=71285b32-60e5-4f03-8854-03cd2bae50c4","ios":"levelo://app?vid=71285b32-60e5-4f03-8854-03cd2bae50c4"},"vehicle_type_id":"4","last_reported":1762694215,"current_range_meters":6800,"station_id":"ce4bgj92rcd13ifvqbe0","pricing_plan_id":"cebpf4jnsgd1na2vs0mg"},{"bike_id":"0f8373a3-446e-42a0-81ae-550b9c2438cc","system_id":"levelo_inurba_marseille","lat":43.217395,"lon":5.346037,"is_reserved":false,"is_disabled":false,"rental_uris":{"android":"levelo://app?vid=0f8373a3-446e-42a0-81ae-550b9c2438cc","ios":"levelo://app?vid=0f8373a3-446e-42a0-81ae-550b9c2438cc"},"vehicle_type_id":"4","last_reported":1762694215,"current_range_meters":6800,"station_id":"st_cvj6r9ubvosntc0bgbag","pricing_plan_id":"cebpf4jnsgd1na2vs0mg"},{"bike_id":"95565d88-4e0c-4b5d-b6d1-9a4c73bcb1f1","system_id":"levelo_inurba_marseille","lat":43.33795,"lon":5.3745,"is_reserved":false,"is_disabled":false,"rental_uris":{"android":"levelo://app?vid=95565d88-4e0c-4b5d-b6d1-9a4c73bcb1f1","ios":"levelo://app?vid=95565d88-4e0c-4b5d-b6d1-9a4c73bcb1f1"},"vehicle_type_id":"4","last_reported":1762694215,"current_range_meters":6800,"station_id":"","pricing_plan_id":"cebpf4jnsgd1na2vs0mg"},{"bike_id":"23468c4e-bd9c-43cd-9c04-19b7e93ce770","system_id":"levelo_inurba_marseille","lat":43.2119,"lon":5.35083,"is_reserved":false,"is_disabled":false,"rental_uris":{"android":"levelo://app?vid=23468c4e-bd9c-43cd-9c04-19b7e93ce770","ios":"levelo://app?vid=23468c4e-bd9c-43cd-9c04-19b7e93ce770"},"vehicle_type_id":"4","last_reported":1762694215,"current_range_meters":6800,"station_id":"st_cvj6sg6p6f1abm77japg","pricing_plan_id":"cebpf4jnsgd1na2vs0mg"},{"bike_id":"0bd0102c-4e9d-44b6-8055-a70ee51cc8d9","system_id":"levelo_inurba_marseille","lat":43.21198,"lon":5.35072,"is_reserved":false,"is_disabled":false,"rental_uris":{"android":"levelo://app?vid=0bd0102c-4e9d-44b6-8055-a70ee51cc8d9","ios":"levelo://app?vid=0bd0102c-4e9d-44b6-8055-a70ee51cc8d9"},"vehicle_type_id":"4","last_reported":1762694215,"current_range_meters":6800,"station_id":"st_cvj6sg6p6f1abm77japg","pricing_plan_id":"cebpf4jnsgd1na2vs0mg"},{"bike_id":"a2363320-5477-43a5-a04a-f57b090f5026","system_id":"levelo_inurba_marseille","lat":43.21189,"lon":5.35079,"is_reserved":false,"is_disabled":false,"rental_uris":{"android":"levelo://app?vid=a2363320-5477-43a5-a04a-f57b090f5026","ios":"levelo://app?vid=a2363320-5477-43a5-a04a-f57b090f5026"},"vehicle_type_id":"4","last_reported":1762694215,"current_range_meters":6800,"station_id":"st_cvj6sg6p6f1abm77japg","pricing_plan_id":"cebpf4jnsgd1na2vs0mg"},{"bike_id":"382f597e-181c-4839-b1de-04339df9aa55","system_id":"levelo_inurba_marseille","lat":43.267985,"lon":5.4026,"is_reserved":false,"is_disabled":true,"rental_uris":{"android":"levelo://app?vid=382f597e-181c-4839-b1de-04339df9aa55","ios":"levelo://app?vid=382f597e-181c-4839-b1de-04339df9aa55"},"vehicle_type_id":"4","last_reported":1762694215,"current_range_meters":7200,"station_id":"ce501612rcd8frsf0b60","pricing_plan_id":"cebpf4jnsgd1na2vs0mg"},{"bike_id":"20b574c4-ca35-4c0a-8c12-1b513472805c","system_id":"levelo_inurba_marseille","lat":43.29006,"lon":5.35609,"is_reserved":false,"is_disabled":false,"rental_uris":{"android":"levelo://app?vid=20b574c4-ca35-4c0a-8c12-1b513472805c","ios":"levelo://app?vid=20b574c4-ca35-4c0a-8c12-1b513472805c"},"vehicle_type_id":"4","last_reported":1762694215,"current_range_meters":7200,"station_id":"ce4bhb92rcd13ifvqen0","pricing_plan_id":"cebpf4jnsgd1na2vs0mg"},{"bike_id":"9f611ac1-6f6a-4437-9025-ea87f35606a4","system_id":"levelo_inurba_marseille","lat":43.2854,"lon":5.37782,"is_reserved":false,"is_disabled":false,"rental_uris":{"android":"levelo://app?vid=9f611ac1-6f6a-4437-9025-ea87f35606a4","ios":"levelo://app?vid=9f611ac1-6f6a-4437-9025-ea87f35606a4"},"vehicle_type_id":"4","last_reported":1762694215,"current_range_meters":7200,"station_id":"","pricing_plan_id":"cebpf4jnsgd1na2vs0mg"},{"bike_id":"1712e818-35c0-4010-b359-e91a7b533bea","system_id":"levelo_inurba_marseille","lat":43.26027,"lon":5.37549,"is_reserved":false,"is_disabled":false,"rental_uris":{"android":"levelo://app?vid=1712e818-35c0-4010-b359-e91a7b533bea","ios":"levelo://app?vid=1712e818-35c0-4010-b359-e91a7b533bea"},"vehicle_type_id":"4","last_reported":1762694215,"current_range_meters":7200,"station_id":"ce4bhgh2rcd13ifvqfa0","pricing_plan_id":"cebpf4jnsgd1na2vs0mg"},{"bike_id":"d82d4da8-130c-49e9-86df-8160fa9e30b5","system_id":"levelo_inurba_marseille","lat":43.297535,"lon":5.38086,"is_reserved":false,"is_disabled":false,"rental_uris":{"android":"levelo://app?vid=d82d4da8-130c-49e9-86df-8160fa9e30b5","ios":"levelo://app?vid=d82d4da8-130c-49e9-86df-8160fa9e30b5"},"vehicle_type_id":"4","last_reported":1762694215,"current_range_meters":7200,"station_id":"ce4bgip2rcd13ifvqbb0","pricing_plan_id":"cebpf4jnsgd1na2vs0mg"},{"bike_id":"e7c664a9-2b6d-4821-997f-f0bfabc59146","system_id":"levelo_inurba_marseille","lat":43.21189,"lon":5.35075,"is_reserved":false,"is_disabled":false,"rental_uris":{"android":"levelo://app?vid=e7c664a9-2b6d-4821-997f-f0bfabc59146","ios":"levelo://app?vid=e7c664a9-2b6d-4821-997f-f0bfabc59146"},"vehicle_type_id":"4","last_reported":1762694215,"current_range_meters":7200,"station_id":"st_cvj6sg6p6f1abm77japg","pricing_plan_id":"cebpf4jnsgd1na2vs0mg"},{"bike_id":"3f5bc8df-f1d1-49a8-ad8c-c513d27d1d1d","system_id":"levelo_inurba_marseille","lat":43.30213,"lon":5.39466,"is_reserved":false,"is_disabled":false,"rental_uris":{"android":"levelo://app?vid=3f5bc8df-f1d1-49a8-ad8c-c513d27d1d1d","ios":"levelo://app?vid=3f5bc8df-f1d1-49a8-ad8c-c513d27d1d1d"},"vehicle_type_id":"4","last_reported":1762694215,"current_range_meters":7200,"station_id":"ce4bh0p2rcd13ifvqd70","pricing_plan_id":"cebpf4jnsgd1na2vs0mg"},{"bike_id":"c0969de0-74b0-4b5a-9248-b43b0ee3e19e","system_id":"levelo_inurba_marseille","lat":43.24906,"lon":5.37672,"is_reserved":false,"is_disabled":false,"rental_uris":{"android":"levelo://app?vid=c0969de0-74b0-4b5a-9248-b43b0ee3e19e","ios":"levelo://app?vid=c0969de0-74b0-4b5a-9248-b43b0ee3e19e"},"vehicle_type_id":"4","last_reported":1762694215,"current_range_meters":7200,"station_id":"","pricing_plan_id":"cebpf4jnsgd1na2vs0mg"},{"bike_id":"33c55ef3-f133-4ad9-8902-78ba36612b34","system_id":"levelo_inurba_marseille","lat":43.28841,"lon":5.35852,"is_reserved":false,"is_disabled":true,"rental_uris":{"android":"levelo://app?vid=33c55ef3-f133-4ad9-8902-78ba36612b34","ios":"levelo://app?vid=33c55ef3-f133-4ad9-8902-78ba36612b34"},"vehicle_type_id":"4","last_reported":1762694215,"current_range_meters":7200,"station_id":"ce4bhb12rcd13ifvqem0","pricing_plan_id":"cebpf4jnsgd1na2vs0mg"},{"bike_id":"d88b7b34-80ae-4ff3-9c0e-3baede048067","system_id":"levelo_inurba_marseille","lat":43.2315,"lon":5.43721,"is_reserved":false,"is_disabled":false,"rental_uris":{"android":"levelo://app?vid=d88b7b34-80ae-4ff3-9c0e-3baede048067","ios":"levelo://app?vid=d88b7b34-80ae-4ff3-9c0e-3baede048067"},"vehicle_type_id":"4","last_reported":1762694215,"current_range_meters":7200,"station_id":"ce4bhmp2rcd13ifvqgog","pricing_plan_id":"cebpf4jnsgd1na2vs0mg"},{"bike_id":"571ff820-be8f-406b-8672-34d41aeaaefd","system_id":"levelo_inurba_marseille","lat":43.2781,"lon":5.40719,"is_reserved":false,"is_disabled":false,"rental_uris":{"android":"levelo://app?vid=571ff820-be8f-406b-8672-34d41aeaaefd","ios":"levelo://app?vid=571ff820-be8f-406b-8672-34d41aeaaefd"},"vehicle_type_id":"4","last_reported":1762694215,"current_range_meters":7200,"station_id":"ce4bhnh2rcd13ifvqgtg","pricing_plan_id":"cebpf4jnsgd1na2vs0mg"},{"bike_id":"1edab58c-c40d-44f1-8709-6aab314851d6","system_id":"levelo_inurba_marseille","lat":43.25337,"lon":5.42175,"is_reserved":false,"is_disabled":false,"rental_uris":{"android":"levelo://app?vid=1edab58c-c40d-44f1-8709-6aab314851d6","ios":"levelo://app?vid=1edab58c-c40d-44f1-8709-6aab314851d6"},"vehicle_type_id":"4","last_reported":1762694215,"current_range_meters":8000,"station_id":"st_d2m65c5bi1j21697t3ng","pricing_plan_id":"cebpf4jnsgd1na2vs0mg"},{"bike_id":"d510b29d-06c6-4a67-8cee-2182097a14e2","system_id":"levelo_inurba_marseille","lat":43.29252,"lon":5.37622,"is_reserved":false,"is_disabled":true,"rental_uris":{"android":"levelo://app?vid=d510b29d-06c6-4a67-8cee-2182097a14e2","ios":"levelo://app?vid=d510b29d-06c6-4a67-8cee-2182097a14e2"},"vehicle_type_id":"4","last_reported":1762694215,"current_range_meters":8000,"station_id":"ce4bgi12rcd13ifvqb80","pricing_plan_id":"cebpf4jnsgd1na2vs0mg"},{"bike_id":"cd36fb7c-4385-47bd-96a8-f8889a6e3476","system_id":"levelo_inurba_marseille","lat":43.29902,"lon":5.43666,"is_reserved":false,"is_disabled":false,"rental_uris":{"android":"levelo://app?vid=cd36fb7c-4385-47bd-96a8-f8889a6e3476","ios":"levelo://app?vid=cd36fb7c-4385-47bd-96a8-f8889a6e3476"},"vehicle_type_id":"4","last_reported":1762694215,"current_range_meters":8000,"station_id":"ce4bhpp2rcd13ifvqhfg","pricing_plan_id":"cebpf4jnsgd1na2vs0mg"},{"bike_id":"321d43c2-a97c-419e-a110-a172b4ee23e9","system_id":"levelo_inurba_marseille","lat":43.261566,"lon":5.417781,"is_reserved":false,"is_disabled":false,"rental_uris":{"android":"levelo://app?vid=321d43c2-a97c-419e-a110-a172b4ee23e9","ios":"levelo://app?vid=321d43c2-a97c-419e-a110-a172b4ee23e9"},"vehicle_type_id":"4","last_reported":1762694215,"current_range_meters":8000,"station_id":"","pricing_plan_id":"cebpf4jnsgd1na2vs0mg"},{"bike_id":"a4b610ef-5dc5-47fb-9228-87e17fe490d3","system_id":"levelo_inurba_marseille","lat":43.270653,"lon":5.422787,"is_reserved":false,"is_disabled":true,"rental_uris":{"android":"levelo://app?vid=a4b610ef-5dc5-47fb-9228-87e17fe490d3","ios":"levelo://app?vid=a4b610ef-5dc5-47fb-9228-87e17fe490d3"},"vehicle_type_id":"4","last_reported":1762694215,"current_range_meters":8000,"station_id":"ce4bhk92rcd13ifvqgb0","pricing_plan_id":"cebpf4jnsgd1na2vs0mg"},{"bike_id":"59736966-d2af-4cbc-8ac5-e955aeb2f190","system_id":"levelo_inurba_marseille","lat":43.28851,"lon":5.42515,"is_reserved":false,"is_disabled":false,"rental_uris":{"android":"levelo://app?vid=59736966-d2af-4cbc-8ac5-e955aeb2f190","ios":"levelo://app?vid=59736966-d2af-4cbc-8ac5-e955aeb2f190"},"vehicle_type_id":"4","last_reported":1762694215,"current_range_meters":8000,"station_id":"st_d3b462108ojc7389ooeg","pricing_plan_id":"cebpf4jnsgd1na2vs0mg"},{"bike_id":"3b294fa9-3f9f-4381-a2a8-e3592d375a68","system_id":"levelo_inurba_marseille","lat":43.266995,"lon":5.396827,"is_reserved":false,"is_disabled":false,"rental_uris":{"android":"levelo://app?vid=3b294fa9-3f9f-4381-a2a8-e3592d375a68","ios":"levelo://app?vid=3b294fa9-3f9f-4381-a2a8-e3592d375a68"},"vehicle_type_id":"4","last_reported":1762694215,"current_range_meters":8000,"station_id":"","pricing_plan_id":"cebpf4jnsgd1na2vs0mg"},{"bike_id":"883d386a-6ccc-4eea-b2a2-269dc26781b0","system_id":"levelo_inurba_marseille","lat":43.21194,"lon":5.35084,"is_reserved":false,"is_disabled":false,"rental_uris":{"android":"levelo://app?vid=883d386a-6ccc-4eea-b2a2-269dc26781b0","ios":"levelo://app?vid=883d386a-6ccc-4eea-b2a2-269dc26781b0"},"vehicle_type_id":"4","last_reported":1762694215,"current_range_meters":8000,"station_id":"st_cvj6sg6p6f1abm77japg","pricing_plan_id":"cebpf4jnsgd1na2vs0mg"},{"bike_id":"5916b080-126b-493e-9d76-68ff8df78665","system_id":"levelo_inurba_marseille","lat":43.25117,"lon":5.40318,"is_reserved":false,"is_disabled":false,"rental_uris":{"android":"levelo://app?vid=5916b080-126b-493e-9d76-68ff8df78665","ios":"levelo://app?vid=5916b080-126b-493e-9d76-68ff8df78665"},"vehicle_type_id":"4","last_reported":1762694215,"current_range_meters":8400,"station_id":"ce4bhlh2rcd13ifvqgig","pricing_plan_id":"cebpf4jnsgd1na2vs0mg"},{"bike_id":"0c0aae4f-b7ab-4f71-a9b5-c8cc1ef02e30","system_id":"levelo_inurba_marseille","lat":43.3089,"lon":5.39655,"is_reserved":false,"is_disabled":false,"rental_uris":{"android":"levelo://app?vid=0c0aae4f-b7ab-4f71-a9b5-c8cc1ef02e30","ios":"levelo://app?vid=0c0aae4f-b7ab-4f71-a9b5-c8cc1ef02e30"},"vehicle_type_id":"4","last_reported":1762694215,"current_range_meters":8400,"station_id":"ce4bh012rcd13ifvqcv0","pricing_plan_id":"cebpf4jnsgd1na2vs0mg"},{"bike_id":"6ab16eec-2c8f-4ebf-8cf1-7dd74c943e11","system_id":"levelo_inurba_marseille","lat":43.28303,"lon":5.39015,"is_reserved":false,"is_disabled":false,"rental_uris":{"android":"levelo://app?vid=6ab16eec-2c8f-4ebf-8cf1-7dd74c943e11","ios":"levelo://app?vid=6ab16eec-2c8f-4ebf-8cf1-7dd74c943e11"},"vehicle_type_id":"4","last_reported":1762694215,"current_range_meters":8400,"station_id":"","pricing_plan_id":"cebpf4jnsgd1na2vs0mg"},{"bike_id":"21410597-4459-475b-ab27-a2ba3220c221","system_id":"levelo_inurba_marseille","lat":43.3024,"lon":5.40071,"is_reserved":false,"is_disabled":false,"rental_uris":{"android":"levelo://app?vid=21410597-4459-475b-ab27-a2ba3220c221","ios":"levelo://app?vid=21410597-4459-475b-ab27-a2ba3220c221"},"vehicle_type_id":"4","last_reported":1762694215,"current_range_meters":8400,"station_id":"ce4bgvh2rcd13ifvqcs0","pricing_plan_id":"cebpf4jnsgd1na2vs0mg"},{"bike_id":"b2042346-ee6d-4777-ba1d-c7f348d0e347","system_id":"levelo_inurba_marseille","lat":43.24385,"lon":5.37088,"is_reserved":false,"is_disabled":false,"rental_uris":{"android":"levelo://app?vid=b2042346-ee6d-4777-ba1d-c7f348d0e347","ios":"levelo://app?vid=b2042346-ee6d-4777-ba1d-c7f348d0e347"},"vehicle_type_id":"4","last_reported":1762694215,"current_range_meters":8400,"station_id":"ce4bhhh2rcd13ifvqfk0","pricing_plan_id":"cebpf4jnsgd1na2vs0mg"},{"bike_id":"acebb37f-10a9-4fea-ba6c-a317484bde56","system_id":"levelo_inurba_marseille","lat":43.298356,"lon":5.365047,"is_reserved":false,"is_disabled":false,"rental_uris":{"android":"levelo://app?vid=acebb37f-10a9-4fea-ba6c-a317484bde56","ios":"levelo://app?vid=acebb37f-10a9-4fea-ba6c-a317484bde56"},"vehicle_type_id":"4","last_reported":1762694215,"current_range_meters":8400,"station_id":"","pricing_plan_id":"cebpf4jnsgd1na2vs0mg"},{"bike_id":"1339ef90-7056-4f6c-97e9-32c4fa532151","system_id":"levelo_inurba_marseille","lat":43.240154,"lon":5.377474,"is_reserved":false,"is_disabled":false,"rental_uris":{"android":"levelo://app?vid=1339ef90-7056-4f6c-97e9-32c4fa532151","ios":"levelo://app?vid=1339ef90-7056-4f6c-97e9-32c4fa532151"},"vehicle_type_id":"4","last_reported":1762694215,"current_range_meters":8400,"station_id":"","pricing_plan_id":"cebpf4jnsgd1na2vs0mg"},{"bike_id":"237ca307-539b-44e6-8119-a10a9a7c6994","system_id":"levelo_inurba_marseille","lat":43.21187,"lon":5.35088,"is_reserved":false,"is_disabled":false,"rental_uris":{"android":"levelo://app?vid=237ca307-539b-44e6-8119-a10a9a7c6994","ios":"levelo://app?vid=237ca307-539b-44e6-8119-a10a9a7c6994"},"vehicle_type_id":"4","last_reported":1762694215,"current_range_meters":8400,"station_id":"st_cvj6sg6p6f1abm77japg","pricing_plan_id":"cebpf4jnsgd1na2vs0mg"},{"bike_id":"0e481b69-920b-48e1-b4f6-7ad29c4b0bcb","system_id":"levelo_inurba_marseille","lat":43.246373,"lon":5.431346,"is_reserved":false,"is_disabled":false,"rental_uris":{"android":"levelo://app?vid=0e481b69-920b-48e1-b4f6-7ad29c4b0bcb","ios":"levelo://app?vid=0e481b69-920b-48e1-b4f6-7ad29c4b0bcb"},"vehicle_type_id":"4","last_reported":1762694215,"current_range_meters":8800,"station_id":"st_d2m6c4gdas8pm72e190g","pricing_plan_id":"cebpf4jnsgd1na2vs0mg"},{"bike_id":"d5c325c1-0ca3-4446-af4d-3cf4ac83b342","system_id":"levelo_inurba_marseille","lat":43.29003,"lon":5.35607,"is_reserved":false,"is_disabled":false,"rental_uris":{"android":"levelo://app?vid=d5c325c1-0ca3-4446-af4d-3cf4ac83b342","ios":"levelo://app?vid=d5c325c1-0ca3-4446-af4d-3cf4ac83b342"},"vehicle_type_id":"4","last_reported":1762694215,"current_range_meters":8800,"station_id":"ce4bhb92rcd13ifvqen0","pricing_plan_id":"cebpf4jnsgd1na2vs0mg"},{"bike_id":"60c530a0-69e7-4ff7-af8a-3ef4e145092d","system_id":"levelo_inurba_marseille","lat":43.217456,"lon":5.34605,"is_reserved":false,"is_disabled":false,"rental_uris":{"android":"levelo://app?vid=60c530a0-69e7-4ff7-af8a-3ef4e145092d","ios":"levelo://app?vid=60c530a0-69e7-4ff7-af8a-3ef4e145092d"},"vehicle_type_id":"4","last_reported":1762694215,"current_range_meters":8800,"station_id":"st_cvj6r9ubvosntc0bgbag","pricing_plan_id":"cebpf4jnsgd1na2vs0mg"},{"bike_id":"947ecd4e-ddf1-4918-93c9-7a6fcc60b9e9","system_id":"levelo_inurba_marseille","lat":43.2466,"lon":5.38166,"is_reserved":false,"is_disabled":false,"rental_uris":{"android":"levelo://app?vid=947ecd4e-ddf1-4918-93c9-7a6fcc60b9e9","ios":"levelo://app?vid=947ecd4e-ddf1-4918-93c9-7a6fcc60b9e9"},"vehicle_type_id":"4","last_reported":1762694215,"current_range_meters":8800,"station_id":"ce4bhih2rcd13ifvqfr0","pricing_plan_id":"cebpf4jnsgd1na2vs0mg"},{"bike_id":"30342aa8-d696-4b2f-8861-6ebe5d3170d8","system_id":"levelo_inurba_marseille","lat":43.22533,"lon":5.348348,"is_reserved":false,"is_disabled":false,"rental_uris":{"android":"levelo://app?vid=30342aa8-d696-4b2f-8861-6ebe5d3170d8","ios":"levelo://app?vid=30342aa8-d696-4b2f-8861-6ebe5d3170d8"},"vehicle_type_id":"4","last_reported":1762694215,"current_range_meters":8800,"station_id":"","pricing_plan_id":"cebpf4jnsgd1na2vs0mg"},{"bike_id":"f68c3122-fb25-4679-aa7c-1798b99c39ce","system_id":"levelo_inurba_marseille","lat":43.28206,"lon":5.39057,"is_reserved":false,"is_disabled":false,"rental_uris":{"android":"levelo://app?vid=f68c3122-fb25-4679-aa7c-1798b99c39ce","ios":"levelo://app?vid=f68c3122-fb25-4679-aa7c-1798b99c39ce"},"vehicle_type_id":"4","last_reported":1762694215,"current_range_meters":8800,"station_id":"ce4bhn92rcd13ifvqgsg","pricing_plan_id":"cebpf4jnsgd1na2vs0mg"},{"bike_id":"d2991a60-dcfa-4252-8f9d-bfff4b1dc433","system_id":"levelo_inurba_marseille","lat":43.31095,"lon":5.37133,"is_reserved":false,"is_disabled":false,"rental_uris":{"android":"levelo://app?vid=d2991a60-dcfa-4252-8f9d-bfff4b1dc433","ios":"levelo://app?vid=d2991a60-dcfa-4252-8f9d-bfff4b1dc433"},"vehicle_type_id":"4","last_reported":1762694215,"current_range_meters":8800,"station_id":"","pricing_plan_id":"cebpf4jnsgd1na2vs0mg"},{"bike_id":"6bc07466-d50b-4050-be89-44c5466a167f","system_id":"levelo_inurba_marseille","lat":43.272094,"lon":5.391955,"is_reserved":false,"is_disabled":false,"rental_uris":{"android":"levelo://app?vid=6bc07466-d50b-4050-be89-44c5466a167f","ios":"levelo://app?vid=6bc07466-d50b-4050-be89-44c5466a167f"},"vehicle_type_id":"4","last_reported":1762694215,"current_range_meters":9200,"station_id":"ce4bhhp2rcd13ifvqfm0","pricing_plan_id":"cebpf4jnsgd1na2vs0mg"},{"bike_id":"5320d673-8f17-42b0-b637-4e20de7189dd","system_id":"levelo_inurba_marseille","lat":43.29955,"lon":5.36537,"is_reserved":false,"is_disabled":true,"rental_uris":{"android":"levelo://app?vid=5320d673-8f17-42b0-b637-4e20de7189dd","ios":"levelo://app?vid=5320d673-8f17-42b0-b637-4e20de7189dd"},"vehicle_type_id":"4","last_reported":1762694215,"current_range_meters":9200,"station_id":"ce4bgm92rcd13ifvqbr0","pricing_plan_id":"cebpf4jnsgd1na2vs0mg"},{"bike_id":"825a1957-d327-49da-97b3-2485c79c40e7","system_id":"levelo_inurba_marseille","lat":43.217421,"lon":5.346057,"is_reserved":false,"is_disabled":true,"rental_uris":{"android":"levelo://app?vid=825a1957-d327-49da-97b3-2485c79c40e7","ios":"levelo://app?vid=825a1957-d327-49da-97b3-2485c79c40e7"},"vehicle_type_id":"4","last_reported":1762694215,"current_range_meters":9200,"station_id":"","pricing_plan_id":"cebpf4jnsgd1na2vs0mg"},{"bike_id":"54fa92af-5541-4137-afea-d36fade5cb4b","system_id":"levelo_inurba_marseille","lat":43.24636,"lon":5.43152,"is_reserved":false,"is_disabled":false,"rental_uris":{"android":"levelo://app?vid=54fa92af-5541-4137-afea-d36fade5cb4b","ios":"levelo://app?vid=54fa92af-5541-4137-afea-d36fade5cb4b"},"vehicle_type_id":"4","last_reported":1762694215,"current_range_meters":9200,"station_id":"st_d2m6c4gdas8pm72e190g","pricing_plan_id":"cebpf4jnsgd1na2vs0mg"},{"bike_id":"f54299dc-3ad8-4d40-b17e-b898abbc5034","system_id":"levelo_inurba_marseille","lat":43.28273,"lon":5.35079,"is_reserved":false,"is_disabled":true,"rental_uris":{"android":"levelo://app?vid=f54299dc-3ad8-4d40-b17e-b898abbc5034","ios":"levelo://app?vid=f54299dc-3ad8-4d40-b17e-b898abbc5034"},"vehicle_type_id":"4","last_reported":1762694215,"current_range_meters":9200,"station_id":"ce4bhbp2rcd13ifvqerg","pricing_plan_id":"cebpf4jnsgd1na2vs0mg"},{"bike_id":"815a0ef0-8c21-442f-8ed1-dd20782d1d90","system_id":"levelo_inurba_marseille","lat":43.22559,"lon":5.41645,"is_reserved":false,"is_disabled":false,"rental_uris":{"android":"levelo://app?vid=815a0ef0-8c21-442f-8ed1-dd20782d1d90","ios":"levelo://app?vid=815a0ef0-8c21-442f-8ed1-dd20782d1d90"},"vehicle_type_id":"4","last_reported":1762694215,"current_range_meters":9200,"station_id":"st_d2o4gvlbi1j2169b742g","pricing_plan_id":"cebpf4jnsgd1na2vs0mg"},{"bike_id":"2eb48f07-abd2-41de-a7da-dd505426e3ed","system_id":"levelo_inurba_marseille","lat":43.25207,"lon":5.38046,"is_reserved":false,"is_disabled":false,"rental_uris":{"android":"levelo://app?vid=2eb48f07-abd2-41de-a7da-dd505426e3ed","ios":"levelo://app?vid=2eb48f07-abd2-41de-a7da-dd505426e3ed"},"vehicle_type_id":"4","last_reported":1762694215,"current_range_meters":9200,"station_id":"","pricing_plan_id":"cebpf4jnsgd1na2vs0mg"},{"bike_id":"793139e7-db6d-48bc-bdde-928f19760fb0","system_id":"levelo_inurba_marseille","lat":43.3064,"lon":5.4011,"is_reserved":false,"is_disabled":false,"rental_uris":{"android":"levelo://app?vid=793139e7-db6d-48bc-bdde-928f19760fb0","ios":"levelo://app?vid=793139e7-db6d-48bc-bdde-928f19760fb0"},"vehicle_type_id":"4","last_reported":1762694215,"current_range_meters":9200,"station_id":"ce4bh112rcd13ifvqda0","pricing_plan_id":"cebpf4jnsgd1na2vs0mg"},{"bike_id":"c5400d7a-a13a-41cb-bca1-085b77ad4d96","system_id":"levelo_inurba_marseille","lat":43.21184,"lon":5.35072,"is_reserved":false,"is_disabled":false,"rental_uris":{"android":"levelo://app?vid=c5400d7a-a13a-41cb-bca1-085b77ad4d96","ios":"levelo://app?vid=c5400d7a-a13a-41cb-bca1-085b77ad4d96"},"vehicle_type_id":"4","last_reported":1762694215,"current_range_meters":9200,"station_id":"st_cvj6sg6p6f1abm77japg","pricing_plan_id":"cebpf4jnsgd1na2vs0mg"},{"bike_id":"870a9ad1-db35-4ab0-bc9a-84476efc6571","system_id":"levelo_inurba_marseille","lat":43.32585,"lon":5.43259,"is_reserved":false,"is_disabled":false,"rental_uris":{"android":"levelo://app?vid=870a9ad1-db35-4ab0-bc9a-84476efc6571","ios":"levelo://app?vid=870a9ad1-db35-4ab0-bc9a-84476efc6571"},"vehicle_type_id":"4","last_reported":1762694215,"current_range_meters":9200,"station_id":"","pricing_plan_id":"cebpf4jnsgd1na2vs0mg"},{"bike_id":"034b45fe-fc8a-40e2-930b-00715a4950c7","system_id":"levelo_inurba_marseille","lat":43.22547,"lon":5.34828,"is_reserved":false,"is_disabled":false,"rental_uris":{"android":"levelo://app?vid=034b45fe-fc8a-40e2-930b-00715a4950c7","ios":"levelo://app?vid=034b45fe-fc8a-40e2-930b-00715a4950c7"},"vehicle_type_id":"4","last_reported":1762694215,"current_range_meters":9600,"station_id":"","pricing_plan_id":"cebpf4jnsgd1na2vs0mg"},{"bike_id":"b2f2eb85-f10a-4366-878c-eb15ce47726f","system_id":"levelo_inurba_marseille","lat":43.2316,"lon":5.43719,"is_reserved":false,"is_disabled":false,"rental_uris":{"android":"levelo://app?vid=b2f2eb85-f10a-4366-878c-eb15ce47726f","ios":"levelo://app?vid=b2f2eb85-f10a-4366-878c-eb15ce47726f"},"vehicle_type_id":"4","last_reported":1762694215,"current_range_meters":9600,"station_id":"ce4bhmp2rcd13ifvqgog","pricing_plan_id":"cebpf4jnsgd1na2vs0mg"},{"bike_id":"963c8b70-8cdc-4161-ab23-8766bcd2ce30","system_id":"levelo_inurba_marseille","lat":43.21193,"lon":5.35074,"is_reserved":false,"is_disabled":false,"rental_uris":{"android":"levelo://app?vid=963c8b70-8cdc-4161-ab23-8766bcd2ce30","ios":"levelo://app?vid=963c8b70-8cdc-4161-ab23-8766bcd2ce30"},"vehicle_type_id":"4","last_reported":1762694215,"current_range_meters":9600,"station_id":"st_cvj6sg6p6f1abm77japg","pricing_plan_id":"cebpf4jnsgd1na2vs0mg"},{"bike_id":"98a850cc-53c2-4014-98f7-042c47c8231b","system_id":"levelo_inurba_marseille","lat":43.31197,"lon":5.37436,"is_reserved":false,"is_disabled":false,"rental_uris":{"android":"levelo://app?vid=98a850cc-53c2-4014-98f7-042c47c8231b","ios":"levelo://app?vid=98a850cc-53c2-4014-98f7-042c47c8231b"},"vehicle_type_id":"4","last_reported":1762694215,"current_range_meters":9600,"station_id":"","pricing_plan_id":"cebpf4jnsgd1na2vs0mg"},{"bike_id":"6e516340-9641-4325-9cd8-46780776c1ed","system_id":"levelo_inurba_marseille","lat":43.305403,"lon":5.36701,"is_reserved":false,"is_disabled":true,"rental_uris":{"android":"levelo://app?vid=6e516340-9641-4325-9cd8-46780776c1ed","ios":"levelo://app?vid=6e516340-9641-4325-9cd8-46780776c1ed"},"vehicle_type_id":"4","last_reported":1762694215,"current_range_meters":9600,"station_id":"ce4bgrp2rcd13ifvqc9g","pricing_plan_id":"cebpf4jnsgd1na2vs0mg"},{"bike_id":"1ecadc85-795f-4978-98dc-597a05aeb396","system_id":"levelo_inurba_marseille","lat":43.21187,"lon":5.35079,"is_reserved":false,"is_disabled":false,"rental_uris":{"android":"levelo://app?vid=1ecadc85-795f-4978-98dc-597a05aeb396","ios":"levelo://app?vid=1ecadc85-795f-4978-98dc-597a05aeb396"},"vehicle_type_id":"4","last_reported":1762694215,"current_range_meters":9600,"station_id":"st_cvj6sg6p6f1abm77japg","pricing_plan_id":"cebpf4jnsgd1na2vs0mg"},{"bike_id":"cf673477-a61f-4da4-8a76-fe54343e980e","system_id":"levelo_inurba_marseille","lat":43.30794,"lon":5.43534,"is_reserved":false,"is_disabled":true,"rental_uris":{"android":"levelo://app?vid=cf673477-a61f-4da4-8a76-fe54343e980e","ios":"levelo://app?vid=cf673477-a61f-4da4-8a76-fe54343e980e"},"vehicle_type_id":"4","last_reported":1762694215,"current_range_meters":9600,"station_id":"","pricing_plan_id":"cebpf4jnsgd1na2vs0mg"},{"bike_id":"b6c6609d-9c7a-4d47-aebc-f0a1a1b2ec02","system_id":"levelo_inurba_marseille","lat":43.24071,"lon":5.37758,"is_reserved":false,"is_disabled":false,"rental_uris":{"android":"levelo://app?vid=b6c6609d-9c7a-4d47-aebc-f0a1a1b2ec02","ios":"levelo://app?vid=b6c6609d-9c7a-4d47-aebc-f0a1a1b2ec02"},"vehicle_type_id":"4","last_reported":1762694215,"current_range_meters":9600,"station_id":"ce4bhnp2rcd13ifvqgvg","pricing_plan_id":"cebpf4jnsgd1na2vs0mg"},{"bike_id":"1a85bd73-f6c9-483d-ac28-5d95b6775d78","system_id":"levelo_inurba_marseille","lat":43.2871,"lon":5.37951,"is_reserved":false,"is_disabled":true,"rental_uris":{"android":"levelo://app?vid=1a85bd73-f6c9-483d-ac28-5d95b6775d78","ios":"levelo://app?vid=1a85bd73-f6c9-483d-ac28-5d95b6775d78"},"vehicle_type_id":"4","last_reported":1762694215,"current_range_meters":10000,"station_id":"ce4bh9p2rcd13ifvqec0","pricing_plan_id":"cebpf4jnsgd1na2vs0mg"},{"bike_id":"6fb9aaeb-fd54-4120-8c7f-cb19a69f6629","system_id":"levelo_inurba_marseille","lat":43.23444,"lon":5.37148,"is_reserved":false,"is_disabled":false,"rental_uris":{"android":"levelo://app?vid=6fb9aaeb-fd54-4120-8c7f-cb19a69f6629","ios":"levelo://app?vid=6fb9aaeb-fd54-4120-8c7f-cb19a69f6629"},"vehicle_type_id":"4","last_reported":1762694215,"current_range_meters":10000,"station_id":"","pricing_plan_id":"cebpf4jnsgd1na2vs0mg"},{"bike_id":"e59b739a-7f14-489f-942a-96b256a8bc64","system_id":"levelo_inurba_marseille","lat":43.30458,"lon":5.379,"is_reserved":false,"is_disabled":false,"rental_uris":{"android":"levelo://app?vid=e59b739a-7f14-489f-942a-96b256a8bc64","ios":"levelo://app?vid=e59b739a-7f14-489f-942a-96b256a8bc64"},"vehicle_type_id":"4","last_reported":1762694215,"current_range_meters":10000,"station_id":"ce4bgup2rcd13ifvqcn0","pricing_plan_id":"cebpf4jnsgd1na2vs0mg"},{"bike_id":"15db09df-59b0-446a-87c5-e354a3319258","system_id":"levelo_inurba_marseille","lat":43.28479,"lon":5.48393,"is_reserved":false,"is_disabled":false,"rental_uris":{"android":"levelo://app?vid=15db09df-59b0-446a-87c5-e354a3319258","ios":"levelo://app?vid=15db09df-59b0-446a-87c5-e354a3319258"},"vehicle_type_id":"4","last_reported":1762694215,"current_range_meters":10000,"station_id":"st_d3svhcjqgbts73a3dn0g","pricing_plan_id":"cebpf4jnsgd1na2vs0mg"},{"bike_id":"fec91c3a-85e6-40ff-973e-d2a33b3b293e","system_id":"levelo_inurba_marseille","lat":43.24949,"lon":5.40519,"is_reserved":false,"is_disabled":false,"rental_uris":{"android":"levelo://app?vid=fec91c3a-85e6-40ff-973e-d2a33b3b293e","ios":"levelo://app?vid=fec91c3a-85e6-40ff-973e-d2a33b3b293e"},"vehicle_type_id":"4","last_reported":1762694215,"current_range_meters":10000,"station_id":"st_d2ngiaodas8pm72gd1h0","pricing_plan_id":"cebpf4jnsgd1na2vs0mg"},{"bike_id":"6b294fb1-3737-4590-a580-b6aacade0244","system_id":"levelo_inurba_marseille","lat":43.288618,"lon":5.358509,"is_reserved":false,"is_disabled":false,"rental_uris":{"android":"levelo://app?vid=6b294fb1-3737-4590-a580-b6aacade0244","ios":"levelo://app?vid=6b294fb1-3737-4590-a580-b6aacade0244"},"vehicle_type_id":"4","last_reported":1762694215,"current_range_meters":10000,"station_id":"ce4bhb12rcd13ifvqem0","pricing_plan_id":"cebpf4jnsgd1na2vs0mg"},{"bike_id":"21dcb4e2-bef4-415f-aa59-cd0b9e2cb07b","system_id":"levelo_inurba_marseille","lat":43.2281,"lon":5.43491,"is_reserved":false,"is_disabled":false,"rental_uris":{"android":"levelo://app?vid=21dcb4e2-bef4-415f-aa59-cd0b9e2cb07b","ios":"levelo://app?vid=21dcb4e2-bef4-415f-aa59-cd0b9e2cb07b"},"vehicle_type_id":"4","last_reported":1762694215,"current_range_meters":10000,"station_id":"","pricing_plan_id":"cebpf4jnsgd1na2vs0mg"},{"bike_id":"f1eadef1-7411-4b4a-88e3-893dade9478b","system_id":"levelo_inurba_marseille","lat":43.28274,"lon":5.35066,"is_reserved":false,"is_disabled":false,"rental_uris":{"android":"levelo://app?vid=f1eadef1-7411-4b4a-88e3-893dade9478b","ios":"levelo://app?vid=f1eadef1-7411-4b4a-88e3-893dade9478b"},"vehicle_type_id":"4","last_reported":1762694215,"current_range_meters":10000,"station_id":"ce4bhbp2rcd13ifvqerg","pricing_plan_id":"cebpf4jnsgd1na2vs0mg"},{"bike_id":"1e11a8ec-54e7-42c4-915c-2e68d20842c6","system_id":"levelo_inurba_marseille","lat":43.21188,"lon":5.35074,"is_reserved":false,"is_disabled":false,"rental_uris":{"android":"levelo://app?vid=1e11a8ec-54e7-42c4-915c-2e68d20842c6","ios":"levelo://app?vid=1e11a8ec-54e7-42c4-915c-2e68d20842c6"},"vehicle_type_id":"4","last_reported":1762694215,"current_range_meters":10800,"station_id":"st_cvj6sg6p6f1abm77japg","pricing_plan_id":"cebpf4jnsgd1na2vs0mg"},{"bike_id":"d32acf6f-21aa-4fbf-bed6-33d296ca0f9f","system_id":"levelo_inurba_marseille","lat":43.21742,"lon":5.34618,"is_reserved":false,"is_disabled":false,"rental_uris":{"android":"levelo://app?vid=d32acf6f-21aa-4fbf-bed6-33d296ca0f9f","ios":"levelo://app?vid=d32acf6f-21aa-4fbf-bed6-33d296ca0f9f"},"vehicle_type_id":"4","last_reported":1762694215,"current_range_meters":10800,"station_id":"st_cvj6r9ubvosntc0bgbag","pricing_plan_id":"cebpf4jnsgd1na2vs0mg"},{"bike_id":"358e145c-7e21-4a89-b81e-addc4febf6be","system_id":"levelo_inurba_marseille","lat":43.28423,"lon":5.34979,"is_reserved":false,"is_disabled":false,"rental_uris":{"android":"levelo://app?vid=358e145c-7e21-4a89-b81e-addc4febf6be","ios":"levelo://app?vid=358e145c-7e21-4a89-b81e-addc4febf6be"},"vehicle_type_id":"4","last_reported":1762694215,"current_range_meters":10800,"station_id":"ce4bhbh2rcd13ifvqepg","pricing_plan_id":"cebpf4jnsgd1na2vs0mg"},{"bike_id":"84138f31-9213-45c3-a4c2-e6e9fdfb5ae1","system_id":"levelo_inurba_marseille","lat":43.292311,"lon":5.364797,"is_reserved":false,"is_disabled":false,"rental_uris":{"android":"levelo://app?vid=84138f31-9213-45c3-a4c2-e6e9fdfb5ae1","ios":"levelo://app?vid=84138f31-9213-45c3-a4c2-e6e9fdfb5ae1"},"vehicle_type_id":"4","last_reported":1762694215,"current_range_meters":10800,"station_id":"","pricing_plan_id":"cebpf4jnsgd1na2vs0mg"},{"bike_id":"cb3a3533-a729-4fcd-a345-b12d6b02fb16","system_id":"levelo_inurba_marseille","lat":43.292235,"lon":5.360573,"is_reserved":false,"is_disabled":false,"rental_uris":{"android":"levelo://app?vid=cb3a3533-a729-4fcd-a345-b12d6b02fb16","ios":"levelo://app?vid=cb3a3533-a729-4fcd-a345-b12d6b02fb16"},"vehicle_type_id":"4","last_reported":1762694215,"current_range_meters":10800,"station_id":"ce4bhb12rcd13ifvqel0","pricing_plan_id":"cebpf4jnsgd1na2vs0mg"},{"bike_id":"63561aa8-ec74-47a5-b441-03bcb4a24523","system_id":"levelo_inurba_marseille","lat":43.28994,"lon":5.35627,"is_reserved":false,"is_disabled":false,"rental_uris":{"android":"levelo://app?vid=63561aa8-ec74-47a5-b441-03bcb4a24523","ios":"levelo://app?vid=63561aa8-ec74-47a5-b441-03bcb4a24523"},"vehicle_type_id":"4","last_reported":1762694215,"current_range_meters":11200,"station_id":"ce4bhb92rcd13ifvqen0","pricing_plan_id":"cebpf4jnsgd1na2vs0mg"},{"bike_id":"b681f4da-d343-4d3f-9719-5727edd4a059","system_id":"levelo_inurba_marseille","lat":43.231798,"lon":5.399892,"is_reserved":false,"is_disabled":false,"rental_uris":{"android":"levelo://app?vid=b681f4da-d343-4d3f-9719-5727edd4a059","ios":"levelo://app?vid=b681f4da-d343-4d3f-9719-5727edd4a059"},"vehicle_type_id":"4","last_reported":1762694215,"current_range_meters":11200,"station_id":"ce4bhn12rcd13ifvqgqg","pricing_plan_id":"cebpf4jnsgd1na2vs0mg"},{"bike_id":"30293f50-2d87-4bd3-bdbf-9253b55edf9b","system_id":"levelo_inurba_marseille","lat":43.2842,"lon":5.34996,"is_reserved":false,"is_disabled":false,"rental_uris":{"android":"levelo://app?vid=30293f50-2d87-4bd3-bdbf-9253b55edf9b","ios":"levelo://app?vid=30293f50-2d87-4bd3-bdbf-9253b55edf9b"},"vehicle_type_id":"4","last_reported":1762694215,"current_range_meters":11200,"station_id":"ce4bhbh2rcd13ifvqepg","pricing_plan_id":"cebpf4jnsgd1na2vs0mg"},{"bike_id":"ce8c961a-85c8-44ab-ae83-7f378b5ad238","system_id":"levelo_inurba_marseille","lat":43.28143,"lon":5.42656,"is_reserved":false,"is_disabled":false,"rental_uris":{"android":"levelo://app?vid=ce8c961a-85c8-44ab-ae83-7f378b5ad238","ios":"levelo://app?vid=ce8c961a-85c8-44ab-ae83-7f378b5ad238"},"vehicle_type_id":"4","last_reported":1762694215,"current_range_meters":11200,"station_id":"ce4bhnh2rcd13ifvqgug","pricing_plan_id":"cebpf4jnsgd1na2vs0mg"},{"bike_id":"b6e4535c-5cae-4935-a3fb-2bbd0399a4f7","system_id":"levelo_inurba_marseille","lat":43.21207,"lon":5.35097,"is_reserved":false,"is_disabled":false,"rental_uris":{"android":"levelo://app?vid=b6e4535c-5cae-4935-a3fb-2bbd0399a4f7","ios":"levelo://app?vid=b6e4535c-5cae-4935-a3fb-2bbd0399a4f7"},"vehicle_type_id":"4","last_reported":1762694215,"current_range_meters":11200,"station_id":"st_cvj6sg6p6f1abm77japg","pricing_plan_id":"cebpf4jnsgd1na2vs0mg"},{"bike_id":"d6ed9011-3ec4-4b71-9ce9-491612fd8036","system_id":"levelo_inurba_marseille","lat":43.217416,"lon":5.346048,"is_reserved":false,"is_disabled":false,"rental_uris":{"android":"levelo://app?vid=d6ed9011-3ec4-4b71-9ce9-491612fd8036","ios":"levelo://app?vid=d6ed9011-3ec4-4b71-9ce9-491612fd8036"},"vehicle_type_id":"4","last_reported":1762694215,"current_range_meters":11200,"station_id":"","pricing_plan_id":"cebpf4jnsgd1na2vs0mg"},{"bike_id":"ff75fddd-725b-4415-803d-ac1c3bbe42fc","system_id":"levelo_inurba_marseille","lat":43.23969,"lon":5.3664,"is_reserved":false,"is_disabled":false,"rental_uris":{"android":"levelo://app?vid=ff75fddd-725b-4415-803d-ac1c3bbe42fc","ios":"levelo://app?vid=ff75fddd-725b-4415-803d-ac1c3bbe42fc"},"vehicle_type_id":"4","last_reported":1762694215,"current_range_meters":11200,"station_id":"ce4bhi12rcd13ifvqfp0","pricing_plan_id":"cebpf4jnsgd1na2vs0mg"},{"bike_id":"4a24ba0e-3fea-4a47-bce7-1c8fbdbdb45d","system_id":"levelo_inurba_marseille","lat":43.217273,"lon":5.346101,"is_reserved":false,"is_disabled":false,"rental_uris":{"android":"levelo://app?vid=4a24ba0e-3fea-4a47-bce7-1c8fbdbdb45d","ios":"levelo://app?vid=4a24ba0e-3fea-4a47-bce7-1c8fbdbdb45d"},"vehicle_type_id":"4","last_reported":1762694215,"current_range_meters":11200,"station_id":"st_cvj6r9ubvosntc0bgbag","pricing_plan_id":"cebpf4jnsgd1na2vs0mg"},{"bike_id":"3e2b6028-a539-4e64-9081-578276ce4315","system_id":"levelo_inurba_marseille","lat":43.245775,"lon":5.421115,"is_reserved":false,"is_disabled":false,"rental_uris":{"android":"levelo://app?vid=3e2b6028-a539-4e64-9081-578276ce4315","ios":"levelo://app?vid=3e2b6028-a539-4e64-9081-578276ce4315"},"vehicle_type_id":"4","last_reported":1762694215,"current_range_meters":11600,"station_id":"","pricing_plan_id":"cebpf4jnsgd1na2vs0mg"},{"bike_id":"20aec11f-7a4a-42df-876d-0421386d8ab9","system_id":"levelo_inurba_marseille","lat":43.256367,"lon":5.39394,"is_reserved":false,"is_disabled":false,"rental_uris":{"android":"levelo://app?vid=20aec11f-7a4a-42df-876d-0421386d8ab9","ios":"levelo://app?vid=20aec11f-7a4a-42df-876d-0421386d8ab9"},"vehicle_type_id":"4","last_reported":1762694215,"current_range_meters":11600,"station_id":"","pricing_plan_id":"cebpf4jnsgd1na2vs0mg"},{"bike_id":"6ca580b9-ae87-4e9b-a62c-4e0f6a07370c","system_id":"levelo_inurba_marseille","lat":43.21184,"lon":5.35083,"is_reserved":false,"is_disabled":false,"rental_uris":{"android":"levelo://app?vid=6ca580b9-ae87-4e9b-a62c-4e0f6a07370c","ios":"levelo://app?vid=6ca580b9-ae87-4e9b-a62c-4e0f6a07370c"},"vehicle_type_id":"4","last_reported":1762694215,"current_range_meters":11600,"station_id":"st_cvj6sg6p6f1abm77japg","pricing_plan_id":"cebpf4jnsgd1na2vs0mg"},{"bike_id":"68fe3127-fbae-4034-8ad3-b514cee71577","system_id":"levelo_inurba_marseille","lat":43.217321,"lon":5.346082,"is_reserved":false,"is_disabled":false,"rental_uris":{"android":"levelo://app?vid=68fe3127-fbae-4034-8ad3-b514cee71577","ios":"levelo://app?vid=68fe3127-fbae-4034-8ad3-b514cee71577"},"vehicle_type_id":"4","last_reported":1762694215,"current_range_meters":11600,"station_id":"","pricing_plan_id":"cebpf4jnsgd1na2vs0mg"},{"bike_id":"c6d5d8d4-4173-4646-a45b-e93034e39692","system_id":"levelo_inurba_marseille","lat":43.23146,"lon":5.43732,"is_reserved":false,"is_disabled":false,"rental_uris":{"android":"levelo://app?vid=c6d5d8d4-4173-4646-a45b-e93034e39692","ios":"levelo://app?vid=c6d5d8d4-4173-4646-a45b-e93034e39692"},"vehicle_type_id":"4","last_reported":1762694215,"current_range_meters":11600,"station_id":"ce4bhmp2rcd13ifvqgog","pricing_plan_id":"cebpf4jnsgd1na2vs0mg"},{"bike_id":"06b572d6-d95a-4f1a-9a9a-b316897ad6d5","system_id":"levelo_inurba_marseille","lat":43.29545,"lon":5.3752,"is_reserved":false,"is_disabled":false,"rental_uris":{"android":"levelo://app?vid=06b572d6-d95a-4f1a-9a9a-b316897ad6d5","ios":"levelo://app?vid=06b572d6-d95a-4f1a-9a9a-b316897ad6d5"},"vehicle_type_id":"4","last_reported":1762694215,"current_range_meters":11600,"station_id":"ce4bgkp2rcd13ifvqbmg","pricing_plan_id":"cebpf4jnsgd1na2vs0mg"},{"bike_id":"ac1012d0-7872-4c6e-85e6-fc8eaff39396","system_id":"levelo_inurba_marseille","lat":43.28464,"lon":5.35888,"is_reserved":false,"is_disabled":true,"rental_uris":{"android":"levelo://app?vid=ac1012d0-7872-4c6e-85e6-fc8eaff39396","ios":"levelo://app?vid=ac1012d0-7872-4c6e-85e6-fc8eaff39396"},"vehicle_type_id":"4","last_reported":1762694215,"current_range_meters":11600,"station_id":"ce4bhah2rcd13ifvqei0","pricing_plan_id":"cebpf4jnsgd1na2vs0mg"},{"bike_id":"2a77d240-5e6e-4739-a623-4b0d7d1cf2b9","system_id":"levelo_inurba_marseille","lat":43.29228,"lon":5.3607,"is_reserved":false,"is_disabled":false,"rental_uris":{"android":"levelo://app?vid=2a77d240-5e6e-4739-a623-4b0d7d1cf2b9","ios":"levelo://app?vid=2a77d240-5e6e-4739-a623-4b0d7d1cf2b9"},"vehicle_type_id":"4","last_reported":1762694215,"current_range_meters":11600,"station_id":"ce4bhbh2rcd13ifvqeqg","pricing_plan_id":"cebpf4jnsgd1na2vs0mg"},{"bike_id":"75c3852d-c6d5-4280-9fd2-b0b3b076bdcc","system_id":"levelo_inurba_marseille","lat":43.217394,"lon":5.346068,"is_reserved":false,"is_disabled":false,"rental_uris":{"android":"levelo://app?vid=75c3852d-c6d5-4280-9fd2-b0b3b076bdcc","ios":"levelo://app?vid=75c3852d-c6d5-4280-9fd2-b0b3b076bdcc"},"vehicle_type_id":"4","last_reported":1762694215,"current_range_meters":12000,"station_id":"st_cvj6r9ubvosntc0bgbag","pricing_plan_id":"cebpf4jnsgd1na2vs0mg"},{"bike_id":"f29a0016-bf28-4750-9f1d-f27b8c9948fb","system_id":"levelo_inurba_marseille","lat":43.24948,"lon":5.40494,"is_reserved":false,"is_disabled":false,"rental_uris":{"android":"levelo://app?vid=f29a0016-bf28-4750-9f1d-f27b8c9948fb","ios":"levelo://app?vid=f29a0016-bf28-4750-9f1d-f27b8c9948fb"},"vehicle_type_id":"4","last_reported":1762694215,"current_range_meters":12000,"station_id":"st_d2ngiaodas8pm72gd1h0","pricing_plan_id":"cebpf4jnsgd1na2vs0mg"},{"bike_id":"50f530d8-a703-4d21-9bca-1083f2e62edb","system_id":"levelo_inurba_marseille","lat":43.25334,"lon":5.42174,"is_reserved":false,"is_disabled":false,"rental_uris":{"android":"levelo://app?vid=50f530d8-a703-4d21-9bca-1083f2e62edb","ios":"levelo://app?vid=50f530d8-a703-4d21-9bca-1083f2e62edb"},"vehicle_type_id":"4","last_reported":1762694215,"current_range_meters":12000,"station_id":"st_d2m65c5bi1j21697t3ng","pricing_plan_id":"cebpf4jnsgd1na2vs0mg"},{"bike_id":"ac0ee83a-95e6-4018-ad73-5bb6f62aa397","system_id":"levelo_inurba_marseille","lat":43.31491,"lon":5.37312,"is_reserved":false,"is_disabled":false,"rental_uris":{"android":"levelo://app?vid=ac0ee83a-95e6-4018-ad73-5bb6f62aa397","ios":"levelo://app?vid=ac0ee83a-95e6-4018-ad73-5bb6f62aa397"},"vehicle_type_id":"4","last_reported":1762694215,"current_range_meters":12000,"station_id":"ce4bgt12rcd13ifvqcd0","pricing_plan_id":"cebpf4jnsgd1na2vs0mg"},{"bike_id":"efff97ef-b67c-45a8-962f-651ecdf62653","system_id":"levelo_inurba_marseille","lat":43.22559,"lon":5.41627,"is_reserved":false,"is_disabled":false,"rental_uris":{"android":"levelo://app?vid=efff97ef-b67c-45a8-962f-651ecdf62653","ios":"levelo://app?vid=efff97ef-b67c-45a8-962f-651ecdf62653"},"vehicle_type_id":"4","last_reported":1762694215,"current_range_meters":12000,"station_id":"st_d2o4gvlbi1j2169b742g","pricing_plan_id":"cebpf4jnsgd1na2vs0mg"},{"bike_id":"ff930215-2f09-4f9c-9eb6-2fad6e642205","system_id":"levelo_inurba_marseille","lat":43.211948,"lon":5.350695,"is_reserved":false,"is_disabled":false,"rental_uris":{"android":"levelo://app?vid=ff930215-2f09-4f9c-9eb6-2fad6e642205","ios":"levelo://app?vid=ff930215-2f09-4f9c-9eb6-2fad6e642205"},"vehicle_type_id":"4","last_reported":1762694215,"current_range_meters":12000,"station_id":"","pricing_plan_id":"cebpf4jnsgd1na2vs0mg"},{"bike_id":"435625df-0122-4f38-bfeb-0b83ed7110c3","system_id":"levelo_inurba_marseille","lat":43.258,"lon":5.39416,"is_reserved":false,"is_disabled":false,"rental_uris":{"android":"levelo://app?vid=435625df-0122-4f38-bfeb-0b83ed7110c3","ios":"levelo://app?vid=435625df-0122-4f38-bfeb-0b83ed7110c3"},"vehicle_type_id":"4","last_reported":1762694215,"current_range_meters":12000,"station_id":"ce4bhip2rcd13ifvqft0","pricing_plan_id":"cebpf4jnsgd1na2vs0mg"},{"bike_id":"bcb7664a-39c2-46f8-930f-41cebd3d0b86","system_id":"levelo_inurba_marseille","lat":43.21199,"lon":5.35091,"is_reserved":false,"is_disabled":true,"rental_uris":{"android":"levelo://app?vid=bcb7664a-39c2-46f8-930f-41cebd3d0b86","ios":"levelo://app?vid=bcb7664a-39c2-46f8-930f-41cebd3d0b86"},"vehicle_type_id":"4","last_reported":1762694215,"current_range_meters":12000,"station_id":"st_cvj6sg6p6f1abm77japg","pricing_plan_id":"cebpf4jnsgd1na2vs0mg"},{"bike_id":"b343e7d4-d786-4665-9636-a7f91c01ef9b","system_id":"levelo_inurba_marseille","lat":43.253337,"lon":5.421736,"is_reserved":false,"is_disabled":false,"rental_uris":{"android":"levelo://app?vid=b343e7d4-d786-4665-9636-a7f91c01ef9b","ios":"levelo://app?vid=b343e7d4-d786-4665-9636-a7f91c01ef9b"},"vehicle_type_id":"4","last_reported":1762694215,"current_range_meters":12000,"station_id":"st_d2m65c5bi1j21697t3ng","pricing_plan_id":"cebpf4jnsgd1na2vs0mg"},{"bike_id":"2ffaa6f4-3b56-4418-ac8d-26154db85158","system_id":"levelo_inurba_marseille","lat":43.231968,"lon":5.355619,"is_reserved":false,"is_disabled":false,"rental_uris":{"android":"levelo://app?vid=2ffaa6f4-3b56-4418-ac8d-26154db85158","ios":"levelo://app?vid=2ffaa6f4-3b56-4418-ac8d-26154db85158"},"vehicle_type_id":"4","last_reported":1762694215,"current_range_meters":12000,"station_id":"ce4bhu92rcd13ifvqi70","pricing_plan_id":"cebpf4jnsgd1na2vs0mg"},{"bike_id":"82cf4a23-7ea0-4ed2-beaf-32c85a42aa0f","system_id":"levelo_inurba_marseille","lat":43.243932,"lon":5.370702,"is_reserved":false,"is_disabled":false,"rental_uris":{"android":"levelo://app?vid=82cf4a23-7ea0-4ed2-beaf-32c85a42aa0f","ios":"levelo://app?vid=82cf4a23-7ea0-4ed2-beaf-32c85a42aa0f"},"vehicle_type_id":"4","last_reported":1762694215,"current_range_meters":12400,"station_id":"ce4bhhh2rcd13ifvqfk0","pricing_plan_id":"cebpf4jnsgd1na2vs0mg"},{"bike_id":"9d3e7657-6f4c-408b-98e0-1a01ff29eba7","system_id":"levelo_inurba_marseille","lat":43.26199,"lon":5.37929,"is_reserved":false,"is_disabled":false,"rental_uris":{"android":"levelo://app?vid=9d3e7657-6f4c-408b-98e0-1a01ff29eba7","ios":"levelo://app?vid=9d3e7657-6f4c-408b-98e0-1a01ff29eba7"},"vehicle_type_id":"4","last_reported":1762694215,"current_range_meters":12400,"station_id":"ce4bhjp2rcd13ifvqg90","pricing_plan_id":"cebpf4jnsgd1na2vs0mg"},{"bike_id":"90e75491-f300-4cd4-95d9-4fcce675996b","system_id":"levelo_inurba_marseille","lat":43.28409,"lon":5.37524,"is_reserved":false,"is_disabled":true,"rental_uris":{"android":"levelo://app?vid=90e75491-f300-4cd4-95d9-4fcce675996b","ios":"levelo://app?vid=90e75491-f300-4cd4-95d9-4fcce675996b"},"vehicle_type_id":"4","last_reported":1762694215,"current_range_meters":12400,"station_id":"ce4bh412rcd13ifvqds0","pricing_plan_id":"cebpf4jnsgd1na2vs0mg"},{"bike_id":"260e08db-ebe0-43dc-841f-0b6cfdac9a2f","system_id":"levelo_inurba_marseille","lat":43.25107,"lon":5.40321,"is_reserved":false,"is_disabled":false,"rental_uris":{"android":"levelo://app?vid=260e08db-ebe0-43dc-841f-0b6cfdac9a2f","ios":"levelo://app?vid=260e08db-ebe0-43dc-841f-0b6cfdac9a2f"},"vehicle_type_id":"4","last_reported":1762694215,"current_range_meters":12400,"station_id":"ce4bhlh2rcd13ifvqgig","pricing_plan_id":"cebpf4jnsgd1na2vs0mg"},{"bike_id":"2fb7e6e5-5078-440d-9973-10c513bd57c1","system_id":"levelo_inurba_marseille","lat":43.21731,"lon":5.3461,"is_reserved":false,"is_disabled":false,"rental_uris":{"android":"levelo://app?vid=2fb7e6e5-5078-440d-9973-10c513bd57c1","ios":"levelo://app?vid=2fb7e6e5-5078-440d-9973-10c513bd57c1"},"vehicle_type_id":"4","last_reported":1762694215,"current_range_meters":12400,"station_id":"st_cvj6r9ubvosntc0bgbag","pricing_plan_id":"cebpf4jnsgd1na2vs0mg"},{"bike_id":"4d9afb84-e6a4-4bed-829b-5982f82d52fc","system_id":"levelo_inurba_marseille","lat":43.23053,"lon":5.35493,"is_reserved":false,"is_disabled":false,"rental_uris":{"android":"levelo://app?vid=4d9afb84-e6a4-4bed-829b-5982f82d52fc","ios":"levelo://app?vid=4d9afb84-e6a4-4bed-829b-5982f82d52fc"},"vehicle_type_id":"4","last_reported":1762694215,"current_range_meters":12400,"station_id":"cpo3342slgdg3j2ifvpg","pricing_plan_id":"cebpf4jnsgd1na2vs0mg"},{"bike_id":"175e4ace-43f7-4e32-99c1-d68c4fd63ec6","system_id":"levelo_inurba_marseille","lat":43.22566,"lon":5.41636,"is_reserved":false,"is_disabled":false,"rental_uris":{"android":"levelo://app?vid=175e4ace-43f7-4e32-99c1-d68c4fd63ec6","ios":"levelo://app?vid=175e4ace-43f7-4e32-99c1-d68c4fd63ec6"},"vehicle_type_id":"4","last_reported":1762694215,"current_range_meters":12400,"station_id":"st_d2o4gvlbi1j2169b742g","pricing_plan_id":"cebpf4jnsgd1na2vs0mg"},{"bike_id":"317822ad-eebe-4d49-be47-de3738a7f974","system_id":"levelo_inurba_marseille","lat":43.33141,"lon":5.37695,"is_reserved":false,"is_disabled":false,"rental_uris":{"android":"levelo://app?vid=317822ad-eebe-4d49-be47-de3738a7f974","ios":"levelo://app?vid=317822ad-eebe-4d49-be47-de3738a7f974"},"vehicle_type_id":"4","last_reported":1762694215,"current_range_meters":12800,"station_id":"st_d46cu089ee8s73dldbu0","pricing_plan_id":"cebpf4jnsgd1na2vs0mg"},{"bike_id":"a697c050-65cb-4cad-975c-84488c6104a1","system_id":"levelo_inurba_marseille","lat":43.3198,"lon":5.38212,"is_reserved":false,"is_disabled":false,"rental_uris":{"android":"levelo://app?vid=a697c050-65cb-4cad-975c-84488c6104a1","ios":"levelo://app?vid=a697c050-65cb-4cad-975c-84488c6104a1"},"vehicle_type_id":"4","last_reported":1762694215,"current_range_meters":12800,"station_id":"ce4bhr12rcd13ifvqhpg","pricing_plan_id":"cebpf4jnsgd1na2vs0mg"},{"bike_id":"96653769-d664-41ed-98b8-3d9d06f1758d","system_id":"levelo_inurba_marseille","lat":43.21729,"lon":5.34611,"is_reserved":false,"is_disabled":false,"rental_uris":{"android":"levelo://app?vid=96653769-d664-41ed-98b8-3d9d06f1758d","ios":"levelo://app?vid=96653769-d664-41ed-98b8-3d9d06f1758d"},"vehicle_type_id":"4","last_reported":1762694215,"current_range_meters":12800,"station_id":"st_cvj6r9ubvosntc0bgbag","pricing_plan_id":"cebpf4jnsgd1na2vs0mg"},{"bike_id":"ba06c18c-7476-4441-b98e-ed0806ce733d","system_id":"levelo_inurba_marseille","lat":43.23182,"lon":5.39991,"is_reserved":false,"is_disabled":false,"rental_uris":{"android":"levelo://app?vid=ba06c18c-7476-4441-b98e-ed0806ce733d","ios":"levelo://app?vid=ba06c18c-7476-4441-b98e-ed0806ce733d"},"vehicle_type_id":"4","last_reported":1762694215,"current_range_meters":13600,"station_id":"ce4bhn12rcd13ifvqgqg","pricing_plan_id":"cebpf4jnsgd1na2vs0mg"},{"bike_id":"831c71a9-4580-4985-877b-fe53e056ced9","system_id":"levelo_inurba_marseille","lat":43.26056,"lon":5.39402,"is_reserved":false,"is_disabled":false,"rental_uris":{"android":"levelo://app?vid=831c71a9-4580-4985-877b-fe53e056ced9","ios":"levelo://app?vid=831c71a9-4580-4985-877b-fe53e056ced9"},"vehicle_type_id":"4","last_reported":1762694215,"current_range_meters":13600,"station_id":"ce4bhh92rcd13ifvqfj0","pricing_plan_id":"cebpf4jnsgd1na2vs0mg"},{"bike_id":"a5a51bf9-9908-420d-8212-6ef8d2db5d39","system_id":"levelo_inurba_marseille","lat":43.27384,"lon":5.36262,"is_reserved":false,"is_disabled":false,"rental_uris":{"android":"levelo://app?vid=a5a51bf9-9908-420d-8212-6ef8d2db5d39","ios":"levelo://app?vid=a5a51bf9-9908-420d-8212-6ef8d2db5d39"},"vehicle_type_id":"4","last_reported":1762694215,"current_range_meters":13600,"station_id":"ce4bhbh2rcd13ifvqeo0","pricing_plan_id":"cebpf4jnsgd1na2vs0mg"},{"bike_id":"68e2a4eb-9515-41fd-aa1c-8497e40ac482","system_id":"levelo_inurba_marseille","lat":43.29925,"lon":5.381372,"is_reserved":false,"is_disabled":true,"rental_uris":{"android":"levelo://app?vid=68e2a4eb-9515-41fd-aa1c-8497e40ac482","ios":"levelo://app?vid=68e2a4eb-9515-41fd-aa1c-8497e40ac482"},"vehicle_type_id":"4","last_reported":1762694215,"current_range_meters":13600,"station_id":"ce4bgj12rcd13ifvqbc0","pricing_plan_id":"cebpf4jnsgd1na2vs0mg"},{"bike_id":"1ea9e71d-dca8-4b36-b970-455a5392e6ee","system_id":"levelo_inurba_marseille","lat":43.21209,"lon":5.35076,"is_reserved":false,"is_disabled":false,"rental_uris":{"android":"levelo://app?vid=1ea9e71d-dca8-4b36-b970-455a5392e6ee","ios":"levelo://app?vid=1ea9e71d-dca8-4b36-b970-455a5392e6ee"},"vehicle_type_id":"4","last_reported":1762694215,"current_range_meters":13600,"station_id":"","pricing_plan_id":"cebpf4jnsgd1na2vs0mg"},{"bike_id":"0f05eee5-fa92-42a1-93f1-6d400a199022","system_id":"levelo_inurba_marseille","lat":43.25822,"lon":5.39438,"is_reserved":false,"is_disabled":false,"rental_uris":{"android":"levelo://app?vid=0f05eee5-fa92-42a1-93f1-6d400a199022","ios":"levelo://app?vid=0f05eee5-fa92-42a1-93f1-6d400a199022"},"vehicle_type_id":"4","last_reported":1762694215,"current_range_meters":13600,"station_id":"ce4bhip2rcd13ifvqft0","pricing_plan_id":"cebpf4jnsgd1na2vs0mg"},{"bike_id":"c19b9475-1f49-4df3-a555-5f8ad7c35f16","system_id":"levelo_inurba_marseille","lat":43.22532,"lon":5.34826,"is_reserved":false,"is_disabled":false,"rental_uris":{"android":"levelo://app?vid=c19b9475-1f49-4df3-a555-5f8ad7c35f16","ios":"levelo://app?vid=c19b9475-1f49-4df3-a555-5f8ad7c35f16"},"vehicle_type_id":"4","last_reported":1762694215,"current_range_meters":13600,"station_id":"st_cvj5dfep6f1abm77gieg","pricing_plan_id":"cebpf4jnsgd1na2vs0mg"},{"bike_id":"791fe681-d1e5-4f16-8a6c-8b2cee326ca5","system_id":"levelo_inurba_marseille","lat":43.23176,"lon":5.39988,"is_reserved":false,"is_disabled":false,"rental_uris":{"android":"levelo://app?vid=791fe681-d1e5-4f16-8a6c-8b2cee326ca5","ios":"levelo://app?vid=791fe681-d1e5-4f16-8a6c-8b2cee326ca5"},"vehicle_type_id":"4","last_reported":1762694215,"current_range_meters":13600,"station_id":"ce4bhn12rcd13ifvqgqg","pricing_plan_id":"cebpf4jnsgd1na2vs0mg"},{"bike_id":"2e27933d-fc18-453e-ad3c-dfe367228a43","system_id":"levelo_inurba_marseille","lat":43.25335,"lon":5.42172,"is_reserved":false,"is_disabled":false,"rental_uris":{"android":"levelo://app?vid=2e27933d-fc18-453e-ad3c-dfe367228a43","ios":"levelo://app?vid=2e27933d-fc18-453e-ad3c-dfe367228a43"},"vehicle_type_id":"4","last_reported":1762694215,"current_range_meters":13600,"station_id":"st_d2m65c5bi1j21697t3ng","pricing_plan_id":"cebpf4jnsgd1na2vs0mg"},{"bike_id":"d8a2355e-a776-4b85-8a3e-22368796688d","system_id":"levelo_inurba_marseille","lat":43.30805,"lon":5.36844,"is_reserved":false,"is_disabled":false,"rental_uris":{"android":"levelo://app?vid=d8a2355e-a776-4b85-8a3e-22368796688d","ios":"levelo://app?vid=d8a2355e-a776-4b85-8a3e-22368796688d"},"vehicle_type_id":"4","last_reported":1762694215,"current_range_meters":13600,"station_id":"","pricing_plan_id":"cebpf4jnsgd1na2vs0mg"},{"bike_id":"1bf52e91-7eed-47f6-85f0-23883e35d38b","system_id":"levelo_inurba_marseille","lat":43.211886,"lon":5.350738,"is_reserved":false,"is_disabled":false,"rental_uris":{"android":"levelo://app?vid=1bf52e91-7eed-47f6-85f0-23883e35d38b","ios":"levelo://app?vid=1bf52e91-7eed-47f6-85f0-23883e35d38b"},"vehicle_type_id":"4","last_reported":1762694215,"current_range_meters":14000,"station_id":"st_cvj6sg6p6f1abm77japg","pricing_plan_id":"cebpf4jnsgd1na2vs0mg"},{"bike_id":"d7f127c2-c841-474e-95f5-ca9140c28898","system_id":"levelo_inurba_marseille","lat":43.21186,"lon":5.3508,"is_reserved":false,"is_disabled":false,"rental_uris":{"android":"levelo://app?vid=d7f127c2-c841-474e-95f5-ca9140c28898","ios":"levelo://app?vid=d7f127c2-c841-474e-95f5-ca9140c28898"},"vehicle_type_id":"4","last_reported":1762694215,"current_range_meters":14000,"station_id":"st_cvj6sg6p6f1abm77japg","pricing_plan_id":"cebpf4jnsgd1na2vs0mg"},{"bike_id":"9c190741-c6fe-421f-88a1-d4f9068e78be","system_id":"levelo_inurba_marseille","lat":43.21191,"lon":5.35076,"is_reserved":false,"is_disabled":false,"rental_uris":{"android":"levelo://app?vid=9c190741-c6fe-421f-88a1-d4f9068e78be","ios":"levelo://app?vid=9c190741-c6fe-421f-88a1-d4f9068e78be"},"vehicle_type_id":"4","last_reported":1762694215,"current_range_meters":14000,"station_id":"st_cvj6sg6p6f1abm77japg","pricing_plan_id":"cebpf4jnsgd1na2vs0mg"},{"bike_id":"ce57abdd-f858-4e76-a57a-7b65e43e6397","system_id":"levelo_inurba_marseille","lat":43.305841,"lon":5.36748,"is_reserved":false,"is_disabled":false,"rental_uris":{"android":"levelo://app?vid=ce57abdd-f858-4e76-a57a-7b65e43e6397","ios":"levelo://app?vid=ce57abdd-f858-4e76-a57a-7b65e43e6397"},"vehicle_type_id":"4","last_reported":1762694215,"current_range_meters":14000,"station_id":"ce4bgn92rcd13ifvqbvg","pricing_plan_id":"cebpf4jnsgd1na2vs0mg"},{"bike_id":"6bc7b2c9-ca09-4531-bd22-7a54a879ac75","system_id":"levelo_inurba_marseille","lat":43.2119,"lon":5.35088,"is_reserved":false,"is_disabled":false,"rental_uris":{"android":"levelo://app?vid=6bc7b2c9-ca09-4531-bd22-7a54a879ac75","ios":"levelo://app?vid=6bc7b2c9-ca09-4531-bd22-7a54a879ac75"},"vehicle_type_id":"4","last_reported":1762694215,"current_range_meters":14000,"station_id":"st_cvj6sg6p6f1abm77japg","pricing_plan_id":"cebpf4jnsgd1na2vs0mg"},{"bike_id":"345285ad-10a7-49ef-b97f-7faa01587ccf","system_id":"levelo_inurba_marseille","lat":43.246284,"lon":5.431467,"is_reserved":false,"is_disabled":false,"rental_uris":{"android":"levelo://app?vid=345285ad-10a7-49ef-b97f-7faa01587ccf","ios":"levelo://app?vid=345285ad-10a7-49ef-b97f-7faa01587ccf"},"vehicle_type_id":"4","last_reported":1762694215,"current_range_meters":14000,"station_id":"st_d2m6c4gdas8pm72e190g","pricing_plan_id":"cebpf4jnsgd1na2vs0mg"},{"bike_id":"02f635d3-f47c-4fd4-b2bd-ceb93011aebf","system_id":"levelo_inurba_marseille","lat":43.25117,"lon":5.40319,"is_reserved":false,"is_disabled":false,"rental_uris":{"android":"levelo://app?vid=02f635d3-f47c-4fd4-b2bd-ceb93011aebf","ios":"levelo://app?vid=02f635d3-f47c-4fd4-b2bd-ceb93011aebf"},"vehicle_type_id":"4","last_reported":1762694215,"current_range_meters":14000,"station_id":"ce4bhlh2rcd13ifvqgig","pricing_plan_id":"cebpf4jnsgd1na2vs0mg"},{"bike_id":"dba10f34-d901-42fa-9686-8cf88d0cb88f","system_id":"levelo_inurba_marseille","lat":43.29199,"lon":5.357946,"is_reserved":false,"is_disabled":false,"rental_uris":{"android":"levelo://app?vid=dba10f34-d901-42fa-9686-8cf88d0cb88f","ios":"levelo://app?vid=dba10f34-d901-42fa-9686-8cf88d0cb88f"},"vehicle_type_id":"4","last_reported":1762694215,"current_range_meters":14000,"station_id":"","pricing_plan_id":"cebpf4jnsgd1na2vs0mg"},{"bike_id":"07902818-e7e0-4e8d-b6f6-7e2960307e4c","system_id":"levelo_inurba_marseille","lat":43.217317,"lon":5.346076,"is_reserved":false,"is_disabled":false,"rental_uris":{"android":"levelo://app?vid=07902818-e7e0-4e8d-b6f6-7e2960307e4c","ios":"levelo://app?vid=07902818-e7e0-4e8d-b6f6-7e2960307e4c"},"vehicle_type_id":"4","last_reported":1762694215,"current_range_meters":14000,"station_id":"st_cvj6r9ubvosntc0bgbag","pricing_plan_id":"cebpf4jnsgd1na2vs0mg"},{"bike_id":"3643e6d3-7c6e-461a-8826-df34dbe4feea","system_id":"levelo_inurba_marseille","lat":43.21212,"lon":5.35111,"is_reserved":false,"is_disabled":false,"rental_uris":{"android":"levelo://app?vid=3643e6d3-7c6e-461a-8826-df34dbe4feea","ios":"levelo://app?vid=3643e6d3-7c6e-461a-8826-df34dbe4feea"},"vehicle_type_id":"4","last_reported":1762694215,"current_range_meters":14000,"station_id":"st_cvj6sg6p6f1abm77japg","pricing_plan_id":"cebpf4jnsgd1na2vs0mg"},{"bike_id":"5f51530e-ad6d-4525-9dbe-df8ccdff7435","system_id":"levelo_inurba_marseille","lat":43.31603,"lon":5.381927,"is_reserved":false,"is_disabled":false,"rental_uris":{"android":"levelo://app?vid=5f51530e-ad6d-4525-9dbe-df8ccdff7435","ios":"levelo://app?vid=5f51530e-ad6d-4525-9dbe-df8ccdff7435"},"vehicle_type_id":"4","last_reported":1762694215,"current_range_meters":14000,"station_id":"","pricing_plan_id":"cebpf4jnsgd1na2vs0mg"},{"bike_id":"07487456-04db-4d2a-9c08-bc3d6a0a4071","system_id":"levelo_inurba_marseille","lat":43.28148,"lon":5.42647,"is_reserved":false,"is_disabled":false,"rental_uris":{"android":"levelo://app?vid=07487456-04db-4d2a-9c08-bc3d6a0a4071","ios":"levelo://app?vid=07487456-04db-4d2a-9c08-bc3d6a0a4071"},"vehicle_type_id":"4","last_reported":1762694215,"current_range_meters":14400,"station_id":"ce4bhnh2rcd13ifvqgug","pricing_plan_id":"cebpf4jnsgd1na2vs0mg"},{"bike_id":"f4b3610c-ddfd-461d-9ea3-633c91510343","system_id":"levelo_inurba_marseille","lat":43.24619,"lon":5.43146,"is_reserved":false,"is_disabled":false,"rental_uris":{"android":"levelo://app?vid=f4b3610c-ddfd-461d-9ea3-633c91510343","ios":"levelo://app?vid=f4b3610c-ddfd-461d-9ea3-633c91510343"},"vehicle_type_id":"4","last_reported":1762694215,"current_range_meters":14400,"station_id":"st_d2m6c4gdas8pm72e190g","pricing_plan_id":"cebpf4jnsgd1na2vs0mg"},{"bike_id":"fee4f445-bba8-4be4-a3da-4decf51271b2","system_id":"levelo_inurba_marseille","lat":43.31844,"lon":5.4071,"is_reserved":false,"is_disabled":false,"rental_uris":{"android":"levelo://app?vid=fee4f445-bba8-4be4-a3da-4decf51271b2","ios":"levelo://app?vid=fee4f445-bba8-4be4-a3da-4decf51271b2"},"vehicle_type_id":"4","last_reported":1762694215,"current_range_meters":14400,"station_id":"","pricing_plan_id":"cebpf4jnsgd1na2vs0mg"},{"bike_id":"9a776a3f-cab6-4283-a416-cc8852920997","system_id":"levelo_inurba_marseille","lat":43.22533,"lon":5.34837,"is_reserved":false,"is_disabled":false,"rental_uris":{"android":"levelo://app?vid=9a776a3f-cab6-4283-a416-cc8852920997","ios":"levelo://app?vid=9a776a3f-cab6-4283-a416-cc8852920997"},"vehicle_type_id":"4","last_reported":1762694215,"current_range_meters":14400,"station_id":"","pricing_plan_id":"cebpf4jnsgd1na2vs0mg"},{"bike_id":"2417d2ef-7657-476d-a076-97f22ae63421","system_id":"levelo_inurba_marseille","lat":43.24391,"lon":5.37071,"is_reserved":false,"is_disabled":false,"rental_uris":{"android":"levelo://app?vid=2417d2ef-7657-476d-a076-97f22ae63421","ios":"levelo://app?vid=2417d2ef-7657-476d-a076-97f22ae63421"},"vehicle_type_id":"4","last_reported":1762694215,"current_range_meters":14400,"station_id":"ce4bhhh2rcd13ifvqfk0","pricing_plan_id":"cebpf4jnsgd1na2vs0mg"},{"bike_id":"4eac3eb9-9ac1-4ff6-ad57-ed359befeed2","system_id":"levelo_inurba_marseille","lat":43.22881,"lon":5.40265,"is_reserved":false,"is_disabled":false,"rental_uris":{"android":"levelo://app?vid=4eac3eb9-9ac1-4ff6-ad57-ed359befeed2","ios":"levelo://app?vid=4eac3eb9-9ac1-4ff6-ad57-ed359befeed2"},"vehicle_type_id":"4","last_reported":1762694215,"current_range_meters":14400,"station_id":"","pricing_plan_id":"cebpf4jnsgd1na2vs0mg"},{"bike_id":"0cc37007-fc17-4895-b6c5-de7040c35c7a","system_id":"levelo_inurba_marseille","lat":43.21185,"lon":5.35073,"is_reserved":false,"is_disabled":false,"rental_uris":{"android":"levelo://app?vid=0cc37007-fc17-4895-b6c5-de7040c35c7a","ios":"levelo://app?vid=0cc37007-fc17-4895-b6c5-de7040c35c7a"},"vehicle_type_id":"4","last_reported":1762694215,"current_range_meters":14400,"station_id":"st_cvj6sg6p6f1abm77japg","pricing_plan_id":"cebpf4jnsgd1na2vs0mg"},{"bike_id":"f08621f1-92b2-4985-8a3a-96dd283a7c2b","system_id":"levelo_inurba_marseille","lat":43.31354,"lon":5.37932,"is_reserved":false,"is_disabled":false,"rental_uris":{"android":"levelo://app?vid=f08621f1-92b2-4985-8a3a-96dd283a7c2b","ios":"levelo://app?vid=f08621f1-92b2-4985-8a3a-96dd283a7c2b"},"vehicle_type_id":"4","last_reported":1762694215,"current_range_meters":14400,"station_id":"","pricing_plan_id":"cebpf4jnsgd1na2vs0mg"},{"bike_id":"823f9d7f-5db5-4876-8b5d-28b6923592c8","system_id":"levelo_inurba_marseille","lat":43.249463,"lon":5.404933,"is_reserved":false,"is_disabled":false,"rental_uris":{"android":"levelo://app?vid=823f9d7f-5db5-4876-8b5d-28b6923592c8","ios":"levelo://app?vid=823f9d7f-5db5-4876-8b5d-28b6923592c8"},"vehicle_type_id":"4","last_reported":1762694215,"current_range_meters":14400,"station_id":"st_d2ngiaodas8pm72gd1h0","pricing_plan_id":"cebpf4jnsgd1na2vs0mg"},{"bike_id":"ad8ac1fc-f209-4476-ae7c-9b313bc0536d","system_id":"levelo_inurba_marseille","lat":43.21197,"lon":5.35084,"is_reserved":false,"is_disabled":false,"rental_uris":{"android":"levelo://app?vid=ad8ac1fc-f209-4476-ae7c-9b313bc0536d","ios":"levelo://app?vid=ad8ac1fc-f209-4476-ae7c-9b313bc0536d"},"vehicle_type_id":"4","last_reported":1762694215,"current_range_meters":14800,"station_id":"st_cvj6sg6p6f1abm77japg","pricing_plan_id":"cebpf4jnsgd1na2vs0mg"},{"bike_id":"e609b5ca-bed4-47fc-8a52-77fbef97001c","system_id":"levelo_inurba_marseille","lat":43.28613,"lon":5.35104,"is_reserved":false,"is_disabled":false,"rental_uris":{"android":"levelo://app?vid=e609b5ca-bed4-47fc-8a52-77fbef97001c","ios":"levelo://app?vid=e609b5ca-bed4-47fc-8a52-77fbef97001c"},"vehicle_type_id":"4","last_reported":1762694215,"current_range_meters":14800,"station_id":"ce4bhch2rcd13ifvqeug","pricing_plan_id":"cebpf4jnsgd1na2vs0mg"},{"bike_id":"7fbd1ff9-4b4c-41ae-8d84-cca75e8f7f8a","system_id":"levelo_inurba_marseille","lat":43.27365,"lon":5.39112,"is_reserved":false,"is_disabled":false,"rental_uris":{"android":"levelo://app?vid=7fbd1ff9-4b4c-41ae-8d84-cca75e8f7f8a","ios":"levelo://app?vid=7fbd1ff9-4b4c-41ae-8d84-cca75e8f7f8a"},"vehicle_type_id":"4","last_reported":1762694215,"current_range_meters":14800,"station_id":"","pricing_plan_id":"cebpf4jnsgd1na2vs0mg"},{"bike_id":"c1783fb2-6784-4b7f-92a8-0112651e291c","system_id":"levelo_inurba_marseille","lat":43.297565,"lon":5.427822,"is_reserved":false,"is_disabled":false,"rental_uris":{"android":"levelo://app?vid=c1783fb2-6784-4b7f-92a8-0112651e291c","ios":"levelo://app?vid=c1783fb2-6784-4b7f-92a8-0112651e291c"},"vehicle_type_id":"4","last_reported":1762694215,"current_range_meters":14800,"station_id":"st_d3md5207bmas73dh9klg","pricing_plan_id":"cebpf4jnsgd1na2vs0mg"},{"bike_id":"2bdb2877-302c-44d5-aea2-6148e64203f0","system_id":"levelo_inurba_marseille","lat":43.336,"lon":5.4103,"is_reserved":false,"is_disabled":false,"rental_uris":{"android":"levelo://app?vid=2bdb2877-302c-44d5-aea2-6148e64203f0","ios":"levelo://app?vid=2bdb2877-302c-44d5-aea2-6148e64203f0"},"vehicle_type_id":"4","last_reported":1762694215,"current_range_meters":14800,"station_id":"ce4bhqh2rcd13ifvqhmg","pricing_plan_id":"cebpf4jnsgd1na2vs0mg"},{"bike_id":"32759331-a6b0-4937-99e9-2313ddc9b375","system_id":"levelo_inurba_marseille","lat":43.25111,"lon":5.40331,"is_reserved":false,"is_disabled":false,"rental_uris":{"android":"levelo://app?vid=32759331-a6b0-4937-99e9-2313ddc9b375","ios":"levelo://app?vid=32759331-a6b0-4937-99e9-2313ddc9b375"},"vehicle_type_id":"4","last_reported":1762694215,"current_range_meters":15200,"station_id":"ce4bhlh2rcd13ifvqgig","pricing_plan_id":"cebpf4jnsgd1na2vs0mg"},{"bike_id":"ba7f9193-af69-4120-9e9f-1f175e376724","system_id":"levelo_inurba_marseille","lat":43.290058,"lon":5.356136,"is_reserved":false,"is_disabled":false,"rental_uris":{"android":"levelo://app?vid=ba7f9193-af69-4120-9e9f-1f175e376724","ios":"levelo://app?vid=ba7f9193-af69-4120-9e9f-1f175e376724"},"vehicle_type_id":"4","last_reported":1762694215,"current_range_meters":15200,"station_id":"","pricing_plan_id":"cebpf4jnsgd1na2vs0mg"},{"bike_id":"31ec93f4-e157-45e2-a575-8278c36bcf5d","system_id":"levelo_inurba_marseille","lat":43.26215,"lon":5.37442,"is_reserved":false,"is_disabled":false,"rental_uris":{"android":"levelo://app?vid=31ec93f4-e157-45e2-a575-8278c36bcf5d","ios":"levelo://app?vid=31ec93f4-e157-45e2-a575-8278c36bcf5d"},"vehicle_type_id":"4","last_reported":1762694215,"current_range_meters":15200,"station_id":"ce4bhgp2rcd13ifvqfc0","pricing_plan_id":"cebpf4jnsgd1na2vs0mg"},{"bike_id":"e1758b3c-01d9-4e6e-b93d-af786de489d6","system_id":"levelo_inurba_marseille","lat":43.29282,"lon":5.37286,"is_reserved":false,"is_disabled":false,"rental_uris":{"android":"levelo://app?vid=e1758b3c-01d9-4e6e-b93d-af786de489d6","ios":"levelo://app?vid=e1758b3c-01d9-4e6e-b93d-af786de489d6"},"vehicle_type_id":"4","last_reported":1762694215,"current_range_meters":15200,"station_id":"","pricing_plan_id":"cebpf4jnsgd1na2vs0mg"},{"bike_id":"b98d536f-1432-4ef2-82b6-c86cc4551f49","system_id":"levelo_inurba_marseille","lat":43.21194,"lon":5.35051,"is_reserved":false,"is_disabled":false,"rental_uris":{"android":"levelo://app?vid=b98d536f-1432-4ef2-82b6-c86cc4551f49","ios":"levelo://app?vid=b98d536f-1432-4ef2-82b6-c86cc4551f49"},"vehicle_type_id":"4","last_reported":1762694215,"current_range_meters":15200,"station_id":"st_cvj6sg6p6f1abm77japg","pricing_plan_id":"cebpf4jnsgd1na2vs0mg"},{"bike_id":"5f9a5a0f-2733-475e-89d8-03de8455b765","system_id":"levelo_inurba_marseille","lat":43.21731,"lon":5.34623,"is_reserved":false,"is_disabled":false,"rental_uris":{"android":"levelo://app?vid=5f9a5a0f-2733-475e-89d8-03de8455b765","ios":"levelo://app?vid=5f9a5a0f-2733-475e-89d8-03de8455b765"},"vehicle_type_id":"4","last_reported":1762694215,"current_range_meters":15200,"station_id":"st_cvj6r9ubvosntc0bgbag","pricing_plan_id":"cebpf4jnsgd1na2vs0mg"},{"bike_id":"ab4ac132-5519-4aac-ac12-8b8c2929bb7e","system_id":"levelo_inurba_marseille","lat":43.32302,"lon":5.38493,"is_reserved":false,"is_disabled":false,"rental_uris":{"android":"levelo://app?vid=ab4ac132-5519-4aac-ac12-8b8c2929bb7e","ios":"levelo://app?vid=ab4ac132-5519-4aac-ac12-8b8c2929bb7e"},"vehicle_type_id":"4","last_reported":1762694215,"current_range_meters":16000,"station_id":"st_d45171o9ee8s73djdqug","pricing_plan_id":"cebpf4jnsgd1na2vs0mg"},{"bike_id":"53529ee7-fa79-4bfe-8ac3-2ffb63a46b11","system_id":"levelo_inurba_marseille","lat":43.31804,"lon":5.38841,"is_reserved":false,"is_disabled":false,"rental_uris":{"android":"levelo://app?vid=53529ee7-fa79-4bfe-8ac3-2ffb63a46b11","ios":"levelo://app?vid=53529ee7-fa79-4bfe-8ac3-2ffb63a46b11"},"vehicle_type_id":"4","last_reported":1762694215,"current_range_meters":16000,"station_id":"","pricing_plan_id":"cebpf4jnsgd1na2vs0mg"},{"bike_id":"82957589-02ce-4320-bf77-be538f2d7d4f","system_id":"levelo_inurba_marseille","lat":43.21175,"lon":5.35066,"is_reserved":false,"is_disabled":false,"rental_uris":{"android":"levelo://app?vid=82957589-02ce-4320-bf77-be538f2d7d4f","ios":"levelo://app?vid=82957589-02ce-4320-bf77-be538f2d7d4f"},"vehicle_type_id":"4","last_reported":1762694215,"current_range_meters":16000,"station_id":"st_cvj6sg6p6f1abm77japg","pricing_plan_id":"cebpf4jnsgd1na2vs0mg"},{"bike_id":"d352c376-7a86-4c26-aef8-085d29694805","system_id":"levelo_inurba_marseille","lat":43.248,"lon":5.37467,"is_reserved":false,"is_disabled":false,"rental_uris":{"android":"levelo://app?vid=d352c376-7a86-4c26-aef8-085d29694805","ios":"levelo://app?vid=d352c376-7a86-4c26-aef8-085d29694805"},"vehicle_type_id":"4","last_reported":1762694215,"current_range_meters":16000,"station_id":"ce4bhgh2rcd13ifvqfb0","pricing_plan_id":"cebpf4jnsgd1na2vs0mg"},{"bike_id":"0392c01f-c7f1-41fd-9cd6-aa463c8d4035","system_id":"levelo_inurba_marseille","lat":43.243915,"lon":5.370658,"is_reserved":false,"is_disabled":false,"rental_uris":{"android":"levelo://app?vid=0392c01f-c7f1-41fd-9cd6-aa463c8d4035","ios":"levelo://app?vid=0392c01f-c7f1-41fd-9cd6-aa463c8d4035"},"vehicle_type_id":"4","last_reported":1762694215,"current_range_meters":16000,"station_id":"ce4bhhh2rcd13ifvqfk0","pricing_plan_id":"cebpf4jnsgd1na2vs0mg"},{"bike_id":"d2791f1f-fe34-44d8-a41f-c207fad36274","system_id":"levelo_inurba_marseille","lat":43.25503,"lon":5.37652,"is_reserved":false,"is_disabled":false,"rental_uris":{"android":"levelo://app?vid=d2791f1f-fe34-44d8-a41f-c207fad36274","ios":"levelo://app?vid=d2791f1f-fe34-44d8-a41f-c207fad36274"},"vehicle_type_id":"4","last_reported":1762694215,"current_range_meters":16000,"station_id":"ce4bhh12rcd13ifvqff0","pricing_plan_id":"cebpf4jnsgd1na2vs0mg"},{"bike_id":"1b608766-d12f-43b3-8b68-b0135e72a218","system_id":"levelo_inurba_marseille","lat":43.30242,"lon":5.4005,"is_reserved":false,"is_disabled":true,"rental_uris":{"android":"levelo://app?vid=1b608766-d12f-43b3-8b68-b0135e72a218","ios":"levelo://app?vid=1b608766-d12f-43b3-8b68-b0135e72a218"},"vehicle_type_id":"4","last_reported":1762694215,"current_range_meters":16000,"station_id":"ce4bgvh2rcd13ifvqcs0","pricing_plan_id":"cebpf4jnsgd1na2vs0mg"},{"bike_id":"49cf80d1-38fd-409e-82f5-7b5775d63ff5","system_id":"levelo_inurba_marseille","lat":43.30539,"lon":5.36557,"is_reserved":false,"is_disabled":false,"rental_uris":{"android":"levelo://app?vid=49cf80d1-38fd-409e-82f5-7b5775d63ff5","ios":"levelo://app?vid=49cf80d1-38fd-409e-82f5-7b5775d63ff5"},"vehicle_type_id":"4","last_reported":1762694215,"current_range_meters":16000,"station_id":"ce4bgs12rcd13ifvqcag","pricing_plan_id":"cebpf4jnsgd1na2vs0mg"},{"bike_id":"2804c0a2-bf3c-4393-97a1-4a4334d0717d","system_id":"levelo_inurba_marseille","lat":43.29007,"lon":5.3561,"is_reserved":false,"is_disabled":false,"rental_uris":{"android":"levelo://app?vid=2804c0a2-bf3c-4393-97a1-4a4334d0717d","ios":"levelo://app?vid=2804c0a2-bf3c-4393-97a1-4a4334d0717d"},"vehicle_type_id":"4","last_reported":1762694215,"current_range_meters":16000,"station_id":"ce4bhb92rcd13ifvqen0","pricing_plan_id":"cebpf4jnsgd1na2vs0mg"},{"bike_id":"a9d08e4c-0813-4aef-85b1-1d50cf456f69","system_id":"levelo_inurba_marseille","lat":43.217469,"lon":5.345988,"is_reserved":false,"is_disabled":true,"rental_uris":{"android":"levelo://app?vid=a9d08e4c-0813-4aef-85b1-1d50cf456f69","ios":"levelo://app?vid=a9d08e4c-0813-4aef-85b1-1d50cf456f69"},"vehicle_type_id":"4","last_reported":1762694215,"current_range_meters":16400,"station_id":"","pricing_plan_id":"cebpf4jnsgd1na2vs0mg"},{"bike_id":"3bfdda68-619a-4da5-82aa-0d44ee927717","system_id":"levelo_inurba_marseille","lat":43.31983,"lon":5.38159,"is_reserved":false,"is_disabled":false,"rental_uris":{"android":"levelo://app?vid=3bfdda68-619a-4da5-82aa-0d44ee927717","ios":"levelo://app?vid=3bfdda68-619a-4da5-82aa-0d44ee927717"},"vehicle_type_id":"4","last_reported":1762694215,"current_range_meters":16400,"station_id":"ce4bhr12rcd13ifvqhpg","pricing_plan_id":"cebpf4jnsgd1na2vs0mg"},{"bike_id":"c1c2c044-4849-4924-8e74-c40d5933f91e","system_id":"levelo_inurba_marseille","lat":43.225403,"lon":5.348243,"is_reserved":false,"is_disabled":false,"rental_uris":{"android":"levelo://app?vid=c1c2c044-4849-4924-8e74-c40d5933f91e","ios":"levelo://app?vid=c1c2c044-4849-4924-8e74-c40d5933f91e"},"vehicle_type_id":"4","last_reported":1762694215,"current_range_meters":16400,"station_id":"","pricing_plan_id":"cebpf4jnsgd1na2vs0mg"},{"bike_id":"f4cd1f76-686b-443b-bf62-c78f0f11dda9","system_id":"levelo_inurba_marseille","lat":43.28415,"lon":5.37522,"is_reserved":false,"is_disabled":true,"rental_uris":{"android":"levelo://app?vid=f4cd1f76-686b-443b-bf62-c78f0f11dda9","ios":"levelo://app?vid=f4cd1f76-686b-443b-bf62-c78f0f11dda9"},"vehicle_type_id":"4","last_reported":1762694215,"current_range_meters":16400,"station_id":"ce4bh412rcd13ifvqds0","pricing_plan_id":"cebpf4jnsgd1na2vs0mg"},{"bike_id":"f6b2fed1-0ca2-423d-8dec-4ae2abcb7d8f","system_id":"levelo_inurba_marseille","lat":43.30722,"lon":5.42459,"is_reserved":false,"is_disabled":true,"rental_uris":{"android":"levelo://app?vid=f6b2fed1-0ca2-423d-8dec-4ae2abcb7d8f","ios":"levelo://app?vid=f6b2fed1-0ca2-423d-8dec-4ae2abcb7d8f"},"vehicle_type_id":"4","last_reported":1762694215,"current_range_meters":16400,"station_id":"st_cvj6ca6bvosntc0bfgr0","pricing_plan_id":"cebpf4jnsgd1na2vs0mg"},{"bike_id":"b6ba799f-93a0-474d-970a-cd786094f7da","system_id":"levelo_inurba_marseille","lat":43.28473,"lon":5.38428,"is_reserved":false,"is_disabled":true,"rental_uris":{"android":"levelo://app?vid=b6ba799f-93a0-474d-970a-cd786094f7da","ios":"levelo://app?vid=b6ba799f-93a0-474d-970a-cd786094f7da"},"vehicle_type_id":"4","last_reported":1762694215,"current_range_meters":16400,"station_id":"ce4bh512rcd13ifvqe3g","pricing_plan_id":"cebpf4jnsgd1na2vs0mg"},{"bike_id":"4cef9df4-b190-4013-8fab-1ca4ec0308b0","system_id":"levelo_inurba_marseille","lat":43.29006,"lon":5.35611,"is_reserved":false,"is_disabled":false,"rental_uris":{"android":"levelo://app?vid=4cef9df4-b190-4013-8fab-1ca4ec0308b0","ios":"levelo://app?vid=4cef9df4-b190-4013-8fab-1ca4ec0308b0"},"vehicle_type_id":"4","last_reported":1762694215,"current_range_meters":16400,"station_id":"ce4bhb92rcd13ifvqen0","pricing_plan_id":"cebpf4jnsgd1na2vs0mg"},