{"last_updated":1741648162,"ttl":60,"version":"2.2","data":{"bikes":[{"bike_id":"7e3b6732-5d30-44ba-8ff3-1bbc6583984b","system_id":"levelo_inurba_marseille","lat":43.3128,"lon":5.38508,"is_reserved":false,"is_disabled":false,"rental_uris":{"android":"levelo://app?vid=7e3b6732-5d30-44ba-8ff3-1bbc6583984b","ios":"levelo://app?vid=7e3b6732-5d30-44ba-8ff3-1bbc6583984b"},"vehicle_type_id":"4","last_reported":1741648162,"current_range_meters":2800,"station_id":"","pricing_plan_id":"cebpf4jnsgd1na2vs0mg"},{"bike_id":"c2309335-af79-4267-886b-cf11af772657","system_id":"levelo_inurba_marseille","lat":43.27981,"lon":5.4101,"is_reserved":false,"is_disabled":true,"rental_uris":{"android":"levelo://app?vid=c2309335-af79-4267-886b-cf11af772657","ios":"levelo://app?vid=c2309335-af79-4267-886b-cf11af772657"},"vehicle_type_id":"4","last_reported":1741648162,"current_range_meters":2800,"station_id":"ce4bhnp2rcd13ifvqh0g","pricing_plan_id":"cebpf4jnsgd1na2vs0mg"},{"bike_id":"ffabacd6-59d5-4e93-b987-7e83309d9413","system_id":"levelo_inurba_marseille","lat":43.29736,"lon":5.4007,"is_reserved":false,"is_disabled":false,"rental_uris":{"android":"levelo://app?vid=ffabacd6-59d5-4e93-b987-7e83309d9413","ios":"levelo://app?vid=ffabacd6-59d5-4e93-b987-7e83309d9413"},"vehicle_type_id":"4","last_reported":1741648162,"current_range_meters":4400,"station_id":"","pricing_plan_id":"cebpf4jnsgd1na2vs0mg"},{"bike_id":"089fa96c-06f0-4a31-aa59-e3a83d994d6c","system_id":"levelo_inurba_marseille","lat":43.28151,"lon":5.42643,"is_reserved":false,"is_disabled":false,"rental_uris":{"android":"levelo://app?vid=089fa96c-06f0-4a31-aa59-e3a83d994d6c","ios":"levelo://app?vid=089fa96c-06f0-4a31-aa59-e3a83d994d6c"},"vehicle_type_id":"4","last_reported":1741648162,"current_range_meters":4800,"station_id":"ce4bhnh2rcd13ifvqgug","pricing_plan_id":"cebpf4jnsgd1na2vs0mg"},{"bike_id":"96886562-387d-4deb-8b80-1bc6653e972f","system_id":"levelo_inurba_marseille","lat":43.26228,"lon":5.40432,"is_reserved":false,"is_disabled":false,"rental_uris":{"android":"levelo://app?vid=96886562-387d-4deb-8b80-1bc6653e972f","ios":"levelo://app?vid=96886562-387d-4deb-8b80-1bc6653e972f"},"vehicle_type_id":"4","last_reported":1741648162,"current_range_meters":6000,"station_id":"ce4bhmh2rcd13ifvqgmg","pricing_plan_id":"cebpf4jnsgd1na2vs0mg"},{"bike_id":"eb0cd875-8399-4946-8cdc-2bf25f41ab37","system_id":"levelo_inurba_marseille","lat":43.30594,"lon":5.39356,"is_reserved":false,"is_disabled":false,"rental_uris":{"android":"levelo://app?vid=eb0cd875-8399-4946-8cdc-2bf25f41ab37","ios":"levelo://app?vid=eb0cd875-8399-4946-8cdc-2bf25f41ab37"},"vehicle_type_id":"4","last_reported":1741648162,"current_range_meters":6000,"station_id":"ce4bh0p2rcd13ifvqd80","pricing_plan_id":"cebpf4jnsgd1na2vs0mg"},{"bike_id":"65ebf940-f6f1-4ba2-8b75-2b2127dd3199","system_id":"levelo_inurba_marseille","lat":43.25022,"lon":5.38062,"is_reserved":false,"is_disabled":false,"rental_uris":{"android":"levelo://app?vid=65ebf940-f6f1-4ba2-8b75-2b2127dd3199","ios":"levelo://app?vid=65ebf940-f6f1-4ba2-8b75-2b2127dd3199"},"vehicle_type_id":"4","last_reported":1741648162,"current_range_meters":6000,"station_id":"","pricing_plan_id":"cebpf4jnsgd1na2vs0mg"},{"bike_id":"31539c7e-263f-41a0-9bbd-d84ef61afda0","system_id":"levelo_inurba_marseille","lat":43.24389,"lon":5.37055,"is_reserved":false,"is_disabled":false,"rental_uris":{"android":"levelo://app?vid=31539c7e-263f-41a0-9bbd-d84ef61afda0","ios":"levelo://app?vid=31539c7e-263f-41a0-9bbd-d84ef61afda0"},"vehicle_type_id":"4","last_reported":1741648162,"current_range_meters":6000,"station_id":"ce4bhhh2rcd13ifvqfk0","pricing_plan_id":"cebpf4jnsgd1na2vs0mg"},{"bike_id":"a9513c60-8354-4509-925d-b24d71f9c0c5","system_id":"levelo_inurba_marseille","lat":43.25883,"lon":5.3991,"is_reserved":false,"is_disabled":false,"rental_uris":{"android":"levelo://app?vid=a9513c60-8354-4509-925d-b24d71f9c0c5","ios":"levelo://app?vid=a9513c60-8354-4509-925d-b24d71f9c0c5"},"vehicle_type_id":"4","last_reported":1741648162,"current_range_meters":6400,"station_id":"ce4bhl92rcd13ifvqghg","pricing_plan_id":"cebpf4jnsgd1na2vs0mg"},{"bike_id":"35be52e8-6b84-4099-8ea0-f38652827724","system_id":"levelo_inurba_marseille","lat":43.30567,"lon":5.3939,"is_reserved":false,"is_disabled":true,"rental_uris":{"android":"levelo://app?vid=35be52e8-6b84-4099-8ea0-f38652827724","ios":"levelo://app?vid=35be52e8-6b84-4099-8ea0-f38652827724"},"vehicle_type_id":"4","last_reported":1741648162,"current_range_meters":6400,"station_id":"ce4bh0p2rcd13ifvqd80","pricing_plan_id":"cebpf4jnsgd1na2vs0mg"},{"bike_id":"7f5c0b4b-b53d-4d85-a954-23247f299b75","system_id":"levelo_inurba_marseille","lat":43.25113,"lon":5.40314,"is_reserved":false,"is_disabled":false,"rental_uris":{"android":"levelo://app?vid=7f5c0b4b-b53d-4d85-a954-23247f299b75","ios":"levelo://app?vid=7f5c0b4b-b53d-4d85-a954-23247f299b75"},"vehicle_type_id":"4","last_reported":1741648162,"current_range_meters":6400,"station_id":"ce4bhlh2rcd13ifvqgig","pricing_plan_id":"cebpf4jnsgd1na2vs0mg"},{"bike_id":"85858945-288d-4d7b-aac5-8cf9d060c580","system_id":"levelo_inurba_marseille","lat":43.32284,"lon":5.36616,"is_reserved":false,"is_disabled":false,"rental_uris":{"android":"levelo://app?vid=85858945-288d-4d7b-aac5-8cf9d060c580","ios":"levelo://app?vid=85858945-288d-4d7b-aac5-8cf9d060c580"},"vehicle_type_id":"4","last_reported":1741648162,"current_range_meters":6400,"station_id":"","pricing_plan_id":"cebpf4jnsgd1na2vs0mg"},{"bike_id":"2fbb2f0e-b64e-445e-a2b3-ee5227dc63e4","system_id":"levelo_inurba_marseille","lat":43.26915,"lon":5.36714,"is_reserved":false,"is_disabled":false,"rental_uris":{"android":"levelo://app?vid=2fbb2f0e-b64e-445e-a2b3-ee5227dc63e4","ios":"levelo://app?vid=2fbb2f0e-b64e-445e-a2b3-ee5227dc63e4"},"vehicle_type_id":"4","last_reported":1741648162,"current_range_meters":6800,"station_id":"","pricing_plan_id":"cebpf4jnsgd1na2vs0mg"},{"bike_id":"985f52b8-4d4c-4dfb-9514-2c7fb63e1202","system_id":"levelo_inurba_marseille","lat":43.244003,"lon":5.370588,"is_reserved":false,"is_disabled":true,"rental_uris":{"android":"levelo://app?vid=985f52b8-4d4c-4dfb-9514-2c7fb63e1202","ios":"levelo://app?vid=985f52b8-4d4c-4dfb-9514-2c7fb63e1202"},"vehicle_type_id":"4","last_reported":1741648162,"current_range_meters":6800,"station_id":"ce4bhhh2rcd13ifvqfk0","pricing_plan_id":"cebpf4jnsgd1na2vs0mg"},{"bike_id":"608789d0-96b4-4dd2-9b96-db10f54d1271","system_id":"levelo_inurba_marseille","lat":43.30423,"lon":5.38885,"is_reserved":false,"is_disabled":false,"rental_uris":{"android":"levelo://app?vid=608789d0-96b4-4dd2-9b96-db10f54d1271","ios":"levelo://app?vid=608789d0-96b4-4dd2-9b96-db10f54d1271"},"vehicle_type_id":"4","last_reported":1741648162,"current_range_meters":6800,"station_id":"ce4bgk12rcd13ifvqbi0","pricing_plan_id":"cebpf4jnsgd1na2vs0mg"},{"bike_id":"dfe85f43-440a-4855-9184-d3de4832bcc7","system_id":"levelo_inurba_marseille","lat":43.26549,"lon":5.37299,"is_reserved":false,"is_disabled":true,"rental_uris":{"android":"levelo://app?vid=dfe85f43-440a-4855-9184-d3de4832bcc7","ios":"levelo://app?vid=dfe85f43-440a-4855-9184-d3de4832bcc7"},"vehicle_type_id":"4","last_reported":1741648162,"current_range_meters":6800,"station_id":"ce4bhg12rcd13ifvqf70","pricing_plan_id":"cebpf4jnsgd1na2vs0mg"},{"bike_id":"b104001a-10f7-4c93-b613-2b76cb885027","system_id":"levelo_inurba_marseille","lat":43.31144,"lon":5.37129,"is_reserved":false,"is_disabled":false,"rental_uris":{"android":"levelo://app?vid=b104001a-10f7-4c93-b613-2b76cb885027","ios":"levelo://app?vid=b104001a-10f7-4c93-b613-2b76cb885027"},"vehicle_type_id":"4","last_reported":1741648162,"current_range_meters":6800,"station_id":"","pricing_plan_id":"cebpf4jnsgd1na2vs0mg"},{"bike_id":"7e4fb9e0-3677-4bd5-bd29-d1a197242817","system_id":"levelo_inurba_marseille","lat":43.28159,"lon":5.42645,"is_reserved":false,"is_disabled":false,"rental_uris":{"android":"levelo://app?vid=7e4fb9e0-3677-4bd5-bd29-d1a197242817","ios":"levelo://app?vid=7e4fb9e0-3677-4bd5-bd29-d1a197242817"},"vehicle_type_id":"4","last_reported":1741648162,"current_range_meters":6800,"station_id":"ce4bhnh2rcd13ifvqgug","pricing_plan_id":"cebpf4jnsgd1na2vs0mg"},{"bike_id":"57bb9620-7e1d-4375-9183-8aca42377c8c","system_id":"levelo_inurba_marseille","lat":43.30469,"lon":5.38212,"is_reserved":false,"is_disabled":false,"rental_uris":{"android":"levelo://app?vid=57bb9620-7e1d-4375-9183-8aca42377c8c","ios":"levelo://app?vid=57bb9620-7e1d-4375-9183-8aca42377c8c"},"vehicle_type_id":"4","last_reported":1741648162,"current_range_meters":6800,"station_id":"","pricing_plan_id":"cebpf4jnsgd1na2vs0mg"},{"bike_id":"7f08542c-3622-4bee-8852-d0974c0ec085","system_id":"levelo_inurba_marseille","lat":43.24215,"lon":5.36291,"is_reserved":false,"is_disabled":false,"rental_uris":{"android":"levelo://app?vid=7f08542c-3622-4bee-8852-d0974c0ec085","ios":"levelo://app?vid=7f08542c-3622-4bee-8852-d0974c0ec085"},"vehicle_type_id":"4","last_reported":1741648162,"current_range_meters":7200,"station_id":"","pricing_plan_id":"cebpf4jnsgd1na2vs0mg"},{"bike_id":"3c57a3fc-75b6-4e79-8a13-aa2e0eee3189","system_id":"levelo_inurba_marseille","lat":43.28149,"lon":5.42636,"is_reserved":false,"is_disabled":false,"rental_uris":{"android":"levelo://app?vid=3c57a3fc-75b6-4e79-8a13-aa2e0eee3189","ios":"levelo://app?vid=3c57a3fc-75b6-4e79-8a13-aa2e0eee3189"},"vehicle_type_id":"4","last_reported":1741648162,"current_range_meters":7200,"station_id":"ce4bhnh2rcd13ifvqgug","pricing_plan_id":"cebpf4jnsgd1na2vs0mg"},{"bike_id":"14ee60ef-20b6-41ca-a02f-8e120b0431b0","system_id":"levelo_inurba_marseille","lat":43.30135,"lon":5.39872,"is_reserved":false,"is_disabled":false,"rental_uris":{"android":"levelo://app?vid=14ee60ef-20b6-41ca-a02f-8e120b0431b0","ios":"levelo://app?vid=14ee60ef-20b6-41ca-a02f-8e120b0431b0"},"vehicle_type_id":"4","last_reported":1741648162,"current_range_meters":7200,"station_id":"ce4bh0h2rcd13ifvqd40","pricing_plan_id":"cebpf4jnsgd1na2vs0mg"},{"bike_id":"87c40d47-5266-4f6a-9a89-01987f8bf62c","system_id":"levelo_inurba_marseille","lat":43.2622,"lon":5.40435,"is_reserved":false,"is_disabled":false,"rental_uris":{"android":"levelo://app?vid=87c40d47-5266-4f6a-9a89-01987f8bf62c","ios":"levelo://app?vid=87c40d47-5266-4f6a-9a89-01987f8bf62c"},"vehicle_type_id":"4","last_reported":1741648162,"current_range_meters":7200,"station_id":"ce4bhmh2rcd13ifvqgmg","pricing_plan_id":"cebpf4jnsgd1na2vs0mg"},{"bike_id":"39a011dc-f23d-4f92-ac8b-60c9713ace5f","system_id":"levelo_inurba_marseille","lat":43.29199,"lon":5.39321,"is_reserved":false,"is_disabled":false,"rental_uris":{"android":"levelo://app?vid=39a011dc-f23d-4f92-ac8b-60c9713ace5f","ios":"levelo://app?vid=39a011dc-f23d-4f92-ac8b-60c9713ace5f"},"vehicle_type_id":"4","last_reported":1741648162,"current_range_meters":7200,"station_id":"ce4bh192rcd13ifvqdd0","pricing_plan_id":"cebpf4jnsgd1na2vs0mg"},{"bike_id":"5d44eec5-0f76-4d9d-87c9-f425c19e364b","system_id":"levelo_inurba_marseille","lat":43.25086,"lon":5.39518,"is_reserved":false,"is_disabled":false,"rental_uris":{"android":"levelo://app?vid=5d44eec5-0f76-4d9d-87c9-f425c19e364b","ios":"levelo://app?vid=5d44eec5-0f76-4d9d-87c9-f425c19e364b"},"vehicle_type_id":"4","last_reported":1741648162,"current_range_meters":7200,"station_id":"ce4bhm12rcd13ifvqgkg","pricing_plan_id":"cebpf4jnsgd1na2vs0mg"},{"bike_id":"cff4445f-6b70-4c92-a3aa-728d1723639c","system_id":"levelo_inurba_marseille","lat":43.250848,"lon":5.39522,"is_reserved":false,"is_disabled":false,"rental_uris":{"android":"levelo://app?vid=cff4445f-6b70-4c92-a3aa-728d1723639c","ios":"levelo://app?vid=cff4445f-6b70-4c92-a3aa-728d1723639c"},"vehicle_type_id":"4","last_reported":1741648162,"current_range_meters":8000,"station_id":"ce4bhm12rcd13ifvqgkg","pricing_plan_id":"cebpf4jnsgd1na2vs0mg"},{"bike_id":"d99a6f6d-00d6-49e6-9b88-332367f3c40d","system_id":"levelo_inurba_marseille","lat":43.284,"lon":5.37518,"is_reserved":false,"is_disabled":false,"rental_uris":{"android":"levelo://app?vid=d99a6f6d-00d6-49e6-9b88-332367f3c40d","ios":"levelo://app?vid=d99a6f6d-00d6-49e6-9b88-332367f3c40d"},"vehicle_type_id":"4","last_reported":1741648162,"current_range_meters":8000,"station_id":"ce4bh412rcd13ifvqds0","pricing_plan_id":"cebpf4jnsgd1na2vs0mg"},{"bike_id":"6fc45882-d39a-4a11-8d19-649988fbd318","system_id":"levelo_inurba_marseille","lat":43.32333,"lon":5.40623,"is_reserved":false,"is_disabled":false,"rental_uris":{"android":"levelo://app?vid=6fc45882-d39a-4a11-8d19-649988fbd318","ios":"levelo://app?vid=6fc45882-d39a-4a11-8d19-649988fbd318"},"vehicle_type_id":"4","last_reported":1741648162,"current_range_meters":8000,"station_id":"ce4bhq92rcd13ifvqhjg","pricing_plan_id":"cebpf4jnsgd1na2vs0mg"},{"bike_id":"96933892-6a46-4281-880c-758d7231ef75","system_id":"levelo_inurba_marseille","lat":43.3108,"lon":5.38356,"is_reserved":false,"is_disabled":false,"rental_uris":{"android":"levelo://app?vid=96933892-6a46-4281-880c-758d7231ef75","ios":"levelo://app?vid=96933892-6a46-4281-880c-758d7231ef75"},"vehicle_type_id":"4","last_reported":1741648162,"current_range_meters":8000,"station_id":"ce4bgv92rcd13ifvqcr0","pricing_plan_id":"cebpf4jnsgd1na2vs0mg"},{"bike_id":"dd0976d0-a032-429c-a6ac-268a3f64934d","system_id":"levelo_inurba_marseille","lat":43.27827,"lon":5.4073,"is_reserved":false,"is_disabled":false,"rental_uris":{"android":"levelo://app?vid=dd0976d0-a032-429c-a6ac-268a3f64934d","ios":"levelo://app?vid=dd0976d0-a032-429c-a6ac-268a3f64934d"},"vehicle_type_id":"4","last_reported":1741648162,"current_range_meters":8000,"station_id":"ce4bhnh2rcd13ifvqgtg","pricing_plan_id":"cebpf4jnsgd1na2vs0mg"},{"bike_id":"565245af-1098-4207-83d1-fdf36ab786b5","system_id":"levelo_inurba_marseille","lat":43.28104,"lon":5.44178,"is_reserved":false,"is_disabled":true,"rental_uris":{"android":"levelo://app?vid=565245af-1098-4207-83d1-fdf36ab786b5","ios":"levelo://app?vid=565245af-1098-4207-83d1-fdf36ab786b5"},"vehicle_type_id":"4","last_reported":1741648162,"current_range_meters":8000,"station_id":"","pricing_plan_id":"cebpf4jnsgd1na2vs0mg"},{"bike_id":"0360a636-13d6-4ee5-98c6-6605ff0709f6","system_id":"levelo_inurba_marseille","lat":43.30423,"lon":5.41266,"is_reserved":false,"is_disabled":false,"rental_uris":{"android":"levelo://app?vid=0360a636-13d6-4ee5-98c6-6605ff0709f6","ios":"levelo://app?vid=0360a636-13d6-4ee5-98c6-6605ff0709f6"},"vehicle_type_id":"4","last_reported":1741648162,"current_range_meters":8000,"station_id":"ce4bhop2rcd13ifvqh8g","pricing_plan_id":"cebpf4jnsgd1na2vs0mg"},{"bike_id":"864ee988-28e4-45bc-8ea8-9159eb3bfbea","system_id":"levelo_inurba_marseille","lat":43.32332,"lon":5.38883,"is_reserved":false,"is_disabled":false,"rental_uris":{"android":"levelo://app?vid=864ee988-28e4-45bc-8ea8-9159eb3bfbea","ios":"levelo://app?vid=864ee988-28e4-45bc-8ea8-9159eb3bfbea"},"vehicle_type_id":"4","last_reported":1741648162,"current_range_meters":8000,"station_id":"ce4bhqp2rcd13ifvqhog","pricing_plan_id":"cebpf4jnsgd1na2vs0mg"},{"bike_id":"ce4d618d-a090-462a-af94-5e66f4cc9c62","system_id":"levelo_inurba_marseille","lat":43.27479,"lon":5.42447,"is_reserved":false,"is_disabled":false,"rental_uris":{"android":"levelo://app?vid=ce4d618d-a090-462a-af94-5e66f4cc9c62","ios":"levelo://app?vid=ce4d618d-a090-462a-af94-5e66f4cc9c62"},"vehicle_type_id":"4","last_reported":1741648162,"current_range_meters":8000,"station_id":"ce4bhn92rcd13ifvqgrg","pricing_plan_id":"cebpf4jnsgd1na2vs0mg"},{"bike_id":"6469b735-1779-46f3-9fd2-ee0c938dcd3e","system_id":"levelo_inurba_marseille","lat":43.30294,"lon":5.39211,"is_reserved":false,"is_disabled":false,"rental_uris":{"android":"levelo://app?vid=6469b735-1779-46f3-9fd2-ee0c938dcd3e","ios":"levelo://app?vid=6469b735-1779-46f3-9fd2-ee0c938dcd3e"},"vehicle_type_id":"4","last_reported":1741648162,"current_range_meters":8000,"station_id":"ce4bgkh2rcd13ifvqbk0","pricing_plan_id":"cebpf4jnsgd1na2vs0mg"},{"bike_id":"8b2aca38-0d0c-4a77-9561-6ffff6035a42","system_id":"levelo_inurba_marseille","lat":43.29533,"lon":5.39034,"is_reserved":false,"is_disabled":false,"rental_uris":{"android":"levelo://app?vid=8b2aca38-0d0c-4a77-9561-6ffff6035a42","ios":"levelo://app?vid=8b2aca38-0d0c-4a77-9561-6ffff6035a42"},"vehicle_type_id":"4","last_reported":1741648162,"current_range_meters":8000,"station_id":"ce4bh3p2rcd13ifvqdp0","pricing_plan_id":"cebpf4jnsgd1na2vs0mg"},{"bike_id":"11d1feca-2b3c-4840-8830-7eae76d9f9f3","system_id":"levelo_inurba_marseille","lat":43.24544,"lon":5.39528,"is_reserved":false,"is_disabled":false,"rental_uris":{"android":"levelo://app?vid=11d1feca-2b3c-4840-8830-7eae76d9f9f3","ios":"levelo://app?vid=11d1feca-2b3c-4840-8830-7eae76d9f9f3"},"vehicle_type_id":"4","last_reported":1741648162,"current_range_meters":8000,"station_id":"ce4bhlp2rcd13ifvqgjg","pricing_plan_id":"cebpf4jnsgd1na2vs0mg"},{"bike_id":"78820b48-52c7-4f03-9a63-87fe1bd85224","system_id":"levelo_inurba_marseille","lat":43.29897,"lon":5.43676,"is_reserved":false,"is_disabled":false,"rental_uris":{"android":"levelo://app?vid=78820b48-52c7-4f03-9a63-87fe1bd85224","ios":"levelo://app?vid=78820b48-52c7-4f03-9a63-87fe1bd85224"},"vehicle_type_id":"4","last_reported":1741648162,"current_range_meters":8000,"station_id":"ce4bhpp2rcd13ifvqhfg","pricing_plan_id":"cebpf4jnsgd1na2vs0mg"},{"bike_id":"1f72adc6-3d1a-4fad-a905-cb9dcd596e26","system_id":"levelo_inurba_marseille","lat":43.23858,"lon":5.43568,"is_reserved":false,"is_disabled":false,"rental_uris":{"android":"levelo://app?vid=1f72adc6-3d1a-4fad-a905-cb9dcd596e26","ios":"levelo://app?vid=1f72adc6-3d1a-4fad-a905-cb9dcd596e26"},"vehicle_type_id":"4","last_reported":1741648162,"current_range_meters":8000,"station_id":"","pricing_plan_id":"cebpf4jnsgd1na2vs0mg"},{"bike_id":"4fc82004-ba25-46e8-9d12-a8bf2240aace","system_id":"levelo_inurba_marseille","lat":43.23194,"lon":5.39977,"is_reserved":false,"is_disabled":false,"rental_uris":{"android":"levelo://app?vid=4fc82004-ba25-46e8-9d12-a8bf2240aace","ios":"levelo://app?vid=4fc82004-ba25-46e8-9d12-a8bf2240aace"},"vehicle_type_id":"4","last_reported":1741648162,"current_range_meters":8400,"station_id":"ce4bhn12rcd13ifvqgqg","pricing_plan_id":"cebpf4jnsgd1na2vs0mg"},{"bike_id":"629d91d8-3b53-4461-b764-3846b8602684","system_id":"levelo_inurba_marseille","lat":43.28874,"lon":5.39311,"is_reserved":false,"is_disabled":false,"rental_uris":{"android":"levelo://app?vid=629d91d8-3b53-4461-b764-3846b8602684","ios":"levelo://app?vid=629d91d8-3b53-4461-b764-3846b8602684"},"vehicle_type_id":"4","last_reported":1741648162,"current_range_meters":8400,"station_id":"ce4bh2p2rcd13ifvqdi0","pricing_plan_id":"cebpf4jnsgd1na2vs0mg"},{"bike_id":"169b38ad-d958-40d3-89a3-ded19f11a319","system_id":"levelo_inurba_marseille","lat":43.33726,"lon":5.39213,"is_reserved":false,"is_disabled":false,"rental_uris":{"android":"levelo://app?vid=169b38ad-d958-40d3-89a3-ded19f11a319","ios":"levelo://app?vid=169b38ad-d958-40d3-89a3-ded19f11a319"},"vehicle_type_id":"4","last_reported":1741648162,"current_range_meters":8400,"station_id":"ce4bhr92rcd13ifvqhsg","pricing_plan_id":"cebpf4jnsgd1na2vs0mg"},{"bike_id":"554f9d1a-c986-4f48-8e17-e97c1989f9c4","system_id":"levelo_inurba_marseille","lat":43.32343,"lon":5.40615,"is_reserved":false,"is_disabled":false,"rental_uris":{"android":"levelo://app?vid=554f9d1a-c986-4f48-8e17-e97c1989f9c4","ios":"levelo://app?vid=554f9d1a-c986-4f48-8e17-e97c1989f9c4"},"vehicle_type_id":"4","last_reported":1741648162,"current_range_meters":8400,"station_id":"ce4bhq92rcd13ifvqhjg","pricing_plan_id":"cebpf4jnsgd1na2vs0mg"},{"bike_id":"199cb7b2-857a-4db4-b08b-30cc2dc0c4f3","system_id":"levelo_inurba_marseille","lat":43.31713,"lon":5.43702,"is_reserved":false,"is_disabled":false,"rental_uris":{"android":"levelo://app?vid=199cb7b2-857a-4db4-b08b-30cc2dc0c4f3","ios":"levelo://app?vid=199cb7b2-857a-4db4-b08b-30cc2dc0c4f3"},"vehicle_type_id":"4","last_reported":1741648162,"current_range_meters":8400,"station_id":"ce4bhp92rcd13ifvqhcg","pricing_plan_id":"cebpf4jnsgd1na2vs0mg"},{"bike_id":"1907067d-5e3d-40ca-8a47-ba415b8b2a28","system_id":"levelo_inurba_marseille","lat":43.3361,"lon":5.40985,"is_reserved":false,"is_disabled":true,"rental_uris":{"android":"levelo://app?vid=1907067d-5e3d-40ca-8a47-ba415b8b2a28","ios":"levelo://app?vid=1907067d-5e3d-40ca-8a47-ba415b8b2a28"},"vehicle_type_id":"4","last_reported":1741648162,"current_range_meters":8400,"station_id":"ce4bhqh2rcd13ifvqhmg","pricing_plan_id":"cebpf4jnsgd1na2vs0mg"},{"bike_id":"27ec60e3-b2e3-435c-ba4c-8372ab285bb1","system_id":"levelo_inurba_marseille","lat":43.28146,"lon":5.42643,"is_reserved":false,"is_disabled":false,"rental_uris":{"android":"levelo://app?vid=27ec60e3-b2e3-435c-ba4c-8372ab285bb1","ios":"levelo://app?vid=27ec60e3-b2e3-435c-ba4c-8372ab285bb1"},"vehicle_type_id":"4","last_reported":1741648162,"current_range_meters":8400,"station_id":"ce4bhnh2rcd13ifvqgug","pricing_plan_id":"cebpf4jnsgd1na2vs0mg"},{"bike_id":"e24ed85e-3539-42f2-9dbe-4ae80e70329d","system_id":"levelo_inurba_marseille","lat":43.32654,"lon":5.40988,"is_reserved":false,"is_disabled":false,"rental_uris":{"android":"levelo://app?vid=e24ed85e-3539-42f2-9dbe-4ae80e70329d","ios":"levelo://app?vid=e24ed85e-3539-42f2-9dbe-4ae80e70329d"},"vehicle_type_id":"4","last_reported":1741648162,"current_range_meters":8400,"station_id":"ce4bhpp2rcd13ifvqhgg","pricing_plan_id":"cebpf4jnsgd1na2vs0mg"},{"bike_id":"a37d42aa-085d-4a56-8e08-eaf93bfe5e2b","system_id":"levelo_inurba_marseille","lat":43.31178,"lon":5.38719,"is_reserved":false,"is_disabled":true,"rental_uris":{"android":"levelo://app?vid=a37d42aa-085d-4a56-8e08-eaf93bfe5e2b","ios":"levelo://app?vid=a37d42aa-085d-4a56-8e08-eaf93bfe5e2b"},"vehicle_type_id":"4","last_reported":1741648162,"current_range_meters":8400,"station_id":"ce4bgv12rcd13ifvqcp0","pricing_plan_id":"cebpf4jnsgd1na2vs0mg"},{"bike_id":"acff2939-c952-4f56-8aac-b02f4b8fce85","system_id":"levelo_inurba_marseille","lat":43.27056,"lon":5.42287,"is_reserved":false,"is_disabled":false,"rental_uris":{"android":"levelo://app?vid=acff2939-c952-4f56-8aac-b02f4b8fce85","ios":"levelo://app?vid=acff2939-c952-4f56-8aac-b02f4b8fce85"},"vehicle_type_id":"4","last_reported":1741648162,"current_range_meters":8400,"station_id":"ce4bhk92rcd13ifvqgb0","pricing_plan_id":"cebpf4jnsgd1na2vs0mg"},{"bike_id":"2bf4ba89-8f38-4266-bd63-46743be5bf38","system_id":"levelo_inurba_marseille","lat":43.27832,"lon":5.39207,"is_reserved":false,"is_disabled":false,"rental_uris":{"android":"levelo://app?vid=2bf4ba89-8f38-4266-bd63-46743be5bf38","ios":"levelo://app?vid=2bf4ba89-8f38-4266-bd63-46743be5bf38"},"vehicle_type_id":"4","last_reported":1741648162,"current_range_meters":8800,"station_id":"ce4bhjp2rcd13ifvqga0","pricing_plan_id":"cebpf4jnsgd1na2vs0mg"},{"bike_id":"f102aaa6-742b-41cb-93b1-819991b13a0f","system_id":"levelo_inurba_marseille","lat":43.31312,"lon":5.38848,"is_reserved":false,"is_disabled":false,"rental_uris":{"android":"levelo://app?vid=f102aaa6-742b-41cb-93b1-819991b13a0f","ios":"levelo://app?vid=f102aaa6-742b-41cb-93b1-819991b13a0f"},"vehicle_type_id":"4","last_reported":1741648162,"current_range_meters":8800,"station_id":"","pricing_plan_id":"cebpf4jnsgd1na2vs0mg"},{"bike_id":"22321c9b-eea6-4540-8918-b3bba3e1485b","system_id":"levelo_inurba_marseille","lat":43.26197,"lon":5.40454,"is_reserved":false,"is_disabled":false,"rental_uris":{"android":"levelo://app?vid=22321c9b-eea6-4540-8918-b3bba3e1485b","ios":"levelo://app?vid=22321c9b-eea6-4540-8918-b3bba3e1485b"},"vehicle_type_id":"4","last_reported":1741648162,"current_range_meters":8800,"station_id":"ce4bhmh2rcd13ifvqgmg","pricing_plan_id":"cebpf4jnsgd1na2vs0mg"},{"bike_id":"373a1af5-2b90-40ba-bdc3-b87140071d00","system_id":"levelo_inurba_marseille","lat":43.31188,"lon":5.40321,"is_reserved":false,"is_disabled":false,"rental_uris":{"android":"levelo://app?vid=373a1af5-2b90-40ba-bdc3-b87140071d00","ios":"levelo://app?vid=373a1af5-2b90-40ba-bdc3-b87140071d00"},"vehicle_type_id":"4","last_reported":1741648162,"current_range_meters":8800,"station_id":"","pricing_plan_id":"cebpf4jnsgd1na2vs0mg"},{"bike_id":"5bf1fd3d-106c-4b23-b455-ae5552f33fa7","system_id":"levelo_inurba_marseille","lat":43.25086,"lon":5.39536,"is_reserved":false,"is_disabled":false,"rental_uris":{"android":"levelo://app?vid=5bf1fd3d-106c-4b23-b455-ae5552f33fa7","ios":"levelo://app?vid=5bf1fd3d-106c-4b23-b455-ae5552f33fa7"},"vehicle_type_id":"4","last_reported":1741648162,"current_range_meters":8800,"station_id":"ce4bhm12rcd13ifvqgkg","pricing_plan_id":"cebpf4jnsgd1na2vs0mg"},{"bike_id":"9ad3941c-a1ac-4563-9a21-7dd980942c2e","system_id":"levelo_inurba_marseille","lat":43.26024,"lon":5.37553,"is_reserved":false,"is_disabled":true,"rental_uris":{"android":"levelo://app?vid=9ad3941c-a1ac-4563-9a21-7dd980942c2e","ios":"levelo://app?vid=9ad3941c-a1ac-4563-9a21-7dd980942c2e"},"vehicle_type_id":"4","last_reported":1741648162,"current_range_meters":8800,"station_id":"ce4bhgh2rcd13ifvqfa0","pricing_plan_id":"cebpf4jnsgd1na2vs0mg"},{"bike_id":"eac1a77a-8698-4a71-b031-3d068948b2a7","system_id":"levelo_inurba_marseille","lat":43.32364,"lon":5.38882,"is_reserved":false,"is_disabled":false,"rental_uris":{"android":"levelo://app?vid=eac1a77a-8698-4a71-b031-3d068948b2a7","ios":"levelo://app?vid=eac1a77a-8698-4a71-b031-3d068948b2a7"},"vehicle_type_id":"4","last_reported":1741648162,"current_range_meters":8800,"station_id":"ce4bhqp2rcd13ifvqhog","pricing_plan_id":"cebpf4jnsgd1na2vs0mg"},{"bike_id":"855c9330-8b67-4292-9c70-1914a9315508","system_id":"levelo_inurba_marseille","lat":43.27942,"lon":5.41035,"is_reserved":false,"is_disabled":false,"rental_uris":{"android":"levelo://app?vid=855c9330-8b67-4292-9c70-1914a9315508","ios":"levelo://app?vid=855c9330-8b67-4292-9c70-1914a9315508"},"vehicle_type_id":"4","last_reported":1741648162,"current_range_meters":8800,"station_id":"ce4bhnp2rcd13ifvqh0g","pricing_plan_id":"cebpf4jnsgd1na2vs0mg"},{"bike_id":"e059ef3d-eb48-427d-b0c6-bf37192fe1ba","system_id":"levelo_inurba_marseille","lat":43.27993,"lon":5.40016,"is_reserved":false,"is_disabled":false,"rental_uris":{"android":"levelo://app?vid=e059ef3d-eb48-427d-b0c6-bf37192fe1ba","ios":"levelo://app?vid=e059ef3d-eb48-427d-b0c6-bf37192fe1ba"},"vehicle_type_id":"4","last_reported":1741648162,"current_range_meters":8800,"station_id":"ce4bho92rcd13ifvqh4g","pricing_plan_id":"cebpf4jnsgd1na2vs0mg"},{"bike_id":"5c920c9b-4a42-42ad-b21a-84589ce49e30","system_id":"levelo_inurba_marseille","lat":43.29538,"lon":5.3855,"is_reserved":false,"is_disabled":false,"rental_uris":{"android":"levelo://app?vid=5c920c9b-4a42-42ad-b21a-84589ce49e30","ios":"levelo://app?vid=5c920c9b-4a42-42ad-b21a-84589ce49e30"},"vehicle_type_id":"4","last_reported":1741648162,"current_range_meters":8800,"station_id":"ce4bgih2rcd13ifvqba0","pricing_plan_id":"cebpf4jnsgd1na2vs0mg"},{"bike_id":"35c21be5-136d-4361-912d-4b83ae0c4701","system_id":"levelo_inurba_marseille","lat":43.30318,"lon":5.36908,"is_reserved":false,"is_disabled":false,"rental_uris":{"android":"levelo://app?vid=35c21be5-136d-4361-912d-4b83ae0c4701","ios":"levelo://app?vid=35c21be5-136d-4361-912d-4b83ae0c4701"},"vehicle_type_id":"4","last_reported":1741648162,"current_range_meters":9200,"station_id":"ce4bgqh2rcd13ifvqc5g","pricing_plan_id":"cebpf4jnsgd1na2vs0mg"},{"bike_id":"54afd193-ee95-4f5e-975a-c9018d9dcb98","system_id":"levelo_inurba_marseille","lat":43.32359,"lon":5.36752,"is_reserved":false,"is_disabled":false,"rental_uris":{"android":"levelo://app?vid=54afd193-ee95-4f5e-975a-c9018d9dcb98","ios":"levelo://app?vid=54afd193-ee95-4f5e-975a-c9018d9dcb98"},"vehicle_type_id":"4","last_reported":1741648162,"current_range_meters":9200,"station_id":"ce4bhsh2rcd13ifvqi2g","pricing_plan_id":"cebpf4jnsgd1na2vs0mg"},{"bike_id":"94d842f6-27d1-4b82-b594-66b4682ce169","system_id":"levelo_inurba_marseille","lat":43.27995,"lon":5.40002,"is_reserved":false,"is_disabled":false,"rental_uris":{"android":"levelo://app?vid=94d842f6-27d1-4b82-b594-66b4682ce169","ios":"levelo://app?vid=94d842f6-27d1-4b82-b594-66b4682ce169"},"vehicle_type_id":"4","last_reported":1741648162,"current_range_meters":9200,"station_id":"ce4bho92rcd13ifvqh4g","pricing_plan_id":"cebpf4jnsgd1na2vs0mg"},{"bike_id":"7013c278-5410-48cc-815f-2755f73d5c70","system_id":"levelo_inurba_marseille","lat":43.29937,"lon":5.36549,"is_reserved":false,"is_disabled":false,"rental_uris":{"android":"levelo://app?vid=7013c278-5410-48cc-815f-2755f73d5c70","ios":"levelo://app?vid=7013c278-5410-48cc-815f-2755f73d5c70"},"vehicle_type_id":"4","last_reported":1741648162,"current_range_meters":9200,"station_id":"ce4bgm92rcd13ifvqbr0","pricing_plan_id":"cebpf4jnsgd1na2vs0mg"},{"bike_id":"ceb4234d-8544-4a1a-ba56-fe9dc61b42e3","system_id":"levelo_inurba_marseille","lat":43.2847,"lon":5.38432,"is_reserved":false,"is_disabled":false,"rental_uris":{"android":"levelo://app?vid=ceb4234d-8544-4a1a-ba56-fe9dc61b42e3","ios":"levelo://app?vid=ceb4234d-8544-4a1a-ba56-fe9dc61b42e3"},"vehicle_type_id":"4","last_reported":1741648162,"current_range_meters":9600,"station_id":"ce4bh512rcd13ifvqe3g","pricing_plan_id":"cebpf4jnsgd1na2vs0mg"},{"bike_id":"b7ccf6da-8117-44c6-9255-5ae0465e2faa","system_id":"levelo_inurba_marseille","lat":43.28718,"lon":5.4,"is_reserved":false,"is_disabled":false,"rental_uris":{"android":"levelo://app?vid=b7ccf6da-8117-44c6-9255-5ae0465e2faa","ios":"levelo://app?vid=b7ccf6da-8117-44c6-9255-5ae0465e2faa"},"vehicle_type_id":"4","last_reported":1741648162,"current_range_meters":9600,"station_id":"ce4bho92rcd13ifvqh3g","pricing_plan_id":"cebpf4jnsgd1na2vs0mg"},{"bike_id":"ae4913d3-c7b3-4e3b-8b0e-9eedefc8bcf1","system_id":"levelo_inurba_marseille","lat":43.313194,"lon":5.388421,"is_reserved":false,"is_disabled":false,"rental_uris":{"android":"levelo://app?vid=ae4913d3-c7b3-4e3b-8b0e-9eedefc8bcf1","ios":"levelo://app?vid=ae4913d3-c7b3-4e3b-8b0e-9eedefc8bcf1"},"vehicle_type_id":"4","last_reported":1741648162,"current_range_meters":9600,"station_id":"","pricing_plan_id":"cebpf4jnsgd1na2vs0mg"},{"bike_id":"99cafb72-467e-4440-850a-6498b98751a8","system_id":"levelo_inurba_marseille","lat":43.3038,"lon":5.36778,"is_reserved":false,"is_disabled":false,"rental_uris":{"android":"levelo://app?vid=99cafb72-467e-4440-850a-6498b98751a8","ios":"levelo://app?vid=99cafb72-467e-4440-850a-6498b98751a8"},"vehicle_type_id":"4","last_reported":1741648162,"current_range_meters":9600,"station_id":"","pricing_plan_id":"cebpf4jnsgd1na2vs0mg"},{"bike_id":"0237689c-b5f5-4c16-a927-51dc56fce20a","system_id":"levelo_inurba_marseille","lat":43.31161,"lon":5.38719,"is_reserved":false,"is_disabled":false,"rental_uris":{"android":"levelo://app?vid=0237689c-b5f5-4c16-a927-51dc56fce20a","ios":"levelo://app?vid=0237689c-b5f5-4c16-a927-51dc56fce20a"},"vehicle_type_id":"4","last_reported":1741648162,"current_range_meters":9600,"station_id":"ce4bgv12rcd13ifvqcp0","pricing_plan_id":"cebpf4jnsgd1na2vs0mg"},{"bike_id":"4f7bbb0b-f0c2-4153-b3e6-744aa43d163b","system_id":"levelo_inurba_marseille","lat":43.26543,"lon":5.39048,"is_reserved":false,"is_disabled":false,"rental_uris":{"android":"levelo://app?vid=4f7bbb0b-f0c2-4153-b3e6-744aa43d163b","ios":"levelo://app?vid=4f7bbb0b-f0c2-4153-b3e6-744aa43d163b"},"vehicle_type_id":"4","last_reported":1741648162,"current_range_meters":9600,"station_id":"ce4bhe12rcd13ifvqf30","pricing_plan_id":"cebpf4jnsgd1na2vs0mg"},{"bike_id":"f2c5b4d9-7014-4352-9842-8b654a25747b","system_id":"levelo_inurba_marseille","lat":43.29192,"lon":5.3934,"is_reserved":false,"is_disabled":false,"rental_uris":{"android":"levelo://app?vid=f2c5b4d9-7014-4352-9842-8b654a25747b","ios":"levelo://app?vid=f2c5b4d9-7014-4352-9842-8b654a25747b"},"vehicle_type_id":"4","last_reported":1741648162,"current_range_meters":9600,"station_id":"ce4bh192rcd13ifvqdd0","pricing_plan_id":"cebpf4jnsgd1na2vs0mg"},{"bike_id":"ad9885b8-46bd-41dc-b0e6-4f15bcb85518","system_id":"levelo_inurba_marseille","lat":43.31081,"lon":5.42435,"is_reserved":false,"is_disabled":false,"rental_uris":{"android":"levelo://app?vid=ad9885b8-46bd-41dc-b0e6-4f15bcb85518","ios":"levelo://app?vid=ad9885b8-46bd-41dc-b0e6-4f15bcb85518"},"vehicle_type_id":"4","last_reported":1741648162,"current_range_meters":9600,"station_id":"ce4bhp92rcd13ifvqhag","pricing_plan_id":"cebpf4jnsgd1na2vs0mg"},{"bike_id":"76cda9c9-0cf7-4c59-99cb-1d3df14c7633","system_id":"levelo_inurba_marseille","lat":43.27833,"lon":5.3923,"is_reserved":false,"is_disabled":false,"rental_uris":{"android":"levelo://app?vid=76cda9c9-0cf7-4c59-99cb-1d3df14c7633","ios":"levelo://app?vid=76cda9c9-0cf7-4c59-99cb-1d3df14c7633"},"vehicle_type_id":"4","last_reported":1741648162,"current_range_meters":9600,"station_id":"ce4bhjp2rcd13ifvqga0","pricing_plan_id":"cebpf4jnsgd1na2vs0mg"},{"bike_id":"4491a1e2-eb06-49d1-bf0c-ffab94d6b1ae","system_id":"levelo_inurba_marseille","lat":43.24176,"lon":5.39725,"is_reserved":false,"is_disabled":true,"rental_uris":{"android":"levelo://app?vid=4491a1e2-eb06-49d1-bf0c-ffab94d6b1ae","ios":"levelo://app?vid=4491a1e2-eb06-49d1-bf0c-ffab94d6b1ae"},"vehicle_type_id":"4","last_reported":1741648162,"current_range_meters":10000,"station_id":"ce4bhn12rcd13ifvqgpg","pricing_plan_id":"cebpf4jnsgd1na2vs0mg"},{"bike_id":"d2ac0aa6-492c-406a-8f30-81aab53fe76b","system_id":"levelo_inurba_marseille","lat":43.24175,"lon":5.39734,"is_reserved":false,"is_disabled":false,"rental_uris":{"android":"levelo://app?vid=d2ac0aa6-492c-406a-8f30-81aab53fe76b","ios":"levelo://app?vid=d2ac0aa6-492c-406a-8f30-81aab53fe76b"},"vehicle_type_id":"4","last_reported":1741648162,"current_range_meters":10000,"station_id":"ce4bhn12rcd13ifvqgpg","pricing_plan_id":"cebpf4jnsgd1na2vs0mg"},{"bike_id":"e1498ebd-a42c-474f-8279-2c2e9cca71d4","system_id":"levelo_inurba_marseille","lat":43.28825,"lon":5.38222,"is_reserved":false,"is_disabled":false,"rental_uris":{"android":"levelo://app?vid=e1498ebd-a42c-474f-8279-2c2e9cca71d4","ios":"levelo://app?vid=e1498ebd-a42c-474f-8279-2c2e9cca71d4"},"vehicle_type_id":"4","last_reported":1741648162,"current_range_meters":10000,"station_id":"","pricing_plan_id":"cebpf4jnsgd1na2vs0mg"},{"bike_id":"787941c7-68e4-4a9e-b1f1-d3bf469258e1","system_id":"levelo_inurba_marseille","lat":43.24159,"lon":5.39724,"is_reserved":false,"is_disabled":false,"rental_uris":{"android":"levelo://app?vid=787941c7-68e4-4a9e-b1f1-d3bf469258e1","ios":"levelo://app?vid=787941c7-68e4-4a9e-b1f1-d3bf469258e1"},"vehicle_type_id":"4","last_reported":1741648162,"current_range_meters":10000,"station_id":"ce4bhn12rcd13ifvqgpg","pricing_plan_id":"cebpf4jnsgd1na2vs0mg"},{"bike_id":"7e384d90-9cdb-4adf-a875-0e3113bacef4","system_id":"levelo_inurba_marseille","lat":43.30864,"lon":5.37258,"is_reserved":false,"is_disabled":false,"rental_uris":{"android":"levelo://app?vid=7e384d90-9cdb-4adf-a875-0e3113bacef4","ios":"levelo://app?vid=7e384d90-9cdb-4adf-a875-0e3113bacef4"},"vehicle_type_id":"4","last_reported":1741648162,"current_range_meters":10000,"station_id":"","pricing_plan_id":"cebpf4jnsgd1na2vs0mg"},{"bike_id":"73080cc6-5249-4bc5-bafc-597b342be911","system_id":"levelo_inurba_marseille","lat":43.29775,"lon":5.39344,"is_reserved":false,"is_disabled":false,"rental_uris":{"android":"levelo://app?vid=73080cc6-5249-4bc5-bafc-597b342be911","ios":"levelo://app?vid=73080cc6-5249-4bc5-bafc-597b342be911"},"vehicle_type_id":"4","last_reported":1741648162,"current_range_meters":10000,"station_id":"chh1huq6cuj3fo74tm60","pricing_plan_id":"cebpf4jnsgd1na2vs0mg"},{"bike_id":"09bbb690-af86-458c-bbad-70d10e2033ee","system_id":"levelo_inurba_marseille","lat":43.23048,"lon":5.35488,"is_reserved":false,"is_disabled":false,"rental_uris":{"android":"levelo://app?vid=09bbb690-af86-458c-bbad-70d10e2033ee","ios":"levelo://app?vid=09bbb690-af86-458c-bbad-70d10e2033ee"},"vehicle_type_id":"4","last_reported":1741648162,"current_range_meters":10000,"station_id":"cpo3342slgdg3j2ifvpg","pricing_plan_id":"cebpf4jnsgd1na2vs0mg"},{"bike_id":"908a9f4e-151d-47c8-a9df-21ce8a23eae8","system_id":"levelo_inurba_marseille","lat":43.24684,"lon":5.38149,"is_reserved":false,"is_disabled":false,"rental_uris":{"android":"levelo://app?vid=908a9f4e-151d-47c8-a9df-21ce8a23eae8","ios":"levelo://app?vid=908a9f4e-151d-47c8-a9df-21ce8a23eae8"},"vehicle_type_id":"4","last_reported":1741648162,"current_range_meters":10000,"station_id":"ce4bhih2rcd13ifvqfr0","pricing_plan_id":"cebpf4jnsgd1na2vs0mg"},{"bike_id":"e6bfedde-b8d3-483f-9c12-e45beb87d7c9","system_id":"levelo_inurba_marseille","lat":43.23157,"lon":5.43748,"is_reserved":false,"is_disabled":false,"rental_uris":{"android":"levelo://app?vid=e6bfedde-b8d3-483f-9c12-e45beb87d7c9","ios":"levelo://app?vid=e6bfedde-b8d3-483f-9c12-e45beb87d7c9"},"vehicle_type_id":"4","last_reported":1741648162,"current_range_meters":10000,"station_id":"ce4bhmp2rcd13ifvqgog","pricing_plan_id":"cebpf4jnsgd1na2vs0mg"},{"bike_id":"61193e8a-8e60-4220-8577-846bbeba5e58","system_id":"levelo_inurba_marseille","lat":43.31405,"lon":5.38619,"is_reserved":false,"is_disabled":false,"rental_uris":{"android":"levelo://app?vid=61193e8a-8e60-4220-8577-846bbeba5e58","ios":"levelo://app?vid=61193e8a-8e60-4220-8577-846bbeba5e58"},"vehicle_type_id":"4","last_reported":1741648162,"current_range_meters":10000,"station_id":"","pricing_plan_id":"cebpf4jnsgd1na2vs0mg"},{"bike_id":"aef7e77c-e213-4368-91ff-8d1fe2823dfe","system_id":"levelo_inurba_marseille","lat":43.30879,"lon":5.39654,"is_reserved":false,"is_disabled":false,"rental_uris":{"android":"levelo://app?vid=aef7e77c-e213-4368-91ff-8d1fe2823dfe","ios":"levelo://app?vid=aef7e77c-e213-4368-91ff-8d1fe2823dfe"},"vehicle_type_id":"4","last_reported":1741648162,"current_range_meters":10800,"station_id":"ce4bh012rcd13ifvqcv0","pricing_plan_id":"cebpf4jnsgd1na2vs0mg"},{"bike_id":"5ccaa9dd-fd14-42a0-9fd5-b2cb20a90f0c","system_id":"levelo_inurba_marseille","lat":43.25874,"lon":5.399,"is_reserved":false,"is_disabled":false,"rental_uris":{"android":"levelo://app?vid=5ccaa9dd-fd14-42a0-9fd5-b2cb20a90f0c","ios":"levelo://app?vid=5ccaa9dd-fd14-42a0-9fd5-b2cb20a90f0c"},"vehicle_type_id":"4","last_reported":1741648162,"current_range_meters":10800,"station_id":"ce4bhl92rcd13ifvqghg","pricing_plan_id":"cebpf4jnsgd1na2vs0mg"},{"bike_id":"68d89c40-14e8-4102-a80e-5e09c9fad361","system_id":"levelo_inurba_marseille","lat":43.3235,"lon":5.40619,"is_reserved":false,"is_disabled":false,"rental_uris":{"android":"levelo://app?vid=68d89c40-14e8-4102-a80e-5e09c9fad361","ios":"levelo://app?vid=68d89c40-14e8-4102-a80e-5e09c9fad361"},"vehicle_type_id":"4","last_reported":1741648162,"current_range_meters":10800,"station_id":"ce4bhq92rcd13ifvqhjg","pricing_plan_id":"cebpf4jnsgd1na2vs0mg"},{"bike_id":"1920f354-c4b5-4d1a-bc6f-aba0c6cd151e","system_id":"levelo_inurba_marseille","lat":43.27788,"lon":5.40758,"is_reserved":false,"is_disabled":false,"rental_uris":{"android":"levelo://app?vid=1920f354-c4b5-4d1a-bc6f-aba0c6cd151e","ios":"levelo://app?vid=1920f354-c4b5-4d1a-bc6f-aba0c6cd151e"},"vehicle_type_id":"4","last_reported":1741648162,"current_range_meters":10800,"station_id":"ce4bhnh2rcd13ifvqgtg","pricing_plan_id":"cebpf4jnsgd1na2vs0mg"},{"bike_id":"3ac23fa3-c691-42c5-bf01-2fc133440e80","system_id":"levelo_inurba_marseille","lat":43.29516,"lon":5.38538,"is_reserved":false,"is_disabled":false,"rental_uris":{"android":"levelo://app?vid=3ac23fa3-c691-42c5-bf01-2fc133440e80","ios":"levelo://app?vid=3ac23fa3-c691-42c5-bf01-2fc133440e80"},"vehicle_type_id":"4","last_reported":1741648162,"current_range_meters":10800,"station_id":"ce4bgih2rcd13ifvqba0","pricing_plan_id":"cebpf4jnsgd1na2vs0mg"},{"bike_id":"8dc2c2dc-de0f-4fd2-b739-faf253fff5e5","system_id":"levelo_inurba_marseille","lat":43.23153,"lon":5.43722,"is_reserved":false,"is_disabled":false,"rental_uris":{"android":"levelo://app?vid=8dc2c2dc-de0f-4fd2-b739-faf253fff5e5","ios":"levelo://app?vid=8dc2c2dc-de0f-4fd2-b739-faf253fff5e5"},"vehicle_type_id":"4","last_reported":1741648162,"current_range_meters":10800,"station_id":"ce4bhmp2rcd13ifvqgog","pricing_plan_id":"cebpf4jnsgd1na2vs0mg"},{"bike_id":"93cf9ee9-18a9-434d-82f1-fcc1831c2751","system_id":"levelo_inurba_marseille","lat":43.27943,"lon":5.4105,"is_reserved":false,"is_disabled":false,"rental_uris":{"android":"levelo://app?vid=93cf9ee9-18a9-434d-82f1-fcc1831c2751","ios":"levelo://app?vid=93cf9ee9-18a9-434d-82f1-fcc1831c2751"},"vehicle_type_id":"4","last_reported":1741648162,"current_range_meters":10800,"station_id":"ce4bhnp2rcd13ifvqh0g","pricing_plan_id":"cebpf4jnsgd1na2vs0mg"},{"bike_id":"a823a252-79ed-4eab-8ed3-c099ec187b1d","system_id":"levelo_inurba_marseille","lat":43.27096,"lon":5.42262,"is_reserved":false,"is_disabled":false,"rental_uris":{"android":"levelo://app?vid=a823a252-79ed-4eab-8ed3-c099ec187b1d","ios":"levelo://app?vid=a823a252-79ed-4eab-8ed3-c099ec187b1d"},"vehicle_type_id":"4","last_reported":1741648162,"current_range_meters":10800,"station_id":"ce4bhk92rcd13ifvqgb0","pricing_plan_id":"cebpf4jnsgd1na2vs0mg"},{"bike_id":"c2848185-3b42-44f9-b163-5d9be4b7c26e","system_id":"levelo_inurba_marseille","lat":43.22926,"lon":5.3539,"is_reserved":false,"is_disabled":false,"rental_uris":{"android":"levelo://app?vid=c2848185-3b42-44f9-b163-5d9be4b7c26e","ios":"levelo://app?vid=c2848185-3b42-44f9-b163-5d9be4b7c26e"},"vehicle_type_id":"4","last_reported":1741648162,"current_range_meters":10800,"station_id":"cpo3532slgdg3j2ikp40","pricing_plan_id":"cebpf4jnsgd1na2vs0mg"},{"bike_id":"80771939-f406-42f7-81c5-33180fd8a338","system_id":"levelo_inurba_marseille","lat":43.23186,"lon":5.35555,"is_reserved":false,"is_disabled":false,"rental_uris":{"android":"levelo://app?vid=80771939-f406-42f7-81c5-33180fd8a338","ios":"levelo://app?vid=80771939-f406-42f7-81c5-33180fd8a338"},"vehicle_type_id":"4","last_reported":1741648162,"current_range_meters":10800,"station_id":"ce4bhu92rcd13ifvqi70","pricing_plan_id":"cebpf4jnsgd1na2vs0mg"},{"bike_id":"51772d6c-c0b3-48d9-81cb-ae5466e6f822","system_id":"levelo_inurba_marseille","lat":43.23143,"lon":5.43724,"is_reserved":false,"is_disabled":false,"rental_uris":{"android":"levelo://app?vid=51772d6c-c0b3-48d9-81cb-ae5466e6f822","ios":"levelo://app?vid=51772d6c-c0b3-48d9-81cb-ae5466e6f822"},"vehicle_type_id":"4","last_reported":1741648162,"current_range_meters":10800,"station_id":"ce4bhmp2rcd13ifvqgog","pricing_plan_id":"cebpf4jnsgd1na2vs0mg"},{"bike_id":"acfd84d0-be47-4dd0-88de-367911f341dc","system_id":"levelo_inurba_marseille","lat":43.30592,"lon":5.37249,"is_reserved":false,"is_disabled":false,"rental_uris":{"android":"levelo://app?vid=acfd84d0-be47-4dd0-88de-367911f341dc","ios":"levelo://app?vid=acfd84d0-be47-4dd0-88de-367911f341dc"},"vehicle_type_id":"4","last_reported":1741648162,"current_range_meters":10800,"station_id":"ce4bgqh2rcd13ifvqc4g","pricing_plan_id":"cebpf4jnsgd1na2vs0mg"},{"bike_id":"6ad8ffcd-2bee-4d10-b80d-ee19163ec617","system_id":"levelo_inurba_marseille","lat":43.27382,"lon":5.3625,"is_reserved":false,"is_disabled":false,"rental_uris":{"android":"levelo://app?vid=6ad8ffcd-2bee-4d10-b80d-ee19163ec617","ios":"levelo://app?vid=6ad8ffcd-2bee-4d10-b80d-ee19163ec617"},"vehicle_type_id":"4","last_reported":1741648162,"current_range_meters":11200,"station_id":"ce4bhbh2rcd13ifvqeo0","pricing_plan_id":"cebpf4jnsgd1na2vs0mg"},{"bike_id":"acc1658b-7ea3-44a5-a65b-40f1faa0438d","system_id":"levelo_inurba_marseille","lat":43.32531,"lon":5.4145,"is_reserved":false,"is_disabled":false,"rental_uris":{"android":"levelo://app?vid=acc1658b-7ea3-44a5-a65b-40f1faa0438d","ios":"levelo://app?vid=acc1658b-7ea3-44a5-a65b-40f1faa0438d"},"vehicle_type_id":"4","last_reported":1741648162,"current_range_meters":11200,"station_id":"ce4bhq12rcd13ifvqhhg","pricing_plan_id":"cebpf4jnsgd1na2vs0mg"},{"bike_id":"a26045c1-1145-4eb4-a1da-7da4f3afe0e6","system_id":"levelo_inurba_marseille","lat":43.28424,"lon":5.34991,"is_reserved":false,"is_disabled":false,"rental_uris":{"android":"levelo://app?vid=a26045c1-1145-4eb4-a1da-7da4f3afe0e6","ios":"levelo://app?vid=a26045c1-1145-4eb4-a1da-7da4f3afe0e6"},"vehicle_type_id":"4","last_reported":1741648162,"current_range_meters":11200,"station_id":"ce4bhbh2rcd13ifvqepg","pricing_plan_id":"cebpf4jnsgd1na2vs0mg"},{"bike_id":"9850477a-ea38-466c-8d00-d7638a0d9437","system_id":"levelo_inurba_marseille","lat":43.29894,"lon":5.38918,"is_reserved":false,"is_disabled":false,"rental_uris":{"android":"levelo://app?vid=9850477a-ea38-466c-8d00-d7638a0d9437","ios":"levelo://app?vid=9850477a-ea38-466c-8d00-d7638a0d9437"},"vehicle_type_id":"4","last_reported":1741648162,"current_range_meters":11200,"station_id":"ce4bh392rcd13ifvqdl0","pricing_plan_id":"cebpf4jnsgd1na2vs0mg"},{"bike_id":"9d9272dd-5d21-4fea-bd29-dbf4e879b2cf","system_id":"levelo_inurba_marseille","lat":43.29897,"lon":5.43672,"is_reserved":false,"is_disabled":false,"rental_uris":{"android":"levelo://app?vid=9d9272dd-5d21-4fea-bd29-dbf4e879b2cf","ios":"levelo://app?vid=9d9272dd-5d21-4fea-bd29-dbf4e879b2cf"},"vehicle_type_id":"4","last_reported":1741648162,"current_range_meters":11600,"station_id":"ce4bhpp2rcd13ifvqhfg","pricing_plan_id":"cebpf4jnsgd1na2vs0mg"},{"bike_id":"c41e3247-520d-4edc-8030-5306b79badd5","system_id":"levelo_inurba_marseille","lat":43.24643,"lon":5.38895,"is_reserved":false,"is_disabled":false,"rental_uris":{"android":"levelo://app?vid=c41e3247-520d-4edc-8030-5306b79badd5","ios":"levelo://app?vid=c41e3247-520d-4edc-8030-5306b79badd5"},"vehicle_type_id":"4","last_reported":1741648162,"current_range_meters":11600,"station_id":"ce4bhg12rcd13ifvqf60","pricing_plan_id":"cebpf4jnsgd1na2vs0mg"},{"bike_id":"e747d5ae-d0eb-47f3-910f-61e3964bf85a","system_id":"levelo_inurba_marseille","lat":43.3088,"lon":5.39636,"is_reserved":false,"is_disabled":false,"rental_uris":{"android":"levelo://app?vid=e747d5ae-d0eb-47f3-910f-61e3964bf85a","ios":"levelo://app?vid=e747d5ae-d0eb-47f3-910f-61e3964bf85a"},"vehicle_type_id":"4","last_reported":1741648162,"current_range_meters":11600,"station_id":"ce4bh012rcd13ifvqcv0","pricing_plan_id":"cebpf4jnsgd1na2vs0mg"},{"bike_id":"a6907114-91e5-4406-958d-4b895c3084d0","system_id":"levelo_inurba_marseille","lat":43.29899,"lon":5.43673,"is_reserved":false,"is_disabled":false,"rental_uris":{"android":"levelo://app?vid=a6907114-91e5-4406-958d-4b895c3084d0","ios":"levelo://app?vid=a6907114-91e5-4406-958d-4b895c3084d0"},"vehicle_type_id":"4","last_reported":1741648162,"current_range_meters":11600,"station_id":"ce4bhpp2rcd13ifvqhfg","pricing_plan_id":"cebpf4jnsgd1na2vs0mg"},{"bike_id":"27459785-4edf-4f27-b842-1984a62c6dde","system_id":"levelo_inurba_marseille","lat":43.25078,"lon":5.39531,"is_reserved":false,"is_disabled":false,"rental_uris":{"android":"levelo://app?vid=27459785-4edf-4f27-b842-1984a62c6dde","ios":"levelo://app?vid=27459785-4edf-4f27-b842-1984a62c6dde"},"vehicle_type_id":"4","last_reported":1741648162,"current_range_meters":11600,"station_id":"ce4bhm12rcd13ifvqgkg","pricing_plan_id":"cebpf4jnsgd1na2vs0mg"},{"bike_id":"1e9fddd9-ff26-4b65-9c51-0d3702bdaed8","system_id":"levelo_inurba_marseille","lat":43.27956,"lon":5.38715,"is_reserved":false,"is_disabled":false,"rental_uris":{"android":"levelo://app?vid=1e9fddd9-ff26-4b65-9c51-0d3702bdaed8","ios":"levelo://app?vid=1e9fddd9-ff26-4b65-9c51-0d3702bdaed8"},"vehicle_type_id":"4","last_reported":1741648162,"current_range_meters":11600,"station_id":"ce4bhg12rcd13ifvqf80","pricing_plan_id":"cebpf4jnsgd1na2vs0mg"},{"bike_id":"9ec52ed9-9c0e-4e61-a378-5327e3711632","system_id":"levelo_inurba_marseille","lat":43.24731,"lon":5.4116,"is_reserved":false,"is_disabled":false,"rental_uris":{"android":"levelo://app?vid=9ec52ed9-9c0e-4e61-a378-5327e3711632","ios":"levelo://app?vid=9ec52ed9-9c0e-4e61-a378-5327e3711632"},"vehicle_type_id":"4","last_reported":1741648162,"current_range_meters":11600,"station_id":"","pricing_plan_id":"cebpf4jnsgd1na2vs0mg"},{"bike_id":"b0dddecf-9116-4a66-9983-62de09dcadf3","system_id":"levelo_inurba_marseille","lat":43.27776,"lon":5.42101,"is_reserved":false,"is_disabled":false,"rental_uris":{"android":"levelo://app?vid=b0dddecf-9116-4a66-9983-62de09dcadf3","ios":"levelo://app?vid=b0dddecf-9116-4a66-9983-62de09dcadf3"},"vehicle_type_id":"4","last_reported":1741648162,"current_range_meters":12000,"station_id":"","pricing_plan_id":"cebpf4jnsgd1na2vs0mg"},{"bike_id":"0f746634-9447-4077-958c-6f079b74ef8f","system_id":"levelo_inurba_marseille","lat":43.28405,"lon":5.37523,"is_reserved":false,"is_disabled":false,"rental_uris":{"android":"levelo://app?vid=0f746634-9447-4077-958c-6f079b74ef8f","ios":"levelo://app?vid=0f746634-9447-4077-958c-6f079b74ef8f"},"vehicle_type_id":"4","last_reported":1741648162,"current_range_meters":12000,"station_id":"ce4bh412rcd13ifvqds0","pricing_plan_id":"cebpf4jnsgd1na2vs0mg"},{"bike_id":"11682539-aea1-4e9c-abe8-86102f41bf04","system_id":"levelo_inurba_marseille","lat":43.28455,"lon":5.3589,"is_reserved":false,"is_disabled":false,"rental_uris":{"android":"levelo://app?vid=11682539-aea1-4e9c-abe8-86102f41bf04","ios":"levelo://app?vid=11682539-aea1-4e9c-abe8-86102f41bf04"},"vehicle_type_id":"4","last_reported":1741648162,"current_range_meters":12000,"station_id":"ce4bhah2rcd13ifvqei0","pricing_plan_id":"cebpf4jnsgd1na2vs0mg"},{"bike_id":"6b23263d-5b6d-4c0d-af82-e81f833640b8","system_id":"levelo_inurba_marseille","lat":43.28003,"lon":5.41654,"is_reserved":false,"is_disabled":false,"rental_uris":{"android":"levelo://app?vid=6b23263d-5b6d-4c0d-af82-e81f833640b8","ios":"levelo://app?vid=6b23263d-5b6d-4c0d-af82-e81f833640b8"},"vehicle_type_id":"4","last_reported":1741648162,"current_range_meters":12000,"station_id":"ce4bho12rcd13ifvqh1g","pricing_plan_id":"cebpf4jnsgd1na2vs0mg"},{"bike_id":"f8e0aebb-9570-4e43-9f51-19f51db951a0","system_id":"levelo_inurba_marseille","lat":43.26563,"lon":5.39034,"is_reserved":false,"is_disabled":true,"rental_uris":{"android":"levelo://app?vid=f8e0aebb-9570-4e43-9f51-19f51db951a0","ios":"levelo://app?vid=f8e0aebb-9570-4e43-9f51-19f51db951a0"},"vehicle_type_id":"4","last_reported":1741648162,"current_range_meters":12000,"station_id":"ce4bhe12rcd13ifvqf30","pricing_plan_id":"cebpf4jnsgd1na2vs0mg"},{"bike_id":"89059245-3b8b-486d-b024-20583b4ae4d8","system_id":"levelo_inurba_marseille","lat":43.30313,"lon":5.36899,"is_reserved":false,"is_disabled":false,"rental_uris":{"android":"levelo://app?vid=89059245-3b8b-486d-b024-20583b4ae4d8","ios":"levelo://app?vid=89059245-3b8b-486d-b024-20583b4ae4d8"},"vehicle_type_id":"4","last_reported":1741648162,"current_range_meters":12400,"station_id":"ce4bgqh2rcd13ifvqc5g","pricing_plan_id":"cebpf4jnsgd1na2vs0mg"},{"bike_id":"58c264a5-3349-4b37-a708-48c32df51aef","system_id":"levelo_inurba_marseille","lat":43.25582,"lon":5.38229,"is_reserved":false,"is_disabled":false,"rental_uris":{"android":"levelo://app?vid=58c264a5-3349-4b37-a708-48c32df51aef","ios":"levelo://app?vid=58c264a5-3349-4b37-a708-48c32df51aef"},"vehicle_type_id":"4","last_reported":1741648162,"current_range_meters":12000,"station_id":"ce4bhih2rcd13ifvqfs0","pricing_plan_id":"cebpf4jnsgd1na2vs0mg"},{"bike_id":"f640465e-8c9e-425a-8e36-08d8d5201bf6","system_id":"levelo_inurba_marseille","lat":43.23189,"lon":5.35545,"is_reserved":false,"is_disabled":false,"rental_uris":{"android":"levelo://app?vid=f640465e-8c9e-425a-8e36-08d8d5201bf6","ios":"levelo://app?vid=f640465e-8c9e-425a-8e36-08d8d5201bf6"},"vehicle_type_id":"4","last_reported":1741648162,"current_range_meters":12400,"station_id":"ce4bhu92rcd13ifvqi70","pricing_plan_id":"cebpf4jnsgd1na2vs0mg"},{"bike_id":"98d8a154-c6b2-4d96-82cd-afc7786dc4e4","system_id":"levelo_inurba_marseille","lat":43.30806,"lon":5.43519,"is_reserved":false,"is_disabled":false,"rental_uris":{"android":"levelo://app?vid=98d8a154-c6b2-4d96-82cd-afc7786dc4e4","ios":"levelo://app?vid=98d8a154-c6b2-4d96-82cd-afc7786dc4e4"},"vehicle_type_id":"4","last_reported":1741648162,"current_range_meters":12400,"station_id":"ce4bhph2rcd13ifvqheg","pricing_plan_id":"cebpf4jnsgd1na2vs0mg"},{"bike_id":"c073c55a-4dfb-4aa3-8243-3fe86f17da3d","system_id":"levelo_inurba_marseille","lat":43.26943,"lon":5.40253,"is_reserved":false,"is_disabled":false,"rental_uris":{"android":"levelo://app?vid=c073c55a-4dfb-4aa3-8243-3fe86f17da3d","ios":"levelo://app?vid=c073c55a-4dfb-4aa3-8243-3fe86f17da3d"},"vehicle_type_id":"4","last_reported":1741648162,"current_range_meters":12000,"station_id":"cjm6bp8fraef2m0cb0m0","pricing_plan_id":"cebpf4jnsgd1na2vs0mg"},{"bike_id":"58d1b5b3-d322-4418-97d0-3066ec3d9afc","system_id":"levelo_inurba_marseille","lat":43.23206,"lon":5.35553,"is_reserved":false,"is_disabled":false,"rental_uris":{"android":"levelo://app?vid=58d1b5b3-d322-4418-97d0-3066ec3d9afc","ios":"levelo://app?vid=58d1b5b3-d322-4418-97d0-3066ec3d9afc"},"vehicle_type_id":"4","last_reported":1741648162,"current_range_meters":12400,"station_id":"ce4bhu92rcd13ifvqi70","pricing_plan_id":"cebpf4jnsgd1na2vs0mg"},{"bike_id":"239daea1-d6b9-43b3-a1da-412c2567e506","system_id":"levelo_inurba_marseille","lat":43.308079,"lon":5.435199,"is_reserved":false,"is_disabled":false,"rental_uris":{"android":"levelo://app?vid=239daea1-d6b9-43b3-a1da-412c2567e506","ios":"levelo://app?vid=239daea1-d6b9-43b3-a1da-412c2567e506"},"vehicle_type_id":"4","last_reported":1741648162,"current_range_meters":12400,"station_id":"ce4bhph2rcd13ifvqheg","pricing_plan_id":"cebpf4jnsgd1na2vs0mg"},{"bike_id":"b9680ac6-d12e-4a12-9dd8-1396db5e067b","system_id":"levelo_inurba_marseille","lat":43.23161,"lon":5.4369,"is_reserved":false,"is_disabled":false,"rental_uris":{"android":"levelo://app?vid=b9680ac6-d12e-4a12-9dd8-1396db5e067b","ios":"levelo://app?vid=b9680ac6-d12e-4a12-9dd8-1396db5e067b"},"vehicle_type_id":"4","last_reported":1741648162,"current_range_meters":12800,"station_id":"ce4bhmp2rcd13ifvqgog","pricing_plan_id":"cebpf4jnsgd1na2vs0mg"},{"bike_id":"e3e8ee84-c9d8-4027-b7f7-e2a74d4c2adb","system_id":"levelo_inurba_marseille","lat":43.28938,"lon":5.36388,"is_reserved":false,"is_disabled":false,"rental_uris":{"android":"levelo://app?vid=e3e8ee84-c9d8-4027-b7f7-e2a74d4c2adb","ios":"levelo://app?vid=e3e8ee84-c9d8-4027-b7f7-e2a74d4c2adb"},"vehicle_type_id":"4","last_reported":1741648162,"current_range_meters":12800,"station_id":"ce4bhc92rcd13ifvqetg","pricing_plan_id":"cebpf4jnsgd1na2vs0mg"},{"bike_id":"6423918c-790a-4fd7-b29d-6d9df26db5f9","system_id":"levelo_inurba_marseille","lat":43.29441,"lon":5.40921,"is_reserved":false,"is_disabled":false,"rental_uris":{"android":"levelo://app?vid=6423918c-790a-4fd7-b29d-6d9df26db5f9","ios":"levelo://app?vid=6423918c-790a-4fd7-b29d-6d9df26db5f9"},"vehicle_type_id":"4","last_reported":1741648162,"current_range_meters":12800,"station_id":"","pricing_plan_id":"cebpf4jnsgd1na2vs0mg"},{"bike_id":"2f915bc9-0bcd-4347-88cc-9a1fe5e31763","system_id":"levelo_inurba_marseille","lat":43.28681,"lon":5.37425,"is_reserved":false,"is_disabled":false,"rental_uris":{"android":"levelo://app?vid=2f915bc9-0bcd-4347-88cc-9a1fe5e31763","ios":"levelo://app?vid=2f915bc9-0bcd-4347-88cc-9a1fe5e31763"},"vehicle_type_id":"4","last_reported":1741648162,"current_range_meters":12800,"station_id":"ce4bh3p2rcd13ifvqdq0","pricing_plan_id":"cebpf4jnsgd1na2vs0mg"},{"bike_id":"fdae8c57-1100-499f-a78a-815b16671136","system_id":"levelo_inurba_marseille","lat":43.24553,"lon":5.3951,"is_reserved":false,"is_disabled":false,"rental_uris":{"android":"levelo://app?vid=fdae8c57-1100-499f-a78a-815b16671136","ios":"levelo://app?vid=fdae8c57-1100-499f-a78a-815b16671136"},"vehicle_type_id":"4","last_reported":1741648162,"current_range_meters":12800,"station_id":"ce4bhlp2rcd13ifvqgjg","pricing_plan_id":"cebpf4jnsgd1na2vs0mg"},{"bike_id":"f61dba5c-8160-4a63-8f49-daffec2287bd","system_id":"levelo_inurba_marseille","lat":43.2622,"lon":5.4045,"is_reserved":false,"is_disabled":false,"rental_uris":{"android":"levelo://app?vid=f61dba5c-8160-4a63-8f49-daffec2287bd","ios":"levelo://app?vid=f61dba5c-8160-4a63-8f49-daffec2287bd"},"vehicle_type_id":"4","last_reported":1741648162,"current_range_meters":12800,"station_id":"ce4bhmh2rcd13ifvqgmg","pricing_plan_id":"cebpf4jnsgd1na2vs0mg"},{"bike_id":"229d6555-c1cb-4114-b0d7-18be2fc2c415","system_id":"levelo_inurba_marseille","lat":43.28014,"lon":5.36962,"is_reserved":false,"is_disabled":false,"rental_uris":{"android":"levelo://app?vid=229d6555-c1cb-4114-b0d7-18be2fc2c415","ios":"levelo://app?vid=229d6555-c1cb-4114-b0d7-18be2fc2c415"},"vehicle_type_id":"4","last_reported":1741648162,"current_range_meters":12800,"station_id":"ce4bha12rcd13ifvqef0","pricing_plan_id":"cebpf4jnsgd1na2vs0mg"},{"bike_id":"714996a6-64f6-41af-a68f-e639f119975d","system_id":"levelo_inurba_marseille","lat":43.25084,"lon":5.39509,"is_reserved":false,"is_disabled":true,"rental_uris":{"android":"levelo://app?vid=714996a6-64f6-41af-a68f-e639f119975d","ios":"levelo://app?vid=714996a6-64f6-41af-a68f-e639f119975d"},"vehicle_type_id":"4","last_reported":1741648162,"current_range_meters":13600,"station_id":"ce4bhm12rcd13ifvqgkg","pricing_plan_id":"cebpf4jnsgd1na2vs0mg"},{"bike_id":"1ee9dbf5-b0e2-4af5-8fd1-f41f66f7bf91","system_id":"levelo_inurba_marseille","lat":43.30814,"lon":5.38139,"is_reserved":false,"is_disabled":false,"rental_uris":{"android":"levelo://app?vid=1ee9dbf5-b0e2-4af5-8fd1-f41f66f7bf91","ios":"levelo://app?vid=1ee9dbf5-b0e2-4af5-8fd1-f41f66f7bf91"},"vehicle_type_id":"4","last_reported":1741648162,"current_range_meters":13600,"station_id":"ce4bgt12rcd13ifvqce0","pricing_plan_id":"cebpf4jnsgd1na2vs0mg"},{"bike_id":"18e0014a-1e39-48ec-9dff-262a9750eedd","system_id":"levelo_inurba_marseille","lat":43.29931,"lon":5.36514,"is_reserved":false,"is_disabled":false,"rental_uris":{"android":"levelo://app?vid=18e0014a-1e39-48ec-9dff-262a9750eedd","ios":"levelo://app?vid=18e0014a-1e39-48ec-9dff-262a9750eedd"},"vehicle_type_id":"4","last_reported":1741648162,"current_range_meters":13600,"station_id":"ce4bgm92rcd13ifvqbr0","pricing_plan_id":"cebpf4jnsgd1na2vs0mg"},{"bike_id":"68e9e819-f13a-4e40-8f76-b946bcb0ecdf","system_id":"levelo_inurba_marseille","lat":43.28725,"lon":5.36088,"is_reserved":false,"is_disabled":false,"rental_uris":{"android":"levelo://app?vid=68e9e819-f13a-4e40-8f76-b946bcb0ecdf","ios":"levelo://app?vid=68e9e819-f13a-4e40-8f76-b946bcb0ecdf"},"vehicle_type_id":"4","last_reported":1741648162,"current_range_meters":13600,"station_id":"cki0cbj6b192h4jlfktg","pricing_plan_id":"cebpf4jnsgd1na2vs0mg"},{"bike_id":"9e5e5c9b-2dc0-4727-b0db-055726a9a62c","system_id":"levelo_inurba_marseille","lat":43.28419,"lon":5.3752,"is_reserved":false,"is_disabled":false,"rental_uris":{"android":"levelo://app?vid=9e5e5c9b-2dc0-4727-b0db-055726a9a62c","ios":"levelo://app?vid=9e5e5c9b-2dc0-4727-b0db-055726a9a62c"},"vehicle_type_id":"4","last_reported":1741648162,"current_range_meters":13600,"station_id":"ce4bh412rcd13ifvqds0","pricing_plan_id":"cebpf4jnsgd1na2vs0mg"},{"bike_id":"aaa6117f-695a-4870-93d8-ce1ed03dac44","system_id":"levelo_inurba_marseille","lat":43.30529,"lon":5.36537,"is_reserved":false,"is_disabled":true,"rental_uris":{"android":"levelo://app?vid=aaa6117f-695a-4870-93d8-ce1ed03dac44","ios":"levelo://app?vid=aaa6117f-695a-4870-93d8-ce1ed03dac44"},"vehicle_type_id":"4","last_reported":1741648162,"current_range_meters":14000,"station_id":"ce4bgs12rcd13ifvqcag","pricing_plan_id":"cebpf4jnsgd1na2vs0mg"},{"bike_id":"744c179f-dd86-454c-8ad2-af83cb794828","system_id":"levelo_inurba_marseille","lat":43.29006,"lon":5.38154,"is_reserved":false,"is_disabled":false,"rental_uris":{"android":"levelo://app?vid=744c179f-dd86-454c-8ad2-af83cb794828","ios":"levelo://app?vid=744c179f-dd86-454c-8ad2-af83cb794828"},"vehicle_type_id":"4","last_reported":1741648162,"current_range_meters":14000,"station_id":"ce4bh4p2rcd13ifvqe1g","pricing_plan_id":"cebpf4jnsgd1na2vs0mg"},{"bike_id":"37f05d3f-8f67-4488-a200-ae48f65388c1","system_id":"levelo_inurba_marseille","lat":43.30415,"lon":5.41288,"is_reserved":false,"is_disabled":false,"rental_uris":{"android":"levelo://app?vid=37f05d3f-8f67-4488-a200-ae48f65388c1","ios":"levelo://app?vid=37f05d3f-8f67-4488-a200-ae48f65388c1"},"vehicle_type_id":"4","last_reported":1741648162,"current_range_meters":14000,"station_id":"ce4bhop2rcd13ifvqh8g","pricing_plan_id":"cebpf4jnsgd1na2vs0mg"},{"bike_id":"7170985a-2d2e-4f85-93d7-2c8089780cbb","system_id":"levelo_inurba_marseille","lat":43.28149,"lon":5.42664,"is_reserved":false,"is_disabled":false,"rental_uris":{"android":"levelo://app?vid=7170985a-2d2e-4f85-93d7-2c8089780cbb","ios":"levelo://app?vid=7170985a-2d2e-4f85-93d7-2c8089780cbb"},"vehicle_type_id":"4","last_reported":1741648162,"current_range_meters":14000,"station_id":"ce4bhnh2rcd13ifvqgug","pricing_plan_id":"cebpf4jnsgd1na2vs0mg"},{"bike_id":"63efd6b9-d813-429c-b04f-99896658a589","system_id":"levelo_inurba_marseille","lat":43.27929,"lon":5.41066,"is_reserved":false,"is_disabled":false,"rental_uris":{"android":"levelo://app?vid=63efd6b9-d813-429c-b04f-99896658a589","ios":"levelo://app?vid=63efd6b9-d813-429c-b04f-99896658a589"},"vehicle_type_id":"4","last_reported":1741648162,"current_range_meters":14000,"station_id":"ce4bhnp2rcd13ifvqh0g","pricing_plan_id":"cebpf4jnsgd1na2vs0mg"},{"bike_id":"0fa8885b-a032-4875-8249-a37d20c5b6a2","system_id":"levelo_inurba_marseille","lat":43.28447,"lon":5.35893,"is_reserved":false,"is_disabled":false,"rental_uris":{"android":"levelo://app?vid=0fa8885b-a032-4875-8249-a37d20c5b6a2","ios":"levelo://app?vid=0fa8885b-a032-4875-8249-a37d20c5b6a2"},"vehicle_type_id":"4","last_reported":1741648162,"current_range_meters":14000,"station_id":"ce4bhah2rcd13ifvqei0","pricing_plan_id":"cebpf4jnsgd1na2vs0mg"},{"bike_id":"62c0e46f-67d4-41aa-afcf-4f33fee17934","system_id":"levelo_inurba_marseille","lat":43.29529,"lon":5.38547,"is_reserved":false,"is_disabled":false,"rental_uris":{"android":"levelo://app?vid=62c0e46f-67d4-41aa-afcf-4f33fee17934","ios":"levelo://app?vid=62c0e46f-67d4-41aa-afcf-4f33fee17934"},"vehicle_type_id":"4","last_reported":1741648162,"current_range_meters":14000,"station_id":"ce4bgih2rcd13ifvqba0","pricing_plan_id":"cebpf4jnsgd1na2vs0mg"},{"bike_id":"8afae95b-4a76-42b2-8a44-98973b0d2208","system_id":"levelo_inurba_marseille","lat":43.317,"lon":5.40469,"is_reserved":false,"is_disabled":false,"rental_uris":{"android":"levelo://app?vid=8afae95b-4a76-42b2-8a44-98973b0d2208","ios":"levelo://app?vid=8afae95b-4a76-42b2-8a44-98973b0d2208"},"vehicle_type_id":"4","last_reported":1741648162,"current_range_meters":14000,"station_id":"ce4bh012rcd13ifvqd00","pricing_plan_id":"cebpf4jnsgd1na2vs0mg"},{"bike_id":"6247825b-5dfd-4737-b9f9-aa7055771cb8","system_id":"levelo_inurba_marseille","lat":43.28837,"lon":5.35904,"is_reserved":false,"is_disabled":false,"rental_uris":{"android":"levelo://app?vid=6247825b-5dfd-4737-b9f9-aa7055771cb8","ios":"levelo://app?vid=6247825b-5dfd-4737-b9f9-aa7055771cb8"},"vehicle_type_id":"4","last_reported":1741648162,"current_range_meters":14000,"station_id":"","pricing_plan_id":"cebpf4jnsgd1na2vs0mg"},{"bike_id":"8788ba1f-0302-4324-8ff2-c963e4002442","system_id":"levelo_inurba_marseille","lat":43.31078,"lon":5.38359,"is_reserved":false,"is_disabled":false,"rental_uris":{"android":"levelo://app?vid=8788ba1f-0302-4324-8ff2-c963e4002442","ios":"levelo://app?vid=8788ba1f-0302-4324-8ff2-c963e4002442"},"vehicle_type_id":"4","last_reported":1741648162,"current_range_meters":14400,"station_id":"ce4bgv92rcd13ifvqcr0","pricing_plan_id":"cebpf4jnsgd1na2vs0mg"},{"bike_id":"8bf23d8f-6266-48b9-959c-b1f33cd75e0d","system_id":"levelo_inurba_marseille","lat":43.27319,"lon":5.39113,"is_reserved":false,"is_disabled":true,"rental_uris":{"android":"levelo://app?vid=8bf23d8f-6266-48b9-959c-b1f33cd75e0d","ios":"levelo://app?vid=8bf23d8f-6266-48b9-959c-b1f33cd75e0d"},"vehicle_type_id":"4","last_reported":1741648162,"current_range_meters":14400,"station_id":"ce4bhgp2rcd13ifvqfe0","pricing_plan_id":"cebpf4jnsgd1na2vs0mg"},{"bike_id":"39b7467d-8e70-47da-9e69-e4063f8792e3","system_id":"levelo_inurba_marseille","lat":43.29031,"lon":5.35918,"is_reserved":false,"is_disabled":false,"rental_uris":{"android":"levelo://app?vid=39b7467d-8e70-47da-9e69-e4063f8792e3","ios":"levelo://app?vid=39b7467d-8e70-47da-9e69-e4063f8792e3"},"vehicle_type_id":"4","last_reported":1741648162,"current_range_meters":14400,"station_id":"ce4bha92rcd13ifvqeg0","pricing_plan_id":"cebpf4jnsgd1na2vs0mg"},{"bike_id":"85d6e77e-5d13-4ede-9def-2859d033e115","system_id":"levelo_inurba_marseille","lat":43.29051,"lon":5.39965,"is_reserved":false,"is_disabled":false,"rental_uris":{"android":"levelo://app?vid=85d6e77e-5d13-4ede-9def-2859d033e115","ios":"levelo://app?vid=85d6e77e-5d13-4ede-9def-2859d033e115"},"vehicle_type_id":"4","last_reported":1741648162,"current_range_meters":14400,"station_id":"ce4bh392rcd13ifvqdm0","pricing_plan_id":"cebpf4jnsgd1na2vs0mg"},{"bike_id":"9acab34d-76c9-4fd5-bed6-0265a89df8bb","system_id":"levelo_inurba_marseille","lat":43.25721,"lon":5.41119,"is_reserved":false,"is_disabled":false,"rental_uris":{"android":"levelo://app?vid=9acab34d-76c9-4fd5-bed6-0265a89df8bb","ios":"levelo://app?vid=9acab34d-76c9-4fd5-bed6-0265a89df8bb"},"vehicle_type_id":"4","last_reported":1741648162,"current_range_meters":14400,"station_id":"ce4bhkp2rcd13ifvqgd0","pricing_plan_id":"cebpf4jnsgd1na2vs0mg"},{"bike_id":"02ccda15-ca98-4f66-a5ee-609c485d624e","system_id":"levelo_inurba_marseille","lat":43.23951,"lon":5.36644,"is_reserved":false,"is_disabled":false,"rental_uris":{"android":"levelo://app?vid=02ccda15-ca98-4f66-a5ee-609c485d624e","ios":"levelo://app?vid=02ccda15-ca98-4f66-a5ee-609c485d624e"},"vehicle_type_id":"4","last_reported":1741648162,"current_range_meters":14400,"station_id":"ce4bhi12rcd13ifvqfp0","pricing_plan_id":"cebpf4jnsgd1na2vs0mg"},{"bike_id":"36bc002c-40a9-47ea-b363-47d7add9a5b6","system_id":"levelo_inurba_marseille","lat":43.31365,"lon":5.38498,"is_reserved":false,"is_disabled":false,"rental_uris":{"android":"levelo://app?vid=36bc002c-40a9-47ea-b363-47d7add9a5b6","ios":"levelo://app?vid=36bc002c-40a9-47ea-b363-47d7add9a5b6"},"vehicle_type_id":"4","last_reported":1741648162,"current_range_meters":14400,"station_id":"ce4bgt92rcd13ifvqcf0","pricing_plan_id":"cebpf4jnsgd1na2vs0mg"},{"bike_id":"25e3d1b9-451e-49bf-a160-305203be0a21","system_id":"levelo_inurba_marseille","lat":43.28008,"lon":5.42696,"is_reserved":false,"is_disabled":false,"rental_uris":{"android":"levelo://app?vid=25e3d1b9-451e-49bf-a160-305203be0a21","ios":"levelo://app?vid=25e3d1b9-451e-49bf-a160-305203be0a21"},"vehicle_type_id":"4","last_reported":1741648162,"current_range_meters":14400,"station_id":"","pricing_plan_id":"cebpf4jnsgd1na2vs0mg"},{"bike_id":"d2fb46e0-e2b4-4c51-811d-22794158f078","system_id":"levelo_inurba_marseille","lat":43.29912,"lon":5.39758,"is_reserved":false,"is_disabled":true,"rental_uris":{"android":"levelo://app?vid=d2fb46e0-e2b4-4c51-811d-22794158f078","ios":"levelo://app?vid=d2fb46e0-e2b4-4c51-811d-22794158f078"},"vehicle_type_id":"4","last_reported":1741648162,"current_range_meters":14400,"station_id":"","pricing_plan_id":"cebpf4jnsgd1na2vs0mg"},{"bike_id":"415e7a31-245d-4ead-9f33-dad092a04302","system_id":"levelo_inurba_marseille","lat":43.23059,"lon":5.35499,"is_reserved":false,"is_disabled":false,"rental_uris":{"android":"levelo://app?vid=415e7a31-245d-4ead-9f33-dad092a04302","ios":"levelo://app?vid=415e7a31-245d-4ead-9f33-dad092a04302"},"vehicle_type_id":"4","last_reported":1741648162,"current_range_meters":14800,"station_id":"cpo3342slgdg3j2ifvpg","pricing_plan_id":"cebpf4jnsgd1na2vs0mg"},{"bike_id":"29cfd7c6-f30d-433f-be23-3816488240c9","system_id":"levelo_inurba_marseille","lat":43.28456,"lon":5.35896,"is_reserved":false,"is_disabled":false,"rental_uris":{"android":"levelo://app?vid=29cfd7c6-f30d-433f-be23-3816488240c9","ios":"levelo://app?vid=29cfd7c6-f30d-433f-be23-3816488240c9"},"vehicle_type_id":"4","last_reported":1741648162,"current_range_meters":14800,"station_id":"ce4bhah2rcd13ifvqei0","pricing_plan_id":"cebpf4jnsgd1na2vs0mg"},{"bike_id":"cdd29a02-0905-4ed7-aa8a-6508ae564de9","system_id":"levelo_inurba_marseille","lat":43.27812,"lon":5.40717,"is_reserved":false,"is_disabled":false,"rental_uris":{"android":"levelo://app?vid=cdd29a02-0905-4ed7-aa8a-6508ae564de9","ios":"levelo://app?vid=cdd29a02-0905-4ed7-aa8a-6508ae564de9"},"vehicle_type_id":"4","last_reported":1741648162,"current_range_meters":14800,"station_id":"ce4bhnh2rcd13ifvqgtg","pricing_plan_id":"cebpf4jnsgd1na2vs0mg"},{"bike_id":"cf84d8bf-14f0-4faf-91c9-3f63b2d72c57","system_id":"levelo_inurba_marseille","lat":43.27979,"lon":5.41666,"is_reserved":false,"is_disabled":false,"rental_uris":{"android":"levelo://app?vid=cf84d8bf-14f0-4faf-91c9-3f63b2d72c57","ios":"levelo://app?vid=cf84d8bf-14f0-4faf-91c9-3f63b2d72c57"},"vehicle_type_id":"4","last_reported":1741648162,"current_range_meters":14800,"station_id":"ce4bho12rcd13ifvqh1g","pricing_plan_id":"cebpf4jnsgd1na2vs0mg"},{"bike_id":"1e0fe446-79da-4c06-b7fb-836450dc89c4","system_id":"levelo_inurba_marseille","lat":43.297856,"lon":5.393463,"is_reserved":false,"is_disabled":false,"rental_uris":{"android":"levelo://app?vid=1e0fe446-79da-4c06-b7fb-836450dc89c4","ios":"levelo://app?vid=1e0fe446-79da-4c06-b7fb-836450dc89c4"},"vehicle_type_id":"4","last_reported":1741648162,"current_range_meters":14800,"station_id":"chh1huq6cuj3fo74tm60","pricing_plan_id":"cebpf4jnsgd1na2vs0mg"},{"bike_id":"32ae218f-626a-4175-9dd0-f4bcf650afc3","system_id":"levelo_inurba_marseille","lat":43.28272,"lon":5.35075,"is_reserved":false,"is_disabled":false,"rental_uris":{"android":"levelo://app?vid=32ae218f-626a-4175-9dd0-f4bcf650afc3","ios":"levelo://app?vid=32ae218f-626a-4175-9dd0-f4bcf650afc3"},"vehicle_type_id":"4","last_reported":1741648162,"current_range_meters":14800,"station_id":"ce4bhbp2rcd13ifvqerg","pricing_plan_id":"cebpf4jnsgd1na2vs0mg"},{"bike_id":"ccdcd581-58af-40eb-ae3b-d6abb307bd5b","system_id":"levelo_inurba_marseille","lat":43.31049,"lon":5.38365,"is_reserved":false,"is_disabled":false,"rental_uris":{"android":"levelo://app?vid=ccdcd581-58af-40eb-ae3b-d6abb307bd5b","ios":"levelo://app?vid=ccdcd581-58af-40eb-ae3b-d6abb307bd5b"},"vehicle_type_id":"4","last_reported":1741648162,"current_range_meters":15200,"station_id":"ce4bgv92rcd13ifvqcr0","pricing_plan_id":"cebpf4jnsgd1na2vs0mg"},{"bike_id":"99662287-b8db-47fa-9c76-6a6e9c800bdf","system_id":"levelo_inurba_marseille","lat":43.30421,"lon":5.41276,"is_reserved":false,"is_disabled":false,"rental_uris":{"android":"levelo://app?vid=99662287-b8db-47fa-9c76-6a6e9c800bdf","ios":"levelo://app?vid=99662287-b8db-47fa-9c76-6a6e9c800bdf"},"vehicle_type_id":"4","last_reported":1741648162,"current_range_meters":15200,"station_id":"ce4bhop2rcd13ifvqh8g","pricing_plan_id":"cebpf4jnsgd1na2vs0mg"},{"bike_id":"5588af87-5f0b-4ed3-a65f-5f5d17e5af34","system_id":"levelo_inurba_marseille","lat":43.28407,"lon":5.34996,"is_reserved":false,"is_disabled":false,"rental_uris":{"android":"levelo://app?vid=5588af87-5f0b-4ed3-a65f-5f5d17e5af34","ios":"levelo://app?vid=5588af87-5f0b-4ed3-a65f-5f5d17e5af34"},"vehicle_type_id":"4","last_reported":1741648162,"current_range_meters":15200,"station_id":"ce4bhbh2rcd13ifvqepg","pricing_plan_id":"cebpf4jnsgd1na2vs0mg"},{"bike_id":"3f770ed7-3a2a-4fe2-b532-92715fa53839","system_id":"levelo_inurba_marseille","lat":43.30136,"lon":5.38778,"is_reserved":false,"is_disabled":true,"rental_uris":{"android":"levelo://app?vid=3f770ed7-3a2a-4fe2-b532-92715fa53839","ios":"levelo://app?vid=3f770ed7-3a2a-4fe2-b532-92715fa53839"},"vehicle_type_id":"4","last_reported":1741648162,"current_range_meters":15200,"station_id":"ce4bghh2rcd13ifvqb60","pricing_plan_id":"cebpf4jnsgd1na2vs0mg"},{"bike_id":"1a26001d-d49a-47a3-a711-f7ff22c1c811","system_id":"levelo_inurba_marseille","lat":43.28874,"lon":5.37173,"is_reserved":false,"is_disabled":false,"rental_uris":{"android":"levelo://app?vid=1a26001d-d49a-47a3-a711-f7ff22c1c811","ios":"levelo://app?vid=1a26001d-d49a-47a3-a711-f7ff22c1c811"},"vehicle_type_id":"4","last_reported":1741648162,"current_range_meters":15200,"station_id":"","pricing_plan_id":"cebpf4jnsgd1na2vs0mg"},{"bike_id":"9ee1edb7-b9fb-4f4b-8c55-07c4d3b2fdc6","system_id":"levelo_inurba_marseille","lat":43.27939,"lon":5.3958,"is_reserved":false,"is_disabled":false,"rental_uris":{"android":"levelo://app?vid=9ee1edb7-b9fb-4f4b-8c55-07c4d3b2fdc6","ios":"levelo://app?vid=9ee1edb7-b9fb-4f4b-8c55-07c4d3b2fdc6"},"vehicle_type_id":"4","last_reported":1741648162,"current_range_meters":15200,"station_id":"ce4bhf92rcd13ifvqf40","pricing_plan_id":"cebpf4jnsgd1na2vs0mg"},{"bike_id":"7d34c987-73ce-4ca4-a4f8-fc2f3288cfda","system_id":"levelo_inurba_marseille","lat":43.24174,"lon":5.39728,"is_reserved":false,"is_disabled":false,"rental_uris":{"android":"levelo://app?vid=7d34c987-73ce-4ca4-a4f8-fc2f3288cfda","ios":"levelo://app?vid=7d34c987-73ce-4ca4-a4f8-fc2f3288cfda"},"vehicle_type_id":"4","last_reported":1741648162,"current_range_meters":15200,"station_id":"ce4bhn12rcd13ifvqgpg","pricing_plan_id":"cebpf4jnsgd1na2vs0mg"},{"bike_id":"3e37f03c-e5a4-4e97-951f-7786bb1c3928","system_id":"levelo_inurba_marseille","lat":43.23154,"lon":5.43719,"is_reserved":false,"is_disabled":false,"rental_uris":{"android":"levelo://app?vid=3e37f03c-e5a4-4e97-951f-7786bb1c3928","ios":"levelo://app?vid=3e37f03c-e5a4-4e97-951f-7786bb1c3928"},"vehicle_type_id":"4","last_reported":1741648162,"current_range_meters":15200,"station_id":"ce4bhmp2rcd13ifvqgog","pricing_plan_id":"cebpf4jnsgd1na2vs0mg"},{"bike_id":"602775d1-d9d5-416b-9611-899a0e39b82c","system_id":"levelo_inurba_marseille","lat":43.2911,"lon":5.38428,"is_reserved":false,"is_disabled":false,"rental_uris":{"android":"levelo://app?vid=602775d1-d9d5-416b-9611-899a0e39b82c","ios":"levelo://app?vid=602775d1-d9d5-416b-9611-899a0e39b82c"},"vehicle_type_id":"4","last_reported":1741648162,"current_range_meters":15200,"station_id":"","pricing_plan_id":"cebpf4jnsgd1na2vs0mg"},{"bike_id":"7f58d9e5-acbe-40df-8048-40fec1830ecf","system_id":"levelo_inurba_marseille","lat":43.32483,"lon":5.36565,"is_reserved":false,"is_disabled":false,"rental_uris":{"android":"levelo://app?vid=7f58d9e5-acbe-40df-8048-40fec1830ecf","ios":"levelo://app?vid=7f58d9e5-acbe-40df-8048-40fec1830ecf"},"vehicle_type_id":"4","last_reported":1741648162,"current_range_meters":16000,"station_id":"ce4bhs12rcd13ifvqhvg","pricing_plan_id":"cebpf4jnsgd1na2vs0mg"},{"bike_id":"f6dc7e9d-be33-4c3d-b28e-234510ea7980","system_id":"levelo_inurba_marseille","lat":43.290686,"lon":5.380809,"is_reserved":false,"is_disabled":false,"rental_uris":{"android":"levelo://app?vid=f6dc7e9d-be33-4c3d-b28e-234510ea7980","ios":"levelo://app?vid=f6dc7e9d-be33-4c3d-b28e-234510ea7980"},"vehicle_type_id":"4","last_reported":1741648162,"current_range_meters":16000,"station_id":"","pricing_plan_id":"cebpf4jnsgd1na2vs0mg"},{"bike_id":"716492ae-81b6-4ed5-8177-f4759b370b67","system_id":"levelo_inurba_marseille","lat":43.28151,"lon":5.42643,"is_reserved":false,"is_disabled":false,"rental_uris":{"android":"levelo://app?vid=716492ae-81b6-4ed5-8177-f4759b370b67","ios":"levelo://app?vid=716492ae-81b6-4ed5-8177-f4759b370b67"},"vehicle_type_id":"4","last_reported":1741648162,"current_range_meters":16000,"station_id":"ce4bhnh2rcd13ifvqgug","pricing_plan_id":"cebpf4jnsgd1na2vs0mg"},{"bike_id":"eae61ea7-d7a0-4e24-b5ac-1f5a2df4bfa7","system_id":"levelo_inurba_marseille","lat":43.27174,"lon":5.40997,"is_reserved":false,"is_disabled":false,"rental_uris":{"android":"levelo://app?vid=eae61ea7-d7a0-4e24-b5ac-1f5a2df4bfa7","ios":"levelo://app?vid=eae61ea7-d7a0-4e24-b5ac-1f5a2df4bfa7"},"vehicle_type_id":"4","last_reported":1741648162,"current_range_meters":16000,"station_id":"ce4bhl12rcd13ifvqgf0","pricing_plan_id":"cebpf4jnsgd1na2vs0mg"},{"bike_id":"2cdec81d-2593-4153-a426-2f527f1b29e2","system_id":"levelo_inurba_marseille","lat":43.23595,"lon":5.391,"is_reserved":false,"is_disabled":false,"rental_uris":{"android":"levelo://app?vid=2cdec81d-2593-4153-a426-2f527f1b29e2","ios":"levelo://app?vid=2cdec81d-2593-4153-a426-2f527f1b29e2"},"vehicle_type_id":"4","last_reported":1741648162,"current_range_meters":16400,"station_id":"","pricing_plan_id":"cebpf4jnsgd1na2vs0mg"},{"bike_id":"9776d519-3376-4f51-aaa3-2da63911d7cc","system_id":"levelo_inurba_marseille","lat":43.25095,"lon":5.39538,"is_reserved":false,"is_disabled":false,"rental_uris":{"android":"levelo://app?vid=9776d519-3376-4f51-aaa3-2da63911d7cc","ios":"levelo://app?vid=9776d519-3376-4f51-aaa3-2da63911d7cc"},"vehicle_type_id":"4","last_reported":1741648162,"current_range_meters":16400,"station_id":"ce4bhm12rcd13ifvqgkg","pricing_plan_id":"cebpf4jnsgd1na2vs0mg"},{"bike_id":"729cffa0-13e0-4fad-8aca-3e634e65e80c","system_id":"levelo_inurba_marseille","lat":43.29022,"lon":5.35911,"is_reserved":false,"is_disabled":false,"rental_uris":{"android":"levelo://app?vid=729cffa0-13e0-4fad-8aca-3e634e65e80c","ios":"levelo://app?vid=729cffa0-13e0-4fad-8aca-3e634e65e80c"},"vehicle_type_id":"4","last_reported":1741648162,"current_range_meters":16400,"station_id":"ce4bha92rcd13ifvqeg0","pricing_plan_id":"cebpf4jnsgd1na2vs0mg"},{"bike_id":"53d1caad-7d2e-402c-88df-89cde4334633","system_id":"levelo_inurba_marseille","lat":43.29032,"lon":5.35935,"is_reserved":false,"is_disabled":false,"rental_uris":{"android":"levelo://app?vid=53d1caad-7d2e-402c-88df-89cde4334633","ios":"levelo://app?vid=53d1caad-7d2e-402c-88df-89cde4334633"},"vehicle_type_id":"4","last_reported":1741648162,"current_range_meters":16800,"station_id":"ce4bha92rcd13ifvqeg0","pricing_plan_id":"cebpf4jnsgd1na2vs0mg"},{"bike_id":"e9f0ddf6-c638-4a12-8ca0-d2f9784b891b","system_id":"levelo_inurba_marseille","lat":43.27822,"lon":5.4073,"is_reserved":false,"is_disabled":false,"rental_uris":{"android":"levelo://app?vid=e9f0ddf6-c638-4a12-8ca0-d2f9784b891b","ios":"levelo://app?vid=e9f0ddf6-c638-4a12-8ca0-d2f9784b891b"},"vehicle_type_id":"4","last_reported":1741648162,"current_range_meters":16800,"station_id":"ce4bhnh2rcd13ifvqgtg","pricing_plan_id":"cebpf4jnsgd1na2vs0mg"},{"bike_id":"433581c6-17dd-4f04-b588-bc8441917207","system_id":"levelo_inurba_marseille","lat":43.28156,"lon":5.42654,"is_reserved":false,"is_disabled":false,"rental_uris":{"android":"levelo://app?vid=433581c6-17dd-4f04-b588-bc8441917207","ios":"levelo://app?vid=433581c6-17dd-4f04-b588-bc8441917207"},"vehicle_type_id":"4","last_reported":1741648162,"current_range_meters":16800,"station_id":"ce4bhnh2rcd13ifvqgug","pricing_plan_id":"cebpf4jnsgd1na2vs0mg"},{"bike_id":"a480f81a-52e6-4f0d-9ea9-6f4b3c2a8f74","system_id":"levelo_inurba_marseille","lat":43.30803,"lon":5.43548,"is_reserved":false,"is_disabled":false,"rental_uris":{"android":"levelo://app?vid=a480f81a-52e6-4f0d-9ea9-6f4b3c2a8f74","ios":"levelo://app?vid=a480f81a-52e6-4f0d-9ea9-6f4b3c2a8f74"},"vehicle_type_id":"4","last_reported":1741648162,"current_range_meters":16800,"station_id":"ce4bhph2rcd13ifvqheg","pricing_plan_id":"cebpf4jnsgd1na2vs0mg"},{"bike_id":"5822965c-a5af-498d-87f7-41aeb8e90525","system_id":"levelo_inurba_marseille","lat":43.29962,"lon":5.41325,"is_reserved":false,"is_disabled":false,"rental_uris":{"android":"levelo://app?vid=5822965c-a5af-498d-87f7-41aeb8e90525","ios":"levelo://app?vid=5822965c-a5af-498d-87f7-41aeb8e90525"},"vehicle_type_id":"4","last_reported":1741648162,"current_range_meters":16800,"station_id":"ce4bhp12rcd13ifvqh9g","pricing_plan_id":"cebpf4jnsgd1na2vs0mg"},{"bike_id":"2d93c67e-330c-4c7b-8517-c03567315b70","system_id":"levelo_inurba_marseille","lat":43.28157,"lon":5.42651,"is_reserved":false,"is_disabled":false,"rental_uris":{"android":"levelo://app?vid=2d93c67e-330c-4c7b-8517-c03567315b70","ios":"levelo://app?vid=2d93c67e-330c-4c7b-8517-c03567315b70"},"vehicle_type_id":"4","last_reported":1741648162,"current_range_meters":16800,"station_id":"ce4bhnh2rcd13ifvqgug","pricing_plan_id":"cebpf4jnsgd1na2vs0mg"},{"bike_id":"1379d2e7-c153-4a42-87f1-8ff30298dd76","system_id":"levelo_inurba_marseille","lat":43.275635,"lon":5.38417,"is_reserved":false,"is_disabled":true,"rental_uris":{"android":"levelo://app?vid=1379d2e7-c153-4a42-87f1-8ff30298dd76","ios":"levelo://app?vid=1379d2e7-c153-4a42-87f1-8ff30298dd76"},"vehicle_type_id":"4","last_reported":1741648162,"current_range_meters":16800,"station_id":"","pricing_plan_id":"cebpf4jnsgd1na2vs0mg"},{"bike_id":"85feaa69-281c-4532-9634-3954940480cf","system_id":"levelo_inurba_marseille","lat":43.26677,"lon":5.38282,"is_reserved":false,"is_disabled":true,"rental_uris":{"android":"levelo://app?vid=85feaa69-281c-4532-9634-3954940480cf","ios":"levelo://app?vid=85feaa69-281c-4532-9634-3954940480cf"},"vehicle_type_id":"4","last_reported":1741648162,"current_range_meters":16800,"station_id":"ce4bhg92rcd13ifvqf90","pricing_plan_id":"cebpf4jnsgd1na2vs0mg"},{"bike_id":"621a3513-053c-4581-8b4f-1d615fa7cb0f","system_id":"levelo_inurba_marseille","lat":43.3133,"lon":5.38615,"is_reserved":false,"is_disabled":false,"rental_uris":{"android":"levelo://app?vid=621a3513-053c-4581-8b4f-1d615fa7cb0f","ios":"levelo://app?vid=621a3513-053c-4581-8b4f-1d615fa7cb0f"},"vehicle_type_id":"4","last_reported":1741648162,"current_range_meters":17200,"station_id":"","pricing_plan_id":"cebpf4jnsgd1na2vs0mg"},{"bike_id":"c74931ef-e49d-4272-8cce-5214dfcd267f","system_id":"levelo_inurba_marseille","lat":43.29898,"lon":5.43673,"is_reserved":false,"is_disabled":false,"rental_uris":{"android":"levelo://app?vid=c74931ef-e49d-4272-8cce-5214dfcd267f","ios":"levelo://app?vid=c74931ef-e49d-4272-8cce-5214dfcd267f"},"vehicle_type_id":"4","last_reported":1741648162,"current_range_meters":17200,"station_id":"ce4bhpp2rcd13ifvqhfg","pricing_plan_id":"cebpf4jnsgd1na2vs0mg"},{"bike_id":"531d79c6-b6bf-46c3-a8be-b136f11a667f","system_id":"levelo_inurba_marseille","lat":43.2841,"lon":5.37533,"is_reserved":false,"is_disabled":false,"rental_uris":{"android":"levelo://app?vid=531d79c6-b6bf-46c3-a8be-b136f11a667f","ios":"levelo://app?vid=531d79c6-b6bf-46c3-a8be-b136f11a667f"},"vehicle_type_id":"4","last_reported":1741648162,"current_range_meters":17200,"station_id":"ce4bh412rcd13ifvqds0","pricing_plan_id":"cebpf4jnsgd1na2vs0mg"},{"bike_id":"a5c23861-a5a1-42a3-8484-33b25c02b840","system_id":"levelo_inurba_marseille","lat":43.27195,"lon":5.40959,"is_reserved":false,"is_disabled":false,"rental_uris":{"android":"levelo://app?vid=a5c23861-a5a1-42a3-8484-33b25c02b840","ios":"levelo://app?vid=a5c23861-a5a1-42a3-8484-33b25c02b840"},"vehicle_type_id":"4","last_reported":1741648162,"current_range_meters":17200,"station_id":"ce4bhl12rcd13ifvqgf0","pricing_plan_id":"cebpf4jnsgd1na2vs0mg"},{"bike_id":"b82b5477-7e39-427d-89dc-28517f52f237","system_id":"levelo_inurba_marseille","lat":43.26841,"lon":5.41118,"is_reserved":false,"is_disabled":false,"rental_uris":{"android":"levelo://app?vid=b82b5477-7e39-427d-89dc-28517f52f237","ios":"levelo://app?vid=b82b5477-7e39-427d-89dc-28517f52f237"},"vehicle_type_id":"4","last_reported":1741648162,"current_range_meters":17200,"station_id":"","pricing_plan_id":"cebpf4jnsgd1na2vs0mg"},{"bike_id":"c1fdf776-5ff6-4f38-96ad-d3bee4a7cebb","system_id":"levelo_inurba_marseille","lat":43.23126,"lon":5.43732,"is_reserved":false,"is_disabled":false,"rental_uris":{"android":"levelo://app?vid=c1fdf776-5ff6-4f38-96ad-d3bee4a7cebb","ios":"levelo://app?vid=c1fdf776-5ff6-4f38-96ad-d3bee4a7cebb"},"vehicle_type_id":"4","last_reported":1741648162,"current_range_meters":17200,"station_id":"ce4bhmp2rcd13ifvqgog","pricing_plan_id":"cebpf4jnsgd1na2vs0mg"},{"bike_id":"f0b5f6b7-161e-4c72-8f30-8d8e8d5c374f","system_id":"levelo_inurba_marseille","lat":43.24605,"lon":5.40518,"is_reserved":false,"is_disabled":false,"rental_uris":{"android":"levelo://app?vid=f0b5f6b7-161e-4c72-8f30-8d8e8d5c374f","ios":"levelo://app?vid=f0b5f6b7-161e-4c72-8f30-8d8e8d5c374f"},"vehicle_type_id":"4","last_reported":1741648162,"current_range_meters":17200,"station_id":"","pricing_plan_id":"cebpf4jnsgd1na2vs0mg"},{"bike_id":"adc75c13-38f6-4cd5-a0b9-13a8ecab8833","system_id":"levelo_inurba_marseille","lat":43.29147,"lon":5.37989,"is_reserved":false,"is_disabled":false,"rental_uris":{"android":"levelo://app?vid=adc75c13-38f6-4cd5-a0b9-13a8ecab8833","ios":"levelo://app?vid=adc75c13-38f6-4cd5-a0b9-13a8ecab8833"},"vehicle_type_id":"4","last_reported":1741648162,"current_range_meters":17200,"station_id":"ce4bhqp2rcd13ifvqhng","pricing_plan_id":"cebpf4jnsgd1na2vs0mg"},{"bike_id":"24a51f5f-f82b-4bd0-9bee-fe12bba4149a","system_id":"levelo_inurba_marseille","lat":43.30949,"lon":5.39046,"is_reserved":false,"is_disabled":false,"rental_uris":{"android":"levelo://app?vid=24a51f5f-f82b-4bd0-9bee-fe12bba4149a","ios":"levelo://app?vid=24a51f5f-f82b-4bd0-9bee-fe12bba4149a"},"vehicle_type_id":"4","last_reported":1741648162,"current_range_meters":16800,"station_id":"ce4bgup2rcd13ifvqco0","pricing_plan_id":"cebpf4jnsgd1na2vs0mg"},{"bike_id":"89796792-fe54-487e-bb10-7b317b67226c","system_id":"levelo_inurba_marseille","lat":43.3116,"lon":5.38711,"is_reserved":false,"is_disabled":false,"rental_uris":{"android":"levelo://app?vid=89796792-fe54-487e-bb10-7b317b67226c","ios":"levelo://app?vid=89796792-fe54-487e-bb10-7b317b67226c"},"vehicle_type_id":"4","last_reported":1741648162,"current_range_meters":17200,"station_id":"ce4bgv12rcd13ifvqcp0","pricing_plan_id":"cebpf4jnsgd1na2vs0mg"},{"bike_id":"13553bc6-d203-4b1c-81e4-fa132c3b52fe","system_id":"levelo_inurba_marseille","lat":43.27055,"lon":5.40249,"is_reserved":false,"is_disabled":false,"rental_uris":{"android":"levelo://app?vid=13553bc6-d203-4b1c-81e4-fa132c3b52fe","ios":"levelo://app?vid=13553bc6-d203-4b1c-81e4-fa132c3b52fe"},"vehicle_type_id":"4","last_reported":1741648162,"current_range_meters":17200,"station_id":"ce4bhk92rcd13ifvqgc0","pricing_plan_id":"cebpf4jnsgd1na2vs0mg"},{"bike_id":"1049f159-caa2-43d4-9433-c31a7d2e9249","system_id":"levelo_inurba_marseille","lat":43.30727,"lon":5.38301,"is_reserved":false,"is_disabled":false,"rental_uris":{"android":"levelo://app?vid=1049f159-caa2-43d4-9433-c31a7d2e9249","ios":"levelo://app?vid=1049f159-caa2-43d4-9433-c31a7d2e9249"},"vehicle_type_id":"4","last_reported":1741648162,"current_range_meters":17200,"station_id":"","pricing_plan_id":"cebpf4jnsgd1na2vs0mg"},{"bike_id":"edb016f3-861a-46be-8191-a0a562bd3a27","system_id":"levelo_inurba_marseille","lat":43.31163,"lon":5.38717,"is_reserved":false,"is_disabled":false,"rental_uris":{"android":"levelo://app?vid=edb016f3-861a-46be-8191-a0a562bd3a27","ios":"levelo://app?vid=edb016f3-861a-46be-8191-a0a562bd3a27"},"vehicle_type_id":"4","last_reported":1741648162,"current_range_meters":17600,"station_id":"ce4bgv12rcd13ifvqcp0","pricing_plan_id":"cebpf4jnsgd1na2vs0mg"},{"bike_id":"ea4daeae-80bf-406b-a83d-096e60039b05","system_id":"levelo_inurba_marseille","lat":43.31172,"lon":5.38727,"is_reserved":false,"is_disabled":false,"rental_uris":{"android":"levelo://app?vid=ea4daeae-80bf-406b-a83d-096e60039b05","ios":"levelo://app?vid=ea4daeae-80bf-406b-a83d-096e60039b05"},"vehicle_type_id":"4","last_reported":1741648162,"current_range_meters":17600,"station_id":"ce4bgv12rcd13ifvqcp0","pricing_plan_id":"cebpf4jnsgd1na2vs0mg"},{"bike_id":"90e4636f-5acf-4803-a3ed-f0ba6d29d559","system_id":"levelo_inurba_marseille","lat":43.30423,"lon":5.38914,"is_reserved":false,"is_disabled":true,"rental_uris":{"android":"levelo://app?vid=90e4636f-5acf-4803-a3ed-f0ba6d29d559","ios":"levelo://app?vid=90e4636f-5acf-4803-a3ed-f0ba6d29d559"},"vehicle_type_id":"4","last_reported":1741648162,"current_range_meters":17600,"station_id":"ce4bgk12rcd13ifvqbi0","pricing_plan_id":"cebpf4jnsgd1na2vs0mg"},{"bike_id":"76db3eaa-1489-4959-8155-b02e7f8f20ed","system_id":"levelo_inurba_marseille","lat":43.28934,"lon":5.36639,"is_reserved":false,"is_disabled":false,"rental_uris":{"android":"levelo://app?vid=76db3eaa-1489-4959-8155-b02e7f8f20ed","ios":"levelo://app?vid=76db3eaa-1489-4959-8155-b02e7f8f20ed"},"vehicle_type_id":"4","last_reported":1741648162,"current_range_meters":17600,"station_id":"ce4bhap2rcd13ifvqek0","pricing_plan_id":"cebpf4jnsgd1na2vs0mg"},{"bike_id":"bd5a455a-1fba-43ce-a472-c91e073e744c","system_id":"levelo_inurba_marseille","lat":43.29443,"lon":5.38632,"is_reserved":false,"is_disabled":false,"rental_uris":{"android":"levelo://app?vid=bd5a455a-1fba-43ce-a472-c91e073e744c","ios":"levelo://app?vid=bd5a455a-1fba-43ce-a472-c91e073e744c"},"vehicle_type_id":"4","last_reported":1741648162,"current_range_meters":17600,"station_id":"ce4bh2h2rcd13ifvqdh0","pricing_plan_id":"cebpf4jnsgd1na2vs0mg"},{"bike_id":"652c282d-7522-46a8-b99a-0b970b5cdd3a","system_id":"levelo_inurba_marseille","lat":43.29543,"lon":5.39995,"is_reserved":false,"is_disabled":true,"rental_uris":{"android":"levelo://app?vid=652c282d-7522-46a8-b99a-0b970b5cdd3a","ios":"levelo://app?vid=652c282d-7522-46a8-b99a-0b970b5cdd3a"},"vehicle_type_id":"4","last_reported":1741648162,"current_range_meters":17600,"station_id":"ce4bh312rcd13ifvqdj0","pricing_plan_id":"cebpf4jnsgd1na2vs0mg"},{"bike_id":"70f66af9-0aa6-4db1-9431-c8e34190b648","system_id":"levelo_inurba_marseille","lat":43.27065,"lon":5.40269,"is_reserved":false,"is_disabled":false,"rental_uris":{"android":"levelo://app?vid=70f66af9-0aa6-4db1-9431-c8e34190b648","ios":"levelo://app?vid=70f66af9-0aa6-4db1-9431-c8e34190b648"},"vehicle_type_id":"4","last_reported":1741648162,"current_range_meters":17600,"station_id":"ce4bhk92rcd13ifvqgc0","pricing_plan_id":"cebpf4jnsgd1na2vs0mg"},{"bike_id":"2e1b1ea2-bf0c-4000-b2c4-c552d56142c1","system_id":"levelo_inurba_marseille","lat":43.33619,"lon":5.41001,"is_reserved":false,"is_disabled":false,"rental_uris":{"android":"levelo://app?vid=2e1b1ea2-bf0c-4000-b2c4-c552d56142c1","ios":"levelo://app?vid=2e1b1ea2-bf0c-4000-b2c4-c552d56142c1"},"vehicle_type_id":"4","last_reported":1741648162,"current_range_meters":17600,"station_id":"ce4bhqh2rcd13ifvqhmg","pricing_plan_id":"cebpf4jnsgd1na2vs0mg"},{"bike_id":"0e0b9e80-3172-459b-ab59-4016008cad5a","system_id":"levelo_inurba_marseille","lat":43.27369,"lon":5.36259,"is_reserved":false,"is_disabled":false,"rental_uris":{"android":"levelo://app?vid=0e0b9e80-3172-459b-ab59-4016008cad5a","ios":"levelo://app?vid=0e0b9e80-3172-459b-ab59-4016008cad5a"},"vehicle_type_id":"4","last_reported":1741648162,"current_range_meters":17600,"station_id":"ce4bhbh2rcd13ifvqeo0","pricing_plan_id":"cebpf4jnsgd1na2vs0mg"},{"bike_id":"2bbfc1dc-382a-426d-814d-d24a23157160","system_id":"levelo_inurba_marseille","lat":43.28483,"lon":5.35887,"is_reserved":false,"is_disabled":false,"rental_uris":{"android":"levelo://app?vid=2bbfc1dc-382a-426d-814d-d24a23157160","ios":"levelo://app?vid=2bbfc1dc-382a-426d-814d-d24a23157160"},"vehicle_type_id":"4","last_reported":1741648162,"current_range_meters":18000,"station_id":"ce4bhah2rcd13ifvqei0","pricing_plan_id":"cebpf4jnsgd1na2vs0mg"},{"bike_id":"0c65e6ca-7494-49e4-9cfc-2bac04035b1d","system_id":"levelo_inurba_marseille","lat":43.28718,"lon":5.39991,"is_reserved":false,"is_disabled":true,"rental_uris":{"android":"levelo://app?vid=0c65e6ca-7494-49e4-9cfc-2bac04035b1d","ios":"levelo://app?vid=0c65e6ca-7494-49e4-9cfc-2bac04035b1d"},"vehicle_type_id":"4","last_reported":1741648162,"current_range_meters":18000,"station_id":"ce4bho92rcd13ifvqh3g","pricing_plan_id":"cebpf4jnsgd1na2vs0mg"},{"bike_id":"beb92608-2fdf-422f-8c16-1fbfe4e7a912","system_id":"levelo_inurba_marseille","lat":43.28703,"lon":5.3739,"is_reserved":false,"is_disabled":false,"rental_uris":{"android":"levelo://app?vid=beb92608-2fdf-422f-8c16-1fbfe4e7a912","ios":"levelo://app?vid=beb92608-2fdf-422f-8c16-1fbfe4e7a912"},"vehicle_type_id":"4","last_reported":1741648162,"current_range_meters":18000,"station_id":"ce4bh3p2rcd13ifvqdq0","pricing_plan_id":"cebpf4jnsgd1na2vs0mg"},{"bike_id":"17b872eb-086c-460e-bcad-782a4a781cf9","system_id":"levelo_inurba_marseille","lat":43.25144,"lon":5.42625,"is_reserved":false,"is_disabled":false,"rental_uris":{"android":"levelo://app?vid=17b872eb-086c-460e-bcad-782a4a781cf9","ios":"levelo://app?vid=17b872eb-086c-460e-bcad-782a4a781cf9"},"vehicle_type_id":"4","last_reported":1741648162,"current_range_meters":18000,"station_id":"","pricing_plan_id":"cebpf4jnsgd1na2vs0mg"},{"bike_id":"e3d0bfc7-1941-45b3-943f-4b58aae8a52c","system_id":"levelo_inurba_marseille","lat":43.28433,"lon":5.35907,"is_reserved":false,"is_disabled":false,"rental_uris":{"android":"levelo://app?vid=e3d0bfc7-1941-45b3-943f-4b58aae8a52c","ios":"levelo://app?vid=e3d0bfc7-1941-45b3-943f-4b58aae8a52c"},"vehicle_type_id":"4","last_reported":1741648162,"current_range_meters":18000,"station_id":"ce4bhah2rcd13ifvqei0","pricing_plan_id":"cebpf4jnsgd1na2vs0mg"},{"bike_id":"98abb632-e704-4d76-b282-59be888ae42b","system_id":"levelo_inurba_marseille","lat":43.24176,"lon":5.39735,"is_reserved":false,"is_disabled":false,"rental_uris":{"android":"levelo://app?vid=98abb632-e704-4d76-b282-59be888ae42b","ios":"levelo://app?vid=98abb632-e704-4d76-b282-59be888ae42b"},"vehicle_type_id":"4","last_reported":1741648162,"current_range_meters":18000,"station_id":"ce4bhn12rcd13ifvqgpg","pricing_plan_id":"cebpf4jnsgd1na2vs0mg"},{"bike_id":"85d0fee5-9e1e-4258-a604-1b615a22b292","system_id":"levelo_inurba_marseille","lat":43.313236,"lon":5.386154,"is_reserved":false,"is_disabled":false,"rental_uris":{"android":"levelo://app?vid=85d0fee5-9e1e-4258-a604-1b615a22b292","ios":"levelo://app?vid=85d0fee5-9e1e-4258-a604-1b615a22b292"},"vehicle_type_id":"4","last_reported":1741648162,"current_range_meters":18000,"station_id":"","pricing_plan_id":"cebpf4jnsgd1na2vs0mg"},{"bike_id":"dd67d184-631d-4d7b-bf8e-0ad7d3cb2c67","system_id":"levelo_inurba_marseille","lat":43.29509,"lon":5.39401,"is_reserved":false,"is_disabled":false,"rental_uris":{"android":"levelo://app?vid=dd67d184-631d-4d7b-bf8e-0ad7d3cb2c67","ios":"levelo://app?vid=dd67d184-631d-4d7b-bf8e-0ad7d3cb2c67"},"vehicle_type_id":"4","last_reported":1741648162,"current_range_meters":18000,"station_id":"ce4bh292rcd13ifvqdf0","pricing_plan_id":"cebpf4jnsgd1na2vs0mg"},{"bike_id":"eea54fb2-cfab-4b4c-b5a0-36e05addb8a6","system_id":"levelo_inurba_marseille","lat":43.28103,"lon":5.37835,"is_reserved":false,"is_disabled":false,"rental_uris":{"android":"levelo://app?vid=eea54fb2-cfab-4b4c-b5a0-36e05addb8a6","ios":"levelo://app?vid=eea54fb2-cfab-4b4c-b5a0-36e05addb8a6"},"vehicle_type_id":"4","last_reported":1741648162,"current_range_meters":18000,"station_id":"ce4bha12rcd13ifvqee0","pricing_plan_id":"cebpf4jnsgd1na2vs0mg"},{"bike_id":"803ea8dd-d180-4e7f-8cac-6164ca1b88ff","system_id":"levelo_inurba_marseille","lat":43.27805,"lon":5.40733,"is_reserved":false,"is_disabled":false,"rental_uris":{"android":"levelo://app?vid=803ea8dd-d180-4e7f-8cac-6164ca1b88ff","ios":"levelo://app?vid=803ea8dd-d180-4e7f-8cac-6164ca1b88ff"},"vehicle_type_id":"4","last_reported":1741648162,"current_range_meters":18000,"station_id":"ce4bhnh2rcd13ifvqgtg","pricing_plan_id":"cebpf4jnsgd1na2vs0mg"},{"bike_id":"2986eb70-91a8-48d7-bf9f-67fdb369c622","system_id":"levelo_inurba_marseille","lat":43.23206,"lon":5.39973,"is_reserved":false,"is_disabled":false,"rental_uris":{"android":"levelo://app?vid=2986eb70-91a8-48d7-bf9f-67fdb369c622","ios":"levelo://app?vid=2986eb70-91a8-48d7-bf9f-67fdb369c622"},"vehicle_type_id":"4","last_reported":1741648162,"current_range_meters":18000,"station_id":"ce4bhn12rcd13ifvqgqg","pricing_plan_id":"cebpf4jnsgd1na2vs0mg"},{"bike_id":"03fcef79-f017-4d15-a10d-891c5cd96db2","system_id":"levelo_inurba_marseille","lat":43.2306,"lon":5.35496,"is_reserved":false,"is_disabled":false,"rental_uris":{"android":"levelo://app?vid=03fcef79-f017-4d15-a10d-891c5cd96db2","ios":"levelo://app?vid=03fcef79-f017-4d15-a10d-891c5cd96db2"},"vehicle_type_id":"4","last_reported":1741648162,"current_range_meters":18000,"station_id":"cpo3342slgdg3j2ifvpg","pricing_plan_id":"cebpf4jnsgd1na2vs0mg"},{"bike_id":"f829a819-671e-4b71-9c22-56c5f8047725","system_id":"levelo_inurba_marseille","lat":43.32357,"lon":5.36768,"is_reserved":false,"is_disabled":false,"rental_uris":{"android":"levelo://app?vid=f829a819-671e-4b71-9c22-56c5f8047725","ios":"levelo://app?vid=f829a819-671e-4b71-9c22-56c5f8047725"},"vehicle_type_id":"4","last_reported":1741648162,"current_range_meters":18000,"station_id":"ce4bhsh2rcd13ifvqi2g","pricing_plan_id":"cebpf4jnsgd1na2vs0mg"},{"bike_id":"676acd1e-ebbe-45ff-9a24-ff33e58569bc","system_id":"levelo_inurba_marseille","lat":43.26228,"lon":5.40463,"is_reserved":false,"is_disabled":false,"rental_uris":{"android":"levelo://app?vid=676acd1e-ebbe-45ff-9a24-ff33e58569bc","ios":"levelo://app?vid=676acd1e-ebbe-45ff-9a24-ff33e58569bc"},"vehicle_type_id":"4","last_reported":1741648162,"current_range_meters":18000,"station_id":"ce4bhmh2rcd13ifvqgmg","pricing_plan_id":"cebpf4jnsgd1na2vs0mg"},{"bike_id":"3f2f3869-5aae-46ed-96f7-751c543902d0","system_id":"levelo_inurba_marseille","lat":43.28407,"lon":5.3752,"is_reserved":false,"is_disabled":false,"rental_uris":{"android":"levelo://app?vid=3f2f3869-5aae-46ed-96f7-751c543902d0","ios":"levelo://app?vid=3f2f3869-5aae-46ed-96f7-751c543902d0"},"vehicle_type_id":"4","last_reported":1741648162,"current_range_meters":18000,"station_id":"ce4bh412rcd13ifvqds0","pricing_plan_id":"cebpf4jnsgd1na2vs0mg"},{"bike_id":"d8f8b9d4-699d-4feb-9a45-c202cb90c6f0","system_id":"levelo_inurba_marseille","lat":43.25099,"lon":5.39525,"is_reserved":false,"is_disabled":false,"rental_uris":{"android":"levelo://app?vid=d8f8b9d4-699d-4feb-9a45-c202cb90c6f0","ios":"levelo://app?vid=d8f8b9d4-699d-4feb-9a45-c202cb90c6f0"},"vehicle_type_id":"4","last_reported":1741648162,"current_range_meters":18000,"station_id":"ce4bhm12rcd13ifvqgkg","pricing_plan_id":"cebpf4jnsgd1na2vs0mg"},{"bike_id":"daa8a0a5-0952-4770-9b26-b6a5e12057e1","system_id":"levelo_inurba_marseille","lat":43.33688,"lon":5.39255,"is_reserved":false,"is_disabled":false,"rental_uris":{"android":"levelo://app?vid=daa8a0a5-0952-4770-9b26-b6a5e12057e1","ios":"levelo://app?vid=daa8a0a5-0952-4770-9b26-b6a5e12057e1"},"vehicle_type_id":"4","last_reported":1741648162,"current_range_meters":18800,"station_id":"","pricing_plan_id":"cebpf4jnsgd1na2vs0mg"},{"bike_id":"bb6388ec-21b2-40d4-86e4-837e36c85c50","system_id":"levelo_inurba_marseille","lat":43.24155,"lon":5.36397,"is_reserved":false,"is_disabled":false,"rental_uris":{"android":"levelo://app?vid=bb6388ec-21b2-40d4-86e4-837e36c85c50","ios":"levelo://app?vid=bb6388ec-21b2-40d4-86e4-837e36c85c50"},"vehicle_type_id":"4","last_reported":1741648162,"current_range_meters":18800,"station_id":"cpo36qri1sfpv3e86is0","pricing_plan_id":"cebpf4jnsgd1na2vs0mg"},{"bike_id":"8c5c8503-3f64-4c77-8ed6-a85d8dded185","system_id":"levelo_inurba_marseille","lat":43.27937,"lon":5.41051,"is_reserved":false,"is_disabled":false,"rental_uris":{"android":"levelo://app?vid=8c5c8503-3f64-4c77-8ed6-a85d8dded185","ios":"levelo://app?vid=8c5c8503-3f64-4c77-8ed6-a85d8dded185"},"vehicle_type_id":"4","last_reported":1741648162,"current_range_meters":18800,"station_id":"ce4bhnp2rcd13ifvqh0g","pricing_plan_id":"cebpf4jnsgd1na2vs0mg"},{"bike_id":"e246a648-b32b-470c-8c3a-0e61d94ed94c","system_id":"levelo_inurba_marseille","lat":43.28846,"lon":5.39357,"is_reserved":false,"is_disabled":true,"rental_uris":{"android":"levelo://app?vid=e246a648-b32b-470c-8c3a-0e61d94ed94c","ios":"levelo://app?vid=e246a648-b32b-470c-8c3a-0e61d94ed94c"},"vehicle_type_id":"4","last_reported":1741648162,"current_range_meters":18800,"station_id":"ce4bh2p2rcd13ifvqdi0","pricing_plan_id":"cebpf4jnsgd1na2vs0mg"},{"bike_id":"a7b6ac05-6af3-44a0-8d14-80658f4a55b8","system_id":"levelo_inurba_marseille","lat":43.27065,"lon":5.4026,"is_reserved":false,"is_disabled":false,"rental_uris":{"android":"levelo://app?vid=a7b6ac05-6af3-44a0-8d14-80658f4a55b8","ios":"levelo://app?vid=a7b6ac05-6af3-44a0-8d14-80658f4a55b8"},"vehicle_type_id":"4","last_reported":1741648162,"current_range_meters":18800,"station_id":"ce4bhk92rcd13ifvqgc0","pricing_plan_id":"cebpf4jnsgd1na2vs0mg"},{"bike_id":"cd6d3c44-d596-4592-881a-aede2db35f8a","system_id":"levelo_inurba_marseille","lat":43.25824,"lon":5.39438,"is_reserved":false,"is_disabled":false,"rental_uris":{"android":"levelo://app?vid=cd6d3c44-d596-4592-881a-aede2db35f8a","ios":"levelo://app?vid=cd6d3c44-d596-4592-881a-aede2db35f8a"},"vehicle_type_id":"4","last_reported":1741648162,"current_range_meters":18800,"station_id":"ce4bhip2rcd13ifvqft0","pricing_plan_id":"cebpf4jnsgd1na2vs0mg"},