{"last_updated":1713287182,"ttl":30,"version":"2.2","data":{"bikes":[{"bike_id":"dadbef9a-726a-4678-8ef2-cc0ef71fd29a","system_id":"levelo_inurba_marseille","lat":43.284538,"lon":5.358657,"is_reserved":false,"is_disabled":false,"rental_uris":{"android":"levelo://app?vid=dadbef9a-726a-4678-8ef2-cc0ef71fd29a","ios":"levelo://app?vid=dadbef9a-726a-4678-8ef2-cc0ef71fd29a"},"vehicle_type_id":"4","last_reported":1713287182,"current_range_meters":16000,"station_id":"ce4bhah2rcd13ifvqei0","pricing_plan_id":"cebpf4jnsgd1na2vs0mg"},{"bike_id":"21961156-fa24-407e-ada5-99385e3895fd","system_id":"levelo_inurba_marseille","lat":43.312239,"lon":5.368562,"is_reserved":false,"is_disabled":false,"rental_uris":{"android":"levelo://app?vid=21961156-fa24-407e-ada5-99385e3895fd","ios":"levelo://app?vid=21961156-fa24-407e-ada5-99385e3895fd"},"vehicle_type_id":"4","last_reported":1713287182,"current_range_meters":12000,"station_id":"ce4bgl92rcd13ifvqbq0","pricing_plan_id":"cebpf4jnsgd1na2vs0mg"},{"bike_id":"a8a2bd52-6567-4e2b-aad0-b19838a7fa40","system_id":"levelo_inurba_marseille","lat":43.312239,"lon":5.368562,"is_reserved":false,"is_disabled":false,"rental_uris":{"android":"levelo://app?vid=a8a2bd52-6567-4e2b-aad0-b19838a7fa40","ios":"levelo://app?vid=a8a2bd52-6567-4e2b-aad0-b19838a7fa40"},"vehicle_type_id":"4","last_reported":1713287182,"current_range_meters":18400,"station_id":"ce4bgl92rcd13ifvqbq0","pricing_plan_id":"cebpf4jnsgd1na2vs0mg"},{"bike_id":"5c73ef07-6e73-4968-a50f-1dee6fac6477","system_id":"levelo_inurba_marseille","lat":43.312239,"lon":5.368562,"is_reserved":false,"is_disabled":false,"rental_uris":{"android":"levelo://app?vid=5c73ef07-6e73-4968-a50f-1dee6fac6477","ios":"levelo://app?vid=5c73ef07-6e73-4968-a50f-1dee6fac6477"},"vehicle_type_id":"4","last_reported":1713287182,"current_range_meters":2400,"station_id":"ce4bgl92rcd13ifvqbq0","pricing_plan_id":"cebpf4jnsgd1na2vs0mg"},{"bike_id":"63b0cb2c-33cc-465d-a4d8-d73c58dda0d7","system_id":"levelo_inurba_marseille","lat":43.312239,"lon":5.368562,"is_reserved":false,"is_disabled":false,"rental_uris":{"android":"levelo://app?vid=63b0cb2c-33cc-465d-a4d8-d73c58dda0d7","ios":"levelo://app?vid=63b0cb2c-33cc-465d-a4d8-d73c58dda0d7"},"vehicle_type_id":"4","last_reported":1713287182,"current_range_meters":10400,"station_id":"ce4bgl92rcd13ifvqbq0","pricing_plan_id":"cebpf4jnsgd1na2vs0mg"},{"bike_id":"12565369-2050-4e45-b282-6c86220e9524","system_id":"levelo_inurba_marseille","lat":43.309076,"lon":5.368465,"is_reserved":false,"is_disabled":false,"rental_uris":{"android":"levelo://app?vid=12565369-2050-4e45-b282-6c86220e9524","ios":"levelo://app?vid=12565369-2050-4e45-b282-6c86220e9524"},"vehicle_type_id":"4","last_reported":1713287182,"current_range_meters":0,"station_id":"ce4bgn92rcd13ifvqbvg","pricing_plan_id":"cebpf4jnsgd1na2vs0mg"},{"bike_id":"283abdb0-d523-400f-9506-a6f069602e1f","system_id":"levelo_inurba_marseille","lat":43.309076,"lon":5.368465,"is_reserved":false,"is_disabled":false,"rental_uris":{"android":"levelo://app?vid=283abdb0-d523-400f-9506-a6f069602e1f","ios":"levelo://app?vid=283abdb0-d523-400f-9506-a6f069602e1f"},"vehicle_type_id":"4","last_reported":1713287182,"current_range_meters":0,"station_id":"ce4bgn92rcd13ifvqbvg","pricing_plan_id":"cebpf4jnsgd1na2vs0mg"},{"bike_id":"b9c42260-940a-4cf9-9791-5053fa3f0d0b","system_id":"levelo_inurba_marseille","lat":43.309076,"lon":5.368465,"is_reserved":false,"is_disabled":false,"rental_uris":{"android":"levelo://app?vid=b9c42260-940a-4cf9-9791-5053fa3f0d0b","ios":"levelo://app?vid=b9c42260-940a-4cf9-9791-5053fa3f0d0b"},"vehicle_type_id":"4","last_reported":1713287182,"current_range_meters":3200,"station_id":"ce4bgn92rcd13ifvqbvg","pricing_plan_id":"cebpf4jnsgd1na2vs0mg"},{"bike_id":"0f4be508-754a-4cd9-a1e0-2e0738687f74","system_id":"levelo_inurba_marseille","lat":43.309076,"lon":5.368465,"is_reserved":false,"is_disabled":false,"rental_uris":{"android":"levelo://app?vid=0f4be508-754a-4cd9-a1e0-2e0738687f74","ios":"levelo://app?vid=0f4be508-754a-4cd9-a1e0-2e0738687f74"},"vehicle_type_id":"4","last_reported":1713287182,"current_range_meters":14400,"station_id":"ce4bgn92rcd13ifvqbvg","pricing_plan_id":"cebpf4jnsgd1na2vs0mg"},{"bike_id":"f34dae05-64a8-488e-894a-44e1ff61d687","system_id":"levelo_inurba_marseille","lat":43.314811,"lon":5.373104,"is_reserved":false,"is_disabled":false,"rental_uris":{"android":"levelo://app?vid=f34dae05-64a8-488e-894a-44e1ff61d687","ios":"levelo://app?vid=f34dae05-64a8-488e-894a-44e1ff61d687"},"vehicle_type_id":"4","last_reported":1713287182,"current_range_meters":6400,"station_id":"ce4bgt12rcd13ifvqcd0","pricing_plan_id":"cebpf4jnsgd1na2vs0mg"},{"bike_id":"0df8567d-893a-499b-abad-ee51b5b22362","system_id":"levelo_inurba_marseille","lat":43.309039,"lon":5.371797,"is_reserved":false,"is_disabled":false,"rental_uris":{"android":"levelo://app?vid=0df8567d-893a-499b-abad-ee51b5b22362","ios":"levelo://app?vid=0df8567d-893a-499b-abad-ee51b5b22362"},"vehicle_type_id":"4","last_reported":1713287182,"current_range_meters":6000,"station_id":"ce4bguh2rcd13ifvqckg","pricing_plan_id":"cebpf4jnsgd1na2vs0mg"},{"bike_id":"4708d160-b3e2-4372-92f3-f66a7562a3c5","system_id":"levelo_inurba_marseille","lat":43.309034,"lon":5.371783,"is_reserved":false,"is_disabled":false,"rental_uris":{"android":"levelo://app?vid=4708d160-b3e2-4372-92f3-f66a7562a3c5","ios":"levelo://app?vid=4708d160-b3e2-4372-92f3-f66a7562a3c5"},"vehicle_type_id":"4","last_reported":1713287182,"current_range_meters":800,"station_id":"ce4bguh2rcd13ifvqckg","pricing_plan_id":"cebpf4jnsgd1na2vs0mg"},{"bike_id":"52f22b5a-486d-4c62-a4ac-137bfb2f235e","system_id":"levelo_inurba_marseille","lat":43.30554,"lon":5.36534,"is_reserved":false,"is_disabled":false,"rental_uris":{"android":"levelo://app?vid=52f22b5a-486d-4c62-a4ac-137bfb2f235e","ios":"levelo://app?vid=52f22b5a-486d-4c62-a4ac-137bfb2f235e"},"vehicle_type_id":"4","last_reported":1713287182,"current_range_meters":20800,"station_id":"","pricing_plan_id":"cebpf4jnsgd1na2vs0mg"},{"bike_id":"82dd3ccf-33a4-43ff-8b08-b72b789b2a6d","system_id":"levelo_inurba_marseille","lat":43.30548,"lon":5.36534,"is_reserved":false,"is_disabled":false,"rental_uris":{"android":"levelo://app?vid=82dd3ccf-33a4-43ff-8b08-b72b789b2a6d","ios":"levelo://app?vid=82dd3ccf-33a4-43ff-8b08-b72b789b2a6d"},"vehicle_type_id":"4","last_reported":1713287182,"current_range_meters":22400,"station_id":"ce4bgs12rcd13ifvqcag","pricing_plan_id":"cebpf4jnsgd1na2vs0mg"},{"bike_id":"00db71de-29ec-495d-91e8-c23e06099cb9","system_id":"levelo_inurba_marseille","lat":43.305368,"lon":5.367343,"is_reserved":false,"is_disabled":false,"rental_uris":{"android":"levelo://app?vid=00db71de-29ec-495d-91e8-c23e06099cb9","ios":"levelo://app?vid=00db71de-29ec-495d-91e8-c23e06099cb9"},"vehicle_type_id":"4","last_reported":1713287182,"current_range_meters":9200,"station_id":"ce4bgrp2rcd13ifvqc9g","pricing_plan_id":"cebpf4jnsgd1na2vs0mg"},{"bike_id":"4d4ad919-5234-4361-8450-a66b685724ce","system_id":"levelo_inurba_marseille","lat":43.305712,"lon":5.365641,"is_reserved":false,"is_disabled":false,"rental_uris":{"android":"levelo://app?vid=4d4ad919-5234-4361-8450-a66b685724ce","ios":"levelo://app?vid=4d4ad919-5234-4361-8450-a66b685724ce"},"vehicle_type_id":"4","last_reported":1713287182,"current_range_meters":22800,"station_id":"ce4bgs12rcd13ifvqcag","pricing_plan_id":"cebpf4jnsgd1na2vs0mg"},{"bike_id":"583e2df6-c431-46c9-8506-d6492f1ab034","system_id":"levelo_inurba_marseille","lat":43.30615,"lon":5.3723,"is_reserved":false,"is_disabled":false,"rental_uris":{"android":"levelo://app?vid=583e2df6-c431-46c9-8506-d6492f1ab034","ios":"levelo://app?vid=583e2df6-c431-46c9-8506-d6492f1ab034"},"vehicle_type_id":"4","last_reported":1713287182,"current_range_meters":0,"station_id":"ce4bgqh2rcd13ifvqc4g","pricing_plan_id":"cebpf4jnsgd1na2vs0mg"},{"bike_id":"ec577d80-8a70-4be2-a809-1db4262f9ff6","system_id":"levelo_inurba_marseille","lat":43.30608,"lon":5.37225,"is_reserved":false,"is_disabled":false,"rental_uris":{"android":"levelo://app?vid=ec577d80-8a70-4be2-a809-1db4262f9ff6","ios":"levelo://app?vid=ec577d80-8a70-4be2-a809-1db4262f9ff6"},"vehicle_type_id":"4","last_reported":1713287182,"current_range_meters":8400,"station_id":"ce4bgqh2rcd13ifvqc4g","pricing_plan_id":"cebpf4jnsgd1na2vs0mg"},{"bike_id":"ed472146-12c2-4ad9-8af4-a5678b9a4adf","system_id":"levelo_inurba_marseille","lat":43.30602,"lon":5.37219,"is_reserved":false,"is_disabled":false,"rental_uris":{"android":"levelo://app?vid=ed472146-12c2-4ad9-8af4-a5678b9a4adf","ios":"levelo://app?vid=ed472146-12c2-4ad9-8af4-a5678b9a4adf"},"vehicle_type_id":"4","last_reported":1713287182,"current_range_meters":0,"station_id":"ce4bgqh2rcd13ifvqc4g","pricing_plan_id":"cebpf4jnsgd1na2vs0mg"},{"bike_id":"d0af0f67-e340-4b3b-a41c-b7d5e8449d73","system_id":"levelo_inurba_marseille","lat":43.30599,"lon":5.37212,"is_reserved":false,"is_disabled":false,"rental_uris":{"android":"levelo://app?vid=d0af0f67-e340-4b3b-a41c-b7d5e8449d73","ios":"levelo://app?vid=d0af0f67-e340-4b3b-a41c-b7d5e8449d73"},"vehicle_type_id":"4","last_reported":1713287182,"current_range_meters":30000,"station_id":"ce4bgqh2rcd13ifvqc4g","pricing_plan_id":"cebpf4jnsgd1na2vs0mg"},{"bike_id":"49f1d93a-1ad9-4fa6-9d61-1e99757317f9","system_id":"levelo_inurba_marseille","lat":43.305989,"lon":5.37225,"is_reserved":false,"is_disabled":false,"rental_uris":{"android":"levelo://app?vid=49f1d93a-1ad9-4fa6-9d61-1e99757317f9","ios":"levelo://app?vid=49f1d93a-1ad9-4fa6-9d61-1e99757317f9"},"vehicle_type_id":"4","last_reported":1713287182,"current_range_meters":31600,"station_id":"ce4bgqh2rcd13ifvqc4g","pricing_plan_id":"cebpf4jnsgd1na2vs0mg"},{"bike_id":"d68cbf0f-9f54-4db8-9523-d71e874d4da5","system_id":"levelo_inurba_marseille","lat":43.311125,"lon":5.377624,"is_reserved":false,"is_disabled":false,"rental_uris":{"android":"levelo://app?vid=d68cbf0f-9f54-4db8-9523-d71e874d4da5","ios":"levelo://app?vid=d68cbf0f-9f54-4db8-9523-d71e874d4da5"},"vehicle_type_id":"4","last_reported":1713287182,"current_range_meters":21600,"station_id":"ce4bgt92rcd13ifvqcg0","pricing_plan_id":"cebpf4jnsgd1na2vs0mg"},{"bike_id":"87b2c554-52df-4a18-afe8-28cdfb1feffe","system_id":"levelo_inurba_marseille","lat":43.307945,"lon":5.376487,"is_reserved":false,"is_disabled":false,"rental_uris":{"android":"levelo://app?vid=87b2c554-52df-4a18-afe8-28cdfb1feffe","ios":"levelo://app?vid=87b2c554-52df-4a18-afe8-28cdfb1feffe"},"vehicle_type_id":"4","last_reported":1713287182,"current_range_meters":28400,"station_id":"ce4bgv92rcd13ifvqcq0","pricing_plan_id":"cebpf4jnsgd1na2vs0mg"},{"bike_id":"4298bce5-e1aa-481d-8bfd-5a2f04529568","system_id":"levelo_inurba_marseille","lat":43.307945,"lon":5.376487,"is_reserved":false,"is_disabled":false,"rental_uris":{"android":"levelo://app?vid=4298bce5-e1aa-481d-8bfd-5a2f04529568","ios":"levelo://app?vid=4298bce5-e1aa-481d-8bfd-5a2f04529568"},"vehicle_type_id":"4","last_reported":1713287182,"current_range_meters":0,"station_id":"ce4bgv92rcd13ifvqcq0","pricing_plan_id":"cebpf4jnsgd1na2vs0mg"},{"bike_id":"880732e7-2647-4c95-ad7b-a5ffffc85d10","system_id":"levelo_inurba_marseille","lat":43.307945,"lon":5.376487,"is_reserved":false,"is_disabled":false,"rental_uris":{"android":"levelo://app?vid=880732e7-2647-4c95-ad7b-a5ffffc85d10","ios":"levelo://app?vid=880732e7-2647-4c95-ad7b-a5ffffc85d10"},"vehicle_type_id":"4","last_reported":1713287182,"current_range_meters":20000,"station_id":"ce4bgv92rcd13ifvqcq0","pricing_plan_id":"cebpf4jnsgd1na2vs0mg"},{"bike_id":"2a7fc4dd-a8f4-459a-a580-39eefd62d763","system_id":"levelo_inurba_marseille","lat":43.307945,"lon":5.376487,"is_reserved":false,"is_disabled":false,"rental_uris":{"android":"levelo://app?vid=2a7fc4dd-a8f4-459a-a580-39eefd62d763","ios":"levelo://app?vid=2a7fc4dd-a8f4-459a-a580-39eefd62d763"},"vehicle_type_id":"4","last_reported":1713287182,"current_range_meters":13200,"station_id":"ce4bgv92rcd13ifvqcq0","pricing_plan_id":"cebpf4jnsgd1na2vs0mg"},{"bike_id":"d7d5f7d2-f0bc-418a-b2cd-7a1b3fee67b7","system_id":"levelo_inurba_marseille","lat":43.317075,"lon":5.377367,"is_reserved":false,"is_disabled":false,"rental_uris":{"android":"levelo://app?vid=d7d5f7d2-f0bc-418a-b2cd-7a1b3fee67b7","ios":"levelo://app?vid=d7d5f7d2-f0bc-418a-b2cd-7a1b3fee67b7"},"vehicle_type_id":"4","last_reported":1713287182,"current_range_meters":10400,"station_id":"ce4bgth2rcd13ifvqch0","pricing_plan_id":"cebpf4jnsgd1na2vs0mg"},{"bike_id":"7199f995-5c51-4a99-9b9f-1fdcd80a34a3","system_id":"levelo_inurba_marseille","lat":43.316863,"lon":5.377551,"is_reserved":false,"is_disabled":false,"rental_uris":{"android":"levelo://app?vid=7199f995-5c51-4a99-9b9f-1fdcd80a34a3","ios":"levelo://app?vid=7199f995-5c51-4a99-9b9f-1fdcd80a34a3"},"vehicle_type_id":"4","last_reported":1713287182,"current_range_meters":19200,"station_id":"ce4bgth2rcd13ifvqch0","pricing_plan_id":"cebpf4jnsgd1na2vs0mg"},{"bike_id":"4f28a222-2cd2-4fc0-830f-fc3d6a47ae13","system_id":"levelo_inurba_marseille","lat":43.30304,"lon":5.368987,"is_reserved":false,"is_disabled":false,"rental_uris":{"android":"levelo://app?vid=4f28a222-2cd2-4fc0-830f-fc3d6a47ae13","ios":"levelo://app?vid=4f28a222-2cd2-4fc0-830f-fc3d6a47ae13"},"vehicle_type_id":"4","last_reported":1713287182,"current_range_meters":24400,"station_id":"ce4bgqh2rcd13ifvqc5g","pricing_plan_id":"cebpf4jnsgd1na2vs0mg"},{"bike_id":"95a469e4-7f41-406d-a74a-919b381a4cf2","system_id":"levelo_inurba_marseille","lat":43.303046,"lon":5.368981,"is_reserved":false,"is_disabled":false,"rental_uris":{"android":"levelo://app?vid=95a469e4-7f41-406d-a74a-919b381a4cf2","ios":"levelo://app?vid=95a469e4-7f41-406d-a74a-919b381a4cf2"},"vehicle_type_id":"4","last_reported":1713287182,"current_range_meters":7600,"station_id":"ce4bgqh2rcd13ifvqc5g","pricing_plan_id":"cebpf4jnsgd1na2vs0mg"},{"bike_id":"65eba42a-e3c3-4f54-9b77-80ba3a85b24f","system_id":"levelo_inurba_marseille","lat":43.310804,"lon":5.38359,"is_reserved":false,"is_disabled":false,"rental_uris":{"android":"levelo://app?vid=65eba42a-e3c3-4f54-9b77-80ba3a85b24f","ios":"levelo://app?vid=65eba42a-e3c3-4f54-9b77-80ba3a85b24f"},"vehicle_type_id":"4","last_reported":1713287182,"current_range_meters":400,"station_id":"ce4bgv92rcd13ifvqcr0","pricing_plan_id":"cebpf4jnsgd1na2vs0mg"},{"bike_id":"63139c9a-f344-4023-81d1-035878a52205","system_id":"levelo_inurba_marseille","lat":43.303046,"lon":5.368981,"is_reserved":false,"is_disabled":false,"rental_uris":{"android":"levelo://app?vid=63139c9a-f344-4023-81d1-035878a52205","ios":"levelo://app?vid=63139c9a-f344-4023-81d1-035878a52205"},"vehicle_type_id":"4","last_reported":1713287182,"current_range_meters":11600,"station_id":"ce4bgqh2rcd13ifvqc5g","pricing_plan_id":"cebpf4jnsgd1na2vs0mg"},{"bike_id":"0a6ebaa6-d2b0-4b30-a945-6fb9d8d9659e","system_id":"levelo_inurba_marseille","lat":43.315289,"lon":5.380349,"is_reserved":false,"is_disabled":false,"rental_uris":{"android":"levelo://app?vid=0a6ebaa6-d2b0-4b30-a945-6fb9d8d9659e","ios":"levelo://app?vid=0a6ebaa6-d2b0-4b30-a945-6fb9d8d9659e"},"vehicle_type_id":"4","last_reported":1713287182,"current_range_meters":30400,"station_id":"ce4bhsp2rcd13ifvqi50","pricing_plan_id":"cebpf4jnsgd1na2vs0mg"},{"bike_id":"8c29d244-184d-4405-806a-4ca3f6481632","system_id":"levelo_inurba_marseille","lat":43.315289,"lon":5.380349,"is_reserved":false,"is_disabled":false,"rental_uris":{"android":"levelo://app?vid=8c29d244-184d-4405-806a-4ca3f6481632","ios":"levelo://app?vid=8c29d244-184d-4405-806a-4ca3f6481632"},"vehicle_type_id":"4","last_reported":1713287182,"current_range_meters":28000,"station_id":"ce4bhsp2rcd13ifvqi50","pricing_plan_id":"cebpf4jnsgd1na2vs0mg"},{"bike_id":"eda8cc1f-f129-49e8-952f-08ab1fe05856","system_id":"levelo_inurba_marseille","lat":43.315379,"lon":5.380339,"is_reserved":false,"is_disabled":false,"rental_uris":{"android":"levelo://app?vid=eda8cc1f-f129-49e8-952f-08ab1fe05856","ios":"levelo://app?vid=eda8cc1f-f129-49e8-952f-08ab1fe05856"},"vehicle_type_id":"4","last_reported":1713287182,"current_range_meters":5200,"station_id":"ce4bhsp2rcd13ifvqi50","pricing_plan_id":"cebpf4jnsgd1na2vs0mg"},{"bike_id":"b2caeb68-517a-40ce-8a99-8addd7cd776f","system_id":"levelo_inurba_marseille","lat":43.315293,"lon":5.380349,"is_reserved":false,"is_disabled":false,"rental_uris":{"android":"levelo://app?vid=b2caeb68-517a-40ce-8a99-8addd7cd776f","ios":"levelo://app?vid=b2caeb68-517a-40ce-8a99-8addd7cd776f"},"vehicle_type_id":"4","last_reported":1713287182,"current_range_meters":2000,"station_id":"ce4bhsp2rcd13ifvqi50","pricing_plan_id":"cebpf4jnsgd1na2vs0mg"},{"bike_id":"5bec8288-4d4c-4c73-bb73-2ecdddde8979","system_id":"levelo_inurba_marseille","lat":43.315289,"lon":5.380349,"is_reserved":false,"is_disabled":false,"rental_uris":{"android":"levelo://app?vid=5bec8288-4d4c-4c73-bb73-2ecdddde8979","ios":"levelo://app?vid=5bec8288-4d4c-4c73-bb73-2ecdddde8979"},"vehicle_type_id":"4","last_reported":1713287182,"current_range_meters":14800,"station_id":"ce4bhsp2rcd13ifvqi50","pricing_plan_id":"cebpf4jnsgd1na2vs0mg"},{"bike_id":"6359e93a-949e-4f0c-812b-04b5644b83be","system_id":"levelo_inurba_marseille","lat":43.301939,"lon":5.366286,"is_reserved":false,"is_disabled":false,"rental_uris":{"android":"levelo://app?vid=6359e93a-949e-4f0c-812b-04b5644b83be","ios":"levelo://app?vid=6359e93a-949e-4f0c-812b-04b5644b83be"},"vehicle_type_id":"4","last_reported":1713287182,"current_range_meters":21200,"station_id":"ce4bgrh2rcd13ifvqc8g","pricing_plan_id":"cebpf4jnsgd1na2vs0mg"},{"bike_id":"ded14db5-8265-49e0-b666-b825c7214600","system_id":"levelo_inurba_marseille","lat":43.295279,"lon":5.375048,"is_reserved":false,"is_disabled":false,"rental_uris":{"android":"levelo://app?vid=ded14db5-8265-49e0-b666-b825c7214600","ios":"levelo://app?vid=ded14db5-8265-49e0-b666-b825c7214600"},"vehicle_type_id":"4","last_reported":1713287182,"current_range_meters":800,"station_id":"ce4bgkp2rcd13ifvqbmg","pricing_plan_id":"cebpf4jnsgd1na2vs0mg"},{"bike_id":"d38e094c-a4ac-441a-a224-91f44a862e4e","system_id":"levelo_inurba_marseille","lat":43.292644,"lon":5.384257,"is_reserved":false,"is_disabled":false,"rental_uris":{"android":"levelo://app?vid=d38e094c-a4ac-441a-a224-91f44a862e4e","ios":"levelo://app?vid=d38e094c-a4ac-441a-a224-91f44a862e4e"},"vehicle_type_id":"4","last_reported":1713287182,"current_range_meters":15200,"station_id":"ce4bh692rcd13ifvqea0","pricing_plan_id":"cebpf4jnsgd1na2vs0mg"},{"bike_id":"7b9372d8-4c60-4883-aced-ec0e78a2bb3a","system_id":"levelo_inurba_marseille","lat":43.307967,"lon":5.381467,"is_reserved":false,"is_disabled":false,"rental_uris":{"android":"levelo://app?vid=7b9372d8-4c60-4883-aced-ec0e78a2bb3a","ios":"levelo://app?vid=7b9372d8-4c60-4883-aced-ec0e78a2bb3a"},"vehicle_type_id":"4","last_reported":1713287182,"current_range_meters":0,"station_id":"ce4bgt12rcd13ifvqce0","pricing_plan_id":"cebpf4jnsgd1na2vs0mg"},{"bike_id":"9d57822b-a29b-4a9f-99f9-c13a48ccc12a","system_id":"levelo_inurba_marseille","lat":43.285856,"lon":5.350771,"is_reserved":false,"is_disabled":false,"rental_uris":{"android":"levelo://app?vid=9d57822b-a29b-4a9f-99f9-c13a48ccc12a","ios":"levelo://app?vid=9d57822b-a29b-4a9f-99f9-c13a48ccc12a"},"vehicle_type_id":"4","last_reported":1713287182,"current_range_meters":20800,"station_id":"ce4bhch2rcd13ifvqeug","pricing_plan_id":"cebpf4jnsgd1na2vs0mg"},{"bike_id":"75545c99-1e51-4232-9248-f06d64a78245","system_id":"levelo_inurba_marseille","lat":43.30462,"lon":5.37901,"is_reserved":false,"is_disabled":false,"rental_uris":{"android":"levelo://app?vid=75545c99-1e51-4232-9248-f06d64a78245","ios":"levelo://app?vid=75545c99-1e51-4232-9248-f06d64a78245"},"vehicle_type_id":"4","last_reported":1713287182,"current_range_meters":0,"station_id":"ce4bgup2rcd13ifvqcn0","pricing_plan_id":"cebpf4jnsgd1na2vs0mg"},{"bike_id":"e56b8cf6-b90f-47af-a1fe-053ec543b0ab","system_id":"levelo_inurba_marseille","lat":43.304604,"lon":5.37903,"is_reserved":false,"is_disabled":false,"rental_uris":{"android":"levelo://app?vid=e56b8cf6-b90f-47af-a1fe-053ec543b0ab","ios":"levelo://app?vid=e56b8cf6-b90f-47af-a1fe-053ec543b0ab"},"vehicle_type_id":"4","last_reported":1713287182,"current_range_meters":12400,"station_id":"ce4bgup2rcd13ifvqcn0","pricing_plan_id":"cebpf4jnsgd1na2vs0mg"},{"bike_id":"f88843ba-f62e-4c65-81f1-36bf48826686","system_id":"levelo_inurba_marseille","lat":43.304606,"lon":5.379026,"is_reserved":false,"is_disabled":false,"rental_uris":{"android":"levelo://app?vid=f88843ba-f62e-4c65-81f1-36bf48826686","ios":"levelo://app?vid=f88843ba-f62e-4c65-81f1-36bf48826686"},"vehicle_type_id":"4","last_reported":1713287182,"current_range_meters":0,"station_id":"ce4bgup2rcd13ifvqcn0","pricing_plan_id":"cebpf4jnsgd1na2vs0mg"},{"bike_id":"732115dd-fc36-4cea-9cd6-0e4cc350a9d7","system_id":"levelo_inurba_marseille","lat":43.324771,"lon":5.36557,"is_reserved":false,"is_disabled":false,"rental_uris":{"android":"levelo://app?vid=732115dd-fc36-4cea-9cd6-0e4cc350a9d7","ios":"levelo://app?vid=732115dd-fc36-4cea-9cd6-0e4cc350a9d7"},"vehicle_type_id":"4","last_reported":1713287182,"current_range_meters":8000,"station_id":"ce4bhs12rcd13ifvqhvg","pricing_plan_id":"cebpf4jnsgd1na2vs0mg"},{"bike_id":"3bf0dbf7-1a46-4454-85d4-d6199fac68a8","system_id":"levelo_inurba_marseille","lat":43.324771,"lon":5.36557,"is_reserved":false,"is_disabled":false,"rental_uris":{"android":"levelo://app?vid=3bf0dbf7-1a46-4454-85d4-d6199fac68a8","ios":"levelo://app?vid=3bf0dbf7-1a46-4454-85d4-d6199fac68a8"},"vehicle_type_id":"4","last_reported":1713287182,"current_range_meters":9200,"station_id":"ce4bhs12rcd13ifvqhvg","pricing_plan_id":"cebpf4jnsgd1na2vs0mg"},{"bike_id":"6850d3ac-6118-46b8-87a3-283cb8f13775","system_id":"levelo_inurba_marseille","lat":43.324771,"lon":5.36557,"is_reserved":false,"is_disabled":false,"rental_uris":{"android":"levelo://app?vid=6850d3ac-6118-46b8-87a3-283cb8f13775","ios":"levelo://app?vid=6850d3ac-6118-46b8-87a3-283cb8f13775"},"vehicle_type_id":"4","last_reported":1713287182,"current_range_meters":14800,"station_id":"ce4bhs12rcd13ifvqhvg","pricing_plan_id":"cebpf4jnsgd1na2vs0mg"},{"bike_id":"6963ca0b-2347-41f1-91d8-e49a867b2353","system_id":"levelo_inurba_marseille","lat":43.310804,"lon":5.38359,"is_reserved":false,"is_disabled":false,"rental_uris":{"android":"levelo://app?vid=6963ca0b-2347-41f1-91d8-e49a867b2353","ios":"levelo://app?vid=6963ca0b-2347-41f1-91d8-e49a867b2353"},"vehicle_type_id":"4","last_reported":1713287182,"current_range_meters":2000,"station_id":"ce4bgv92rcd13ifvqcr0","pricing_plan_id":"cebpf4jnsgd1na2vs0mg"},{"bike_id":"be6f3a84-4e93-4242-8297-0d17d765b92f","system_id":"levelo_inurba_marseille","lat":43.310453,"lon":5.383421,"is_reserved":false,"is_disabled":false,"rental_uris":{"android":"levelo://app?vid=be6f3a84-4e93-4242-8297-0d17d765b92f","ios":"levelo://app?vid=be6f3a84-4e93-4242-8297-0d17d765b92f"},"vehicle_type_id":"4","last_reported":1713287182,"current_range_meters":4400,"station_id":"ce4bgv12rcd13ifvqcp0","pricing_plan_id":"cebpf4jnsgd1na2vs0mg"},{"bike_id":"d54b2c3d-7042-4885-a183-315940e52e0c","system_id":"levelo_inurba_marseille","lat":43.301429,"lon":5.37413,"is_reserved":false,"is_disabled":false,"rental_uris":{"android":"levelo://app?vid=d54b2c3d-7042-4885-a183-315940e52e0c","ios":"levelo://app?vid=d54b2c3d-7042-4885-a183-315940e52e0c"},"vehicle_type_id":"4","last_reported":1713287182,"current_range_meters":3600,"station_id":"ce4bgs92rcd13ifvqcc0","pricing_plan_id":"cebpf4jnsgd1na2vs0mg"},{"bike_id":"fb961c54-d86e-4c51-9812-a80fd53cb14f","system_id":"levelo_inurba_marseille","lat":43.310804,"lon":5.38359,"is_reserved":false,"is_disabled":false,"rental_uris":{"android":"levelo://app?vid=fb961c54-d86e-4c51-9812-a80fd53cb14f","ios":"levelo://app?vid=fb961c54-d86e-4c51-9812-a80fd53cb14f"},"vehicle_type_id":"4","last_reported":1713287182,"current_range_meters":0,"station_id":"ce4bgv92rcd13ifvqcr0","pricing_plan_id":"cebpf4jnsgd1na2vs0mg"},{"bike_id":"e1fc31df-28f2-45a4-8287-260993273dc8","system_id":"levelo_inurba_marseille","lat":43.30137,"lon":5.37419,"is_reserved":false,"is_disabled":false,"rental_uris":{"android":"levelo://app?vid=e1fc31df-28f2-45a4-8287-260993273dc8","ios":"levelo://app?vid=e1fc31df-28f2-45a4-8287-260993273dc8"},"vehicle_type_id":"4","last_reported":1713287182,"current_range_meters":12800,"station_id":"ce4bgs92rcd13ifvqcc0","pricing_plan_id":"cebpf4jnsgd1na2vs0mg"},{"bike_id":"b877202b-68a8-4201-b906-51f284753a28","system_id":"levelo_inurba_marseille","lat":43.30135,"lon":5.37418,"is_reserved":false,"is_disabled":false,"rental_uris":{"android":"levelo://app?vid=b877202b-68a8-4201-b906-51f284753a28","ios":"levelo://app?vid=b877202b-68a8-4201-b906-51f284753a28"},"vehicle_type_id":"4","last_reported":1713287182,"current_range_meters":15600,"station_id":"ce4bgs92rcd13ifvqcc0","pricing_plan_id":"cebpf4jnsgd1na2vs0mg"},{"bike_id":"d505ec52-d973-4c8a-b6d7-cb98fd54077f","system_id":"levelo_inurba_marseille","lat":43.301358,"lon":5.374315,"is_reserved":false,"is_disabled":false,"rental_uris":{"android":"levelo://app?vid=d505ec52-d973-4c8a-b6d7-cb98fd54077f","ios":"levelo://app?vid=d505ec52-d973-4c8a-b6d7-cb98fd54077f"},"vehicle_type_id":"4","last_reported":1713287182,"current_range_meters":7200,"station_id":"ce4bgs92rcd13ifvqcc0","pricing_plan_id":"cebpf4jnsgd1na2vs0mg"},{"bike_id":"5e0422c4-4db2-4cd5-8ec6-f1a5f73617e2","system_id":"levelo_inurba_marseille","lat":43.305685,"lon":5.381374,"is_reserved":false,"is_disabled":false,"rental_uris":{"android":"levelo://app?vid=5e0422c4-4db2-4cd5-8ec6-f1a5f73617e2","ios":"levelo://app?vid=5e0422c4-4db2-4cd5-8ec6-f1a5f73617e2"},"vehicle_type_id":"4","last_reported":1713287182,"current_range_meters":23200,"station_id":"","pricing_plan_id":"cebpf4jnsgd1na2vs0mg"},{"bike_id":"252b1aad-2087-4bec-b4ef-898ffb9e27a1","system_id":"levelo_inurba_marseille","lat":43.319935,"lon":5.381699,"is_reserved":false,"is_disabled":false,"rental_uris":{"android":"levelo://app?vid=252b1aad-2087-4bec-b4ef-898ffb9e27a1","ios":"levelo://app?vid=252b1aad-2087-4bec-b4ef-898ffb9e27a1"},"vehicle_type_id":"4","last_reported":1713287182,"current_range_meters":10800,"station_id":"ce4bhr12rcd13ifvqhpg","pricing_plan_id":"cebpf4jnsgd1na2vs0mg"},{"bike_id":"f00613ec-f56b-4110-b7f4-e096c4497746","system_id":"levelo_inurba_marseille","lat":43.319935,"lon":5.381699,"is_reserved":false,"is_disabled":false,"rental_uris":{"android":"levelo://app?vid=f00613ec-f56b-4110-b7f4-e096c4497746","ios":"levelo://app?vid=f00613ec-f56b-4110-b7f4-e096c4497746"},"vehicle_type_id":"4","last_reported":1713287182,"current_range_meters":26800,"station_id":"ce4bhr12rcd13ifvqhpg","pricing_plan_id":"cebpf4jnsgd1na2vs0mg"},{"bike_id":"c63dc825-06b9-402d-8174-3b17e34f8d5c","system_id":"levelo_inurba_marseille","lat":43.319935,"lon":5.381699,"is_reserved":false,"is_disabled":false,"rental_uris":{"android":"levelo://app?vid=c63dc825-06b9-402d-8174-3b17e34f8d5c","ios":"levelo://app?vid=c63dc825-06b9-402d-8174-3b17e34f8d5c"},"vehicle_type_id":"4","last_reported":1713287182,"current_range_meters":12000,"station_id":"ce4bhr12rcd13ifvqhpg","pricing_plan_id":"cebpf4jnsgd1na2vs0mg"},{"bike_id":"d1928dcd-a1e5-4342-9479-8b973099efc0","system_id":"levelo_inurba_marseille","lat":43.319935,"lon":5.381699,"is_reserved":false,"is_disabled":false,"rental_uris":{"android":"levelo://app?vid=d1928dcd-a1e5-4342-9479-8b973099efc0","ios":"levelo://app?vid=d1928dcd-a1e5-4342-9479-8b973099efc0"},"vehicle_type_id":"4","last_reported":1713287182,"current_range_meters":2400,"station_id":"ce4bhr12rcd13ifvqhpg","pricing_plan_id":"cebpf4jnsgd1na2vs0mg"},{"bike_id":"421a1cfb-93e0-4e6b-9822-b334fc47623d","system_id":"levelo_inurba_marseille","lat":43.319935,"lon":5.381699,"is_reserved":false,"is_disabled":false,"rental_uris":{"android":"levelo://app?vid=421a1cfb-93e0-4e6b-9822-b334fc47623d","ios":"levelo://app?vid=421a1cfb-93e0-4e6b-9822-b334fc47623d"},"vehicle_type_id":"4","last_reported":1713287182,"current_range_meters":0,"station_id":"ce4bhr12rcd13ifvqhpg","pricing_plan_id":"cebpf4jnsgd1na2vs0mg"},{"bike_id":"1c78c912-8e8b-4be7-ade3-1bccc9777f96","system_id":"levelo_inurba_marseille","lat":43.32001,"lon":5.38162,"is_reserved":false,"is_disabled":false,"rental_uris":{"android":"levelo://app?vid=1c78c912-8e8b-4be7-ade3-1bccc9777f96","ios":"levelo://app?vid=1c78c912-8e8b-4be7-ade3-1bccc9777f96"},"vehicle_type_id":"4","last_reported":1713287182,"current_range_meters":18800,"station_id":"ce4bhr12rcd13ifvqhpg","pricing_plan_id":"cebpf4jnsgd1na2vs0mg"},{"bike_id":"d022893b-5ec7-430d-a3e4-e8108bbd57b3","system_id":"levelo_inurba_marseille","lat":43.319935,"lon":5.381699,"is_reserved":false,"is_disabled":false,"rental_uris":{"android":"levelo://app?vid=d022893b-5ec7-430d-a3e4-e8108bbd57b3","ios":"levelo://app?vid=d022893b-5ec7-430d-a3e4-e8108bbd57b3"},"vehicle_type_id":"4","last_reported":1713287182,"current_range_meters":2800,"station_id":"ce4bhr12rcd13ifvqhpg","pricing_plan_id":"cebpf4jnsgd1na2vs0mg"},{"bike_id":"6a23d687-d6c6-49b0-94e9-8d0d5abd3502","system_id":"levelo_inurba_marseille","lat":43.313571,"lon":5.384829,"is_reserved":false,"is_disabled":false,"rental_uris":{"android":"levelo://app?vid=6a23d687-d6c6-49b0-94e9-8d0d5abd3502","ios":"levelo://app?vid=6a23d687-d6c6-49b0-94e9-8d0d5abd3502"},"vehicle_type_id":"4","last_reported":1713287182,"current_range_meters":16800,"station_id":"ce4bgt92rcd13ifvqcf0","pricing_plan_id":"cebpf4jnsgd1na2vs0mg"},{"bike_id":"975b970e-045a-4a75-8508-0de579bf15bb","system_id":"levelo_inurba_marseille","lat":43.313626,"lon":5.384903,"is_reserved":false,"is_disabled":false,"rental_uris":{"android":"levelo://app?vid=975b970e-045a-4a75-8508-0de579bf15bb","ios":"levelo://app?vid=975b970e-045a-4a75-8508-0de579bf15bb"},"vehicle_type_id":"4","last_reported":1713287182,"current_range_meters":2800,"station_id":"ce4bgt92rcd13ifvqcf0","pricing_plan_id":"cebpf4jnsgd1na2vs0mg"},{"bike_id":"d1da622d-5722-4c63-9f21-aa94e89e10ec","system_id":"levelo_inurba_marseille","lat":43.313571,"lon":5.384829,"is_reserved":false,"is_disabled":false,"rental_uris":{"android":"levelo://app?vid=d1da622d-5722-4c63-9f21-aa94e89e10ec","ios":"levelo://app?vid=d1da622d-5722-4c63-9f21-aa94e89e10ec"},"vehicle_type_id":"4","last_reported":1713287182,"current_range_meters":27200,"station_id":"ce4bgt92rcd13ifvqcf0","pricing_plan_id":"cebpf4jnsgd1na2vs0mg"},{"bike_id":"3fc1167a-2d89-4124-acaf-6b3b1b1d030f","system_id":"levelo_inurba_marseille","lat":43.312239,"lon":5.368562,"is_reserved":false,"is_disabled":false,"rental_uris":{"android":"levelo://app?vid=3fc1167a-2d89-4124-acaf-6b3b1b1d030f","ios":"levelo://app?vid=3fc1167a-2d89-4124-acaf-6b3b1b1d030f"},"vehicle_type_id":"4","last_reported":1713287182,"current_range_meters":26000,"station_id":"ce4bgl92rcd13ifvqbq0","pricing_plan_id":"cebpf4jnsgd1na2vs0mg"},{"bike_id":"6fa4b071-8502-4a6e-b82d-58c3ac59b0d7","system_id":"levelo_inurba_marseille","lat":43.299222,"lon":5.365554,"is_reserved":false,"is_disabled":false,"rental_uris":{"android":"levelo://app?vid=6fa4b071-8502-4a6e-b82d-58c3ac59b0d7","ios":"levelo://app?vid=6fa4b071-8502-4a6e-b82d-58c3ac59b0d7"},"vehicle_type_id":"4","last_reported":1713287182,"current_range_meters":8800,"station_id":"ce4bgm92rcd13ifvqbr0","pricing_plan_id":"cebpf4jnsgd1na2vs0mg"},{"bike_id":"6aabc570-9c51-4aba-a971-d9ea05ac2a39","system_id":"levelo_inurba_marseille","lat":43.299724,"lon":5.371829,"is_reserved":false,"is_disabled":false,"rental_uris":{"android":"levelo://app?vid=6aabc570-9c51-4aba-a971-d9ea05ac2a39","ios":"levelo://app?vid=6aabc570-9c51-4aba-a971-d9ea05ac2a39"},"vehicle_type_id":"4","last_reported":1713287182,"current_range_meters":8800,"station_id":"ce4bgr92rcd13ifvqc7g","pricing_plan_id":"cebpf4jnsgd1na2vs0mg"},{"bike_id":"6d427520-a15e-4f25-88b0-6415d482c8cc","system_id":"levelo_inurba_marseille","lat":43.299222,"lon":5.365554,"is_reserved":false,"is_disabled":false,"rental_uris":{"android":"levelo://app?vid=6d427520-a15e-4f25-88b0-6415d482c8cc","ios":"levelo://app?vid=6d427520-a15e-4f25-88b0-6415d482c8cc"},"vehicle_type_id":"4","last_reported":1713287182,"current_range_meters":12400,"station_id":"ce4bgm92rcd13ifvqbr0","pricing_plan_id":"cebpf4jnsgd1na2vs0mg"},{"bike_id":"a3d7d7e4-b225-4bf4-9297-3597ac756421","system_id":"levelo_inurba_marseille","lat":43.299222,"lon":5.365554,"is_reserved":false,"is_disabled":false,"rental_uris":{"android":"levelo://app?vid=a3d7d7e4-b225-4bf4-9297-3597ac756421","ios":"levelo://app?vid=a3d7d7e4-b225-4bf4-9297-3597ac756421"},"vehicle_type_id":"4","last_reported":1713287182,"current_range_meters":19600,"station_id":"ce4bgm92rcd13ifvqbr0","pricing_plan_id":"cebpf4jnsgd1na2vs0mg"},{"bike_id":"e8c9ccfd-cfde-4410-96c3-1a44c1c2f707","system_id":"levelo_inurba_marseille","lat":43.299222,"lon":5.365554,"is_reserved":false,"is_disabled":false,"rental_uris":{"android":"levelo://app?vid=e8c9ccfd-cfde-4410-96c3-1a44c1c2f707","ios":"levelo://app?vid=e8c9ccfd-cfde-4410-96c3-1a44c1c2f707"},"vehicle_type_id":"4","last_reported":1713287182,"current_range_meters":12800,"station_id":"ce4bgm92rcd13ifvqbr0","pricing_plan_id":"cebpf4jnsgd1na2vs0mg"},{"bike_id":"324fe3e5-fe31-4b5e-bbc1-3824c2d0f7d1","system_id":"levelo_inurba_marseille","lat":43.299222,"lon":5.365554,"is_reserved":false,"is_disabled":false,"rental_uris":{"android":"levelo://app?vid=324fe3e5-fe31-4b5e-bbc1-3824c2d0f7d1","ios":"levelo://app?vid=324fe3e5-fe31-4b5e-bbc1-3824c2d0f7d1"},"vehicle_type_id":"4","last_reported":1713287182,"current_range_meters":15200,"station_id":"ce4bgm92rcd13ifvqbr0","pricing_plan_id":"cebpf4jnsgd1na2vs0mg"},{"bike_id":"2554a6bb-a5e5-4ee7-b4fd-b711df9f9218","system_id":"levelo_inurba_marseille","lat":43.299222,"lon":5.365554,"is_reserved":false,"is_disabled":false,"rental_uris":{"android":"levelo://app?vid=2554a6bb-a5e5-4ee7-b4fd-b711df9f9218","ios":"levelo://app?vid=2554a6bb-a5e5-4ee7-b4fd-b711df9f9218"},"vehicle_type_id":"4","last_reported":1713287182,"current_range_meters":26000,"station_id":"ce4bgm92rcd13ifvqbr0","pricing_plan_id":"cebpf4jnsgd1na2vs0mg"},{"bike_id":"c964f3f5-c8cf-4491-9b1a-4b63bb42c243","system_id":"levelo_inurba_marseille","lat":43.311722,"lon":5.387247,"is_reserved":false,"is_disabled":false,"rental_uris":{"android":"levelo://app?vid=c964f3f5-c8cf-4491-9b1a-4b63bb42c243","ios":"levelo://app?vid=c964f3f5-c8cf-4491-9b1a-4b63bb42c243"},"vehicle_type_id":"4","last_reported":1713287182,"current_range_meters":13200,"station_id":"ce4bgv12rcd13ifvqcp0","pricing_plan_id":"cebpf4jnsgd1na2vs0mg"},{"bike_id":"b0a98e5b-f601-4e12-b577-79bfe463191b","system_id":"levelo_inurba_marseille","lat":43.305436,"lon":5.384219,"is_reserved":false,"is_disabled":false,"rental_uris":{"android":"levelo://app?vid=b0a98e5b-f601-4e12-b577-79bfe463191b","ios":"levelo://app?vid=b0a98e5b-f601-4e12-b577-79bfe463191b"},"vehicle_type_id":"4","last_reported":1713287182,"current_range_meters":0,"station_id":"ce4bgg92rcd13ifvqb30","pricing_plan_id":"cebpf4jnsgd1na2vs0mg"},{"bike_id":"a61e8157-e1d7-48d9-a81e-5e93bd40dcd9","system_id":"levelo_inurba_marseille","lat":43.298433,"lon":5.362774,"is_reserved":false,"is_disabled":false,"rental_uris":{"android":"levelo://app?vid=a61e8157-e1d7-48d9-a81e-5e93bd40dcd9","ios":"levelo://app?vid=a61e8157-e1d7-48d9-a81e-5e93bd40dcd9"},"vehicle_type_id":"4","last_reported":1713287182,"current_range_meters":17200,"station_id":"ce4bgpp2rcd13ifvqc3g","pricing_plan_id":"cebpf4jnsgd1na2vs0mg"},{"bike_id":"4ade3d0f-6175-41a6-92ba-2f534713f275","system_id":"levelo_inurba_marseille","lat":43.305364,"lon":5.384119,"is_reserved":false,"is_disabled":false,"rental_uris":{"android":"levelo://app?vid=4ade3d0f-6175-41a6-92ba-2f534713f275","ios":"levelo://app?vid=4ade3d0f-6175-41a6-92ba-2f534713f275"},"vehicle_type_id":"4","last_reported":1713287182,"current_range_meters":0,"station_id":"ce4bgg92rcd13ifvqb30","pricing_plan_id":"cebpf4jnsgd1na2vs0mg"},{"bike_id":"f5efadba-9dca-418c-a20f-d111263be1b2","system_id":"levelo_inurba_marseille","lat":43.298433,"lon":5.362774,"is_reserved":false,"is_disabled":false,"rental_uris":{"android":"levelo://app?vid=f5efadba-9dca-418c-a20f-d111263be1b2","ios":"levelo://app?vid=f5efadba-9dca-418c-a20f-d111263be1b2"},"vehicle_type_id":"4","last_reported":1713287182,"current_range_meters":6800,"station_id":"ce4bgpp2rcd13ifvqc3g","pricing_plan_id":"cebpf4jnsgd1na2vs0mg"},{"bike_id":"5442c3f7-4cf1-4b6e-99cd-8eef7dd431a2","system_id":"levelo_inurba_marseille","lat":43.322872,"lon":5.382756,"is_reserved":false,"is_disabled":false,"rental_uris":{"android":"levelo://app?vid=5442c3f7-4cf1-4b6e-99cd-8eef7dd431a2","ios":"levelo://app?vid=5442c3f7-4cf1-4b6e-99cd-8eef7dd431a2"},"vehicle_type_id":"4","last_reported":1713287182,"current_range_meters":26400,"station_id":"ce4bhr12rcd13ifvqhqg","pricing_plan_id":"cebpf4jnsgd1na2vs0mg"},{"bike_id":"b70318e4-61f7-43e6-b74f-8d2ea022c24c","system_id":"levelo_inurba_marseille","lat":43.299243,"lon":5.374807,"is_reserved":false,"is_disabled":false,"rental_uris":{"android":"levelo://app?vid=b70318e4-61f7-43e6-b74f-8d2ea022c24c","ios":"levelo://app?vid=b70318e4-61f7-43e6-b74f-8d2ea022c24c"},"vehicle_type_id":"4","last_reported":1713287182,"current_range_meters":0,"station_id":"ce4bgjh2rcd13ifvqbg0","pricing_plan_id":"cebpf4jnsgd1na2vs0mg"},{"bike_id":"9a221a25-fc7e-4a32-bacf-28aa121374fe","system_id":"levelo_inurba_marseille","lat":43.31172,"lon":5.38706,"is_reserved":false,"is_disabled":false,"rental_uris":{"android":"levelo://app?vid=9a221a25-fc7e-4a32-bacf-28aa121374fe","ios":"levelo://app?vid=9a221a25-fc7e-4a32-bacf-28aa121374fe"},"vehicle_type_id":"4","last_reported":1713287182,"current_range_meters":2000,"station_id":"ce4bgv12rcd13ifvqcp0","pricing_plan_id":"cebpf4jnsgd1na2vs0mg"},{"bike_id":"54c42291-f8ea-4564-bfe3-180b20577f13","system_id":"levelo_inurba_marseille","lat":43.29837,"lon":5.36266,"is_reserved":false,"is_disabled":false,"rental_uris":{"android":"levelo://app?vid=54c42291-f8ea-4564-bfe3-180b20577f13","ios":"levelo://app?vid=54c42291-f8ea-4564-bfe3-180b20577f13"},"vehicle_type_id":"4","last_reported":1713287182,"current_range_meters":16400,"station_id":"ce4bgpp2rcd13ifvqc3g","pricing_plan_id":"cebpf4jnsgd1na2vs0mg"},{"bike_id":"36b5b520-13ec-4a71-b0e2-4053fd4c6d5d","system_id":"levelo_inurba_marseille","lat":43.31175,"lon":5.38714,"is_reserved":false,"is_disabled":false,"rental_uris":{"android":"levelo://app?vid=36b5b520-13ec-4a71-b0e2-4053fd4c6d5d","ios":"levelo://app?vid=36b5b520-13ec-4a71-b0e2-4053fd4c6d5d"},"vehicle_type_id":"4","last_reported":1713287182,"current_range_meters":0,"station_id":"ce4bgv12rcd13ifvqcp0","pricing_plan_id":"cebpf4jnsgd1na2vs0mg"},{"bike_id":"d3d0dd93-8ee1-4945-b180-3d511503ce22","system_id":"levelo_inurba_marseille","lat":43.290104,"lon":5.356111,"is_reserved":false,"is_disabled":false,"rental_uris":{"android":"levelo://app?vid=d3d0dd93-8ee1-4945-b180-3d511503ce22","ios":"levelo://app?vid=d3d0dd93-8ee1-4945-b180-3d511503ce22"},"vehicle_type_id":"4","last_reported":1713287182,"current_range_meters":15600,"station_id":"ce4bhb92rcd13ifvqen0","pricing_plan_id":"cebpf4jnsgd1na2vs0mg"},{"bike_id":"9f6e3559-f375-43fc-b198-5fd4b0dfa055","system_id":"levelo_inurba_marseille","lat":43.290345,"lon":5.38646,"is_reserved":false,"is_disabled":false,"rental_uris":{"android":"levelo://app?vid=9f6e3559-f375-43fc-b198-5fd4b0dfa055","ios":"levelo://app?vid=9f6e3559-f375-43fc-b198-5fd4b0dfa055"},"vehicle_type_id":"4","last_reported":1713287182,"current_range_meters":1200,"station_id":"ce4bh4p2rcd13ifvqe0g","pricing_plan_id":"cebpf4jnsgd1na2vs0mg"},{"bike_id":"4fc868a1-d2ca-415b-8f36-db9a2c0944bd","system_id":"levelo_inurba_marseille","lat":43.32288,"lon":5.38266,"is_reserved":false,"is_disabled":false,"rental_uris":{"android":"levelo://app?vid=4fc868a1-d2ca-415b-8f36-db9a2c0944bd","ios":"levelo://app?vid=4fc868a1-d2ca-415b-8f36-db9a2c0944bd"},"vehicle_type_id":"4","last_reported":1713287182,"current_range_meters":0,"station_id":"ce4bhr12rcd13ifvqhqg","pricing_plan_id":"cebpf4jnsgd1na2vs0mg"},{"bike_id":"8f18c5d8-04a9-46e5-a4f0-cc7a36debe98","system_id":"levelo_inurba_marseille","lat":43.322872,"lon":5.382756,"is_reserved":false,"is_disabled":false,"rental_uris":{"android":"levelo://app?vid=8f18c5d8-04a9-46e5-a4f0-cc7a36debe98","ios":"levelo://app?vid=8f18c5d8-04a9-46e5-a4f0-cc7a36debe98"},"vehicle_type_id":"4","last_reported":1713287182,"current_range_meters":16800,"station_id":"ce4bhr12rcd13ifvqhqg","pricing_plan_id":"cebpf4jnsgd1na2vs0mg"},{"bike_id":"ebee38dc-be86-434a-bc56-bac13d0a870d","system_id":"levelo_inurba_marseille","lat":43.297163,"lon":5.365866,"is_reserved":false,"is_disabled":false,"rental_uris":{"android":"levelo://app?vid=ebee38dc-be86-434a-bc56-bac13d0a870d","ios":"levelo://app?vid=ebee38dc-be86-434a-bc56-bac13d0a870d"},"vehicle_type_id":"4","last_reported":1713287182,"current_range_meters":8400,"station_id":"ce4bgn12rcd13ifvqbt0","pricing_plan_id":"cebpf4jnsgd1na2vs0mg"},{"bike_id":"d74c2456-4f7f-4612-ba9f-8484e5c62683","system_id":"levelo_inurba_marseille","lat":43.297163,"lon":5.365866,"is_reserved":false,"is_disabled":false,"rental_uris":{"android":"levelo://app?vid=d74c2456-4f7f-4612-ba9f-8484e5c62683","ios":"levelo://app?vid=d74c2456-4f7f-4612-ba9f-8484e5c62683"},"vehicle_type_id":"4","last_reported":1713287182,"current_range_meters":23600,"station_id":"ce4bgn12rcd13ifvqbt0","pricing_plan_id":"cebpf4jnsgd1na2vs0mg"},{"bike_id":"1aa246d9-ed2d-4d7c-8ca8-3ce1af8ac2cc","system_id":"levelo_inurba_marseille","lat":43.29645,"lon":5.366,"is_reserved":false,"is_disabled":false,"rental_uris":{"android":"levelo://app?vid=1aa246d9-ed2d-4d7c-8ca8-3ce1af8ac2cc","ios":"levelo://app?vid=1aa246d9-ed2d-4d7c-8ca8-3ce1af8ac2cc"},"vehicle_type_id":"4","last_reported":1713287182,"current_range_meters":17200,"station_id":"","pricing_plan_id":"cebpf4jnsgd1na2vs0mg"},{"bike_id":"edb43358-8118-4363-a73b-528eb80b41e2","system_id":"levelo_inurba_marseille","lat":43.29599,"lon":5.3673,"is_reserved":false,"is_disabled":false,"rental_uris":{"android":"levelo://app?vid=edb43358-8118-4363-a73b-528eb80b41e2","ios":"levelo://app?vid=edb43358-8118-4363-a73b-528eb80b41e2"},"vehicle_type_id":"4","last_reported":1713287182,"current_range_meters":0,"station_id":"ce4bgph2rcd13ifvqc2g","pricing_plan_id":"cebpf4jnsgd1na2vs0mg"},{"bike_id":"a85b95a5-c2f9-49e4-acf6-b603ef02494e","system_id":"levelo_inurba_marseille","lat":43.29573,"lon":5.367355,"is_reserved":false,"is_disabled":false,"rental_uris":{"android":"levelo://app?vid=a85b95a5-c2f9-49e4-acf6-b603ef02494e","ios":"levelo://app?vid=a85b95a5-c2f9-49e4-acf6-b603ef02494e"},"vehicle_type_id":"4","last_reported":1713287182,"current_range_meters":0,"station_id":"ce4bgph2rcd13ifvqc2g","pricing_plan_id":"cebpf4jnsgd1na2vs0mg"},{"bike_id":"e8845037-fa1b-416a-b3ed-b4b71d2f9f9e","system_id":"levelo_inurba_marseille","lat":43.296131,"lon":5.370791,"is_reserved":false,"is_disabled":false,"rental_uris":{"android":"levelo://app?vid=e8845037-fa1b-416a-b3ed-b4b71d2f9f9e","ios":"levelo://app?vid=e8845037-fa1b-416a-b3ed-b4b71d2f9f9e"},"vehicle_type_id":"4","last_reported":1713287182,"current_range_meters":11600,"station_id":"ce4bgnh2rcd13ifvqc0g","pricing_plan_id":"cebpf4jnsgd1na2vs0mg"},{"bike_id":"d8bf6df3-2735-4693-a442-0d422b2fb0e4","system_id":"levelo_inurba_marseille","lat":43.297124,"lon":5.377066,"is_reserved":false,"is_disabled":false,"rental_uris":{"android":"levelo://app?vid=d8bf6df3-2735-4693-a442-0d422b2fb0e4","ios":"levelo://app?vid=d8bf6df3-2735-4693-a442-0d422b2fb0e4"},"vehicle_type_id":"4","last_reported":1713287182,"current_range_meters":0,"station_id":"ce4bh0h2rcd13ifvqd40","pricing_plan_id":"cebpf4jnsgd1na2vs0mg"},{"bike_id":"ef18e87b-0a92-4f46-94ce-9c69a80e96b3","system_id":"levelo_inurba_marseille","lat":43.29904,"lon":5.38142,"is_reserved":false,"is_disabled":false,"rental_uris":{"android":"levelo://app?vid=ef18e87b-0a92-4f46-94ce-9c69a80e96b3","ios":"levelo://app?vid=ef18e87b-0a92-4f46-94ce-9c69a80e96b3"},"vehicle_type_id":"4","last_reported":1713287182,"current_range_meters":0,"station_id":"ce4bh2h2rcd13ifvqdh0","pricing_plan_id":"cebpf4jnsgd1na2vs0mg"},{"bike_id":"261f19a4-1527-47c1-9d29-c66e8d82cf22","system_id":"levelo_inurba_marseille","lat":43.309589,"lon":5.390258,"is_reserved":false,"is_disabled":false,"rental_uris":{"android":"levelo://app?vid=261f19a4-1527-47c1-9d29-c66e8d82cf22","ios":"levelo://app?vid=261f19a4-1527-47c1-9d29-c66e8d82cf22"},"vehicle_type_id":"4","last_reported":1713287182,"current_range_meters":19200,"station_id":"ce4bgup2rcd13ifvqco0","pricing_plan_id":"cebpf4jnsgd1na2vs0mg"},{"bike_id":"0be653b8-c1d8-4fdc-8344-70e44b76290c","system_id":"levelo_inurba_marseille","lat":43.31755,"lon":5.39004,"is_reserved":false,"is_disabled":false,"rental_uris":{"android":"levelo://app?vid=0be653b8-c1d8-4fdc-8344-70e44b76290c","ios":"levelo://app?vid=0be653b8-c1d8-4fdc-8344-70e44b76290c"},"vehicle_type_id":"4","last_reported":1713287182,"current_range_meters":15600,"station_id":"ce4bhqp2rcd13ifvqhng","pricing_plan_id":"cebpf4jnsgd1na2vs0mg"},{"bike_id":"afd389c0-7a1f-4448-8f6a-70ecd567a42f","system_id":"levelo_inurba_marseille","lat":43.31754,"lon":5.39009,"is_reserved":false,"is_disabled":false,"rental_uris":{"android":"levelo://app?vid=afd389c0-7a1f-4448-8f6a-70ecd567a42f","ios":"levelo://app?vid=afd389c0-7a1f-4448-8f6a-70ecd567a42f"},"vehicle_type_id":"4","last_reported":1713287182,"current_range_meters":18800,"station_id":"ce4bhqp2rcd13ifvqhng","pricing_plan_id":"cebpf4jnsgd1na2vs0mg"},{"bike_id":"86f11b60-db8c-4677-bef2-05a5049e0570","system_id":"levelo_inurba_marseille","lat":43.317557,"lon":5.390173,"is_reserved":false,"is_disabled":false,"rental_uris":{"android":"levelo://app?vid=86f11b60-db8c-4677-bef2-05a5049e0570","ios":"levelo://app?vid=86f11b60-db8c-4677-bef2-05a5049e0570"},"vehicle_type_id":"4","last_reported":1713287182,"current_range_meters":16400,"station_id":"ce4bhqp2rcd13ifvqhng","pricing_plan_id":"cebpf4jnsgd1na2vs0mg"},{"bike_id":"ef3fb784-1dd5-4bd2-b279-308a01ddd37f","system_id":"levelo_inurba_marseille","lat":43.317557,"lon":5.390173,"is_reserved":false,"is_disabled":false,"rental_uris":{"android":"levelo://app?vid=ef3fb784-1dd5-4bd2-b279-308a01ddd37f","ios":"levelo://app?vid=ef3fb784-1dd5-4bd2-b279-308a01ddd37f"},"vehicle_type_id":"4","last_reported":1713287182,"current_range_meters":12400,"station_id":"ce4bhqp2rcd13ifvqhng","pricing_plan_id":"cebpf4jnsgd1na2vs0mg"},{"bike_id":"90f153bd-2190-4088-b137-9ad520e813ac","system_id":"levelo_inurba_marseille","lat":43.317557,"lon":5.390173,"is_reserved":false,"is_disabled":false,"rental_uris":{"android":"levelo://app?vid=90f153bd-2190-4088-b137-9ad520e813ac","ios":"levelo://app?vid=90f153bd-2190-4088-b137-9ad520e813ac"},"vehicle_type_id":"4","last_reported":1713287182,"current_range_meters":14000,"station_id":"ce4bhqp2rcd13ifvqhng","pricing_plan_id":"cebpf4jnsgd1na2vs0mg"},{"bike_id":"d700fe8c-f0ca-46cf-89ef-dc19397dd4b1","system_id":"levelo_inurba_marseille","lat":43.317557,"lon":5.390173,"is_reserved":false,"is_disabled":false,"rental_uris":{"android":"levelo://app?vid=d700fe8c-f0ca-46cf-89ef-dc19397dd4b1","ios":"levelo://app?vid=d700fe8c-f0ca-46cf-89ef-dc19397dd4b1"},"vehicle_type_id":"4","last_reported":1713287182,"current_range_meters":13600,"station_id":"ce4bhqp2rcd13ifvqhng","pricing_plan_id":"cebpf4jnsgd1na2vs0mg"},{"bike_id":"ed8d703c-c8f5-4e25-9e80-5e5a9265951c","system_id":"levelo_inurba_marseille","lat":43.317557,"lon":5.390173,"is_reserved":false,"is_disabled":false,"rental_uris":{"android":"levelo://app?vid=ed8d703c-c8f5-4e25-9e80-5e5a9265951c","ios":"levelo://app?vid=ed8d703c-c8f5-4e25-9e80-5e5a9265951c"},"vehicle_type_id":"4","last_reported":1713287182,"current_range_meters":18000,"station_id":"ce4bhqp2rcd13ifvqhng","pricing_plan_id":"cebpf4jnsgd1na2vs0mg"},{"bike_id":"083abdea-bba6-4ef6-801e-bb7493a2c1ed","system_id":"levelo_inurba_marseille","lat":43.317557,"lon":5.390173,"is_reserved":false,"is_disabled":false,"rental_uris":{"android":"levelo://app?vid=083abdea-bba6-4ef6-801e-bb7493a2c1ed","ios":"levelo://app?vid=083abdea-bba6-4ef6-801e-bb7493a2c1ed"},"vehicle_type_id":"4","last_reported":1713287182,"current_range_meters":1600,"station_id":"ce4bhqp2rcd13ifvqhng","pricing_plan_id":"cebpf4jnsgd1na2vs0mg"},{"bike_id":"c1f9238c-c066-42fa-881a-71ff39872ee5","system_id":"levelo_inurba_marseille","lat":43.31755,"lon":5.39018,"is_reserved":false,"is_disabled":false,"rental_uris":{"android":"levelo://app?vid=c1f9238c-c066-42fa-881a-71ff39872ee5","ios":"levelo://app?vid=c1f9238c-c066-42fa-881a-71ff39872ee5"},"vehicle_type_id":"4","last_reported":1713287182,"current_range_meters":10000,"station_id":"ce4bhqp2rcd13ifvqhng","pricing_plan_id":"cebpf4jnsgd1na2vs0mg"},{"bike_id":"64e79c7c-35ca-4ed5-b140-a7eb9aa5d972","system_id":"levelo_inurba_marseille","lat":43.31759,"lon":5.39022,"is_reserved":false,"is_disabled":false,"rental_uris":{"android":"levelo://app?vid=64e79c7c-35ca-4ed5-b140-a7eb9aa5d972","ios":"levelo://app?vid=64e79c7c-35ca-4ed5-b140-a7eb9aa5d972"},"vehicle_type_id":"4","last_reported":1713287182,"current_range_meters":3200,"station_id":"ce4bhqp2rcd13ifvqhng","pricing_plan_id":"cebpf4jnsgd1na2vs0mg"},{"bike_id":"f9ff1c21-d2a0-48a5-95c5-3f9e81e6a43c","system_id":"levelo_inurba_marseille","lat":43.304278,"lon":5.388868,"is_reserved":false,"is_disabled":false,"rental_uris":{"android":"levelo://app?vid=f9ff1c21-d2a0-48a5-95c5-3f9e81e6a43c","ios":"levelo://app?vid=f9ff1c21-d2a0-48a5-95c5-3f9e81e6a43c"},"vehicle_type_id":"4","last_reported":1713287182,"current_range_meters":2400,"station_id":"ce4bgk12rcd13ifvqbi0","pricing_plan_id":"cebpf4jnsgd1na2vs0mg"},{"bike_id":"79053364-d590-4583-b623-c641026dff74","system_id":"levelo_inurba_marseille","lat":43.295748,"lon":5.37522,"is_reserved":false,"is_disabled":false,"rental_uris":{"android":"levelo://app?vid=79053364-d590-4583-b623-c641026dff74","ios":"levelo://app?vid=79053364-d590-4583-b623-c641026dff74"},"vehicle_type_id":"4","last_reported":1713287182,"current_range_meters":19200,"station_id":"ce4bgh92rcd13ifvqb50","pricing_plan_id":"cebpf4jnsgd1na2vs0mg"},{"bike_id":"c1f73a24-8788-475f-97f8-a0920c069a92","system_id":"levelo_inurba_marseille","lat":43.304274,"lon":5.388873,"is_reserved":false,"is_disabled":false,"rental_uris":{"android":"levelo://app?vid=c1f73a24-8788-475f-97f8-a0920c069a92","ios":"levelo://app?vid=c1f73a24-8788-475f-97f8-a0920c069a92"},"vehicle_type_id":"4","last_reported":1713287182,"current_range_meters":9200,"station_id":"ce4bgk12rcd13ifvqbi0","pricing_plan_id":"cebpf4jnsgd1na2vs0mg"},{"bike_id":"b2045a61-de2c-46d1-820c-072b45134f1d","system_id":"levelo_inurba_marseille","lat":43.304274,"lon":5.388873,"is_reserved":false,"is_disabled":false,"rental_uris":{"android":"levelo://app?vid=b2045a61-de2c-46d1-820c-072b45134f1d","ios":"levelo://app?vid=b2045a61-de2c-46d1-820c-072b45134f1d"},"vehicle_type_id":"4","last_reported":1713287182,"current_range_meters":9600,"station_id":"ce4bgk12rcd13ifvqbi0","pricing_plan_id":"cebpf4jnsgd1na2vs0mg"},{"bike_id":"bea8a449-1540-446e-a6e4-416cbc86aa56","system_id":"levelo_inurba_marseille","lat":43.296263,"lon":5.377094,"is_reserved":false,"is_disabled":false,"rental_uris":{"android":"levelo://app?vid=bea8a449-1540-446e-a6e4-416cbc86aa56","ios":"levelo://app?vid=bea8a449-1540-446e-a6e4-416cbc86aa56"},"vehicle_type_id":"4","last_reported":1713287182,"current_range_meters":10000,"station_id":"ce4bgi92rcd13ifvqb90","pricing_plan_id":"cebpf4jnsgd1na2vs0mg"},{"bike_id":"2a871202-d40c-427f-ab5e-247cbc0b731e","system_id":"levelo_inurba_marseille","lat":43.304278,"lon":5.388868,"is_reserved":false,"is_disabled":false,"rental_uris":{"android":"levelo://app?vid=2a871202-d40c-427f-ab5e-247cbc0b731e","ios":"levelo://app?vid=2a871202-d40c-427f-ab5e-247cbc0b731e"},"vehicle_type_id":"4","last_reported":1713287182,"current_range_meters":14000,"station_id":"ce4bgk12rcd13ifvqbi0","pricing_plan_id":"cebpf4jnsgd1na2vs0mg"},{"bike_id":"39ea0c41-c979-4da5-95e7-b9d89a9a51b4","system_id":"levelo_inurba_marseille","lat":43.296263,"lon":5.377094,"is_reserved":false,"is_disabled":false,"rental_uris":{"android":"levelo://app?vid=39ea0c41-c979-4da5-95e7-b9d89a9a51b4","ios":"levelo://app?vid=39ea0c41-c979-4da5-95e7-b9d89a9a51b4"},"vehicle_type_id":"4","last_reported":1713287182,"current_range_meters":28000,"station_id":"ce4bgi92rcd13ifvqb90","pricing_plan_id":"cebpf4jnsgd1na2vs0mg"},{"bike_id":"3a1ee43f-b702-4508-b389-a8c4256b88f9","system_id":"levelo_inurba_marseille","lat":43.295205,"lon":5.374898,"is_reserved":false,"is_disabled":false,"rental_uris":{"android":"levelo://app?vid=3a1ee43f-b702-4508-b389-a8c4256b88f9","ios":"levelo://app?vid=3a1ee43f-b702-4508-b389-a8c4256b88f9"},"vehicle_type_id":"4","last_reported":1713287182,"current_range_meters":0,"station_id":"ce4bgkp2rcd13ifvqbmg","pricing_plan_id":"cebpf4jnsgd1na2vs0mg"},{"bike_id":"fefc0800-e5f7-4771-987d-ba38f0f4e9ea","system_id":"levelo_inurba_marseille","lat":43.295279,"lon":5.375048,"is_reserved":false,"is_disabled":false,"rental_uris":{"android":"levelo://app?vid=fefc0800-e5f7-4771-987d-ba38f0f4e9ea","ios":"levelo://app?vid=fefc0800-e5f7-4771-987d-ba38f0f4e9ea"},"vehicle_type_id":"4","last_reported":1713287182,"current_range_meters":9600,"station_id":"ce4bgkp2rcd13ifvqbmg","pricing_plan_id":"cebpf4jnsgd1na2vs0mg"},{"bike_id":"abee4c36-6d3d-4620-91f3-dc833a063ac1","system_id":"levelo_inurba_marseille","lat":43.29971,"lon":5.38495,"is_reserved":false,"is_disabled":false,"rental_uris":{"android":"levelo://app?vid=abee4c36-6d3d-4620-91f3-dc833a063ac1","ios":"levelo://app?vid=abee4c36-6d3d-4620-91f3-dc833a063ac1"},"vehicle_type_id":"4","last_reported":1713287182,"current_range_meters":0,"station_id":"ce4bgj92rcd13ifvqbd0","pricing_plan_id":"cebpf4jnsgd1na2vs0mg"},{"bike_id":"d285b908-bdb3-4427-9488-df843f81c641","system_id":"levelo_inurba_marseille","lat":43.299717,"lon":5.384845,"is_reserved":false,"is_disabled":false,"rental_uris":{"android":"levelo://app?vid=d285b908-bdb3-4427-9488-df843f81c641","ios":"levelo://app?vid=d285b908-bdb3-4427-9488-df843f81c641"},"vehicle_type_id":"4","last_reported":1713287182,"current_range_meters":0,"station_id":"ce4bgj92rcd13ifvqbd0","pricing_plan_id":"cebpf4jnsgd1na2vs0mg"},{"bike_id":"01f12b34-9ed3-4f66-8b37-5c78905966e4","system_id":"levelo_inurba_marseille","lat":43.299717,"lon":5.384845,"is_reserved":false,"is_disabled":false,"rental_uris":{"android":"levelo://app?vid=01f12b34-9ed3-4f66-8b37-5c78905966e4","ios":"levelo://app?vid=01f12b34-9ed3-4f66-8b37-5c78905966e4"},"vehicle_type_id":"4","last_reported":1713287182,"current_range_meters":0,"station_id":"ce4bgj92rcd13ifvqbd0","pricing_plan_id":"cebpf4jnsgd1na2vs0mg"},{"bike_id":"6095829c-f8a6-41c5-bec4-dc3b13cfa182","system_id":"levelo_inurba_marseille","lat":43.295279,"lon":5.375048,"is_reserved":false,"is_disabled":false,"rental_uris":{"android":"levelo://app?vid=6095829c-f8a6-41c5-bec4-dc3b13cfa182","ios":"levelo://app?vid=6095829c-f8a6-41c5-bec4-dc3b13cfa182"},"vehicle_type_id":"4","last_reported":1713287182,"current_range_meters":26800,"station_id":"ce4bgkp2rcd13ifvqbmg","pricing_plan_id":"cebpf4jnsgd1na2vs0mg"},{"bike_id":"d2e1628c-e2dc-4d9a-ae7a-8a45da892eaf","system_id":"levelo_inurba_marseille","lat":43.293009,"lon":5.374584,"is_reserved":false,"is_disabled":false,"rental_uris":{"android":"levelo://app?vid=d2e1628c-e2dc-4d9a-ae7a-8a45da892eaf","ios":"levelo://app?vid=d2e1628c-e2dc-4d9a-ae7a-8a45da892eaf"},"vehicle_type_id":"4","last_reported":1713287182,"current_range_meters":14800,"station_id":"ce4bgi12rcd13ifvqb70","pricing_plan_id":"cebpf4jnsgd1na2vs0mg"},{"bike_id":"b28dad6a-1e4b-458f-932a-d274310376e0","system_id":"levelo_inurba_marseille","lat":43.32367,"lon":5.388836,"is_reserved":false,"is_disabled":false,"rental_uris":{"android":"levelo://app?vid=b28dad6a-1e4b-458f-932a-d274310376e0","ios":"levelo://app?vid=b28dad6a-1e4b-458f-932a-d274310376e0"},"vehicle_type_id":"4","last_reported":1713287182,"current_range_meters":2000,"station_id":"ce4bhqp2rcd13ifvqhog","pricing_plan_id":"cebpf4jnsgd1na2vs0mg"},{"bike_id":"eccc45d1-4228-4d4f-b5b6-6d20197350c2","system_id":"levelo_inurba_marseille","lat":43.32367,"lon":5.388836,"is_reserved":false,"is_disabled":false,"rental_uris":{"android":"levelo://app?vid=eccc45d1-4228-4d4f-b5b6-6d20197350c2","ios":"levelo://app?vid=eccc45d1-4228-4d4f-b5b6-6d20197350c2"},"vehicle_type_id":"4","last_reported":1713287182,"current_range_meters":15200,"station_id":"ce4bhqp2rcd13ifvqhog","pricing_plan_id":"cebpf4jnsgd1na2vs0mg"},{"bike_id":"ffd418e5-1b0a-444f-aa4e-022e8aa48558","system_id":"levelo_inurba_marseille","lat":43.317557,"lon":5.390173,"is_reserved":false,"is_disabled":false,"rental_uris":{"android":"levelo://app?vid=ffd418e5-1b0a-444f-aa4e-022e8aa48558","ios":"levelo://app?vid=ffd418e5-1b0a-444f-aa4e-022e8aa48558"},"vehicle_type_id":"4","last_reported":1713287182,"current_range_meters":24000,"station_id":"ce4bhqp2rcd13ifvqhng","pricing_plan_id":"cebpf4jnsgd1na2vs0mg"},{"bike_id":"426c9628-f34b-41bc-8c6f-7f869f5292be","system_id":"levelo_inurba_marseille","lat":43.32372,"lon":5.38882,"is_reserved":false,"is_disabled":false,"rental_uris":{"android":"levelo://app?vid=426c9628-f34b-41bc-8c6f-7f869f5292be","ios":"levelo://app?vid=426c9628-f34b-41bc-8c6f-7f869f5292be"},"vehicle_type_id":"4","last_reported":1713287182,"current_range_meters":3200,"station_id":"ce4bhqp2rcd13ifvqhog","pricing_plan_id":"cebpf4jnsgd1na2vs0mg"},{"bike_id":"a0874d8e-7bc5-4069-8694-562925de1677","system_id":"levelo_inurba_marseille","lat":43.32367,"lon":5.388836,"is_reserved":false,"is_disabled":false,"rental_uris":{"android":"levelo://app?vid=a0874d8e-7bc5-4069-8694-562925de1677","ios":"levelo://app?vid=a0874d8e-7bc5-4069-8694-562925de1677"},"vehicle_type_id":"4","last_reported":1713287182,"current_range_meters":17600,"station_id":"ce4bhqp2rcd13ifvqhog","pricing_plan_id":"cebpf4jnsgd1na2vs0mg"},{"bike_id":"f2915ef4-011b-4df0-bdfc-0f962cef6647","system_id":"levelo_inurba_marseille","lat":43.29602,"lon":5.381084,"is_reserved":false,"is_disabled":false,"rental_uris":{"android":"levelo://app?vid=f2915ef4-011b-4df0-bdfc-0f962cef6647","ios":"levelo://app?vid=f2915ef4-011b-4df0-bdfc-0f962cef6647"},"vehicle_type_id":"4","last_reported":1713287182,"current_range_meters":12000,"station_id":"ce4bgl12rcd13ifvqbo0","pricing_plan_id":"cebpf4jnsgd1na2vs0mg"},{"bike_id":"0ee79336-6db6-4c49-8030-fd3049b49c64","system_id":"levelo_inurba_marseille","lat":43.29602,"lon":5.381084,"is_reserved":false,"is_disabled":false,"rental_uris":{"android":"levelo://app?vid=0ee79336-6db6-4c49-8030-fd3049b49c64","ios":"levelo://app?vid=0ee79336-6db6-4c49-8030-fd3049b49c64"},"vehicle_type_id":"4","last_reported":1713287182,"current_range_meters":17600,"station_id":"ce4bgl12rcd13ifvqbo0","pricing_plan_id":"cebpf4jnsgd1na2vs0mg"},{"bike_id":"095b53e6-66f2-4f07-b069-1c23b24fcd36","system_id":"levelo_inurba_marseille","lat":43.29601,"lon":5.381084,"is_reserved":false,"is_disabled":false,"rental_uris":{"android":"levelo://app?vid=095b53e6-66f2-4f07-b069-1c23b24fcd36","ios":"levelo://app?vid=095b53e6-66f2-4f07-b069-1c23b24fcd36"},"vehicle_type_id":"4","last_reported":1713287182,"current_range_meters":0,"station_id":"ce4bgl12rcd13ifvqbo0","pricing_plan_id":"cebpf4jnsgd1na2vs0mg"},{"bike_id":"50d7fd8c-2b82-4a77-8b85-a25c0b29e49c","system_id":"levelo_inurba_marseille","lat":43.29602,"lon":5.381084,"is_reserved":false,"is_disabled":false,"rental_uris":{"android":"levelo://app?vid=50d7fd8c-2b82-4a77-8b85-a25c0b29e49c","ios":"levelo://app?vid=50d7fd8c-2b82-4a77-8b85-a25c0b29e49c"},"vehicle_type_id":"4","last_reported":1713287182,"current_range_meters":15600,"station_id":"ce4bgl12rcd13ifvqbo0","pricing_plan_id":"cebpf4jnsgd1na2vs0mg"},{"bike_id":"017b0d27-a097-430d-94ef-11c1946b733b","system_id":"levelo_inurba_marseille","lat":43.291671,"lon":5.371575,"is_reserved":false,"is_disabled":false,"rental_uris":{"android":"levelo://app?vid=017b0d27-a097-430d-94ef-11c1946b733b","ios":"levelo://app?vid=017b0d27-a097-430d-94ef-11c1946b733b"},"vehicle_type_id":"4","last_reported":1713287182,"current_range_meters":8800,"station_id":"ce4bha92rcd13ifvqeh0","pricing_plan_id":"cebpf4jnsgd1na2vs0mg"},{"bike_id":"5bca02f8-407a-4a4a-88b6-c8be6abc1241","system_id":"levelo_inurba_marseille","lat":43.293249,"lon":5.371578,"is_reserved":false,"is_disabled":false,"rental_uris":{"android":"levelo://app?vid=5bca02f8-407a-4a4a-88b6-c8be6abc1241","ios":"levelo://app?vid=5bca02f8-407a-4a4a-88b6-c8be6abc1241"},"vehicle_type_id":"4","last_reported":1713287182,"current_range_meters":13200,"station_id":"ce4bgh92rcd13ifvqb40","pricing_plan_id":"cebpf4jnsgd1na2vs0mg"},{"bike_id":"78f21b0d-78ea-488e-ab6e-841b41184b1a","system_id":"levelo_inurba_marseille","lat":43.292749,"lon":5.368402,"is_reserved":false,"is_disabled":false,"rental_uris":{"android":"levelo://app?vid=78f21b0d-78ea-488e-ab6e-841b41184b1a","ios":"levelo://app?vid=78f21b0d-78ea-488e-ab6e-841b41184b1a"},"vehicle_type_id":"4","last_reported":1713287182,"current_range_meters":25600,"station_id":"ce4bhbp2rcd13ifvqesg","pricing_plan_id":"cebpf4jnsgd1na2vs0mg"},{"bike_id":"1475f2aa-4f7e-48a1-b7f0-af68a4f68095","system_id":"levelo_inurba_marseille","lat":43.293249,"lon":5.371578,"is_reserved":false,"is_disabled":false,"rental_uris":{"android":"levelo://app?vid=1475f2aa-4f7e-48a1-b7f0-af68a4f68095","ios":"levelo://app?vid=1475f2aa-4f7e-48a1-b7f0-af68a4f68095"},"vehicle_type_id":"4","last_reported":1713287182,"current_range_meters":0,"station_id":"ce4bgh92rcd13ifvqb40","pricing_plan_id":"cebpf4jnsgd1na2vs0mg"},{"bike_id":"49cdf94e-6010-4fef-99b7-611cca2f9c37","system_id":"levelo_inurba_marseille","lat":43.293009,"lon":5.374584,"is_reserved":false,"is_disabled":false,"rental_uris":{"android":"levelo://app?vid=49cdf94e-6010-4fef-99b7-611cca2f9c37","ios":"levelo://app?vid=49cdf94e-6010-4fef-99b7-611cca2f9c37"},"vehicle_type_id":"4","last_reported":1713287182,"current_range_meters":20400,"station_id":"ce4bgi12rcd13ifvqb70","pricing_plan_id":"cebpf4jnsgd1na2vs0mg"},{"bike_id":"f7ebd147-06a2-4381-a593-4e64dd38f622","system_id":"levelo_inurba_marseille","lat":43.3059,"lon":5.39354,"is_reserved":false,"is_disabled":false,"rental_uris":{"android":"levelo://app?vid=f7ebd147-06a2-4381-a593-4e64dd38f622","ios":"levelo://app?vid=f7ebd147-06a2-4381-a593-4e64dd38f622"},"vehicle_type_id":"4","last_reported":1713287182,"current_range_meters":0,"station_id":"ce4bh0p2rcd13ifvqd80","pricing_plan_id":"cebpf4jnsgd1na2vs0mg"},{"bike_id":"407e092f-00b8-43a5-b789-f7d4287c61a8","system_id":"levelo_inurba_marseille","lat":43.293009,"lon":5.374584,"is_reserved":false,"is_disabled":false,"rental_uris":{"android":"levelo://app?vid=407e092f-00b8-43a5-b789-f7d4287c61a8","ios":"levelo://app?vid=407e092f-00b8-43a5-b789-f7d4287c61a8"},"vehicle_type_id":"4","last_reported":1713287182,"current_range_meters":13600,"station_id":"ce4bgi12rcd13ifvqb70","pricing_plan_id":"cebpf4jnsgd1na2vs0mg"},{"bike_id":"6dbc95d5-313d-4458-99de-877d4ae9ff07","system_id":"levelo_inurba_marseille","lat":43.303002,"lon":5.392142,"is_reserved":false,"is_disabled":false,"rental_uris":{"android":"levelo://app?vid=6dbc95d5-313d-4458-99de-877d4ae9ff07","ios":"levelo://app?vid=6dbc95d5-313d-4458-99de-877d4ae9ff07"},"vehicle_type_id":"4","last_reported":1713287182,"current_range_meters":0,"station_id":"ce4bgkh2rcd13ifvqbk0","pricing_plan_id":"cebpf4jnsgd1na2vs0mg"},{"bike_id":"68937da7-78e2-4dd4-a2de-e087a6544bbf","system_id":"levelo_inurba_marseille","lat":43.293009,"lon":5.374584,"is_reserved":false,"is_disabled":false,"rental_uris":{"android":"levelo://app?vid=68937da7-78e2-4dd4-a2de-e087a6544bbf","ios":"levelo://app?vid=68937da7-78e2-4dd4-a2de-e087a6544bbf"},"vehicle_type_id":"4","last_reported":1713287182,"current_range_meters":21600,"station_id":"ce4bgi12rcd13ifvqb70","pricing_plan_id":"cebpf4jnsgd1na2vs0mg"},{"bike_id":"485f8adc-24a3-4524-af20-4a37abf160af","system_id":"levelo_inurba_marseille","lat":43.302992,"lon":5.392136,"is_reserved":false,"is_disabled":false,"rental_uris":{"android":"levelo://app?vid=485f8adc-24a3-4524-af20-4a37abf160af","ios":"levelo://app?vid=485f8adc-24a3-4524-af20-4a37abf160af"},"vehicle_type_id":"4","last_reported":1713287182,"current_range_meters":4000,"station_id":"ce4bgkh2rcd13ifvqbk0","pricing_plan_id":"cebpf4jnsgd1na2vs0mg"},{"bike_id":"b33f54f8-d75e-42a8-8c40-2240e3f7d0a6","system_id":"levelo_inurba_marseille","lat":43.2936,"lon":5.37835,"is_reserved":false,"is_disabled":false,"rental_uris":{"android":"levelo://app?vid=b33f54f8-d75e-42a8-8c40-2240e3f7d0a6","ios":"levelo://app?vid=b33f54f8-d75e-42a8-8c40-2240e3f7d0a6"},"vehicle_type_id":"4","last_reported":1713287182,"current_range_meters":2800,"station_id":"ce4bgjh2rcd13ifvqbf0","pricing_plan_id":"cebpf4jnsgd1na2vs0mg"},{"bike_id":"4a33781c-78b9-4790-93c6-06c6c15de0f1","system_id":"levelo_inurba_marseille","lat":43.300852,"lon":5.390859,"is_reserved":false,"is_disabled":false,"rental_uris":{"android":"levelo://app?vid=4a33781c-78b9-4790-93c6-06c6c15de0f1","ios":"levelo://app?vid=4a33781c-78b9-4790-93c6-06c6c15de0f1"},"vehicle_type_id":"4","last_reported":1713287182,"current_range_meters":19200,"station_id":"ce4bh192rcd13ifvqdb0","pricing_plan_id":"cebpf4jnsgd1na2vs0mg"},{"bike_id":"669a300f-08d7-41c1-8d40-f2fe9247e6d2","system_id":"levelo_inurba_marseille","lat":43.300852,"lon":5.390859,"is_reserved":false,"is_disabled":false,"rental_uris":{"android":"levelo://app?vid=669a300f-08d7-41c1-8d40-f2fe9247e6d2","ios":"levelo://app?vid=669a300f-08d7-41c1-8d40-f2fe9247e6d2"},"vehicle_type_id":"4","last_reported":1713287182,"current_range_meters":0,"station_id":"ce4bh192rcd13ifvqdb0","pricing_plan_id":"cebpf4jnsgd1na2vs0mg"},{"bike_id":"0548c08c-9719-4639-90b5-f6db78037737","system_id":"levelo_inurba_marseille","lat":43.291675,"lon":5.371583,"is_reserved":false,"is_disabled":false,"rental_uris":{"android":"levelo://app?vid=0548c08c-9719-4639-90b5-f6db78037737","ios":"levelo://app?vid=0548c08c-9719-4639-90b5-f6db78037737"},"vehicle_type_id":"4","last_reported":1713287182,"current_range_meters":15200,"station_id":"ce4bha92rcd13ifvqeh0","pricing_plan_id":"cebpf4jnsgd1na2vs0mg"},{"bike_id":"3862c677-1d28-4f63-a245-33da8b524d2f","system_id":"levelo_inurba_marseille","lat":43.291675,"lon":5.371583,"is_reserved":false,"is_disabled":false,"rental_uris":{"android":"levelo://app?vid=3862c677-1d28-4f63-a245-33da8b524d2f","ios":"levelo://app?vid=3862c677-1d28-4f63-a245-33da8b524d2f"},"vehicle_type_id":"4","last_reported":1713287182,"current_range_meters":8000,"station_id":"ce4bha92rcd13ifvqeh0","pricing_plan_id":"cebpf4jnsgd1na2vs0mg"},{"bike_id":"3512ec6f-7e08-47bc-a3ff-a7045a2924d8","system_id":"levelo_inurba_marseille","lat":43.291672,"lon":5.371642,"is_reserved":false,"is_disabled":false,"rental_uris":{"android":"levelo://app?vid=3512ec6f-7e08-47bc-a3ff-a7045a2924d8","ios":"levelo://app?vid=3512ec6f-7e08-47bc-a3ff-a7045a2924d8"},"vehicle_type_id":"4","last_reported":1713287182,"current_range_meters":0,"station_id":"ce4bha92rcd13ifvqeh0","pricing_plan_id":"cebpf4jnsgd1na2vs0mg"},{"bike_id":"e7dba532-686a-431a-a6c0-60cc36c196bb","system_id":"levelo_inurba_marseille","lat":43.296061,"lon":5.385243,"is_reserved":false,"is_disabled":false,"rental_uris":{"android":"levelo://app?vid=e7dba532-686a-431a-a6c0-60cc36c196bb","ios":"levelo://app?vid=e7dba532-686a-431a-a6c0-60cc36c196bb"},"vehicle_type_id":"4","last_reported":1713287182,"current_range_meters":5600,"station_id":"ce4bgih2rcd13ifvqba0","pricing_plan_id":"cebpf4jnsgd1na2vs0mg"},{"bike_id":"568eba65-5d7b-4564-ba53-2ec7a2b473a9","system_id":"levelo_inurba_marseille","lat":43.29162,"lon":5.37151,"is_reserved":false,"is_disabled":false,"rental_uris":{"android":"levelo://app?vid=568eba65-5d7b-4564-ba53-2ec7a2b473a9","ios":"levelo://app?vid=568eba65-5d7b-4564-ba53-2ec7a2b473a9"},"vehicle_type_id":"4","last_reported":1713287182,"current_range_meters":0,"station_id":"ce4bha92rcd13ifvqeh0","pricing_plan_id":"cebpf4jnsgd1na2vs0mg"},{"bike_id":"f5c5f58c-f921-4e3f-9a82-5246fc3d8441","system_id":"levelo_inurba_marseille","lat":43.296023,"lon":5.385441,"is_reserved":false,"is_disabled":false,"rental_uris":{"android":"levelo://app?vid=f5c5f58c-f921-4e3f-9a82-5246fc3d8441","ios":"levelo://app?vid=f5c5f58c-f921-4e3f-9a82-5246fc3d8441"},"vehicle_type_id":"4","last_reported":1713287182,"current_range_meters":2400,"station_id":"ce4bgih2rcd13ifvqba0","pricing_plan_id":"cebpf4jnsgd1na2vs0mg"},{"bike_id":"d9b7dd5d-ed29-41db-9e2d-fd47304dc2f1","system_id":"levelo_inurba_marseille","lat":43.292005,"lon":5.357875,"is_reserved":false,"is_disabled":false,"rental_uris":{"android":"levelo://app?vid=d9b7dd5d-ed29-41db-9e2d-fd47304dc2f1","ios":"levelo://app?vid=d9b7dd5d-ed29-41db-9e2d-fd47304dc2f1"},"vehicle_type_id":"4","last_reported":1713287182,"current_range_meters":9200,"station_id":"ce4bhb12rcd13ifvqel0","pricing_plan_id":"cebpf4jnsgd1na2vs0mg"},{"bike_id":"c370d2b4-aa64-4520-b678-477855a47e0e","system_id":"levelo_inurba_marseille","lat":43.292005,"lon":5.357875,"is_reserved":false,"is_disabled":false,"rental_uris":{"android":"levelo://app?vid=c370d2b4-aa64-4520-b678-477855a47e0e","ios":"levelo://app?vid=c370d2b4-aa64-4520-b678-477855a47e0e"},"vehicle_type_id":"4","last_reported":1713287182,"current_range_meters":10800,"station_id":"ce4bhb12rcd13ifvqel0","pricing_plan_id":"cebpf4jnsgd1na2vs0mg"},{"bike_id":"246ea61e-2fa9-4f62-bda9-89fb8f99df1c","system_id":"levelo_inurba_marseille","lat":43.292005,"lon":5.357875,"is_reserved":false,"is_disabled":false,"rental_uris":{"android":"levelo://app?vid=246ea61e-2fa9-4f62-bda9-89fb8f99df1c","ios":"levelo://app?vid=246ea61e-2fa9-4f62-bda9-89fb8f99df1c"},"vehicle_type_id":"4","last_reported":1713287182,"current_range_meters":2000,"station_id":"ce4bhb12rcd13ifvqel0","pricing_plan_id":"cebpf4jnsgd1na2vs0mg"},{"bike_id":"c4508430-e9bc-443d-a1bd-0c5e7276e069","system_id":"levelo_inurba_marseille","lat":43.291994,"lon":5.357886,"is_reserved":false,"is_disabled":false,"rental_uris":{"android":"levelo://app?vid=c4508430-e9bc-443d-a1bd-0c5e7276e069","ios":"levelo://app?vid=c4508430-e9bc-443d-a1bd-0c5e7276e069"},"vehicle_type_id":"4","last_reported":1713287182,"current_range_meters":22400,"station_id":"ce4bhb12rcd13ifvqel0","pricing_plan_id":"cebpf4jnsgd1na2vs0mg"},{"bike_id":"d6d9591f-6979-42e3-b341-770bf23f4070","system_id":"levelo_inurba_marseille","lat":43.282744,"lon":5.350533,"is_reserved":false,"is_disabled":false,"rental_uris":{"android":"levelo://app?vid=d6d9591f-6979-42e3-b341-770bf23f4070","ios":"levelo://app?vid=d6d9591f-6979-42e3-b341-770bf23f4070"},"vehicle_type_id":"4","last_reported":1713287182,"current_range_meters":14800,"station_id":"ce4bhbp2rcd13ifvqerg","pricing_plan_id":"cebpf4jnsgd1na2vs0mg"},{"bike_id":"559995ed-8c97-46bc-97e2-e216a15e08ad","system_id":"levelo_inurba_marseille","lat":43.313291,"lon":5.396838,"is_reserved":false,"is_disabled":false,"rental_uris":{"android":"levelo://app?vid=559995ed-8c97-46bc-97e2-e216a15e08ad","ios":"levelo://app?vid=559995ed-8c97-46bc-97e2-e216a15e08ad"},"vehicle_type_id":"4","last_reported":1713287182,"current_range_meters":2400,"station_id":"ce4bgvp2rcd13ifvqcu0","pricing_plan_id":"cebpf4jnsgd1na2vs0mg"},{"bike_id":"765f66c6-bcb1-4f01-98e7-dfbc84ca0088","system_id":"levelo_inurba_marseille","lat":43.313291,"lon":5.396838,"is_reserved":false,"is_disabled":false,"rental_uris":{"android":"levelo://app?vid=765f66c6-bcb1-4f01-98e7-dfbc84ca0088","ios":"levelo://app?vid=765f66c6-bcb1-4f01-98e7-dfbc84ca0088"},"vehicle_type_id":"4","last_reported":1713287182,"current_range_meters":4400,"station_id":"ce4bgvp2rcd13ifvqcu0","pricing_plan_id":"cebpf4jnsgd1na2vs0mg"},{"bike_id":"ad7c5ccd-6f51-4ae5-a514-fe51548b69dc","system_id":"levelo_inurba_marseille","lat":43.31323,"lon":5.39692,"is_reserved":false,"is_disabled":false,"rental_uris":{"android":"levelo://app?vid=ad7c5ccd-6f51-4ae5-a514-fe51548b69dc","ios":"levelo://app?vid=ad7c5ccd-6f51-4ae5-a514-fe51548b69dc"},"vehicle_type_id":"4","last_reported":1713287182,"current_range_meters":0,"station_id":"ce4bgvp2rcd13ifvqcu0","pricing_plan_id":"cebpf4jnsgd1na2vs0mg"},{"bike_id":"3d5a0770-561a-4820-bf72-6c4ef2042d19","system_id":"levelo_inurba_marseille","lat":43.313291,"lon":5.396838,"is_reserved":false,"is_disabled":false,"rental_uris":{"android":"levelo://app?vid=3d5a0770-561a-4820-bf72-6c4ef2042d19","ios":"levelo://app?vid=3d5a0770-561a-4820-bf72-6c4ef2042d19"},"vehicle_type_id":"4","last_reported":1713287182,"current_range_meters":31200,"station_id":"ce4bgvp2rcd13ifvqcu0","pricing_plan_id":"cebpf4jnsgd1na2vs0mg"},{"bike_id":"ee71f7a2-87af-4cd5-ad57-070771456976","system_id":"levelo_inurba_marseille","lat":43.308547,"lon":5.3964,"is_reserved":false,"is_disabled":false,"rental_uris":{"android":"levelo://app?vid=ee71f7a2-87af-4cd5-ad57-070771456976","ios":"levelo://app?vid=ee71f7a2-87af-4cd5-ad57-070771456976"},"vehicle_type_id":"4","last_reported":1713287182,"current_range_meters":8400,"station_id":"ce4bh012rcd13ifvqcv0","pricing_plan_id":"cebpf4jnsgd1na2vs0mg"},{"bike_id":"bfab6338-a2a3-458e-abd0-9b12e562d5b4","system_id":"levelo_inurba_marseille","lat":43.29543,"lon":5.38549,"is_reserved":false,"is_disabled":false,"rental_uris":{"android":"levelo://app?vid=bfab6338-a2a3-458e-abd0-9b12e562d5b4","ios":"levelo://app?vid=bfab6338-a2a3-458e-abd0-9b12e562d5b4"},"vehicle_type_id":"4","last_reported":1713287182,"current_range_meters":31200,"station_id":"","pricing_plan_id":"cebpf4jnsgd1na2vs0mg"},{"bike_id":"dac50a13-65f7-4867-92ad-921fda2567c0","system_id":"levelo_inurba_marseille","lat":43.29529,"lon":5.385581,"is_reserved":false,"is_disabled":false,"rental_uris":{"android":"levelo://app?vid=dac50a13-65f7-4867-92ad-921fda2567c0","ios":"levelo://app?vid=dac50a13-65f7-4867-92ad-921fda2567c0"},"vehicle_type_id":"4","last_reported":1713287182,"current_range_meters":31200,"station_id":"ce4bgih2rcd13ifvqba0","pricing_plan_id":"cebpf4jnsgd1na2vs0mg"},{"bike_id":"85885c08-cc4e-46bc-b64b-b85d279360ad","system_id":"levelo_inurba_marseille","lat":43.29536,"lon":5.38544,"is_reserved":false,"is_disabled":false,"rental_uris":{"android":"levelo://app?vid=85885c08-cc4e-46bc-b64b-b85d279360ad","ios":"levelo://app?vid=85885c08-cc4e-46bc-b64b-b85d279360ad"},"vehicle_type_id":"4","last_reported":1713287182,"current_range_meters":6000,"station_id":"ce4bgih2rcd13ifvqba0","pricing_plan_id":"cebpf4jnsgd1na2vs0mg"},{"bike_id":"e6edea44-13d6-4425-b5f1-9762798ac903","system_id":"levelo_inurba_marseille","lat":43.29536,"lon":5.38547,"is_reserved":false,"is_disabled":false,"rental_uris":{"android":"levelo://app?vid=e6edea44-13d6-4425-b5f1-9762798ac903","ios":"levelo://app?vid=e6edea44-13d6-4425-b5f1-9762798ac903"},"vehicle_type_id":"4","last_reported":1713287182,"current_range_meters":5600,"station_id":"ce4bgih2rcd13ifvqba0","pricing_plan_id":"cebpf4jnsgd1na2vs0mg"},{"bike_id":"354ba6bb-3b23-4360-b6a2-f473e18ece76","system_id":"levelo_inurba_marseille","lat":43.29536,"lon":5.38548,"is_reserved":false,"is_disabled":false,"rental_uris":{"android":"levelo://app?vid=354ba6bb-3b23-4360-b6a2-f473e18ece76","ios":"levelo://app?vid=354ba6bb-3b23-4360-b6a2-f473e18ece76"},"vehicle_type_id":"4","last_reported":1713287182,"current_range_meters":14400,"station_id":"ce4bgih2rcd13ifvqba0","pricing_plan_id":"cebpf4jnsgd1na2vs0mg"},{"bike_id":"f6d329a5-3f75-41d1-a08b-71ab96eb4d42","system_id":"levelo_inurba_marseille","lat":43.29534,"lon":5.3855,"is_reserved":false,"is_disabled":false,"rental_uris":{"android":"levelo://app?vid=f6d329a5-3f75-41d1-a08b-71ab96eb4d42","ios":"levelo://app?vid=f6d329a5-3f75-41d1-a08b-71ab96eb4d42"},"vehicle_type_id":"4","last_reported":1713287182,"current_range_meters":10400,"station_id":"ce4bgih2rcd13ifvqba0","pricing_plan_id":"cebpf4jnsgd1na2vs0mg"},{"bike_id":"1c5c991d-a2cf-4719-a915-82ac7717096b","system_id":"levelo_inurba_marseille","lat":43.29529,"lon":5.385581,"is_reserved":false,"is_disabled":false,"rental_uris":{"android":"levelo://app?vid=1c5c991d-a2cf-4719-a915-82ac7717096b","ios":"levelo://app?vid=1c5c991d-a2cf-4719-a915-82ac7717096b"},"vehicle_type_id":"4","last_reported":1713287182,"current_range_meters":19200,"station_id":"ce4bgih2rcd13ifvqba0","pricing_plan_id":"cebpf4jnsgd1na2vs0mg"},{"bike_id":"2737cbf7-e514-4193-bd1b-1706b055885d","system_id":"levelo_inurba_marseille","lat":43.29529,"lon":5.385581,"is_reserved":false,"is_disabled":false,"rental_uris":{"android":"levelo://app?vid=2737cbf7-e514-4193-bd1b-1706b055885d","ios":"levelo://app?vid=2737cbf7-e514-4193-bd1b-1706b055885d"},"vehicle_type_id":"4","last_reported":1713287182,"current_range_meters":8800,"station_id":"ce4bgih2rcd13ifvqba0","pricing_plan_id":"cebpf4jnsgd1na2vs0mg"},{"bike_id":"347a0965-af6f-487d-8d8f-3472f35453a2","system_id":"levelo_inurba_marseille","lat":43.2953,"lon":5.38551,"is_reserved":false,"is_disabled":false,"rental_uris":{"android":"levelo://app?vid=347a0965-af6f-487d-8d8f-3472f35453a2","ios":"levelo://app?vid=347a0965-af6f-487d-8d8f-3472f35453a2"},"vehicle_type_id":"4","last_reported":1713287182,"current_range_meters":5600,"station_id":"ce4bgih2rcd13ifvqba0","pricing_plan_id":"cebpf4jnsgd1na2vs0mg"},{"bike_id":"6513cec4-1b9d-4de8-8dcc-752aaf7e9a4b","system_id":"levelo_inurba_marseille","lat":43.290779,"lon":5.371482,"is_reserved":false,"is_disabled":false,"rental_uris":{"android":"levelo://app?vid=6513cec4-1b9d-4de8-8dcc-752aaf7e9a4b","ios":"levelo://app?vid=6513cec4-1b9d-4de8-8dcc-752aaf7e9a4b"},"vehicle_type_id":"4","last_reported":1713287182,"current_range_meters":2400,"station_id":"ce4bh5p2rcd13ifvqe4g","pricing_plan_id":"cebpf4jnsgd1na2vs0mg"},{"bike_id":"73968bd6-ad8e-4f4f-840a-26353e2be2bb","system_id":"levelo_inurba_marseille","lat":43.294985,"lon":5.385839,"is_reserved":false,"is_disabled":false,"rental_uris":{"android":"levelo://app?vid=73968bd6-ad8e-4f4f-840a-26353e2be2bb","ios":"levelo://app?vid=73968bd6-ad8e-4f4f-840a-26353e2be2bb"},"vehicle_type_id":"4","last_reported":1713287182,"current_range_meters":0,"station_id":"ce4bh2h2rcd13ifvqdh0","pricing_plan_id":"cebpf4jnsgd1na2vs0mg"},{"bike_id":"ae736bdd-74e9-4e8e-bd83-c3778c1e77f1","system_id":"levelo_inurba_marseille","lat":43.290779,"lon":5.371482,"is_reserved":false,"is_disabled":false,"rental_uris":{"android":"levelo://app?vid=ae736bdd-74e9-4e8e-bd83-c3778c1e77f1","ios":"levelo://app?vid=ae736bdd-74e9-4e8e-bd83-c3778c1e77f1"},"vehicle_type_id":"4","last_reported":1713287182,"current_range_meters":4400,"station_id":"ce4bh5p2rcd13ifvqe4g","pricing_plan_id":"cebpf4jnsgd1na2vs0mg"},{"bike_id":"c9a0f30f-36e4-469a-91ff-cb0f5f85ecb4","system_id":"levelo_inurba_marseille","lat":43.290779,"lon":5.371482,"is_reserved":false,"is_disabled":false,"rental_uris":{"android":"levelo://app?vid=c9a0f30f-36e4-469a-91ff-cb0f5f85ecb4","ios":"levelo://app?vid=c9a0f30f-36e4-469a-91ff-cb0f5f85ecb4"},"vehicle_type_id":"4","last_reported":1713287182,"current_range_meters":19200,"station_id":"ce4bh5p2rcd13ifvqe4g","pricing_plan_id":"cebpf4jnsgd1na2vs0mg"},{"bike_id":"725abb7d-6319-4ab3-ba55-c3e9aab786a0","system_id":"levelo_inurba_marseille","lat":43.302008,"lon":5.394694,"is_reserved":false,"is_disabled":false,"rental_uris":{"android":"levelo://app?vid=725abb7d-6319-4ab3-ba55-c3e9aab786a0","ios":"levelo://app?vid=725abb7d-6319-4ab3-ba55-c3e9aab786a0"},"vehicle_type_id":"4","last_reported":1713287182,"current_range_meters":14800,"station_id":"ce4bh0p2rcd13ifvqd70","pricing_plan_id":"cebpf4jnsgd1na2vs0mg"},{"bike_id":"d4328617-afb1-4e87-9158-a6c3469f391b","system_id":"levelo_inurba_marseille","lat":43.290327,"lon":5.375711,"is_reserved":false,"is_disabled":false,"rental_uris":{"android":"levelo://app?vid=d4328617-afb1-4e87-9158-a6c3469f391b","ios":"levelo://app?vid=d4328617-afb1-4e87-9158-a6c3469f391b"},"vehicle_type_id":"4","last_reported":1713287182,"current_range_meters":6800,"station_id":"ce4bh692rcd13ifvqe90","pricing_plan_id":"cebpf4jnsgd1na2vs0mg"},{"bike_id":"aed9a534-8708-441f-af6d-4037f284a16e","system_id":"levelo_inurba_marseille","lat":43.294153,"lon":5.386305,"is_reserved":false,"is_disabled":false,"rental_uris":{"android":"levelo://app?vid=aed9a534-8708-441f-af6d-4037f284a16e","ios":"levelo://app?vid=aed9a534-8708-441f-af6d-4037f284a16e"},"vehicle_type_id":"4","last_reported":1713287182,"current_range_meters":12400,"station_id":"ce4bh2h2rcd13ifvqdh0","pricing_plan_id":"cebpf4jnsgd1na2vs0mg"},{"bike_id":"d2de7b26-aa9d-4137-bc4b-e0602c397e6a","system_id":"levelo_inurba_marseille","lat":43.294153,"lon":5.386305,"is_reserved":false,"is_disabled":false,"rental_uris":{"android":"levelo://app?vid=d2de7b26-aa9d-4137-bc4b-e0602c397e6a","ios":"levelo://app?vid=d2de7b26-aa9d-4137-bc4b-e0602c397e6a"},"vehicle_type_id":"4","last_reported":1713287182,"current_range_meters":16800,"station_id":"ce4bh2h2rcd13ifvqdh0","pricing_plan_id":"cebpf4jnsgd1na2vs0mg"},{"bike_id":"929d4cc3-6479-4300-82f5-b3a57f61dbda","system_id":"levelo_inurba_marseille","lat":43.294153,"lon":5.386305,"is_reserved":false,"is_disabled":false,"rental_uris":{"android":"levelo://app?vid=929d4cc3-6479-4300-82f5-b3a57f61dbda","ios":"levelo://app?vid=929d4cc3-6479-4300-82f5-b3a57f61dbda"},"vehicle_type_id":"4","last_reported":1713287182,"current_range_meters":16800,"station_id":"ce4bh2h2rcd13ifvqdh0","pricing_plan_id":"cebpf4jnsgd1na2vs0mg"},{"bike_id":"0d4ae510-e36a-4be6-9076-912ec524aee7","system_id":"levelo_inurba_marseille","lat":43.294153,"lon":5.386305,"is_reserved":false,"is_disabled":false,"rental_uris":{"android":"levelo://app?vid=0d4ae510-e36a-4be6-9076-912ec524aee7","ios":"levelo://app?vid=0d4ae510-e36a-4be6-9076-912ec524aee7"},"vehicle_type_id":"4","last_reported":1713287182,"current_range_meters":14400,"station_id":"ce4bh2h2rcd13ifvqdh0","pricing_plan_id":"cebpf4jnsgd1na2vs0mg"},{"bike_id":"fed9a23d-2caf-4c11-8e69-b0e4c935c58f","system_id":"levelo_inurba_marseille","lat":43.294153,"lon":5.386305,"is_reserved":false,"is_disabled":false,"rental_uris":{"android":"levelo://app?vid=fed9a23d-2caf-4c11-8e69-b0e4c935c58f","ios":"levelo://app?vid=fed9a23d-2caf-4c11-8e69-b0e4c935c58f"},"vehicle_type_id":"4","last_reported":1713287182,"current_range_meters":25600,"station_id":"ce4bh2h2rcd13ifvqdh0","pricing_plan_id":"cebpf4jnsgd1na2vs0mg"},{"bike_id":"3de5b745-d4ac-40fc-b745-6a4be65c36e8","system_id":"levelo_inurba_marseille","lat":43.294153,"lon":5.386305,"is_reserved":false,"is_disabled":false,"rental_uris":{"android":"levelo://app?vid=3de5b745-d4ac-40fc-b745-6a4be65c36e8","ios":"levelo://app?vid=3de5b745-d4ac-40fc-b745-6a4be65c36e8"},"vehicle_type_id":"4","last_reported":1713287182,"current_range_meters":27600,"station_id":"ce4bh2h2rcd13ifvqdh0","pricing_plan_id":"cebpf4jnsgd1na2vs0mg"},{"bike_id":"176d9d79-042e-4c9e-9fd9-83774f257c5a","system_id":"levelo_inurba_marseille","lat":43.294153,"lon":5.386305,"is_reserved":false,"is_disabled":false,"rental_uris":{"android":"levelo://app?vid=176d9d79-042e-4c9e-9fd9-83774f257c5a","ios":"levelo://app?vid=176d9d79-042e-4c9e-9fd9-83774f257c5a"},"vehicle_type_id":"4","last_reported":1713287182,"current_range_meters":22400,"station_id":"ce4bh2h2rcd13ifvqdh0","pricing_plan_id":"cebpf4jnsgd1na2vs0mg"},{"bike_id":"d626b685-1044-4b73-8618-e3136ee9cb73","system_id":"levelo_inurba_marseille","lat":43.290319,"lon":5.375732,"is_reserved":false,"is_disabled":false,"rental_uris":{"android":"levelo://app?vid=d626b685-1044-4b73-8618-e3136ee9cb73","ios":"levelo://app?vid=d626b685-1044-4b73-8618-e3136ee9cb73"},"vehicle_type_id":"4","last_reported":1713287182,"current_range_meters":10000,"station_id":"ce4bh692rcd13ifvqe90","pricing_plan_id":"cebpf4jnsgd1na2vs0mg"},{"bike_id":"2f53936a-e3c5-4ef4-8da1-260d4f996638","system_id":"levelo_inurba_marseille","lat":43.294153,"lon":5.386305,"is_reserved":false,"is_disabled":false,"rental_uris":{"android":"levelo://app?vid=2f53936a-e3c5-4ef4-8da1-260d4f996638","ios":"levelo://app?vid=2f53936a-e3c5-4ef4-8da1-260d4f996638"},"vehicle_type_id":"4","last_reported":1713287182,"current_range_meters":9200,"station_id":"ce4bh2h2rcd13ifvqdh0","pricing_plan_id":"cebpf4jnsgd1na2vs0mg"},{"bike_id":"a22e97a3-487f-4c5e-8345-ecb2f9d66f14","system_id":"levelo_inurba_marseille","lat":43.29421,"lon":5.38628,"is_reserved":false,"is_disabled":false,"rental_uris":{"android":"levelo://app?vid=a22e97a3-487f-4c5e-8345-ecb2f9d66f14","ios":"levelo://app?vid=a22e97a3-487f-4c5e-8345-ecb2f9d66f14"},"vehicle_type_id":"4","last_reported":1713287182,"current_range_meters":8800,"station_id":"ce4bh2h2rcd13ifvqdh0","pricing_plan_id":"cebpf4jnsgd1na2vs0mg"},{"bike_id":"96d55070-a2e4-4b4e-badf-21932f17f74c","system_id":"levelo_inurba_marseille","lat":43.29418,"lon":5.38624,"is_reserved":false,"is_disabled":false,"rental_uris":{"android":"levelo://app?vid=96d55070-a2e4-4b4e-badf-21932f17f74c","ios":"levelo://app?vid=96d55070-a2e4-4b4e-badf-21932f17f74c"},"vehicle_type_id":"4","last_reported":1713287182,"current_range_meters":4800,"station_id":"ce4bh2h2rcd13ifvqdh0","pricing_plan_id":"cebpf4jnsgd1na2vs0mg"},{"bike_id":"0b291fab-baac-44e8-9b3c-932e590a0027","system_id":"levelo_inurba_marseille","lat":43.294217,"lon":5.38633,"is_reserved":false,"is_disabled":false,"rental_uris":{"android":"levelo://app?vid=0b291fab-baac-44e8-9b3c-932e590a0027","ios":"levelo://app?vid=0b291fab-baac-44e8-9b3c-932e590a0027"},"vehicle_type_id":"4","last_reported":1713287182,"current_range_meters":0,"station_id":"ce4bh2h2rcd13ifvqdh0","pricing_plan_id":"cebpf4jnsgd1na2vs0mg"},{"bike_id":"337606db-43b1-464a-86cf-65498931c6ef","system_id":"levelo_inurba_marseille","lat":43.294153,"lon":5.386305,"is_reserved":false,"is_disabled":false,"rental_uris":{"android":"levelo://app?vid=337606db-43b1-464a-86cf-65498931c6ef","ios":"levelo://app?vid=337606db-43b1-464a-86cf-65498931c6ef"},"vehicle_type_id":"4","last_reported":1713287182,"current_range_meters":31200,"station_id":"ce4bh2h2rcd13ifvqdh0","pricing_plan_id":"cebpf4jnsgd1na2vs0mg"},{"bike_id":"709f4280-f78f-48c8-a7cb-b670d1ae6ccf","system_id":"levelo_inurba_marseille","lat":43.29415,"lon":5.38622,"is_reserved":false,"is_disabled":false,"rental_uris":{"android":"levelo://app?vid=709f4280-f78f-48c8-a7cb-b670d1ae6ccf","ios":"levelo://app?vid=709f4280-f78f-48c8-a7cb-b670d1ae6ccf"},"vehicle_type_id":"4","last_reported":1713287182,"current_range_meters":12000,"station_id":"ce4bh2h2rcd13ifvqdh0","pricing_plan_id":"cebpf4jnsgd1na2vs0mg"},{"bike_id":"0c96c5e3-6011-4fad-bcb4-925485692849","system_id":"levelo_inurba_marseille","lat":43.294153,"lon":5.386305,"is_reserved":false,"is_disabled":false,"rental_uris":{"android":"levelo://app?vid=0c96c5e3-6011-4fad-bcb4-925485692849","ios":"levelo://app?vid=0c96c5e3-6011-4fad-bcb4-925485692849"},"vehicle_type_id":"4","last_reported":1713287182,"current_range_meters":4000,"station_id":"ce4bh2h2rcd13ifvqdh0","pricing_plan_id":"cebpf4jnsgd1na2vs0mg"},{"bike_id":"93f5c67e-a415-4aa4-a7cd-817495ed76d2","system_id":"levelo_inurba_marseille","lat":43.29417,"lon":5.38626,"is_reserved":false,"is_disabled":false,"rental_uris":{"android":"levelo://app?vid=93f5c67e-a415-4aa4-a7cd-817495ed76d2","ios":"levelo://app?vid=93f5c67e-a415-4aa4-a7cd-817495ed76d2"},"vehicle_type_id":"4","last_reported":1713287182,"current_range_meters":5600,"station_id":"ce4bh2h2rcd13ifvqdh0","pricing_plan_id":"cebpf4jnsgd1na2vs0mg"},{"bike_id":"0e1681e6-db9d-4ee4-a459-a3437697f6da","system_id":"levelo_inurba_marseille","lat":43.294162,"lon":5.386292,"is_reserved":false,"is_disabled":false,"rental_uris":{"android":"levelo://app?vid=0e1681e6-db9d-4ee4-a459-a3437697f6da","ios":"levelo://app?vid=0e1681e6-db9d-4ee4-a459-a3437697f6da"},"vehicle_type_id":"4","last_reported":1713287182,"current_range_meters":26400,"station_id":"ce4bh2h2rcd13ifvqdh0","pricing_plan_id":"cebpf4jnsgd1na2vs0mg"},{"bike_id":"1001aad8-da89-4fc9-8821-e5969c079e6c","system_id":"levelo_inurba_marseille","lat":43.29418,"lon":5.38632,"is_reserved":false,"is_disabled":false,"rental_uris":{"android":"levelo://app?vid=1001aad8-da89-4fc9-8821-e5969c079e6c","ios":"levelo://app?vid=1001aad8-da89-4fc9-8821-e5969c079e6c"},"vehicle_type_id":"4","last_reported":1713287182,"current_range_meters":8800,"station_id":"ce4bh2h2rcd13ifvqdh0","pricing_plan_id":"cebpf4jnsgd1na2vs0mg"},{"bike_id":"b71d946c-86a5-48c9-924c-dd39d48be3ff","system_id":"levelo_inurba_marseille","lat":43.289184,"lon":5.366408,"is_reserved":false,"is_disabled":false,"rental_uris":{"android":"levelo://app?vid=b71d946c-86a5-48c9-924c-dd39d48be3ff","ios":"levelo://app?vid=b71d946c-86a5-48c9-924c-dd39d48be3ff"},"vehicle_type_id":"4","last_reported":1713287182,"current_range_meters":11600,"station_id":"ce4bhap2rcd13ifvqek0","pricing_plan_id":"cebpf4jnsgd1na2vs0mg"},{"bike_id":"8625fe07-6b11-4e9d-8016-693677951b39","system_id":"levelo_inurba_marseille","lat":43.28856,"lon":5.358371,"is_reserved":false,"is_disabled":false,"rental_uris":{"android":"levelo://app?vid=8625fe07-6b11-4e9d-8016-693677951b39","ios":"levelo://app?vid=8625fe07-6b11-4e9d-8016-693677951b39"},"vehicle_type_id":"4","last_reported":1713287182,"current_range_meters":4800,"station_id":"ce4bhb12rcd13ifvqem0","pricing_plan_id":"cebpf4jnsgd1na2vs0mg"},{"bike_id":"2fb30509-a16f-48c9-8d84-4b329d31a84e","system_id":"levelo_inurba_marseille","lat":43.294023,"lon":5.386133,"is_reserved":false,"is_disabled":false,"rental_uris":{"android":"levelo://app?vid=2fb30509-a16f-48c9-8d84-4b329d31a84e","ios":"levelo://app?vid=2fb30509-a16f-48c9-8d84-4b329d31a84e"},"vehicle_type_id":"4","last_reported":1713287182,"current_range_meters":4800,"station_id":"ce4bh2h2rcd13ifvqdh0","pricing_plan_id":"cebpf4jnsgd1na2vs0mg"},{"bike_id":"80013345-b1f0-4dbd-84b6-3411f5b3e8f0","system_id":"levelo_inurba_marseille","lat":43.289184,"lon":5.366408,"is_reserved":false,"is_disabled":false,"rental_uris":{"android":"levelo://app?vid=80013345-b1f0-4dbd-84b6-3411f5b3e8f0","ios":"levelo://app?vid=80013345-b1f0-4dbd-84b6-3411f5b3e8f0"},"vehicle_type_id":"4","last_reported":1713287182,"current_range_meters":0,"station_id":"ce4bhap2rcd13ifvqek0","pricing_plan_id":"cebpf4jnsgd1na2vs0mg"},{"bike_id":"d51b5b77-4551-4781-87be-4b478701de3c","system_id":"levelo_inurba_marseille","lat":43.289184,"lon":5.366408,"is_reserved":false,"is_disabled":false,"rental_uris":{"android":"levelo://app?vid=d51b5b77-4551-4781-87be-4b478701de3c","ios":"levelo://app?vid=d51b5b77-4551-4781-87be-4b478701de3c"},"vehicle_type_id":"4","last_reported":1713287182,"current_range_meters":16800,"station_id":"ce4bhap2rcd13ifvqek0","pricing_plan_id":"cebpf4jnsgd1na2vs0mg"},{"bike_id":"2fa26044-e8a3-49b0-ba65-e1a182130eb6","system_id":"levelo_inurba_marseille","lat":43.292644,"lon":5.384257,"is_reserved":false,"is_disabled":false,"rental_uris":{"android":"levelo://app?vid=2fa26044-e8a3-49b0-ba65-e1a182130eb6","ios":"levelo://app?vid=2fa26044-e8a3-49b0-ba65-e1a182130eb6"},"vehicle_type_id":"4","last_reported":1713287182,"current_range_meters":16400,"station_id":"ce4bh692rcd13ifvqea0","pricing_plan_id":"cebpf4jnsgd1na2vs0mg"},{"bike_id":"8c5f307b-8be7-4057-ac41-71bace968fbe","system_id":"levelo_inurba_marseille","lat":43.292644,"lon":5.384257,"is_reserved":false,"is_disabled":false,"rental_uris":{"android":"levelo://app?vid=8c5f307b-8be7-4057-ac41-71bace968fbe","ios":"levelo://app?vid=8c5f307b-8be7-4057-ac41-71bace968fbe"},"vehicle_type_id":"4","last_reported":1713287182,"current_range_meters":11600,"station_id":"ce4bh692rcd13ifvqea0","pricing_plan_id":"cebpf4jnsgd1na2vs0mg"},{"bike_id":"a294d87a-bdb1-4847-b34e-25cfe7a4b6df","system_id":"levelo_inurba_marseille","lat":43.292644,"lon":5.384257,"is_reserved":false,"is_disabled":false,"rental_uris":{"android":"levelo://app?vid=a294d87a-bdb1-4847-b34e-25cfe7a4b6df","ios":"levelo://app?vid=a294d87a-bdb1-4847-b34e-25cfe7a4b6df"},"vehicle_type_id":"4","last_reported":1713287182,"current_range_meters":11600,"station_id":"ce4bh692rcd13ifvqea0","pricing_plan_id":"cebpf4jnsgd1na2vs0mg"},{"bike_id":"543317d2-3d31-453d-bcc3-98f973e85068","system_id":"levelo_inurba_marseille","lat":43.310804,"lon":5.38359,"is_reserved":false,"is_disabled":false,"rental_uris":{"android":"levelo://app?vid=543317d2-3d31-453d-bcc3-98f973e85068","ios":"levelo://app?vid=543317d2-3d31-453d-bcc3-98f973e85068"},"vehicle_type_id":"4","last_reported":1713287182,"current_range_meters":12000,"station_id":"ce4bgv92rcd13ifvqcr0","pricing_plan_id":"cebpf4jnsgd1na2vs0mg"},{"bike_id":"3b93b0d1-27d5-4a50-abe6-c73c27a997a8","system_id":"levelo_inurba_marseille","lat":43.292922,"lon":5.384837,"is_reserved":false,"is_disabled":false,"rental_uris":{"android":"levelo://app?vid=3b93b0d1-27d5-4a50-abe6-c73c27a997a8","ios":"levelo://app?vid=3b93b0d1-27d5-4a50-abe6-c73c27a997a8"},"vehicle_type_id":"4","last_reported":1713287182,"current_range_meters":3600,"station_id":"","pricing_plan_id":"cebpf4jnsgd1na2vs0mg"},{"bike_id":"fda7d2ac-dbe3-4236-ba43-6249dca2579d","system_id":"levelo_inurba_marseille","lat":43.292644,"lon":5.384257,"is_reserved":false,"is_disabled":false,"rental_uris":{"android":"levelo://app?vid=fda7d2ac-dbe3-4236-ba43-6249dca2579d","ios":"levelo://app?vid=fda7d2ac-dbe3-4236-ba43-6249dca2579d"},"vehicle_type_id":"4","last_reported":1713287182,"current_range_meters":20400,"station_id":"ce4bh692rcd13ifvqea0","pricing_plan_id":"cebpf4jnsgd1na2vs0mg"},{"bike_id":"7e942e20-4169-44d9-b943-8e280edcc67e","system_id":"levelo_inurba_marseille","lat":43.304296,"lon":5.397513,"is_reserved":false,"is_disabled":false,"rental_uris":{"android":"levelo://app?vid=7e942e20-4169-44d9-b943-8e280edcc67e","ios":"levelo://app?vid=7e942e20-4169-44d9-b943-8e280edcc67e"},"vehicle_type_id":"4","last_reported":1713287182,"current_range_meters":4800,"station_id":"ce4bh092rcd13ifvqd20","pricing_plan_id":"cebpf4jnsgd1na2vs0mg"},{"bike_id":"4e15f12a-2f20-409f-836a-303c4fad265d","system_id":"levelo_inurba_marseille","lat":43.292644,"lon":5.384257,"is_reserved":false,"is_disabled":false,"rental_uris":{"android":"levelo://app?vid=4e15f12a-2f20-409f-836a-303c4fad265d","ios":"levelo://app?vid=4e15f12a-2f20-409f-836a-303c4fad265d"},"vehicle_type_id":"4","last_reported":1713287182,"current_range_meters":0,"station_id":"ce4bh692rcd13ifvqea0","pricing_plan_id":"cebpf4jnsgd1na2vs0mg"},{"bike_id":"36e13747-e082-4bc2-b9bb-184ccb9721f8","system_id":"levelo_inurba_marseille","lat":43.292644,"lon":5.384257,"is_reserved":false,"is_disabled":false,"rental_uris":{"android":"levelo://app?vid=36e13747-e082-4bc2-b9bb-184ccb9721f8","ios":"levelo://app?vid=36e13747-e082-4bc2-b9bb-184ccb9721f8"},"vehicle_type_id":"4","last_reported":1713287182,"current_range_meters":2400,"station_id":"ce4bh692rcd13ifvqea0","pricing_plan_id":"cebpf4jnsgd1na2vs0mg"},{"bike_id":"99a69c4e-f9d3-483d-9581-d1d7e11aeb26","system_id":"levelo_inurba_marseille","lat":43.2926,"lon":5.38437,"is_reserved":false,"is_disabled":false,"rental_uris":{"android":"levelo://app?vid=99a69c4e-f9d3-483d-9581-d1d7e11aeb26","ios":"levelo://app?vid=99a69c4e-f9d3-483d-9581-d1d7e11aeb26"},"vehicle_type_id":"4","last_reported":1713287182,"current_range_meters":17600,"station_id":"ce4bh692rcd13ifvqea0","pricing_plan_id":"cebpf4jnsgd1na2vs0mg"},{"bike_id":"501a09ba-c195-494f-9e2e-cc5485b9ac65","system_id":"levelo_inurba_marseille","lat":43.292576,"lon":5.384469,"is_reserved":false,"is_disabled":false,"rental_uris":{"android":"levelo://app?vid=501a09ba-c195-494f-9e2e-cc5485b9ac65","ios":"levelo://app?vid=501a09ba-c195-494f-9e2e-cc5485b9ac65"},"vehicle_type_id":"4","last_reported":1713287182,"current_range_meters":22000,"station_id":"ce4bh692rcd13ifvqea0","pricing_plan_id":"cebpf4jnsgd1na2vs0mg"},{"bike_id":"dd946d09-8a76-4b12-bf3b-e16e133aea84","system_id":"levelo_inurba_marseille","lat":43.290103,"lon":5.356114,"is_reserved":false,"is_disabled":false,"rental_uris":{"android":"levelo://app?vid=dd946d09-8a76-4b12-bf3b-e16e133aea84","ios":"levelo://app?vid=dd946d09-8a76-4b12-bf3b-e16e133aea84"},"vehicle_type_id":"4","last_reported":1713287182,"current_range_meters":0,"station_id":"ce4bhb92rcd13ifvqen0","pricing_plan_id":"cebpf4jnsgd1na2vs0mg"},{"bike_id":"3156aa4b-0021-4311-b9c7-cb3ae085f43a","system_id":"levelo_inurba_marseille","lat":43.231919,"lon":5.355532,"is_reserved":false,"is_disabled":false,"rental_uris":{"android":"levelo://app?vid=3156aa4b-0021-4311-b9c7-cb3ae085f43a","ios":"levelo://app?vid=3156aa4b-0021-4311-b9c7-cb3ae085f43a"},"vehicle_type_id":"4","last_reported":1713287182,"current_range_meters":19600,"station_id":"ce4bhu92rcd13ifvqi70","pricing_plan_id":"cebpf4jnsgd1na2vs0mg"},{"bike_id":"5c806a0d-99a5-4bf2-9270-6a55c1fa0949","system_id":"levelo_inurba_marseille","lat":43.290103,"lon":5.356114,"is_reserved":false,"is_disabled":false,"rental_uris":{"android":"levelo://app?vid=5c806a0d-99a5-4bf2-9270-6a55c1fa0949","ios":"levelo://app?vid=5c806a0d-99a5-4bf2-9270-6a55c1fa0949"},"vehicle_type_id":"4","last_reported":1713287182,"current_range_meters":14000,"station_id":"ce4bhb92rcd13ifvqen0","pricing_plan_id":"cebpf4jnsgd1na2vs0mg"},{"bike_id":"cdeb3183-8933-4468-9060-9226128514ed","system_id":"levelo_inurba_marseille","lat":43.290103,"lon":5.356114,"is_reserved":false,"is_disabled":false,"rental_uris":{"android":"levelo://app?vid=cdeb3183-8933-4468-9060-9226128514ed","ios":"levelo://app?vid=cdeb3183-8933-4468-9060-9226128514ed"},"vehicle_type_id":"4","last_reported":1713287182,"current_range_meters":9600,"station_id":"ce4bhb92rcd13ifvqen0","pricing_plan_id":"cebpf4jnsgd1na2vs0mg"},{"bike_id":"09925257-3da4-4893-b7d0-15d9f5038a6f","system_id":"levelo_inurba_marseille","lat":43.290103,"lon":5.356114,"is_reserved":false,"is_disabled":false,"rental_uris":{"android":"levelo://app?vid=09925257-3da4-4893-b7d0-15d9f5038a6f","ios":"levelo://app?vid=09925257-3da4-4893-b7d0-15d9f5038a6f"},"vehicle_type_id":"4","last_reported":1713287182,"current_range_meters":22800,"station_id":"ce4bhb92rcd13ifvqen0","pricing_plan_id":"cebpf4jnsgd1na2vs0mg"},{"bike_id":"bd23cd36-85df-44ba-9e13-a60cd7628052","system_id":"levelo_inurba_marseille","lat":43.290103,"lon":5.356114,"is_reserved":false,"is_disabled":false,"rental_uris":{"android":"levelo://app?vid=bd23cd36-85df-44ba-9e13-a60cd7628052","ios":"levelo://app?vid=bd23cd36-85df-44ba-9e13-a60cd7628052"},"vehicle_type_id":"4","last_reported":1713287182,"current_range_meters":0,"station_id":"ce4bhb92rcd13ifvqen0","pricing_plan_id":"cebpf4jnsgd1na2vs0mg"},{"bike_id":"c9cb188a-fb45-4779-b9bf-652d57e01f74","system_id":"levelo_inurba_marseille","lat":43.290995,"lon":5.381361,"is_reserved":false,"is_disabled":false,"rental_uris":{"android":"levelo://app?vid=c9cb188a-fb45-4779-b9bf-652d57e01f74","ios":"levelo://app?vid=c9cb188a-fb45-4779-b9bf-652d57e01f74"},"vehicle_type_id":"4","last_reported":1713287182,"current_range_meters":2000,"station_id":"ce4bh512rcd13ifvqe2g","pricing_plan_id":"cebpf4jnsgd1na2vs0mg"},{"bike_id":"08836dc0-6fd0-4245-9e0f-4c121ecb628a","system_id":"levelo_inurba_marseille","lat":43.290995,"lon":5.381361,"is_reserved":false,"is_disabled":false,"rental_uris":{"android":"levelo://app?vid=08836dc0-6fd0-4245-9e0f-4c121ecb628a","ios":"levelo://app?vid=08836dc0-6fd0-4245-9e0f-4c121ecb628a"},"vehicle_type_id":"4","last_reported":1713287182,"current_range_meters":22400,"station_id":"ce4bh512rcd13ifvqe2g","pricing_plan_id":"cebpf4jnsgd1na2vs0mg"},{"bike_id":"417dae9e-2c3c-4554-a11d-acd0cba2ad16","system_id":"levelo_inurba_marseille","lat":43.290995,"lon":5.381361,"is_reserved":false,"is_disabled":false,"rental_uris":{"android":"levelo://app?vid=417dae9e-2c3c-4554-a11d-acd0cba2ad16","ios":"levelo://app?vid=417dae9e-2c3c-4554-a11d-acd0cba2ad16"},"vehicle_type_id":"4","last_reported":1713287182,"current_range_meters":27200,"station_id":"ce4bh512rcd13ifvqe2g","pricing_plan_id":"cebpf4jnsgd1na2vs0mg"},{"bike_id":"c0ab2f4c-268f-44d3-a072-b8947354101d","system_id":"levelo_inurba_marseille","lat":43.290995,"lon":5.381361,"is_reserved":false,"is_disabled":false,"rental_uris":{"android":"levelo://app?vid=c0ab2f4c-268f-44d3-a072-b8947354101d","ios":"levelo://app?vid=c0ab2f4c-268f-44d3-a072-b8947354101d"},"vehicle_type_id":"4","last_reported":1713287182,"current_range_meters":27200,"station_id":"ce4bh512rcd13ifvqe2g","pricing_plan_id":"cebpf4jnsgd1na2vs0mg"},{"bike_id":"e1b52f79-15cf-435a-916f-cd6560ad8dd6","system_id":"levelo_inurba_marseille","lat":43.29786,"lon":5.39337,"is_reserved":false,"is_disabled":false,"rental_uris":{"android":"levelo://app?vid=e1b52f79-15cf-435a-916f-cd6560ad8dd6","ios":"levelo://app?vid=e1b52f79-15cf-435a-916f-cd6560ad8dd6"},