{"last_updated":1770409287,"ttl":60,"version":"2.2","data":{"bikes":[{"bike_id":"eac014d6-859c-46f4-9485-759e6bcc96f3","system_id":"levelo_inurba_marseille","lat":43.32108,"lon":5.36769,"is_reserved":false,"is_disabled":false,"rental_uris":{"android":"levelo://app?vid=eac014d6-859c-46f4-9485-759e6bcc96f3","ios":"levelo://app?vid=eac014d6-859c-46f4-9485-759e6bcc96f3"},"vehicle_type_id":"4","last_reported":1770409288,"current_range_meters":2800,"station_id":"ce4bhrh2rcd13ifvqhug","pricing_plan_id":"cebpf4jnsgd1na2vs0mg"},{"bike_id":"49bc0ac4-ec4c-46b4-bcba-c5b87d948aa1","system_id":"levelo_inurba_marseille","lat":43.23969,"lon":5.36644,"is_reserved":false,"is_disabled":false,"rental_uris":{"android":"levelo://app?vid=49bc0ac4-ec4c-46b4-bcba-c5b87d948aa1","ios":"levelo://app?vid=49bc0ac4-ec4c-46b4-bcba-c5b87d948aa1"},"vehicle_type_id":"4","last_reported":1770409288,"current_range_meters":2800,"station_id":"ce4bhi12rcd13ifvqfp0","pricing_plan_id":"cebpf4jnsgd1na2vs0mg"},{"bike_id":"e384d104-aadd-4ada-ac2a-a5e1f7cc9954","system_id":"levelo_inurba_marseille","lat":43.26561,"lon":5.37294,"is_reserved":false,"is_disabled":false,"rental_uris":{"android":"levelo://app?vid=e384d104-aadd-4ada-ac2a-a5e1f7cc9954","ios":"levelo://app?vid=e384d104-aadd-4ada-ac2a-a5e1f7cc9954"},"vehicle_type_id":"4","last_reported":1770409288,"current_range_meters":2800,"station_id":"ce4bhg12rcd13ifvqf70","pricing_plan_id":"cebpf4jnsgd1na2vs0mg"},{"bike_id":"f97cfa03-c4f4-43fd-ac7e-e8695c9c7516","system_id":"levelo_inurba_marseille","lat":43.25568,"lon":5.38255,"is_reserved":false,"is_disabled":false,"rental_uris":{"android":"levelo://app?vid=f97cfa03-c4f4-43fd-ac7e-e8695c9c7516","ios":"levelo://app?vid=f97cfa03-c4f4-43fd-ac7e-e8695c9c7516"},"vehicle_type_id":"4","last_reported":1770409288,"current_range_meters":2800,"station_id":"ce4bhih2rcd13ifvqfs0","pricing_plan_id":"cebpf4jnsgd1na2vs0mg"},{"bike_id":"4ee730ce-34fe-4aba-9304-7d3726087afa","system_id":"levelo_inurba_marseille","lat":43.2623,"lon":5.40452,"is_reserved":false,"is_disabled":false,"rental_uris":{"android":"levelo://app?vid=4ee730ce-34fe-4aba-9304-7d3726087afa","ios":"levelo://app?vid=4ee730ce-34fe-4aba-9304-7d3726087afa"},"vehicle_type_id":"4","last_reported":1770409288,"current_range_meters":2800,"station_id":"ce4bhmh2rcd13ifvqgmg","pricing_plan_id":"cebpf4jnsgd1na2vs0mg"},{"bike_id":"781e1f2b-216b-4a33-a449-1c92a71caeff","system_id":"levelo_inurba_marseille","lat":43.270641,"lon":5.42294,"is_reserved":false,"is_disabled":false,"rental_uris":{"android":"levelo://app?vid=781e1f2b-216b-4a33-a449-1c92a71caeff","ios":"levelo://app?vid=781e1f2b-216b-4a33-a449-1c92a71caeff"},"vehicle_type_id":"4","last_reported":1770409288,"current_range_meters":2800,"station_id":"ce4bhk92rcd13ifvqgb0","pricing_plan_id":"cebpf4jnsgd1na2vs0mg"},{"bike_id":"608f3b21-b8ce-4eb6-be9d-dcd529e156eb","system_id":"levelo_inurba_marseille","lat":43.262326,"lon":5.402678,"is_reserved":false,"is_disabled":false,"rental_uris":{"android":"levelo://app?vid=608f3b21-b8ce-4eb6-be9d-dcd529e156eb","ios":"levelo://app?vid=608f3b21-b8ce-4eb6-be9d-dcd529e156eb"},"vehicle_type_id":"4","last_reported":1770409288,"current_range_meters":2800,"station_id":"ce4bho92rcd13ifvqh4g","pricing_plan_id":"cebpf4jnsgd1na2vs0mg"},{"bike_id":"b9bf8ecd-e2db-4fb0-8706-95d5207809e0","system_id":"levelo_inurba_marseille","lat":43.24659,"lon":5.38168,"is_reserved":false,"is_disabled":true,"rental_uris":{"android":"levelo://app?vid=b9bf8ecd-e2db-4fb0-8706-95d5207809e0","ios":"levelo://app?vid=b9bf8ecd-e2db-4fb0-8706-95d5207809e0"},"vehicle_type_id":"4","last_reported":1770409288,"current_range_meters":2800,"station_id":"ce4bhih2rcd13ifvqfr0","pricing_plan_id":"cebpf4jnsgd1na2vs0mg"},{"bike_id":"0d85fd5a-75c6-45d0-a6d2-6dfb04229aea","system_id":"levelo_inurba_marseille","lat":43.30399,"lon":5.40857,"is_reserved":false,"is_disabled":false,"rental_uris":{"android":"levelo://app?vid=0d85fd5a-75c6-45d0-a6d2-6dfb04229aea","ios":"levelo://app?vid=0d85fd5a-75c6-45d0-a6d2-6dfb04229aea"},"vehicle_type_id":"4","last_reported":1770409288,"current_range_meters":2800,"station_id":"","pricing_plan_id":"cebpf4jnsgd1na2vs0mg"},{"bike_id":"03414a6d-caa9-4966-8ffd-1cbcbc02f0d6","system_id":"levelo_inurba_marseille","lat":43.24388,"lon":5.37056,"is_reserved":false,"is_disabled":false,"rental_uris":{"android":"levelo://app?vid=03414a6d-caa9-4966-8ffd-1cbcbc02f0d6","ios":"levelo://app?vid=03414a6d-caa9-4966-8ffd-1cbcbc02f0d6"},"vehicle_type_id":"4","last_reported":1770409288,"current_range_meters":2800,"station_id":"ce4bhhh2rcd13ifvqfk0","pricing_plan_id":"cebpf4jnsgd1na2vs0mg"},{"bike_id":"babbfc05-62c2-4a3e-8e9f-ad7bdd785274","system_id":"levelo_inurba_marseille","lat":43.27989,"lon":5.40013,"is_reserved":false,"is_disabled":false,"rental_uris":{"android":"levelo://app?vid=babbfc05-62c2-4a3e-8e9f-ad7bdd785274","ios":"levelo://app?vid=babbfc05-62c2-4a3e-8e9f-ad7bdd785274"},"vehicle_type_id":"4","last_reported":1770409288,"current_range_meters":2800,"station_id":"ce4bho92rcd13ifvqh4g","pricing_plan_id":"cebpf4jnsgd1na2vs0mg"},{"bike_id":"2edf723b-1a4a-4658-b591-c08b9bc2fcda","system_id":"levelo_inurba_marseille","lat":43.29609,"lon":5.38101,"is_reserved":false,"is_disabled":false,"rental_uris":{"android":"levelo://app?vid=2edf723b-1a4a-4658-b591-c08b9bc2fcda","ios":"levelo://app?vid=2edf723b-1a4a-4658-b591-c08b9bc2fcda"},"vehicle_type_id":"4","last_reported":1770409288,"current_range_meters":2800,"station_id":"ce4bgl12rcd13ifvqbo0","pricing_plan_id":"cebpf4jnsgd1na2vs0mg"},{"bike_id":"5309610c-bf76-4542-a232-389bbf17cbff","system_id":"levelo_inurba_marseille","lat":43.33529,"lon":5.37453,"is_reserved":false,"is_disabled":false,"rental_uris":{"android":"levelo://app?vid=5309610c-bf76-4542-a232-389bbf17cbff","ios":"levelo://app?vid=5309610c-bf76-4542-a232-389bbf17cbff"},"vehicle_type_id":"4","last_reported":1770409288,"current_range_meters":3200,"station_id":"st_d46tts09ee8s73dlu43g","pricing_plan_id":"cebpf4jnsgd1na2vs0mg"},{"bike_id":"08b81627-17bb-4518-ae0d-99ba34f6ff59","system_id":"levelo_inurba_marseille","lat":43.31046,"lon":5.37157,"is_reserved":false,"is_disabled":false,"rental_uris":{"android":"levelo://app?vid=08b81627-17bb-4518-ae0d-99ba34f6ff59","ios":"levelo://app?vid=08b81627-17bb-4518-ae0d-99ba34f6ff59"},"vehicle_type_id":"4","last_reported":1770409288,"current_range_meters":3200,"station_id":"st_d4kl2rp97mjs73e7tdfg","pricing_plan_id":"cebpf4jnsgd1na2vs0mg"},{"bike_id":"e53d8d96-0624-4b8d-b728-3234230e2672","system_id":"levelo_inurba_marseille","lat":43.28449,"lon":5.39205,"is_reserved":false,"is_disabled":false,"rental_uris":{"android":"levelo://app?vid=e53d8d96-0624-4b8d-b728-3234230e2672","ios":"levelo://app?vid=e53d8d96-0624-4b8d-b728-3234230e2672"},"vehicle_type_id":"4","last_reported":1770409288,"current_range_meters":3200,"station_id":"ce4bhoh2rcd13ifvqh5g","pricing_plan_id":"cebpf4jnsgd1na2vs0mg"},{"bike_id":"58c659e7-05d3-46a2-9255-27ef09abaeb3","system_id":"levelo_inurba_marseille","lat":43.26551,"lon":5.37376,"is_reserved":false,"is_disabled":false,"rental_uris":{"android":"levelo://app?vid=58c659e7-05d3-46a2-9255-27ef09abaeb3","ios":"levelo://app?vid=58c659e7-05d3-46a2-9255-27ef09abaeb3"},"vehicle_type_id":"4","last_reported":1770409288,"current_range_meters":3200,"station_id":"ce4bhg12rcd13ifvqf70","pricing_plan_id":"cebpf4jnsgd1na2vs0mg"},{"bike_id":"fee0750a-8d27-43e0-94f7-17675fd554cc","system_id":"levelo_inurba_marseille","lat":43.23188,"lon":5.35567,"is_reserved":false,"is_disabled":false,"rental_uris":{"android":"levelo://app?vid=fee0750a-8d27-43e0-94f7-17675fd554cc","ios":"levelo://app?vid=fee0750a-8d27-43e0-94f7-17675fd554cc"},"vehicle_type_id":"4","last_reported":1770409288,"current_range_meters":3200,"station_id":"ce4bhu92rcd13ifvqi70","pricing_plan_id":"cebpf4jnsgd1na2vs0mg"},{"bike_id":"ef150946-91e0-4667-84ac-20e50c81e3c9","system_id":"levelo_inurba_marseille","lat":43.29039,"lon":5.38654,"is_reserved":false,"is_disabled":false,"rental_uris":{"android":"levelo://app?vid=ef150946-91e0-4667-84ac-20e50c81e3c9","ios":"levelo://app?vid=ef150946-91e0-4667-84ac-20e50c81e3c9"},"vehicle_type_id":"4","last_reported":1770409288,"current_range_meters":3200,"station_id":"ce4bh4p2rcd13ifvqe0g","pricing_plan_id":"cebpf4jnsgd1na2vs0mg"},{"bike_id":"24e18bc3-60f4-4f22-8411-08ca6d2228f2","system_id":"levelo_inurba_marseille","lat":43.30568,"lon":5.36558,"is_reserved":false,"is_disabled":true,"rental_uris":{"android":"levelo://app?vid=24e18bc3-60f4-4f22-8411-08ca6d2228f2","ios":"levelo://app?vid=24e18bc3-60f4-4f22-8411-08ca6d2228f2"},"vehicle_type_id":"4","last_reported":1770409288,"current_range_meters":3600,"station_id":"ce4bgs12rcd13ifvqcag","pricing_plan_id":"cebpf4jnsgd1na2vs0mg"},{"bike_id":"bf716aa5-5db6-4f44-aa24-9167a51e58ca","system_id":"levelo_inurba_marseille","lat":43.31716,"lon":5.4241,"is_reserved":false,"is_disabled":false,"rental_uris":{"android":"levelo://app?vid=bf716aa5-5db6-4f44-aa24-9167a51e58ca","ios":"levelo://app?vid=bf716aa5-5db6-4f44-aa24-9167a51e58ca"},"vehicle_type_id":"4","last_reported":1770409288,"current_range_meters":3600,"station_id":"ce4bhp92rcd13ifvqhbg","pricing_plan_id":"cebpf4jnsgd1na2vs0mg"},{"bike_id":"33b2027f-e695-4d46-8701-c84ef1f437b5","system_id":"levelo_inurba_marseille","lat":43.27923,"lon":5.40136,"is_reserved":false,"is_disabled":false,"rental_uris":{"android":"levelo://app?vid=33b2027f-e695-4d46-8701-c84ef1f437b5","ios":"levelo://app?vid=33b2027f-e695-4d46-8701-c84ef1f437b5"},"vehicle_type_id":"4","last_reported":1770409288,"current_range_meters":3600,"station_id":"","pricing_plan_id":"cebpf4jnsgd1na2vs0mg"},{"bike_id":"b54f4aa0-6a29-43a8-b1f7-d70dbfeab1cf","system_id":"levelo_inurba_marseille","lat":43.28422,"lon":5.37522,"is_reserved":false,"is_disabled":false,"rental_uris":{"android":"levelo://app?vid=b54f4aa0-6a29-43a8-b1f7-d70dbfeab1cf","ios":"levelo://app?vid=b54f4aa0-6a29-43a8-b1f7-d70dbfeab1cf"},"vehicle_type_id":"4","last_reported":1770409288,"current_range_meters":3600,"station_id":"ce4bh412rcd13ifvqds0","pricing_plan_id":"cebpf4jnsgd1na2vs0mg"},{"bike_id":"da97b8f0-6316-49f1-9fdc-5a24c63e2ac4","system_id":"levelo_inurba_marseille","lat":43.29524,"lon":5.39039,"is_reserved":false,"is_disabled":false,"rental_uris":{"android":"levelo://app?vid=da97b8f0-6316-49f1-9fdc-5a24c63e2ac4","ios":"levelo://app?vid=da97b8f0-6316-49f1-9fdc-5a24c63e2ac4"},"vehicle_type_id":"4","last_reported":1770409288,"current_range_meters":3600,"station_id":"ce4bh3p2rcd13ifvqdp0","pricing_plan_id":"cebpf4jnsgd1na2vs0mg"},{"bike_id":"7a9437dc-9620-4e4d-ac55-f97780f81760","system_id":"levelo_inurba_marseille","lat":43.24809,"lon":5.37457,"is_reserved":false,"is_disabled":false,"rental_uris":{"android":"levelo://app?vid=7a9437dc-9620-4e4d-ac55-f97780f81760","ios":"levelo://app?vid=7a9437dc-9620-4e4d-ac55-f97780f81760"},"vehicle_type_id":"4","last_reported":1770409288,"current_range_meters":3600,"station_id":"ce4bhgh2rcd13ifvqfb0","pricing_plan_id":"cebpf4jnsgd1na2vs0mg"},{"bike_id":"aca6ea62-6cf8-4e32-a797-d9da48e9af3e","system_id":"levelo_inurba_marseille","lat":43.27995,"lon":5.4002,"is_reserved":false,"is_disabled":false,"rental_uris":{"android":"levelo://app?vid=aca6ea62-6cf8-4e32-a797-d9da48e9af3e","ios":"levelo://app?vid=aca6ea62-6cf8-4e32-a797-d9da48e9af3e"},"vehicle_type_id":"4","last_reported":1770409288,"current_range_meters":3600,"station_id":"ce4bho92rcd13ifvqh4g","pricing_plan_id":"cebpf4jnsgd1na2vs0mg"},{"bike_id":"94414b17-941a-4edc-9406-25c505562420","system_id":"levelo_inurba_marseille","lat":43.255488,"lon":5.37642,"is_reserved":false,"is_disabled":false,"rental_uris":{"android":"levelo://app?vid=94414b17-941a-4edc-9406-25c505562420","ios":"levelo://app?vid=94414b17-941a-4edc-9406-25c505562420"},"vehicle_type_id":"4","last_reported":1770409288,"current_range_meters":3600,"station_id":"ce4bhh12rcd13ifvqff0","pricing_plan_id":"cebpf4jnsgd1na2vs0mg"},{"bike_id":"c5b7ac45-c773-4d99-a25b-3ae49093eb9a","system_id":"levelo_inurba_marseille","lat":43.29257,"lon":5.38447,"is_reserved":false,"is_disabled":false,"rental_uris":{"android":"levelo://app?vid=c5b7ac45-c773-4d99-a25b-3ae49093eb9a","ios":"levelo://app?vid=c5b7ac45-c773-4d99-a25b-3ae49093eb9a"},"vehicle_type_id":"4","last_reported":1770409288,"current_range_meters":3600,"station_id":"ce4bh692rcd13ifvqea0","pricing_plan_id":"cebpf4jnsgd1na2vs0mg"},{"bike_id":"5da19c60-8d18-4f89-9f34-861cb03ee1b3","system_id":"levelo_inurba_marseille","lat":43.24663,"lon":5.38152,"is_reserved":false,"is_disabled":false,"rental_uris":{"android":"levelo://app?vid=5da19c60-8d18-4f89-9f34-861cb03ee1b3","ios":"levelo://app?vid=5da19c60-8d18-4f89-9f34-861cb03ee1b3"},"vehicle_type_id":"4","last_reported":1770409288,"current_range_meters":3600,"station_id":"ce4bhih2rcd13ifvqfr0","pricing_plan_id":"cebpf4jnsgd1na2vs0mg"},{"bike_id":"0ff7d1fc-c942-4e04-bb24-6b30b880d197","system_id":"levelo_inurba_marseille","lat":43.315247,"lon":5.368653,"is_reserved":false,"is_disabled":false,"rental_uris":{"android":"levelo://app?vid=0ff7d1fc-c942-4e04-bb24-6b30b880d197","ios":"levelo://app?vid=0ff7d1fc-c942-4e04-bb24-6b30b880d197"},"vehicle_type_id":"4","last_reported":1770409288,"current_range_meters":3600,"station_id":"","pricing_plan_id":"cebpf4jnsgd1na2vs0mg"},{"bike_id":"52498792-6260-4ed1-8d0b-b1f77e2da004","system_id":"levelo_inurba_marseille","lat":43.311693,"lon":5.387175,"is_reserved":false,"is_disabled":false,"rental_uris":{"android":"levelo://app?vid=52498792-6260-4ed1-8d0b-b1f77e2da004","ios":"levelo://app?vid=52498792-6260-4ed1-8d0b-b1f77e2da004"},"vehicle_type_id":"4","last_reported":1770409288,"current_range_meters":3600,"station_id":"ce4bgv12rcd13ifvqcp0","pricing_plan_id":"cebpf4jnsgd1na2vs0mg"},{"bike_id":"4f1aa747-6e97-404b-b282-a6c8ad876638","system_id":"levelo_inurba_marseille","lat":43.29299,"lon":5.37452,"is_reserved":false,"is_disabled":false,"rental_uris":{"android":"levelo://app?vid=4f1aa747-6e97-404b-b282-a6c8ad876638","ios":"levelo://app?vid=4f1aa747-6e97-404b-b282-a6c8ad876638"},"vehicle_type_id":"4","last_reported":1770409288,"current_range_meters":4000,"station_id":"ce4bgi12rcd13ifvqb70","pricing_plan_id":"cebpf4jnsgd1na2vs0mg"},{"bike_id":"b53f497c-0cdf-42a8-ab5a-d6dc45b07b09","system_id":"levelo_inurba_marseille","lat":43.24164,"lon":5.36404,"is_reserved":false,"is_disabled":false,"rental_uris":{"android":"levelo://app?vid=b53f497c-0cdf-42a8-ab5a-d6dc45b07b09","ios":"levelo://app?vid=b53f497c-0cdf-42a8-ab5a-d6dc45b07b09"},"vehicle_type_id":"4","last_reported":1770409288,"current_range_meters":4000,"station_id":"cpo36qri1sfpv3e86is0","pricing_plan_id":"cebpf4jnsgd1na2vs0mg"},{"bike_id":"6c706595-1835-4ddf-8d94-5e35d4a0f5cb","system_id":"levelo_inurba_marseille","lat":43.31202,"lon":5.36861,"is_reserved":false,"is_disabled":false,"rental_uris":{"android":"levelo://app?vid=6c706595-1835-4ddf-8d94-5e35d4a0f5cb","ios":"levelo://app?vid=6c706595-1835-4ddf-8d94-5e35d4a0f5cb"},"vehicle_type_id":"4","last_reported":1770409288,"current_range_meters":4000,"station_id":"ce4bgl92rcd13ifvqbq0","pricing_plan_id":"cebpf4jnsgd1na2vs0mg"},{"bike_id":"94b44417-a21a-4d69-bb88-2cb88dfc3dca","system_id":"levelo_inurba_marseille","lat":43.30147,"lon":5.43126,"is_reserved":false,"is_disabled":false,"rental_uris":{"android":"levelo://app?vid=94b44417-a21a-4d69-bb88-2cb88dfc3dca","ios":"levelo://app?vid=94b44417-a21a-4d69-bb88-2cb88dfc3dca"},"vehicle_type_id":"4","last_reported":1770409288,"current_range_meters":4000,"station_id":"st_d3js3co5814s73ftftug","pricing_plan_id":"cebpf4jnsgd1na2vs0mg"},{"bike_id":"c0bcc2b4-0c21-4712-82e8-d7d1de58590b","system_id":"levelo_inurba_marseille","lat":43.26381,"lon":5.41068,"is_reserved":false,"is_disabled":true,"rental_uris":{"android":"levelo://app?vid=c0bcc2b4-0c21-4712-82e8-d7d1de58590b","ios":"levelo://app?vid=c0bcc2b4-0c21-4712-82e8-d7d1de58590b"},"vehicle_type_id":"4","last_reported":1770409288,"current_range_meters":4000,"station_id":"","pricing_plan_id":"cebpf4jnsgd1na2vs0mg"},{"bike_id":"8648d317-2471-4c72-8dd2-7c0302b6bfbe","system_id":"levelo_inurba_marseille","lat":43.269501,"lon":5.38634,"is_reserved":false,"is_disabled":false,"rental_uris":{"android":"levelo://app?vid=8648d317-2471-4c72-8dd2-7c0302b6bfbe","ios":"levelo://app?vid=8648d317-2471-4c72-8dd2-7c0302b6bfbe"},"vehicle_type_id":"4","last_reported":1770409288,"current_range_meters":4000,"station_id":"","pricing_plan_id":"cebpf4jnsgd1na2vs0mg"},{"bike_id":"2702666f-48eb-4739-bd04-66d864e30edf","system_id":"levelo_inurba_marseille","lat":43.29029,"lon":5.3755,"is_reserved":false,"is_disabled":false,"rental_uris":{"android":"levelo://app?vid=2702666f-48eb-4739-bd04-66d864e30edf","ios":"levelo://app?vid=2702666f-48eb-4739-bd04-66d864e30edf"},"vehicle_type_id":"4","last_reported":1770409288,"current_range_meters":4000,"station_id":"ce4bh692rcd13ifvqe90","pricing_plan_id":"cebpf4jnsgd1na2vs0mg"},{"bike_id":"fa7ff620-7500-4d5f-ae14-721a55fbae70","system_id":"levelo_inurba_marseille","lat":43.24659,"lon":5.38186,"is_reserved":false,"is_disabled":false,"rental_uris":{"android":"levelo://app?vid=fa7ff620-7500-4d5f-ae14-721a55fbae70","ios":"levelo://app?vid=fa7ff620-7500-4d5f-ae14-721a55fbae70"},"vehicle_type_id":"4","last_reported":1770409288,"current_range_meters":4000,"station_id":"ce4bhih2rcd13ifvqfr0","pricing_plan_id":"cebpf4jnsgd1na2vs0mg"},{"bike_id":"ed0b7b07-9c38-4fb9-bc30-93ba90939795","system_id":"levelo_inurba_marseille","lat":43.33153,"lon":5.37702,"is_reserved":false,"is_disabled":false,"rental_uris":{"android":"levelo://app?vid=ed0b7b07-9c38-4fb9-bc30-93ba90939795","ios":"levelo://app?vid=ed0b7b07-9c38-4fb9-bc30-93ba90939795"},"vehicle_type_id":"4","last_reported":1770409288,"current_range_meters":4000,"station_id":"st_d46cu089ee8s73dldbu0","pricing_plan_id":"cebpf4jnsgd1na2vs0mg"},{"bike_id":"c79d63d7-0dac-478e-9523-659b3a13c6c7","system_id":"levelo_inurba_marseille","lat":43.25723,"lon":5.41105,"is_reserved":false,"is_disabled":false,"rental_uris":{"android":"levelo://app?vid=c79d63d7-0dac-478e-9523-659b3a13c6c7","ios":"levelo://app?vid=c79d63d7-0dac-478e-9523-659b3a13c6c7"},"vehicle_type_id":"4","last_reported":1770409288,"current_range_meters":4000,"station_id":"ce4bhkp2rcd13ifvqgd0","pricing_plan_id":"cebpf4jnsgd1na2vs0mg"},{"bike_id":"be543e78-58ce-404a-a6cc-33aa07295cd3","system_id":"levelo_inurba_marseille","lat":43.243797,"lon":5.370556,"is_reserved":false,"is_disabled":false,"rental_uris":{"android":"levelo://app?vid=be543e78-58ce-404a-a6cc-33aa07295cd3","ios":"levelo://app?vid=be543e78-58ce-404a-a6cc-33aa07295cd3"},"vehicle_type_id":"4","last_reported":1770409288,"current_range_meters":4000,"station_id":"ce4bhhh2rcd13ifvqfk0","pricing_plan_id":"cebpf4jnsgd1na2vs0mg"},{"bike_id":"6d4ca5d4-54c2-49b6-929b-b75532580f5c","system_id":"levelo_inurba_marseille","lat":43.24649,"lon":5.38899,"is_reserved":false,"is_disabled":false,"rental_uris":{"android":"levelo://app?vid=6d4ca5d4-54c2-49b6-929b-b75532580f5c","ios":"levelo://app?vid=6d4ca5d4-54c2-49b6-929b-b75532580f5c"},"vehicle_type_id":"4","last_reported":1770409288,"current_range_meters":4000,"station_id":"ce4bhg12rcd13ifvqf60","pricing_plan_id":"cebpf4jnsgd1na2vs0mg"},{"bike_id":"3a5ad6bb-5967-4a43-8a3d-23934f4743ed","system_id":"levelo_inurba_marseille","lat":43.27997,"lon":5.40026,"is_reserved":false,"is_disabled":false,"rental_uris":{"android":"levelo://app?vid=3a5ad6bb-5967-4a43-8a3d-23934f4743ed","ios":"levelo://app?vid=3a5ad6bb-5967-4a43-8a3d-23934f4743ed"},"vehicle_type_id":"4","last_reported":1770409288,"current_range_meters":4400,"station_id":"ce4bho92rcd13ifvqh4g","pricing_plan_id":"cebpf4jnsgd1na2vs0mg"},{"bike_id":"e1ae38e0-9f14-4406-91cc-1b4515ca2de5","system_id":"levelo_inurba_marseille","lat":43.30869,"lon":5.39657,"is_reserved":false,"is_disabled":false,"rental_uris":{"android":"levelo://app?vid=e1ae38e0-9f14-4406-91cc-1b4515ca2de5","ios":"levelo://app?vid=e1ae38e0-9f14-4406-91cc-1b4515ca2de5"},"vehicle_type_id":"4","last_reported":1770409288,"current_range_meters":4400,"station_id":"ce4bh012rcd13ifvqcv0","pricing_plan_id":"cebpf4jnsgd1na2vs0mg"},{"bike_id":"7ce3271c-9e28-4d5e-b3b1-77311e5df5d7","system_id":"levelo_inurba_marseille","lat":43.31488,"lon":5.38089,"is_reserved":false,"is_disabled":false,"rental_uris":{"android":"levelo://app?vid=7ce3271c-9e28-4d5e-b3b1-77311e5df5d7","ios":"levelo://app?vid=7ce3271c-9e28-4d5e-b3b1-77311e5df5d7"},"vehicle_type_id":"4","last_reported":1770409288,"current_range_meters":4400,"station_id":"","pricing_plan_id":"cebpf4jnsgd1na2vs0mg"},{"bike_id":"c34fc098-6c16-44df-b605-cc6bd8adadcf","system_id":"levelo_inurba_marseille","lat":43.28695,"lon":5.38639,"is_reserved":false,"is_disabled":false,"rental_uris":{"android":"levelo://app?vid=c34fc098-6c16-44df-b605-cc6bd8adadcf","ios":"levelo://app?vid=c34fc098-6c16-44df-b605-cc6bd8adadcf"},"vehicle_type_id":"4","last_reported":1770409288,"current_range_meters":4400,"station_id":"ce4bh492rcd13ifvqdug","pricing_plan_id":"cebpf4jnsgd1na2vs0mg"},{"bike_id":"ac551100-dc22-4913-9a52-4829a5f95f35","system_id":"levelo_inurba_marseille","lat":43.28613,"lon":5.39904,"is_reserved":false,"is_disabled":true,"rental_uris":{"android":"levelo://app?vid=ac551100-dc22-4913-9a52-4829a5f95f35","ios":"levelo://app?vid=ac551100-dc22-4913-9a52-4829a5f95f35"},"vehicle_type_id":"4","last_reported":1770409288,"current_range_meters":4400,"station_id":"st_d4a7ka997mjs738ck50g","pricing_plan_id":"cebpf4jnsgd1na2vs0mg"},{"bike_id":"1b031d05-a348-403c-a9a3-d44c5c36c158","system_id":"levelo_inurba_marseille","lat":43.29797,"lon":5.38092,"is_reserved":false,"is_disabled":false,"rental_uris":{"android":"levelo://app?vid=1b031d05-a348-403c-a9a3-d44c5c36c158","ios":"levelo://app?vid=1b031d05-a348-403c-a9a3-d44c5c36c158"},"vehicle_type_id":"4","last_reported":1770409288,"current_range_meters":4400,"station_id":"ce4bgip2rcd13ifvqbb0","pricing_plan_id":"cebpf4jnsgd1na2vs0mg"},{"bike_id":"d0b82894-ec30-4aea-9a9b-1fb5ac4c6015","system_id":"levelo_inurba_marseille","lat":43.29258,"lon":5.38442,"is_reserved":false,"is_disabled":false,"rental_uris":{"android":"levelo://app?vid=d0b82894-ec30-4aea-9a9b-1fb5ac4c6015","ios":"levelo://app?vid=d0b82894-ec30-4aea-9a9b-1fb5ac4c6015"},"vehicle_type_id":"4","last_reported":1770409288,"current_range_meters":4400,"station_id":"ce4bh692rcd13ifvqea0","pricing_plan_id":"cebpf4jnsgd1na2vs0mg"},{"bike_id":"0c761b47-f97e-46a4-baf9-3e10a77fa599","system_id":"levelo_inurba_marseille","lat":43.22539,"lon":5.34835,"is_reserved":false,"is_disabled":false,"rental_uris":{"android":"levelo://app?vid=0c761b47-f97e-46a4-baf9-3e10a77fa599","ios":"levelo://app?vid=0c761b47-f97e-46a4-baf9-3e10a77fa599"},"vehicle_type_id":"4","last_reported":1770409288,"current_range_meters":4400,"station_id":"st_cvj5dfep6f1abm77gieg","pricing_plan_id":"cebpf4jnsgd1na2vs0mg"},{"bike_id":"cdc9cc60-cb6e-4f28-b40b-497ddb143770","system_id":"levelo_inurba_marseille","lat":43.30641,"lon":5.40057,"is_reserved":false,"is_disabled":false,"rental_uris":{"android":"levelo://app?vid=cdc9cc60-cb6e-4f28-b40b-497ddb143770","ios":"levelo://app?vid=cdc9cc60-cb6e-4f28-b40b-497ddb143770"},"vehicle_type_id":"4","last_reported":1770409288,"current_range_meters":4400,"station_id":"ce4bh112rcd13ifvqda0","pricing_plan_id":"cebpf4jnsgd1na2vs0mg"},{"bike_id":"ba30846a-024e-40fe-963b-1907386d9545","system_id":"levelo_inurba_marseille","lat":43.28698,"lon":5.37393,"is_reserved":false,"is_disabled":false,"rental_uris":{"android":"levelo://app?vid=ba30846a-024e-40fe-963b-1907386d9545","ios":"levelo://app?vid=ba30846a-024e-40fe-963b-1907386d9545"},"vehicle_type_id":"4","last_reported":1770409288,"current_range_meters":4400,"station_id":"ce4bh3p2rcd13ifvqdq0","pricing_plan_id":"cebpf4jnsgd1na2vs0mg"},{"bike_id":"812430a0-952a-4ba5-b41b-bd37f61e0edd","system_id":"levelo_inurba_marseille","lat":43.31167,"lon":5.38716,"is_reserved":false,"is_disabled":false,"rental_uris":{"android":"levelo://app?vid=812430a0-952a-4ba5-b41b-bd37f61e0edd","ios":"levelo://app?vid=812430a0-952a-4ba5-b41b-bd37f61e0edd"},"vehicle_type_id":"4","last_reported":1770409288,"current_range_meters":4400,"station_id":"ce4bgv12rcd13ifvqcp0","pricing_plan_id":"cebpf4jnsgd1na2vs0mg"},{"bike_id":"6e841bf6-5397-4553-8cf2-e04c1ae59db0","system_id":"levelo_inurba_marseille","lat":43.289952,"lon":5.356126,"is_reserved":false,"is_disabled":true,"rental_uris":{"android":"levelo://app?vid=6e841bf6-5397-4553-8cf2-e04c1ae59db0","ios":"levelo://app?vid=6e841bf6-5397-4553-8cf2-e04c1ae59db0"},"vehicle_type_id":"4","last_reported":1770409288,"current_range_meters":4800,"station_id":"ce4bhb92rcd13ifvqen0","pricing_plan_id":"cebpf4jnsgd1na2vs0mg"},{"bike_id":"f1bff026-bd99-4af5-9efa-17efa0f261ab","system_id":"levelo_inurba_marseille","lat":43.30533,"lon":5.36541,"is_reserved":false,"is_disabled":false,"rental_uris":{"android":"levelo://app?vid=f1bff026-bd99-4af5-9efa-17efa0f261ab","ios":"levelo://app?vid=f1bff026-bd99-4af5-9efa-17efa0f261ab"},"vehicle_type_id":"4","last_reported":1770409288,"current_range_meters":4800,"station_id":"ce4bgs12rcd13ifvqcag","pricing_plan_id":"cebpf4jnsgd1na2vs0mg"},{"bike_id":"63b5e7ff-784a-44cb-b53d-dd43a84f5930","system_id":"levelo_inurba_marseille","lat":43.24161,"lon":5.36398,"is_reserved":false,"is_disabled":false,"rental_uris":{"android":"levelo://app?vid=63b5e7ff-784a-44cb-b53d-dd43a84f5930","ios":"levelo://app?vid=63b5e7ff-784a-44cb-b53d-dd43a84f5930"},"vehicle_type_id":"4","last_reported":1770409288,"current_range_meters":4800,"station_id":"cpo36qri1sfpv3e86is0","pricing_plan_id":"cebpf4jnsgd1na2vs0mg"},{"bike_id":"736bddce-2a84-45e5-b4c6-08b82f4f0da3","system_id":"levelo_inurba_marseille","lat":43.27379,"lon":5.36268,"is_reserved":false,"is_disabled":false,"rental_uris":{"android":"levelo://app?vid=736bddce-2a84-45e5-b4c6-08b82f4f0da3","ios":"levelo://app?vid=736bddce-2a84-45e5-b4c6-08b82f4f0da3"},"vehicle_type_id":"4","last_reported":1770409288,"current_range_meters":4800,"station_id":"ce4bhbh2rcd13ifvqeo0","pricing_plan_id":"cebpf4jnsgd1na2vs0mg"},{"bike_id":"0c0204e9-2e2c-4854-9498-c261c0135345","system_id":"levelo_inurba_marseille","lat":43.23793,"lon":5.36623,"is_reserved":false,"is_disabled":false,"rental_uris":{"android":"levelo://app?vid=0c0204e9-2e2c-4854-9498-c261c0135345","ios":"levelo://app?vid=0c0204e9-2e2c-4854-9498-c261c0135345"},"vehicle_type_id":"4","last_reported":1770409288,"current_range_meters":4800,"station_id":"st_d3nk18o9ro0c73en2l3g","pricing_plan_id":"cebpf4jnsgd1na2vs0mg"},{"bike_id":"a2ae19b2-ce32-42af-bd26-bc83ae25d0aa","system_id":"levelo_inurba_marseille","lat":43.28479,"lon":5.38419,"is_reserved":false,"is_disabled":false,"rental_uris":{"android":"levelo://app?vid=a2ae19b2-ce32-42af-bd26-bc83ae25d0aa","ios":"levelo://app?vid=a2ae19b2-ce32-42af-bd26-bc83ae25d0aa"},"vehicle_type_id":"4","last_reported":1770409288,"current_range_meters":4800,"station_id":"ce4bh512rcd13ifvqe3g","pricing_plan_id":"cebpf4jnsgd1na2vs0mg"},{"bike_id":"90cd76a0-f0c8-4656-96c3-d2c3284c85e6","system_id":"levelo_inurba_marseille","lat":43.28275,"lon":5.35069,"is_reserved":false,"is_disabled":false,"rental_uris":{"android":"levelo://app?vid=90cd76a0-f0c8-4656-96c3-d2c3284c85e6","ios":"levelo://app?vid=90cd76a0-f0c8-4656-96c3-d2c3284c85e6"},"vehicle_type_id":"4","last_reported":1770409288,"current_range_meters":4800,"station_id":"ce4bhbp2rcd13ifvqerg","pricing_plan_id":"cebpf4jnsgd1na2vs0mg"},{"bike_id":"2a0c1dc7-44c8-4dc5-a28a-dcecefa69bff","system_id":"levelo_inurba_marseille","lat":43.2619,"lon":5.40377,"is_reserved":false,"is_disabled":false,"rental_uris":{"android":"levelo://app?vid=2a0c1dc7-44c8-4dc5-a28a-dcecefa69bff","ios":"levelo://app?vid=2a0c1dc7-44c8-4dc5-a28a-dcecefa69bff"},"vehicle_type_id":"4","last_reported":1770409288,"current_range_meters":4800,"station_id":"ce4bhmh2rcd13ifvqgmg","pricing_plan_id":"cebpf4jnsgd1na2vs0mg"},{"bike_id":"b0cec839-9044-416d-92eb-61b8dee05fdc","system_id":"levelo_inurba_marseille","lat":43.28036,"lon":5.36941,"is_reserved":false,"is_disabled":false,"rental_uris":{"android":"levelo://app?vid=b0cec839-9044-416d-92eb-61b8dee05fdc","ios":"levelo://app?vid=b0cec839-9044-416d-92eb-61b8dee05fdc"},"vehicle_type_id":"4","last_reported":1770409288,"current_range_meters":4800,"station_id":"ce4bha12rcd13ifvqef0","pricing_plan_id":"cebpf4jnsgd1na2vs0mg"},{"bike_id":"0388f24a-b566-45b1-a38a-12fb5d338f89","system_id":"levelo_inurba_marseille","lat":43.31652,"lon":5.37647,"is_reserved":false,"is_disabled":false,"rental_uris":{"android":"levelo://app?vid=0388f24a-b566-45b1-a38a-12fb5d338f89","ios":"levelo://app?vid=0388f24a-b566-45b1-a38a-12fb5d338f89"},"vehicle_type_id":"4","last_reported":1770409288,"current_range_meters":4800,"station_id":"","pricing_plan_id":"cebpf4jnsgd1na2vs0mg"},{"bike_id":"eb1aee22-66f7-40e1-8d42-129f37193ad0","system_id":"levelo_inurba_marseille","lat":43.29217,"lon":5.39959,"is_reserved":false,"is_disabled":false,"rental_uris":{"android":"levelo://app?vid=eb1aee22-66f7-40e1-8d42-129f37193ad0","ios":"levelo://app?vid=eb1aee22-66f7-40e1-8d42-129f37193ad0"},"vehicle_type_id":"4","last_reported":1770409288,"current_range_meters":4800,"station_id":"","pricing_plan_id":"cebpf4jnsgd1na2vs0mg"},{"bike_id":"0cc9c6d7-0f61-445c-965c-e73db718ba2a","system_id":"levelo_inurba_marseille","lat":43.292666,"lon":5.384336,"is_reserved":false,"is_disabled":false,"rental_uris":{"android":"levelo://app?vid=0cc9c6d7-0f61-445c-965c-e73db718ba2a","ios":"levelo://app?vid=0cc9c6d7-0f61-445c-965c-e73db718ba2a"},"vehicle_type_id":"4","last_reported":1770409288,"current_range_meters":4800,"station_id":"ce4bha12rcd13ifvqee0","pricing_plan_id":"cebpf4jnsgd1na2vs0mg"},{"bike_id":"f962822c-06bc-4486-a477-eaae1a981a6b","system_id":"levelo_inurba_marseille","lat":43.27551,"lon":5.38473,"is_reserved":false,"is_disabled":false,"rental_uris":{"android":"levelo://app?vid=f962822c-06bc-4486-a477-eaae1a981a6b","ios":"levelo://app?vid=f962822c-06bc-4486-a477-eaae1a981a6b"},"vehicle_type_id":"4","last_reported":1770409288,"current_range_meters":4800,"station_id":"ce4bhh92rcd13ifvqfi0","pricing_plan_id":"cebpf4jnsgd1na2vs0mg"},{"bike_id":"9b908f9d-4660-44bb-b17a-c35c07c0e6d2","system_id":"levelo_inurba_marseille","lat":43.27988,"lon":5.40053,"is_reserved":false,"is_disabled":false,"rental_uris":{"android":"levelo://app?vid=9b908f9d-4660-44bb-b17a-c35c07c0e6d2","ios":"levelo://app?vid=9b908f9d-4660-44bb-b17a-c35c07c0e6d2"},"vehicle_type_id":"4","last_reported":1770409288,"current_range_meters":5600,"station_id":"ce4bho92rcd13ifvqh4g","pricing_plan_id":"cebpf4jnsgd1na2vs0mg"},{"bike_id":"86ef6d29-a1ae-4ad3-85ee-72ede19038e6","system_id":"levelo_inurba_marseille","lat":43.32107,"lon":5.36796,"is_reserved":false,"is_disabled":false,"rental_uris":{"android":"levelo://app?vid=86ef6d29-a1ae-4ad3-85ee-72ede19038e6","ios":"levelo://app?vid=86ef6d29-a1ae-4ad3-85ee-72ede19038e6"},"vehicle_type_id":"4","last_reported":1770409288,"current_range_meters":5600,"station_id":"ce4bhrh2rcd13ifvqhug","pricing_plan_id":"cebpf4jnsgd1na2vs0mg"},{"bike_id":"ef79007e-ef6d-4e7f-a3ae-3ed5ead69e87","system_id":"levelo_inurba_marseille","lat":43.23206,"lon":5.3561,"is_reserved":false,"is_disabled":false,"rental_uris":{"android":"levelo://app?vid=ef79007e-ef6d-4e7f-a3ae-3ed5ead69e87","ios":"levelo://app?vid=ef79007e-ef6d-4e7f-a3ae-3ed5ead69e87"},"vehicle_type_id":"4","last_reported":1770409288,"current_range_meters":5600,"station_id":"ce4bhu92rcd13ifvqi70","pricing_plan_id":"cebpf4jnsgd1na2vs0mg"},{"bike_id":"2f69afc2-51d1-4223-b73c-f3e5d3ce5ca4","system_id":"levelo_inurba_marseille","lat":43.29601,"lon":5.3862,"is_reserved":false,"is_disabled":false,"rental_uris":{"android":"levelo://app?vid=2f69afc2-51d1-4223-b73c-f3e5d3ce5ca4","ios":"levelo://app?vid=2f69afc2-51d1-4223-b73c-f3e5d3ce5ca4"},"vehicle_type_id":"4","last_reported":1770409288,"current_range_meters":5600,"station_id":"","pricing_plan_id":"cebpf4jnsgd1na2vs0mg"},{"bike_id":"03ad2331-9143-4c56-8562-0bbdd2eecb49","system_id":"levelo_inurba_marseille","lat":43.29516,"lon":5.39041,"is_reserved":false,"is_disabled":false,"rental_uris":{"android":"levelo://app?vid=03ad2331-9143-4c56-8562-0bbdd2eecb49","ios":"levelo://app?vid=03ad2331-9143-4c56-8562-0bbdd2eecb49"},"vehicle_type_id":"4","last_reported":1770409288,"current_range_meters":5600,"station_id":"ce4bh3p2rcd13ifvqdp0","pricing_plan_id":"cebpf4jnsgd1na2vs0mg"},{"bike_id":"90e59ac1-cd46-446b-b3a8-2b22481380d2","system_id":"levelo_inurba_marseille","lat":43.30887,"lon":5.37193,"is_reserved":false,"is_disabled":false,"rental_uris":{"android":"levelo://app?vid=90e59ac1-cd46-446b-b3a8-2b22481380d2","ios":"levelo://app?vid=90e59ac1-cd46-446b-b3a8-2b22481380d2"},"vehicle_type_id":"4","last_reported":1770409288,"current_range_meters":5600,"station_id":"ce4bguh2rcd13ifvqckg","pricing_plan_id":"cebpf4jnsgd1na2vs0mg"},{"bike_id":"c22aeab0-6fd6-45fa-976b-23e2284b59fd","system_id":"levelo_inurba_marseille","lat":43.29263,"lon":5.38445,"is_reserved":false,"is_disabled":false,"rental_uris":{"android":"levelo://app?vid=c22aeab0-6fd6-45fa-976b-23e2284b59fd","ios":"levelo://app?vid=c22aeab0-6fd6-45fa-976b-23e2284b59fd"},"vehicle_type_id":"4","last_reported":1770409288,"current_range_meters":5600,"station_id":"ce4bh692rcd13ifvqea0","pricing_plan_id":"cebpf4jnsgd1na2vs0mg"},{"bike_id":"01d73317-514a-4344-adbd-0847e81c682f","system_id":"levelo_inurba_marseille","lat":43.299608,"lon":5.38512,"is_reserved":false,"is_disabled":false,"rental_uris":{"android":"levelo://app?vid=01d73317-514a-4344-adbd-0847e81c682f","ios":"levelo://app?vid=01d73317-514a-4344-adbd-0847e81c682f"},"vehicle_type_id":"4","last_reported":1770409288,"current_range_meters":5600,"station_id":"ce4bgj92rcd13ifvqbd0","pricing_plan_id":"cebpf4jnsgd1na2vs0mg"},{"bike_id":"3e49c387-36ef-4304-825f-ad050f57eba5","system_id":"levelo_inurba_marseille","lat":43.29548,"lon":5.42275,"is_reserved":false,"is_disabled":false,"rental_uris":{"android":"levelo://app?vid=3e49c387-36ef-4304-825f-ad050f57eba5","ios":"levelo://app?vid=3e49c387-36ef-4304-825f-ad050f57eba5"},"vehicle_type_id":"4","last_reported":1770409288,"current_range_meters":5600,"station_id":"ce4bhph2rcd13ifvqhdg","pricing_plan_id":"cebpf4jnsgd1na2vs0mg"},{"bike_id":"adc4f4a8-5803-45b4-ab63-1626777f21f7","system_id":"levelo_inurba_marseille","lat":43.27309,"lon":5.39113,"is_reserved":false,"is_disabled":false,"rental_uris":{"android":"levelo://app?vid=adc4f4a8-5803-45b4-ab63-1626777f21f7","ios":"levelo://app?vid=adc4f4a8-5803-45b4-ab63-1626777f21f7"},"vehicle_type_id":"4","last_reported":1770409288,"current_range_meters":5600,"station_id":"ce4bhgp2rcd13ifvqfe0","pricing_plan_id":"cebpf4jnsgd1na2vs0mg"},{"bike_id":"c168f197-aac7-455a-b9c3-92be85ce0714","system_id":"levelo_inurba_marseille","lat":43.23153,"lon":5.43739,"is_reserved":false,"is_disabled":false,"rental_uris":{"android":"levelo://app?vid=c168f197-aac7-455a-b9c3-92be85ce0714","ios":"levelo://app?vid=c168f197-aac7-455a-b9c3-92be85ce0714"},"vehicle_type_id":"4","last_reported":1770409288,"current_range_meters":5600,"station_id":"ce4bhmp2rcd13ifvqgog","pricing_plan_id":"cebpf4jnsgd1na2vs0mg"},{"bike_id":"578e58a8-1e56-47a1-a322-e983c6778cb9","system_id":"levelo_inurba_marseille","lat":43.23788,"lon":5.36629,"is_reserved":false,"is_disabled":false,"rental_uris":{"android":"levelo://app?vid=578e58a8-1e56-47a1-a322-e983c6778cb9","ios":"levelo://app?vid=578e58a8-1e56-47a1-a322-e983c6778cb9"},"vehicle_type_id":"4","last_reported":1770409288,"current_range_meters":6000,"station_id":"st_d3nk18o9ro0c73en2l3g","pricing_plan_id":"cebpf4jnsgd1na2vs0mg"},{"bike_id":"375e9bcb-b945-4768-82d3-b05471dcf5fd","system_id":"levelo_inurba_marseille","lat":43.289235,"lon":5.460365,"is_reserved":false,"is_disabled":false,"rental_uris":{"android":"levelo://app?vid=375e9bcb-b945-4768-82d3-b05471dcf5fd","ios":"levelo://app?vid=375e9bcb-b945-4768-82d3-b05471dcf5fd"},"vehicle_type_id":"4","last_reported":1770409288,"current_range_meters":6000,"station_id":"","pricing_plan_id":"cebpf4jnsgd1na2vs0mg"},{"bike_id":"8b3683af-7da9-4ef2-b4f6-c3e28584ec58","system_id":"levelo_inurba_marseille","lat":43.24959,"lon":5.40486,"is_reserved":false,"is_disabled":false,"rental_uris":{"android":"levelo://app?vid=8b3683af-7da9-4ef2-b4f6-c3e28584ec58","ios":"levelo://app?vid=8b3683af-7da9-4ef2-b4f6-c3e28584ec58"},"vehicle_type_id":"4","last_reported":1770409288,"current_range_meters":6000,"station_id":"st_d2ngiaodas8pm72gd1h0","pricing_plan_id":"cebpf4jnsgd1na2vs0mg"},{"bike_id":"d1637f9c-b515-44be-9270-b91684a11fd5","system_id":"levelo_inurba_marseille","lat":43.23397,"lon":5.41215,"is_reserved":false,"is_disabled":false,"rental_uris":{"android":"levelo://app?vid=d1637f9c-b515-44be-9270-b91684a11fd5","ios":"levelo://app?vid=d1637f9c-b515-44be-9270-b91684a11fd5"},"vehicle_type_id":"4","last_reported":1770409288,"current_range_meters":6000,"station_id":"","pricing_plan_id":"cebpf4jnsgd1na2vs0mg"},{"bike_id":"228b0147-c0cb-4635-a0c4-219cf741185e","system_id":"levelo_inurba_marseille","lat":43.29968,"lon":5.38492,"is_reserved":false,"is_disabled":false,"rental_uris":{"android":"levelo://app?vid=228b0147-c0cb-4635-a0c4-219cf741185e","ios":"levelo://app?vid=228b0147-c0cb-4635-a0c4-219cf741185e"},"vehicle_type_id":"4","last_reported":1770409288,"current_range_meters":6000,"station_id":"ce4bgj92rcd13ifvqbd0","pricing_plan_id":"cebpf4jnsgd1na2vs0mg"},{"bike_id":"733f0ff5-75ca-4c77-bbb2-e43b4255c9f8","system_id":"levelo_inurba_marseille","lat":43.29261,"lon":5.384294,"is_reserved":false,"is_disabled":false,"rental_uris":{"android":"levelo://app?vid=733f0ff5-75ca-4c77-bbb2-e43b4255c9f8","ios":"levelo://app?vid=733f0ff5-75ca-4c77-bbb2-e43b4255c9f8"},"vehicle_type_id":"4","last_reported":1770409288,"current_range_meters":6000,"station_id":"ce4bh692rcd13ifvqea0","pricing_plan_id":"cebpf4jnsgd1na2vs0mg"},{"bike_id":"bce96462-befb-44b2-ae24-720764ad6438","system_id":"levelo_inurba_marseille","lat":43.27878,"lon":5.38798,"is_reserved":false,"is_disabled":false,"rental_uris":{"android":"levelo://app?vid=bce96462-befb-44b2-ae24-720764ad6438","ios":"levelo://app?vid=bce96462-befb-44b2-ae24-720764ad6438"},"vehicle_type_id":"4","last_reported":1770409288,"current_range_meters":6000,"station_id":"","pricing_plan_id":"cebpf4jnsgd1na2vs0mg"},{"bike_id":"ea394ce4-561e-40c3-b5d8-13958e8a40d6","system_id":"levelo_inurba_marseille","lat":43.23187,"lon":5.35556,"is_reserved":false,"is_disabled":false,"rental_uris":{"android":"levelo://app?vid=ea394ce4-561e-40c3-b5d8-13958e8a40d6","ios":"levelo://app?vid=ea394ce4-561e-40c3-b5d8-13958e8a40d6"},"vehicle_type_id":"4","last_reported":1770409288,"current_range_meters":6000,"station_id":"ce4bhu92rcd13ifvqi70","pricing_plan_id":"cebpf4jnsgd1na2vs0mg"},{"bike_id":"7f2cf31b-bee8-4ec3-bf91-98a412e4dab9","system_id":"levelo_inurba_marseille","lat":43.21745,"lon":5.34603,"is_reserved":false,"is_disabled":true,"rental_uris":{"android":"levelo://app?vid=7f2cf31b-bee8-4ec3-bf91-98a412e4dab9","ios":"levelo://app?vid=7f2cf31b-bee8-4ec3-bf91-98a412e4dab9"},"vehicle_type_id":"4","last_reported":1770409288,"current_range_meters":6000,"station_id":"st_cvj6r9ubvosntc0bgbag","pricing_plan_id":"cebpf4jnsgd1na2vs0mg"},{"bike_id":"d627a960-91ca-451b-b509-093f6af736dc","system_id":"levelo_inurba_marseille","lat":43.29606,"lon":5.38101,"is_reserved":false,"is_disabled":false,"rental_uris":{"android":"levelo://app?vid=d627a960-91ca-451b-b509-093f6af736dc","ios":"levelo://app?vid=d627a960-91ca-451b-b509-093f6af736dc"},"vehicle_type_id":"4","last_reported":1770409288,"current_range_meters":6000,"station_id":"ce4bgl12rcd13ifvqbo0","pricing_plan_id":"cebpf4jnsgd1na2vs0mg"},{"bike_id":"8a8b8e72-9951-490e-8aaa-3c1625d2978c","system_id":"levelo_inurba_marseille","lat":43.28405,"lon":5.34995,"is_reserved":false,"is_disabled":false,"rental_uris":{"android":"levelo://app?vid=8a8b8e72-9951-490e-8aaa-3c1625d2978c","ios":"levelo://app?vid=8a8b8e72-9951-490e-8aaa-3c1625d2978c"},"vehicle_type_id":"4","last_reported":1770409288,"current_range_meters":6000,"station_id":"ce4bhbh2rcd13ifvqepg","pricing_plan_id":"cebpf4jnsgd1na2vs0mg"},{"bike_id":"2d9b7179-82a1-455c-ab4a-7bba1fb285af","system_id":"levelo_inurba_marseille","lat":43.29808,"lon":5.381,"is_reserved":false,"is_disabled":false,"rental_uris":{"android":"levelo://app?vid=2d9b7179-82a1-455c-ab4a-7bba1fb285af","ios":"levelo://app?vid=2d9b7179-82a1-455c-ab4a-7bba1fb285af"},"vehicle_type_id":"4","last_reported":1770409288,"current_range_meters":6000,"station_id":"ce4bgip2rcd13ifvqbb0","pricing_plan_id":"cebpf4jnsgd1na2vs0mg"},{"bike_id":"36af6b9c-3b6f-432b-8541-51b5e2f4a92f","system_id":"levelo_inurba_marseille","lat":43.25006,"lon":5.38916,"is_reserved":false,"is_disabled":false,"rental_uris":{"android":"levelo://app?vid=36af6b9c-3b6f-432b-8541-51b5e2f4a92f","ios":"levelo://app?vid=36af6b9c-3b6f-432b-8541-51b5e2f4a92f"},"vehicle_type_id":"4","last_reported":1770409288,"current_range_meters":6000,"station_id":"ce4bhgp2rcd13ifvqfd0","pricing_plan_id":"cebpf4jnsgd1na2vs0mg"},{"bike_id":"15250344-db40-4db8-b0c9-19733389e808","system_id":"levelo_inurba_marseille","lat":43.27378,"lon":5.36257,"is_reserved":false,"is_disabled":false,"rental_uris":{"android":"levelo://app?vid=15250344-db40-4db8-b0c9-19733389e808","ios":"levelo://app?vid=15250344-db40-4db8-b0c9-19733389e808"},"vehicle_type_id":"4","last_reported":1770409288,"current_range_meters":6000,"station_id":"ce4bhbh2rcd13ifvqeo0","pricing_plan_id":"cebpf4jnsgd1na2vs0mg"},{"bike_id":"3b986d99-7b42-471f-993a-11fde28f3c51","system_id":"levelo_inurba_marseille","lat":43.22563,"lon":5.41651,"is_reserved":false,"is_disabled":false,"rental_uris":{"android":"levelo://app?vid=3b986d99-7b42-471f-993a-11fde28f3c51","ios":"levelo://app?vid=3b986d99-7b42-471f-993a-11fde28f3c51"},"vehicle_type_id":"4","last_reported":1770409288,"current_range_meters":6000,"station_id":"st_d2o4gvlbi1j2169b742g","pricing_plan_id":"cebpf4jnsgd1na2vs0mg"},{"bike_id":"e04d7957-2695-4c2a-bb1b-5e0e64401da0","system_id":"levelo_inurba_marseille","lat":43.29285,"lon":5.37446,"is_reserved":false,"is_disabled":false,"rental_uris":{"android":"levelo://app?vid=e04d7957-2695-4c2a-bb1b-5e0e64401da0","ios":"levelo://app?vid=e04d7957-2695-4c2a-bb1b-5e0e64401da0"},"vehicle_type_id":"4","last_reported":1770409288,"current_range_meters":6000,"station_id":"ce4bgi12rcd13ifvqb70","pricing_plan_id":"cebpf4jnsgd1na2vs0mg"},{"bike_id":"2b358923-c030-4481-a0eb-830aa62ff249","system_id":"levelo_inurba_marseille","lat":43.27386,"lon":5.36261,"is_reserved":false,"is_disabled":false,"rental_uris":{"android":"levelo://app?vid=2b358923-c030-4481-a0eb-830aa62ff249","ios":"levelo://app?vid=2b358923-c030-4481-a0eb-830aa62ff249"},"vehicle_type_id":"4","last_reported":1770409288,"current_range_meters":6000,"station_id":"ce4bhbh2rcd13ifvqeo0","pricing_plan_id":"cebpf4jnsgd1na2vs0mg"},{"bike_id":"6ea399dc-5917-4833-9a9c-0c6527aa49fe","system_id":"levelo_inurba_marseille","lat":43.28262,"lon":5.35087,"is_reserved":false,"is_disabled":false,"rental_uris":{"android":"levelo://app?vid=6ea399dc-5917-4833-9a9c-0c6527aa49fe","ios":"levelo://app?vid=6ea399dc-5917-4833-9a9c-0c6527aa49fe"},"vehicle_type_id":"4","last_reported":1770409288,"current_range_meters":6000,"station_id":"ce4bhbp2rcd13ifvqerg","pricing_plan_id":"cebpf4jnsgd1na2vs0mg"},{"bike_id":"444f1b1a-744c-4af9-8cc8-120b56ee5cdf","system_id":"levelo_inurba_marseille","lat":43.31495,"lon":5.37312,"is_reserved":false,"is_disabled":false,"rental_uris":{"android":"levelo://app?vid=444f1b1a-744c-4af9-8cc8-120b56ee5cdf","ios":"levelo://app?vid=444f1b1a-744c-4af9-8cc8-120b56ee5cdf"},"vehicle_type_id":"4","last_reported":1770409288,"current_range_meters":6000,"station_id":"ce4bgt12rcd13ifvqcd0","pricing_plan_id":"cebpf4jnsgd1na2vs0mg"},{"bike_id":"5dea93d7-2b00-4423-81b5-9e768d42cacb","system_id":"levelo_inurba_marseille","lat":43.29027,"lon":5.386423,"is_reserved":false,"is_disabled":true,"rental_uris":{"android":"levelo://app?vid=5dea93d7-2b00-4423-81b5-9e768d42cacb","ios":"levelo://app?vid=5dea93d7-2b00-4423-81b5-9e768d42cacb"},"vehicle_type_id":"4","last_reported":1770409288,"current_range_meters":6400,"station_id":"ce4bh4p2rcd13ifvqe0g","pricing_plan_id":"cebpf4jnsgd1na2vs0mg"},{"bike_id":"9c73f167-0209-4b65-bfe4-6dcb19c28c58","system_id":"levelo_inurba_marseille","lat":43.29029,"lon":5.38635,"is_reserved":false,"is_disabled":false,"rental_uris":{"android":"levelo://app?vid=9c73f167-0209-4b65-bfe4-6dcb19c28c58","ios":"levelo://app?vid=9c73f167-0209-4b65-bfe4-6dcb19c28c58"},"vehicle_type_id":"4","last_reported":1770409288,"current_range_meters":6400,"station_id":"ce4bh4p2rcd13ifvqe0g","pricing_plan_id":"cebpf4jnsgd1na2vs0mg"},{"bike_id":"b8d5c126-a49f-42bb-a06b-73e5424e7351","system_id":"levelo_inurba_marseille","lat":43.33159,"lon":5.3769,"is_reserved":false,"is_disabled":false,"rental_uris":{"android":"levelo://app?vid=b8d5c126-a49f-42bb-a06b-73e5424e7351","ios":"levelo://app?vid=b8d5c126-a49f-42bb-a06b-73e5424e7351"},"vehicle_type_id":"4","last_reported":1770409288,"current_range_meters":6400,"station_id":"st_d46cu089ee8s73dldbu0","pricing_plan_id":"cebpf4jnsgd1na2vs0mg"},{"bike_id":"661e5608-6549-4720-a5e8-0e1eeb33e31d","system_id":"levelo_inurba_marseille","lat":43.27947,"lon":5.41036,"is_reserved":false,"is_disabled":false,"rental_uris":{"android":"levelo://app?vid=661e5608-6549-4720-a5e8-0e1eeb33e31d","ios":"levelo://app?vid=661e5608-6549-4720-a5e8-0e1eeb33e31d"},"vehicle_type_id":"4","last_reported":1770409288,"current_range_meters":6400,"station_id":"ce4bhnp2rcd13ifvqh0g","pricing_plan_id":"cebpf4jnsgd1na2vs0mg"},{"bike_id":"cb4ddfe9-8236-4acf-9d82-d7983c3d2252","system_id":"levelo_inurba_marseille","lat":43.31178,"lon":5.38711,"is_reserved":false,"is_disabled":false,"rental_uris":{"android":"levelo://app?vid=cb4ddfe9-8236-4acf-9d82-d7983c3d2252","ios":"levelo://app?vid=cb4ddfe9-8236-4acf-9d82-d7983c3d2252"},"vehicle_type_id":"4","last_reported":1770409288,"current_range_meters":6400,"station_id":"ce4bgv12rcd13ifvqcp0","pricing_plan_id":"cebpf4jnsgd1na2vs0mg"},{"bike_id":"a40d376e-c736-4001-bfd5-03a82bfa1617","system_id":"levelo_inurba_marseille","lat":43.29531,"lon":5.38542,"is_reserved":false,"is_disabled":false,"rental_uris":{"android":"levelo://app?vid=a40d376e-c736-4001-bfd5-03a82bfa1617","ios":"levelo://app?vid=a40d376e-c736-4001-bfd5-03a82bfa1617"},"vehicle_type_id":"4","last_reported":1770409288,"current_range_meters":6400,"station_id":"ce4bgih2rcd13ifvqba0","pricing_plan_id":"cebpf4jnsgd1na2vs0mg"},{"bike_id":"ef9a7355-ad35-46aa-a6cb-010fac317fd1","system_id":"levelo_inurba_marseille","lat":43.29297,"lon":5.37453,"is_reserved":false,"is_disabled":false,"rental_uris":{"android":"levelo://app?vid=ef9a7355-ad35-46aa-a6cb-010fac317fd1","ios":"levelo://app?vid=ef9a7355-ad35-46aa-a6cb-010fac317fd1"},"vehicle_type_id":"4","last_reported":1770409288,"current_range_meters":6400,"station_id":"ce4bgi12rcd13ifvqb70","pricing_plan_id":"cebpf4jnsgd1na2vs0mg"},{"bike_id":"dcd75408-c48b-4237-a119-d8fde1503eb2","system_id":"levelo_inurba_marseille","lat":43.29605,"lon":5.38104,"is_reserved":false,"is_disabled":false,"rental_uris":{"android":"levelo://app?vid=dcd75408-c48b-4237-a119-d8fde1503eb2","ios":"levelo://app?vid=dcd75408-c48b-4237-a119-d8fde1503eb2"},"vehicle_type_id":"4","last_reported":1770409288,"current_range_meters":6400,"station_id":"ce4bgl12rcd13ifvqbo0","pricing_plan_id":"cebpf4jnsgd1na2vs0mg"},{"bike_id":"88de999f-78fd-498c-86b8-c0b83e9a1087","system_id":"levelo_inurba_marseille","lat":43.25926,"lon":5.40894,"is_reserved":false,"is_disabled":false,"rental_uris":{"android":"levelo://app?vid=88de999f-78fd-498c-86b8-c0b83e9a1087","ios":"levelo://app?vid=88de999f-78fd-498c-86b8-c0b83e9a1087"},"vehicle_type_id":"4","last_reported":1770409288,"current_range_meters":6400,"station_id":"ce4bhm92rcd13ifvqglg","pricing_plan_id":"cebpf4jnsgd1na2vs0mg"},{"bike_id":"c033ea1f-2cce-4de4-80b5-0f4247c745ee","system_id":"levelo_inurba_marseille","lat":43.2927,"lon":5.38453,"is_reserved":false,"is_disabled":false,"rental_uris":{"android":"levelo://app?vid=c033ea1f-2cce-4de4-80b5-0f4247c745ee","ios":"levelo://app?vid=c033ea1f-2cce-4de4-80b5-0f4247c745ee"},"vehicle_type_id":"4","last_reported":1770409288,"current_range_meters":6400,"station_id":"ce4bh692rcd13ifvqea0","pricing_plan_id":"cebpf4jnsgd1na2vs0mg"},{"bike_id":"e92c52a2-6b35-4ea9-9829-1eb9501c85fc","system_id":"levelo_inurba_marseille","lat":43.31141,"lon":5.39397,"is_reserved":false,"is_disabled":false,"rental_uris":{"android":"levelo://app?vid=e92c52a2-6b35-4ea9-9829-1eb9501c85fc","ios":"levelo://app?vid=e92c52a2-6b35-4ea9-9829-1eb9501c85fc"},"vehicle_type_id":"4","last_reported":1770409288,"current_range_meters":6400,"station_id":"","pricing_plan_id":"cebpf4jnsgd1na2vs0mg"},{"bike_id":"735c03e4-d6e6-49f6-81ba-72ebbef9fba5","system_id":"levelo_inurba_marseille","lat":43.250906,"lon":5.395194,"is_reserved":false,"is_disabled":false,"rental_uris":{"android":"levelo://app?vid=735c03e4-d6e6-49f6-81ba-72ebbef9fba5","ios":"levelo://app?vid=735c03e4-d6e6-49f6-81ba-72ebbef9fba5"},"vehicle_type_id":"4","last_reported":1770409288,"current_range_meters":6400,"station_id":"ce4bhm12rcd13ifvqgkg","pricing_plan_id":"cebpf4jnsgd1na2vs0mg"},{"bike_id":"7fe289d7-a40a-48e6-b71a-ee8c544f0123","system_id":"levelo_inurba_marseille","lat":43.26221,"lon":5.37919,"is_reserved":false,"is_disabled":false,"rental_uris":{"android":"levelo://app?vid=7fe289d7-a40a-48e6-b71a-ee8c544f0123","ios":"levelo://app?vid=7fe289d7-a40a-48e6-b71a-ee8c544f0123"},"vehicle_type_id":"4","last_reported":1770409288,"current_range_meters":6400,"station_id":"ce4bhjp2rcd13ifvqg90","pricing_plan_id":"cebpf4jnsgd1na2vs0mg"},{"bike_id":"31187af9-c44b-44b9-86e6-81ceb0eb435c","system_id":"levelo_inurba_marseille","lat":43.27084,"lon":5.42287,"is_reserved":false,"is_disabled":false,"rental_uris":{"android":"levelo://app?vid=31187af9-c44b-44b9-86e6-81ceb0eb435c","ios":"levelo://app?vid=31187af9-c44b-44b9-86e6-81ceb0eb435c"},"vehicle_type_id":"4","last_reported":1770409288,"current_range_meters":6400,"station_id":"ce4bhk92rcd13ifvqgb0","pricing_plan_id":"cebpf4jnsgd1na2vs0mg"},{"bike_id":"ea97a2a4-cc5a-4d7f-bf38-8e94f201d189","system_id":"levelo_inurba_marseille","lat":43.28499,"lon":5.48415,"is_reserved":false,"is_disabled":false,"rental_uris":{"android":"levelo://app?vid=ea97a2a4-cc5a-4d7f-bf38-8e94f201d189","ios":"levelo://app?vid=ea97a2a4-cc5a-4d7f-bf38-8e94f201d189"},"vehicle_type_id":"4","last_reported":1770409288,"current_range_meters":6400,"station_id":"","pricing_plan_id":"cebpf4jnsgd1na2vs0mg"},{"bike_id":"1a0bce21-6c8f-4aea-aa73-fc78a15d533d","system_id":"levelo_inurba_marseille","lat":43.29525,"lon":5.38535,"is_reserved":false,"is_disabled":false,"rental_uris":{"android":"levelo://app?vid=1a0bce21-6c8f-4aea-aa73-fc78a15d533d","ios":"levelo://app?vid=1a0bce21-6c8f-4aea-aa73-fc78a15d533d"},"vehicle_type_id":"4","last_reported":1770409288,"current_range_meters":6800,"station_id":"ce4bgih2rcd13ifvqba0","pricing_plan_id":"cebpf4jnsgd1na2vs0mg"},{"bike_id":"7ad5b625-433d-40d1-85a2-020d0fac3afe","system_id":"levelo_inurba_marseille","lat":43.299,"lon":5.37503,"is_reserved":false,"is_disabled":false,"rental_uris":{"android":"levelo://app?vid=7ad5b625-433d-40d1-85a2-020d0fac3afe","ios":"levelo://app?vid=7ad5b625-433d-40d1-85a2-020d0fac3afe"},"vehicle_type_id":"4","last_reported":1770409288,"current_range_meters":6800,"station_id":"ce4bgjh2rcd13ifvqbg0","pricing_plan_id":"cebpf4jnsgd1na2vs0mg"},{"bike_id":"978d4176-ee2f-4cac-b739-e147a27c26bd","system_id":"levelo_inurba_marseille","lat":43.291712,"lon":5.371538,"is_reserved":false,"is_disabled":false,"rental_uris":{"android":"levelo://app?vid=978d4176-ee2f-4cac-b739-e147a27c26bd","ios":"levelo://app?vid=978d4176-ee2f-4cac-b739-e147a27c26bd"},"vehicle_type_id":"4","last_reported":1770409288,"current_range_meters":6800,"station_id":"ce4bha92rcd13ifvqeh0","pricing_plan_id":"cebpf4jnsgd1na2vs0mg"},{"bike_id":"1dd6f4de-6a4a-4fa1-b038-a756a6cbac96","system_id":"levelo_inurba_marseille","lat":43.23205,"lon":5.35521,"is_reserved":false,"is_disabled":false,"rental_uris":{"android":"levelo://app?vid=1dd6f4de-6a4a-4fa1-b038-a756a6cbac96","ios":"levelo://app?vid=1dd6f4de-6a4a-4fa1-b038-a756a6cbac96"},"vehicle_type_id":"4","last_reported":1770409288,"current_range_meters":6800,"station_id":"ce4bhu92rcd13ifvqi70","pricing_plan_id":"cebpf4jnsgd1na2vs0mg"},{"bike_id":"c6233e0e-a636-47dd-b128-751fe1dc9ab9","system_id":"levelo_inurba_marseille","lat":43.28347,"lon":5.38113,"is_reserved":false,"is_disabled":false,"rental_uris":{"android":"levelo://app?vid=c6233e0e-a636-47dd-b128-751fe1dc9ab9","ios":"levelo://app?vid=c6233e0e-a636-47dd-b128-751fe1dc9ab9"},"vehicle_type_id":"4","last_reported":1770409288,"current_range_meters":6800,"station_id":"ce4bh412rcd13ifvqdr0","pricing_plan_id":"cebpf4jnsgd1na2vs0mg"},{"bike_id":"00f4b4a2-e33c-4686-ae15-afa07127347a","system_id":"levelo_inurba_marseille","lat":43.26953,"lon":5.38632,"is_reserved":false,"is_disabled":false,"rental_uris":{"android":"levelo://app?vid=00f4b4a2-e33c-4686-ae15-afa07127347a","ios":"levelo://app?vid=00f4b4a2-e33c-4686-ae15-afa07127347a"},"vehicle_type_id":"4","last_reported":1770409288,"current_range_meters":6800,"station_id":"ce4bhh92rcd13ifvqfh0","pricing_plan_id":"cebpf4jnsgd1na2vs0mg"},{"bike_id":"d9966860-8e8f-47c3-b6f0-291a5804774f","system_id":"levelo_inurba_marseille","lat":43.2827,"lon":5.35065,"is_reserved":false,"is_disabled":false,"rental_uris":{"android":"levelo://app?vid=d9966860-8e8f-47c3-b6f0-291a5804774f","ios":"levelo://app?vid=d9966860-8e8f-47c3-b6f0-291a5804774f"},"vehicle_type_id":"4","last_reported":1770409288,"current_range_meters":6800,"station_id":"ce4bhbp2rcd13ifvqerg","pricing_plan_id":"cebpf4jnsgd1na2vs0mg"},{"bike_id":"9e59eacf-a482-49cc-b87c-f1c56ad3a35c","system_id":"levelo_inurba_marseille","lat":43.29255,"lon":5.4091,"is_reserved":false,"is_disabled":false,"rental_uris":{"android":"levelo://app?vid=9e59eacf-a482-49cc-b87c-f1c56ad3a35c","ios":"levelo://app?vid=9e59eacf-a482-49cc-b87c-f1c56ad3a35c"},"vehicle_type_id":"4","last_reported":1770409288,"current_range_meters":6800,"station_id":"ce4bh192rcd13ifvqdc0","pricing_plan_id":"cebpf4jnsgd1na2vs0mg"},{"bike_id":"e40c6df9-93ca-4ce0-8ead-cbd393e4ffd7","system_id":"levelo_inurba_marseille","lat":43.29597,"lon":5.3773,"is_reserved":false,"is_disabled":false,"rental_uris":{"android":"levelo://app?vid=e40c6df9-93ca-4ce0-8ead-cbd393e4ffd7","ios":"levelo://app?vid=e40c6df9-93ca-4ce0-8ead-cbd393e4ffd7"},"vehicle_type_id":"4","last_reported":1770409288,"current_range_meters":6800,"station_id":"ce4bgi92rcd13ifvqb90","pricing_plan_id":"cebpf4jnsgd1na2vs0mg"},{"bike_id":"4022598c-6605-421d-929f-d80b4ad79dcf","system_id":"levelo_inurba_marseille","lat":43.24671,"lon":5.38173,"is_reserved":false,"is_disabled":false,"rental_uris":{"android":"levelo://app?vid=4022598c-6605-421d-929f-d80b4ad79dcf","ios":"levelo://app?vid=4022598c-6605-421d-929f-d80b4ad79dcf"},"vehicle_type_id":"4","last_reported":1770409288,"current_range_meters":6800,"station_id":"ce4bhih2rcd13ifvqfr0","pricing_plan_id":"cebpf4jnsgd1na2vs0mg"},{"bike_id":"58d16e10-99ba-424c-8d7d-f247b1c47cde","system_id":"levelo_inurba_marseille","lat":43.28971,"lon":5.383654,"is_reserved":false,"is_disabled":false,"rental_uris":{"android":"levelo://app?vid=58d16e10-99ba-424c-8d7d-f247b1c47cde","ios":"levelo://app?vid=58d16e10-99ba-424c-8d7d-f247b1c47cde"},"vehicle_type_id":"4","last_reported":1770409288,"current_range_meters":6800,"station_id":"","pricing_plan_id":"cebpf4jnsgd1na2vs0mg"},{"bike_id":"66d4f07c-f956-4ddd-856d-10dc3144e894","system_id":"levelo_inurba_marseille","lat":43.30518,"lon":5.36726,"is_reserved":false,"is_disabled":false,"rental_uris":{"android":"levelo://app?vid=66d4f07c-f956-4ddd-856d-10dc3144e894","ios":"levelo://app?vid=66d4f07c-f956-4ddd-856d-10dc3144e894"},"vehicle_type_id":"4","last_reported":1770409288,"current_range_meters":6800,"station_id":"ce4bgrp2rcd13ifvqc9g","pricing_plan_id":"cebpf4jnsgd1na2vs0mg"},{"bike_id":"f086e6a6-7f96-42e4-96de-367ff3edfb33","system_id":"levelo_inurba_marseille","lat":43.25583,"lon":5.38224,"is_reserved":false,"is_disabled":false,"rental_uris":{"android":"levelo://app?vid=f086e6a6-7f96-42e4-96de-367ff3edfb33","ios":"levelo://app?vid=f086e6a6-7f96-42e4-96de-367ff3edfb33"},"vehicle_type_id":"4","last_reported":1770409288,"current_range_meters":6800,"station_id":"ce4bhih2rcd13ifvqfs0","pricing_plan_id":"cebpf4jnsgd1na2vs0mg"},{"bike_id":"f0d45e46-9d23-4329-92a4-e4ddc618e990","system_id":"levelo_inurba_marseille","lat":43.229294,"lon":5.353766,"is_reserved":false,"is_disabled":false,"rental_uris":{"android":"levelo://app?vid=f0d45e46-9d23-4329-92a4-e4ddc618e990","ios":"levelo://app?vid=f0d45e46-9d23-4329-92a4-e4ddc618e990"},"vehicle_type_id":"4","last_reported":1770409288,"current_range_meters":6800,"station_id":"cpo3532slgdg3j2ikp40","pricing_plan_id":"cebpf4jnsgd1na2vs0mg"},{"bike_id":"c6782d87-e485-4a2c-b62b-9a52105fb0ef","system_id":"levelo_inurba_marseille","lat":43.25014,"lon":5.38905,"is_reserved":false,"is_disabled":false,"rental_uris":{"android":"levelo://app?vid=c6782d87-e485-4a2c-b62b-9a52105fb0ef","ios":"levelo://app?vid=c6782d87-e485-4a2c-b62b-9a52105fb0ef"},"vehicle_type_id":"4","last_reported":1770409288,"current_range_meters":6800,"station_id":"ce4bhgp2rcd13ifvqfd0","pricing_plan_id":"cebpf4jnsgd1na2vs0mg"},{"bike_id":"5f73df9e-39aa-4410-9779-59728c52cec1","system_id":"levelo_inurba_marseille","lat":43.29522,"lon":5.38541,"is_reserved":false,"is_disabled":false,"rental_uris":{"android":"levelo://app?vid=5f73df9e-39aa-4410-9779-59728c52cec1","ios":"levelo://app?vid=5f73df9e-39aa-4410-9779-59728c52cec1"},"vehicle_type_id":"4","last_reported":1770409288,"current_range_meters":6800,"station_id":"ce4bgih2rcd13ifvqba0","pricing_plan_id":"cebpf4jnsgd1na2vs0mg"},{"bike_id":"ebe4c918-bcd1-4dee-9908-e004270eea08","system_id":"levelo_inurba_marseille","lat":43.29192,"lon":5.38496,"is_reserved":false,"is_disabled":false,"rental_uris":{"android":"levelo://app?vid=ebe4c918-bcd1-4dee-9908-e004270eea08","ios":"levelo://app?vid=ebe4c918-bcd1-4dee-9908-e004270eea08"},"vehicle_type_id":"4","last_reported":1770409288,"current_range_meters":6800,"station_id":"","pricing_plan_id":"cebpf4jnsgd1na2vs0mg"},{"bike_id":"28038112-793b-4a40-88c6-af51aa30dc6d","system_id":"levelo_inurba_marseille","lat":43.23217,"lon":5.35562,"is_reserved":false,"is_disabled":false,"rental_uris":{"android":"levelo://app?vid=28038112-793b-4a40-88c6-af51aa30dc6d","ios":"levelo://app?vid=28038112-793b-4a40-88c6-af51aa30dc6d"},"vehicle_type_id":"4","last_reported":1770409288,"current_range_meters":6800,"station_id":"ce4bhu92rcd13ifvqi70","pricing_plan_id":"cebpf4jnsgd1na2vs0mg"},{"bike_id":"6809d87e-7242-4772-8526-bd1f9e441f49","system_id":"levelo_inurba_marseille","lat":43.33727,"lon":5.39191,"is_reserved":false,"is_disabled":false,"rental_uris":{"android":"levelo://app?vid=6809d87e-7242-4772-8526-bd1f9e441f49","ios":"levelo://app?vid=6809d87e-7242-4772-8526-bd1f9e441f49"},"vehicle_type_id":"4","last_reported":1770409288,"current_range_meters":6800,"station_id":"ce4bhr92rcd13ifvqhsg","pricing_plan_id":"cebpf4jnsgd1na2vs0mg"},{"bike_id":"8eccaa2f-1cc5-4e82-9644-79819313eab6","system_id":"levelo_inurba_marseille","lat":43.30148,"lon":5.38098,"is_reserved":false,"is_disabled":false,"rental_uris":{"android":"levelo://app?vid=8eccaa2f-1cc5-4e82-9644-79819313eab6","ios":"levelo://app?vid=8eccaa2f-1cc5-4e82-9644-79819313eab6"},"vehicle_type_id":"4","last_reported":1770409288,"current_range_meters":6800,"station_id":"ce4bgjp2rcd13ifvqbh0","pricing_plan_id":"cebpf4jnsgd1na2vs0mg"},{"bike_id":"37e9c795-f53b-47bd-8c9b-e2c251d59572","system_id":"levelo_inurba_marseille","lat":43.26207,"lon":5.37446,"is_reserved":false,"is_disabled":false,"rental_uris":{"android":"levelo://app?vid=37e9c795-f53b-47bd-8c9b-e2c251d59572","ios":"levelo://app?vid=37e9c795-f53b-47bd-8c9b-e2c251d59572"},"vehicle_type_id":"4","last_reported":1770409288,"current_range_meters":6800,"station_id":"ce4bhgp2rcd13ifvqfc0","pricing_plan_id":"cebpf4jnsgd1na2vs0mg"},{"bike_id":"17e35f94-3fec-45dd-96a9-f18976bedc1b","system_id":"levelo_inurba_marseille","lat":43.27939,"lon":5.41036,"is_reserved":false,"is_disabled":false,"rental_uris":{"android":"levelo://app?vid=17e35f94-3fec-45dd-96a9-f18976bedc1b","ios":"levelo://app?vid=17e35f94-3fec-45dd-96a9-f18976bedc1b"},"vehicle_type_id":"4","last_reported":1770409288,"current_range_meters":6800,"station_id":"ce4bhnp2rcd13ifvqh0g","pricing_plan_id":"cebpf4jnsgd1na2vs0mg"},{"bike_id":"9679c4e1-2229-42c5-8d72-1b2432948479","system_id":"levelo_inurba_marseille","lat":43.29943,"lon":5.38575,"is_reserved":false,"is_disabled":false,"rental_uris":{"android":"levelo://app?vid=9679c4e1-2229-42c5-8d72-1b2432948479","ios":"levelo://app?vid=9679c4e1-2229-42c5-8d72-1b2432948479"},"vehicle_type_id":"4","last_reported":1770409288,"current_range_meters":6800,"station_id":"","pricing_plan_id":"cebpf4jnsgd1na2vs0mg"},{"bike_id":"7913ecf5-95cc-46db-ad1a-05494005e5b1","system_id":"levelo_inurba_marseille","lat":43.25692,"lon":5.41654,"is_reserved":false,"is_disabled":false,"rental_uris":{"android":"levelo://app?vid=7913ecf5-95cc-46db-ad1a-05494005e5b1","ios":"levelo://app?vid=7913ecf5-95cc-46db-ad1a-05494005e5b1"},"vehicle_type_id":"4","last_reported":1770409288,"current_range_meters":6800,"station_id":"","pricing_plan_id":"cebpf4jnsgd1na2vs0mg"},{"bike_id":"968a1130-5ab4-497c-b27f-cb61b0d6cd96","system_id":"levelo_inurba_marseille","lat":43.30273,"lon":5.3772,"is_reserved":false,"is_disabled":false,"rental_uris":{"android":"levelo://app?vid=968a1130-5ab4-497c-b27f-cb61b0d6cd96","ios":"levelo://app?vid=968a1130-5ab4-497c-b27f-cb61b0d6cd96"},"vehicle_type_id":"4","last_reported":1770409288,"current_range_meters":6800,"station_id":"ce4bguh2rcd13ifvqcj0","pricing_plan_id":"cebpf4jnsgd1na2vs0mg"},{"bike_id":"fb70c546-2c71-4eab-8987-e71f757386fe","system_id":"levelo_inurba_marseille","lat":43.29518,"lon":5.3858,"is_reserved":false,"is_disabled":false,"rental_uris":{"android":"levelo://app?vid=fb70c546-2c71-4eab-8987-e71f757386fe","ios":"levelo://app?vid=fb70c546-2c71-4eab-8987-e71f757386fe"},"vehicle_type_id":"4","last_reported":1770409288,"current_range_meters":6800,"station_id":"ce4bgih2rcd13ifvqba0","pricing_plan_id":"cebpf4jnsgd1na2vs0mg"},{"bike_id":"76f74f2d-9a44-41ca-9849-4322a4616434","system_id":"levelo_inurba_marseille","lat":43.29536,"lon":5.39051,"is_reserved":false,"is_disabled":false,"rental_uris":{"android":"levelo://app?vid=76f74f2d-9a44-41ca-9849-4322a4616434","ios":"levelo://app?vid=76f74f2d-9a44-41ca-9849-4322a4616434"},"vehicle_type_id":"4","last_reported":1770409288,"current_range_meters":7200,"station_id":"ce4bh3p2rcd13ifvqdp0","pricing_plan_id":"cebpf4jnsgd1na2vs0mg"},{"bike_id":"d13cc862-d1fc-41d4-be4b-efb44f920c08","system_id":"levelo_inurba_marseille","lat":43.309539,"lon":5.390353,"is_reserved":false,"is_disabled":false,"rental_uris":{"android":"levelo://app?vid=d13cc862-d1fc-41d4-be4b-efb44f920c08","ios":"levelo://app?vid=d13cc862-d1fc-41d4-be4b-efb44f920c08"},"vehicle_type_id":"4","last_reported":1770409288,"current_range_meters":7200,"station_id":"ce4bgup2rcd13ifvqco0","pricing_plan_id":"cebpf4jnsgd1na2vs0mg"},{"bike_id":"5825814f-7023-4d5f-a20a-f996200a6f78","system_id":"levelo_inurba_marseille","lat":43.27934,"lon":5.4104,"is_reserved":false,"is_disabled":false,"rental_uris":{"android":"levelo://app?vid=5825814f-7023-4d5f-a20a-f996200a6f78","ios":"levelo://app?vid=5825814f-7023-4d5f-a20a-f996200a6f78"},"vehicle_type_id":"4","last_reported":1770409288,"current_range_meters":7200,"station_id":"ce4bhnp2rcd13ifvqh0g","pricing_plan_id":"cebpf4jnsgd1na2vs0mg"},{"bike_id":"5e9d7b89-ee8f-42bc-87df-a5a05a1d1db8","system_id":"levelo_inurba_marseille","lat":43.242569,"lon":5.39671,"is_reserved":false,"is_disabled":false,"rental_uris":{"android":"levelo://app?vid=5e9d7b89-ee8f-42bc-87df-a5a05a1d1db8","ios":"levelo://app?vid=5e9d7b89-ee8f-42bc-87df-a5a05a1d1db8"},"vehicle_type_id":"4","last_reported":1770409288,"current_range_meters":7200,"station_id":"","pricing_plan_id":"cebpf4jnsgd1na2vs0mg"},{"bike_id":"5a35dbc2-e52e-4f75-b31d-527577f2107a","system_id":"levelo_inurba_marseille","lat":43.2827,"lon":5.35056,"is_reserved":false,"is_disabled":false,"rental_uris":{"android":"levelo://app?vid=5a35dbc2-e52e-4f75-b31d-527577f2107a","ios":"levelo://app?vid=5a35dbc2-e52e-4f75-b31d-527577f2107a"},"vehicle_type_id":"4","last_reported":1770409288,"current_range_meters":7200,"station_id":"ce4bhbp2rcd13ifvqerg","pricing_plan_id":"cebpf4jnsgd1na2vs0mg"},{"bike_id":"379685d2-9e90-4f9b-bb24-a80a4545550e","system_id":"levelo_inurba_marseille","lat":43.2983,"lon":5.44051,"is_reserved":false,"is_disabled":false,"rental_uris":{"android":"levelo://app?vid=379685d2-9e90-4f9b-bb24-a80a4545550e","ios":"levelo://app?vid=379685d2-9e90-4f9b-bb24-a80a4545550e"},"vehicle_type_id":"4","last_reported":1770409288,"current_range_meters":7200,"station_id":"st_d3jp68qikq2c7381ktn0","pricing_plan_id":"cebpf4jnsgd1na2vs0mg"},{"bike_id":"acbb60c2-51a9-4e85-bf28-51e234add295","system_id":"levelo_inurba_marseille","lat":43.2869,"lon":5.38659,"is_reserved":false,"is_disabled":false,"rental_uris":{"android":"levelo://app?vid=acbb60c2-51a9-4e85-bf28-51e234add295","ios":"levelo://app?vid=acbb60c2-51a9-4e85-bf28-51e234add295"},"vehicle_type_id":"4","last_reported":1770409288,"current_range_meters":7200,"station_id":"ce4bh492rcd13ifvqdug","pricing_plan_id":"cebpf4jnsgd1na2vs0mg"},{"bike_id":"6c826141-83c8-450c-bb51-8b69baba0bf3","system_id":"levelo_inurba_marseille","lat":43.26707,"lon":5.40789,"is_reserved":false,"is_disabled":false,"rental_uris":{"android":"levelo://app?vid=6c826141-83c8-450c-bb51-8b69baba0bf3","ios":"levelo://app?vid=6c826141-83c8-450c-bb51-8b69baba0bf3"},"vehicle_type_id":"4","last_reported":1770409288,"current_range_meters":7200,"station_id":"","pricing_plan_id":"cebpf4jnsgd1na2vs0mg"},{"bike_id":"dbabb026-dc29-4d6b-8fea-01f85f327c05","system_id":"levelo_inurba_marseille","lat":43.29282,"lon":5.36846,"is_reserved":false,"is_disabled":false,"rental_uris":{"android":"levelo://app?vid=dbabb026-dc29-4d6b-8fea-01f85f327c05","ios":"levelo://app?vid=dbabb026-dc29-4d6b-8fea-01f85f327c05"},"vehicle_type_id":"4","last_reported":1770409288,"current_range_meters":7200,"station_id":"ce4bhbp2rcd13ifvqesg","pricing_plan_id":"cebpf4jnsgd1na2vs0mg"},{"bike_id":"5514686a-b854-4db2-9779-3506b95972b1","system_id":"levelo_inurba_marseille","lat":43.23189,"lon":5.43716,"is_reserved":false,"is_disabled":false,"rental_uris":{"android":"levelo://app?vid=5514686a-b854-4db2-9779-3506b95972b1","ios":"levelo://app?vid=5514686a-b854-4db2-9779-3506b95972b1"},"vehicle_type_id":"4","last_reported":1770409288,"current_range_meters":7200,"station_id":"ce4bhmp2rcd13ifvqgog","pricing_plan_id":"cebpf4jnsgd1na2vs0mg"},{"bike_id":"142a21c2-9a29-466a-92f6-5ab3ecc5b60d","system_id":"levelo_inurba_marseille","lat":43.23792,"lon":5.36629,"is_reserved":false,"is_disabled":false,"rental_uris":{"android":"levelo://app?vid=142a21c2-9a29-466a-92f6-5ab3ecc5b60d","ios":"levelo://app?vid=142a21c2-9a29-466a-92f6-5ab3ecc5b60d"},"vehicle_type_id":"4","last_reported":1770409288,"current_range_meters":7200,"station_id":"st_d3nk18o9ro0c73en2l3g","pricing_plan_id":"cebpf4jnsgd1na2vs0mg"},{"bike_id":"7762d7e1-6e63-47b8-b38f-dee5fb5d6c60","system_id":"levelo_inurba_marseille","lat":43.24646,"lon":5.38911,"is_reserved":false,"is_disabled":false,"rental_uris":{"android":"levelo://app?vid=7762d7e1-6e63-47b8-b38f-dee5fb5d6c60","ios":"levelo://app?vid=7762d7e1-6e63-47b8-b38f-dee5fb5d6c60"},"vehicle_type_id":"4","last_reported":1770409288,"current_range_meters":7200,"station_id":"ce4bhg12rcd13ifvqf60","pricing_plan_id":"cebpf4jnsgd1na2vs0mg"},{"bike_id":"98b89a63-b3c9-4748-8f93-0ccb5ab9560d","system_id":"levelo_inurba_marseille","lat":43.26526,"lon":5.373,"is_reserved":false,"is_disabled":false,"rental_uris":{"android":"levelo://app?vid=98b89a63-b3c9-4748-8f93-0ccb5ab9560d","ios":"levelo://app?vid=98b89a63-b3c9-4748-8f93-0ccb5ab9560d"},"vehicle_type_id":"4","last_reported":1770409288,"current_range_meters":7200,"station_id":"ce4bhg12rcd13ifvqf70","pricing_plan_id":"cebpf4jnsgd1na2vs0mg"},{"bike_id":"c57155d9-12b5-4d63-b1ef-c288098818cd","system_id":"levelo_inurba_marseille","lat":43.29531,"lon":5.3904,"is_reserved":false,"is_disabled":false,"rental_uris":{"android":"levelo://app?vid=c57155d9-12b5-4d63-b1ef-c288098818cd","ios":"levelo://app?vid=c57155d9-12b5-4d63-b1ef-c288098818cd"},"vehicle_type_id":"4","last_reported":1770409288,"current_range_meters":7200,"station_id":"ce4bh3p2rcd13ifvqdp0","pricing_plan_id":"cebpf4jnsgd1na2vs0mg"},{"bike_id":"34ce4070-8bf1-4f6c-90db-46999ff058d6","system_id":"levelo_inurba_marseille","lat":43.29261,"lon":5.38452,"is_reserved":false,"is_disabled":false,"rental_uris":{"android":"levelo://app?vid=34ce4070-8bf1-4f6c-90db-46999ff058d6","ios":"levelo://app?vid=34ce4070-8bf1-4f6c-90db-46999ff058d6"},"vehicle_type_id":"4","last_reported":1770409288,"current_range_meters":7200,"station_id":"ce4bh692rcd13ifvqea0","pricing_plan_id":"cebpf4jnsgd1na2vs0mg"},{"bike_id":"99850a36-9afb-45da-956a-515b07324791","system_id":"levelo_inurba_marseille","lat":43.27945,"lon":5.4107,"is_reserved":false,"is_disabled":false,"rental_uris":{"android":"levelo://app?vid=99850a36-9afb-45da-956a-515b07324791","ios":"levelo://app?vid=99850a36-9afb-45da-956a-515b07324791"},"vehicle_type_id":"4","last_reported":1770409288,"current_range_meters":7200,"station_id":"ce4bhnp2rcd13ifvqh0g","pricing_plan_id":"cebpf4jnsgd1na2vs0mg"},{"bike_id":"bd830301-856a-4947-bbd9-0c9aae46f8c5","system_id":"levelo_inurba_marseille","lat":43.28867,"lon":5.42513,"is_reserved":false,"is_disabled":false,"rental_uris":{"android":"levelo://app?vid=bd830301-856a-4947-bbd9-0c9aae46f8c5","ios":"levelo://app?vid=bd830301-856a-4947-bbd9-0c9aae46f8c5"},"vehicle_type_id":"4","last_reported":1770409288,"current_range_meters":7200,"station_id":"st_d3b462108ojc7389ooeg","pricing_plan_id":"cebpf4jnsgd1na2vs0mg"},{"bike_id":"4f7d41e3-f9d8-470b-99d3-80dafc768b1e","system_id":"levelo_inurba_marseille","lat":43.29009,"lon":5.35623,"is_reserved":false,"is_disabled":false,"rental_uris":{"android":"levelo://app?vid=4f7d41e3-f9d8-470b-99d3-80dafc768b1e","ios":"levelo://app?vid=4f7d41e3-f9d8-470b-99d3-80dafc768b1e"},"vehicle_type_id":"4","last_reported":1770409288,"current_range_meters":7200,"station_id":"ce4bhb92rcd13ifvqen0","pricing_plan_id":"cebpf4jnsgd1na2vs0mg"},{"bike_id":"0b0f5da6-7e0f-4c34-83d7-d18ce6723012","system_id":"levelo_inurba_marseille","lat":43.3095,"lon":5.39048,"is_reserved":false,"is_disabled":false,"rental_uris":{"android":"levelo://app?vid=0b0f5da6-7e0f-4c34-83d7-d18ce6723012","ios":"levelo://app?vid=0b0f5da6-7e0f-4c34-83d7-d18ce6723012"},"vehicle_type_id":"4","last_reported":1770409288,"current_range_meters":7200,"station_id":"ce4bgup2rcd13ifvqco0","pricing_plan_id":"cebpf4jnsgd1na2vs0mg"},{"bike_id":"3b0243a7-d2ce-4bc6-9d86-9216cc3b3554","system_id":"levelo_inurba_marseille","lat":43.24807,"lon":5.37449,"is_reserved":false,"is_disabled":false,"rental_uris":{"android":"levelo://app?vid=3b0243a7-d2ce-4bc6-9d86-9216cc3b3554","ios":"levelo://app?vid=3b0243a7-d2ce-4bc6-9d86-9216cc3b3554"},"vehicle_type_id":"4","last_reported":1770409288,"current_range_meters":7200,"station_id":"ce4bhgh2rcd13ifvqfb0","pricing_plan_id":"cebpf4jnsgd1na2vs0mg"},{"bike_id":"287ec1ad-7529-4a47-9046-fa34841bee4b","system_id":"levelo_inurba_marseille","lat":43.28844,"lon":5.39327,"is_reserved":false,"is_disabled":false,"rental_uris":{"android":"levelo://app?vid=287ec1ad-7529-4a47-9046-fa34841bee4b","ios":"levelo://app?vid=287ec1ad-7529-4a47-9046-fa34841bee4b"},"vehicle_type_id":"4","last_reported":1770409288,"current_range_meters":7200,"station_id":"ce4bh2p2rcd13ifvqdi0","pricing_plan_id":"cebpf4jnsgd1na2vs0mg"},{"bike_id":"1eb6ac42-7cee-4455-a886-41479bd5acf7","system_id":"levelo_inurba_marseille","lat":43.29972,"lon":5.38473,"is_reserved":false,"is_disabled":false,"rental_uris":{"android":"levelo://app?vid=1eb6ac42-7cee-4455-a886-41479bd5acf7","ios":"levelo://app?vid=1eb6ac42-7cee-4455-a886-41479bd5acf7"},"vehicle_type_id":"4","last_reported":1770409288,"current_range_meters":7200,"station_id":"ce4bgj92rcd13ifvqbd0","pricing_plan_id":"cebpf4jnsgd1na2vs0mg"},{"bike_id":"4573242e-b265-4331-b57e-964b4ba015f2","system_id":"levelo_inurba_marseille","lat":43.26209,"lon":5.37442,"is_reserved":false,"is_disabled":false,"rental_uris":{"android":"levelo://app?vid=4573242e-b265-4331-b57e-964b4ba015f2","ios":"levelo://app?vid=4573242e-b265-4331-b57e-964b4ba015f2"},"vehicle_type_id":"4","last_reported":1770409288,"current_range_meters":7200,"station_id":"ce4bhgp2rcd13ifvqfc0","pricing_plan_id":"cebpf4jnsgd1na2vs0mg"},{"bike_id":"b53a7d14-2e51-421a-988d-b8ea59b98909","system_id":"levelo_inurba_marseille","lat":43.2738,"lon":5.36261,"is_reserved":false,"is_disabled":false,"rental_uris":{"android":"levelo://app?vid=b53a7d14-2e51-421a-988d-b8ea59b98909","ios":"levelo://app?vid=b53a7d14-2e51-421a-988d-b8ea59b98909"},"vehicle_type_id":"4","last_reported":1770409288,"current_range_meters":7200,"station_id":"ce4bhbh2rcd13ifvqeo0","pricing_plan_id":"cebpf4jnsgd1na2vs0mg"},{"bike_id":"5c52ff99-cf96-4d3c-b47e-85043f37e86c","system_id":"levelo_inurba_marseille","lat":43.26214,"lon":5.37442,"is_reserved":false,"is_disabled":false,"rental_uris":{"android":"levelo://app?vid=5c52ff99-cf96-4d3c-b47e-85043f37e86c","ios":"levelo://app?vid=5c52ff99-cf96-4d3c-b47e-85043f37e86c"},"vehicle_type_id":"4","last_reported":1770409288,"current_range_meters":7200,"station_id":"ce4bhgp2rcd13ifvqfc0","pricing_plan_id":"cebpf4jnsgd1na2vs0mg"},{"bike_id":"b7fc64ee-0a1a-4639-af60-46d03219d45f","system_id":"levelo_inurba_marseille","lat":43.231951,"lon":5.3555,"is_reserved":false,"is_disabled":false,"rental_uris":{"android":"levelo://app?vid=b7fc64ee-0a1a-4639-af60-46d03219d45f","ios":"levelo://app?vid=b7fc64ee-0a1a-4639-af60-46d03219d45f"},"vehicle_type_id":"4","last_reported":1770409288,"current_range_meters":7200,"station_id":"ce4bhu92rcd13ifvqi70","pricing_plan_id":"cebpf4jnsgd1na2vs0mg"},{"bike_id":"63c602c3-d230-440b-a9f3-7f914105abcb","system_id":"levelo_inurba_marseille","lat":43.29533,"lon":5.38539,"is_reserved":false,"is_disabled":false,"rental_uris":{"android":"levelo://app?vid=63c602c3-d230-440b-a9f3-7f914105abcb","ios":"levelo://app?vid=63c602c3-d230-440b-a9f3-7f914105abcb"},"vehicle_type_id":"4","last_reported":1770409288,"current_range_meters":7200,"station_id":"ce4bgih2rcd13ifvqba0","pricing_plan_id":"cebpf4jnsgd1na2vs0mg"},{"bike_id":"60ca853d-c339-47db-9e29-6229ff2c1b26","system_id":"levelo_inurba_marseille","lat":43.256758,"lon":5.410484,"is_reserved":false,"is_disabled":false,"rental_uris":{"android":"levelo://app?vid=60ca853d-c339-47db-9e29-6229ff2c1b26","ios":"levelo://app?vid=60ca853d-c339-47db-9e29-6229ff2c1b26"},"vehicle_type_id":"4","last_reported":1770409288,"current_range_meters":7200,"station_id":"ce4bhkp2rcd13ifvqgd0","pricing_plan_id":"cebpf4jnsgd1na2vs0mg"},{"bike_id":"24ed0f82-01d0-4d75-81e6-b7cc42aa5836","system_id":"levelo_inurba_marseille","lat":43.29003,"lon":5.35615,"is_reserved":false,"is_disabled":false,"rental_uris":{"android":"levelo://app?vid=24ed0f82-01d0-4d75-81e6-b7cc42aa5836","ios":"levelo://app?vid=24ed0f82-01d0-4d75-81e6-b7cc42aa5836"},"vehicle_type_id":"4","last_reported":1770409288,"current_range_meters":7200,"station_id":"ce4bhb92rcd13ifvqen0","pricing_plan_id":"cebpf4jnsgd1na2vs0mg"},{"bike_id":"9d3ed593-094a-4bdc-bc1c-c8fe762a539a","system_id":"levelo_inurba_marseille","lat":43.28934,"lon":5.38406,"is_reserved":false,"is_disabled":false,"rental_uris":{"android":"levelo://app?vid=9d3ed593-094a-4bdc-bc1c-c8fe762a539a","ios":"levelo://app?vid=9d3ed593-094a-4bdc-bc1c-c8fe762a539a"},"vehicle_type_id":"4","last_reported":1770409288,"current_range_meters":7200,"station_id":"ce4bh612rcd13ifvqe6g","pricing_plan_id":"cebpf4jnsgd1na2vs0mg"},{"bike_id":"66ac484a-7a0c-4d64-bcea-4a863811aeba","system_id":"levelo_inurba_marseille","lat":43.2991,"lon":5.43645,"is_reserved":false,"is_disabled":true,"rental_uris":{"android":"levelo://app?vid=66ac484a-7a0c-4d64-bcea-4a863811aeba","ios":"levelo://app?vid=66ac484a-7a0c-4d64-bcea-4a863811aeba"},"vehicle_type_id":"4","last_reported":1770409288,"current_range_meters":7200,"station_id":"ce4bhpp2rcd13ifvqhfg","pricing_plan_id":"cebpf4jnsgd1na2vs0mg"},{"bike_id":"ecde9447-d2d8-4eed-be47-e39468252cc3","system_id":"levelo_inurba_marseille","lat":43.29753,"lon":5.38104,"is_reserved":false,"is_disabled":false,"rental_uris":{"android":"levelo://app?vid=ecde9447-d2d8-4eed-be47-e39468252cc3","ios":"levelo://app?vid=ecde9447-d2d8-4eed-be47-e39468252cc3"},"vehicle_type_id":"4","last_reported":1770409288,"current_range_meters":7200,"station_id":"","pricing_plan_id":"cebpf4jnsgd1na2vs0mg"},{"bike_id":"967cce7e-5662-42d8-a2b0-963824220044","system_id":"levelo_inurba_marseille","lat":43.276146,"lon":5.361064,"is_reserved":false,"is_disabled":false,"rental_uris":{"android":"levelo://app?vid=967cce7e-5662-42d8-a2b0-963824220044","ios":"levelo://app?vid=967cce7e-5662-42d8-a2b0-963824220044"},"vehicle_type_id":"4","last_reported":1770409288,"current_range_meters":7200,"station_id":"ce4bgj92rcd13ifvqbe0","pricing_plan_id":"cebpf4jnsgd1na2vs0mg"},{"bike_id":"efbe792f-1198-41b4-852b-4a2323f0ee78","system_id":"levelo_inurba_marseille","lat":43.2502,"lon":5.38998,"is_reserved":false,"is_disabled":false,"rental_uris":{"android":"levelo://app?vid=efbe792f-1198-41b4-852b-4a2323f0ee78","ios":"levelo://app?vid=efbe792f-1198-41b4-852b-4a2323f0ee78"},"vehicle_type_id":"4","last_reported":1770409288,"current_range_meters":7200,"station_id":"","pricing_plan_id":"cebpf4jnsgd1na2vs0mg"},{"bike_id":"58b75f9a-9109-4ad4-bff3-1796073efe92","system_id":"levelo_inurba_marseille","lat":43.24387,"lon":5.3707,"is_reserved":false,"is_disabled":false,"rental_uris":{"android":"levelo://app?vid=58b75f9a-9109-4ad4-bff3-1796073efe92","ios":"levelo://app?vid=58b75f9a-9109-4ad4-bff3-1796073efe92"},"vehicle_type_id":"4","last_reported":1770409288,"current_range_meters":8000,"station_id":"ce4bhhh2rcd13ifvqfk0","pricing_plan_id":"cebpf4jnsgd1na2vs0mg"},{"bike_id":"db42cf65-60d7-4ba0-896a-925a91953562","system_id":"levelo_inurba_marseille","lat":43.27949,"lon":5.41043,"is_reserved":false,"is_disabled":false,"rental_uris":{"android":"levelo://app?vid=db42cf65-60d7-4ba0-896a-925a91953562","ios":"levelo://app?vid=db42cf65-60d7-4ba0-896a-925a91953562"},"vehicle_type_id":"4","last_reported":1770409288,"current_range_meters":8000,"station_id":"ce4bhnp2rcd13ifvqh0g","pricing_plan_id":"cebpf4jnsgd1na2vs0mg"},{"bike_id":"071937d3-6d39-428f-88a6-e135b0e61119","system_id":"levelo_inurba_marseille","lat":43.31036,"lon":5.37204,"is_reserved":false,"is_disabled":false,"rental_uris":{"android":"levelo://app?vid=071937d3-6d39-428f-88a6-e135b0e61119","ios":"levelo://app?vid=071937d3-6d39-428f-88a6-e135b0e61119"},"vehicle_type_id":"4","last_reported":1770409288,"current_range_meters":8000,"station_id":"st_d4kl2rp97mjs73e7tdfg","pricing_plan_id":"cebpf4jnsgd1na2vs0mg"},{"bike_id":"f80af0fc-206a-4ad4-9ce1-df5c67b5af5a","system_id":"levelo_inurba_marseille","lat":43.29177,"lon":5.3716,"is_reserved":false,"is_disabled":false,"rental_uris":{"android":"levelo://app?vid=f80af0fc-206a-4ad4-9ce1-df5c67b5af5a","ios":"levelo://app?vid=f80af0fc-206a-4ad4-9ce1-df5c67b5af5a"},"vehicle_type_id":"4","last_reported":1770409288,"current_range_meters":8000,"station_id":"ce4bha92rcd13ifvqeh0","pricing_plan_id":"cebpf4jnsgd1na2vs0mg"},{"bike_id":"c6e25874-c646-4223-9fb1-4a2c71cb2059","system_id":"levelo_inurba_marseille","lat":43.31217,"lon":5.36886,"is_reserved":false,"is_disabled":false,"rental_uris":{"android":"levelo://app?vid=c6e25874-c646-4223-9fb1-4a2c71cb2059","ios":"levelo://app?vid=c6e25874-c646-4223-9fb1-4a2c71cb2059"},"vehicle_type_id":"4","last_reported":1770409288,"current_range_meters":8000,"station_id":"ce4bgl92rcd13ifvqbq0","pricing_plan_id":"cebpf4jnsgd1na2vs0mg"},{"bike_id":"f29fecf0-b15e-47f7-92d4-df26aee4f522","system_id":"levelo_inurba_marseille","lat":43.29981,"lon":5.385,"is_reserved":false,"is_disabled":false,"rental_uris":{"android":"levelo://app?vid=f29fecf0-b15e-47f7-92d4-df26aee4f522","ios":"levelo://app?vid=f29fecf0-b15e-47f7-92d4-df26aee4f522"},"vehicle_type_id":"4","last_reported":1770409288,"current_range_meters":8000,"station_id":"ce4bgj92rcd13ifvqbd0","pricing_plan_id":"cebpf4jnsgd1na2vs0mg"},{"bike_id":"34b0e592-5a12-495a-a81b-b7a9e8350c09","system_id":"levelo_inurba_marseille","lat":43.28413,"lon":5.34998,"is_reserved":false,"is_disabled":false,"rental_uris":{"android":"levelo://app?vid=34b0e592-5a12-495a-a81b-b7a9e8350c09","ios":"levelo://app?vid=34b0e592-5a12-495a-a81b-b7a9e8350c09"},"vehicle_type_id":"4","last_reported":1770409288,"current_range_meters":8000,"station_id":"ce4bhbh2rcd13ifvqepg","pricing_plan_id":"cebpf4jnsgd1na2vs0mg"},{"bike_id":"576af193-e62d-499f-bac6-83067da3cb89","system_id":"levelo_inurba_marseille","lat":43.27987,"lon":5.40019,"is_reserved":false,"is_disabled":true,"rental_uris":{"android":"levelo://app?vid=576af193-e62d-499f-bac6-83067da3cb89","ios":"levelo://app?vid=576af193-e62d-499f-bac6-83067da3cb89"},"vehicle_type_id":"4","last_reported":1770409288,"current_range_meters":8000,"station_id":"ce4bho92rcd13ifvqh4g","pricing_plan_id":"cebpf4jnsgd1na2vs0mg"},{"bike_id":"675ec433-caf3-4517-83f9-75769cd57605","system_id":"levelo_inurba_marseille","lat":43.32104,"lon":5.36805,"is_reserved":false,"is_disabled":false,"rental_uris":{"android":"levelo://app?vid=675ec433-caf3-4517-83f9-75769cd57605","ios":"levelo://app?vid=675ec433-caf3-4517-83f9-75769cd57605"},"vehicle_type_id":"4","last_reported":1770409288,"current_range_meters":8000,"station_id":"ce4bhrh2rcd13ifvqhug","pricing_plan_id":"cebpf4jnsgd1na2vs0mg"},{"bike_id":"adfdce83-5160-451d-875c-3c98397c50af","system_id":"levelo_inurba_marseille","lat":43.28487,"lon":5.39111,"is_reserved":false,"is_disabled":false,"rental_uris":{"android":"levelo://app?vid=adfdce83-5160-451d-875c-3c98397c50af","ios":"levelo://app?vid=adfdce83-5160-451d-875c-3c98397c50af"},"vehicle_type_id":"4","last_reported":1770409288,"current_range_meters":8000,"station_id":"","pricing_plan_id":"cebpf4jnsgd1na2vs0mg"},{"bike_id":"a5faf7a6-7f2f-419a-b628-e8f939b70083","system_id":"levelo_inurba_marseille","lat":43.28536,"lon":5.44092,"is_reserved":false,"is_disabled":false,"rental_uris":{"android":"levelo://app?vid=a5faf7a6-7f2f-419a-b628-e8f939b70083","ios":"levelo://app?vid=a5faf7a6-7f2f-419a-b628-e8f939b70083"},"vehicle_type_id":"4","last_reported":1770409288,"current_range_meters":8000,"station_id":"st_d3j3df2ikq2c7380ej80","pricing_plan_id":"cebpf4jnsgd1na2vs0mg"},{"bike_id":"731447a5-bd31-4208-aa2f-c0645944403a","system_id":"levelo_inurba_marseille","lat":43.24631,"lon":5.4314,"is_reserved":false,"is_disabled":false,"rental_uris":{"android":"levelo://app?vid=731447a5-bd31-4208-aa2f-c0645944403a","ios":"levelo://app?vid=731447a5-bd31-4208-aa2f-c0645944403a"},"vehicle_type_id":"4","last_reported":1770409288,"current_range_meters":8000,"station_id":"st_d2m6c4gdas8pm72e190g","pricing_plan_id":"cebpf4jnsgd1na2vs0mg"},{"bike_id":"651a1f03-9041-47f3-9a0b-971a8399b544","system_id":"levelo_inurba_marseille","lat":43.31189,"lon":5.38706,"is_reserved":false,"is_disabled":true,"rental_uris":{"android":"levelo://app?vid=651a1f03-9041-47f3-9a0b-971a8399b544","ios":"levelo://app?vid=651a1f03-9041-47f3-9a0b-971a8399b544"},"vehicle_type_id":"4","last_reported":1770409288,"current_range_meters":8000,"station_id":"ce4bgv12rcd13ifvqcp0","pricing_plan_id":"cebpf4jnsgd1na2vs0mg"},{"bike_id":"901dd229-8b77-439a-b67d-22b4890d43d9","system_id":"levelo_inurba_marseille","lat":43.317023,"lon":5.404729,"is_reserved":false,"is_disabled":false,"rental_uris":{"android":"levelo://app?vid=901dd229-8b77-439a-b67d-22b4890d43d9","ios":"levelo://app?vid=901dd229-8b77-439a-b67d-22b4890d43d9"},"vehicle_type_id":"4","last_reported":1770409288,"current_range_meters":8000,"station_id":"ce4bh012rcd13ifvqd00","pricing_plan_id":"cebpf4jnsgd1na2vs0mg"},{"bike_id":"f5da9401-db7e-426f-9a0f-2330a30b8658","system_id":"levelo_inurba_marseille","lat":43.24393,"lon":5.37082,"is_reserved":false,"is_disabled":true,"rental_uris":{"android":"levelo://app?vid=f5da9401-db7e-426f-9a0f-2330a30b8658","ios":"levelo://app?vid=f5da9401-db7e-426f-9a0f-2330a30b8658"},"vehicle_type_id":"4","last_reported":1770409288,"current_range_meters":8000,"station_id":"ce4bhhh2rcd13ifvqfk0","pricing_plan_id":"cebpf4jnsgd1na2vs0mg"},{"bike_id":"0c612691-dc2e-4b8c-a828-2dec429e0473","system_id":"levelo_inurba_marseille","lat":43.22929,"lon":5.35392,"is_reserved":false,"is_disabled":false,"rental_uris":{"android":"levelo://app?vid=0c612691-dc2e-4b8c-a828-2dec429e0473","ios":"levelo://app?vid=0c612691-dc2e-4b8c-a828-2dec429e0473"},"vehicle_type_id":"4","last_reported":1770409288,"current_range_meters":8000,"station_id":"cpo3532slgdg3j2ikp40","pricing_plan_id":"cebpf4jnsgd1na2vs0mg"},{"bike_id":"2c93a42a-4cfa-4bcc-ae5d-919aa911761b","system_id":"levelo_inurba_marseille","lat":43.29259,"lon":5.38432,"is_reserved":false,"is_disabled":false,"rental_uris":{"android":"levelo://app?vid=2c93a42a-4cfa-4bcc-ae5d-919aa911761b","ios":"levelo://app?vid=2c93a42a-4cfa-4bcc-ae5d-919aa911761b"},"vehicle_type_id":"4","last_reported":1770409288,"current_range_meters":8000,"station_id":"ce4bh692rcd13ifvqea0","pricing_plan_id":"cebpf4jnsgd1na2vs0mg"},{"bike_id":"c65ee838-9f7d-4c27-9ebf-55f173988146","system_id":"levelo_inurba_marseille","lat":43.24811,"lon":5.37457,"is_reserved":false,"is_disabled":false,"rental_uris":{"android":"levelo://app?vid=c65ee838-9f7d-4c27-9ebf-55f173988146","ios":"levelo://app?vid=c65ee838-9f7d-4c27-9ebf-55f173988146"},"vehicle_type_id":"4","last_reported":1770409288,"current_range_meters":8000,"station_id":"ce4bhgh2rcd13ifvqfb0","pricing_plan_id":"cebpf4jnsgd1na2vs0mg"},{"bike_id":"29464267-9962-4e36-b637-db87f6ed8cf3","system_id":"levelo_inurba_marseille","lat":43.278082,"lon":5.407044,"is_reserved":false,"is_disabled":false,"rental_uris":{"android":"levelo://app?vid=29464267-9962-4e36-b637-db87f6ed8cf3","ios":"levelo://app?vid=29464267-9962-4e36-b637-db87f6ed8cf3"},"vehicle_type_id":"4","last_reported":1770409288,"current_range_meters":8000,"station_id":"ce4bhnh2rcd13ifvqgtg","pricing_plan_id":"cebpf4jnsgd1na2vs0mg"},{"bike_id":"29554745-e0e5-4276-b587-71d331cae345","system_id":"levelo_inurba_marseille","lat":43.29525,"lon":5.39084,"is_reserved":false,"is_disabled":true,"rental_uris":{"android":"levelo://app?vid=29554745-e0e5-4276-b587-71d331cae345","ios":"levelo://app?vid=29554745-e0e5-4276-b587-71d331cae345"},"vehicle_type_id":"4","last_reported":1770409288,"current_range_meters":8000,"station_id":"ce4bh3p2rcd13ifvqdp0","pricing_plan_id":"cebpf4jnsgd1na2vs0mg"},{"bike_id":"346787f4-b208-43b3-a13c-6d535139ef57","system_id":"levelo_inurba_marseille","lat":43.29897,"lon":5.43673,"is_reserved":false,"is_disabled":false,"rental_uris":{"android":"levelo://app?vid=346787f4-b208-43b3-a13c-6d535139ef57","ios":"levelo://app?vid=346787f4-b208-43b3-a13c-6d535139ef57"},"vehicle_type_id":"4","last_reported":1770409288,"current_range_meters":8400,"station_id":"ce4bhpp2rcd13ifvqhfg","pricing_plan_id":"cebpf4jnsgd1na2vs0mg"},{"bike_id":"a974f125-46b6-492b-a0bb-f810fede54b4","system_id":"levelo_inurba_marseille","lat":43.289319,"lon":5.363776,"is_reserved":false,"is_disabled":false,"rental_uris":{"android":"levelo://app?vid=a974f125-46b6-492b-a0bb-f810fede54b4","ios":"levelo://app?vid=a974f125-46b6-492b-a0bb-f810fede54b4"},"vehicle_type_id":"4","last_reported":1770409288,"current_range_meters":8400,"station_id":"ce4bhc92rcd13ifvqetg","pricing_plan_id":"cebpf4jnsgd1na2vs0mg"},{"bike_id":"15a3e00a-e415-4bc9-8ff7-ed96b5a8614d","system_id":"levelo_inurba_marseille","lat":43.30201,"lon":5.38266,"is_reserved":false,"is_disabled":false,"rental_uris":{"android":"levelo://app?vid=15a3e00a-e415-4bc9-8ff7-ed96b5a8614d","ios":"levelo://app?vid=15a3e00a-e415-4bc9-8ff7-ed96b5a8614d"},"vehicle_type_id":"4","last_reported":1770409288,"current_range_meters":8400,"station_id":"","pricing_plan_id":"cebpf4jnsgd1na2vs0mg"},{"bike_id":"3e8f969f-f505-4cac-b453-01240a0ec1b8","system_id":"levelo_inurba_marseille","lat":43.33032,"lon":5.39032,"is_reserved":false,"is_disabled":false,"rental_uris":{"android":"levelo://app?vid=3e8f969f-f505-4cac-b453-01240a0ec1b8","ios":"levelo://app?vid=3e8f969f-f505-4cac-b453-01240a0ec1b8"},"vehicle_type_id":"4","last_reported":1770409288,"current_range_meters":8400,"station_id":"ce4bhr92rcd13ifvqhrg","pricing_plan_id":"cebpf4jnsgd1na2vs0mg"},{"bike_id":"ad619ee0-99a3-44ca-9244-1a662aeff669","system_id":"levelo_inurba_marseille","lat":43.29021,"lon":5.38649,"is_reserved":false,"is_disabled":false,"rental_uris":{"android":"levelo://app?vid=ad619ee0-99a3-44ca-9244-1a662aeff669","ios":"levelo://app?vid=ad619ee0-99a3-44ca-9244-1a662aeff669"},"vehicle_type_id":"4","last_reported":1770409288,"current_range_meters":8400,"station_id":"ce4bh4p2rcd13ifvqe0g","pricing_plan_id":"cebpf4jnsgd1na2vs0mg"},{"bike_id":"9b77f6b3-140b-4aab-91e2-d7cdf3e8685a","system_id":"levelo_inurba_marseille","lat":43.2572,"lon":5.41111,"is_reserved":false,"is_disabled":false,"rental_uris":{"android":"levelo://app?vid=9b77f6b3-140b-4aab-91e2-d7cdf3e8685a","ios":"levelo://app?vid=9b77f6b3-140b-4aab-91e2-d7cdf3e8685a"},"vehicle_type_id":"4","last_reported":1770409288,"current_range_meters":8400,"station_id":"ce4bhkp2rcd13ifvqgd0","pricing_plan_id":"cebpf4jnsgd1na2vs0mg"},{"bike_id":"b8b2022f-ad53-43bd-a0da-20d6c0c24249","system_id":"levelo_inurba_marseille","lat":43.26207,"lon":5.37448,"is_reserved":false,"is_disabled":false,"rental_uris":{"android":"levelo://app?vid=b8b2022f-ad53-43bd-a0da-20d6c0c24249","ios":"levelo://app?vid=b8b2022f-ad53-43bd-a0da-20d6c0c24249"},"vehicle_type_id":"4","last_reported":1770409288,"current_range_meters":8400,"station_id":"ce4bhgp2rcd13ifvqfc0","pricing_plan_id":"cebpf4jnsgd1na2vs0mg"},{"bike_id":"a55aaf46-2a79-404f-9837-91b8ca79e6ec","system_id":"levelo_inurba_marseille","lat":43.29236,"lon":5.38458,"is_reserved":false,"is_disabled":false,"rental_uris":{"android":"levelo://app?vid=a55aaf46-2a79-404f-9837-91b8ca79e6ec","ios":"levelo://app?vid=a55aaf46-2a79-404f-9837-91b8ca79e6ec"},"vehicle_type_id":"4","last_reported":1770409288,"current_range_meters":8400,"station_id":"ce4bh692rcd13ifvqea0","pricing_plan_id":"cebpf4jnsgd1na2vs0mg"},{"bike_id":"435bebd3-85eb-48e8-a27c-47cf8c020b08","system_id":"levelo_inurba_marseille","lat":43.28938,"lon":5.3837,"is_reserved":false,"is_disabled":false,"rental_uris":{"android":"levelo://app?vid=435bebd3-85eb-48e8-a27c-47cf8c020b08","ios":"levelo://app?vid=435bebd3-85eb-48e8-a27c-47cf8c020b08"},"vehicle_type_id":"4","last_reported":1770409288,"current_range_meters":8400,"station_id":"ce4bh612rcd13ifvqe6g","pricing_plan_id":"cebpf4jnsgd1na2vs0mg"},{"bike_id":"9d9ada7e-8bfb-4948-82e1-5314689a8b39","system_id":"levelo_inurba_marseille","lat":43.33542,"lon":5.37464,"is_reserved":false,"is_disabled":false,"rental_uris":{"android":"levelo://app?vid=9d9ada7e-8bfb-4948-82e1-5314689a8b39","ios":"levelo://app?vid=9d9ada7e-8bfb-4948-82e1-5314689a8b39"},"vehicle_type_id":"4","last_reported":1770409288,"current_range_meters":8400,"station_id":"st_d46tts09ee8s73dlu43g","pricing_plan_id":"cebpf4jnsgd1na2vs0mg"},{"bike_id":"f9f20417-aa53-44b8-9a40-4c1958fef358","system_id":"levelo_inurba_marseille","lat":43.299756,"lon":5.384884,"is_reserved":false,"is_disabled":false,"rental_uris":{"android":"levelo://app?vid=f9f20417-aa53-44b8-9a40-4c1958fef358","ios":"levelo://app?vid=f9f20417-aa53-44b8-9a40-4c1958fef358"},"vehicle_type_id":"4","last_reported":1770409288,"current_range_meters":8400,"station_id":"ce4bgj92rcd13ifvqbd0","pricing_plan_id":"cebpf4jnsgd1na2vs0mg"},{"bike_id":"eef7d0ae-7f39-41bf-867c-8a8e8d2a2015","system_id":"levelo_inurba_marseille","lat":43.30414,"lon":5.39765,"is_reserved":false,"is_disabled":true,"rental_uris":{"android":"levelo://app?vid=eef7d0ae-7f39-41bf-867c-8a8e8d2a2015","ios":"levelo://app?vid=eef7d0ae-7f39-41bf-867c-8a8e8d2a2015"},"vehicle_type_id":"4","last_reported":1770409288,"current_range_meters":8400,"station_id":"ce4bh092rcd13ifvqd20","pricing_plan_id":"cebpf4jnsgd1na2vs0mg"},{"bike_id":"b0c3d441-fa9a-4312-858a-e0f5eaf46fd5","system_id":"levelo_inurba_marseille","lat":43.32096,"lon":5.36783,"is_reserved":false,"is_disabled":false,"rental_uris":{"android":"levelo://app?vid=b0c3d441-fa9a-4312-858a-e0f5eaf46fd5","ios":"levelo://app?vid=b0c3d441-fa9a-4312-858a-e0f5eaf46fd5"},"vehicle_type_id":"4","last_reported":1770409288,"current_range_meters":8400,"station_id":"ce4bhrh2rcd13ifvqhug","pricing_plan_id":"cebpf4jnsgd1na2vs0mg"},{"bike_id":"03343639-04a3-4584-bf88-7cc0ab8344ec","system_id":"levelo_inurba_marseille","lat":43.30217,"lon":5.39477,"is_reserved":false,"is_disabled":false,"rental_uris":{"android":"levelo://app?vid=03343639-04a3-4584-bf88-7cc0ab8344ec","ios":"levelo://app?vid=03343639-04a3-4584-bf88-7cc0ab8344ec"},"vehicle_type_id":"4","last_reported":1770409288,"current_range_meters":8400,"station_id":"ce4bh0p2rcd13ifvqd70","pricing_plan_id":"cebpf4jnsgd1na2vs0mg"},{"bike_id":"7e1bd1ac-a4a5-4fb0-8a98-67e48e88cd76","system_id":"levelo_inurba_marseille","lat":43.28925,"lon":5.38396,"is_reserved":false,"is_disabled":false,"rental_uris":{"android":"levelo://app?vid=7e1bd1ac-a4a5-4fb0-8a98-67e48e88cd76","ios":"levelo://app?vid=7e1bd1ac-a4a5-4fb0-8a98-67e48e88cd76"},"vehicle_type_id":"4","last_reported":1770409288,"current_range_meters":8400,"station_id":"","pricing_plan_id":"cebpf4jnsgd1na2vs0mg"},{"bike_id":"f02319f2-a653-41f3-b33a-47c8176bdddf","system_id":"levelo_inurba_marseille","lat":43.3043,"lon":5.39751,"is_reserved":false,"is_disabled":false,"rental_uris":{"android":"levelo://app?vid=f02319f2-a653-41f3-b33a-47c8176bdddf","ios":"levelo://app?vid=f02319f2-a653-41f3-b33a-47c8176bdddf"},"vehicle_type_id":"4","last_reported":1770409288,"current_range_meters":8400,"station_id":"ce4bh092rcd13ifvqd20","pricing_plan_id":"cebpf4jnsgd1na2vs0mg"},{"bike_id":"978f37f4-a5e1-4f79-bf8d-a3f4a5f281e7","system_id":"levelo_inurba_marseille","lat":43.30785,"lon":5.37652,"is_reserved":false,"is_disabled":false,"rental_uris":{"android":"levelo://app?vid=978f37f4-a5e1-4f79-bf8d-a3f4a5f281e7","ios":"levelo://app?vid=978f37f4-a5e1-4f79-bf8d-a3f4a5f281e7"},"vehicle_type_id":"4","last_reported":1770409288,"current_range_meters":8400,"station_id":"ce4bgv92rcd13ifvqcq0","pricing_plan_id":"cebpf4jnsgd1na2vs0mg"},{"bike_id":"695a138c-9117-4798-9030-e462ffee3fe5","system_id":"levelo_inurba_marseille","lat":43.24813,"lon":5.37446,"is_reserved":false,"is_disabled":false,"rental_uris":{"android":"levelo://app?vid=695a138c-9117-4798-9030-e462ffee3fe5","ios":"levelo://app?vid=695a138c-9117-4798-9030-e462ffee3fe5"},"vehicle_type_id":"4","last_reported":1770409288,"current_range_meters":8400,"station_id":"ce4bhgh2rcd13ifvqfb0","pricing_plan_id":"cebpf4jnsgd1na2vs0mg"},{"bike_id":"2645d702-9780-4155-954e-9ff091dcb668","system_id":"levelo_inurba_marseille","lat":43.24396,"lon":5.37036,"is_reserved":false,"is_disabled":false,"rental_uris":{"android":"levelo://app?vid=2645d702-9780-4155-954e-9ff091dcb668","ios":"levelo://app?vid=2645d702-9780-4155-954e-9ff091dcb668"},"vehicle_type_id":"4","last_reported":1770409288,"current_range_meters":8400,"station_id":"ce4bhhh2rcd13ifvqfk0","pricing_plan_id":"cebpf4jnsgd1na2vs0mg"},{"bike_id":"ca56e68f-7e24-4681-a422-a463b8716c7e","system_id":"levelo_inurba_marseille","lat":43.28609,"lon":5.37075,"is_reserved":false,"is_disabled":false,"rental_uris":{"android":"levelo://app?vid=ca56e68f-7e24-4681-a422-a463b8716c7e","ios":"levelo://app?vid=ca56e68f-7e24-4681-a422-a463b8716c7e"},"vehicle_type_id":"4","last_reported":1770409288,"current_range_meters":8400,"station_id":"ce4bht12rcd13ifvqi60","pricing_plan_id":"cebpf4jnsgd1na2vs0mg"},{"bike_id":"596e8b7d-7cb7-4bce-bed5-c069c5df7df0","system_id":"levelo_inurba_marseille","lat":43.241705,"lon":5.363975,"is_reserved":false,"is_disabled":false,"rental_uris":{"android":"levelo://app?vid=596e8b7d-7cb7-4bce-bed5-c069c5df7df0","ios":"levelo://app?vid=596e8b7d-7cb7-4bce-bed5-c069c5df7df0"},"vehicle_type_id":"4","last_reported":1770409288,"current_range_meters":8400,"station_id":"cpo36qri1sfpv3e86is0","pricing_plan_id":"cebpf4jnsgd1na2vs0mg"},{"bike_id":"22a18f5a-e84b-4706-acdf-fdede8aeea20","system_id":"levelo_inurba_marseille","lat":43.25857,"lon":5.39923,"is_reserved":false,"is_disabled":false,"rental_uris":{"android":"levelo://app?vid=22a18f5a-e84b-4706-acdf-fdede8aeea20","ios":"levelo://app?vid=22a18f5a-e84b-4706-acdf-fdede8aeea20"},"vehicle_type_id":"4","last_reported":1770409288,"current_range_meters":8400,"station_id":"ce4bhl92rcd13ifvqghg","pricing_plan_id":"cebpf4jnsgd1na2vs0mg"},{"bike_id":"4e768b9d-ac09-4aa9-91e9-f26739b610c9","system_id":"levelo_inurba_marseille","lat":43.23776,"lon":5.36626,"is_reserved":false,"is_disabled":false,"rental_uris":{"android":"levelo://app?vid=4e768b9d-ac09-4aa9-91e9-f26739b610c9","ios":"levelo://app?vid=4e768b9d-ac09-4aa9-91e9-f26739b610c9"},"vehicle_type_id":"4","last_reported":1770409288,"current_range_meters":8400,"station_id":"st_d3nk18o9ro0c73en2l3g","pricing_plan_id":"cebpf4jnsgd1na2vs0mg"},{"bike_id":"62eb3320-a821-449e-b06f-71eaef187196","system_id":"levelo_inurba_marseille","lat":43.29259,"lon":5.36855,"is_reserved":false,"is_disabled":false,"rental_uris":{"android":"levelo://app?vid=62eb3320-a821-449e-b06f-71eaef187196","ios":"levelo://app?vid=62eb3320-a821-449e-b06f-71eaef187196"},"vehicle_type_id":"4","last_reported":1770409288,"current_range_meters":8400,"station_id":"ce4bhbp2rcd13ifvqesg","pricing_plan_id":"cebpf4jnsgd1na2vs0mg"},{"bike_id":"bb454300-9af5-4f97-bf20-719b8c1f1b1e","system_id":"levelo_inurba_marseille","lat":43.29033,"lon":5.38643,"is_reserved":false,"is_disabled":false,"rental_uris":{"android":"levelo://app?vid=bb454300-9af5-4f97-bf20-719b8c1f1b1e","ios":"levelo://app?vid=bb454300-9af5-4f97-bf20-719b8c1f1b1e"},"vehicle_type_id":"4","last_reported":1770409288,"current_range_meters":8400,"station_id":"ce4bh4p2rcd13ifvqe0g","pricing_plan_id":"cebpf4jnsgd1na2vs0mg"},{"bike_id":"762d17af-af27-45ae-8011-3c290ff80fd9","system_id":"levelo_inurba_marseille","lat":43.24166,"lon":5.36405,"is_reserved":false,"is_disabled":false,"rental_uris":{"android":"levelo://app?vid=762d17af-af27-45ae-8011-3c290ff80fd9","ios":"levelo://app?vid=762d17af-af27-45ae-8011-3c290ff80fd9"},"vehicle_type_id":"4","last_reported":1770409288,"current_range_meters":8400,"station_id":"cpo36qri1sfpv3e86is0","pricing_plan_id":"cebpf4jnsgd1na2vs0mg"},{"bike_id":"4cb8922e-4cdf-46d1-8a1d-27e69136b780","system_id":"levelo_inurba_marseille","lat":43.28401,"lon":5.37527,"is_reserved":false,"is_disabled":false,"rental_uris":{"android":"levelo://app?vid=4cb8922e-4cdf-46d1-8a1d-27e69136b780","ios":"levelo://app?vid=4cb8922e-4cdf-46d1-8a1d-27e69136b780"},"vehicle_type_id":"4","last_reported":1770409288,"current_range_meters":8400,"station_id":"ce4bh412rcd13ifvqds0","pricing_plan_id":"cebpf4jnsgd1na2vs0mg"},{"bike_id":"4488e615-2b35-4f05-a075-c09a71129da2","system_id":"levelo_inurba_marseille","lat":43.30637,"lon":5.40056,"is_reserved":false,"is_disabled":false,"rental_uris":{"android":"levelo://app?vid=4488e615-2b35-4f05-a075-c09a71129da2","ios":"levelo://app?vid=4488e615-2b35-4f05-a075-c09a71129da2"},"vehicle_type_id":"4","last_reported":1770409288,"current_range_meters":8400,"station_id":"ce4bh112rcd13ifvqda0","pricing_plan_id":"cebpf4jnsgd1na2vs0mg"},{"bike_id":"6b5f9fa2-2744-46c6-8772-03d01e837a8b","system_id":"levelo_inurba_marseille","lat":43.29262,"lon":5.38435,"is_reserved":false,"is_disabled":false,"rental_uris":{"android":"levelo://app?vid=6b5f9fa2-2744-46c6-8772-03d01e837a8b","ios":"levelo://app?vid=6b5f9fa2-2744-46c6-8772-03d01e837a8b"},"vehicle_type_id":"4","last_reported":1770409288,"current_range_meters":8400,"station_id":"ce4bh692rcd13ifvqea0","pricing_plan_id":"cebpf4jnsgd1na2vs0mg"},