{"last_updated":1706547998,"ttl":30,"version":"2.2","data":{"bikes":[{"bike_id":"80df1059-8b80-421d-9910-81c4969ac55d","system_id":"levelo_inurba_marseille","lat":43.31225,"lon":5.368547,"is_reserved":false,"is_disabled":false,"rental_uris":{"android":"levelo://app?vid=80df1059-8b80-421d-9910-81c4969ac55d","ios":"levelo://app?vid=80df1059-8b80-421d-9910-81c4969ac55d"},"vehicle_type_id":"4","last_reported":1706547998,"current_range_meters":0,"station_id":"ce4bgl92rcd13ifvqbq0","pricing_plan_id":"free"},{"bike_id":"76b26937-2e59-4737-9cc5-be9b5c365c5d","system_id":"levelo_inurba_marseille","lat":43.312239,"lon":5.368562,"is_reserved":false,"is_disabled":false,"rental_uris":{"android":"levelo://app?vid=76b26937-2e59-4737-9cc5-be9b5c365c5d","ios":"levelo://app?vid=76b26937-2e59-4737-9cc5-be9b5c365c5d"},"vehicle_type_id":"4","last_reported":1706547998,"current_range_meters":17600,"station_id":"ce4bgl92rcd13ifvqbq0","pricing_plan_id":"free"},{"bike_id":"bbff5db3-4791-42be-8696-6d4e06ba30c1","system_id":"levelo_inurba_marseille","lat":43.312239,"lon":5.368562,"is_reserved":false,"is_disabled":false,"rental_uris":{"android":"levelo://app?vid=bbff5db3-4791-42be-8696-6d4e06ba30c1","ios":"levelo://app?vid=bbff5db3-4791-42be-8696-6d4e06ba30c1"},"vehicle_type_id":"4","last_reported":1706547998,"current_range_meters":24400,"station_id":"ce4bgl92rcd13ifvqbq0","pricing_plan_id":"free"},{"bike_id":"f39fb87c-f0fb-4d86-838c-a9151d076cd5","system_id":"levelo_inurba_marseille","lat":43.314811,"lon":5.373103,"is_reserved":false,"is_disabled":false,"rental_uris":{"android":"levelo://app?vid=f39fb87c-f0fb-4d86-838c-a9151d076cd5","ios":"levelo://app?vid=f39fb87c-f0fb-4d86-838c-a9151d076cd5"},"vehicle_type_id":"4","last_reported":1706547998,"current_range_meters":21600,"station_id":"ce4bgt12rcd13ifvqcd0","pricing_plan_id":"free"},{"bike_id":"bee31afc-eaa2-4d44-b73f-80df9b86b312","system_id":"levelo_inurba_marseille","lat":43.314811,"lon":5.373103,"is_reserved":false,"is_disabled":false,"rental_uris":{"android":"levelo://app?vid=bee31afc-eaa2-4d44-b73f-80df9b86b312","ios":"levelo://app?vid=bee31afc-eaa2-4d44-b73f-80df9b86b312"},"vehicle_type_id":"4","last_reported":1706547998,"current_range_meters":21600,"station_id":"ce4bgt12rcd13ifvqcd0","pricing_plan_id":"free"},{"bike_id":"648845a9-df6f-4e05-8841-0f92dac36dbf","system_id":"levelo_inurba_marseille","lat":43.308012,"lon":5.381511,"is_reserved":false,"is_disabled":false,"rental_uris":{"android":"levelo://app?vid=648845a9-df6f-4e05-8841-0f92dac36dbf","ios":"levelo://app?vid=648845a9-df6f-4e05-8841-0f92dac36dbf"},"vehicle_type_id":"4","last_reported":1706547998,"current_range_meters":6400,"station_id":"ce4bgt12rcd13ifvqce0","pricing_plan_id":"free"},{"bike_id":"8f8331f7-de85-4907-aab4-85108eeeded1","system_id":"levelo_inurba_marseille","lat":43.30638,"lon":5.36759,"is_reserved":false,"is_disabled":false,"rental_uris":{"android":"levelo://app?vid=8f8331f7-de85-4907-aab4-85108eeeded1","ios":"levelo://app?vid=8f8331f7-de85-4907-aab4-85108eeeded1"},"vehicle_type_id":"4","last_reported":1706547998,"current_range_meters":29200,"station_id":"","pricing_plan_id":"free"},{"bike_id":"bfe45a59-04c2-42fb-ac31-823ceee77821","system_id":"levelo_inurba_marseille","lat":43.305368,"lon":5.367343,"is_reserved":false,"is_disabled":false,"rental_uris":{"android":"levelo://app?vid=bfe45a59-04c2-42fb-ac31-823ceee77821","ios":"levelo://app?vid=bfe45a59-04c2-42fb-ac31-823ceee77821"},"vehicle_type_id":"4","last_reported":1706547998,"current_range_meters":3200,"station_id":"ce4bgrp2rcd13ifvqc9g","pricing_plan_id":"free"},{"bike_id":"67a6cfe2-a0fb-4e31-a9f7-42728eeb7690","system_id":"levelo_inurba_marseille","lat":43.30601,"lon":5.37231,"is_reserved":false,"is_disabled":false,"rental_uris":{"android":"levelo://app?vid=67a6cfe2-a0fb-4e31-a9f7-42728eeb7690","ios":"levelo://app?vid=67a6cfe2-a0fb-4e31-a9f7-42728eeb7690"},"vehicle_type_id":"4","last_reported":1706547998,"current_range_meters":1600,"station_id":"ce4bgqh2rcd13ifvqc4g","pricing_plan_id":"free"},{"bike_id":"67729521-91ce-482e-89d2-f1b57d900451","system_id":"levelo_inurba_marseille","lat":43.30586,"lon":5.37225,"is_reserved":false,"is_disabled":false,"rental_uris":{"android":"levelo://app?vid=67729521-91ce-482e-89d2-f1b57d900451","ios":"levelo://app?vid=67729521-91ce-482e-89d2-f1b57d900451"},"vehicle_type_id":"4","last_reported":1706547998,"current_range_meters":0,"station_id":"ce4bgqh2rcd13ifvqc4g","pricing_plan_id":"free"},{"bike_id":"d6f5915e-cbc0-43ca-a336-deb21e607484","system_id":"levelo_inurba_marseille","lat":43.311106,"lon":5.377557,"is_reserved":false,"is_disabled":false,"rental_uris":{"android":"levelo://app?vid=d6f5915e-cbc0-43ca-a336-deb21e607484","ios":"levelo://app?vid=d6f5915e-cbc0-43ca-a336-deb21e607484"},"vehicle_type_id":"4","last_reported":1706547998,"current_range_meters":11200,"station_id":"","pricing_plan_id":"free"},{"bike_id":"97807fe8-66d7-4795-ae9e-56808d441591","system_id":"levelo_inurba_marseille","lat":43.311125,"lon":5.377624,"is_reserved":false,"is_disabled":false,"rental_uris":{"android":"levelo://app?vid=97807fe8-66d7-4795-ae9e-56808d441591","ios":"levelo://app?vid=97807fe8-66d7-4795-ae9e-56808d441591"},"vehicle_type_id":"4","last_reported":1706547998,"current_range_meters":10400,"station_id":"ce4bgt92rcd13ifvqcg0","pricing_plan_id":"free"},{"bike_id":"b6f17dc9-fb3d-43ab-8655-dafe3cfa3d1e","system_id":"levelo_inurba_marseille","lat":43.311131,"lon":5.377651,"is_reserved":false,"is_disabled":false,"rental_uris":{"android":"levelo://app?vid=b6f17dc9-fb3d-43ab-8655-dafe3cfa3d1e","ios":"levelo://app?vid=b6f17dc9-fb3d-43ab-8655-dafe3cfa3d1e"},"vehicle_type_id":"4","last_reported":1706547998,"current_range_meters":13200,"station_id":"ce4bgt92rcd13ifvqcg0","pricing_plan_id":"free"},{"bike_id":"a8f93b1d-8059-46b0-a3af-22957156ecbf","system_id":"levelo_inurba_marseille","lat":43.311131,"lon":5.377651,"is_reserved":false,"is_disabled":false,"rental_uris":{"android":"levelo://app?vid=a8f93b1d-8059-46b0-a3af-22957156ecbf","ios":"levelo://app?vid=a8f93b1d-8059-46b0-a3af-22957156ecbf"},"vehicle_type_id":"4","last_reported":1706547998,"current_range_meters":18800,"station_id":"ce4bgt92rcd13ifvqcg0","pricing_plan_id":"free"},{"bike_id":"fdff2eef-f45d-445f-8b1e-53b31401d68a","system_id":"levelo_inurba_marseille","lat":43.31113,"lon":5.37776,"is_reserved":false,"is_disabled":false,"rental_uris":{"android":"levelo://app?vid=fdff2eef-f45d-445f-8b1e-53b31401d68a","ios":"levelo://app?vid=fdff2eef-f45d-445f-8b1e-53b31401d68a"},"vehicle_type_id":"4","last_reported":1706547998,"current_range_meters":20000,"station_id":"ce4bgt92rcd13ifvqcg0","pricing_plan_id":"free"},{"bike_id":"38267625-e798-44e7-87c2-33025f903d7b","system_id":"levelo_inurba_marseille","lat":43.311125,"lon":5.377624,"is_reserved":false,"is_disabled":false,"rental_uris":{"android":"levelo://app?vid=38267625-e798-44e7-87c2-33025f903d7b","ios":"levelo://app?vid=38267625-e798-44e7-87c2-33025f903d7b"},"vehicle_type_id":"4","last_reported":1706547998,"current_range_meters":2800,"station_id":"ce4bgt92rcd13ifvqcg0","pricing_plan_id":"free"},{"bike_id":"d1c519b7-6d5e-4bd3-8b40-28ef977b6ecc","system_id":"levelo_inurba_marseille","lat":43.311131,"lon":5.377651,"is_reserved":false,"is_disabled":false,"rental_uris":{"android":"levelo://app?vid=d1c519b7-6d5e-4bd3-8b40-28ef977b6ecc","ios":"levelo://app?vid=d1c519b7-6d5e-4bd3-8b40-28ef977b6ecc"},"vehicle_type_id":"4","last_reported":1706547998,"current_range_meters":24000,"station_id":"ce4bgt92rcd13ifvqcg0","pricing_plan_id":"free"},{"bike_id":"3e7143e6-9bb8-48ee-a4d3-ecd334eb6c36","system_id":"levelo_inurba_marseille","lat":43.311131,"lon":5.377651,"is_reserved":false,"is_disabled":false,"rental_uris":{"android":"levelo://app?vid=3e7143e6-9bb8-48ee-a4d3-ecd334eb6c36","ios":"levelo://app?vid=3e7143e6-9bb8-48ee-a4d3-ecd334eb6c36"},"vehicle_type_id":"4","last_reported":1706547998,"current_range_meters":0,"station_id":"ce4bgt92rcd13ifvqcg0","pricing_plan_id":"free"},{"bike_id":"e8667f64-941d-48b0-977d-61556c074f16","system_id":"levelo_inurba_marseille","lat":43.303046,"lon":5.368981,"is_reserved":false,"is_disabled":false,"rental_uris":{"android":"levelo://app?vid=e8667f64-941d-48b0-977d-61556c074f16","ios":"levelo://app?vid=e8667f64-941d-48b0-977d-61556c074f16"},"vehicle_type_id":"4","last_reported":1706547998,"current_range_meters":10400,"station_id":"ce4bgqh2rcd13ifvqc5g","pricing_plan_id":"free"},{"bike_id":"c493bfd4-0097-4911-8d43-99712f8c9337","system_id":"levelo_inurba_marseille","lat":43.30304,"lon":5.368987,"is_reserved":false,"is_disabled":false,"rental_uris":{"android":"levelo://app?vid=c493bfd4-0097-4911-8d43-99712f8c9337","ios":"levelo://app?vid=c493bfd4-0097-4911-8d43-99712f8c9337"},"vehicle_type_id":"4","last_reported":1706547998,"current_range_meters":13600,"station_id":"ce4bgqh2rcd13ifvqc5g","pricing_plan_id":"free"},{"bike_id":"b83daeb9-a39c-4884-86e2-16a37c651f7f","system_id":"levelo_inurba_marseille","lat":43.31998,"lon":5.37616,"is_reserved":false,"is_disabled":false,"rental_uris":{"android":"levelo://app?vid=b83daeb9-a39c-4884-86e2-16a37c651f7f","ios":"levelo://app?vid=b83daeb9-a39c-4884-86e2-16a37c651f7f"},"vehicle_type_id":"4","last_reported":1706547998,"current_range_meters":800,"station_id":"","pricing_plan_id":"free"},{"bike_id":"01ae6f35-1538-4e0c-bb10-22f10407cb79","system_id":"levelo_inurba_marseille","lat":43.304606,"lon":5.379026,"is_reserved":false,"is_disabled":false,"rental_uris":{"android":"levelo://app?vid=01ae6f35-1538-4e0c-bb10-22f10407cb79","ios":"levelo://app?vid=01ae6f35-1538-4e0c-bb10-22f10407cb79"},"vehicle_type_id":"4","last_reported":1706547998,"current_range_meters":0,"station_id":"ce4bgup2rcd13ifvqcn0","pricing_plan_id":"free"},{"bike_id":"a46164d7-bb41-4282-80c1-d83d1b8ddd60","system_id":"levelo_inurba_marseille","lat":43.308012,"lon":5.381511,"is_reserved":false,"is_disabled":false,"rental_uris":{"android":"levelo://app?vid=a46164d7-bb41-4282-80c1-d83d1b8ddd60","ios":"levelo://app?vid=a46164d7-bb41-4282-80c1-d83d1b8ddd60"},"vehicle_type_id":"4","last_reported":1706547998,"current_range_meters":28400,"station_id":"ce4bgt12rcd13ifvqce0","pricing_plan_id":"free"},{"bike_id":"88c14f06-e2f8-4000-99a8-0a52526b1149","system_id":"levelo_inurba_marseille","lat":43.308012,"lon":5.381511,"is_reserved":false,"is_disabled":false,"rental_uris":{"android":"levelo://app?vid=88c14f06-e2f8-4000-99a8-0a52526b1149","ios":"levelo://app?vid=88c14f06-e2f8-4000-99a8-0a52526b1149"},"vehicle_type_id":"4","last_reported":1706547998,"current_range_meters":29200,"station_id":"ce4bgt12rcd13ifvqce0","pricing_plan_id":"free"},{"bike_id":"9a8ae43c-6755-4e42-bc4d-59c30e9ab810","system_id":"levelo_inurba_marseille","lat":43.308012,"lon":5.381511,"is_reserved":false,"is_disabled":false,"rental_uris":{"android":"levelo://app?vid=9a8ae43c-6755-4e42-bc4d-59c30e9ab810","ios":"levelo://app?vid=9a8ae43c-6755-4e42-bc4d-59c30e9ab810"},"vehicle_type_id":"4","last_reported":1706547998,"current_range_meters":29200,"station_id":"ce4bgt12rcd13ifvqce0","pricing_plan_id":"free"},{"bike_id":"1da19099-0f63-49c6-b35b-07b92c78caf7","system_id":"levelo_inurba_marseille","lat":43.308012,"lon":5.381511,"is_reserved":false,"is_disabled":false,"rental_uris":{"android":"levelo://app?vid=1da19099-0f63-49c6-b35b-07b92c78caf7","ios":"levelo://app?vid=1da19099-0f63-49c6-b35b-07b92c78caf7"},"vehicle_type_id":"4","last_reported":1706547998,"current_range_meters":0,"station_id":"ce4bgt12rcd13ifvqce0","pricing_plan_id":"free"},{"bike_id":"e775dd3e-eb1d-4bb1-80b9-21c0bbd49312","system_id":"levelo_inurba_marseille","lat":43.308012,"lon":5.381511,"is_reserved":false,"is_disabled":false,"rental_uris":{"android":"levelo://app?vid=e775dd3e-eb1d-4bb1-80b9-21c0bbd49312","ios":"levelo://app?vid=e775dd3e-eb1d-4bb1-80b9-21c0bbd49312"},"vehicle_type_id":"4","last_reported":1706547998,"current_range_meters":30400,"station_id":"ce4bgt12rcd13ifvqce0","pricing_plan_id":"free"},{"bike_id":"4adb2fd5-0f9b-4466-ac5d-aaf908726e32","system_id":"levelo_inurba_marseille","lat":43.308012,"lon":5.381511,"is_reserved":false,"is_disabled":false,"rental_uris":{"android":"levelo://app?vid=4adb2fd5-0f9b-4466-ac5d-aaf908726e32","ios":"levelo://app?vid=4adb2fd5-0f9b-4466-ac5d-aaf908726e32"},"vehicle_type_id":"4","last_reported":1706547998,"current_range_meters":3600,"station_id":"ce4bgt12rcd13ifvqce0","pricing_plan_id":"free"},{"bike_id":"dc00bdf8-dc57-4b02-8d44-8ea4906debe3","system_id":"levelo_inurba_marseille","lat":43.324771,"lon":5.36557,"is_reserved":false,"is_disabled":false,"rental_uris":{"android":"levelo://app?vid=dc00bdf8-dc57-4b02-8d44-8ea4906debe3","ios":"levelo://app?vid=dc00bdf8-dc57-4b02-8d44-8ea4906debe3"},"vehicle_type_id":"4","last_reported":1706547998,"current_range_meters":12400,"station_id":"ce4bhs12rcd13ifvqhvg","pricing_plan_id":"free"},{"bike_id":"4c1d912b-8425-4b28-bcd4-0691a1724560","system_id":"levelo_inurba_marseille","lat":43.32479,"lon":5.365716,"is_reserved":false,"is_disabled":false,"rental_uris":{"android":"levelo://app?vid=4c1d912b-8425-4b28-bcd4-0691a1724560","ios":"levelo://app?vid=4c1d912b-8425-4b28-bcd4-0691a1724560"},"vehicle_type_id":"4","last_reported":1706547998,"current_range_meters":28000,"station_id":"ce4bhs12rcd13ifvqhvg","pricing_plan_id":"free"},{"bike_id":"13bd44b9-8ecb-46da-981f-fe222ffce708","system_id":"levelo_inurba_marseille","lat":43.324771,"lon":5.36557,"is_reserved":false,"is_disabled":false,"rental_uris":{"android":"levelo://app?vid=13bd44b9-8ecb-46da-981f-fe222ffce708","ios":"levelo://app?vid=13bd44b9-8ecb-46da-981f-fe222ffce708"},"vehicle_type_id":"4","last_reported":1706547998,"current_range_meters":13200,"station_id":"ce4bhs12rcd13ifvqhvg","pricing_plan_id":"free"},{"bike_id":"2d40c143-6cb5-4df6-a200-396289dcd0f5","system_id":"levelo_inurba_marseille","lat":43.324771,"lon":5.36557,"is_reserved":false,"is_disabled":false,"rental_uris":{"android":"levelo://app?vid=2d40c143-6cb5-4df6-a200-396289dcd0f5","ios":"levelo://app?vid=2d40c143-6cb5-4df6-a200-396289dcd0f5"},"vehicle_type_id":"4","last_reported":1706547998,"current_range_meters":3200,"station_id":"ce4bhs12rcd13ifvqhvg","pricing_plan_id":"free"},{"bike_id":"96bada0b-1fa9-4706-87e9-8f67e261e440","system_id":"levelo_inurba_marseille","lat":43.324771,"lon":5.36557,"is_reserved":false,"is_disabled":false,"rental_uris":{"android":"levelo://app?vid=96bada0b-1fa9-4706-87e9-8f67e261e440","ios":"levelo://app?vid=96bada0b-1fa9-4706-87e9-8f67e261e440"},"vehicle_type_id":"4","last_reported":1706547998,"current_range_meters":24400,"station_id":"ce4bhs12rcd13ifvqhvg","pricing_plan_id":"free"},{"bike_id":"e5e3777c-f07f-4dbb-87d8-001a5cfec6d3","system_id":"levelo_inurba_marseille","lat":43.302907,"lon":5.376907,"is_reserved":false,"is_disabled":false,"rental_uris":{"android":"levelo://app?vid=e5e3777c-f07f-4dbb-87d8-001a5cfec6d3","ios":"levelo://app?vid=e5e3777c-f07f-4dbb-87d8-001a5cfec6d3"},"vehicle_type_id":"4","last_reported":1706547998,"current_range_meters":30000,"station_id":"ce4bguh2rcd13ifvqcj0","pricing_plan_id":"free"},{"bike_id":"5ed2df3d-5f5c-4bf3-9add-a195549f07a7","system_id":"levelo_inurba_marseille","lat":43.302906,"lon":5.376942,"is_reserved":false,"is_disabled":false,"rental_uris":{"android":"levelo://app?vid=5ed2df3d-5f5c-4bf3-9add-a195549f07a7","ios":"levelo://app?vid=5ed2df3d-5f5c-4bf3-9add-a195549f07a7"},"vehicle_type_id":"4","last_reported":1706547998,"current_range_meters":27200,"station_id":"ce4bguh2rcd13ifvqcj0","pricing_plan_id":"free"},{"bike_id":"1e10b15e-8d22-4092-9ebb-d85a03150191","system_id":"levelo_inurba_marseille","lat":43.302784,"lon":5.377158,"is_reserved":false,"is_disabled":false,"rental_uris":{"android":"levelo://app?vid=1e10b15e-8d22-4092-9ebb-d85a03150191","ios":"levelo://app?vid=1e10b15e-8d22-4092-9ebb-d85a03150191"},"vehicle_type_id":"4","last_reported":1706547998,"current_range_meters":12000,"station_id":"ce4bguh2rcd13ifvqcj0","pricing_plan_id":"free"},{"bike_id":"e46496ac-fd2c-461b-afd0-f8eb0f31a9a4","system_id":"levelo_inurba_marseille","lat":43.301429,"lon":5.37413,"is_reserved":false,"is_disabled":false,"rental_uris":{"android":"levelo://app?vid=e46496ac-fd2c-461b-afd0-f8eb0f31a9a4","ios":"levelo://app?vid=e46496ac-fd2c-461b-afd0-f8eb0f31a9a4"},"vehicle_type_id":"4","last_reported":1706547998,"current_range_meters":15200,"station_id":"ce4bgs92rcd13ifvqcc0","pricing_plan_id":"free"},{"bike_id":"dd6b7008-c30f-4316-8921-b5028f9d3f38","system_id":"levelo_inurba_marseille","lat":43.319935,"lon":5.381699,"is_reserved":false,"is_disabled":false,"rental_uris":{"android":"levelo://app?vid=dd6b7008-c30f-4316-8921-b5028f9d3f38","ios":"levelo://app?vid=dd6b7008-c30f-4316-8921-b5028f9d3f38"},"vehicle_type_id":"4","last_reported":1706547998,"current_range_meters":21200,"station_id":"ce4bhr12rcd13ifvqhpg","pricing_plan_id":"free"},{"bike_id":"0ca84510-6630-47d1-867a-145dbc99d2a1","system_id":"levelo_inurba_marseille","lat":43.319935,"lon":5.381699,"is_reserved":false,"is_disabled":false,"rental_uris":{"android":"levelo://app?vid=0ca84510-6630-47d1-867a-145dbc99d2a1","ios":"levelo://app?vid=0ca84510-6630-47d1-867a-145dbc99d2a1"},"vehicle_type_id":"4","last_reported":1706547998,"current_range_meters":21200,"station_id":"ce4bhr12rcd13ifvqhpg","pricing_plan_id":"free"},{"bike_id":"62359dd4-e5a2-43d3-8c03-a9073c8bb30e","system_id":"levelo_inurba_marseille","lat":43.314811,"lon":5.373103,"is_reserved":false,"is_disabled":false,"rental_uris":{"android":"levelo://app?vid=62359dd4-e5a2-43d3-8c03-a9073c8bb30e","ios":"levelo://app?vid=62359dd4-e5a2-43d3-8c03-a9073c8bb30e"},"vehicle_type_id":"4","last_reported":1706547998,"current_range_meters":17600,"station_id":"ce4bgt12rcd13ifvqcd0","pricing_plan_id":"free"},{"bike_id":"a6345780-30db-47f2-acfb-6adc1facc2d6","system_id":"levelo_inurba_marseille","lat":43.319935,"lon":5.381699,"is_reserved":false,"is_disabled":false,"rental_uris":{"android":"levelo://app?vid=a6345780-30db-47f2-acfb-6adc1facc2d6","ios":"levelo://app?vid=a6345780-30db-47f2-acfb-6adc1facc2d6"},"vehicle_type_id":"4","last_reported":1706547998,"current_range_meters":2400,"station_id":"ce4bhr12rcd13ifvqhpg","pricing_plan_id":"free"},{"bike_id":"cd30b5a5-782c-4eab-93e0-5189b5d36bf3","system_id":"levelo_inurba_marseille","lat":43.31367,"lon":5.38501,"is_reserved":false,"is_disabled":false,"rental_uris":{"android":"levelo://app?vid=cd30b5a5-782c-4eab-93e0-5189b5d36bf3","ios":"levelo://app?vid=cd30b5a5-782c-4eab-93e0-5189b5d36bf3"},"vehicle_type_id":"4","last_reported":1706547998,"current_range_meters":6400,"station_id":"ce4bgt92rcd13ifvqcf0","pricing_plan_id":"free"},{"bike_id":"652b8d16-5bd7-4de8-bf81-facfa640661c","system_id":"levelo_inurba_marseille","lat":43.31352,"lon":5.38506,"is_reserved":false,"is_disabled":false,"rental_uris":{"android":"levelo://app?vid=652b8d16-5bd7-4de8-bf81-facfa640661c","ios":"levelo://app?vid=652b8d16-5bd7-4de8-bf81-facfa640661c"},"vehicle_type_id":"4","last_reported":1706547998,"current_range_meters":4000,"station_id":"ce4bgt92rcd13ifvqcf0","pricing_plan_id":"free"},{"bike_id":"c1e953ff-e048-4fc9-b27a-8bc93bd0fb74","system_id":"levelo_inurba_marseille","lat":43.299222,"lon":5.365554,"is_reserved":false,"is_disabled":false,"rental_uris":{"android":"levelo://app?vid=c1e953ff-e048-4fc9-b27a-8bc93bd0fb74","ios":"levelo://app?vid=c1e953ff-e048-4fc9-b27a-8bc93bd0fb74"},"vehicle_type_id":"4","last_reported":1706547998,"current_range_meters":29600,"station_id":"ce4bgm92rcd13ifvqbr0","pricing_plan_id":"free"},{"bike_id":"9c07ab3c-0733-43f8-9a5c-92a736ecd183","system_id":"levelo_inurba_marseille","lat":43.298433,"lon":5.362774,"is_reserved":false,"is_disabled":false,"rental_uris":{"android":"levelo://app?vid=9c07ab3c-0733-43f8-9a5c-92a736ecd183","ios":"levelo://app?vid=9c07ab3c-0733-43f8-9a5c-92a736ecd183"},"vehicle_type_id":"4","last_reported":1706547998,"current_range_meters":22800,"station_id":"ce4bgpp2rcd13ifvqc3g","pricing_plan_id":"free"},{"bike_id":"6ec94acd-8e42-467d-b63a-a54102d67760","system_id":"levelo_inurba_marseille","lat":43.298433,"lon":5.362774,"is_reserved":false,"is_disabled":false,"rental_uris":{"android":"levelo://app?vid=6ec94acd-8e42-467d-b63a-a54102d67760","ios":"levelo://app?vid=6ec94acd-8e42-467d-b63a-a54102d67760"},"vehicle_type_id":"4","last_reported":1706547998,"current_range_meters":29200,"station_id":"ce4bgpp2rcd13ifvqc3g","pricing_plan_id":"free"},{"bike_id":"0f204089-8036-41aa-8154-73e73ef85fae","system_id":"levelo_inurba_marseille","lat":43.311643,"lon":5.38716,"is_reserved":false,"is_disabled":false,"rental_uris":{"android":"levelo://app?vid=0f204089-8036-41aa-8154-73e73ef85fae","ios":"levelo://app?vid=0f204089-8036-41aa-8154-73e73ef85fae"},"vehicle_type_id":"4","last_reported":1706547998,"current_range_meters":0,"station_id":"ce4bgv12rcd13ifvqcp0","pricing_plan_id":"free"},{"bike_id":"e1539f0d-02e3-46ca-8fd2-b115fd55a782","system_id":"levelo_inurba_marseille","lat":43.322872,"lon":5.382756,"is_reserved":false,"is_disabled":false,"rental_uris":{"android":"levelo://app?vid=e1539f0d-02e3-46ca-8fd2-b115fd55a782","ios":"levelo://app?vid=e1539f0d-02e3-46ca-8fd2-b115fd55a782"},"vehicle_type_id":"4","last_reported":1706547998,"current_range_meters":19600,"station_id":"ce4bhr12rcd13ifvqhqg","pricing_plan_id":"free"},{"bike_id":"4c76a369-40e2-427c-bdd2-4ff8a4634e1e","system_id":"levelo_inurba_marseille","lat":43.322872,"lon":5.382756,"is_reserved":false,"is_disabled":false,"rental_uris":{"android":"levelo://app?vid=4c76a369-40e2-427c-bdd2-4ff8a4634e1e","ios":"levelo://app?vid=4c76a369-40e2-427c-bdd2-4ff8a4634e1e"},"vehicle_type_id":"4","last_reported":1706547998,"current_range_meters":11200,"station_id":"ce4bhr12rcd13ifvqhqg","pricing_plan_id":"free"},{"bike_id":"889580a8-390b-425d-ba86-1d259400af7d","system_id":"levelo_inurba_marseille","lat":43.322872,"lon":5.382756,"is_reserved":false,"is_disabled":false,"rental_uris":{"android":"levelo://app?vid=889580a8-390b-425d-ba86-1d259400af7d","ios":"levelo://app?vid=889580a8-390b-425d-ba86-1d259400af7d"},"vehicle_type_id":"4","last_reported":1706547998,"current_range_meters":18800,"station_id":"ce4bhr12rcd13ifvqhqg","pricing_plan_id":"free"},{"bike_id":"cf62d359-233b-4b18-95f1-d62d25ae2727","system_id":"levelo_inurba_marseille","lat":43.328371,"lon":5.366909,"is_reserved":false,"is_disabled":false,"rental_uris":{"android":"levelo://app?vid=cf62d359-233b-4b18-95f1-d62d25ae2727","ios":"levelo://app?vid=cf62d359-233b-4b18-95f1-d62d25ae2727"},"vehicle_type_id":"4","last_reported":1706547998,"current_range_meters":14400,"station_id":"ce4bhs92rcd13ifvqi0g","pricing_plan_id":"free"},{"bike_id":"12d7300c-7281-4d65-b928-1f4a31310a0c","system_id":"levelo_inurba_marseille","lat":43.328371,"lon":5.366909,"is_reserved":false,"is_disabled":false,"rental_uris":{"android":"levelo://app?vid=12d7300c-7281-4d65-b928-1f4a31310a0c","ios":"levelo://app?vid=12d7300c-7281-4d65-b928-1f4a31310a0c"},"vehicle_type_id":"4","last_reported":1706547998,"current_range_meters":20400,"station_id":"ce4bhs92rcd13ifvqi0g","pricing_plan_id":"free"},{"bike_id":"da669c02-ed5d-4764-a763-a0425441c3dd","system_id":"levelo_inurba_marseille","lat":43.328371,"lon":5.366909,"is_reserved":false,"is_disabled":false,"rental_uris":{"android":"levelo://app?vid=da669c02-ed5d-4764-a763-a0425441c3dd","ios":"levelo://app?vid=da669c02-ed5d-4764-a763-a0425441c3dd"},"vehicle_type_id":"4","last_reported":1706547998,"current_range_meters":22000,"station_id":"ce4bhs92rcd13ifvqi0g","pricing_plan_id":"free"},{"bike_id":"d57909cb-3e98-4c2d-823f-aaa0142a4d84","system_id":"levelo_inurba_marseille","lat":43.297163,"lon":5.365866,"is_reserved":false,"is_disabled":false,"rental_uris":{"android":"levelo://app?vid=d57909cb-3e98-4c2d-823f-aaa0142a4d84","ios":"levelo://app?vid=d57909cb-3e98-4c2d-823f-aaa0142a4d84"},"vehicle_type_id":"4","last_reported":1706547998,"current_range_meters":20000,"station_id":"ce4bgn12rcd13ifvqbt0","pricing_plan_id":"free"},{"bike_id":"1c9d37d0-9c22-419e-afa7-1697cb75aab3","system_id":"levelo_inurba_marseille","lat":43.328371,"lon":5.366909,"is_reserved":false,"is_disabled":false,"rental_uris":{"android":"levelo://app?vid=1c9d37d0-9c22-419e-afa7-1697cb75aab3","ios":"levelo://app?vid=1c9d37d0-9c22-419e-afa7-1697cb75aab3"},"vehicle_type_id":"4","last_reported":1706547998,"current_range_meters":18000,"station_id":"ce4bhs92rcd13ifvqi0g","pricing_plan_id":"free"},{"bike_id":"065d9dff-4eb3-4046-a44f-539210e6e36c","system_id":"levelo_inurba_marseille","lat":43.297163,"lon":5.365866,"is_reserved":false,"is_disabled":false,"rental_uris":{"android":"levelo://app?vid=065d9dff-4eb3-4046-a44f-539210e6e36c","ios":"levelo://app?vid=065d9dff-4eb3-4046-a44f-539210e6e36c"},"vehicle_type_id":"4","last_reported":1706547998,"current_range_meters":13200,"station_id":"ce4bgn12rcd13ifvqbt0","pricing_plan_id":"free"},{"bike_id":"9cc30769-75e2-40a7-b116-b561ec6b360f","system_id":"levelo_inurba_marseille","lat":43.32838,"lon":5.36673,"is_reserved":false,"is_disabled":false,"rental_uris":{"android":"levelo://app?vid=9cc30769-75e2-40a7-b116-b561ec6b360f","ios":"levelo://app?vid=9cc30769-75e2-40a7-b116-b561ec6b360f"},"vehicle_type_id":"4","last_reported":1706547998,"current_range_meters":2800,"station_id":"ce4bhs92rcd13ifvqi0g","pricing_plan_id":"free"},{"bike_id":"29e1a788-c020-43f6-8a9c-15d25ec9789f","system_id":"levelo_inurba_marseille","lat":43.297163,"lon":5.365866,"is_reserved":false,"is_disabled":false,"rental_uris":{"android":"levelo://app?vid=29e1a788-c020-43f6-8a9c-15d25ec9789f","ios":"levelo://app?vid=29e1a788-c020-43f6-8a9c-15d25ec9789f"},"vehicle_type_id":"4","last_reported":1706547998,"current_range_meters":6800,"station_id":"ce4bgn12rcd13ifvqbt0","pricing_plan_id":"free"},{"bike_id":"62a39899-82cd-4c3b-b049-30fd1b5fe314","system_id":"levelo_inurba_marseille","lat":43.297163,"lon":5.365866,"is_reserved":false,"is_disabled":false,"rental_uris":{"android":"levelo://app?vid=62a39899-82cd-4c3b-b049-30fd1b5fe314","ios":"levelo://app?vid=62a39899-82cd-4c3b-b049-30fd1b5fe314"},"vehicle_type_id":"4","last_reported":1706547998,"current_range_meters":27600,"station_id":"ce4bgn12rcd13ifvqbt0","pricing_plan_id":"free"},{"bike_id":"78ad67a3-a637-4f77-aa09-c2a1c65d012e","system_id":"levelo_inurba_marseille","lat":43.2968,"lon":5.37291,"is_reserved":false,"is_disabled":false,"rental_uris":{"android":"levelo://app?vid=78ad67a3-a637-4f77-aa09-c2a1c65d012e","ios":"levelo://app?vid=78ad67a3-a637-4f77-aa09-c2a1c65d012e"},"vehicle_type_id":"4","last_reported":1706547998,"current_range_meters":26800,"station_id":"ce4bgk12rcd13ifvqbj0","pricing_plan_id":"free"},{"bike_id":"876515e9-f788-402a-8dbd-63373e523578","system_id":"levelo_inurba_marseille","lat":43.29617,"lon":5.37148,"is_reserved":false,"is_disabled":false,"rental_uris":{"android":"levelo://app?vid=876515e9-f788-402a-8dbd-63373e523578","ios":"levelo://app?vid=876515e9-f788-402a-8dbd-63373e523578"},"vehicle_type_id":"4","last_reported":1706547998,"current_range_meters":0,"station_id":"ce4bgnh2rcd13ifvqc0g","pricing_plan_id":"free"},{"bike_id":"2b2bf88d-edba-4e7b-9c4e-3f9836d42365","system_id":"levelo_inurba_marseille","lat":43.29573,"lon":5.367355,"is_reserved":false,"is_disabled":false,"rental_uris":{"android":"levelo://app?vid=2b2bf88d-edba-4e7b-9c4e-3f9836d42365","ios":"levelo://app?vid=2b2bf88d-edba-4e7b-9c4e-3f9836d42365"},"vehicle_type_id":"4","last_reported":1706547998,"current_range_meters":2800,"station_id":"ce4bgph2rcd13ifvqc2g","pricing_plan_id":"free"},{"bike_id":"e967c2a2-4189-4fe7-8e92-38307a05ce64","system_id":"levelo_inurba_marseille","lat":43.299028,"lon":5.381509,"is_reserved":false,"is_disabled":false,"rental_uris":{"android":"levelo://app?vid=e967c2a2-4189-4fe7-8e92-38307a05ce64","ios":"levelo://app?vid=e967c2a2-4189-4fe7-8e92-38307a05ce64"},"vehicle_type_id":"4","last_reported":1706547998,"current_range_meters":0,"station_id":"ce4bgj12rcd13ifvqbc0","pricing_plan_id":"free"},{"bike_id":"78ec2c66-c47c-4612-9a2e-d1a5d3e9adf8","system_id":"levelo_inurba_marseille","lat":43.317557,"lon":5.390173,"is_reserved":false,"is_disabled":false,"rental_uris":{"android":"levelo://app?vid=78ec2c66-c47c-4612-9a2e-d1a5d3e9adf8","ios":"levelo://app?vid=78ec2c66-c47c-4612-9a2e-d1a5d3e9adf8"},"vehicle_type_id":"4","last_reported":1706547998,"current_range_meters":21200,"station_id":"ce4bhqp2rcd13ifvqhng","pricing_plan_id":"free"},{"bike_id":"4e7b4943-8c3f-443a-afe9-447589b01b95","system_id":"levelo_inurba_marseille","lat":43.295748,"lon":5.37522,"is_reserved":false,"is_disabled":false,"rental_uris":{"android":"levelo://app?vid=4e7b4943-8c3f-443a-afe9-447589b01b95","ios":"levelo://app?vid=4e7b4943-8c3f-443a-afe9-447589b01b95"},"vehicle_type_id":"4","last_reported":1706547998,"current_range_meters":0,"station_id":"ce4bgh92rcd13ifvqb50","pricing_plan_id":"free"},{"bike_id":"11774811-71ac-4a3b-90a1-50bda41dfa74","system_id":"levelo_inurba_marseille","lat":43.29786,"lon":5.381,"is_reserved":false,"is_disabled":false,"rental_uris":{"android":"levelo://app?vid=11774811-71ac-4a3b-90a1-50bda41dfa74","ios":"levelo://app?vid=11774811-71ac-4a3b-90a1-50bda41dfa74"},"vehicle_type_id":"4","last_reported":1706547998,"current_range_meters":0,"station_id":"ce4bgip2rcd13ifvqbb0","pricing_plan_id":"free"},{"bike_id":"4dacac65-7c45-445d-96c7-f4052d44b6f8","system_id":"levelo_inurba_marseille","lat":43.304274,"lon":5.388873,"is_reserved":false,"is_disabled":false,"rental_uris":{"android":"levelo://app?vid=4dacac65-7c45-445d-96c7-f4052d44b6f8","ios":"levelo://app?vid=4dacac65-7c45-445d-96c7-f4052d44b6f8"},"vehicle_type_id":"4","last_reported":1706547998,"current_range_meters":5200,"station_id":"ce4bgk12rcd13ifvqbi0","pricing_plan_id":"free"},{"bike_id":"e70a95ff-e717-4ea2-bb59-73aeefdeeb52","system_id":"levelo_inurba_marseille","lat":43.30432,"lon":5.38895,"is_reserved":false,"is_disabled":false,"rental_uris":{"android":"levelo://app?vid=e70a95ff-e717-4ea2-bb59-73aeefdeeb52","ios":"levelo://app?vid=e70a95ff-e717-4ea2-bb59-73aeefdeeb52"},"vehicle_type_id":"4","last_reported":1706547998,"current_range_meters":15200,"station_id":"ce4bgk12rcd13ifvqbi0","pricing_plan_id":"free"},{"bike_id":"b4a8355d-1533-48c7-8c51-8cb5baeb9adc","system_id":"levelo_inurba_marseille","lat":43.304274,"lon":5.388873,"is_reserved":false,"is_disabled":false,"rental_uris":{"android":"levelo://app?vid=b4a8355d-1533-48c7-8c51-8cb5baeb9adc","ios":"levelo://app?vid=b4a8355d-1533-48c7-8c51-8cb5baeb9adc"},"vehicle_type_id":"4","last_reported":1706547998,"current_range_meters":23200,"station_id":"ce4bgk12rcd13ifvqbi0","pricing_plan_id":"free"},{"bike_id":"26534e01-f72c-46f6-8bfc-8b9284d8db27","system_id":"levelo_inurba_marseille","lat":43.299794,"lon":5.384919,"is_reserved":false,"is_disabled":false,"rental_uris":{"android":"levelo://app?vid=26534e01-f72c-46f6-8bfc-8b9284d8db27","ios":"levelo://app?vid=26534e01-f72c-46f6-8bfc-8b9284d8db27"},"vehicle_type_id":"4","last_reported":1706547998,"current_range_meters":0,"station_id":"ce4bgj92rcd13ifvqbd0","pricing_plan_id":"free"},{"bike_id":"ec6ebdb6-369e-44ae-bc9d-e190c314d25c","system_id":"levelo_inurba_marseille","lat":43.29973,"lon":5.38494,"is_reserved":false,"is_disabled":false,"rental_uris":{"android":"levelo://app?vid=ec6ebdb6-369e-44ae-bc9d-e190c314d25c","ios":"levelo://app?vid=ec6ebdb6-369e-44ae-bc9d-e190c314d25c"},"vehicle_type_id":"4","last_reported":1706547998,"current_range_meters":0,"station_id":"ce4bgj92rcd13ifvqbd0","pricing_plan_id":"free"},{"bike_id":"e6386b77-f0f7-4117-a36f-e99149818a78","system_id":"levelo_inurba_marseille","lat":43.29967,"lon":5.38491,"is_reserved":false,"is_disabled":false,"rental_uris":{"android":"levelo://app?vid=e6386b77-f0f7-4117-a36f-e99149818a78","ios":"levelo://app?vid=e6386b77-f0f7-4117-a36f-e99149818a78"},"vehicle_type_id":"4","last_reported":1706547998,"current_range_meters":20000,"station_id":"ce4bgj92rcd13ifvqbd0","pricing_plan_id":"free"},{"bike_id":"86c6fddc-30b6-41e3-839c-587ae9164091","system_id":"levelo_inurba_marseille","lat":43.299684,"lon":5.384985,"is_reserved":false,"is_disabled":false,"rental_uris":{"android":"levelo://app?vid=86c6fddc-30b6-41e3-839c-587ae9164091","ios":"levelo://app?vid=86c6fddc-30b6-41e3-839c-587ae9164091"},"vehicle_type_id":"4","last_reported":1706547998,"current_range_meters":5200,"station_id":"ce4bgj92rcd13ifvqbd0","pricing_plan_id":"free"},{"bike_id":"bb96cc50-1ab6-4111-933a-c92db7c32739","system_id":"levelo_inurba_marseille","lat":43.299717,"lon":5.384845,"is_reserved":false,"is_disabled":false,"rental_uris":{"android":"levelo://app?vid=bb96cc50-1ab6-4111-933a-c92db7c32739","ios":"levelo://app?vid=bb96cc50-1ab6-4111-933a-c92db7c32739"},"vehicle_type_id":"4","last_reported":1706547998,"current_range_meters":7200,"station_id":"ce4bgj92rcd13ifvqbd0","pricing_plan_id":"free"},{"bike_id":"11ca227b-d4c9-4e9a-9213-e2b20f9a8a3a","system_id":"levelo_inurba_marseille","lat":43.29965,"lon":5.38498,"is_reserved":false,"is_disabled":false,"rental_uris":{"android":"levelo://app?vid=11ca227b-d4c9-4e9a-9213-e2b20f9a8a3a","ios":"levelo://app?vid=11ca227b-d4c9-4e9a-9213-e2b20f9a8a3a"},"vehicle_type_id":"4","last_reported":1706547998,"current_range_meters":15600,"station_id":"ce4bgj92rcd13ifvqbd0","pricing_plan_id":"free"},{"bike_id":"a57eee41-9da2-481a-b18b-9ca90621a034","system_id":"levelo_inurba_marseille","lat":43.299724,"lon":5.384848,"is_reserved":false,"is_disabled":false,"rental_uris":{"android":"levelo://app?vid=a57eee41-9da2-481a-b18b-9ca90621a034","ios":"levelo://app?vid=a57eee41-9da2-481a-b18b-9ca90621a034"},"vehicle_type_id":"4","last_reported":1706547998,"current_range_meters":14400,"station_id":"ce4bgj92rcd13ifvqbd0","pricing_plan_id":"free"},{"bike_id":"0fddcd0f-06db-4e9a-ae4d-b1e9bf26cd99","system_id":"levelo_inurba_marseille","lat":43.304274,"lon":5.388873,"is_reserved":false,"is_disabled":false,"rental_uris":{"android":"levelo://app?vid=0fddcd0f-06db-4e9a-ae4d-b1e9bf26cd99","ios":"levelo://app?vid=0fddcd0f-06db-4e9a-ae4d-b1e9bf26cd99"},"vehicle_type_id":"4","last_reported":1706547998,"current_range_meters":6800,"station_id":"ce4bgk12rcd13ifvqbi0","pricing_plan_id":"free"},{"bike_id":"de25d637-84ec-4203-b892-3e1c2d7c4ddb","system_id":"levelo_inurba_marseille","lat":43.33168,"lon":5.36432,"is_reserved":false,"is_disabled":false,"rental_uris":{"android":"levelo://app?vid=de25d637-84ec-4203-b892-3e1c2d7c4ddb","ios":"levelo://app?vid=de25d637-84ec-4203-b892-3e1c2d7c4ddb"},"vehicle_type_id":"4","last_reported":1706547998,"current_range_meters":16400,"station_id":"","pricing_plan_id":"free"},{"bike_id":"b582a0a4-e40a-4ccb-ba69-2e68029444d2","system_id":"levelo_inurba_marseille","lat":43.32367,"lon":5.388836,"is_reserved":false,"is_disabled":false,"rental_uris":{"android":"levelo://app?vid=b582a0a4-e40a-4ccb-ba69-2e68029444d2","ios":"levelo://app?vid=b582a0a4-e40a-4ccb-ba69-2e68029444d2"},"vehicle_type_id":"4","last_reported":1706547998,"current_range_meters":4800,"station_id":"ce4bhqp2rcd13ifvqhog","pricing_plan_id":"free"},{"bike_id":"5fe2d271-663e-4fa1-91ad-391c73a80d19","system_id":"levelo_inurba_marseille","lat":43.29602,"lon":5.381084,"is_reserved":false,"is_disabled":false,"rental_uris":{"android":"levelo://app?vid=5fe2d271-663e-4fa1-91ad-391c73a80d19","ios":"levelo://app?vid=5fe2d271-663e-4fa1-91ad-391c73a80d19"},"vehicle_type_id":"4","last_reported":1706547998,"current_range_meters":16400,"station_id":"ce4bgl12rcd13ifvqbo0","pricing_plan_id":"free"},{"bike_id":"0ec3b267-be67-437c-9005-f5f0b94f56b4","system_id":"levelo_inurba_marseille","lat":43.294153,"lon":5.386305,"is_reserved":false,"is_disabled":false,"rental_uris":{"android":"levelo://app?vid=0ec3b267-be67-437c-9005-f5f0b94f56b4","ios":"levelo://app?vid=0ec3b267-be67-437c-9005-f5f0b94f56b4"},"vehicle_type_id":"4","last_reported":1706547998,"current_range_meters":30000,"station_id":"ce4bh2h2rcd13ifvqdh0","pricing_plan_id":"free"},{"bike_id":"cf4518b7-3576-47aa-87b0-da4f4d4a596c","system_id":"levelo_inurba_marseille","lat":43.29601,"lon":5.381084,"is_reserved":false,"is_disabled":false,"rental_uris":{"android":"levelo://app?vid=cf4518b7-3576-47aa-87b0-da4f4d4a596c","ios":"levelo://app?vid=cf4518b7-3576-47aa-87b0-da4f4d4a596c"},"vehicle_type_id":"4","last_reported":1706547998,"current_range_meters":14800,"station_id":"ce4bgl12rcd13ifvqbo0","pricing_plan_id":"free"},{"bike_id":"ea21740a-db50-4f4b-a400-6ceeafed5e3a","system_id":"levelo_inurba_marseille","lat":43.292749,"lon":5.368402,"is_reserved":false,"is_disabled":false,"rental_uris":{"android":"levelo://app?vid=ea21740a-db50-4f4b-a400-6ceeafed5e3a","ios":"levelo://app?vid=ea21740a-db50-4f4b-a400-6ceeafed5e3a"},"vehicle_type_id":"4","last_reported":1706547998,"current_range_meters":21600,"station_id":"ce4bhbp2rcd13ifvqesg","pricing_plan_id":"free"},{"bike_id":"ead30f07-71a0-49ff-ab14-0b794b3d1338","system_id":"levelo_inurba_marseille","lat":43.305994,"lon":5.393687,"is_reserved":false,"is_disabled":false,"rental_uris":{"android":"levelo://app?vid=ead30f07-71a0-49ff-ab14-0b794b3d1338","ios":"levelo://app?vid=ead30f07-71a0-49ff-ab14-0b794b3d1338"},"vehicle_type_id":"4","last_reported":1706547998,"current_range_meters":3600,"station_id":"ce4bh0p2rcd13ifvqd80","pricing_plan_id":"free"},{"bike_id":"eb3f9665-19b0-4c39-b960-be02684d1cbf","system_id":"levelo_inurba_marseille","lat":43.293009,"lon":5.374584,"is_reserved":false,"is_disabled":false,"rental_uris":{"android":"levelo://app?vid=eb3f9665-19b0-4c39-b960-be02684d1cbf","ios":"levelo://app?vid=eb3f9665-19b0-4c39-b960-be02684d1cbf"},"vehicle_type_id":"4","last_reported":1706547998,"current_range_meters":24800,"station_id":"ce4bgi12rcd13ifvqb70","pricing_plan_id":"free"},{"bike_id":"73baf77e-6bd3-4273-9ca4-67321908ab5b","system_id":"levelo_inurba_marseille","lat":43.303002,"lon":5.392142,"is_reserved":false,"is_disabled":false,"rental_uris":{"android":"levelo://app?vid=73baf77e-6bd3-4273-9ca4-67321908ab5b","ios":"levelo://app?vid=73baf77e-6bd3-4273-9ca4-67321908ab5b"},"vehicle_type_id":"4","last_reported":1706547998,"current_range_meters":18400,"station_id":"ce4bgkh2rcd13ifvqbk0","pricing_plan_id":"free"},{"bike_id":"a8ca249e-9452-40de-a75f-aff8103d99f1","system_id":"levelo_inurba_marseille","lat":43.302991,"lon":5.392118,"is_reserved":false,"is_disabled":false,"rental_uris":{"android":"levelo://app?vid=a8ca249e-9452-40de-a75f-aff8103d99f1","ios":"levelo://app?vid=a8ca249e-9452-40de-a75f-aff8103d99f1"},"vehicle_type_id":"4","last_reported":1706547998,"current_range_meters":31200,"station_id":"ce4bgkh2rcd13ifvqbk0","pricing_plan_id":"free"},{"bike_id":"aebd5c74-9fc7-4fb2-9727-1f6df3917c35","system_id":"levelo_inurba_marseille","lat":43.30297,"lon":5.39221,"is_reserved":false,"is_disabled":false,"rental_uris":{"android":"levelo://app?vid=aebd5c74-9fc7-4fb2-9727-1f6df3917c35","ios":"levelo://app?vid=aebd5c74-9fc7-4fb2-9727-1f6df3917c35"},"vehicle_type_id":"4","last_reported":1706547998,"current_range_meters":0,"station_id":"ce4bgkh2rcd13ifvqbk0","pricing_plan_id":"free"},{"bike_id":"7bbaa618-32fb-4ece-82a8-5026d33fa70a","system_id":"levelo_inurba_marseille","lat":43.29224,"lon":5.36065,"is_reserved":false,"is_disabled":false,"rental_uris":{"android":"levelo://app?vid=7bbaa618-32fb-4ece-82a8-5026d33fa70a","ios":"levelo://app?vid=7bbaa618-32fb-4ece-82a8-5026d33fa70a"},"vehicle_type_id":"4","last_reported":1706547998,"current_range_meters":22800,"station_id":"ce4bhbh2rcd13ifvqeqg","pricing_plan_id":"free"},{"bike_id":"e0284a26-c897-4ea7-b293-1aaccd8d9ea4","system_id":"levelo_inurba_marseille","lat":43.300852,"lon":5.390859,"is_reserved":false,"is_disabled":false,"rental_uris":{"android":"levelo://app?vid=e0284a26-c897-4ea7-b293-1aaccd8d9ea4","ios":"levelo://app?vid=e0284a26-c897-4ea7-b293-1aaccd8d9ea4"},"vehicle_type_id":"4","last_reported":1706547998,"current_range_meters":21200,"station_id":"ce4bh192rcd13ifvqdb0","pricing_plan_id":"free"},{"bike_id":"d322ce2f-2a78-4df7-8ac2-1b77343458ed","system_id":"levelo_inurba_marseille","lat":43.30085,"lon":5.390856,"is_reserved":false,"is_disabled":false,"rental_uris":{"android":"levelo://app?vid=d322ce2f-2a78-4df7-8ac2-1b77343458ed","ios":"levelo://app?vid=d322ce2f-2a78-4df7-8ac2-1b77343458ed"},"vehicle_type_id":"4","last_reported":1706547998,"current_range_meters":17200,"station_id":"ce4bh192rcd13ifvqdb0","pricing_plan_id":"free"},{"bike_id":"5e0f40d1-1272-45f5-8a67-137069daf6d5","system_id":"levelo_inurba_marseille","lat":43.30085,"lon":5.390856,"is_reserved":false,"is_disabled":false,"rental_uris":{"android":"levelo://app?vid=5e0f40d1-1272-45f5-8a67-137069daf6d5","ios":"levelo://app?vid=5e0f40d1-1272-45f5-8a67-137069daf6d5"},"vehicle_type_id":"4","last_reported":1706547998,"current_range_meters":28400,"station_id":"ce4bh192rcd13ifvqdb0","pricing_plan_id":"free"},{"bike_id":"af3be593-8dd0-40da-9200-90fe1e68be62","system_id":"levelo_inurba_marseille","lat":43.291671,"lon":5.371575,"is_reserved":false,"is_disabled":false,"rental_uris":{"android":"levelo://app?vid=af3be593-8dd0-40da-9200-90fe1e68be62","ios":"levelo://app?vid=af3be593-8dd0-40da-9200-90fe1e68be62"},"vehicle_type_id":"4","last_reported":1706547998,"current_range_meters":7600,"station_id":"ce4bha92rcd13ifvqeh0","pricing_plan_id":"free"},{"bike_id":"b6286129-44f2-4e67-9ac4-09cfd8633ec5","system_id":"levelo_inurba_marseille","lat":43.291675,"lon":5.371583,"is_reserved":false,"is_disabled":false,"rental_uris":{"android":"levelo://app?vid=b6286129-44f2-4e67-9ac4-09cfd8633ec5","ios":"levelo://app?vid=b6286129-44f2-4e67-9ac4-09cfd8633ec5"},"vehicle_type_id":"4","last_reported":1706547998,"current_range_meters":12000,"station_id":"ce4bha92rcd13ifvqeh0","pricing_plan_id":"free"},{"bike_id":"7d502ea0-762b-4baa-8db5-cc69f30a0470","system_id":"levelo_inurba_marseille","lat":43.309038,"lon":5.396546,"is_reserved":false,"is_disabled":false,"rental_uris":{"android":"levelo://app?vid=7d502ea0-762b-4baa-8db5-cc69f30a0470","ios":"levelo://app?vid=7d502ea0-762b-4baa-8db5-cc69f30a0470"},"vehicle_type_id":"4","last_reported":1706547998,"current_range_meters":16800,"station_id":"ce4bh012rcd13ifvqcv0","pricing_plan_id":"free"},{"bike_id":"c07daf04-e21b-4f24-a83e-49b9ec655b9c","system_id":"levelo_inurba_marseille","lat":43.309038,"lon":5.396546,"is_reserved":false,"is_disabled":false,"rental_uris":{"android":"levelo://app?vid=c07daf04-e21b-4f24-a83e-49b9ec655b9c","ios":"levelo://app?vid=c07daf04-e21b-4f24-a83e-49b9ec655b9c"},"vehicle_type_id":"4","last_reported":1706547998,"current_range_meters":31200,"station_id":"ce4bh012rcd13ifvqcv0","pricing_plan_id":"free"},{"bike_id":"82f2c399-a208-45bc-b375-a702cb5ba329","system_id":"levelo_inurba_marseille","lat":43.309047,"lon":5.396551,"is_reserved":false,"is_disabled":false,"rental_uris":{"android":"levelo://app?vid=82f2c399-a208-45bc-b375-a702cb5ba329","ios":"levelo://app?vid=82f2c399-a208-45bc-b375-a702cb5ba329"},"vehicle_type_id":"4","last_reported":1706547998,"current_range_meters":28000,"station_id":"ce4bh012rcd13ifvqcv0","pricing_plan_id":"free"},{"bike_id":"f5e7ae9a-d3e2-40d7-b6a6-13962af8917f","system_id":"levelo_inurba_marseille","lat":43.31326,"lon":5.39691,"is_reserved":false,"is_disabled":false,"rental_uris":{"android":"levelo://app?vid=f5e7ae9a-d3e2-40d7-b6a6-13962af8917f","ios":"levelo://app?vid=f5e7ae9a-d3e2-40d7-b6a6-13962af8917f"},"vehicle_type_id":"4","last_reported":1706547998,"current_range_meters":27600,"station_id":"ce4bgvp2rcd13ifvqcu0","pricing_plan_id":"free"},{"bike_id":"d485ecf2-367c-43a1-b72b-feb3e4b25e11","system_id":"levelo_inurba_marseille","lat":43.31332,"lon":5.39691,"is_reserved":false,"is_disabled":false,"rental_uris":{"android":"levelo://app?vid=d485ecf2-367c-43a1-b72b-feb3e4b25e11","ios":"levelo://app?vid=d485ecf2-367c-43a1-b72b-feb3e4b25e11"},"vehicle_type_id":"4","last_reported":1706547998,"current_range_meters":18000,"station_id":"ce4bgvp2rcd13ifvqcu0","pricing_plan_id":"free"},{"bike_id":"0c9e817e-c7c8-48a7-a32d-61161f33e401","system_id":"levelo_inurba_marseille","lat":43.31332,"lon":5.39691,"is_reserved":false,"is_disabled":false,"rental_uris":{"android":"levelo://app?vid=0c9e817e-c7c8-48a7-a32d-61161f33e401","ios":"levelo://app?vid=0c9e817e-c7c8-48a7-a32d-61161f33e401"},"vehicle_type_id":"4","last_reported":1706547998,"current_range_meters":15600,"station_id":"","pricing_plan_id":"free"},{"bike_id":"2ba9c382-4c2a-41d5-a599-588cca805834","system_id":"levelo_inurba_marseille","lat":43.313291,"lon":5.396838,"is_reserved":false,"is_disabled":false,"rental_uris":{"android":"levelo://app?vid=2ba9c382-4c2a-41d5-a599-588cca805834","ios":"levelo://app?vid=2ba9c382-4c2a-41d5-a599-588cca805834"},"vehicle_type_id":"4","last_reported":1706547998,"current_range_meters":7600,"station_id":"ce4bgvp2rcd13ifvqcu0","pricing_plan_id":"free"},{"bike_id":"f3a01e4c-1943-47ce-9cf6-390519327942","system_id":"levelo_inurba_marseille","lat":43.291994,"lon":5.357886,"is_reserved":false,"is_disabled":false,"rental_uris":{"android":"levelo://app?vid=f3a01e4c-1943-47ce-9cf6-390519327942","ios":"levelo://app?vid=f3a01e4c-1943-47ce-9cf6-390519327942"},"vehicle_type_id":"4","last_reported":1706547998,"current_range_meters":0,"station_id":"ce4bhb12rcd13ifvqel0","pricing_plan_id":"free"},{"bike_id":"fb17a4ee-4e95-46e3-a3ad-8113320125a8","system_id":"levelo_inurba_marseille","lat":43.313291,"lon":5.396838,"is_reserved":false,"is_disabled":false,"rental_uris":{"android":"levelo://app?vid=fb17a4ee-4e95-46e3-a3ad-8113320125a8","ios":"levelo://app?vid=fb17a4ee-4e95-46e3-a3ad-8113320125a8"},"vehicle_type_id":"4","last_reported":1706547998,"current_range_meters":17600,"station_id":"ce4bgvp2rcd13ifvqcu0","pricing_plan_id":"free"},{"bike_id":"b36fd92c-f2dc-4b9f-b79f-68b10cd4ccd8","system_id":"levelo_inurba_marseille","lat":43.31325,"lon":5.39694,"is_reserved":false,"is_disabled":false,"rental_uris":{"android":"levelo://app?vid=b36fd92c-f2dc-4b9f-b79f-68b10cd4ccd8","ios":"levelo://app?vid=b36fd92c-f2dc-4b9f-b79f-68b10cd4ccd8"},"vehicle_type_id":"4","last_reported":1706547998,"current_range_meters":15200,"station_id":"ce4bgvp2rcd13ifvqcu0","pricing_plan_id":"free"},{"bike_id":"f53485f9-f98f-46e0-b0ca-bab93f000b79","system_id":"levelo_inurba_marseille","lat":43.313287,"lon":5.396942,"is_reserved":false,"is_disabled":false,"rental_uris":{"android":"levelo://app?vid=f53485f9-f98f-46e0-b0ca-bab93f000b79","ios":"levelo://app?vid=f53485f9-f98f-46e0-b0ca-bab93f000b79"},"vehicle_type_id":"4","last_reported":1706547998,"current_range_meters":20800,"station_id":"ce4bgvp2rcd13ifvqcu0","pricing_plan_id":"free"},{"bike_id":"067a3f54-cdb1-4351-888c-7235aaac275f","system_id":"levelo_inurba_marseille","lat":43.313291,"lon":5.396838,"is_reserved":false,"is_disabled":false,"rental_uris":{"android":"levelo://app?vid=067a3f54-cdb1-4351-888c-7235aaac275f","ios":"levelo://app?vid=067a3f54-cdb1-4351-888c-7235aaac275f"},"vehicle_type_id":"4","last_reported":1706547998,"current_range_meters":10800,"station_id":"ce4bgvp2rcd13ifvqcu0","pricing_plan_id":"free"},{"bike_id":"58abfaf0-9b00-4fb3-8037-d937dc0d9d18","system_id":"levelo_inurba_marseille","lat":43.309038,"lon":5.396546,"is_reserved":false,"is_disabled":false,"rental_uris":{"android":"levelo://app?vid=58abfaf0-9b00-4fb3-8037-d937dc0d9d18","ios":"levelo://app?vid=58abfaf0-9b00-4fb3-8037-d937dc0d9d18"},"vehicle_type_id":"4","last_reported":1706547998,"current_range_meters":31200,"station_id":"ce4bh012rcd13ifvqcv0","pricing_plan_id":"free"},{"bike_id":"a98330eb-a9a0-4a2e-a8a3-4dd1858a8ab0","system_id":"levelo_inurba_marseille","lat":43.313291,"lon":5.396838,"is_reserved":false,"is_disabled":false,"rental_uris":{"android":"levelo://app?vid=a98330eb-a9a0-4a2e-a8a3-4dd1858a8ab0","ios":"levelo://app?vid=a98330eb-a9a0-4a2e-a8a3-4dd1858a8ab0"},"vehicle_type_id":"4","last_reported":1706547998,"current_range_meters":0,"station_id":"ce4bgvp2rcd13ifvqcu0","pricing_plan_id":"free"},{"bike_id":"f17e3cc8-695b-4fcb-a4c2-51d5477f1cf5","system_id":"levelo_inurba_marseille","lat":43.309038,"lon":5.396546,"is_reserved":false,"is_disabled":false,"rental_uris":{"android":"levelo://app?vid=f17e3cc8-695b-4fcb-a4c2-51d5477f1cf5","ios":"levelo://app?vid=f17e3cc8-695b-4fcb-a4c2-51d5477f1cf5"},"vehicle_type_id":"4","last_reported":1706547998,"current_range_meters":9600,"station_id":"ce4bh012rcd13ifvqcv0","pricing_plan_id":"free"},{"bike_id":"05342dcd-fa39-4a3d-8efe-7144b2b91637","system_id":"levelo_inurba_marseille","lat":43.313291,"lon":5.396838,"is_reserved":false,"is_disabled":false,"rental_uris":{"android":"levelo://app?vid=05342dcd-fa39-4a3d-8efe-7144b2b91637","ios":"levelo://app?vid=05342dcd-fa39-4a3d-8efe-7144b2b91637"},"vehicle_type_id":"4","last_reported":1706547998,"current_range_meters":31600,"station_id":"ce4bgvp2rcd13ifvqcu0","pricing_plan_id":"free"},{"bike_id":"82aac62b-717b-4064-92b1-aed2b5e26911","system_id":"levelo_inurba_marseille","lat":43.295355,"lon":5.38544,"is_reserved":false,"is_disabled":false,"rental_uris":{"android":"levelo://app?vid=82aac62b-717b-4064-92b1-aed2b5e26911","ios":"levelo://app?vid=82aac62b-717b-4064-92b1-aed2b5e26911"},"vehicle_type_id":"4","last_reported":1706547998,"current_range_meters":0,"station_id":"ce4bgih2rcd13ifvqba0","pricing_plan_id":"free"},{"bike_id":"44fc0b9c-71b6-4428-9c63-af3a28fbbb26","system_id":"levelo_inurba_marseille","lat":43.29529,"lon":5.385581,"is_reserved":false,"is_disabled":false,"rental_uris":{"android":"levelo://app?vid=44fc0b9c-71b6-4428-9c63-af3a28fbbb26","ios":"levelo://app?vid=44fc0b9c-71b6-4428-9c63-af3a28fbbb26"},"vehicle_type_id":"4","last_reported":1706547998,"current_range_meters":0,"station_id":"ce4bgih2rcd13ifvqba0","pricing_plan_id":"free"},{"bike_id":"a2ecba34-80e7-49a0-82fb-03cbf6d0f38b","system_id":"levelo_inurba_marseille","lat":43.231562,"lon":5.436933,"is_reserved":false,"is_disabled":false,"rental_uris":{"android":"levelo://app?vid=a2ecba34-80e7-49a0-82fb-03cbf6d0f38b","ios":"levelo://app?vid=a2ecba34-80e7-49a0-82fb-03cbf6d0f38b"},"vehicle_type_id":"4","last_reported":1706547998,"current_range_meters":30800,"station_id":"ce4bhmp2rcd13ifvqgog","pricing_plan_id":"free"},{"bike_id":"0b2ba7b7-dc49-4474-b463-dd9a7d37589b","system_id":"levelo_inurba_marseille","lat":43.290779,"lon":5.371482,"is_reserved":false,"is_disabled":false,"rental_uris":{"android":"levelo://app?vid=0b2ba7b7-dc49-4474-b463-dd9a7d37589b","ios":"levelo://app?vid=0b2ba7b7-dc49-4474-b463-dd9a7d37589b"},"vehicle_type_id":"4","last_reported":1706547998,"current_range_meters":2000,"station_id":"ce4bh5p2rcd13ifvqe4g","pricing_plan_id":"free"},{"bike_id":"2c1e47ad-3478-424c-8c66-23a600b1f0dc","system_id":"levelo_inurba_marseille","lat":43.290441,"lon":5.359123,"is_reserved":false,"is_disabled":false,"rental_uris":{"android":"levelo://app?vid=2c1e47ad-3478-424c-8c66-23a600b1f0dc","ios":"levelo://app?vid=2c1e47ad-3478-424c-8c66-23a600b1f0dc"},"vehicle_type_id":"4","last_reported":1706547998,"current_range_meters":21200,"station_id":"","pricing_plan_id":"free"},{"bike_id":"2c76a8aa-fb70-4b4a-a70a-eb45dc02d4a0","system_id":"levelo_inurba_marseille","lat":43.290631,"lon":5.359244,"is_reserved":false,"is_disabled":false,"rental_uris":{"android":"levelo://app?vid=2c76a8aa-fb70-4b4a-a70a-eb45dc02d4a0","ios":"levelo://app?vid=2c76a8aa-fb70-4b4a-a70a-eb45dc02d4a0"},"vehicle_type_id":"4","last_reported":1706547998,"current_range_meters":21200,"station_id":"ce4bha92rcd13ifvqeg0","pricing_plan_id":"free"},{"bike_id":"8ad4dc1f-e2fa-4a23-b18a-259661a7da09","system_id":"levelo_inurba_marseille","lat":43.289184,"lon":5.366408,"is_reserved":false,"is_disabled":false,"rental_uris":{"android":"levelo://app?vid=8ad4dc1f-e2fa-4a23-b18a-259661a7da09","ios":"levelo://app?vid=8ad4dc1f-e2fa-4a23-b18a-259661a7da09"},"vehicle_type_id":"4","last_reported":1706547998,"current_range_meters":0,"station_id":"ce4bhap2rcd13ifvqek0","pricing_plan_id":"free"},{"bike_id":"92ac1d6d-b412-427e-9398-98dc527bd632","system_id":"levelo_inurba_marseille","lat":43.294153,"lon":5.386305,"is_reserved":false,"is_disabled":false,"rental_uris":{"android":"levelo://app?vid=92ac1d6d-b412-427e-9398-98dc527bd632","ios":"levelo://app?vid=92ac1d6d-b412-427e-9398-98dc527bd632"},"vehicle_type_id":"4","last_reported":1706547998,"current_range_meters":26800,"station_id":"ce4bh2h2rcd13ifvqdh0","pricing_plan_id":"free"},{"bike_id":"e5c26d1e-1789-4349-a05e-9b842b33673a","system_id":"levelo_inurba_marseille","lat":43.289184,"lon":5.366408,"is_reserved":false,"is_disabled":false,"rental_uris":{"android":"levelo://app?vid=e5c26d1e-1789-4349-a05e-9b842b33673a","ios":"levelo://app?vid=e5c26d1e-1789-4349-a05e-9b842b33673a"},"vehicle_type_id":"4","last_reported":1706547998,"current_range_meters":26800,"station_id":"ce4bhap2rcd13ifvqek0","pricing_plan_id":"free"},{"bike_id":"c52e25cb-e912-4396-8a7a-7242e22d7986","system_id":"levelo_inurba_marseille","lat":43.289184,"lon":5.366408,"is_reserved":false,"is_disabled":false,"rental_uris":{"android":"levelo://app?vid=c52e25cb-e912-4396-8a7a-7242e22d7986","ios":"levelo://app?vid=c52e25cb-e912-4396-8a7a-7242e22d7986"},"vehicle_type_id":"4","last_reported":1706547998,"current_range_meters":2400,"station_id":"ce4bhap2rcd13ifvqek0","pricing_plan_id":"free"},{"bike_id":"eeaf4c19-9b1e-4a6a-9a50-b2ec218197d3","system_id":"levelo_inurba_marseille","lat":43.294162,"lon":5.386292,"is_reserved":false,"is_disabled":false,"rental_uris":{"android":"levelo://app?vid=eeaf4c19-9b1e-4a6a-9a50-b2ec218197d3","ios":"levelo://app?vid=eeaf4c19-9b1e-4a6a-9a50-b2ec218197d3"},"vehicle_type_id":"4","last_reported":1706547998,"current_range_meters":7200,"station_id":"ce4bh2h2rcd13ifvqdh0","pricing_plan_id":"free"},{"bike_id":"a7268bb6-f5c0-49ac-9b2b-7cd3270e7211","system_id":"levelo_inurba_marseille","lat":43.294162,"lon":5.386292,"is_reserved":false,"is_disabled":false,"rental_uris":{"android":"levelo://app?vid=a7268bb6-f5c0-49ac-9b2b-7cd3270e7211","ios":"levelo://app?vid=a7268bb6-f5c0-49ac-9b2b-7cd3270e7211"},"vehicle_type_id":"4","last_reported":1706547998,"current_range_meters":6000,"station_id":"ce4bh2h2rcd13ifvqdh0","pricing_plan_id":"free"},{"bike_id":"d26f5bdf-3c12-49a2-b03b-eb4fca799f15","system_id":"levelo_inurba_marseille","lat":43.289468,"lon":5.363719,"is_reserved":false,"is_disabled":false,"rental_uris":{"android":"levelo://app?vid=d26f5bdf-3c12-49a2-b03b-eb4fca799f15","ios":"levelo://app?vid=d26f5bdf-3c12-49a2-b03b-eb4fca799f15"},"vehicle_type_id":"4","last_reported":1706547998,"current_range_meters":16000,"station_id":"ce4bhc92rcd13ifvqetg","pricing_plan_id":"free"},{"bike_id":"41a7fad1-189c-44be-9925-2f0e517df3e9","system_id":"levelo_inurba_marseille","lat":43.29269,"lon":5.38448,"is_reserved":false,"is_disabled":false,"rental_uris":{"android":"levelo://app?vid=41a7fad1-189c-44be-9925-2f0e517df3e9","ios":"levelo://app?vid=41a7fad1-189c-44be-9925-2f0e517df3e9"},"vehicle_type_id":"4","last_reported":1706547998,"current_range_meters":0,"station_id":"ce4bh692rcd13ifvqea0","pricing_plan_id":"free"},{"bike_id":"536d2704-3927-4957-837a-b2b86a24d827","system_id":"levelo_inurba_marseille","lat":43.330442,"lon":5.389148,"is_reserved":false,"is_disabled":false,"rental_uris":{"android":"levelo://app?vid=536d2704-3927-4957-837a-b2b86a24d827","ios":"levelo://app?vid=536d2704-3927-4957-837a-b2b86a24d827"},"vehicle_type_id":"4","last_reported":1706547998,"current_range_meters":18000,"station_id":"ce4bhr92rcd13ifvqhrg","pricing_plan_id":"free"},{"bike_id":"b7e9febd-67eb-4972-9aa9-ea8a8f06e051","system_id":"levelo_inurba_marseille","lat":43.33023,"lon":5.3904,"is_reserved":false,"is_disabled":false,"rental_uris":{"android":"levelo://app?vid=b7e9febd-67eb-4972-9aa9-ea8a8f06e051","ios":"levelo://app?vid=b7e9febd-67eb-4972-9aa9-ea8a8f06e051"},"vehicle_type_id":"4","last_reported":1706547998,"current_range_meters":17600,"station_id":"ce4bhr92rcd13ifvqhrg","pricing_plan_id":"free"},{"bike_id":"84c18c5f-064f-4753-ad49-7892cdfac9ff","system_id":"levelo_inurba_marseille","lat":43.330442,"lon":5.389148,"is_reserved":false,"is_disabled":false,"rental_uris":{"android":"levelo://app?vid=84c18c5f-064f-4753-ad49-7892cdfac9ff","ios":"levelo://app?vid=84c18c5f-064f-4753-ad49-7892cdfac9ff"},"vehicle_type_id":"4","last_reported":1706547998,"current_range_meters":16000,"station_id":"ce4bhr92rcd13ifvqhrg","pricing_plan_id":"free"},{"bike_id":"603f4ab4-d068-4d7b-bca3-28fafc5ad5a9","system_id":"levelo_inurba_marseille","lat":43.290094,"lon":5.381264,"is_reserved":false,"is_disabled":false,"rental_uris":{"android":"levelo://app?vid=603f4ab4-d068-4d7b-bca3-28fafc5ad5a9","ios":"levelo://app?vid=603f4ab4-d068-4d7b-bca3-28fafc5ad5a9"},"vehicle_type_id":"4","last_reported":1706547998,"current_range_meters":22800,"station_id":"ce4bh4p2rcd13ifvqe1g","pricing_plan_id":"free"},{"bike_id":"422682b0-b648-4b9e-86f0-f718cc6dccb0","system_id":"levelo_inurba_marseille","lat":43.31279,"lon":5.40167,"is_reserved":false,"is_disabled":false,"rental_uris":{"android":"levelo://app?vid=422682b0-b648-4b9e-86f0-f718cc6dccb0","ios":"levelo://app?vid=422682b0-b648-4b9e-86f0-f718cc6dccb0"},"vehicle_type_id":"4","last_reported":1706547998,"current_range_meters":18400,"station_id":"ce4bh092rcd13ifvqd30","pricing_plan_id":"free"},{"bike_id":"753bc110-eeac-4da5-aa2d-8138dc08208f","system_id":"levelo_inurba_marseille","lat":43.309371,"lon":5.401449,"is_reserved":false,"is_disabled":false,"rental_uris":{"android":"levelo://app?vid=753bc110-eeac-4da5-aa2d-8138dc08208f","ios":"levelo://app?vid=753bc110-eeac-4da5-aa2d-8138dc08208f"},"vehicle_type_id":"4","last_reported":1706547998,"current_range_meters":2000,"station_id":"ce4bgvp2rcd13ifvqct0","pricing_plan_id":"free"},{"bike_id":"84b4c217-71b3-4bfa-95c8-0f010093d76c","system_id":"levelo_inurba_marseille","lat":43.309371,"lon":5.401449,"is_reserved":false,"is_disabled":false,"rental_uris":{"android":"levelo://app?vid=84b4c217-71b3-4bfa-95c8-0f010093d76c","ios":"levelo://app?vid=84b4c217-71b3-4bfa-95c8-0f010093d76c"},"vehicle_type_id":"4","last_reported":1706547998,"current_range_meters":6000,"station_id":"ce4bgvp2rcd13ifvqct0","pricing_plan_id":"free"},{"bike_id":"f7e38767-d006-4982-a901-2c36f318c099","system_id":"levelo_inurba_marseille","lat":43.309371,"lon":5.401449,"is_reserved":false,"is_disabled":false,"rental_uris":{"android":"levelo://app?vid=f7e38767-d006-4982-a901-2c36f318c099","ios":"levelo://app?vid=f7e38767-d006-4982-a901-2c36f318c099"},"vehicle_type_id":"4","last_reported":1706547998,"current_range_meters":0,"station_id":"ce4bgvp2rcd13ifvqct0","pricing_plan_id":"free"},{"bike_id":"8cfe4568-4bf5-48be-9493-2333da69820e","system_id":"levelo_inurba_marseille","lat":43.30641,"lon":5.400685,"is_reserved":false,"is_disabled":false,"rental_uris":{"android":"levelo://app?vid=8cfe4568-4bf5-48be-9493-2333da69820e","ios":"levelo://app?vid=8cfe4568-4bf5-48be-9493-2333da69820e"},"vehicle_type_id":"4","last_reported":1706547998,"current_range_meters":21200,"station_id":"ce4bh112rcd13ifvqda0","pricing_plan_id":"free"},{"bike_id":"a563cdbf-78b8-441c-8dce-8da1c3325b92","system_id":"levelo_inurba_marseille","lat":43.337502,"lon":5.374518,"is_reserved":false,"is_disabled":false,"rental_uris":{"android":"levelo://app?vid=a563cdbf-78b8-441c-8dce-8da1c3325b92","ios":"levelo://app?vid=a563cdbf-78b8-441c-8dce-8da1c3325b92"},"vehicle_type_id":"4","last_reported":1706547998,"current_range_meters":20000,"station_id":"","pricing_plan_id":"free"},{"bike_id":"b7f12eab-e0a6-499e-87ec-2b4381c4602a","system_id":"levelo_inurba_marseille","lat":43.337544,"lon":5.374554,"is_reserved":false,"is_disabled":false,"rental_uris":{"android":"levelo://app?vid=b7f12eab-e0a6-499e-87ec-2b4381c4602a","ios":"levelo://app?vid=b7f12eab-e0a6-499e-87ec-2b4381c4602a"},"vehicle_type_id":"4","last_reported":1706547998,"current_range_meters":21600,"station_id":"","pricing_plan_id":"free"},{"bike_id":"3c082ef8-998e-4b68-a29d-6b97c12f9805","system_id":"levelo_inurba_marseille","lat":43.306464,"lon":5.400776,"is_reserved":false,"is_disabled":false,"rental_uris":{"android":"levelo://app?vid=3c082ef8-998e-4b68-a29d-6b97c12f9805","ios":"levelo://app?vid=3c082ef8-998e-4b68-a29d-6b97c12f9805"},"vehicle_type_id":"4","last_reported":1706547998,"current_range_meters":25200,"station_id":"ce4bh112rcd13ifvqda0","pricing_plan_id":"free"},{"bike_id":"2fe24097-b1c2-4583-ba1f-cf8501171a4c","system_id":"levelo_inurba_marseille","lat":43.33752,"lon":5.37489,"is_reserved":false,"is_disabled":false,"rental_uris":{"android":"levelo://app?vid=2fe24097-b1c2-4583-ba1f-cf8501171a4c","ios":"levelo://app?vid=2fe24097-b1c2-4583-ba1f-cf8501171a4c"},"vehicle_type_id":"4","last_reported":1706547998,"current_range_meters":6400,"station_id":"","pricing_plan_id":"free"},{"bike_id":"663b4048-76fd-43f1-8346-64e09c2c7288","system_id":"levelo_inurba_marseille","lat":43.337579,"lon":5.374576,"is_reserved":false,"is_disabled":false,"rental_uris":{"android":"levelo://app?vid=663b4048-76fd-43f1-8346-64e09c2c7288","ios":"levelo://app?vid=663b4048-76fd-43f1-8346-64e09c2c7288"},"vehicle_type_id":"4","last_reported":1706547998,"current_range_meters":18000,"station_id":"","pricing_plan_id":"free"},{"bike_id":"f3ff57bd-09b6-4904-a0e4-88cd00feecfe","system_id":"levelo_inurba_marseille","lat":43.30661,"lon":5.40088,"is_reserved":false,"is_disabled":false,"rental_uris":{"android":"levelo://app?vid=f3ff57bd-09b6-4904-a0e4-88cd00feecfe","ios":"levelo://app?vid=f3ff57bd-09b6-4904-a0e4-88cd00feecfe"},"vehicle_type_id":"4","last_reported":1706547998,"current_range_meters":24400,"station_id":"ce4bh112rcd13ifvqda0","pricing_plan_id":"free"},{"bike_id":"5e872a7f-e743-42d2-a966-6896c1811c60","system_id":"levelo_inurba_marseille","lat":43.30637,"lon":5.40083,"is_reserved":false,"is_disabled":false,"rental_uris":{"android":"levelo://app?vid=5e872a7f-e743-42d2-a966-6896c1811c60","ios":"levelo://app?vid=5e872a7f-e743-42d2-a966-6896c1811c60"},"vehicle_type_id":"4","last_reported":1706547998,"current_range_meters":5600,"station_id":"ce4bh112rcd13ifvqda0","pricing_plan_id":"free"},{"bike_id":"b7d3b81d-d85a-44b5-a0c7-8f9c9f74639e","system_id":"levelo_inurba_marseille","lat":43.337652,"lon":5.374317,"is_reserved":false,"is_disabled":false,"rental_uris":{"android":"levelo://app?vid=b7d3b81d-d85a-44b5-a0c7-8f9c9f74639e","ios":"levelo://app?vid=b7d3b81d-d85a-44b5-a0c7-8f9c9f74639e"},"vehicle_type_id":"4","last_reported":1706547998,"current_range_meters":25600,"station_id":"","pricing_plan_id":"free"},{"bike_id":"91b6ff85-6ee5-4dda-afcf-7e77437e0e9c","system_id":"levelo_inurba_marseille","lat":43.337705,"lon":5.374205,"is_reserved":false,"is_disabled":false,"rental_uris":{"android":"levelo://app?vid=91b6ff85-6ee5-4dda-afcf-7e77437e0e9c","ios":"levelo://app?vid=91b6ff85-6ee5-4dda-afcf-7e77437e0e9c"},"vehicle_type_id":"4","last_reported":1706547998,"current_range_meters":22400,"station_id":"","pricing_plan_id":"free"},{"bike_id":"de7679dd-0319-4dea-b526-9b28612355f8","system_id":"levelo_inurba_marseille","lat":43.306412,"lon":5.401035,"is_reserved":false,"is_disabled":false,"rental_uris":{"android":"levelo://app?vid=de7679dd-0319-4dea-b526-9b28612355f8","ios":"levelo://app?vid=de7679dd-0319-4dea-b526-9b28612355f8"},"vehicle_type_id":"4","last_reported":1706547998,"current_range_meters":10400,"station_id":"ce4bh112rcd13ifvqda0","pricing_plan_id":"free"},{"bike_id":"ba22ce34-c39d-4780-953f-9d25533e0508","system_id":"levelo_inurba_marseille","lat":43.30637,"lon":5.40089,"is_reserved":false,"is_disabled":false,"rental_uris":{"android":"levelo://app?vid=ba22ce34-c39d-4780-953f-9d25533e0508","ios":"levelo://app?vid=ba22ce34-c39d-4780-953f-9d25533e0508"},"vehicle_type_id":"4","last_reported":1706547998,"current_range_meters":6400,"station_id":"ce4bh112rcd13ifvqda0","pricing_plan_id":"free"},{"bike_id":"12568932-a9a7-4d52-8b2c-668683b75358","system_id":"levelo_inurba_marseille","lat":43.337641,"lon":5.374852,"is_reserved":false,"is_disabled":false,"rental_uris":{"android":"levelo://app?vid=12568932-a9a7-4d52-8b2c-668683b75358","ios":"levelo://app?vid=12568932-a9a7-4d52-8b2c-668683b75358"},"vehicle_type_id":"4","last_reported":1706547998,"current_range_meters":18400,"station_id":"","pricing_plan_id":"free"},{"bike_id":"1facbbf3-baac-42f8-85eb-cb1e36f3e4b9","system_id":"levelo_inurba_marseille","lat":43.337625,"lon":5.374949,"is_reserved":false,"is_disabled":false,"rental_uris":{"android":"levelo://app?vid=1facbbf3-baac-42f8-85eb-cb1e36f3e4b9","ios":"levelo://app?vid=1facbbf3-baac-42f8-85eb-cb1e36f3e4b9"},"vehicle_type_id":"4","last_reported":1706547998,"current_range_meters":8400,"station_id":"","pricing_plan_id":"free"},{"bike_id":"31870250-7662-4699-a5a1-3d22c1abf1f3","system_id":"levelo_inurba_marseille","lat":43.306412,"lon":5.401035,"is_reserved":false,"is_disabled":false,"rental_uris":{"android":"levelo://app?vid=31870250-7662-4699-a5a1-3d22c1abf1f3","ios":"levelo://app?vid=31870250-7662-4699-a5a1-3d22c1abf1f3"},"vehicle_type_id":"4","last_reported":1706547998,"current_range_meters":2000,"station_id":"ce4bh112rcd13ifvqda0","pricing_plan_id":"free"},{"bike_id":"8f448632-347f-4453-a338-24ad3788dbdd","system_id":"levelo_inurba_marseille","lat":43.28727,"lon":5.36078,"is_reserved":false,"is_disabled":false,"rental_uris":{"android":"levelo://app?vid=8f448632-347f-4453-a338-24ad3788dbdd","ios":"levelo://app?vid=8f448632-347f-4453-a338-24ad3788dbdd"},"vehicle_type_id":"4","last_reported":1706547998,"current_range_meters":22400,"station_id":"cki0cbj6b192h4jlfktg","pricing_plan_id":"free"},{"bike_id":"2d33190c-1e72-40c2-b3a5-3f7e438117d5","system_id":"levelo_inurba_marseille","lat":43.301117,"lon":5.398795,"is_reserved":false,"is_disabled":false,"rental_uris":{"android":"levelo://app?vid=2d33190c-1e72-40c2-b3a5-3f7e438117d5","ios":"levelo://app?vid=2d33190c-1e72-40c2-b3a5-3f7e438117d5"},"vehicle_type_id":"4","last_reported":1706547998,"current_range_meters":0,"station_id":"ce4bh0h2rcd13ifvqd40","pricing_plan_id":"free"},{"bike_id":"29e9c787-c5b0-4067-85c2-a549561b9584","system_id":"levelo_inurba_marseille","lat":43.286961,"lon":5.373785,"is_reserved":false,"is_disabled":false,"rental_uris":{"android":"levelo://app?vid=29e9c787-c5b0-4067-85c2-a549561b9584","ios":"levelo://app?vid=29e9c787-c5b0-4067-85c2-a549561b9584"},"vehicle_type_id":"4","last_reported":1706547998,"current_range_meters":16800,"station_id":"ce4bh3p2rcd13ifvqdq0","pricing_plan_id":"free"},{"bike_id":"0193aad4-4080-49ea-8f92-09fb5736e394","system_id":"levelo_inurba_marseille","lat":43.28727,"lon":5.36078,"is_reserved":false,"is_disabled":false,"rental_uris":{"android":"levelo://app?vid=0193aad4-4080-49ea-8f92-09fb5736e394","ios":"levelo://app?vid=0193aad4-4080-49ea-8f92-09fb5736e394"},"vehicle_type_id":"4","last_reported":1706547998,"current_range_meters":400,"station_id":"cki0cbj6b192h4jlfktg","pricing_plan_id":"free"},{"bike_id":"67fbb007-3b92-41ef-bf81-f965837812ad","system_id":"levelo_inurba_marseille","lat":43.286961,"lon":5.373785,"is_reserved":false,"is_disabled":false,"rental_uris":{"android":"levelo://app?vid=67fbb007-3b92-41ef-bf81-f965837812ad","ios":"levelo://app?vid=67fbb007-3b92-41ef-bf81-f965837812ad"},"vehicle_type_id":"4","last_reported":1706547998,"current_range_meters":20800,"station_id":"ce4bh3p2rcd13ifvqdq0","pricing_plan_id":"free"},{"bike_id":"4515dc68-a4f5-44dc-b0bb-83dfbf8d4ddd","system_id":"levelo_inurba_marseille","lat":43.286961,"lon":5.373785,"is_reserved":false,"is_disabled":false,"rental_uris":{"android":"levelo://app?vid=4515dc68-a4f5-44dc-b0bb-83dfbf8d4ddd","ios":"levelo://app?vid=4515dc68-a4f5-44dc-b0bb-83dfbf8d4ddd"},"vehicle_type_id":"4","last_reported":1706547998,"current_range_meters":21600,"station_id":"ce4bh3p2rcd13ifvqdq0","pricing_plan_id":"free"},{"bike_id":"24abb9b3-76ae-40f1-a84a-4281315fbeb1","system_id":"levelo_inurba_marseille","lat":43.3041,"lon":5.40098,"is_reserved":false,"is_disabled":false,"rental_uris":{"android":"levelo://app?vid=24abb9b3-76ae-40f1-a84a-4281315fbeb1","ios":"levelo://app?vid=24abb9b3-76ae-40f1-a84a-4281315fbeb1"},"vehicle_type_id":"4","last_reported":1706547998,"current_range_meters":0,"station_id":"","pricing_plan_id":"free"},{"bike_id":"527bc57c-ef69-4a6c-8c1e-ef6947d76c44","system_id":"levelo_inurba_marseille","lat":43.298681,"lon":5.397225,"is_reserved":false,"is_disabled":false,"rental_uris":{"android":"levelo://app?vid=527bc57c-ef69-4a6c-8c1e-ef6947d76c44","ios":"levelo://app?vid=527bc57c-ef69-4a6c-8c1e-ef6947d76c44"},"vehicle_type_id":"4","last_reported":1706547998,"current_range_meters":15200,"station_id":"ce4bh0h2rcd13ifvqd50","pricing_plan_id":"free"},{"bike_id":"3efd33e1-a2b1-41e7-b3cd-82d7fcd95747","system_id":"levelo_inurba_marseille","lat":43.286961,"lon":5.373785,"is_reserved":false,"is_disabled":false,"rental_uris":{"android":"levelo://app?vid=3efd33e1-a2b1-41e7-b3cd-82d7fcd95747","ios":"levelo://app?vid=3efd33e1-a2b1-41e7-b3cd-82d7fcd95747"},"vehicle_type_id":"4","last_reported":1706547998,"current_range_meters":800,"station_id":"ce4bh3p2rcd13ifvqdq0","pricing_plan_id":"free"},{"bike_id":"9dc00ff7-ba5d-4354-9486-56278cd0763b","system_id":"levelo_inurba_marseille","lat":43.298681,"lon":5.397225,"is_reserved":false,"is_disabled":false,"rental_uris":{"android":"levelo://app?vid=9dc00ff7-ba5d-4354-9486-56278cd0763b","ios":"levelo://app?vid=9dc00ff7-ba5d-4354-9486-56278cd0763b"},"vehicle_type_id":"4","last_reported":1706547998,"current_range_meters":0,"station_id":"ce4bh0h2rcd13ifvqd50","pricing_plan_id":"free"},{"bike_id":"842d53c5-aca7-4436-b25f-938b9c048901","system_id":"levelo_inurba_marseille","lat":43.2866,"lon":5.36344,"is_reserved":false,"is_disabled":false,"rental_uris":{"android":"levelo://app?vid=842d53c5-aca7-4436-b25f-938b9c048901","ios":"levelo://app?vid=842d53c5-aca7-4436-b25f-938b9c048901"},"vehicle_type_id":"4","last_reported":1706547998,"current_range_meters":5200,"station_id":"","pricing_plan_id":"free"},{"bike_id":"4454119e-d6bc-48d5-92fc-1fa8a1f4e779","system_id":"levelo_inurba_marseille","lat":43.296277,"lon":5.377108,"is_reserved":false,"is_disabled":false,"rental_uris":{"android":"levelo://app?vid=4454119e-d6bc-48d5-92fc-1fa8a1f4e779","ios":"levelo://app?vid=4454119e-d6bc-48d5-92fc-1fa8a1f4e779"},"vehicle_type_id":"4","last_reported":1706547998,"current_range_meters":19200,"station_id":"ce4bgi92rcd13ifvqb90","pricing_plan_id":"free"},{"bike_id":"4fb485ae-9907-41ee-8821-24ff6f58e3b4","system_id":"levelo_inurba_marseille","lat":43.295196,"lon":5.39397,"is_reserved":false,"is_disabled":false,"rental_uris":{"android":"levelo://app?vid=4fb485ae-9907-41ee-8821-24ff6f58e3b4","ios":"levelo://app?vid=4fb485ae-9907-41ee-8821-24ff6f58e3b4"},"vehicle_type_id":"4","last_reported":1706547998,"current_range_meters":25600,"station_id":"ce4bh292rcd13ifvqdf0","pricing_plan_id":"free"},{"bike_id":"b2e24bfd-f3d7-43b3-895b-772b39dcc3f1","system_id":"levelo_inurba_marseille","lat":43.295196,"lon":5.39397,"is_reserved":false,"is_disabled":false,"rental_uris":{"android":"levelo://app?vid=b2e24bfd-f3d7-43b3-895b-772b39dcc3f1","ios":"levelo://app?vid=b2e24bfd-f3d7-43b3-895b-772b39dcc3f1"},"vehicle_type_id":"4","last_reported":1706547998,"current_range_meters":4000,"station_id":"ce4bh292rcd13ifvqdf0","pricing_plan_id":"free"},{"bike_id":"8079ec86-ee6d-4d2f-98df-9c187174f55f","system_id":"levelo_inurba_marseille","lat":43.289307,"lon":5.38406,"is_reserved":false,"is_disabled":false,"rental_uris":{"android":"levelo://app?vid=8079ec86-ee6d-4d2f-98df-9c187174f55f","ios":"levelo://app?vid=8079ec86-ee6d-4d2f-98df-9c187174f55f"},"vehicle_type_id":"4","last_reported":1706547998,"current_range_meters":1200,"station_id":"ce4bh612rcd13ifvqe6g","pricing_plan_id":"free"},{"bike_id":"a78e7044-4ef0-4646-a020-9d9a13bf8fde","system_id":"levelo_inurba_marseille","lat":43.290336,"lon":5.386425,"is_reserved":false,"is_disabled":false,"rental_uris":{"android":"levelo://app?vid=a78e7044-4ef0-4646-a020-9d9a13bf8fde","ios":"levelo://app?vid=a78e7044-4ef0-4646-a020-9d9a13bf8fde"},"vehicle_type_id":"4","last_reported":1706547998,"current_range_meters":5200,"station_id":"ce4bh4p2rcd13ifvqe0g","pricing_plan_id":"free"},{"bike_id":"9fa29872-25cf-43c1-a7b1-440dcfdfcafe","system_id":"levelo_inurba_marseille","lat":43.291994,"lon":5.392907,"is_reserved":false,"is_disabled":false,"rental_uris":{"android":"levelo://app?vid=9fa29872-25cf-43c1-a7b1-440dcfdfcafe","ios":"levelo://app?vid=9fa29872-25cf-43c1-a7b1-440dcfdfcafe"},"vehicle_type_id":"4","last_reported":1706547998,"current_range_meters":5600,"station_id":"ce4bh192rcd13ifvqdd0","pricing_plan_id":"free"},{"bike_id":"b0a81108-6938-414d-abd4-0220f16756ca","system_id":"levelo_inurba_marseille","lat":43.28611,"lon":5.37061,"is_reserved":false,"is_disabled":false,"rental_uris":{"android":"levelo://app?vid=b0a81108-6938-414d-abd4-0220f16756ca","ios":"levelo://app?vid=b0a81108-6938-414d-abd4-0220f16756ca"},"vehicle_type_id":"4","last_reported":1706547998,"current_range_meters":5600,"station_id":"ce4bht12rcd13ifvqi60","pricing_plan_id":"free"},{"bike_id":"807665df-a4a0-4d1f-93e9-1a9c1f652134","system_id":"levelo_inurba_marseille","lat":43.28607,"lon":5.370687,"is_reserved":false,"is_disabled":false,"rental_uris":{"android":"levelo://app?vid=807665df-a4a0-4d1f-93e9-1a9c1f652134","ios":"levelo://app?vid=807665df-a4a0-4d1f-93e9-1a9c1f652134"},"vehicle_type_id":"4","last_reported":1706547998,"current_range_meters":3200,"station_id":"ce4bht12rcd13ifvqi60","pricing_plan_id":"free"},{"bike_id":"90582d8a-a12f-4b8c-9c20-3133f75db733","system_id":"levelo_inurba_marseille","lat":43.28604,"lon":5.37062,"is_reserved":false,"is_disabled":false,"rental_uris":{"android":"levelo://app?vid=90582d8a-a12f-4b8c-9c20-3133f75db733","ios":"levelo://app?vid=90582d8a-a12f-4b8c-9c20-3133f75db733"},"vehicle_type_id":"4","last_reported":1706547998,"current_range_meters":14400,"station_id":"ce4bht12rcd13ifvqi60","pricing_plan_id":"free"},{"bike_id":"25de4f05-d353-48ae-8364-0f623db640c3","system_id":"levelo_inurba_marseille","lat":43.28603,"lon":5.37059,"is_reserved":false,"is_disabled":false,"rental_uris":{"android":"levelo://app?vid=25de4f05-d353-48ae-8364-0f623db640c3","ios":"levelo://app?vid=25de4f05-d353-48ae-8364-0f623db640c3"},"vehicle_type_id":"4","last_reported":1706547998,"current_range_meters":20800,"station_id":"ce4bht12rcd13ifvqi60","pricing_plan_id":"free"},{"bike_id":"862216cb-4525-40e5-93bb-d4906650a772","system_id":"levelo_inurba_marseille","lat":43.287185,"lon":5.379373,"is_reserved":false,"is_disabled":false,"rental_uris":{"android":"levelo://app?vid=862216cb-4525-40e5-93bb-d4906650a772","ios":"levelo://app?vid=862216cb-4525-40e5-93bb-d4906650a772"},"vehicle_type_id":"4","last_reported":1706547998,"current_range_meters":9600,"station_id":"ce4bh9p2rcd13ifvqec0","pricing_plan_id":"free"},{"bike_id":"289db74b-08f5-4e51-af58-9b4f2fff4d80","system_id":"levelo_inurba_marseille","lat":43.287185,"lon":5.379373,"is_reserved":false,"is_disabled":false,"rental_uris":{"android":"levelo://app?vid=289db74b-08f5-4e51-af58-9b4f2fff4d80","ios":"levelo://app?vid=289db74b-08f5-4e51-af58-9b4f2fff4d80"},"vehicle_type_id":"4","last_reported":1706547998,"current_range_meters":22000,"station_id":"ce4bh9p2rcd13ifvqec0","pricing_plan_id":"free"},{"bike_id":"b516d587-2e7f-46b5-9577-b4364cc04820","system_id":"levelo_inurba_marseille","lat":43.287185,"lon":5.379373,"is_reserved":false,"is_disabled":false,"rental_uris":{"android":"levelo://app?vid=b516d587-2e7f-46b5-9577-b4364cc04820","ios":"levelo://app?vid=b516d587-2e7f-46b5-9577-b4364cc04820"},"vehicle_type_id":"4","last_reported":1706547998,"current_range_meters":18400,"station_id":"ce4bh9p2rcd13ifvqec0","pricing_plan_id":"free"},{"bike_id":"de84d4f1-69af-45e3-9abe-647407b2ad56","system_id":"levelo_inurba_marseille","lat":43.287185,"lon":5.379373,"is_reserved":false,"is_disabled":false,"rental_uris":{"android":"levelo://app?vid=de84d4f1-69af-45e3-9abe-647407b2ad56","ios":"levelo://app?vid=de84d4f1-69af-45e3-9abe-647407b2ad56"},"vehicle_type_id":"4","last_reported":1706547998,"current_range_meters":29600,"station_id":"ce4bh9p2rcd13ifvqec0","pricing_plan_id":"free"},{"bike_id":"97b0bde0-bd3d-4e18-b61d-44a138bde320","system_id":"levelo_inurba_marseille","lat":43.29995,"lon":5.40057,"is_reserved":false,"is_disabled":false,"rental_uris":{"android":"levelo://app?vid=97b0bde0-bd3d-4e18-b61d-44a138bde320","ios":"levelo://app?vid=97b0bde0-bd3d-4e18-b61d-44a138bde320"},"vehicle_type_id":"4","last_reported":1706547998,"current_range_meters":28000,"station_id":"","pricing_plan_id":"free"},{"bike_id":"9d7473fb-86f9-4a0d-8338-3c6c6b96654f","system_id":"levelo_inurba_marseille","lat":43.291994,"lon":5.392907,"is_reserved":false,"is_disabled":false,"rental_uris":{"android":"levelo://app?vid=9d7473fb-86f9-4a0d-8338-3c6c6b96654f","ios":"levelo://app?vid=9d7473fb-86f9-4a0d-8338-3c6c6b96654f"},"vehicle_type_id":"4","last_reported":1706547998,"current_range_meters":5600,"station_id":"ce4bh192rcd13ifvqdd0","pricing_plan_id":"free"},{"bike_id":"1d73b404-b1c2-4b1c-884e-2145c5747c01","system_id":"levelo_inurba_marseille","lat":43.291994,"lon":5.392907,"is_reserved":false,"is_disabled":false,"rental_uris":{"android":"levelo://app?vid=1d73b404-b1c2-4b1c-884e-2145c5747c01","ios":"levelo://app?vid=1d73b404-b1c2-4b1c-884e-2145c5747c01"},"vehicle_type_id":"4","last_reported":1706547998,"current_range_meters":29600,"station_id":"ce4bh192rcd13ifvqdd0","pricing_plan_id":"free"},{"bike_id":"19988def-e756-4820-8889-ebb2864a1696","system_id":"levelo_inurba_marseille","lat":43.291994,"lon":5.392907,"is_reserved":false,"is_disabled":false,"rental_uris":{"android":"levelo://app?vid=19988def-e756-4820-8889-ebb2864a1696","ios":"levelo://app?vid=19988def-e756-4820-8889-ebb2864a1696"},"vehicle_type_id":"4","last_reported":1706547998,"current_range_meters":400,"station_id":"ce4bh192rcd13ifvqdd0","pricing_plan_id":"free"},{"bike_id":"88936cf3-c37a-44e7-b9e2-860a8f1b0316","system_id":"levelo_inurba_marseille","lat":43.291994,"lon":5.392907,"is_reserved":false,"is_disabled":false,"rental_uris":{"android":"levelo://app?vid=88936cf3-c37a-44e7-b9e2-860a8f1b0316","ios":"levelo://app?vid=88936cf3-c37a-44e7-b9e2-860a8f1b0316"},"vehicle_type_id":"4","last_reported":1706547998,"current_range_meters":5200,"station_id":"ce4bh192rcd13ifvqdd0","pricing_plan_id":"free"},{"bike_id":"a4f06d5a-2463-41f7-a104-3fa3cddef5aa","system_id":"levelo_inurba_marseille","lat":43.284534,"lon":5.358662,"is_reserved":false,"is_disabled":false,"rental_uris":{"android":"levelo://app?vid=a4f06d5a-2463-41f7-a104-3fa3cddef5aa","ios":"levelo://app?vid=a4f06d5a-2463-41f7-a104-3fa3cddef5aa"},"vehicle_type_id":"4","last_reported":1706547998,"current_range_meters":4800,"station_id":"ce4bhah2rcd13ifvqei0","pricing_plan_id":"free"},{"bike_id":"bfe7fd3b-c01e-469e-9aa9-b37d9da87f97","system_id":"levelo_inurba_marseille","lat":43.284538,"lon":5.358657,"is_reserved":false,"is_disabled":false,"rental_uris":{"android":"levelo://app?vid=bfe7fd3b-c01e-469e-9aa9-b37d9da87f97","ios":"levelo://app?vid=bfe7fd3b-c01e-469e-9aa9-b37d9da87f97"},"vehicle_type_id":"4","last_reported":1706547998,"current_range_meters":6400,"station_id":"ce4bhah2rcd13ifvqei0","pricing_plan_id":"free"},{"bike_id":"6266e86d-e3bd-4414-ba3a-f1abb7f78c9e","system_id":"levelo_inurba_marseille","lat":43.284538,"lon":5.358657,"is_reserved":false,"is_disabled":false,"rental_uris":{"android":"levelo://app?vid=6266e86d-e3bd-4414-ba3a-f1abb7f78c9e","ios":"levelo://app?vid=6266e86d-e3bd-4414-ba3a-f1abb7f78c9e"},"vehicle_type_id":"4","last_reported":1706547998,"current_range_meters":4800,"station_id":"ce4bhah2rcd13ifvqei0","pricing_plan_id":"free"},{"bike_id":"c465d2b2-2efb-456e-bf3e-0b62c79969ab","system_id":"levelo_inurba_marseille","lat":43.284538,"lon":5.358657,"is_reserved":false,"is_disabled":false,"rental_uris":{"android":"levelo://app?vid=c465d2b2-2efb-456e-bf3e-0b62c79969ab","ios":"levelo://app?vid=c465d2b2-2efb-456e-bf3e-0b62c79969ab"},"vehicle_type_id":"4","last_reported":1706547998,"current_range_meters":26000,"station_id":"ce4bhah2rcd13ifvqei0","pricing_plan_id":"free"},{"bike_id":"6c27bc08-7e45-4ec7-aa5f-f144547defe0","system_id":"levelo_inurba_marseille","lat":43.284538,"lon":5.358657,"is_reserved":false,"is_disabled":false,"rental_uris":{"android":"levelo://app?vid=6c27bc08-7e45-4ec7-aa5f-f144547defe0","ios":"levelo://app?vid=6c27bc08-7e45-4ec7-aa5f-f144547defe0"},"vehicle_type_id":"4","last_reported":1706547998,"current_range_meters":18800,"station_id":"ce4bhah2rcd13ifvqei0","pricing_plan_id":"free"},{"bike_id":"a766216c-72bb-4c75-b7e7-f5b251fd7168","system_id":"levelo_inurba_marseille","lat":43.284534,"lon":5.358662,"is_reserved":false,"is_disabled":false,"rental_uris":{"android":"levelo://app?vid=a766216c-72bb-4c75-b7e7-f5b251fd7168","ios":"levelo://app?vid=a766216c-72bb-4c75-b7e7-f5b251fd7168"},"vehicle_type_id":"4","last_reported":1706547998,"current_range_meters":21600,"station_id":"ce4bhah2rcd13ifvqei0","pricing_plan_id":"free"},{"bike_id":"352e0430-93d0-4b6e-afd0-3e9e16f7ad1e","system_id":"levelo_inurba_marseille","lat":43.284538,"lon":5.358657,"is_reserved":false,"is_disabled":false,"rental_uris":{"android":"levelo://app?vid=352e0430-93d0-4b6e-afd0-3e9e16f7ad1e","ios":"levelo://app?vid=352e0430-93d0-4b6e-afd0-3e9e16f7ad1e"},"vehicle_type_id":"4","last_reported":1706547998,"current_range_meters":10400,"station_id":"ce4bhah2rcd13ifvqei0","pricing_plan_id":"free"},{"bike_id":"99e64759-abb1-4619-97c5-c802adaa66a1","system_id":"levelo_inurba_marseille","lat":43.284538,"lon":5.358657,"is_reserved":false,"is_disabled":false,"rental_uris":{"android":"levelo://app?vid=99e64759-abb1-4619-97c5-c802adaa66a1","ios":"levelo://app?vid=99e64759-abb1-4619-97c5-c802adaa66a1"},"vehicle_type_id":"4","last_reported":1706547998,"current_range_meters":22000,"station_id":"ce4bhah2rcd13ifvqei0","pricing_plan_id":"free"},{"bike_id":"46829637-2870-448c-bd15-9e6f70822902","system_id":"levelo_inurba_marseille","lat":43.284534,"lon":5.358662,"is_reserved":false,"is_disabled":false,"rental_uris":{"android":"levelo://app?vid=46829637-2870-448c-bd15-9e6f70822902","ios":"levelo://app?vid=46829637-2870-448c-bd15-9e6f70822902"},"vehicle_type_id":"4","last_reported":1706547998,"current_range_meters":2400,"station_id":"ce4bhah2rcd13ifvqei0","pricing_plan_id":"free"},{"bike_id":"bd0989db-5911-4c94-9fcf-04b4097d89d3","system_id":"levelo_inurba_marseille","lat":43.295713,"lon":5.399639,"is_reserved":false,"is_disabled":false,"rental_uris":{"android":"levelo://app?vid=bd0989db-5911-4c94-9fcf-04b4097d89d3","ios":"levelo://app?vid=bd0989db-5911-4c94-9fcf-04b4097d89d3"},"vehicle_type_id":"4","last_reported":1706547998,"current_range_meters":22800,"station_id":"ce4bh312rcd13ifvqdj0","pricing_plan_id":"free"},{"bike_id":"3fc63393-cd93-4699-b978-2a2cfd0ec85d","system_id":"levelo_inurba_marseille","lat":43.295713,"lon":5.399639,"is_reserved":false,"is_disabled":false,"rental_uris":{"android":"levelo://app?vid=3fc63393-cd93-4699-b978-2a2cfd0ec85d","ios":"levelo://app?vid=3fc63393-cd93-4699-b978-2a2cfd0ec85d"},"vehicle_type_id":"4","last_reported":1706547998,"current_range_meters":0,"station_id":"ce4bh312rcd13ifvqdj0","pricing_plan_id":"free"},{"bike_id":"93dc679c-a127-4736-9d9d-67984fb09590","system_id":"levelo_inurba_marseille","lat":43.28613,"lon":5.35103,"is_reserved":false,"is_disabled":false,"rental_uris":{"android":"levelo://app?vid=93dc679c-a127-4736-9d9d-67984fb09590","ios":"levelo://app?vid=93dc679c-a127-4736-9d9d-67984fb09590"},"vehicle_type_id":"4","last_reported":1706547998,"current_range_meters":30400,"station_id":"ce4bhch2rcd13ifvqeug","pricing_plan_id":"free"},{"bike_id":"2d72f5a6-f4ab-484f-b20e-06729a54217a","system_id":"levelo_inurba_marseille","lat":43.285848,"lon":5.350787,"is_reserved":false,"is_disabled":false,"rental_uris":{"android":"levelo://app?vid=2d72f5a6-f4ab-484f-b20e-06729a54217a","ios":"levelo://app?vid=2d72f5a6-f4ab-484f-b20e-06729a54217a"},"vehicle_type_id":"4","last_reported":1706547998,"current_range_meters":6000,"station_id":"ce4bhch2rcd13ifvqeug","pricing_plan_id":"free"},{"bike_id":"69267ff4-f64c-4034-bb8e-9b9c8df89bf0","system_id":"levelo_inurba_marseille","lat":43.283998,"lon":5.375062,"is_reserved":false,"is_disabled":false,"rental_uris":{"android":"levelo://app?vid=69267ff4-f64c-4034-bb8e-9b9c8df89bf0","ios":"levelo://app?vid=69267ff4-f64c-4034-bb8e-9b9c8df89bf0"},"vehicle_type_id":"4","last_reported":1706547998,"current_range_meters":28400,"station_id":"ce4bh412rcd13ifvqds0","pricing_plan_id":"free"},{"bike_id":"c4d3bad7-4387-4043-9039-20dd65f6f55f","system_id":"levelo_inurba_marseille","lat":43.295713,"lon":5.399639,"is_reserved":false,"is_disabled":false,"rental_uris":{"android":"levelo://app?vid=c4d3bad7-4387-4043-9039-20dd65f6f55f","ios":"levelo://app?vid=c4d3bad7-4387-4043-9039-20dd65f6f55f"},"vehicle_type_id":"4","last_reported":1706547998,"current_range_meters":24800,"station_id":"ce4bh312rcd13ifvqdj0","pricing_plan_id":"free"},{"bike_id":"59bdcc17-5b1a-4e6c-9281-91710c2bf48f","system_id":"levelo_inurba_marseille","lat":43.283998,"lon":5.375062,"is_reserved":false,"is_disabled":false,"rental_uris":{"android":"levelo://app?vid=59bdcc17-5b1a-4e6c-9281-91710c2bf48f","ios":"levelo://app?vid=59bdcc17-5b1a-4e6c-9281-91710c2bf48f"},"vehicle_type_id":"4","last_reported":1706547998,"current_range_meters":0,"station_id":"ce4bh412rcd13ifvqds0","pricing_plan_id":"free"},{"bike_id":"4a6854a5-90ed-4ceb-96ab-d6452477c36c","system_id":"levelo_inurba_marseille","lat":43.283998,"lon":5.375062,"is_reserved":false,"is_disabled":false,"rental_uris":{"android":"levelo://app?vid=4a6854a5-90ed-4ceb-96ab-d6452477c36c","ios":"levelo://app?vid=4a6854a5-90ed-4ceb-96ab-d6452477c36c"},"vehicle_type_id":"4","last_reported":1706547998,"current_range_meters":1200,"station_id":"ce4bh412rcd13ifvqds0","pricing_plan_id":"free"},{"bike_id":"24ce79c9-1727-49ff-ae6a-ed30447647fc","system_id":"levelo_inurba_marseille","lat":43.286595,"lon":5.386795,"is_reserved":false,"is_disabled":false,"rental_uris":{"android":"levelo://app?vid=24ce79c9-1727-49ff-ae6a-ed30447647fc","ios":"levelo://app?vid=24ce79c9-1727-49ff-ae6a-ed30447647fc"},"vehicle_type_id":"4","last_reported":1706547998,"current_range_meters":6800,"station_id":"ce4bh492rcd13ifvqdug","pricing_plan_id":"free"},{"bike_id":"16dcc3f0-400e-4fc5-a093-b4ee320c08fe","system_id":"levelo_inurba_marseille","lat":43.286595,"lon":5.386795,"is_reserved":false,"is_disabled":false,"rental_uris":{"android":"levelo://app?vid=16dcc3f0-400e-4fc5-a093-b4ee320c08fe","ios":"levelo://app?vid=16dcc3f0-400e-4fc5-a093-b4ee320c08fe"},"vehicle_type_id":"4","last_reported":1706547998,"current_range_meters":20400,"station_id":"ce4bh492rcd13ifvqdug","pricing_plan_id":"free"},{"bike_id":"95f69aec-5059-414c-8195-03f04b8b25ea","system_id":"levelo_inurba_marseille","lat":43.286595,"lon":5.386795,"is_reserved":false,"is_disabled":false,"rental_uris":{"android":"levelo://app?vid=95f69aec-5059-414c-8195-03f04b8b25ea","ios":"levelo://app?vid=95f69aec-5059-414c-8195-03f04b8b25ea"},"vehicle_type_id":"4","last_reported":1706547998,"current_range_meters":25200,"station_id":"ce4bh492rcd13ifvqdug","pricing_plan_id":"free"},{"bike_id":"5294746b-d521-4214-b6d5-1c6f3a24dc8f","system_id":"levelo_inurba_marseille","lat":43.286595,"lon":5.386795,"is_reserved":false,"is_disabled":false,"rental_uris":{"android":"levelo://app?vid=5294746b-d521-4214-b6d5-1c6f3a24dc8f","ios":"levelo://app?vid=5294746b-d521-4214-b6d5-1c6f3a24dc8f"},"vehicle_type_id":"4","last_reported":1706547998,"current_range_meters":13200,"station_id":"ce4bh492rcd13ifvqdug","pricing_plan_id":"free"},{"bike_id":"381bef4f-73fe-4ba0-844b-67183977de99","system_id":"levelo_inurba_marseille","lat":43.286595,"lon":5.386795,"is_reserved":false,"is_disabled":false,"rental_uris":{"android":"levelo://app?vid=381bef4f-73fe-4ba0-844b-67183977de99","ios":"levelo://app?vid=381bef4f-73fe-4ba0-844b-67183977de99"},"vehicle_type_id":"4","last_reported":1706547998,"current_range_meters":2800,"station_id":"ce4bh492rcd13ifvqdug","pricing_plan_id":"free"},{"bike_id":"b7b3c3ba-c744-4c44-b564-365b81bffb69","system_id":"levelo_inurba_marseille","lat":43.286595,"lon":5.386795,"is_reserved":false,"is_disabled":false,"rental_uris":{"android":"levelo://app?vid=b7b3c3ba-c744-4c44-b564-365b81bffb69","ios":"levelo://app?vid=b7b3c3ba-c744-4c44-b564-365b81bffb69"},"vehicle_type_id":"4","last_reported":1706547998,"current_range_meters":15600,"station_id":"ce4bh492rcd13ifvqdug","pricing_plan_id":"free"},{"bike_id":"93d4eb0c-bf93-4150-b802-a06a80dfad04","system_id":"levelo_inurba_marseille","lat":43.286595,"lon":5.386795,"is_reserved":false,"is_disabled":false,"rental_uris":{"android":"levelo://app?vid=93d4eb0c-bf93-4150-b802-a06a80dfad04","ios":"levelo://app?vid=93d4eb0c-bf93-4150-b802-a06a80dfad04"},"vehicle_type_id":"4","last_reported":1706547998,"current_range_meters":18000,"station_id":"ce4bh492rcd13ifvqdug","pricing_plan_id":"free"},{"bike_id":"eeae2b9f-d68f-4832-920c-fac8e25fbcf2","system_id":"levelo_inurba_marseille","lat":43.33717,"lon":5.391857,"is_reserved":false,"is_disabled":false,"rental_uris":{"android":"levelo://app?vid=eeae2b9f-d68f-4832-920c-fac8e25fbcf2","ios":"levelo://app?vid=eeae2b9f-d68f-4832-920c-fac8e25fbcf2"},"vehicle_type_id":"4","last_reported":1706547998,"current_range_meters":12000,"station_id":"ce4bhr92rcd13ifvqhsg","pricing_plan_id":"free"},{"bike_id":"2e59f15a-977e-4b1c-be1d-e8ab71f24c7e","system_id":"levelo_inurba_marseille","lat":43.33727,"lon":5.39185,"is_reserved":false,"is_disabled":false,"rental_uris":{"android":"levelo://app?vid=2e59f15a-977e-4b1c-be1d-e8ab71f24c7e","ios":"levelo://app?vid=2e59f15a-977e-4b1c-be1d-e8ab71f24c7e"},"vehicle_type_id":"4","last_reported":1706547998,"current_range_meters":25600,"station_id":"ce4bhr92rcd13ifvqhsg","pricing_plan_id":"free"},{"bike_id":"a417b7ba-91a8-4ad1-bd29-81863fda736b","system_id":"levelo_inurba_marseille","lat":43.32344,"lon":5.40626,"is_reserved":false,"is_disabled":false,"rental_uris":{"android":"levelo://app?vid=a417b7ba-91a8-4ad1-bd29-81863fda736b","ios":"levelo://app?vid=a417b7ba-91a8-4ad1-bd29-81863fda736b"},"vehicle_type_id":"4","last_reported":1706547998,"current_range_meters":20800,"station_id":"ce4bhq92rcd13ifvqhjg","pricing_plan_id":"free"},{"bike_id":"787ba7ba-143b-4c62-a0ff-8d32644f8954","system_id":"levelo_inurba_marseille","lat":43.297946,"lon":5.404063,"is_reserved":false,"is_disabled":false,"rental_uris":{"android":"levelo://app?vid=787ba7ba-143b-4c62-a0ff-8d32644f8954","ios":"levelo://app?vid=787ba7ba-143b-4c62-a0ff-8d32644f8954"},"vehicle_type_id":"4","last_reported":1706547998,"current_range_meters":4800,"station_id":"ce4bh112rcd13ifvqd90","pricing_plan_id":"free"},{"bike_id":"a8e35ed1-554f-4ffd-9909-1ef55f7f8e63","system_id":"levelo_inurba_marseille","lat":43.29795,"lon":5.404086,"is_reserved":false,"is_disabled":false,"rental_uris":{"android":"levelo://app?vid=a8e35ed1-554f-4ffd-9909-1ef55f7f8e63","ios":"levelo://app?vid=a8e35ed1-554f-4ffd-9909-1ef55f7f8e63"},"vehicle_type_id":"4","last_reported":1706547998,"current_range_meters":3200,"station_id":"ce4bh112rcd13ifvqd90","pricing_plan_id":"free"},{"bike_id":"d971a8d4-384b-4e3a-86a0-952a7ffc8fa0","system_id":"levelo_inurba_marseille","lat":43.284787,"lon":5.384116,"is_reserved":false,"is_disabled":false,"rental_uris":{"android":"levelo://app?vid=d971a8d4-384b-4e3a-86a0-952a7ffc8fa0","ios":"levelo://app?vid=d971a8d4-384b-4e3a-86a0-952a7ffc8fa0"},"vehicle_type_id":"4","last_reported":1706547998,"current_range_meters":11200,"station_id":"ce4bh512rcd13ifvqe3g","pricing_plan_id":"free"},{"bike_id":"e4db5caf-3560-4ddc-8d5b-9519831aeb8f","system_id":"levelo_inurba_marseille","lat":43.297946,"lon":5.404063,"is_reserved":false,"is_disabled":false,"rental_uris":{"android":"levelo://app?vid=e4db5caf-3560-4ddc-8d5b-9519831aeb8f","ios":"levelo://app?vid=e4db5caf-3560-4ddc-8d5b-9519831aeb8f"},"vehicle_type_id":"4","last_reported":1706547998,"current_range_meters":11600,"station_id":"ce4bh112rcd13ifvqd90","pricing_plan_id":"free"},{"bike_id":"2a31831f-ac6a-4fa2-a4ae-f9e352c5bdd5","system_id":"levelo_inurba_marseille","lat":43.29795,"lon":5.404086,"is_reserved":false,"is_disabled":false,"rental_uris":{"android":"levelo://app?vid=2a31831f-ac6a-4fa2-a4ae-f9e352c5bdd5","ios":"levelo://app?vid=2a31831f-ac6a-4fa2-a4ae-f9e352c5bdd5"},"vehicle_type_id":"4","last_reported":1706547998,"current_range_meters":21200,"station_id":"ce4bh112rcd13ifvqd90","pricing_plan_id":"free"},{"bike_id":"56295509-3149-4374-92d0-c6ea71bac406","system_id":"levelo_inurba_marseille","lat":43.29795,"lon":5.404086,"is_reserved":false,"is_disabled":false,"rental_uris":{"android":"levelo://app?vid=56295509-3149-4374-92d0-c6ea71bac406","ios":"levelo://app?vid=56295509-3149-4374-92d0-c6ea71bac406"},"vehicle_type_id":"4","last_reported":1706547998,"current_range_meters":14800,"station_id":"ce4bh112rcd13ifvqd90","pricing_plan_id":"free"},{"bike_id":"23e0955d-06e8-4c93-b4f2-416df9d81122","system_id":"levelo_inurba_marseille","lat":43.288501,"lon":5.393087,"is_reserved":false,"is_disabled":false,"rental_uris":{"android":"levelo://app?vid=23e0955d-06e8-4c93-b4f2-416df9d81122","ios":"levelo://app?vid=23e0955d-06e8-4c93-b4f2-416df9d81122"},"vehicle_type_id":"4","last_reported":1706547998,"current_range_meters":24800,"station_id":"ce4bh2p2rcd13ifvqdi0","pricing_plan_id":"free"},{"bike_id":"82b33674-bc4d-40b1-a940-08280034f46b","system_id":"levelo_inurba_marseille","lat":43.288497,"lon":5.393089,"is_reserved":false,"is_disabled":false,"rental_uris":{"android":"levelo://app?vid=82b33674-bc4d-40b1-a940-08280034f46b","ios":"levelo://app?vid=82b33674-bc4d-40b1-a940-08280034f46b"},"vehicle_type_id":"4","last_reported":1706547998,"current_range_meters":3600,"station_id":"ce4bh2p2rcd13ifvqdi0","pricing_plan_id":"free"},{"bike_id":"7f708361-18ab-40fe-bb28-01f1b4e9c519","system_id":"levelo_inurba_marseille","lat":43.288497,"lon":5.393089,"is_reserved":false,"is_disabled":false,"rental_uris":{"android":"levelo://app?vid=7f708361-18ab-40fe-bb28-01f1b4e9c519","ios":"levelo://app?vid=7f708361-18ab-40fe-bb28-01f1b4e9c519"},"vehicle_type_id":"4","last_reported":1706547998,"current_range_meters":12000,"station_id":"ce4bh2p2rcd13ifvqdi0","pricing_plan_id":"free"},{"bike_id":"e463e2b1-1aaf-46e8-920c-32d4a5615729","system_id":"levelo_inurba_marseille","lat":43.283494,"lon":5.380945,"is_reserved":false,"is_disabled":false,"rental_uris":{"android":"levelo://app?vid=e463e2b1-1aaf-46e8-920c-32d4a5615729","ios":"levelo://app?vid=e463e2b1-1aaf-46e8-920c-32d4a5615729"},"vehicle_type_id":"4","last_reported":1706547998,"current_range_meters":16400,"station_id":"ce4bh412rcd13ifvqdr0","pricing_plan_id":"free"},{"bike_id":"b39ddcf5-aefa-41b7-91f2-a186bd313a7a","system_id":"levelo_inurba_marseille","lat":43.28428,"lon":5.35,"is_reserved":false,"is_disabled":false,"rental_uris":{"android":"levelo://app?vid=b39ddcf5-aefa-41b7-91f2-a186bd313a7a","ios":"levelo://app?vid=b39ddcf5-aefa-41b7-91f2-a186bd313a7a"},"vehicle_type_id":"4","last_reported":1706547998,"current_range_meters":0,"station_id":"ce4bhbh2rcd13ifvqepg","pricing_plan_id":"free"},{"bike_id":"cabb7e98-91e7-40b3-95e0-d4cb6fd93edf","system_id":"levelo_inurba_marseille","lat":43.293731,"lon":5.400602,"is_reserved":false,"is_disabled":false,"rental_uris":{"android":"levelo://app?vid=cabb7e98-91e7-40b3-95e0-d4cb6fd93edf","ios":"levelo://app?vid=cabb7e98-91e7-40b3-95e0-d4cb6fd93edf"},"vehicle_type_id":"4","last_reported":1706547998,"current_range_meters":8000,"station_id":"","pricing_plan_id":"free"},{"bike_id":"35f8c441-f18e-446c-8221-64aa8ad57a9a","system_id":"levelo_inurba_marseille","lat":43.283498,"lon":5.380948,"is_reserved":false,"is_disabled":false,"rental_uris":{"android":"levelo://app?vid=35f8c441-f18e-446c-8221-64aa8ad57a9a","ios":"levelo://app?vid=35f8c441-f18e-446c-8221-64aa8ad57a9a"},"vehicle_type_id":"4","last_reported":1706547998,"current_range_meters":0,"station_id":"ce4bh412rcd13ifvqdr0","pricing_plan_id":"free"},{"bike_id":"95567290-975f-4510-9942-aed2a79896ce","system_id":"levelo_inurba_marseille","lat":43.284219,"lon":5.3497,"is_reserved":false,"is_disabled":false,"rental_uris":{"android":"levelo://app?vid=95567290-975f-4510-9942-aed2a79896ce","ios":"levelo://app?vid=95567290-975f-4510-9942-aed2a79896ce"},"vehicle_type_id":"4","last_reported":1706547998,"current_range_meters":24400,"station_id":"ce4bhbh2rcd13ifvqepg","pricing_plan_id":"free"},{"bike_id":"2916c4ce-6ecb-4073-878e-5fe932cbded2","system_id":"levelo_inurba_marseille","lat":43.284219,"lon":5.3497,"is_reserved":false,"is_disabled":false,"rental_uris":{"android":"levelo://app?vid=2916c4ce-6ecb-4073-878e-5fe932cbded2","ios":"levelo://app?vid=2916c4ce-6ecb-4073-878e-5fe932cbded2"},"vehicle_type_id":"4","last_reported":1706547998,"current_range_meters":23200,"station_id":"ce4bhbh2rcd13ifvqepg","pricing_plan_id":"free"},{"bike_id":"275bdada-6c56-4312-ab32-8288863325ef","system_id":"levelo_inurba_marseille","lat":43.284219,"lon":5.3497,"is_reserved":false,"is_disabled":false,"rental_uris":{"android":"levelo://app?vid=275bdada-6c56-4312-ab32-8288863325ef","ios":"levelo://app?vid=275bdada-6c56-4312-ab32-8288863325ef"},"vehicle_type_id":"4","last_reported":1706547998,"current_range_meters":17200,"station_id":"ce4bhbh2rcd13ifvqepg","pricing_plan_id":"free"},{"bike_id":"15c009be-3711-46cc-8977-da04c23e2568","system_id":"levelo_inurba_marseille","lat":43.284219,"lon":5.3497,"is_reserved":false,"is_disabled":false,"rental_uris":{"android":"levelo://app?vid=15c009be-3711-46cc-8977-da04c23e2568","ios":"levelo://app?vid=15c009be-3711-46cc-8977-da04c23e2568"},"vehicle_type_id":"4","last_reported":1706547998,"current_range_meters":26000,"station_id":"ce4bhbh2rcd13ifvqepg","pricing_plan_id":"free"},{"bike_id":"6608eb9a-1134-444a-ace0-b0711f9e51d0","system_id":"levelo_inurba_marseille","lat":43.284219,"lon":5.3497,"is_reserved":false,"is_disabled":false,"rental_uris":{"android":"levelo://app?vid=6608eb9a-1134-444a-ace0-b0711f9e51d0","ios":"levelo://app?vid=6608eb9a-1134-444a-ace0-b0711f9e51d0"},"vehicle_type_id":"4","last_reported":1706547998,"current_range_meters":10800,"station_id":"ce4bhbh2rcd13ifvqepg","pricing_plan_id":"free"},{"bike_id":"b6465da3-8206-4bd2-b515-06b689d71fc5","system_id":"levelo_inurba_marseille","lat":43.284219,"lon":5.3497,"is_reserved":false,"is_disabled":false,"rental_uris":{"android":"levelo://app?vid=b6465da3-8206-4bd2-b515-06b689d71fc5","ios":"levelo://app?vid=b6465da3-8206-4bd2-b515-06b689d71fc5"},"vehicle_type_id":"4","last_reported":1706547998,"current_range_meters":31200,"station_id":"ce4bhbh2rcd13ifvqepg","pricing_plan_id":"free"},{"bike_id":"2b8249fc-64dd-42b5-846e-eab76dd296f4","system_id":"levelo_inurba_marseille","lat":43.284219,"lon":5.3497,"is_reserved":false,"is_disabled":false,"rental_uris":{"android":"levelo://app?vid=2b8249fc-64dd-42b5-846e-eab76dd296f4","ios":"levelo://app?vid=2b8249fc-64dd-42b5-846e-eab76dd296f4"},"vehicle_type_id":"4","last_reported":1706547998,"current_range_meters":9600,"station_id":"ce4bhbh2rcd13ifvqepg","pricing_plan_id":"free"},{"bike_id":"ea53a5b7-f78d-4424-998a-85f86d01b935","system_id":"levelo_inurba_marseille","lat":43.284219,"lon":5.3497,"is_reserved":false,"is_disabled":false,"rental_uris":{"android":"levelo://app?vid=ea53a5b7-f78d-4424-998a-85f86d01b935","ios":"levelo://app?vid=ea53a5b7-f78d-4424-998a-85f86d01b935"},"vehicle_type_id":"4","last_reported":1706547998,"current_range_meters":11200,"station_id":"ce4bhbh2rcd13ifvqepg","pricing_plan_id":"free"},{"bike_id":"626d46b8-3daf-4c06-b713-4b9a05923739","system_id":"levelo_inurba_marseille","lat":43.284217,"lon":5.349697,"is_reserved":false,"is_disabled":false,"rental_uris":{"android":"levelo://app?vid=626d46b8-3daf-4c06-b713-4b9a05923739","ios":"levelo://app?vid=626d46b8-3daf-4c06-b713-4b9a05923739"},"vehicle_type_id":"4","last_reported":1706547998,"current_range_meters":29200,"station_id":"ce4bhbh2rcd13ifvqepg","pricing_plan_id":"free"},{"bike_id":"e8c73ce5-a025-473d-8716-2b92438f3011","system_id":"levelo_inurba_marseille","lat":43.284217,"lon":5.349697,"is_reserved":false,"is_disabled":false,"rental_uris":{"android":"levelo://app?vid=e8c73ce5-a025-473d-8716-2b92438f3011","ios":"levelo://app?vid=e8c73ce5-a025-473d-8716-2b92438f3011"},"vehicle_type_id":"4","last_reported":1706547998,"current_range_meters":28400,"station_id":"ce4bhbh2rcd13ifvqepg","pricing_plan_id":"free"},