{"last_updated":1705597611,"ttl":30,"version":"2.2","data":{"bikes":[{"bike_id":"7265d297-4721-4a0c-b8d9-9ff9cc29ab8d","system_id":"levelo_inurba_marseille","lat":43.31341,"lon":5.367098,"is_reserved":false,"is_disabled":false,"rental_uris":{"android":"levelo://app?vid=7265d297-4721-4a0c-b8d9-9ff9cc29ab8d","ios":"levelo://app?vid=7265d297-4721-4a0c-b8d9-9ff9cc29ab8d"},"vehicle_type_id":"4","last_reported":1705597611,"current_range_meters":0,"station_id":"ce4bgr92rcd13ifvqc6g","pricing_plan_id":"free"},{"bike_id":"b9dee7bc-48e5-4bd8-aa44-7f2269dbe2a9","system_id":"levelo_inurba_marseille","lat":43.313541,"lon":5.367182,"is_reserved":false,"is_disabled":false,"rental_uris":{"android":"levelo://app?vid=b9dee7bc-48e5-4bd8-aa44-7f2269dbe2a9","ios":"levelo://app?vid=b9dee7bc-48e5-4bd8-aa44-7f2269dbe2a9"},"vehicle_type_id":"4","last_reported":1705597611,"current_range_meters":10800,"station_id":"ce4bgr92rcd13ifvqc6g","pricing_plan_id":"free"},{"bike_id":"beafa07d-ca7f-43b9-8ea4-b5f46a63eb12","system_id":"levelo_inurba_marseille","lat":43.31341,"lon":5.367098,"is_reserved":false,"is_disabled":false,"rental_uris":{"android":"levelo://app?vid=beafa07d-ca7f-43b9-8ea4-b5f46a63eb12","ios":"levelo://app?vid=beafa07d-ca7f-43b9-8ea4-b5f46a63eb12"},"vehicle_type_id":"4","last_reported":1705597611,"current_range_meters":26400,"station_id":"ce4bgr92rcd13ifvqc6g","pricing_plan_id":"free"},{"bike_id":"b971be56-0d34-41af-a304-2ab17fe49619","system_id":"levelo_inurba_marseille","lat":43.31341,"lon":5.367098,"is_reserved":false,"is_disabled":false,"rental_uris":{"android":"levelo://app?vid=b971be56-0d34-41af-a304-2ab17fe49619","ios":"levelo://app?vid=b971be56-0d34-41af-a304-2ab17fe49619"},"vehicle_type_id":"4","last_reported":1705597611,"current_range_meters":29600,"station_id":"ce4bgr92rcd13ifvqc6g","pricing_plan_id":"free"},{"bike_id":"5740a930-cf64-478a-a5b6-9785c6eda061","system_id":"levelo_inurba_marseille","lat":43.31341,"lon":5.367098,"is_reserved":false,"is_disabled":false,"rental_uris":{"android":"levelo://app?vid=5740a930-cf64-478a-a5b6-9785c6eda061","ios":"levelo://app?vid=5740a930-cf64-478a-a5b6-9785c6eda061"},"vehicle_type_id":"4","last_reported":1705597611,"current_range_meters":18800,"station_id":"ce4bgr92rcd13ifvqc6g","pricing_plan_id":"free"},{"bike_id":"bf1f1588-eee1-4f60-a77b-6f8e860278ec","system_id":"levelo_inurba_marseille","lat":43.31341,"lon":5.367098,"is_reserved":false,"is_disabled":false,"rental_uris":{"android":"levelo://app?vid=bf1f1588-eee1-4f60-a77b-6f8e860278ec","ios":"levelo://app?vid=bf1f1588-eee1-4f60-a77b-6f8e860278ec"},"vehicle_type_id":"4","last_reported":1705597611,"current_range_meters":31600,"station_id":"ce4bgr92rcd13ifvqc6g","pricing_plan_id":"free"},{"bike_id":"b583a396-5034-4f77-a306-795f95f6e1aa","system_id":"levelo_inurba_marseille","lat":43.313591,"lon":5.367106,"is_reserved":false,"is_disabled":false,"rental_uris":{"android":"levelo://app?vid=b583a396-5034-4f77-a306-795f95f6e1aa","ios":"levelo://app?vid=b583a396-5034-4f77-a306-795f95f6e1aa"},"vehicle_type_id":"4","last_reported":1705597611,"current_range_meters":26400,"station_id":"ce4bgr92rcd13ifvqc6g","pricing_plan_id":"free"},{"bike_id":"e3f89edb-37f5-4c06-89c1-16f7d9905866","system_id":"levelo_inurba_marseille","lat":43.31341,"lon":5.367098,"is_reserved":false,"is_disabled":false,"rental_uris":{"android":"levelo://app?vid=e3f89edb-37f5-4c06-89c1-16f7d9905866","ios":"levelo://app?vid=e3f89edb-37f5-4c06-89c1-16f7d9905866"},"vehicle_type_id":"4","last_reported":1705597611,"current_range_meters":22800,"station_id":"ce4bgr92rcd13ifvqc6g","pricing_plan_id":"free"},{"bike_id":"0f2eb0ef-e2c7-4d37-abeb-953c2cdec741","system_id":"levelo_inurba_marseille","lat":43.31341,"lon":5.367098,"is_reserved":false,"is_disabled":false,"rental_uris":{"android":"levelo://app?vid=0f2eb0ef-e2c7-4d37-abeb-953c2cdec741","ios":"levelo://app?vid=0f2eb0ef-e2c7-4d37-abeb-953c2cdec741"},"vehicle_type_id":"4","last_reported":1705597611,"current_range_meters":27600,"station_id":"ce4bgr92rcd13ifvqc6g","pricing_plan_id":"free"},{"bike_id":"6d6188d6-d01e-4660-a8ab-a09e209d5fbf","system_id":"levelo_inurba_marseille","lat":43.312239,"lon":5.368562,"is_reserved":false,"is_disabled":false,"rental_uris":{"android":"levelo://app?vid=6d6188d6-d01e-4660-a8ab-a09e209d5fbf","ios":"levelo://app?vid=6d6188d6-d01e-4660-a8ab-a09e209d5fbf"},"vehicle_type_id":"4","last_reported":1705597611,"current_range_meters":28400,"station_id":"ce4bgl92rcd13ifvqbq0","pricing_plan_id":"free"},{"bike_id":"f37dda10-91dd-49b1-8a5f-56da61859d72","system_id":"levelo_inurba_marseille","lat":43.312239,"lon":5.368562,"is_reserved":false,"is_disabled":false,"rental_uris":{"android":"levelo://app?vid=f37dda10-91dd-49b1-8a5f-56da61859d72","ios":"levelo://app?vid=f37dda10-91dd-49b1-8a5f-56da61859d72"},"vehicle_type_id":"4","last_reported":1705597611,"current_range_meters":30800,"station_id":"ce4bgl92rcd13ifvqbq0","pricing_plan_id":"free"},{"bike_id":"3cdec037-5117-4c6e-91e4-d5241f319c4f","system_id":"levelo_inurba_marseille","lat":43.312239,"lon":5.368562,"is_reserved":false,"is_disabled":false,"rental_uris":{"android":"levelo://app?vid=3cdec037-5117-4c6e-91e4-d5241f319c4f","ios":"levelo://app?vid=3cdec037-5117-4c6e-91e4-d5241f319c4f"},"vehicle_type_id":"4","last_reported":1705597611,"current_range_meters":29200,"station_id":"ce4bgl92rcd13ifvqbq0","pricing_plan_id":"free"},{"bike_id":"61b93c57-6b08-4259-a460-f9bbda173b07","system_id":"levelo_inurba_marseille","lat":43.312239,"lon":5.368562,"is_reserved":false,"is_disabled":false,"rental_uris":{"android":"levelo://app?vid=61b93c57-6b08-4259-a460-f9bbda173b07","ios":"levelo://app?vid=61b93c57-6b08-4259-a460-f9bbda173b07"},"vehicle_type_id":"4","last_reported":1705597611,"current_range_meters":16400,"station_id":"ce4bgl92rcd13ifvqbq0","pricing_plan_id":"free"},{"bike_id":"897ae299-b3ab-481c-adba-997e1f460526","system_id":"levelo_inurba_marseille","lat":43.312239,"lon":5.368562,"is_reserved":false,"is_disabled":false,"rental_uris":{"android":"levelo://app?vid=897ae299-b3ab-481c-adba-997e1f460526","ios":"levelo://app?vid=897ae299-b3ab-481c-adba-997e1f460526"},"vehicle_type_id":"4","last_reported":1705597611,"current_range_meters":31200,"station_id":"ce4bgl92rcd13ifvqbq0","pricing_plan_id":"free"},{"bike_id":"bd628991-3ba9-4008-a9a8-7f04ef4f30b0","system_id":"levelo_inurba_marseille","lat":43.312239,"lon":5.368562,"is_reserved":false,"is_disabled":false,"rental_uris":{"android":"levelo://app?vid=bd628991-3ba9-4008-a9a8-7f04ef4f30b0","ios":"levelo://app?vid=bd628991-3ba9-4008-a9a8-7f04ef4f30b0"},"vehicle_type_id":"4","last_reported":1705597611,"current_range_meters":0,"station_id":"ce4bgl92rcd13ifvqbq0","pricing_plan_id":"free"},{"bike_id":"c4d24e2a-0905-412e-806c-c48e425350b7","system_id":"levelo_inurba_marseille","lat":43.312239,"lon":5.368562,"is_reserved":false,"is_disabled":false,"rental_uris":{"android":"levelo://app?vid=c4d24e2a-0905-412e-806c-c48e425350b7","ios":"levelo://app?vid=c4d24e2a-0905-412e-806c-c48e425350b7"},"vehicle_type_id":"4","last_reported":1705597611,"current_range_meters":14800,"station_id":"ce4bgl92rcd13ifvqbq0","pricing_plan_id":"free"},{"bike_id":"b74c812d-deac-49a6-81e4-212543ba50d9","system_id":"levelo_inurba_marseille","lat":43.312239,"lon":5.368562,"is_reserved":false,"is_disabled":false,"rental_uris":{"android":"levelo://app?vid=b74c812d-deac-49a6-81e4-212543ba50d9","ios":"levelo://app?vid=b74c812d-deac-49a6-81e4-212543ba50d9"},"vehicle_type_id":"4","last_reported":1705597611,"current_range_meters":14400,"station_id":"ce4bgl92rcd13ifvqbq0","pricing_plan_id":"free"},{"bike_id":"1de21afb-91f1-4554-82a9-90218818a83c","system_id":"levelo_inurba_marseille","lat":43.312239,"lon":5.368562,"is_reserved":false,"is_disabled":false,"rental_uris":{"android":"levelo://app?vid=1de21afb-91f1-4554-82a9-90218818a83c","ios":"levelo://app?vid=1de21afb-91f1-4554-82a9-90218818a83c"},"vehicle_type_id":"4","last_reported":1705597611,"current_range_meters":17600,"station_id":"ce4bgl92rcd13ifvqbq0","pricing_plan_id":"free"},{"bike_id":"9398efda-6b1f-4eff-a881-7a60f40ac64f","system_id":"levelo_inurba_marseille","lat":43.312239,"lon":5.368562,"is_reserved":false,"is_disabled":false,"rental_uris":{"android":"levelo://app?vid=9398efda-6b1f-4eff-a881-7a60f40ac64f","ios":"levelo://app?vid=9398efda-6b1f-4eff-a881-7a60f40ac64f"},"vehicle_type_id":"4","last_reported":1705597611,"current_range_meters":31600,"station_id":"ce4bgl92rcd13ifvqbq0","pricing_plan_id":"free"},{"bike_id":"3492e7d1-d9ae-490c-b9e5-1241c1640f6f","system_id":"levelo_inurba_marseille","lat":43.312239,"lon":5.368562,"is_reserved":false,"is_disabled":false,"rental_uris":{"android":"levelo://app?vid=3492e7d1-d9ae-490c-b9e5-1241c1640f6f","ios":"levelo://app?vid=3492e7d1-d9ae-490c-b9e5-1241c1640f6f"},"vehicle_type_id":"4","last_reported":1705597611,"current_range_meters":30800,"station_id":"ce4bgl92rcd13ifvqbq0","pricing_plan_id":"free"},{"bike_id":"c00223f1-bd71-42ec-bd63-6cec43e0fa90","system_id":"levelo_inurba_marseille","lat":43.312239,"lon":5.368562,"is_reserved":false,"is_disabled":false,"rental_uris":{"android":"levelo://app?vid=c00223f1-bd71-42ec-bd63-6cec43e0fa90","ios":"levelo://app?vid=c00223f1-bd71-42ec-bd63-6cec43e0fa90"},"vehicle_type_id":"4","last_reported":1705597611,"current_range_meters":12800,"station_id":"ce4bgl92rcd13ifvqbq0","pricing_plan_id":"free"},{"bike_id":"c6c3d459-51cc-41a1-812a-e8b470d2f921","system_id":"levelo_inurba_marseille","lat":43.312239,"lon":5.368562,"is_reserved":false,"is_disabled":false,"rental_uris":{"android":"levelo://app?vid=c6c3d459-51cc-41a1-812a-e8b470d2f921","ios":"levelo://app?vid=c6c3d459-51cc-41a1-812a-e8b470d2f921"},"vehicle_type_id":"4","last_reported":1705597611,"current_range_meters":7600,"station_id":"ce4bgl92rcd13ifvqbq0","pricing_plan_id":"free"},{"bike_id":"5972335d-d3d6-41ad-b28f-ceece8628498","system_id":"levelo_inurba_marseille","lat":43.30902,"lon":5.36853,"is_reserved":false,"is_disabled":false,"rental_uris":{"android":"levelo://app?vid=5972335d-d3d6-41ad-b28f-ceece8628498","ios":"levelo://app?vid=5972335d-d3d6-41ad-b28f-ceece8628498"},"vehicle_type_id":"4","last_reported":1705597611,"current_range_meters":0,"station_id":"ce4bgn92rcd13ifvqbvg","pricing_plan_id":"free"},{"bike_id":"97ddaf34-fc83-491a-8069-e860e75c0641","system_id":"levelo_inurba_marseille","lat":43.314811,"lon":5.373103,"is_reserved":false,"is_disabled":false,"rental_uris":{"android":"levelo://app?vid=97ddaf34-fc83-491a-8069-e860e75c0641","ios":"levelo://app?vid=97ddaf34-fc83-491a-8069-e860e75c0641"},"vehicle_type_id":"4","last_reported":1705597611,"current_range_meters":24800,"station_id":"ce4bgt12rcd13ifvqcd0","pricing_plan_id":"free"},{"bike_id":"708801d7-3975-44ad-8ab4-fc85354f1f26","system_id":"levelo_inurba_marseille","lat":43.314811,"lon":5.373104,"is_reserved":false,"is_disabled":false,"rental_uris":{"android":"levelo://app?vid=708801d7-3975-44ad-8ab4-fc85354f1f26","ios":"levelo://app?vid=708801d7-3975-44ad-8ab4-fc85354f1f26"},"vehicle_type_id":"4","last_reported":1705597611,"current_range_meters":1600,"station_id":"ce4bgt12rcd13ifvqcd0","pricing_plan_id":"free"},{"bike_id":"d5a81729-3909-4217-be1e-f086fe8a1c7e","system_id":"levelo_inurba_marseille","lat":43.30547,"lon":5.36523,"is_reserved":false,"is_disabled":false,"rental_uris":{"android":"levelo://app?vid=d5a81729-3909-4217-be1e-f086fe8a1c7e","ios":"levelo://app?vid=d5a81729-3909-4217-be1e-f086fe8a1c7e"},"vehicle_type_id":"4","last_reported":1705597611,"current_range_meters":0,"station_id":"ce4bgs12rcd13ifvqcag","pricing_plan_id":"free"},{"bike_id":"97df436f-d2d3-418d-b632-1a57c27f6245","system_id":"levelo_inurba_marseille","lat":43.305989,"lon":5.37225,"is_reserved":false,"is_disabled":false,"rental_uris":{"android":"levelo://app?vid=97df436f-d2d3-418d-b632-1a57c27f6245","ios":"levelo://app?vid=97df436f-d2d3-418d-b632-1a57c27f6245"},"vehicle_type_id":"4","last_reported":1705597611,"current_range_meters":6400,"station_id":"ce4bgqh2rcd13ifvqc4g","pricing_plan_id":"free"},{"bike_id":"51df135a-19f7-49bd-bcd5-58a56e2a7163","system_id":"levelo_inurba_marseille","lat":43.311125,"lon":5.377624,"is_reserved":false,"is_disabled":false,"rental_uris":{"android":"levelo://app?vid=51df135a-19f7-49bd-bcd5-58a56e2a7163","ios":"levelo://app?vid=51df135a-19f7-49bd-bcd5-58a56e2a7163"},"vehicle_type_id":"4","last_reported":1705597611,"current_range_meters":5200,"station_id":"ce4bgt92rcd13ifvqcg0","pricing_plan_id":"free"},{"bike_id":"fd8c414e-ff94-41ce-ad41-1fabdc300284","system_id":"levelo_inurba_marseille","lat":43.311131,"lon":5.377651,"is_reserved":false,"is_disabled":false,"rental_uris":{"android":"levelo://app?vid=fd8c414e-ff94-41ce-ad41-1fabdc300284","ios":"levelo://app?vid=fd8c414e-ff94-41ce-ad41-1fabdc300284"},"vehicle_type_id":"4","last_reported":1705597611,"current_range_meters":27600,"station_id":"ce4bgt92rcd13ifvqcg0","pricing_plan_id":"free"},{"bike_id":"266e81f0-9b88-4a34-8f5e-fa615710148c","system_id":"levelo_inurba_marseille","lat":43.307945,"lon":5.376487,"is_reserved":false,"is_disabled":false,"rental_uris":{"android":"levelo://app?vid=266e81f0-9b88-4a34-8f5e-fa615710148c","ios":"levelo://app?vid=266e81f0-9b88-4a34-8f5e-fa615710148c"},"vehicle_type_id":"4","last_reported":1705597611,"current_range_meters":12400,"station_id":"ce4bgv92rcd13ifvqcq0","pricing_plan_id":"free"},{"bike_id":"8bf3e112-2cc5-437e-a4e1-cfedf05e3fa0","system_id":"levelo_inurba_marseille","lat":43.307945,"lon":5.376487,"is_reserved":false,"is_disabled":false,"rental_uris":{"android":"levelo://app?vid=8bf3e112-2cc5-437e-a4e1-cfedf05e3fa0","ios":"levelo://app?vid=8bf3e112-2cc5-437e-a4e1-cfedf05e3fa0"},"vehicle_type_id":"4","last_reported":1705597611,"current_range_meters":19200,"station_id":"ce4bgv92rcd13ifvqcq0","pricing_plan_id":"free"},{"bike_id":"03766c25-1ad7-4b50-bd54-2778f9b15b6c","system_id":"levelo_inurba_marseille","lat":43.307945,"lon":5.376487,"is_reserved":false,"is_disabled":false,"rental_uris":{"android":"levelo://app?vid=03766c25-1ad7-4b50-bd54-2778f9b15b6c","ios":"levelo://app?vid=03766c25-1ad7-4b50-bd54-2778f9b15b6c"},"vehicle_type_id":"4","last_reported":1705597611,"current_range_meters":0,"station_id":"ce4bgv92rcd13ifvqcq0","pricing_plan_id":"free"},{"bike_id":"a934cbc9-7f9b-4f33-9183-0e4f317a7f23","system_id":"levelo_inurba_marseille","lat":43.307945,"lon":5.376487,"is_reserved":false,"is_disabled":false,"rental_uris":{"android":"levelo://app?vid=a934cbc9-7f9b-4f33-9183-0e4f317a7f23","ios":"levelo://app?vid=a934cbc9-7f9b-4f33-9183-0e4f317a7f23"},"vehicle_type_id":"4","last_reported":1705597611,"current_range_meters":10400,"station_id":"ce4bgv92rcd13ifvqcq0","pricing_plan_id":"free"},{"bike_id":"ddfbd7bb-399b-43f2-81e1-83b09847ad68","system_id":"levelo_inurba_marseille","lat":43.307945,"lon":5.376487,"is_reserved":false,"is_disabled":false,"rental_uris":{"android":"levelo://app?vid=ddfbd7bb-399b-43f2-81e1-83b09847ad68","ios":"levelo://app?vid=ddfbd7bb-399b-43f2-81e1-83b09847ad68"},"vehicle_type_id":"4","last_reported":1705597611,"current_range_meters":25600,"station_id":"ce4bgv92rcd13ifvqcq0","pricing_plan_id":"free"},{"bike_id":"45bef906-7af6-46fd-8f11-3314520f4803","system_id":"levelo_inurba_marseille","lat":43.317095,"lon":5.377451,"is_reserved":false,"is_disabled":false,"rental_uris":{"android":"levelo://app?vid=45bef906-7af6-46fd-8f11-3314520f4803","ios":"levelo://app?vid=45bef906-7af6-46fd-8f11-3314520f4803"},"vehicle_type_id":"4","last_reported":1705597611,"current_range_meters":24400,"station_id":"ce4bgth2rcd13ifvqch0","pricing_plan_id":"free"},{"bike_id":"739a1fbd-6dbf-4616-9c9b-b891ede4d24c","system_id":"levelo_inurba_marseille","lat":43.308012,"lon":5.381511,"is_reserved":false,"is_disabled":false,"rental_uris":{"android":"levelo://app?vid=739a1fbd-6dbf-4616-9c9b-b891ede4d24c","ios":"levelo://app?vid=739a1fbd-6dbf-4616-9c9b-b891ede4d24c"},"vehicle_type_id":"4","last_reported":1705597611,"current_range_meters":23600,"station_id":"ce4bgt12rcd13ifvqce0","pricing_plan_id":"free"},{"bike_id":"bdb87c61-0e23-4525-b6ac-6301eefbf39c","system_id":"levelo_inurba_marseille","lat":43.301939,"lon":5.366286,"is_reserved":false,"is_disabled":false,"rental_uris":{"android":"levelo://app?vid=bdb87c61-0e23-4525-b6ac-6301eefbf39c","ios":"levelo://app?vid=bdb87c61-0e23-4525-b6ac-6301eefbf39c"},"vehicle_type_id":"4","last_reported":1705597611,"current_range_meters":7600,"station_id":"ce4bgrh2rcd13ifvqc8g","pricing_plan_id":"free"},{"bike_id":"77cefe7f-8b37-4b2f-80d1-46ce7dbcbea5","system_id":"levelo_inurba_marseille","lat":43.308012,"lon":5.381511,"is_reserved":false,"is_disabled":false,"rental_uris":{"android":"levelo://app?vid=77cefe7f-8b37-4b2f-80d1-46ce7dbcbea5","ios":"levelo://app?vid=77cefe7f-8b37-4b2f-80d1-46ce7dbcbea5"},"vehicle_type_id":"4","last_reported":1705597611,"current_range_meters":23600,"station_id":"ce4bgt12rcd13ifvqce0","pricing_plan_id":"free"},{"bike_id":"84f73152-038c-4b3a-b92f-b8323f7e6ca2","system_id":"levelo_inurba_marseille","lat":43.30801,"lon":5.38151,"is_reserved":false,"is_disabled":false,"rental_uris":{"android":"levelo://app?vid=84f73152-038c-4b3a-b92f-b8323f7e6ca2","ios":"levelo://app?vid=84f73152-038c-4b3a-b92f-b8323f7e6ca2"},"vehicle_type_id":"4","last_reported":1705597611,"current_range_meters":19600,"station_id":"","pricing_plan_id":"free"},{"bike_id":"8d0d44ce-a9fe-430c-9811-0d3b2bc6f3a4","system_id":"levelo_inurba_marseille","lat":43.308012,"lon":5.381511,"is_reserved":false,"is_disabled":false,"rental_uris":{"android":"levelo://app?vid=8d0d44ce-a9fe-430c-9811-0d3b2bc6f3a4","ios":"levelo://app?vid=8d0d44ce-a9fe-430c-9811-0d3b2bc6f3a4"},"vehicle_type_id":"4","last_reported":1705597611,"current_range_meters":2800,"station_id":"ce4bgt12rcd13ifvqce0","pricing_plan_id":"free"},{"bike_id":"0487d688-b747-4421-8345-7f122cfb93de","system_id":"levelo_inurba_marseille","lat":43.308012,"lon":5.381511,"is_reserved":false,"is_disabled":false,"rental_uris":{"android":"levelo://app?vid=0487d688-b747-4421-8345-7f122cfb93de","ios":"levelo://app?vid=0487d688-b747-4421-8345-7f122cfb93de"},"vehicle_type_id":"4","last_reported":1705597611,"current_range_meters":2800,"station_id":"ce4bgt12rcd13ifvqce0","pricing_plan_id":"free"},{"bike_id":"1b829933-1d20-43bc-a946-a9e589689dec","system_id":"levelo_inurba_marseille","lat":43.308012,"lon":5.381511,"is_reserved":false,"is_disabled":false,"rental_uris":{"android":"levelo://app?vid=1b829933-1d20-43bc-a946-a9e589689dec","ios":"levelo://app?vid=1b829933-1d20-43bc-a946-a9e589689dec"},"vehicle_type_id":"4","last_reported":1705597611,"current_range_meters":0,"station_id":"ce4bgt12rcd13ifvqce0","pricing_plan_id":"free"},{"bike_id":"71a126c7-b719-426c-b069-4af1d4a5ba47","system_id":"levelo_inurba_marseille","lat":43.32476,"lon":5.36562,"is_reserved":false,"is_disabled":false,"rental_uris":{"android":"levelo://app?vid=71a126c7-b719-426c-b069-4af1d4a5ba47","ios":"levelo://app?vid=71a126c7-b719-426c-b069-4af1d4a5ba47"},"vehicle_type_id":"4","last_reported":1705597611,"current_range_meters":6000,"station_id":"ce4bhs12rcd13ifvqhvg","pricing_plan_id":"free"},{"bike_id":"d655f5bb-ed30-48d1-8fea-b10c22e797ad","system_id":"levelo_inurba_marseille","lat":43.324771,"lon":5.36557,"is_reserved":false,"is_disabled":false,"rental_uris":{"android":"levelo://app?vid=d655f5bb-ed30-48d1-8fea-b10c22e797ad","ios":"levelo://app?vid=d655f5bb-ed30-48d1-8fea-b10c22e797ad"},"vehicle_type_id":"4","last_reported":1705597611,"current_range_meters":24800,"station_id":"ce4bhs12rcd13ifvqhvg","pricing_plan_id":"free"},{"bike_id":"2179bf7d-2ef3-478f-ab07-0d1474ed1fd2","system_id":"levelo_inurba_marseille","lat":43.32482,"lon":5.36557,"is_reserved":false,"is_disabled":false,"rental_uris":{"android":"levelo://app?vid=2179bf7d-2ef3-478f-ab07-0d1474ed1fd2","ios":"levelo://app?vid=2179bf7d-2ef3-478f-ab07-0d1474ed1fd2"},"vehicle_type_id":"4","last_reported":1705597611,"current_range_meters":10400,"station_id":"ce4bhs12rcd13ifvqhvg","pricing_plan_id":"free"},{"bike_id":"7ad72c62-165b-4249-a0ca-e2fe262d0e2a","system_id":"levelo_inurba_marseille","lat":43.324771,"lon":5.36557,"is_reserved":false,"is_disabled":false,"rental_uris":{"android":"levelo://app?vid=7ad72c62-165b-4249-a0ca-e2fe262d0e2a","ios":"levelo://app?vid=7ad72c62-165b-4249-a0ca-e2fe262d0e2a"},"vehicle_type_id":"4","last_reported":1705597611,"current_range_meters":9200,"station_id":"ce4bhs12rcd13ifvqhvg","pricing_plan_id":"free"},{"bike_id":"3cb5ad2b-e743-4194-9d67-007686b421e8","system_id":"levelo_inurba_marseille","lat":43.32485,"lon":5.36551,"is_reserved":false,"is_disabled":false,"rental_uris":{"android":"levelo://app?vid=3cb5ad2b-e743-4194-9d67-007686b421e8","ios":"levelo://app?vid=3cb5ad2b-e743-4194-9d67-007686b421e8"},"vehicle_type_id":"4","last_reported":1705597611,"current_range_meters":12800,"station_id":"ce4bhs12rcd13ifvqhvg","pricing_plan_id":"free"},{"bike_id":"b6665513-6ca2-42dc-9baf-3c5b43a49768","system_id":"levelo_inurba_marseille","lat":43.324771,"lon":5.36557,"is_reserved":false,"is_disabled":false,"rental_uris":{"android":"levelo://app?vid=b6665513-6ca2-42dc-9baf-3c5b43a49768","ios":"levelo://app?vid=b6665513-6ca2-42dc-9baf-3c5b43a49768"},"vehicle_type_id":"4","last_reported":1705597611,"current_range_meters":20000,"station_id":"ce4bhs12rcd13ifvqhvg","pricing_plan_id":"free"},{"bike_id":"64113ddf-11d5-46e6-a492-8bf3e8e471f1","system_id":"levelo_inurba_marseille","lat":43.30277,"lon":5.37709,"is_reserved":false,"is_disabled":false,"rental_uris":{"android":"levelo://app?vid=64113ddf-11d5-46e6-a492-8bf3e8e471f1","ios":"levelo://app?vid=64113ddf-11d5-46e6-a492-8bf3e8e471f1"},"vehicle_type_id":"4","last_reported":1705597611,"current_range_meters":0,"station_id":"","pricing_plan_id":"free"},{"bike_id":"2200c8c5-2419-4eb5-b913-cfff868d749d","system_id":"levelo_inurba_marseille","lat":43.319935,"lon":5.381699,"is_reserved":false,"is_disabled":false,"rental_uris":{"android":"levelo://app?vid=2200c8c5-2419-4eb5-b913-cfff868d749d","ios":"levelo://app?vid=2200c8c5-2419-4eb5-b913-cfff868d749d"},"vehicle_type_id":"4","last_reported":1705597611,"current_range_meters":4400,"station_id":"ce4bhr12rcd13ifvqhpg","pricing_plan_id":"free"},{"bike_id":"b0545563-597a-4dd5-9c33-a322a47c68b7","system_id":"levelo_inurba_marseille","lat":43.320001,"lon":5.381615,"is_reserved":false,"is_disabled":false,"rental_uris":{"android":"levelo://app?vid=b0545563-597a-4dd5-9c33-a322a47c68b7","ios":"levelo://app?vid=b0545563-597a-4dd5-9c33-a322a47c68b7"},"vehicle_type_id":"4","last_reported":1705597611,"current_range_meters":19200,"station_id":"","pricing_plan_id":"free"},{"bike_id":"e5929407-b1e2-4548-b751-37a7898839b5","system_id":"levelo_inurba_marseille","lat":43.313667,"lon":5.384935,"is_reserved":false,"is_disabled":false,"rental_uris":{"android":"levelo://app?vid=e5929407-b1e2-4548-b751-37a7898839b5","ios":"levelo://app?vid=e5929407-b1e2-4548-b751-37a7898839b5"},"vehicle_type_id":"4","last_reported":1705597611,"current_range_meters":22800,"station_id":"","pricing_plan_id":"free"},{"bike_id":"c97580ef-9d5d-44ac-a475-263fc34344c9","system_id":"levelo_inurba_marseille","lat":43.313571,"lon":5.384829,"is_reserved":false,"is_disabled":false,"rental_uris":{"android":"levelo://app?vid=c97580ef-9d5d-44ac-a475-263fc34344c9","ios":"levelo://app?vid=c97580ef-9d5d-44ac-a475-263fc34344c9"},"vehicle_type_id":"4","last_reported":1705597611,"current_range_meters":14000,"station_id":"ce4bgt92rcd13ifvqcf0","pricing_plan_id":"free"},{"bike_id":"801de7fc-c313-485d-bc37-ca6395724c21","system_id":"levelo_inurba_marseille","lat":43.299396,"lon":5.36534,"is_reserved":false,"is_disabled":false,"rental_uris":{"android":"levelo://app?vid=801de7fc-c313-485d-bc37-ca6395724c21","ios":"levelo://app?vid=801de7fc-c313-485d-bc37-ca6395724c21"},"vehicle_type_id":"4","last_reported":1705597611,"current_range_meters":0,"station_id":"ce4bgm92rcd13ifvqbr0","pricing_plan_id":"free"},{"bike_id":"b3bb4328-8592-46d6-89d0-265f12223424","system_id":"levelo_inurba_marseille","lat":43.299724,"lon":5.371829,"is_reserved":false,"is_disabled":false,"rental_uris":{"android":"levelo://app?vid=b3bb4328-8592-46d6-89d0-265f12223424","ios":"levelo://app?vid=b3bb4328-8592-46d6-89d0-265f12223424"},"vehicle_type_id":"4","last_reported":1705597611,"current_range_meters":6800,"station_id":"ce4bgr92rcd13ifvqc7g","pricing_plan_id":"free"},{"bike_id":"26ecb9ae-9c77-4e3a-a4d6-3de1ae138238","system_id":"levelo_inurba_marseille","lat":43.305364,"lon":5.384119,"is_reserved":false,"is_disabled":false,"rental_uris":{"android":"levelo://app?vid=26ecb9ae-9c77-4e3a-a4d6-3de1ae138238","ios":"levelo://app?vid=26ecb9ae-9c77-4e3a-a4d6-3de1ae138238"},"vehicle_type_id":"4","last_reported":1705597611,"current_range_meters":10000,"station_id":"ce4bgg92rcd13ifvqb30","pricing_plan_id":"free"},{"bike_id":"afe2d6ba-ebda-4981-9104-c77037901f05","system_id":"levelo_inurba_marseille","lat":43.322872,"lon":5.382756,"is_reserved":false,"is_disabled":false,"rental_uris":{"android":"levelo://app?vid=afe2d6ba-ebda-4981-9104-c77037901f05","ios":"levelo://app?vid=afe2d6ba-ebda-4981-9104-c77037901f05"},"vehicle_type_id":"4","last_reported":1705597611,"current_range_meters":10800,"station_id":"ce4bhr12rcd13ifvqhqg","pricing_plan_id":"free"},{"bike_id":"c59e915a-05cb-49b2-8b19-dcae4465ebcc","system_id":"levelo_inurba_marseille","lat":43.322872,"lon":5.382756,"is_reserved":false,"is_disabled":false,"rental_uris":{"android":"levelo://app?vid=c59e915a-05cb-49b2-8b19-dcae4465ebcc","ios":"levelo://app?vid=c59e915a-05cb-49b2-8b19-dcae4465ebcc"},"vehicle_type_id":"4","last_reported":1705597611,"current_range_meters":29600,"station_id":"ce4bhr12rcd13ifvqhqg","pricing_plan_id":"free"},{"bike_id":"34c8b400-5074-46e3-aa02-f5d274dfaa4f","system_id":"levelo_inurba_marseille","lat":43.32292,"lon":5.382635,"is_reserved":false,"is_disabled":false,"rental_uris":{"android":"levelo://app?vid=34c8b400-5074-46e3-aa02-f5d274dfaa4f","ios":"levelo://app?vid=34c8b400-5074-46e3-aa02-f5d274dfaa4f"},"vehicle_type_id":"4","last_reported":1705597611,"current_range_meters":10400,"station_id":"ce4bhr12rcd13ifvqhqg","pricing_plan_id":"free"},{"bike_id":"510e4003-ad50-4182-a4bb-6da1b111fff5","system_id":"levelo_inurba_marseille","lat":43.322872,"lon":5.382756,"is_reserved":false,"is_disabled":false,"rental_uris":{"android":"levelo://app?vid=510e4003-ad50-4182-a4bb-6da1b111fff5","ios":"levelo://app?vid=510e4003-ad50-4182-a4bb-6da1b111fff5"},"vehicle_type_id":"4","last_reported":1705597611,"current_range_meters":18800,"station_id":"ce4bhr12rcd13ifvqhqg","pricing_plan_id":"free"},{"bike_id":"6da9db5a-42ba-4fa8-afc9-4fdbb45498c1","system_id":"levelo_inurba_marseille","lat":43.328213,"lon":5.366794,"is_reserved":false,"is_disabled":false,"rental_uris":{"android":"levelo://app?vid=6da9db5a-42ba-4fa8-afc9-4fdbb45498c1","ios":"levelo://app?vid=6da9db5a-42ba-4fa8-afc9-4fdbb45498c1"},"vehicle_type_id":"4","last_reported":1705597611,"current_range_meters":8000,"station_id":"ce4bhs92rcd13ifvqi0g","pricing_plan_id":"free"},{"bike_id":"2849c95b-f1a6-402d-aac7-80ea81f2feb2","system_id":"levelo_inurba_marseille","lat":43.328244,"lon":5.366915,"is_reserved":false,"is_disabled":false,"rental_uris":{"android":"levelo://app?vid=2849c95b-f1a6-402d-aac7-80ea81f2feb2","ios":"levelo://app?vid=2849c95b-f1a6-402d-aac7-80ea81f2feb2"},"vehicle_type_id":"4","last_reported":1705597611,"current_range_meters":29600,"station_id":"ce4bhs92rcd13ifvqi0g","pricing_plan_id":"free"},{"bike_id":"6b4ea496-3016-42db-af64-ba8beb6e73fc","system_id":"levelo_inurba_marseille","lat":43.328371,"lon":5.366909,"is_reserved":false,"is_disabled":false,"rental_uris":{"android":"levelo://app?vid=6b4ea496-3016-42db-af64-ba8beb6e73fc","ios":"levelo://app?vid=6b4ea496-3016-42db-af64-ba8beb6e73fc"},"vehicle_type_id":"4","last_reported":1705597611,"current_range_meters":19600,"station_id":"ce4bhs92rcd13ifvqi0g","pricing_plan_id":"free"},{"bike_id":"ea0178f3-2c6b-4af6-b062-91b0b8dde1df","system_id":"levelo_inurba_marseille","lat":43.32826,"lon":5.36682,"is_reserved":false,"is_disabled":false,"rental_uris":{"android":"levelo://app?vid=ea0178f3-2c6b-4af6-b062-91b0b8dde1df","ios":"levelo://app?vid=ea0178f3-2c6b-4af6-b062-91b0b8dde1df"},"vehicle_type_id":"4","last_reported":1705597611,"current_range_meters":30400,"station_id":"ce4bhs92rcd13ifvqi0g","pricing_plan_id":"free"},{"bike_id":"85cedcff-9e9a-415d-8415-195178ea3cb7","system_id":"levelo_inurba_marseille","lat":43.328269,"lon":5.366814,"is_reserved":false,"is_disabled":false,"rental_uris":{"android":"levelo://app?vid=85cedcff-9e9a-415d-8415-195178ea3cb7","ios":"levelo://app?vid=85cedcff-9e9a-415d-8415-195178ea3cb7"},"vehicle_type_id":"4","last_reported":1705597611,"current_range_meters":15600,"station_id":"ce4bhs92rcd13ifvqi0g","pricing_plan_id":"free"},{"bike_id":"7a5cfd19-67b5-4404-837f-9d2597d5b4a4","system_id":"levelo_inurba_marseille","lat":43.32827,"lon":5.36677,"is_reserved":false,"is_disabled":false,"rental_uris":{"android":"levelo://app?vid=7a5cfd19-67b5-4404-837f-9d2597d5b4a4","ios":"levelo://app?vid=7a5cfd19-67b5-4404-837f-9d2597d5b4a4"},"vehicle_type_id":"4","last_reported":1705597611,"current_range_meters":9200,"station_id":"ce4bhs92rcd13ifvqi0g","pricing_plan_id":"free"},{"bike_id":"b3d1df88-d8ad-420f-822b-89111e75191e","system_id":"levelo_inurba_marseille","lat":43.328274,"lon":5.366825,"is_reserved":false,"is_disabled":false,"rental_uris":{"android":"levelo://app?vid=b3d1df88-d8ad-420f-822b-89111e75191e","ios":"levelo://app?vid=b3d1df88-d8ad-420f-822b-89111e75191e"},"vehicle_type_id":"4","last_reported":1705597611,"current_range_meters":2800,"station_id":"ce4bhs92rcd13ifvqi0g","pricing_plan_id":"free"},{"bike_id":"fac191b0-f6f7-446d-be23-41f42c44f326","system_id":"levelo_inurba_marseille","lat":43.328274,"lon":5.36683,"is_reserved":false,"is_disabled":false,"rental_uris":{"android":"levelo://app?vid=fac191b0-f6f7-446d-be23-41f42c44f326","ios":"levelo://app?vid=fac191b0-f6f7-446d-be23-41f42c44f326"},"vehicle_type_id":"4","last_reported":1705597611,"current_range_meters":23200,"station_id":"ce4bhs92rcd13ifvqi0g","pricing_plan_id":"free"},{"bike_id":"a53b6dde-9c97-4a96-897c-ee7f9265222d","system_id":"levelo_inurba_marseille","lat":43.328371,"lon":5.366909,"is_reserved":false,"is_disabled":false,"rental_uris":{"android":"levelo://app?vid=a53b6dde-9c97-4a96-897c-ee7f9265222d","ios":"levelo://app?vid=a53b6dde-9c97-4a96-897c-ee7f9265222d"},"vehicle_type_id":"4","last_reported":1705597611,"current_range_meters":16800,"station_id":"ce4bhs92rcd13ifvqi0g","pricing_plan_id":"free"},{"bike_id":"1782ad4d-7cbc-4ac0-af82-b65688e9d34c","system_id":"levelo_inurba_marseille","lat":43.328371,"lon":5.366909,"is_reserved":false,"is_disabled":false,"rental_uris":{"android":"levelo://app?vid=1782ad4d-7cbc-4ac0-af82-b65688e9d34c","ios":"levelo://app?vid=1782ad4d-7cbc-4ac0-af82-b65688e9d34c"},"vehicle_type_id":"4","last_reported":1705597611,"current_range_meters":22000,"station_id":"ce4bhs92rcd13ifvqi0g","pricing_plan_id":"free"},{"bike_id":"737568f2-0dc3-4604-a680-0a14c1de1f40","system_id":"levelo_inurba_marseille","lat":43.281044,"lon":5.378308,"is_reserved":false,"is_disabled":false,"rental_uris":{"android":"levelo://app?vid=737568f2-0dc3-4604-a680-0a14c1de1f40","ios":"levelo://app?vid=737568f2-0dc3-4604-a680-0a14c1de1f40"},"vehicle_type_id":"4","last_reported":1705597611,"current_range_meters":6000,"station_id":"ce4bha12rcd13ifvqee0","pricing_plan_id":"free"},{"bike_id":"70f179dd-f28c-4384-b145-ec6cf77cd4b8","system_id":"levelo_inurba_marseille","lat":43.32829,"lon":5.36677,"is_reserved":false,"is_disabled":false,"rental_uris":{"android":"levelo://app?vid=70f179dd-f28c-4384-b145-ec6cf77cd4b8","ios":"levelo://app?vid=70f179dd-f28c-4384-b145-ec6cf77cd4b8"},"vehicle_type_id":"4","last_reported":1705597611,"current_range_meters":6400,"station_id":"ce4bhs92rcd13ifvqi0g","pricing_plan_id":"free"},{"bike_id":"641739e6-19de-47df-9491-35da26c3c9da","system_id":"levelo_inurba_marseille","lat":43.328371,"lon":5.366909,"is_reserved":false,"is_disabled":false,"rental_uris":{"android":"levelo://app?vid=641739e6-19de-47df-9491-35da26c3c9da","ios":"levelo://app?vid=641739e6-19de-47df-9491-35da26c3c9da"},"vehicle_type_id":"4","last_reported":1705597611,"current_range_meters":24000,"station_id":"ce4bhs92rcd13ifvqi0g","pricing_plan_id":"free"},{"bike_id":"88638e12-da12-4596-b7e2-600ab2f62219","system_id":"levelo_inurba_marseille","lat":43.328371,"lon":5.366909,"is_reserved":false,"is_disabled":false,"rental_uris":{"android":"levelo://app?vid=88638e12-da12-4596-b7e2-600ab2f62219","ios":"levelo://app?vid=88638e12-da12-4596-b7e2-600ab2f62219"},"vehicle_type_id":"4","last_reported":1705597611,"current_range_meters":5200,"station_id":"ce4bhs92rcd13ifvqi0g","pricing_plan_id":"free"},{"bike_id":"bae0e6ef-8eeb-485a-a054-bea3431d2035","system_id":"levelo_inurba_marseille","lat":43.328371,"lon":5.366909,"is_reserved":false,"is_disabled":false,"rental_uris":{"android":"levelo://app?vid=bae0e6ef-8eeb-485a-a054-bea3431d2035","ios":"levelo://app?vid=bae0e6ef-8eeb-485a-a054-bea3431d2035"},"vehicle_type_id":"4","last_reported":1705597611,"current_range_meters":14000,"station_id":"ce4bhs92rcd13ifvqi0g","pricing_plan_id":"free"},{"bike_id":"02f97db8-1e1e-4f38-89f3-11868234f7c3","system_id":"levelo_inurba_marseille","lat":43.32832,"lon":5.36681,"is_reserved":false,"is_disabled":false,"rental_uris":{"android":"levelo://app?vid=02f97db8-1e1e-4f38-89f3-11868234f7c3","ios":"levelo://app?vid=02f97db8-1e1e-4f38-89f3-11868234f7c3"},"vehicle_type_id":"4","last_reported":1705597611,"current_range_meters":12800,"station_id":"ce4bhs92rcd13ifvqi0g","pricing_plan_id":"free"},{"bike_id":"38082c03-fac1-44d3-a79f-5142b4a113a9","system_id":"levelo_inurba_marseille","lat":43.328373,"lon":5.366902,"is_reserved":false,"is_disabled":false,"rental_uris":{"android":"levelo://app?vid=38082c03-fac1-44d3-a79f-5142b4a113a9","ios":"levelo://app?vid=38082c03-fac1-44d3-a79f-5142b4a113a9"},"vehicle_type_id":"4","last_reported":1705597611,"current_range_meters":18400,"station_id":"ce4bhs92rcd13ifvqi0g","pricing_plan_id":"free"},{"bike_id":"f0d0357d-ac18-4700-b588-35122037a3ce","system_id":"levelo_inurba_marseille","lat":43.296921,"lon":5.376579,"is_reserved":false,"is_disabled":false,"rental_uris":{"android":"levelo://app?vid=f0d0357d-ac18-4700-b588-35122037a3ce","ios":"levelo://app?vid=f0d0357d-ac18-4700-b588-35122037a3ce"},"vehicle_type_id":"4","last_reported":1705597611,"current_range_meters":21600,"station_id":"ce4bgkh2rcd13ifvqbl0","pricing_plan_id":"free"},{"bike_id":"0e7c8186-4fb2-4d27-a111-e51e96c747f7","system_id":"levelo_inurba_marseille","lat":43.299028,"lon":5.381509,"is_reserved":false,"is_disabled":false,"rental_uris":{"android":"levelo://app?vid=0e7c8186-4fb2-4d27-a111-e51e96c747f7","ios":"levelo://app?vid=0e7c8186-4fb2-4d27-a111-e51e96c747f7"},"vehicle_type_id":"4","last_reported":1705597611,"current_range_meters":11200,"station_id":"ce4bgj12rcd13ifvqbc0","pricing_plan_id":"free"},{"bike_id":"b994bf68-afec-48fc-b6d5-0bf1792e928e","system_id":"levelo_inurba_marseille","lat":43.299028,"lon":5.381509,"is_reserved":false,"is_disabled":false,"rental_uris":{"android":"levelo://app?vid=b994bf68-afec-48fc-b6d5-0bf1792e928e","ios":"levelo://app?vid=b994bf68-afec-48fc-b6d5-0bf1792e928e"},"vehicle_type_id":"4","last_reported":1705597611,"current_range_meters":3600,"station_id":"ce4bgj12rcd13ifvqbc0","pricing_plan_id":"free"},{"bike_id":"39edb398-a6bd-4df0-ac95-499a64546d1f","system_id":"levelo_inurba_marseille","lat":43.309589,"lon":5.390258,"is_reserved":false,"is_disabled":false,"rental_uris":{"android":"levelo://app?vid=39edb398-a6bd-4df0-ac95-499a64546d1f","ios":"levelo://app?vid=39edb398-a6bd-4df0-ac95-499a64546d1f"},"vehicle_type_id":"4","last_reported":1705597611,"current_range_meters":28000,"station_id":"ce4bgup2rcd13ifvqco0","pricing_plan_id":"free"},{"bike_id":"4693501f-bce2-49e5-b751-4323202b8a21","system_id":"levelo_inurba_marseille","lat":43.309589,"lon":5.390258,"is_reserved":false,"is_disabled":false,"rental_uris":{"android":"levelo://app?vid=4693501f-bce2-49e5-b751-4323202b8a21","ios":"levelo://app?vid=4693501f-bce2-49e5-b751-4323202b8a21"},"vehicle_type_id":"4","last_reported":1705597611,"current_range_meters":17200,"station_id":"ce4bgup2rcd13ifvqco0","pricing_plan_id":"free"},{"bike_id":"de21c213-c8a8-49b6-9c50-3c1c560a2f52","system_id":"levelo_inurba_marseille","lat":43.317557,"lon":5.390173,"is_reserved":false,"is_disabled":false,"rental_uris":{"android":"levelo://app?vid=de21c213-c8a8-49b6-9c50-3c1c560a2f52","ios":"levelo://app?vid=de21c213-c8a8-49b6-9c50-3c1c560a2f52"},"vehicle_type_id":"4","last_reported":1705597611,"current_range_meters":21600,"station_id":"ce4bhqp2rcd13ifvqhng","pricing_plan_id":"free"},{"bike_id":"9416334a-eb1c-48fc-a133-2548841500da","system_id":"levelo_inurba_marseille","lat":43.317557,"lon":5.390173,"is_reserved":false,"is_disabled":false,"rental_uris":{"android":"levelo://app?vid=9416334a-eb1c-48fc-a133-2548841500da","ios":"levelo://app?vid=9416334a-eb1c-48fc-a133-2548841500da"},"vehicle_type_id":"4","last_reported":1705597611,"current_range_meters":22400,"station_id":"ce4bhqp2rcd13ifvqhng","pricing_plan_id":"free"},{"bike_id":"77c84b58-e466-4b14-9aa0-694f95ec3104","system_id":"levelo_inurba_marseille","lat":43.317557,"lon":5.390173,"is_reserved":false,"is_disabled":false,"rental_uris":{"android":"levelo://app?vid=77c84b58-e466-4b14-9aa0-694f95ec3104","ios":"levelo://app?vid=77c84b58-e466-4b14-9aa0-694f95ec3104"},"vehicle_type_id":"4","last_reported":1705597611,"current_range_meters":31200,"station_id":"ce4bhqp2rcd13ifvqhng","pricing_plan_id":"free"},{"bike_id":"d81fcc2d-ba65-4a7d-b1a6-7f5e8793578f","system_id":"levelo_inurba_marseille","lat":43.31754,"lon":5.39017,"is_reserved":false,"is_disabled":false,"rental_uris":{"android":"levelo://app?vid=d81fcc2d-ba65-4a7d-b1a6-7f5e8793578f","ios":"levelo://app?vid=d81fcc2d-ba65-4a7d-b1a6-7f5e8793578f"},"vehicle_type_id":"4","last_reported":1705597611,"current_range_meters":22400,"station_id":"ce4bhqp2rcd13ifvqhng","pricing_plan_id":"free"},{"bike_id":"a0758ead-1c6b-4eda-8725-6bf980bf382e","system_id":"levelo_inurba_marseille","lat":43.3176,"lon":5.39023,"is_reserved":false,"is_disabled":false,"rental_uris":{"android":"levelo://app?vid=a0758ead-1c6b-4eda-8725-6bf980bf382e","ios":"levelo://app?vid=a0758ead-1c6b-4eda-8725-6bf980bf382e"},"vehicle_type_id":"4","last_reported":1705597611,"current_range_meters":8000,"station_id":"ce4bhqp2rcd13ifvqhng","pricing_plan_id":"free"},{"bike_id":"241a298e-7732-4c56-83b4-e1e65b7d3994","system_id":"levelo_inurba_marseille","lat":43.298037,"lon":5.381066,"is_reserved":false,"is_disabled":false,"rental_uris":{"android":"levelo://app?vid=241a298e-7732-4c56-83b4-e1e65b7d3994","ios":"levelo://app?vid=241a298e-7732-4c56-83b4-e1e65b7d3994"},"vehicle_type_id":"4","last_reported":1705597611,"current_range_meters":14800,"station_id":"ce4bgip2rcd13ifvqbb0","pricing_plan_id":"free"},{"bike_id":"53457ade-37bb-460d-8d8d-214d43114ee8","system_id":"levelo_inurba_marseille","lat":43.298037,"lon":5.381066,"is_reserved":false,"is_disabled":false,"rental_uris":{"android":"levelo://app?vid=53457ade-37bb-460d-8d8d-214d43114ee8","ios":"levelo://app?vid=53457ade-37bb-460d-8d8d-214d43114ee8"},"vehicle_type_id":"4","last_reported":1705597611,"current_range_meters":4400,"station_id":"ce4bgip2rcd13ifvqbb0","pricing_plan_id":"free"},{"bike_id":"d3221dd9-fde0-4ef3-977e-13f12c57ed12","system_id":"levelo_inurba_marseille","lat":43.298037,"lon":5.381066,"is_reserved":false,"is_disabled":false,"rental_uris":{"android":"levelo://app?vid=d3221dd9-fde0-4ef3-977e-13f12c57ed12","ios":"levelo://app?vid=d3221dd9-fde0-4ef3-977e-13f12c57ed12"},"vehicle_type_id":"4","last_reported":1705597611,"current_range_meters":0,"station_id":"ce4bgip2rcd13ifvqbb0","pricing_plan_id":"free"},{"bike_id":"6f755b1d-8335-4af9-b1a9-9e65fe333fcf","system_id":"levelo_inurba_marseille","lat":43.295748,"lon":5.37522,"is_reserved":false,"is_disabled":false,"rental_uris":{"android":"levelo://app?vid=6f755b1d-8335-4af9-b1a9-9e65fe333fcf","ios":"levelo://app?vid=6f755b1d-8335-4af9-b1a9-9e65fe333fcf"},"vehicle_type_id":"4","last_reported":1705597611,"current_range_meters":19600,"station_id":"ce4bgh92rcd13ifvqb50","pricing_plan_id":"free"},{"bike_id":"5cf01c66-c08d-49aa-a029-7e022157dd23","system_id":"levelo_inurba_marseille","lat":43.296263,"lon":5.377094,"is_reserved":false,"is_disabled":false,"rental_uris":{"android":"levelo://app?vid=5cf01c66-c08d-49aa-a029-7e022157dd23","ios":"levelo://app?vid=5cf01c66-c08d-49aa-a029-7e022157dd23"},"vehicle_type_id":"4","last_reported":1705597611,"current_range_meters":18000,"station_id":"ce4bgi92rcd13ifvqb90","pricing_plan_id":"free"},{"bike_id":"b469232b-4d20-418e-81de-e03e35aa3d6a","system_id":"levelo_inurba_marseille","lat":43.296263,"lon":5.377094,"is_reserved":false,"is_disabled":false,"rental_uris":{"android":"levelo://app?vid=b469232b-4d20-418e-81de-e03e35aa3d6a","ios":"levelo://app?vid=b469232b-4d20-418e-81de-e03e35aa3d6a"},"vehicle_type_id":"4","last_reported":1705597611,"current_range_meters":24400,"station_id":"ce4bgi92rcd13ifvqb90","pricing_plan_id":"free"},{"bike_id":"75eea80d-a25e-4a68-8b49-c1eae2b7dd0c","system_id":"levelo_inurba_marseille","lat":43.297773,"lon":5.381117,"is_reserved":false,"is_disabled":false,"rental_uris":{"android":"levelo://app?vid=75eea80d-a25e-4a68-8b49-c1eae2b7dd0c","ios":"levelo://app?vid=75eea80d-a25e-4a68-8b49-c1eae2b7dd0c"},"vehicle_type_id":"4","last_reported":1705597611,"current_range_meters":27200,"station_id":"ce4bgip2rcd13ifvqbb0","pricing_plan_id":"free"},{"bike_id":"df8ad26d-d898-46fd-b251-f73fb4d77433","system_id":"levelo_inurba_marseille","lat":43.296263,"lon":5.377094,"is_reserved":false,"is_disabled":false,"rental_uris":{"android":"levelo://app?vid=df8ad26d-d898-46fd-b251-f73fb4d77433","ios":"levelo://app?vid=df8ad26d-d898-46fd-b251-f73fb4d77433"},"vehicle_type_id":"4","last_reported":1705597611,"current_range_meters":21200,"station_id":"ce4bgi92rcd13ifvqb90","pricing_plan_id":"free"},{"bike_id":"b4e783c7-3b1c-4b7b-8204-2cf51bee61e1","system_id":"levelo_inurba_marseille","lat":43.299707,"lon":5.384859,"is_reserved":false,"is_disabled":false,"rental_uris":{"android":"levelo://app?vid=b4e783c7-3b1c-4b7b-8204-2cf51bee61e1","ios":"levelo://app?vid=b4e783c7-3b1c-4b7b-8204-2cf51bee61e1"},"vehicle_type_id":"4","last_reported":1705597611,"current_range_meters":2400,"station_id":"ce4bgj92rcd13ifvqbd0","pricing_plan_id":"free"},{"bike_id":"d288281c-4e2d-4873-a3e5-5fdb1984a623","system_id":"levelo_inurba_marseille","lat":43.299707,"lon":5.384859,"is_reserved":false,"is_disabled":false,"rental_uris":{"android":"levelo://app?vid=d288281c-4e2d-4873-a3e5-5fdb1984a623","ios":"levelo://app?vid=d288281c-4e2d-4873-a3e5-5fdb1984a623"},"vehicle_type_id":"4","last_reported":1705597611,"current_range_meters":15600,"station_id":"ce4bgj92rcd13ifvqbd0","pricing_plan_id":"free"},{"bike_id":"a16236ed-345f-4051-93fd-4aa1f2a41301","system_id":"levelo_inurba_marseille","lat":43.299707,"lon":5.384859,"is_reserved":false,"is_disabled":false,"rental_uris":{"android":"levelo://app?vid=a16236ed-345f-4051-93fd-4aa1f2a41301","ios":"levelo://app?vid=a16236ed-345f-4051-93fd-4aa1f2a41301"},"vehicle_type_id":"4","last_reported":1705597611,"current_range_meters":0,"station_id":"ce4bgj92rcd13ifvqbd0","pricing_plan_id":"free"},{"bike_id":"7de5222c-1b37-42cf-9cac-5a0a514a92f4","system_id":"levelo_inurba_marseille","lat":43.295237,"lon":5.374927,"is_reserved":false,"is_disabled":false,"rental_uris":{"android":"levelo://app?vid=7de5222c-1b37-42cf-9cac-5a0a514a92f4","ios":"levelo://app?vid=7de5222c-1b37-42cf-9cac-5a0a514a92f4"},"vehicle_type_id":"4","last_reported":1705597611,"current_range_meters":0,"station_id":"ce4bgkp2rcd13ifvqbmg","pricing_plan_id":"free"},{"bike_id":"f977318d-0438-46d1-b376-f59e6d749225","system_id":"levelo_inurba_marseille","lat":43.299724,"lon":5.384848,"is_reserved":false,"is_disabled":false,"rental_uris":{"android":"levelo://app?vid=f977318d-0438-46d1-b376-f59e6d749225","ios":"levelo://app?vid=f977318d-0438-46d1-b376-f59e6d749225"},"vehicle_type_id":"4","last_reported":1705597611,"current_range_meters":25600,"station_id":"ce4bgj92rcd13ifvqbd0","pricing_plan_id":"free"},{"bike_id":"37488e4d-837d-443b-a7f0-f22909aa2c7f","system_id":"levelo_inurba_marseille","lat":43.32362,"lon":5.38869,"is_reserved":false,"is_disabled":false,"rental_uris":{"android":"levelo://app?vid=37488e4d-837d-443b-a7f0-f22909aa2c7f","ios":"levelo://app?vid=37488e4d-837d-443b-a7f0-f22909aa2c7f"},"vehicle_type_id":"4","last_reported":1705597611,"current_range_meters":20000,"station_id":"ce4bhqp2rcd13ifvqhog","pricing_plan_id":"free"},{"bike_id":"3f1ac6a1-e676-4499-a5d3-78914f1d8f7e","system_id":"levelo_inurba_marseille","lat":43.32366,"lon":5.38867,"is_reserved":false,"is_disabled":false,"rental_uris":{"android":"levelo://app?vid=3f1ac6a1-e676-4499-a5d3-78914f1d8f7e","ios":"levelo://app?vid=3f1ac6a1-e676-4499-a5d3-78914f1d8f7e"},"vehicle_type_id":"4","last_reported":1705597611,"current_range_meters":8000,"station_id":"ce4bhqp2rcd13ifvqhog","pricing_plan_id":"free"},{"bike_id":"e488bc27-b4bd-4ecb-9994-ebd8743b5676","system_id":"levelo_inurba_marseille","lat":43.32361,"lon":5.38874,"is_reserved":false,"is_disabled":false,"rental_uris":{"android":"levelo://app?vid=e488bc27-b4bd-4ecb-9994-ebd8743b5676","ios":"levelo://app?vid=e488bc27-b4bd-4ecb-9994-ebd8743b5676"},"vehicle_type_id":"4","last_reported":1705597611,"current_range_meters":12800,"station_id":"ce4bhqp2rcd13ifvqhog","pricing_plan_id":"free"},{"bike_id":"76d2d8d7-8638-4213-9d68-910604c565ee","system_id":"levelo_inurba_marseille","lat":43.32369,"lon":5.38875,"is_reserved":false,"is_disabled":false,"rental_uris":{"android":"levelo://app?vid=76d2d8d7-8638-4213-9d68-910604c565ee","ios":"levelo://app?vid=76d2d8d7-8638-4213-9d68-910604c565ee"},"vehicle_type_id":"4","last_reported":1705597611,"current_range_meters":1200,"station_id":"ce4bhqp2rcd13ifvqhog","pricing_plan_id":"free"},{"bike_id":"ae329723-b6cd-4f52-99af-83cccf370dd2","system_id":"levelo_inurba_marseille","lat":43.32367,"lon":5.38879,"is_reserved":false,"is_disabled":false,"rental_uris":{"android":"levelo://app?vid=ae329723-b6cd-4f52-99af-83cccf370dd2","ios":"levelo://app?vid=ae329723-b6cd-4f52-99af-83cccf370dd2"},"vehicle_type_id":"4","last_reported":1705597611,"current_range_meters":6000,"station_id":"ce4bhqp2rcd13ifvqhog","pricing_plan_id":"free"},{"bike_id":"455dcc68-a660-415d-93de-0649d55b906b","system_id":"levelo_inurba_marseille","lat":43.32366,"lon":5.3888,"is_reserved":false,"is_disabled":false,"rental_uris":{"android":"levelo://app?vid=455dcc68-a660-415d-93de-0649d55b906b","ios":"levelo://app?vid=455dcc68-a660-415d-93de-0649d55b906b"},"vehicle_type_id":"4","last_reported":1705597611,"current_range_meters":27200,"station_id":"ce4bhqp2rcd13ifvqhog","pricing_plan_id":"free"},{"bike_id":"d589db7f-f7c3-4eba-9c81-55f7aee0fc32","system_id":"levelo_inurba_marseille","lat":43.32365,"lon":5.38882,"is_reserved":false,"is_disabled":false,"rental_uris":{"android":"levelo://app?vid=d589db7f-f7c3-4eba-9c81-55f7aee0fc32","ios":"levelo://app?vid=d589db7f-f7c3-4eba-9c81-55f7aee0fc32"},"vehicle_type_id":"4","last_reported":1705597611,"current_range_meters":22800,"station_id":"ce4bhqp2rcd13ifvqhog","pricing_plan_id":"free"},{"bike_id":"0bfd4e67-2f41-4ad0-88ae-f2544a59b7c7","system_id":"levelo_inurba_marseille","lat":43.323705,"lon":5.38878,"is_reserved":false,"is_disabled":false,"rental_uris":{"android":"levelo://app?vid=0bfd4e67-2f41-4ad0-88ae-f2544a59b7c7","ios":"levelo://app?vid=0bfd4e67-2f41-4ad0-88ae-f2544a59b7c7"},"vehicle_type_id":"4","last_reported":1705597611,"current_range_meters":18800,"station_id":"ce4bhqp2rcd13ifvqhog","pricing_plan_id":"free"},{"bike_id":"48d01839-1c06-4604-a1d2-ae1f8bd3df35","system_id":"levelo_inurba_marseille","lat":43.32365,"lon":5.38884,"is_reserved":false,"is_disabled":false,"rental_uris":{"android":"levelo://app?vid=48d01839-1c06-4604-a1d2-ae1f8bd3df35","ios":"levelo://app?vid=48d01839-1c06-4604-a1d2-ae1f8bd3df35"},"vehicle_type_id":"4","last_reported":1705597611,"current_range_meters":10000,"station_id":"ce4bhqp2rcd13ifvqhog","pricing_plan_id":"free"},{"bike_id":"b7beb6a5-b030-4fe2-a25b-ee6b5b88bebb","system_id":"levelo_inurba_marseille","lat":43.323649,"lon":5.388879,"is_reserved":false,"is_disabled":false,"rental_uris":{"android":"levelo://app?vid=b7beb6a5-b030-4fe2-a25b-ee6b5b88bebb","ios":"levelo://app?vid=b7beb6a5-b030-4fe2-a25b-ee6b5b88bebb"},"vehicle_type_id":"4","last_reported":1705597611,"current_range_meters":27600,"station_id":"ce4bhqp2rcd13ifvqhog","pricing_plan_id":"free"},{"bike_id":"2ec4001f-5cf2-4614-bbfc-ffc6c5b765c3","system_id":"levelo_inurba_marseille","lat":43.32369,"lon":5.38887,"is_reserved":false,"is_disabled":false,"rental_uris":{"android":"levelo://app?vid=2ec4001f-5cf2-4614-bbfc-ffc6c5b765c3","ios":"levelo://app?vid=2ec4001f-5cf2-4614-bbfc-ffc6c5b765c3"},"vehicle_type_id":"4","last_reported":1705597611,"current_range_meters":19600,"station_id":"ce4bhqp2rcd13ifvqhog","pricing_plan_id":"free"},{"bike_id":"3438724d-ab0f-4a21-8ea9-64ccfed2b74d","system_id":"levelo_inurba_marseille","lat":43.296,"lon":5.38094,"is_reserved":false,"is_disabled":false,"rental_uris":{"android":"levelo://app?vid=3438724d-ab0f-4a21-8ea9-64ccfed2b74d","ios":"levelo://app?vid=3438724d-ab0f-4a21-8ea9-64ccfed2b74d"},"vehicle_type_id":"4","last_reported":1705597611,"current_range_meters":8400,"station_id":"","pricing_plan_id":"free"},{"bike_id":"bafae924-40f1-4c19-95ba-d38b2c7a8fab","system_id":"levelo_inurba_marseille","lat":43.29602,"lon":5.380987,"is_reserved":false,"is_disabled":false,"rental_uris":{"android":"levelo://app?vid=bafae924-40f1-4c19-95ba-d38b2c7a8fab","ios":"levelo://app?vid=bafae924-40f1-4c19-95ba-d38b2c7a8fab"},"vehicle_type_id":"4","last_reported":1705597611,"current_range_meters":6400,"station_id":"ce4bgl12rcd13ifvqbo0","pricing_plan_id":"free"},{"bike_id":"da3b3d2d-9825-41a4-af92-c49a6e2262d7","system_id":"levelo_inurba_marseille","lat":43.29601,"lon":5.381084,"is_reserved":false,"is_disabled":false,"rental_uris":{"android":"levelo://app?vid=da3b3d2d-9825-41a4-af92-c49a6e2262d7","ios":"levelo://app?vid=da3b3d2d-9825-41a4-af92-c49a6e2262d7"},"vehicle_type_id":"4","last_reported":1705597611,"current_range_meters":12400,"station_id":"ce4bgl12rcd13ifvqbo0","pricing_plan_id":"free"},{"bike_id":"1420ac22-a7ba-4982-b5ab-2f4a39eaf771","system_id":"levelo_inurba_marseille","lat":43.29602,"lon":5.381084,"is_reserved":false,"is_disabled":false,"rental_uris":{"android":"levelo://app?vid=1420ac22-a7ba-4982-b5ab-2f4a39eaf771","ios":"levelo://app?vid=1420ac22-a7ba-4982-b5ab-2f4a39eaf771"},"vehicle_type_id":"4","last_reported":1705597611,"current_range_meters":18800,"station_id":"ce4bgl12rcd13ifvqbo0","pricing_plan_id":"free"},{"bike_id":"d9dcfcbf-d93c-449e-81b1-a64218d4ff99","system_id":"levelo_inurba_marseille","lat":43.293009,"lon":5.374584,"is_reserved":false,"is_disabled":false,"rental_uris":{"android":"levelo://app?vid=d9dcfcbf-d93c-449e-81b1-a64218d4ff99","ios":"levelo://app?vid=d9dcfcbf-d93c-449e-81b1-a64218d4ff99"},"vehicle_type_id":"4","last_reported":1705597611,"current_range_meters":16800,"station_id":"ce4bgi12rcd13ifvqb70","pricing_plan_id":"free"},{"bike_id":"6bec6022-4f7d-4422-a5e9-8693439a336e","system_id":"levelo_inurba_marseille","lat":43.29305,"lon":5.3716,"is_reserved":false,"is_disabled":false,"rental_uris":{"android":"levelo://app?vid=6bec6022-4f7d-4422-a5e9-8693439a336e","ios":"levelo://app?vid=6bec6022-4f7d-4422-a5e9-8693439a336e"},"vehicle_type_id":"4","last_reported":1705597611,"current_range_meters":0,"station_id":"ce4bgh92rcd13ifvqb40","pricing_plan_id":"free"},{"bike_id":"fa8c090f-d683-4d63-acf5-f86c4295b862","system_id":"levelo_inurba_marseille","lat":43.292749,"lon":5.368398,"is_reserved":false,"is_disabled":false,"rental_uris":{"android":"levelo://app?vid=fa8c090f-d683-4d63-acf5-f86c4295b862","ios":"levelo://app?vid=fa8c090f-d683-4d63-acf5-f86c4295b862"},"vehicle_type_id":"4","last_reported":1705597611,"current_range_meters":10800,"station_id":"ce4bhbp2rcd13ifvqesg","pricing_plan_id":"free"},{"bike_id":"89c50568-e093-45dd-b648-664276ca2cf5","system_id":"levelo_inurba_marseille","lat":43.29306,"lon":5.37172,"is_reserved":false,"is_disabled":false,"rental_uris":{"android":"levelo://app?vid=89c50568-e093-45dd-b648-664276ca2cf5","ios":"levelo://app?vid=89c50568-e093-45dd-b648-664276ca2cf5"},"vehicle_type_id":"4","last_reported":1705597611,"current_range_meters":28000,"station_id":"ce4bgh92rcd13ifvqb40","pricing_plan_id":"free"},{"bike_id":"65b2de3c-6ebb-4626-af16-36c5a5071437","system_id":"levelo_inurba_marseille","lat":43.292749,"lon":5.368402,"is_reserved":false,"is_disabled":false,"rental_uris":{"android":"levelo://app?vid=65b2de3c-6ebb-4626-af16-36c5a5071437","ios":"levelo://app?vid=65b2de3c-6ebb-4626-af16-36c5a5071437"},"vehicle_type_id":"4","last_reported":1705597611,"current_range_meters":0,"station_id":"ce4bhbp2rcd13ifvqesg","pricing_plan_id":"free"},{"bike_id":"fcc5783b-9e13-4a28-a5f2-f4b67943b28b","system_id":"levelo_inurba_marseille","lat":43.293009,"lon":5.374584,"is_reserved":false,"is_disabled":false,"rental_uris":{"android":"levelo://app?vid=fcc5783b-9e13-4a28-a5f2-f4b67943b28b","ios":"levelo://app?vid=fcc5783b-9e13-4a28-a5f2-f4b67943b28b"},"vehicle_type_id":"4","last_reported":1705597611,"current_range_meters":20800,"station_id":"ce4bgi12rcd13ifvqb70","pricing_plan_id":"free"},{"bike_id":"719adc1c-cb7c-4541-a775-b87f4b1a0d1e","system_id":"levelo_inurba_marseille","lat":43.305994,"lon":5.393687,"is_reserved":false,"is_disabled":false,"rental_uris":{"android":"levelo://app?vid=719adc1c-cb7c-4541-a775-b87f4b1a0d1e","ios":"levelo://app?vid=719adc1c-cb7c-4541-a775-b87f4b1a0d1e"},"vehicle_type_id":"4","last_reported":1705597611,"current_range_meters":0,"station_id":"ce4bh0p2rcd13ifvqd80","pricing_plan_id":"free"},{"bike_id":"2087ded2-e87c-4ec5-9436-a3a2d28c6704","system_id":"levelo_inurba_marseille","lat":43.305994,"lon":5.393687,"is_reserved":false,"is_disabled":false,"rental_uris":{"android":"levelo://app?vid=2087ded2-e87c-4ec5-9436-a3a2d28c6704","ios":"levelo://app?vid=2087ded2-e87c-4ec5-9436-a3a2d28c6704"},"vehicle_type_id":"4","last_reported":1705597611,"current_range_meters":0,"station_id":"ce4bh0p2rcd13ifvqd80","pricing_plan_id":"free"},{"bike_id":"ad75cd49-5e86-4bdc-a486-0c1462df9621","system_id":"levelo_inurba_marseille","lat":43.305392,"lon":5.393399,"is_reserved":false,"is_disabled":false,"rental_uris":{"android":"levelo://app?vid=ad75cd49-5e86-4bdc-a486-0c1462df9621","ios":"levelo://app?vid=ad75cd49-5e86-4bdc-a486-0c1462df9621"},"vehicle_type_id":"4","last_reported":1705597611,"current_range_meters":2400,"station_id":"","pricing_plan_id":"free"},{"bike_id":"6b96080b-ed9b-4339-a632-2cb83e8aa96c","system_id":"levelo_inurba_marseille","lat":43.303002,"lon":5.392142,"is_reserved":false,"is_disabled":false,"rental_uris":{"android":"levelo://app?vid=6b96080b-ed9b-4339-a632-2cb83e8aa96c","ios":"levelo://app?vid=6b96080b-ed9b-4339-a632-2cb83e8aa96c"},"vehicle_type_id":"4","last_reported":1705597611,"current_range_meters":26400,"station_id":"ce4bgkh2rcd13ifvqbk0","pricing_plan_id":"free"},{"bike_id":"8b94cfab-2686-4089-bad9-1063f887be73","system_id":"levelo_inurba_marseille","lat":43.302992,"lon":5.392136,"is_reserved":false,"is_disabled":false,"rental_uris":{"android":"levelo://app?vid=8b94cfab-2686-4089-bad9-1063f887be73","ios":"levelo://app?vid=8b94cfab-2686-4089-bad9-1063f887be73"},"vehicle_type_id":"4","last_reported":1705597611,"current_range_meters":24800,"station_id":"ce4bgkh2rcd13ifvqbk0","pricing_plan_id":"free"},{"bike_id":"961ac634-c2af-4a56-8275-7ae6decafd57","system_id":"levelo_inurba_marseille","lat":43.2936,"lon":5.37835,"is_reserved":false,"is_disabled":false,"rental_uris":{"android":"levelo://app?vid=961ac634-c2af-4a56-8275-7ae6decafd57","ios":"levelo://app?vid=961ac634-c2af-4a56-8275-7ae6decafd57"},"vehicle_type_id":"4","last_reported":1705597611,"current_range_meters":2800,"station_id":"ce4bgjh2rcd13ifvqbf0","pricing_plan_id":"free"},{"bike_id":"fa6a0e37-7646-448c-acbd-b6ce84cb1f2e","system_id":"levelo_inurba_marseille","lat":43.30085,"lon":5.390856,"is_reserved":false,"is_disabled":false,"rental_uris":{"android":"levelo://app?vid=fa6a0e37-7646-448c-acbd-b6ce84cb1f2e","ios":"levelo://app?vid=fa6a0e37-7646-448c-acbd-b6ce84cb1f2e"},"vehicle_type_id":"4","last_reported":1705597611,"current_range_meters":20800,"station_id":"ce4bh192rcd13ifvqdb0","pricing_plan_id":"free"},{"bike_id":"16766ab5-814d-40ea-b9ff-423dd98cb312","system_id":"levelo_inurba_marseille","lat":43.300852,"lon":5.390859,"is_reserved":false,"is_disabled":false,"rental_uris":{"android":"levelo://app?vid=16766ab5-814d-40ea-b9ff-423dd98cb312","ios":"levelo://app?vid=16766ab5-814d-40ea-b9ff-423dd98cb312"},"vehicle_type_id":"4","last_reported":1705597611,"current_range_meters":22000,"station_id":"ce4bh192rcd13ifvqdb0","pricing_plan_id":"free"},{"bike_id":"fc427d73-0cf0-401d-8578-adddd586832b","system_id":"levelo_inurba_marseille","lat":43.300852,"lon":5.390859,"is_reserved":false,"is_disabled":false,"rental_uris":{"android":"levelo://app?vid=fc427d73-0cf0-401d-8578-adddd586832b","ios":"levelo://app?vid=fc427d73-0cf0-401d-8578-adddd586832b"},"vehicle_type_id":"4","last_reported":1705597611,"current_range_meters":2400,"station_id":"ce4bh192rcd13ifvqdb0","pricing_plan_id":"free"},{"bike_id":"bf618569-527d-44ea-8a35-5d97b7be2929","system_id":"levelo_inurba_marseille","lat":43.300852,"lon":5.390859,"is_reserved":false,"is_disabled":false,"rental_uris":{"android":"levelo://app?vid=bf618569-527d-44ea-8a35-5d97b7be2929","ios":"levelo://app?vid=bf618569-527d-44ea-8a35-5d97b7be2929"},"vehicle_type_id":"4","last_reported":1705597611,"current_range_meters":24400,"station_id":"ce4bh192rcd13ifvqdb0","pricing_plan_id":"free"},{"bike_id":"c1e45a36-0b40-40c1-8fee-8ecb51f85fcf","system_id":"levelo_inurba_marseille","lat":43.30085,"lon":5.390856,"is_reserved":false,"is_disabled":false,"rental_uris":{"android":"levelo://app?vid=c1e45a36-0b40-40c1-8fee-8ecb51f85fcf","ios":"levelo://app?vid=c1e45a36-0b40-40c1-8fee-8ecb51f85fcf"},"vehicle_type_id":"4","last_reported":1705597611,"current_range_meters":7200,"station_id":"ce4bh192rcd13ifvqdb0","pricing_plan_id":"free"},{"bike_id":"4803e7ed-23ec-4af4-a92f-7353c1ec1639","system_id":"levelo_inurba_marseille","lat":43.291675,"lon":5.371583,"is_reserved":false,"is_disabled":false,"rental_uris":{"android":"levelo://app?vid=4803e7ed-23ec-4af4-a92f-7353c1ec1639","ios":"levelo://app?vid=4803e7ed-23ec-4af4-a92f-7353c1ec1639"},"vehicle_type_id":"4","last_reported":1705597611,"current_range_meters":5600,"station_id":"ce4bha92rcd13ifvqeh0","pricing_plan_id":"free"},{"bike_id":"9ee807c8-3f9e-48f3-80da-1e7bdc2cf641","system_id":"levelo_inurba_marseille","lat":43.291994,"lon":5.357886,"is_reserved":false,"is_disabled":false,"rental_uris":{"android":"levelo://app?vid=9ee807c8-3f9e-48f3-80da-1e7bdc2cf641","ios":"levelo://app?vid=9ee807c8-3f9e-48f3-80da-1e7bdc2cf641"},"vehicle_type_id":"4","last_reported":1705597611,"current_range_meters":16800,"station_id":"ce4bhb12rcd13ifvqel0","pricing_plan_id":"free"},{"bike_id":"c487f629-87fb-4766-bb0b-be666a8d652a","system_id":"levelo_inurba_marseille","lat":43.291994,"lon":5.357886,"is_reserved":false,"is_disabled":false,"rental_uris":{"android":"levelo://app?vid=c487f629-87fb-4766-bb0b-be666a8d652a","ios":"levelo://app?vid=c487f629-87fb-4766-bb0b-be666a8d652a"},"vehicle_type_id":"4","last_reported":1705597611,"current_range_meters":0,"station_id":"ce4bhb12rcd13ifvqel0","pricing_plan_id":"free"},{"bike_id":"7c9fabf9-8932-4cd5-a1eb-82f011ca3363","system_id":"levelo_inurba_marseille","lat":43.313291,"lon":5.396838,"is_reserved":false,"is_disabled":false,"rental_uris":{"android":"levelo://app?vid=7c9fabf9-8932-4cd5-a1eb-82f011ca3363","ios":"levelo://app?vid=7c9fabf9-8932-4cd5-a1eb-82f011ca3363"},"vehicle_type_id":"4","last_reported":1705597611,"current_range_meters":22400,"station_id":"ce4bgvp2rcd13ifvqcu0","pricing_plan_id":"free"},{"bike_id":"539e595b-ab0b-42b6-8996-46d9b0f9f3f6","system_id":"levelo_inurba_marseille","lat":43.313291,"lon":5.396838,"is_reserved":false,"is_disabled":false,"rental_uris":{"android":"levelo://app?vid=539e595b-ab0b-42b6-8996-46d9b0f9f3f6","ios":"levelo://app?vid=539e595b-ab0b-42b6-8996-46d9b0f9f3f6"},"vehicle_type_id":"4","last_reported":1705597611,"current_range_meters":2000,"station_id":"ce4bgvp2rcd13ifvqcu0","pricing_plan_id":"free"},{"bike_id":"28c3ca84-29b9-4aed-9f1d-b91456ae6cc1","system_id":"levelo_inurba_marseille","lat":43.313291,"lon":5.396838,"is_reserved":false,"is_disabled":false,"rental_uris":{"android":"levelo://app?vid=28c3ca84-29b9-4aed-9f1d-b91456ae6cc1","ios":"levelo://app?vid=28c3ca84-29b9-4aed-9f1d-b91456ae6cc1"},"vehicle_type_id":"4","last_reported":1705597611,"current_range_meters":20000,"station_id":"ce4bgvp2rcd13ifvqcu0","pricing_plan_id":"free"},{"bike_id":"30124e0c-4b54-41cf-b4b0-83a8f8bca3f2","system_id":"levelo_inurba_marseille","lat":43.309047,"lon":5.396551,"is_reserved":false,"is_disabled":false,"rental_uris":{"android":"levelo://app?vid=30124e0c-4b54-41cf-b4b0-83a8f8bca3f2","ios":"levelo://app?vid=30124e0c-4b54-41cf-b4b0-83a8f8bca3f2"},"vehicle_type_id":"4","last_reported":1705597611,"current_range_meters":23200,"station_id":"ce4bh012rcd13ifvqcv0","pricing_plan_id":"free"},{"bike_id":"0d2ac790-bf0e-4d0f-afac-94e23fec1e7b","system_id":"levelo_inurba_marseille","lat":43.309047,"lon":5.396551,"is_reserved":false,"is_disabled":false,"rental_uris":{"android":"levelo://app?vid=0d2ac790-bf0e-4d0f-afac-94e23fec1e7b","ios":"levelo://app?vid=0d2ac790-bf0e-4d0f-afac-94e23fec1e7b"},"vehicle_type_id":"4","last_reported":1705597611,"current_range_meters":3200,"station_id":"ce4bh012rcd13ifvqcv0","pricing_plan_id":"free"},{"bike_id":"ab47652f-07c5-45a1-9c17-92c07fe88689","system_id":"levelo_inurba_marseille","lat":43.29527,"lon":5.38538,"is_reserved":false,"is_disabled":false,"rental_uris":{"android":"levelo://app?vid=ab47652f-07c5-45a1-9c17-92c07fe88689","ios":"levelo://app?vid=ab47652f-07c5-45a1-9c17-92c07fe88689"},"vehicle_type_id":"4","last_reported":1705597611,"current_range_meters":0,"station_id":"ce4bgih2rcd13ifvqba0","pricing_plan_id":"free"},{"bike_id":"3d585b65-7d64-40b4-8062-7664ab1c329f","system_id":"levelo_inurba_marseille","lat":43.29532,"lon":5.38549,"is_reserved":false,"is_disabled":false,"rental_uris":{"android":"levelo://app?vid=3d585b65-7d64-40b4-8062-7664ab1c329f","ios":"levelo://app?vid=3d585b65-7d64-40b4-8062-7664ab1c329f"},"vehicle_type_id":"4","last_reported":1705597611,"current_range_meters":0,"station_id":"ce4bgih2rcd13ifvqba0","pricing_plan_id":"free"},{"bike_id":"7fa47a0e-0bc0-4152-bc83-b3ce746abc6a","system_id":"levelo_inurba_marseille","lat":43.29529,"lon":5.385581,"is_reserved":false,"is_disabled":false,"rental_uris":{"android":"levelo://app?vid=7fa47a0e-0bc0-4152-bc83-b3ce746abc6a","ios":"levelo://app?vid=7fa47a0e-0bc0-4152-bc83-b3ce746abc6a"},"vehicle_type_id":"4","last_reported":1705597611,"current_range_meters":28400,"station_id":"ce4bgih2rcd13ifvqba0","pricing_plan_id":"free"},{"bike_id":"9216a22d-025b-4600-acb1-5005cb86a416","system_id":"levelo_inurba_marseille","lat":43.290779,"lon":5.371482,"is_reserved":false,"is_disabled":false,"rental_uris":{"android":"levelo://app?vid=9216a22d-025b-4600-acb1-5005cb86a416","ios":"levelo://app?vid=9216a22d-025b-4600-acb1-5005cb86a416"},"vehicle_type_id":"4","last_reported":1705597611,"current_range_meters":14400,"station_id":"ce4bh5p2rcd13ifvqe4g","pricing_plan_id":"free"},{"bike_id":"45c72a29-7580-4281-9c8b-92b74827e4df","system_id":"levelo_inurba_marseille","lat":43.290779,"lon":5.371482,"is_reserved":false,"is_disabled":false,"rental_uris":{"android":"levelo://app?vid=45c72a29-7580-4281-9c8b-92b74827e4df","ios":"levelo://app?vid=45c72a29-7580-4281-9c8b-92b74827e4df"},"vehicle_type_id":"4","last_reported":1705597611,"current_range_meters":22000,"station_id":"ce4bh5p2rcd13ifvqe4g","pricing_plan_id":"free"},{"bike_id":"fc8997a5-db86-4652-897a-f0648bd15f49","system_id":"levelo_inurba_marseille","lat":43.290779,"lon":5.371482,"is_reserved":false,"is_disabled":false,"rental_uris":{"android":"levelo://app?vid=fc8997a5-db86-4652-897a-f0648bd15f49","ios":"levelo://app?vid=fc8997a5-db86-4652-897a-f0648bd15f49"},"vehicle_type_id":"4","last_reported":1705597611,"current_range_meters":21200,"station_id":"ce4bh5p2rcd13ifvqe4g","pricing_plan_id":"free"},{"bike_id":"65008ef8-a384-48bb-a56a-ffd655af54b3","system_id":"levelo_inurba_marseille","lat":43.290779,"lon":5.371482,"is_reserved":false,"is_disabled":false,"rental_uris":{"android":"levelo://app?vid=65008ef8-a384-48bb-a56a-ffd655af54b3","ios":"levelo://app?vid=65008ef8-a384-48bb-a56a-ffd655af54b3"},"vehicle_type_id":"4","last_reported":1705597611,"current_range_meters":13200,"station_id":"ce4bh5p2rcd13ifvqe4g","pricing_plan_id":"free"},{"bike_id":"deb56edb-652c-4771-9705-60e1e178d70b","system_id":"levelo_inurba_marseille","lat":43.290779,"lon":5.371482,"is_reserved":false,"is_disabled":false,"rental_uris":{"android":"levelo://app?vid=deb56edb-652c-4771-9705-60e1e178d70b","ios":"levelo://app?vid=deb56edb-652c-4771-9705-60e1e178d70b"},"vehicle_type_id":"4","last_reported":1705597611,"current_range_meters":800,"station_id":"ce4bh5p2rcd13ifvqe4g","pricing_plan_id":"free"},{"bike_id":"c2670fa0-3d62-4b12-b3de-82f4b338255f","system_id":"levelo_inurba_marseille","lat":43.302008,"lon":5.394694,"is_reserved":false,"is_disabled":false,"rental_uris":{"android":"levelo://app?vid=c2670fa0-3d62-4b12-b3de-82f4b338255f","ios":"levelo://app?vid=c2670fa0-3d62-4b12-b3de-82f4b338255f"},"vehicle_type_id":"4","last_reported":1705597611,"current_range_meters":18400,"station_id":"ce4bh0p2rcd13ifvqd70","pricing_plan_id":"free"},{"bike_id":"a0a40f00-1dd3-4cb2-8948-33e2b163f7da","system_id":"levelo_inurba_marseille","lat":43.302008,"lon":5.394694,"is_reserved":false,"is_disabled":false,"rental_uris":{"android":"levelo://app?vid=a0a40f00-1dd3-4cb2-8948-33e2b163f7da","ios":"levelo://app?vid=a0a40f00-1dd3-4cb2-8948-33e2b163f7da"},"vehicle_type_id":"4","last_reported":1705597611,"current_range_meters":4400,"station_id":"ce4bh0p2rcd13ifvqd70","pricing_plan_id":"free"},{"bike_id":"c4a41f88-2e8b-4608-aacb-3ee35eeee398","system_id":"levelo_inurba_marseille","lat":43.289743,"lon":5.378304,"is_reserved":false,"is_disabled":false,"rental_uris":{"android":"levelo://app?vid=c4a41f88-2e8b-4608-aacb-3ee35eeee398","ios":"levelo://app?vid=c4a41f88-2e8b-4608-aacb-3ee35eeee398"},"vehicle_type_id":"4","last_reported":1705597611,"current_range_meters":24400,"station_id":"ce4bh9p2rcd13ifvqed0","pricing_plan_id":"free"},{"bike_id":"b58f06cf-dbc1-495a-afea-2e43dfa0ed46","system_id":"levelo_inurba_marseille","lat":43.294153,"lon":5.386305,"is_reserved":false,"is_disabled":false,"rental_uris":{"android":"levelo://app?vid=b58f06cf-dbc1-495a-afea-2e43dfa0ed46","ios":"levelo://app?vid=b58f06cf-dbc1-495a-afea-2e43dfa0ed46"},"vehicle_type_id":"4","last_reported":1705597611,"current_range_meters":20000,"station_id":"ce4bh2h2rcd13ifvqdh0","pricing_plan_id":"free"},{"bike_id":"ef0dc090-5696-4708-98aa-611a831aaeb0","system_id":"levelo_inurba_marseille","lat":43.294153,"lon":5.386305,"is_reserved":false,"is_disabled":false,"rental_uris":{"android":"levelo://app?vid=ef0dc090-5696-4708-98aa-611a831aaeb0","ios":"levelo://app?vid=ef0dc090-5696-4708-98aa-611a831aaeb0"},"vehicle_type_id":"4","last_reported":1705597611,"current_range_meters":19600,"station_id":"ce4bh2h2rcd13ifvqdh0","pricing_plan_id":"free"},{"bike_id":"4ff6159b-ceb6-4e23-92ac-7d988a3e3349","system_id":"levelo_inurba_marseille","lat":43.29033,"lon":5.37556,"is_reserved":false,"is_disabled":false,"rental_uris":{"android":"levelo://app?vid=4ff6159b-ceb6-4e23-92ac-7d988a3e3349","ios":"levelo://app?vid=4ff6159b-ceb6-4e23-92ac-7d988a3e3349"},"vehicle_type_id":"4","last_reported":1705597611,"current_range_meters":10800,"station_id":"ce4bh692rcd13ifvqe90","pricing_plan_id":"free"},{"bike_id":"119f4d3b-3939-4f9a-8033-20a402584aec","system_id":"levelo_inurba_marseille","lat":43.29416,"lon":5.38625,"is_reserved":false,"is_disabled":false,"rental_uris":{"android":"levelo://app?vid=119f4d3b-3939-4f9a-8033-20a402584aec","ios":"levelo://app?vid=119f4d3b-3939-4f9a-8033-20a402584aec"},"vehicle_type_id":"4","last_reported":1705597611,"current_range_meters":2400,"station_id":"ce4bh2h2rcd13ifvqdh0","pricing_plan_id":"free"},{"bike_id":"b26d3d34-d6a5-4028-a5a2-b88c761d4134","system_id":"levelo_inurba_marseille","lat":43.294162,"lon":5.386292,"is_reserved":false,"is_disabled":false,"rental_uris":{"android":"levelo://app?vid=b26d3d34-d6a5-4028-a5a2-b88c761d4134","ios":"levelo://app?vid=b26d3d34-d6a5-4028-a5a2-b88c761d4134"},"vehicle_type_id":"4","last_reported":1705597611,"current_range_meters":26000,"station_id":"ce4bh2h2rcd13ifvqdh0","pricing_plan_id":"free"},{"bike_id":"7952001a-4953-417c-b18e-41a4444c6237","system_id":"levelo_inurba_marseille","lat":43.294153,"lon":5.386305,"is_reserved":false,"is_disabled":false,"rental_uris":{"android":"levelo://app?vid=7952001a-4953-417c-b18e-41a4444c6237","ios":"levelo://app?vid=7952001a-4953-417c-b18e-41a4444c6237"},"vehicle_type_id":"4","last_reported":1705597611,"current_range_meters":6800,"station_id":"ce4bh2h2rcd13ifvqdh0","pricing_plan_id":"free"},{"bike_id":"43e12711-5e39-4a62-8e43-6181496cccde","system_id":"levelo_inurba_marseille","lat":43.289184,"lon":5.366408,"is_reserved":false,"is_disabled":false,"rental_uris":{"android":"levelo://app?vid=43e12711-5e39-4a62-8e43-6181496cccde","ios":"levelo://app?vid=43e12711-5e39-4a62-8e43-6181496cccde"},"vehicle_type_id":"4","last_reported":1705597611,"current_range_meters":12400,"station_id":"ce4bhap2rcd13ifvqek0","pricing_plan_id":"free"},{"bike_id":"b64edca6-5e10-4f3a-9ebf-aec8fe7fb56e","system_id":"levelo_inurba_marseille","lat":43.289468,"lon":5.363719,"is_reserved":false,"is_disabled":false,"rental_uris":{"android":"levelo://app?vid=b64edca6-5e10-4f3a-9ebf-aec8fe7fb56e","ios":"levelo://app?vid=b64edca6-5e10-4f3a-9ebf-aec8fe7fb56e"},"vehicle_type_id":"4","last_reported":1705597611,"current_range_meters":18800,"station_id":"ce4bhc92rcd13ifvqetg","pricing_plan_id":"free"},{"bike_id":"4b1b95b3-3883-4056-85bc-33ba96761db7","system_id":"levelo_inurba_marseille","lat":43.289184,"lon":5.366408,"is_reserved":false,"is_disabled":false,"rental_uris":{"android":"levelo://app?vid=4b1b95b3-3883-4056-85bc-33ba96761db7","ios":"levelo://app?vid=4b1b95b3-3883-4056-85bc-33ba96761db7"},"vehicle_type_id":"4","last_reported":1705597611,"current_range_meters":8400,"station_id":"ce4bhap2rcd13ifvqek0","pricing_plan_id":"free"},{"bike_id":"3e97a005-01e3-41aa-8ccb-b4a75af7f5ab","system_id":"levelo_inurba_marseille","lat":43.292642,"lon":5.384254,"is_reserved":false,"is_disabled":false,"rental_uris":{"android":"levelo://app?vid=3e97a005-01e3-41aa-8ccb-b4a75af7f5ab","ios":"levelo://app?vid=3e97a005-01e3-41aa-8ccb-b4a75af7f5ab"},"vehicle_type_id":"4","last_reported":1705597611,"current_range_meters":12000,"station_id":"ce4bh692rcd13ifvqea0","pricing_plan_id":"free"},{"bike_id":"796273b9-ea4f-42ad-b024-6569a119d986","system_id":"levelo_inurba_marseille","lat":43.292642,"lon":5.384254,"is_reserved":false,"is_disabled":false,"rental_uris":{"android":"levelo://app?vid=796273b9-ea4f-42ad-b024-6569a119d986","ios":"levelo://app?vid=796273b9-ea4f-42ad-b024-6569a119d986"},"vehicle_type_id":"4","last_reported":1705597611,"current_range_meters":21600,"station_id":"ce4bh692rcd13ifvqea0","pricing_plan_id":"free"},{"bike_id":"8c7d6f45-174e-434d-a61e-674ea854f2df","system_id":"levelo_inurba_marseille","lat":43.292644,"lon":5.384257,"is_reserved":false,"is_disabled":false,"rental_uris":{"android":"levelo://app?vid=8c7d6f45-174e-434d-a61e-674ea854f2df","ios":"levelo://app?vid=8c7d6f45-174e-434d-a61e-674ea854f2df"},"vehicle_type_id":"4","last_reported":1705597611,"current_range_meters":19600,"station_id":"ce4bh692rcd13ifvqea0","pricing_plan_id":"free"},{"bike_id":"fc727999-8f2f-4de1-b098-c208cf1c820c","system_id":"levelo_inurba_marseille","lat":43.29262,"lon":5.38443,"is_reserved":false,"is_disabled":false,"rental_uris":{"android":"levelo://app?vid=fc727999-8f2f-4de1-b098-c208cf1c820c","ios":"levelo://app?vid=fc727999-8f2f-4de1-b098-c208cf1c820c"},"vehicle_type_id":"4","last_reported":1705597611,"current_range_meters":0,"station_id":"ce4bh692rcd13ifvqea0","pricing_plan_id":"free"},{"bike_id":"733c43d1-a6db-4901-ad3f-2f50bca1826d","system_id":"levelo_inurba_marseille","lat":43.304274,"lon":5.397513,"is_reserved":false,"is_disabled":false,"rental_uris":{"android":"levelo://app?vid=733c43d1-a6db-4901-ad3f-2f50bca1826d","ios":"levelo://app?vid=733c43d1-a6db-4901-ad3f-2f50bca1826d"},"vehicle_type_id":"4","last_reported":1705597611,"current_range_meters":12800,"station_id":"ce4bh092rcd13ifvqd20","pricing_plan_id":"free"},{"bike_id":"eda8f4b8-58ae-4dc4-bd84-a362c44ea638","system_id":"levelo_inurba_marseille","lat":43.292644,"lon":5.384257,"is_reserved":false,"is_disabled":false,"rental_uris":{"android":"levelo://app?vid=eda8f4b8-58ae-4dc4-bd84-a362c44ea638","ios":"levelo://app?vid=eda8f4b8-58ae-4dc4-bd84-a362c44ea638"},"vehicle_type_id":"4","last_reported":1705597611,"current_range_meters":400,"station_id":"ce4bh692rcd13ifvqea0","pricing_plan_id":"free"},{"bike_id":"3c6cd8da-dbcd-4568-a57b-a4874ba428f8","system_id":"levelo_inurba_marseille","lat":43.330442,"lon":5.389148,"is_reserved":false,"is_disabled":false,"rental_uris":{"android":"levelo://app?vid=3c6cd8da-dbcd-4568-a57b-a4874ba428f8","ios":"levelo://app?vid=3c6cd8da-dbcd-4568-a57b-a4874ba428f8"},"vehicle_type_id":"4","last_reported":1705597611,"current_range_meters":19200,"station_id":"ce4bhr92rcd13ifvqhrg","pricing_plan_id":"free"},{"bike_id":"abb43e3c-dbf4-4e34-9886-f474deb79294","system_id":"levelo_inurba_marseille","lat":43.297815,"lon":5.393548,"is_reserved":false,"is_disabled":false,"rental_uris":{"android":"levelo://app?vid=abb43e3c-dbf4-4e34-9886-f474deb79294","ios":"levelo://app?vid=abb43e3c-dbf4-4e34-9886-f474deb79294"},"vehicle_type_id":"4","last_reported":1705597611,"current_range_meters":1600,"station_id":"chh1huq6cuj3fo74tm60","pricing_plan_id":"free"},{"bike_id":"032ab1f7-a406-4e66-b5c8-0c1d8f0b810c","system_id":"levelo_inurba_marseille","lat":43.330442,"lon":5.389148,"is_reserved":false,"is_disabled":false,"rental_uris":{"android":"levelo://app?vid=032ab1f7-a406-4e66-b5c8-0c1d8f0b810c","ios":"levelo://app?vid=032ab1f7-a406-4e66-b5c8-0c1d8f0b810c"},"vehicle_type_id":"4","last_reported":1705597611,"current_range_meters":1600,"station_id":"ce4bhr92rcd13ifvqhrg","pricing_plan_id":"free"},{"bike_id":"b1618b14-4f2a-4f66-802c-f4e5ab6cbe8d","system_id":"levelo_inurba_marseille","lat":43.295169,"lon":5.390426,"is_reserved":false,"is_disabled":false,"rental_uris":{"android":"levelo://app?vid=b1618b14-4f2a-4f66-802c-f4e5ab6cbe8d","ios":"levelo://app?vid=b1618b14-4f2a-4f66-802c-f4e5ab6cbe8d"},"vehicle_type_id":"4","last_reported":1705597611,"current_range_meters":9200,"station_id":"ce4bh3p2rcd13ifvqdp0","pricing_plan_id":"free"},{"bike_id":"c4c1a8fb-9c1f-44ab-afcd-5d539332ffb6","system_id":"levelo_inurba_marseille","lat":43.330442,"lon":5.389148,"is_reserved":false,"is_disabled":false,"rental_uris":{"android":"levelo://app?vid=c4c1a8fb-9c1f-44ab-afcd-5d539332ffb6","ios":"levelo://app?vid=c4c1a8fb-9c1f-44ab-afcd-5d539332ffb6"},"vehicle_type_id":"4","last_reported":1705597611,"current_range_meters":22800,"station_id":"ce4bhr92rcd13ifvqhrg","pricing_plan_id":"free"},{"bike_id":"3af81245-92a4-4682-b739-ba5a8086343a","system_id":"levelo_inurba_marseille","lat":43.330442,"lon":5.389148,"is_reserved":false,"is_disabled":false,"rental_uris":{"android":"levelo://app?vid=3af81245-92a4-4682-b739-ba5a8086343a","ios":"levelo://app?vid=3af81245-92a4-4682-b739-ba5a8086343a"},"vehicle_type_id":"4","last_reported":1705597611,"current_range_meters":22400,"station_id":"ce4bhr92rcd13ifvqhrg","pricing_plan_id":"free"},{"bike_id":"b20fe6d0-2c6e-4e7a-bc23-107e41e7447b","system_id":"levelo_inurba_marseille","lat":43.289741,"lon":5.378306,"is_reserved":false,"is_disabled":false,"rental_uris":{"android":"levelo://app?vid=b20fe6d0-2c6e-4e7a-bc23-107e41e7447b","ios":"levelo://app?vid=b20fe6d0-2c6e-4e7a-bc23-107e41e7447b"},"vehicle_type_id":"4","last_reported":1705597611,"current_range_meters":0,"station_id":"ce4bh9p2rcd13ifvqed0","pricing_plan_id":"free"},{"bike_id":"e6f8c567-142c-4e0c-b27f-96103a7669be","system_id":"levelo_inurba_marseille","lat":43.330442,"lon":5.389148,"is_reserved":false,"is_disabled":false,"rental_uris":{"android":"levelo://app?vid=e6f8c567-142c-4e0c-b27f-96103a7669be","ios":"levelo://app?vid=e6f8c567-142c-4e0c-b27f-96103a7669be"},"vehicle_type_id":"4","last_reported":1705597611,"current_range_meters":22400,"station_id":"ce4bhr92rcd13ifvqhrg","pricing_plan_id":"free"},{"bike_id":"50358649-5141-455b-9a1e-0fb381721aa3","system_id":"levelo_inurba_marseille","lat":43.295169,"lon":5.390426,"is_reserved":false,"is_disabled":false,"rental_uris":{"android":"levelo://app?vid=50358649-5141-455b-9a1e-0fb381721aa3","ios":"levelo://app?vid=50358649-5141-455b-9a1e-0fb381721aa3"},"vehicle_type_id":"4","last_reported":1705597611,"current_range_meters":0,"station_id":"ce4bh3p2rcd13ifvqdp0","pricing_plan_id":"free"},{"bike_id":"59d5b6d6-192d-440e-8c03-c55e203d0183","system_id":"levelo_inurba_marseille","lat":43.2902,"lon":5.38131,"is_reserved":false,"is_disabled":false,"rental_uris":{"android":"levelo://app?vid=59d5b6d6-192d-440e-8c03-c55e203d0183","ios":"levelo://app?vid=59d5b6d6-192d-440e-8c03-c55e203d0183"},"vehicle_type_id":"4","last_reported":1705597611,"current_range_meters":0,"station_id":"ce4bh4p2rcd13ifvqe1g","pricing_plan_id":"free"},{"bike_id":"c273cb8e-881d-4208-8604-e1ef6e5be63f","system_id":"levelo_inurba_marseille","lat":43.30929,"lon":5.40132,"is_reserved":false,"is_disabled":false,"rental_uris":{"android":"levelo://app?vid=c273cb8e-881d-4208-8604-e1ef6e5be63f","ios":"levelo://app?vid=c273cb8e-881d-4208-8604-e1ef6e5be63f"},"vehicle_type_id":"4","last_reported":1705597611,"current_range_meters":0,"station_id":"ce4bgvp2rcd13ifvqct0","pricing_plan_id":"free"},{"bike_id":"c8faf80b-7211-41fa-9912-e232b0725047","system_id":"levelo_inurba_marseille","lat":43.312609,"lon":5.401662,"is_reserved":false,"is_disabled":false,"rental_uris":{"android":"levelo://app?vid=c8faf80b-7211-41fa-9912-e232b0725047","ios":"levelo://app?vid=c8faf80b-7211-41fa-9912-e232b0725047"},"vehicle_type_id":"4","last_reported":1705597611,"current_range_meters":22000,"station_id":"ce4bh092rcd13ifvqd30","pricing_plan_id":"free"},{"bike_id":"15a5853c-9e78-489a-bfcb-7f37cd323e4c","system_id":"levelo_inurba_marseille","lat":43.312609,"lon":5.401662,"is_reserved":false,"is_disabled":false,"rental_uris":{"android":"levelo://app?vid=15a5853c-9e78-489a-bfcb-7f37cd323e4c","ios":"levelo://app?vid=15a5853c-9e78-489a-bfcb-7f37cd323e4c"},"vehicle_type_id":"4","last_reported":1705597611,"current_range_meters":16000,"station_id":"ce4bh092rcd13ifvqd30","pricing_plan_id":"free"},{"bike_id":"e2feb5f0-56bd-4604-9ddd-d57cb3fb6234","system_id":"levelo_inurba_marseille","lat":43.312609,"lon":5.401662,"is_reserved":false,"is_disabled":false,"rental_uris":{"android":"levelo://app?vid=e2feb5f0-56bd-4604-9ddd-d57cb3fb6234","ios":"levelo://app?vid=e2feb5f0-56bd-4604-9ddd-d57cb3fb6234"},"vehicle_type_id":"4","last_reported":1705597611,"current_range_meters":13600,"station_id":"ce4bh092rcd13ifvqd30","pricing_plan_id":"free"},{"bike_id":"8cea661b-0b29-40c2-8649-57daa541d8d5","system_id":"levelo_inurba_marseille","lat":43.312609,"lon":5.401662,"is_reserved":false,"is_disabled":false,"rental_uris":{"android":"levelo://app?vid=8cea661b-0b29-40c2-8649-57daa541d8d5","ios":"levelo://app?vid=8cea661b-0b29-40c2-8649-57daa541d8d5"},"vehicle_type_id":"4","last_reported":1705597611,"current_range_meters":16400,"station_id":"ce4bh092rcd13ifvqd30","pricing_plan_id":"free"},{"bike_id":"75b5c782-a2c8-4e03-b554-93bfd9e73f45","system_id":"levelo_inurba_marseille","lat":43.31262,"lon":5.40182,"is_reserved":false,"is_disabled":false,"rental_uris":{"android":"levelo://app?vid=75b5c782-a2c8-4e03-b554-93bfd9e73f45","ios":"levelo://app?vid=75b5c782-a2c8-4e03-b554-93bfd9e73f45"},"vehicle_type_id":"4","last_reported":1705597611,"current_range_meters":0,"station_id":"ce4bh092rcd13ifvqd30","pricing_plan_id":"free"},{"bike_id":"8331d3cc-225a-45bf-bf4d-ee3d499535ee","system_id":"levelo_inurba_marseille","lat":43.306412,"lon":5.401035,"is_reserved":false,"is_disabled":false,"rental_uris":{"android":"levelo://app?vid=8331d3cc-225a-45bf-bf4d-ee3d499535ee","ios":"levelo://app?vid=8331d3cc-225a-45bf-bf4d-ee3d499535ee"},"vehicle_type_id":"4","last_reported":1705597611,"current_range_meters":4000,"station_id":"ce4bh112rcd13ifvqda0","pricing_plan_id":"free"},{"bike_id":"19c3c5d5-9bac-43d3-9fa4-0c00d04fbe02","system_id":"levelo_inurba_marseille","lat":43.301117,"lon":5.398795,"is_reserved":false,"is_disabled":false,"rental_uris":{"android":"levelo://app?vid=19c3c5d5-9bac-43d3-9fa4-0c00d04fbe02","ios":"levelo://app?vid=19c3c5d5-9bac-43d3-9fa4-0c00d04fbe02"},"vehicle_type_id":"4","last_reported":1705597611,"current_range_meters":19600,"station_id":"ce4bh0h2rcd13ifvqd40","pricing_plan_id":"free"},{"bike_id":"b5f78327-63ae-4a7a-b940-ae80792f51c6","system_id":"levelo_inurba_marseille","lat":43.301117,"lon":5.398795,"is_reserved":false,"is_disabled":false,"rental_uris":{"android":"levelo://app?vid=b5f78327-63ae-4a7a-b940-ae80792f51c6","ios":"levelo://app?vid=b5f78327-63ae-4a7a-b940-ae80792f51c6"},"vehicle_type_id":"4","last_reported":1705597611,"current_range_meters":5600,"station_id":"ce4bh0h2rcd13ifvqd40","pricing_plan_id":"free"},{"bike_id":"95a2ca0d-383c-4105-bbc6-ce0ce1189ec6","system_id":"levelo_inurba_marseille","lat":43.28727,"lon":5.36078,"is_reserved":false,"is_disabled":false,"rental_uris":{"android":"levelo://app?vid=95a2ca0d-383c-4105-bbc6-ce0ce1189ec6","ios":"levelo://app?vid=95a2ca0d-383c-4105-bbc6-ce0ce1189ec6"},"vehicle_type_id":"4","last_reported":1705597611,"current_range_meters":21200,"station_id":"cki0cbj6b192h4jlfktg","pricing_plan_id":"free"},{"bike_id":"cd5ca447-8402-4ce4-bc4e-16911b43bf82","system_id":"levelo_inurba_marseille","lat":43.28727,"lon":5.36078,"is_reserved":false,"is_disabled":false,"rental_uris":{"android":"levelo://app?vid=cd5ca447-8402-4ce4-bc4e-16911b43bf82","ios":"levelo://app?vid=cd5ca447-8402-4ce4-bc4e-16911b43bf82"},"vehicle_type_id":"4","last_reported":1705597611,"current_range_meters":11600,"station_id":"cki0cbj6b192h4jlfktg","pricing_plan_id":"free"},{"bike_id":"a8e089b1-2fb0-42f9-ac22-9392e5727651","system_id":"levelo_inurba_marseille","lat":43.298681,"lon":5.397225,"is_reserved":false,"is_disabled":false,"rental_uris":{"android":"levelo://app?vid=a8e089b1-2fb0-42f9-ac22-9392e5727651","ios":"levelo://app?vid=a8e089b1-2fb0-42f9-ac22-9392e5727651"},"vehicle_type_id":"4","last_reported":1705597611,"current_range_meters":5600,"station_id":"ce4bh0h2rcd13ifvqd50","pricing_plan_id":"free"},{"bike_id":"4ed4b535-ce3f-4eac-929a-481c27c15a0a","system_id":"levelo_inurba_marseille","lat":43.298681,"lon":5.397225,"is_reserved":false,"is_disabled":false,"rental_uris":{"android":"levelo://app?vid=4ed4b535-ce3f-4eac-929a-481c27c15a0a","ios":"levelo://app?vid=4ed4b535-ce3f-4eac-929a-481c27c15a0a"},"vehicle_type_id":"4","last_reported":1705597611,"current_range_meters":5600,"station_id":"ce4bh0h2rcd13ifvqd50","pricing_plan_id":"free"},{"bike_id":"10d0f52c-883f-4a2e-af19-4948ed8f3d5e","system_id":"levelo_inurba_marseille","lat":43.298681,"lon":5.397225,"is_reserved":false,"is_disabled":false,"rental_uris":{"android":"levelo://app?vid=10d0f52c-883f-4a2e-af19-4948ed8f3d5e","ios":"levelo://app?vid=10d0f52c-883f-4a2e-af19-4948ed8f3d5e"},"vehicle_type_id":"4","last_reported":1705597611,"current_range_meters":11200,"station_id":"ce4bh0h2rcd13ifvqd50","pricing_plan_id":"free"},{"bike_id":"84bffaff-c5ec-405d-81a7-2a7b2107e732","system_id":"levelo_inurba_marseille","lat":43.286591,"lon":5.363346,"is_reserved":false,"is_disabled":false,"rental_uris":{"android":"levelo://app?vid=84bffaff-c5ec-405d-81a7-2a7b2107e732","ios":"levelo://app?vid=84bffaff-c5ec-405d-81a7-2a7b2107e732"},"vehicle_type_id":"4","last_reported":1705597611,"current_range_meters":22000,"station_id":"ce4bhah2rcd13ifvqej0","pricing_plan_id":"free"},{"bike_id":"89131c5d-7668-4699-b4f3-aa59a291ce9f","system_id":"levelo_inurba_marseille","lat":43.286591,"lon":5.363346,"is_reserved":false,"is_disabled":false,"rental_uris":{"android":"levelo://app?vid=89131c5d-7668-4699-b4f3-aa59a291ce9f","ios":"levelo://app?vid=89131c5d-7668-4699-b4f3-aa59a291ce9f"},"vehicle_type_id":"4","last_reported":1705597611,"current_range_meters":26400,"station_id":"ce4bhah2rcd13ifvqej0","pricing_plan_id":"free"},{"bike_id":"f1c1ceab-ed53-4ef4-9d9d-117e07b5747d","system_id":"levelo_inurba_marseille","lat":43.2986,"lon":5.3973,"is_reserved":false,"is_disabled":false,"rental_uris":{"android":"levelo://app?vid=f1c1ceab-ed53-4ef4-9d9d-117e07b5747d","ios":"levelo://app?vid=f1c1ceab-ed53-4ef4-9d9d-117e07b5747d"},"vehicle_type_id":"4","last_reported":1705597611,"current_range_meters":0,"station_id":"ce4bh0h2rcd13ifvqd50","pricing_plan_id":"free"},{"bike_id":"88832f55-3633-41e6-a9f3-4bd34b66f594","system_id":"levelo_inurba_marseille","lat":43.295196,"lon":5.39397,"is_reserved":false,"is_disabled":false,"rental_uris":{"android":"levelo://app?vid=88832f55-3633-41e6-a9f3-4bd34b66f594","ios":"levelo://app?vid=88832f55-3633-41e6-a9f3-4bd34b66f594"},"vehicle_type_id":"4","last_reported":1705597611,"current_range_meters":15200,"station_id":"ce4bh292rcd13ifvqdf0","pricing_plan_id":"free"},{"bike_id":"7b5d34fc-9781-42a3-bf7f-a90d8765c03c","system_id":"levelo_inurba_marseille","lat":43.298681,"lon":5.397225,"is_reserved":false,"is_disabled":false,"rental_uris":{"android":"levelo://app?vid=7b5d34fc-9781-42a3-bf7f-a90d8765c03c","ios":"levelo://app?vid=7b5d34fc-9781-42a3-bf7f-a90d8765c03c"},"vehicle_type_id":"4","last_reported":1705597611,"current_range_meters":12000,"station_id":"ce4bh0h2rcd13ifvqd50","pricing_plan_id":"free"},{"bike_id":"dd177cf4-2bb4-4abb-9c7a-e9e837838e74","system_id":"levelo_inurba_marseille","lat":43.298681,"lon":5.397225,"is_reserved":false,"is_disabled":false,"rental_uris":{"android":"levelo://app?vid=dd177cf4-2bb4-4abb-9c7a-e9e837838e74","ios":"levelo://app?vid=dd177cf4-2bb4-4abb-9c7a-e9e837838e74"},"vehicle_type_id":"4","last_reported":1705597611,"current_range_meters":0,"station_id":"ce4bh0h2rcd13ifvqd50","pricing_plan_id":"free"},{"bike_id":"bef4dd0b-d03e-4631-996c-e3e011c89a47","system_id":"levelo_inurba_marseille","lat":43.295196,"lon":5.39397,"is_reserved":false,"is_disabled":false,"rental_uris":{"android":"levelo://app?vid=bef4dd0b-d03e-4631-996c-e3e011c89a47","ios":"levelo://app?vid=bef4dd0b-d03e-4631-996c-e3e011c89a47"},"vehicle_type_id":"4","last_reported":1705597611,"current_range_meters":800,"station_id":"ce4bh292rcd13ifvqdf0","pricing_plan_id":"free"},{"bike_id":"63c9d1f6-8d5a-4ed5-8e42-ca6ab651992a","system_id":"levelo_inurba_marseille","lat":43.286961,"lon":5.373785,"is_reserved":false,"is_disabled":false,"rental_uris":{"android":"levelo://app?vid=63c9d1f6-8d5a-4ed5-8e42-ca6ab651992a","ios":"levelo://app?vid=63c9d1f6-8d5a-4ed5-8e42-ca6ab651992a"},"vehicle_type_id":"4","last_reported":1705597611,"current_range_meters":16400,"station_id":"ce4bh3p2rcd13ifvqdq0","pricing_plan_id":"free"},{"bike_id":"64490ee6-a93e-43f2-b49a-b45ccd721804","system_id":"levelo_inurba_marseille","lat":43.29524,"lon":5.39401,"is_reserved":false,"is_disabled":false,"rental_uris":{"android":"levelo://app?vid=64490ee6-a93e-43f2-b49a-b45ccd721804","ios":"levelo://app?vid=64490ee6-a93e-43f2-b49a-b45ccd721804"},"vehicle_type_id":"4","last_reported":1705597611,"current_range_meters":6800,"station_id":"ce4bh292rcd13ifvqdf0","pricing_plan_id":"free"},{"bike_id":"8531eb2e-f958-4435-8eb4-af0202e63c8e","system_id":"levelo_inurba_marseille","lat":43.29519,"lon":5.39395,"is_reserved":false,"is_disabled":false,"rental_uris":{"android":"levelo://app?vid=8531eb2e-f958-4435-8eb4-af0202e63c8e","ios":"levelo://app?vid=8531eb2e-f958-4435-8eb4-af0202e63c8e"},"vehicle_type_id":"4","last_reported":1705597611,"current_range_meters":10000,"station_id":"ce4bh292rcd13ifvqdf0","pricing_plan_id":"free"},{"bike_id":"8eaf5187-12cb-4e66-81f2-0f13fc7a6e25","system_id":"levelo_inurba_marseille","lat":43.29515,"lon":5.39396,"is_reserved":false,"is_disabled":false,"rental_uris":{"android":"levelo://app?vid=8eaf5187-12cb-4e66-81f2-0f13fc7a6e25","ios":"levelo://app?vid=8eaf5187-12cb-4e66-81f2-0f13fc7a6e25"},"vehicle_type_id":"4","last_reported":1705597611,"current_range_meters":14800,"station_id":"ce4bh292rcd13ifvqdf0","pricing_plan_id":"free"},{"bike_id":"5cc09a1c-f12f-468f-bc55-76c3e3139621","system_id":"levelo_inurba_marseille","lat":43.295194,"lon":5.39397,"is_reserved":false,"is_disabled":false,"rental_uris":{"android":"levelo://app?vid=5cc09a1c-f12f-468f-bc55-76c3e3139621","ios":"levelo://app?vid=5cc09a1c-f12f-468f-bc55-76c3e3139621"},"vehicle_type_id":"4","last_reported":1705597611,"current_range_meters":4400,"station_id":"ce4bh292rcd13ifvqdf0","pricing_plan_id":"free"},{"bike_id":"bd56f7a7-2e58-4e8f-bfc0-7b2bdff435fd","system_id":"levelo_inurba_marseille","lat":43.295196,"lon":5.39397,"is_reserved":false,"is_disabled":false,"rental_uris":{"android":"levelo://app?vid=bd56f7a7-2e58-4e8f-bfc0-7b2bdff435fd","ios":"levelo://app?vid=bd56f7a7-2e58-4e8f-bfc0-7b2bdff435fd"},"vehicle_type_id":"4","last_reported":1705597611,"current_range_meters":2400,"station_id":"ce4bh292rcd13ifvqdf0","pricing_plan_id":"free"},{"bike_id":"e24e7ec0-cb14-4394-a712-81815ab1bbc1","system_id":"levelo_inurba_marseille","lat":43.290336,"lon":5.386425,"is_reserved":false,"is_disabled":false,"rental_uris":{"android":"levelo://app?vid=e24e7ec0-cb14-4394-a712-81815ab1bbc1","ios":"levelo://app?vid=e24e7ec0-cb14-4394-a712-81815ab1bbc1"},"vehicle_type_id":"4","last_reported":1705597611,"current_range_meters":20400,"station_id":"ce4bh4p2rcd13ifvqe0g","pricing_plan_id":"free"},{"bike_id":"0cd505c2-33f4-42f4-824d-4de413ec7c10","system_id":"levelo_inurba_marseille","lat":43.290336,"lon":5.386425,"is_reserved":false,"is_disabled":false,"rental_uris":{"android":"levelo://app?vid=0cd505c2-33f4-42f4-824d-4de413ec7c10","ios":"levelo://app?vid=0cd505c2-33f4-42f4-824d-4de413ec7c10"},"vehicle_type_id":"4","last_reported":1705597611,"current_range_meters":1600,"station_id":"ce4bh4p2rcd13ifvqe0g","pricing_plan_id":"free"},{"bike_id":"69c795cd-d2ca-479a-a15b-c33ed6d14245","system_id":"levelo_inurba_marseille","lat":43.28614,"lon":5.37058,"is_reserved":false,"is_disabled":false,"rental_uris":{"android":"levelo://app?vid=69c795cd-d2ca-479a-a15b-c33ed6d14245","ios":"levelo://app?vid=69c795cd-d2ca-479a-a15b-c33ed6d14245"},"vehicle_type_id":"4","last_reported":1705597611,"current_range_meters":15200,"station_id":"ce4bht12rcd13ifvqi60","pricing_plan_id":"free"},{"bike_id":"5f9b9d43-008e-4c02-a728-c21611e3a403","system_id":"levelo_inurba_marseille","lat":43.28608,"lon":5.37064,"is_reserved":false,"is_disabled":false,"rental_uris":{"android":"levelo://app?vid=5f9b9d43-008e-4c02-a728-c21611e3a403","ios":"levelo://app?vid=5f9b9d43-008e-4c02-a728-c21611e3a403"},"vehicle_type_id":"4","last_reported":1705597611,"current_range_meters":26400,"station_id":"ce4bht12rcd13ifvqi60","pricing_plan_id":"free"},{"bike_id":"42fbe11b-d22b-46ab-8d61-1ef2f67ed21c","system_id":"levelo_inurba_marseille","lat":43.287184,"lon":5.37937,"is_reserved":false,"is_disabled":false,"rental_uris":{"android":"levelo://app?vid=42fbe11b-d22b-46ab-8d61-1ef2f67ed21c","ios":"levelo://app?vid=42fbe11b-d22b-46ab-8d61-1ef2f67ed21c"},"vehicle_type_id":"4","last_reported":1705597611,"current_range_meters":0,"station_id":"ce4bh9p2rcd13ifvqec0","pricing_plan_id":"free"},{"bike_id":"93ad0c18-9715-46c8-b7f0-24399beda67f","system_id":"levelo_inurba_marseille","lat":43.28711,"lon":5.37929,"is_reserved":false,"is_disabled":false,"rental_uris":{"android":"levelo://app?vid=93ad0c18-9715-46c8-b7f0-24399beda67f","ios":"levelo://app?vid=93ad0c18-9715-46c8-b7f0-24399beda67f"},"vehicle_type_id":"4","last_reported":1705597611,"current_range_meters":0,"station_id":"ce4bh9p2rcd13ifvqec0","pricing_plan_id":"free"},{"bike_id":"f6066444-7b89-401a-bed9-827cafd5977c","system_id":"levelo_inurba_marseille","lat":43.316828,"lon":5.404723,"is_reserved":false,"is_disabled":false,"rental_uris":{"android":"levelo://app?vid=f6066444-7b89-401a-bed9-827cafd5977c","ios":"levelo://app?vid=f6066444-7b89-401a-bed9-827cafd5977c"},"vehicle_type_id":"4","last_reported":1705597611,"current_range_meters":2800,"station_id":"ce4bh012rcd13ifvqd00","pricing_plan_id":"free"},{"bike_id":"8db478d5-28d7-435c-a7d5-b321c077ced8","system_id":"levelo_inurba_marseille","lat":43.31694,"lon":5.40478,"is_reserved":false,"is_disabled":false,"rental_uris":{"android":"levelo://app?vid=8db478d5-28d7-435c-a7d5-b321c077ced8","ios":"levelo://app?vid=8db478d5-28d7-435c-a7d5-b321c077ced8"},"vehicle_type_id":"4","last_reported":1705597611,"current_range_meters":27200,"station_id":"ce4bh012rcd13ifvqd00","pricing_plan_id":"free"},{"bike_id":"22af9be8-19e5-4563-b9e8-d90e73779a1c","system_id":"levelo_inurba_marseille","lat":43.291994,"lon":5.392907,"is_reserved":false,"is_disabled":false,"rental_uris":{"android":"levelo://app?vid=22af9be8-19e5-4563-b9e8-d90e73779a1c","ios":"levelo://app?vid=22af9be8-19e5-4563-b9e8-d90e73779a1c"},"vehicle_type_id":"4","last_reported":1705597611,"current_range_meters":2400,"station_id":"ce4bh192rcd13ifvqdd0","pricing_plan_id":"free"},{"bike_id":"3ac21652-ca62-48bf-8fc1-c328aed7e4f1","system_id":"levelo_inurba_marseille","lat":43.284534,"lon":5.358662,"is_reserved":false,"is_disabled":false,"rental_uris":{"android":"levelo://app?vid=3ac21652-ca62-48bf-8fc1-c328aed7e4f1","ios":"levelo://app?vid=3ac21652-ca62-48bf-8fc1-c328aed7e4f1"},"vehicle_type_id":"4","last_reported":1705597611,"current_range_meters":7200,"station_id":"ce4bhah2rcd13ifvqei0","pricing_plan_id":"free"},{"bike_id":"087bfed5-908b-4f42-ad96-605d4a6da89f","system_id":"levelo_inurba_marseille","lat":43.284534,"lon":5.358662,"is_reserved":false,"is_disabled":false,"rental_uris":{"android":"levelo://app?vid=087bfed5-908b-4f42-ad96-605d4a6da89f","ios":"levelo://app?vid=087bfed5-908b-4f42-ad96-605d4a6da89f"},"vehicle_type_id":"4","last_reported":1705597611,"current_range_meters":9600,"station_id":"ce4bhah2rcd13ifvqei0","pricing_plan_id":"free"},{"bike_id":"0a294f1c-acc6-4530-8e44-7bc72895c2bf","system_id":"levelo_inurba_marseille","lat":43.284534,"lon":5.358662,"is_reserved":false,"is_disabled":false,"rental_uris":{"android":"levelo://app?vid=0a294f1c-acc6-4530-8e44-7bc72895c2bf","ios":"levelo://app?vid=0a294f1c-acc6-4530-8e44-7bc72895c2bf"},"vehicle_type_id":"4","last_reported":1705597611,"current_range_meters":6800,"station_id":"ce4bhah2rcd13ifvqei0","pricing_plan_id":"free"},{"bike_id":"6a0397a7-be09-4e27-b85b-94878c5ff04a","system_id":"levelo_inurba_marseille","lat":43.284534,"lon":5.358662,"is_reserved":false,"is_disabled":false,"rental_uris":{"android":"levelo://app?vid=6a0397a7-be09-4e27-b85b-94878c5ff04a","ios":"levelo://app?vid=6a0397a7-be09-4e27-b85b-94878c5ff04a"},"vehicle_type_id":"4","last_reported":1705597611,"current_range_meters":25600,"station_id":"ce4bhah2rcd13ifvqei0","pricing_plan_id":"free"},{"bike_id":"8f24e7e9-c6e5-474b-a9fa-f3358adef7e0","system_id":"levelo_inurba_marseille","lat":43.284534,"lon":5.358662,"is_reserved":false,"is_disabled":false,"rental_uris":{"android":"levelo://app?vid=8f24e7e9-c6e5-474b-a9fa-f3358adef7e0","ios":"levelo://app?vid=8f24e7e9-c6e5-474b-a9fa-f3358adef7e0"},"vehicle_type_id":"4","last_reported":1705597611,"current_range_meters":14000,"station_id":"ce4bhah2rcd13ifvqei0","pricing_plan_id":"free"},{"bike_id":"e9b5a40b-0732-4152-8df0-ef8809b41dc1","system_id":"levelo_inurba_marseille","lat":43.284534,"lon":5.358662,"is_reserved":false,"is_disabled":false,"rental_uris":{"android":"levelo://app?vid=e9b5a40b-0732-4152-8df0-ef8809b41dc1","ios":"levelo://app?vid=e9b5a40b-0732-4152-8df0-ef8809b41dc1"},"vehicle_type_id":"4","last_reported":1705597611,"current_range_meters":14800,"station_id":"ce4bhah2rcd13ifvqei0","pricing_plan_id":"free"},{"bike_id":"4a509e8d-e8c2-44b3-94ae-45a8d5a1b832","system_id":"levelo_inurba_marseille","lat":43.284534,"lon":5.358662,"is_reserved":false,"is_disabled":false,"rental_uris":{"android":"levelo://app?vid=4a509e8d-e8c2-44b3-94ae-45a8d5a1b832","ios":"levelo://app?vid=4a509e8d-e8c2-44b3-94ae-45a8d5a1b832"},"vehicle_type_id":"4","last_reported":1705597611,"current_range_meters":22000,"station_id":"ce4bhah2rcd13ifvqei0","pricing_plan_id":"free"},{"bike_id":"d10cb7c3-0bd5-4d68-9011-6cd81113ed27","system_id":"levelo_inurba_marseille","lat":43.284534,"lon":5.358662,"is_reserved":false,"is_disabled":false,"rental_uris":{"android":"levelo://app?vid=d10cb7c3-0bd5-4d68-9011-6cd81113ed27","ios":"levelo://app?vid=d10cb7c3-0bd5-4d68-9011-6cd81113ed27"},"vehicle_type_id":"4","last_reported":1705597611,"current_range_meters":14400,"station_id":"ce4bhah2rcd13ifvqei0","pricing_plan_id":"free"},{"bike_id":"5ac19167-af90-4df5-bf4c-9bf03889b839","system_id":"levelo_inurba_marseille","lat":43.294314,"lon":5.397498,"is_reserved":false,"is_disabled":false,"rental_uris":{"android":"levelo://app?vid=5ac19167-af90-4df5-bf4c-9bf03889b839","ios":"levelo://app?vid=5ac19167-af90-4df5-bf4c-9bf03889b839"},"vehicle_type_id":"4","last_reported":1705597611,"current_range_meters":21600,"station_id":"ce4bh3h2rcd13ifvqdo0","pricing_plan_id":"free"},{"bike_id":"5b7adc9d-35e2-40ae-92ac-0fcfd48703c4","system_id":"levelo_inurba_marseille","lat":43.284534,"lon":5.358662,"is_reserved":false,"is_disabled":false,"rental_uris":{"android":"levelo://app?vid=5b7adc9d-35e2-40ae-92ac-0fcfd48703c4","ios":"levelo://app?vid=5b7adc9d-35e2-40ae-92ac-0fcfd48703c4"},"vehicle_type_id":"4","last_reported":1705597611,"current_range_meters":20000,"station_id":"ce4bhah2rcd13ifvqei0","pricing_plan_id":"free"},{"bike_id":"53abd831-6a45-4e61-b667-34403c77d933","system_id":"levelo_inurba_marseille","lat":43.284534,"lon":5.358662,"is_reserved":false,"is_disabled":false,"rental_uris":{"android":"levelo://app?vid=53abd831-6a45-4e61-b667-34403c77d933","ios":"levelo://app?vid=53abd831-6a45-4e61-b667-34403c77d933"},"vehicle_type_id":"4","last_reported":1705597611,"current_range_meters":14000,"station_id":"ce4bhah2rcd13ifvqei0","pricing_plan_id":"free"},{"bike_id":"ffd7a8f7-c953-4d78-be76-5339eecfd995","system_id":"levelo_inurba_marseille","lat":43.294314,"lon":5.397498,"is_reserved":false,"is_disabled":false,"rental_uris":{"android":"levelo://app?vid=ffd7a8f7-c953-4d78-be76-5339eecfd995","ios":"levelo://app?vid=ffd7a8f7-c953-4d78-be76-5339eecfd995"},"vehicle_type_id":"4","last_reported":1705597611,"current_range_meters":27200,"station_id":"ce4bh3h2rcd13ifvqdo0","pricing_plan_id":"free"},{"bike_id":"1530d92f-d8c6-47c8-8799-15eb765c1466","system_id":"levelo_inurba_marseille","lat":43.294314,"lon":5.397498,"is_reserved":false,"is_disabled":false,"rental_uris":{"android":"levelo://app?vid=1530d92f-d8c6-47c8-8799-15eb765c1466","ios":"levelo://app?vid=1530d92f-d8c6-47c8-8799-15eb765c1466"},"vehicle_type_id":"4","last_reported":1705597611,"current_range_meters":0,"station_id":"ce4bh3h2rcd13ifvqdo0","pricing_plan_id":"free"},{"bike_id":"3c3ed116-5388-4d82-b096-ca6a1df6e939","system_id":"levelo_inurba_marseille","lat":43.294314,"lon":5.397498,"is_reserved":false,"is_disabled":false,"rental_uris":{"android":"levelo://app?vid=3c3ed116-5388-4d82-b096-ca6a1df6e939","ios":"levelo://app?vid=3c3ed116-5388-4d82-b096-ca6a1df6e939"},"vehicle_type_id":"4","last_reported":1705597611,"current_range_meters":10400,"station_id":"ce4bh3h2rcd13ifvqdo0","pricing_plan_id":"free"},