{"last_updated":1729508935,"ttl":60,"version":"2.2","data":{"bikes":[{"bike_id":"e044ff35-9fbc-4911-be62-0434ea24c7cb","system_id":"levelo_inurba_marseille","lat":43.2957,"lon":5.37513,"is_reserved":false,"is_disabled":false,"rental_uris":{"android":"levelo://app?vid=e044ff35-9fbc-4911-be62-0434ea24c7cb","ios":"levelo://app?vid=e044ff35-9fbc-4911-be62-0434ea24c7cb"},"vehicle_type_id":"4","last_reported":1729508935,"current_range_meters":33200,"station_id":"ce4bgh92rcd13ifvqb50","pricing_plan_id":"cebpf4jnsgd1na2vs0mg"},{"bike_id":"a8d42766-c8d3-4a14-ad9f-083c7b81b04d","system_id":"levelo_inurba_marseille","lat":43.22936,"lon":5.35374,"is_reserved":false,"is_disabled":false,"rental_uris":{"android":"levelo://app?vid=a8d42766-c8d3-4a14-ad9f-083c7b81b04d","ios":"levelo://app?vid=a8d42766-c8d3-4a14-ad9f-083c7b81b04d"},"vehicle_type_id":"4","last_reported":1729508935,"current_range_meters":38000,"station_id":"cpo3532slgdg3j2ikp40","pricing_plan_id":"cebpf4jnsgd1na2vs0mg"},{"bike_id":"6bbd5c0c-8fa9-4de6-9353-8399c07ab786","system_id":"levelo_inurba_marseille","lat":43.29274,"lon":5.40116,"is_reserved":false,"is_disabled":false,"rental_uris":{"android":"levelo://app?vid=6bbd5c0c-8fa9-4de6-9353-8399c07ab786","ios":"levelo://app?vid=6bbd5c0c-8fa9-4de6-9353-8399c07ab786"},"vehicle_type_id":"4","last_reported":1729508935,"current_range_meters":4000,"station_id":"ce4bh312rcd13ifvqdk0","pricing_plan_id":"cebpf4jnsgd1na2vs0mg"},{"bike_id":"685a354f-ff49-4ca8-a6ba-515d8049af7f","system_id":"levelo_inurba_marseille","lat":43.27616,"lon":5.3611,"is_reserved":false,"is_disabled":false,"rental_uris":{"android":"levelo://app?vid=685a354f-ff49-4ca8-a6ba-515d8049af7f","ios":"levelo://app?vid=685a354f-ff49-4ca8-a6ba-515d8049af7f"},"vehicle_type_id":"4","last_reported":1729508935,"current_range_meters":38000,"station_id":"ce4bgj92rcd13ifvqbe0","pricing_plan_id":"cebpf4jnsgd1na2vs0mg"},{"bike_id":"6c9aa0c7-63e4-43bd-955c-9f1b3055c12c","system_id":"levelo_inurba_marseille","lat":43.24655,"lon":5.38884,"is_reserved":false,"is_disabled":false,"rental_uris":{"android":"levelo://app?vid=6c9aa0c7-63e4-43bd-955c-9f1b3055c12c","ios":"levelo://app?vid=6c9aa0c7-63e4-43bd-955c-9f1b3055c12c"},"vehicle_type_id":"4","last_reported":1729508935,"current_range_meters":38400,"station_id":"ce4bhg12rcd13ifvqf60","pricing_plan_id":"cebpf4jnsgd1na2vs0mg"},{"bike_id":"f069a0dc-5a55-4e02-b8d3-b52288048f52","system_id":"levelo_inurba_marseille","lat":43.30908,"lon":5.36857,"is_reserved":false,"is_disabled":false,"rental_uris":{"android":"levelo://app?vid=f069a0dc-5a55-4e02-b8d3-b52288048f52","ios":"levelo://app?vid=f069a0dc-5a55-4e02-b8d3-b52288048f52"},"vehicle_type_id":"4","last_reported":1729508935,"current_range_meters":39200,"station_id":"ce4bgn92rcd13ifvqbvg","pricing_plan_id":"cebpf4jnsgd1na2vs0mg"},{"bike_id":"05e90dc9-6e8e-4c4d-a4de-b0cac80499bd","system_id":"levelo_inurba_marseille","lat":43.28422,"lon":5.34977,"is_reserved":false,"is_disabled":false,"rental_uris":{"android":"levelo://app?vid=05e90dc9-6e8e-4c4d-a4de-b0cac80499bd","ios":"levelo://app?vid=05e90dc9-6e8e-4c4d-a4de-b0cac80499bd"},"vehicle_type_id":"4","last_reported":1729508935,"current_range_meters":38800,"station_id":"ce4bhbh2rcd13ifvqepg","pricing_plan_id":"cebpf4jnsgd1na2vs0mg"},{"bike_id":"415e15ae-cf52-4bf6-9f98-9af3ff185e52","system_id":"levelo_inurba_marseille","lat":43.34142,"lon":5.40896,"is_reserved":false,"is_disabled":false,"rental_uris":{"android":"levelo://app?vid=415e15ae-cf52-4bf6-9f98-9af3ff185e52","ios":"levelo://app?vid=415e15ae-cf52-4bf6-9f98-9af3ff185e52"},"vehicle_type_id":"4","last_reported":1729508935,"current_range_meters":38800,"station_id":"ce4bhqh2rcd13ifvqhlg","pricing_plan_id":"cebpf4jnsgd1na2vs0mg"},{"bike_id":"5912cabd-2dfc-446e-abab-bb842ad63787","system_id":"levelo_inurba_marseille","lat":43.24548,"lon":5.39524,"is_reserved":false,"is_disabled":false,"rental_uris":{"android":"levelo://app?vid=5912cabd-2dfc-446e-abab-bb842ad63787","ios":"levelo://app?vid=5912cabd-2dfc-446e-abab-bb842ad63787"},"vehicle_type_id":"4","last_reported":1729508935,"current_range_meters":38000,"station_id":"ce4bhlp2rcd13ifvqgjg","pricing_plan_id":"cebpf4jnsgd1na2vs0mg"},{"bike_id":"3f9992d8-818f-4658-8f0e-450cebf37db9","system_id":"levelo_inurba_marseille","lat":43.31347,"lon":5.36714,"is_reserved":false,"is_disabled":false,"rental_uris":{"android":"levelo://app?vid=3f9992d8-818f-4658-8f0e-450cebf37db9","ios":"levelo://app?vid=3f9992d8-818f-4658-8f0e-450cebf37db9"},"vehicle_type_id":"4","last_reported":1729508935,"current_range_meters":26000,"station_id":"ce4bgr92rcd13ifvqc6g","pricing_plan_id":"cebpf4jnsgd1na2vs0mg"},{"bike_id":"465d277d-c8de-4a34-9875-808758c00c7a","system_id":"levelo_inurba_marseille","lat":43.34147,"lon":5.40906,"is_reserved":false,"is_disabled":false,"rental_uris":{"android":"levelo://app?vid=465d277d-c8de-4a34-9875-808758c00c7a","ios":"levelo://app?vid=465d277d-c8de-4a34-9875-808758c00c7a"},"vehicle_type_id":"4","last_reported":1729508935,"current_range_meters":20800,"station_id":"ce4bhqh2rcd13ifvqhlg","pricing_plan_id":"cebpf4jnsgd1na2vs0mg"},{"bike_id":"ed183fd4-a6ed-4682-b559-afc261133508","system_id":"levelo_inurba_marseille","lat":43.29718,"lon":5.37697,"is_reserved":false,"is_disabled":false,"rental_uris":{"android":"levelo://app?vid=ed183fd4-a6ed-4682-b559-afc261133508","ios":"levelo://app?vid=ed183fd4-a6ed-4682-b559-afc261133508"},"vehicle_type_id":"4","last_reported":1729508935,"current_range_meters":17600,"station_id":"ce4bgkh2rcd13ifvqbl0","pricing_plan_id":"cebpf4jnsgd1na2vs0mg"},{"bike_id":"964c3d96-82aa-4225-afc1-003e4d542040","system_id":"levelo_inurba_marseille","lat":43.22936,"lon":5.35373,"is_reserved":false,"is_disabled":false,"rental_uris":{"android":"levelo://app?vid=964c3d96-82aa-4225-afc1-003e4d542040","ios":"levelo://app?vid=964c3d96-82aa-4225-afc1-003e4d542040"},"vehicle_type_id":"4","last_reported":1729508935,"current_range_meters":16800,"station_id":"cpo3532slgdg3j2ikp40","pricing_plan_id":"cebpf4jnsgd1na2vs0mg"},{"bike_id":"470b11eb-94c6-47c5-96ac-648ee2701517","system_id":"levelo_inurba_marseille","lat":43.2792,"lon":5.39575,"is_reserved":false,"is_disabled":false,"rental_uris":{"android":"levelo://app?vid=470b11eb-94c6-47c5-96ac-648ee2701517","ios":"levelo://app?vid=470b11eb-94c6-47c5-96ac-648ee2701517"},"vehicle_type_id":"4","last_reported":1729508935,"current_range_meters":24800,"station_id":"ce4bhf92rcd13ifvqf40","pricing_plan_id":"cebpf4jnsgd1na2vs0mg"},{"bike_id":"007b32f2-d55b-454a-941e-fca8801044b6","system_id":"levelo_inurba_marseille","lat":43.26195,"lon":5.37919,"is_reserved":false,"is_disabled":false,"rental_uris":{"android":"levelo://app?vid=007b32f2-d55b-454a-941e-fca8801044b6","ios":"levelo://app?vid=007b32f2-d55b-454a-941e-fca8801044b6"},"vehicle_type_id":"4","last_reported":1729508935,"current_range_meters":38800,"station_id":"ce4bhjp2rcd13ifvqg90","pricing_plan_id":"cebpf4jnsgd1na2vs0mg"},{"bike_id":"7c10085c-f7bf-42c6-8375-117229db8004","system_id":"levelo_inurba_marseille","lat":43.22925,"lon":5.35373,"is_reserved":false,"is_disabled":false,"rental_uris":{"android":"levelo://app?vid=7c10085c-f7bf-42c6-8375-117229db8004","ios":"levelo://app?vid=7c10085c-f7bf-42c6-8375-117229db8004"},"vehicle_type_id":"4","last_reported":1729508935,"current_range_meters":38400,"station_id":"cpo3532slgdg3j2ikp40","pricing_plan_id":"cebpf4jnsgd1na2vs0mg"},{"bike_id":"ddb0c8fc-b648-4e27-af66-b46073413c59","system_id":"levelo_inurba_marseille","lat":43.31412,"lon":5.36737,"is_reserved":false,"is_disabled":false,"rental_uris":{"android":"levelo://app?vid=ddb0c8fc-b648-4e27-af66-b46073413c59","ios":"levelo://app?vid=ddb0c8fc-b648-4e27-af66-b46073413c59"},"vehicle_type_id":"4","last_reported":1729508935,"current_range_meters":28400,"station_id":"","pricing_plan_id":"cebpf4jnsgd1na2vs0mg"},{"bike_id":"8de671b5-d133-4875-8047-16686e3ca74c","system_id":"levelo_inurba_marseille","lat":43.29619,"lon":5.3772,"is_reserved":false,"is_disabled":false,"rental_uris":{"android":"levelo://app?vid=8de671b5-d133-4875-8047-16686e3ca74c","ios":"levelo://app?vid=8de671b5-d133-4875-8047-16686e3ca74c"},"vehicle_type_id":"4","last_reported":1729508935,"current_range_meters":23200,"station_id":"ce4bgi92rcd13ifvqb90","pricing_plan_id":"cebpf4jnsgd1na2vs0mg"},{"bike_id":"c552e1c9-a41c-45a5-b55a-2a046bf5bf24","system_id":"levelo_inurba_marseille","lat":43.31177,"lon":5.40104,"is_reserved":false,"is_disabled":false,"rental_uris":{"android":"levelo://app?vid=c552e1c9-a41c-45a5-b55a-2a046bf5bf24","ios":"levelo://app?vid=c552e1c9-a41c-45a5-b55a-2a046bf5bf24"},"vehicle_type_id":"4","last_reported":1729508935,"current_range_meters":32800,"station_id":"ce4bh092rcd13ifvqd30","pricing_plan_id":"cebpf4jnsgd1na2vs0mg"},{"bike_id":"0cb86926-5907-41b1-8366-3b3aac63faa2","system_id":"levelo_inurba_marseille","lat":43.29625,"lon":5.37149,"is_reserved":false,"is_disabled":false,"rental_uris":{"android":"levelo://app?vid=0cb86926-5907-41b1-8366-3b3aac63faa2","ios":"levelo://app?vid=0cb86926-5907-41b1-8366-3b3aac63faa2"},"vehicle_type_id":"4","last_reported":1729508935,"current_range_meters":38800,"station_id":"ce4bgnh2rcd13ifvqc0g","pricing_plan_id":"cebpf4jnsgd1na2vs0mg"},{"bike_id":"37a4f9f2-5f27-41f6-8e49-92d6bbb82296","system_id":"levelo_inurba_marseille","lat":43.23199,"lon":5.35554,"is_reserved":false,"is_disabled":false,"rental_uris":{"android":"levelo://app?vid=37a4f9f2-5f27-41f6-8e49-92d6bbb82296","ios":"levelo://app?vid=37a4f9f2-5f27-41f6-8e49-92d6bbb82296"},"vehicle_type_id":"4","last_reported":1729508935,"current_range_meters":35600,"station_id":"ce4bhu92rcd13ifvqi70","pricing_plan_id":"cebpf4jnsgd1na2vs0mg"},{"bike_id":"3f8eaeb8-c88d-4f23-873b-b3dda4f9d07a","system_id":"levelo_inurba_marseille","lat":43.29152,"lon":5.3861,"is_reserved":false,"is_disabled":false,"rental_uris":{"android":"levelo://app?vid=3f8eaeb8-c88d-4f23-873b-b3dda4f9d07a","ios":"levelo://app?vid=3f8eaeb8-c88d-4f23-873b-b3dda4f9d07a"},"vehicle_type_id":"4","last_reported":1729508935,"current_range_meters":25200,"station_id":"","pricing_plan_id":"cebpf4jnsgd1na2vs0mg"},{"bike_id":"5b47cbfd-3740-4a35-b9bd-478cf093a87d","system_id":"levelo_inurba_marseille","lat":43.23962,"lon":5.36619,"is_reserved":false,"is_disabled":false,"rental_uris":{"android":"levelo://app?vid=5b47cbfd-3740-4a35-b9bd-478cf093a87d","ios":"levelo://app?vid=5b47cbfd-3740-4a35-b9bd-478cf093a87d"},"vehicle_type_id":"4","last_reported":1729508935,"current_range_meters":23200,"station_id":"ce4bhi12rcd13ifvqfp0","pricing_plan_id":"cebpf4jnsgd1na2vs0mg"},{"bike_id":"3bd2eefc-8b81-44f8-ab5f-7cbe3ad50d2a","system_id":"levelo_inurba_marseille","lat":43.33022,"lon":5.39034,"is_reserved":false,"is_disabled":false,"rental_uris":{"android":"levelo://app?vid=3bd2eefc-8b81-44f8-ab5f-7cbe3ad50d2a","ios":"levelo://app?vid=3bd2eefc-8b81-44f8-ab5f-7cbe3ad50d2a"},"vehicle_type_id":"4","last_reported":1729508935,"current_range_meters":36800,"station_id":"ce4bhr92rcd13ifvqhrg","pricing_plan_id":"cebpf4jnsgd1na2vs0mg"},{"bike_id":"e61b4fc8-2123-4fed-8b31-7cc82c832930","system_id":"levelo_inurba_marseille","lat":43.29578,"lon":5.36738,"is_reserved":false,"is_disabled":false,"rental_uris":{"android":"levelo://app?vid=e61b4fc8-2123-4fed-8b31-7cc82c832930","ios":"levelo://app?vid=e61b4fc8-2123-4fed-8b31-7cc82c832930"},"vehicle_type_id":"4","last_reported":1729508935,"current_range_meters":28000,"station_id":"ce4bgph2rcd13ifvqc2g","pricing_plan_id":"cebpf4jnsgd1na2vs0mg"},{"bike_id":"051fb4ec-5676-4082-af8b-7e016cebd467","system_id":"levelo_inurba_marseille","lat":43.23973,"lon":5.36624,"is_reserved":false,"is_disabled":false,"rental_uris":{"android":"levelo://app?vid=051fb4ec-5676-4082-af8b-7e016cebd467","ios":"levelo://app?vid=051fb4ec-5676-4082-af8b-7e016cebd467"},"vehicle_type_id":"4","last_reported":1729508935,"current_range_meters":37600,"station_id":"ce4bhi12rcd13ifvqfp0","pricing_plan_id":"cebpf4jnsgd1na2vs0mg"},{"bike_id":"af11576a-1443-4491-bede-9dcbe7eb6b3c","system_id":"levelo_inurba_marseille","lat":43.25108,"lon":5.40321,"is_reserved":false,"is_disabled":false,"rental_uris":{"android":"levelo://app?vid=af11576a-1443-4491-bede-9dcbe7eb6b3c","ios":"levelo://app?vid=af11576a-1443-4491-bede-9dcbe7eb6b3c"},"vehicle_type_id":"4","last_reported":1729508935,"current_range_meters":3600,"station_id":"ce4bhlh2rcd13ifvqgig","pricing_plan_id":"cebpf4jnsgd1na2vs0mg"},{"bike_id":"9da450bf-1861-44af-b3cd-7e6b139df8a2","system_id":"levelo_inurba_marseille","lat":43.28424,"lon":5.34977,"is_reserved":false,"is_disabled":false,"rental_uris":{"android":"levelo://app?vid=9da450bf-1861-44af-b3cd-7e6b139df8a2","ios":"levelo://app?vid=9da450bf-1861-44af-b3cd-7e6b139df8a2"},"vehicle_type_id":"4","last_reported":1729508935,"current_range_meters":28400,"station_id":"ce4bhbh2rcd13ifvqepg","pricing_plan_id":"cebpf4jnsgd1na2vs0mg"},{"bike_id":"dd74bb46-c8c6-4017-8877-c4a111bb1500","system_id":"levelo_inurba_marseille","lat":43.26952,"lon":5.38628,"is_reserved":false,"is_disabled":false,"rental_uris":{"android":"levelo://app?vid=dd74bb46-c8c6-4017-8877-c4a111bb1500","ios":"levelo://app?vid=dd74bb46-c8c6-4017-8877-c4a111bb1500"},"vehicle_type_id":"4","last_reported":1729508935,"current_range_meters":36800,"station_id":"ce4bhh92rcd13ifvqfh0","pricing_plan_id":"cebpf4jnsgd1na2vs0mg"},{"bike_id":"1e64d28d-4e8e-4f4d-82ba-2f7f01fb09c2","system_id":"levelo_inurba_marseille","lat":43.29585,"lon":5.36748,"is_reserved":false,"is_disabled":false,"rental_uris":{"android":"levelo://app?vid=1e64d28d-4e8e-4f4d-82ba-2f7f01fb09c2","ios":"levelo://app?vid=1e64d28d-4e8e-4f4d-82ba-2f7f01fb09c2"},"vehicle_type_id":"4","last_reported":1729508935,"current_range_meters":34000,"station_id":"ce4bgph2rcd13ifvqc2g","pricing_plan_id":"cebpf4jnsgd1na2vs0mg"},{"bike_id":"8663997c-a979-478b-9a33-a2db57bc2e21","system_id":"levelo_inurba_marseille","lat":43.29033,"lon":5.38646,"is_reserved":false,"is_disabled":false,"rental_uris":{"android":"levelo://app?vid=8663997c-a979-478b-9a33-a2db57bc2e21","ios":"levelo://app?vid=8663997c-a979-478b-9a33-a2db57bc2e21"},"vehicle_type_id":"4","last_reported":1729508935,"current_range_meters":24800,"station_id":"ce4bh4p2rcd13ifvqe0g","pricing_plan_id":"cebpf4jnsgd1na2vs0mg"},{"bike_id":"6fc5767c-7409-405d-8c24-4a08a7e916fc","system_id":"levelo_inurba_marseille","lat":43.24088,"lon":5.37746,"is_reserved":false,"is_disabled":false,"rental_uris":{"android":"levelo://app?vid=6fc5767c-7409-405d-8c24-4a08a7e916fc","ios":"levelo://app?vid=6fc5767c-7409-405d-8c24-4a08a7e916fc"},"vehicle_type_id":"4","last_reported":1729508935,"current_range_meters":38000,"station_id":"ce4bhnp2rcd13ifvqgvg","pricing_plan_id":"cebpf4jnsgd1na2vs0mg"},{"bike_id":"7c683354-b2ea-4de9-a78e-73c6361266ef","system_id":"levelo_inurba_marseille","lat":43.27203,"lon":5.39188,"is_reserved":false,"is_disabled":false,"rental_uris":{"android":"levelo://app?vid=7c683354-b2ea-4de9-a78e-73c6361266ef","ios":"levelo://app?vid=7c683354-b2ea-4de9-a78e-73c6361266ef"},"vehicle_type_id":"4","last_reported":1729508935,"current_range_meters":26000,"station_id":"ce4bhhp2rcd13ifvqfm0","pricing_plan_id":"cebpf4jnsgd1na2vs0mg"},{"bike_id":"9f899fe4-d322-4043-9166-198f2bfc61ca","system_id":"levelo_inurba_marseille","lat":43.23153,"lon":5.4372,"is_reserved":false,"is_disabled":false,"rental_uris":{"android":"levelo://app?vid=9f899fe4-d322-4043-9166-198f2bfc61ca","ios":"levelo://app?vid=9f899fe4-d322-4043-9166-198f2bfc61ca"},"vehicle_type_id":"4","last_reported":1729508935,"current_range_meters":7200,"station_id":"ce4bhmp2rcd13ifvqgog","pricing_plan_id":"cebpf4jnsgd1na2vs0mg"},{"bike_id":"7baafccc-f243-4381-9dc7-cb5a4f2816d8","system_id":"levelo_inurba_marseille","lat":43.26427,"lon":5.38683,"is_reserved":false,"is_disabled":false,"rental_uris":{"android":"levelo://app?vid=7baafccc-f243-4381-9dc7-cb5a4f2816d8","ios":"levelo://app?vid=7baafccc-f243-4381-9dc7-cb5a4f2816d8"},"vehicle_type_id":"4","last_reported":1729508935,"current_range_meters":14400,"station_id":"","pricing_plan_id":"cebpf4jnsgd1na2vs0mg"},{"bike_id":"541c4793-0686-4664-9a51-6e30e93cf10b","system_id":"levelo_inurba_marseille","lat":43.33767,"lon":5.37455,"is_reserved":false,"is_disabled":false,"rental_uris":{"android":"levelo://app?vid=541c4793-0686-4664-9a51-6e30e93cf10b","ios":"levelo://app?vid=541c4793-0686-4664-9a51-6e30e93cf10b"},"vehicle_type_id":"4","last_reported":1729508935,"current_range_meters":5600,"station_id":"","pricing_plan_id":"cebpf4jnsgd1na2vs0mg"},{"bike_id":"40e6f5b0-a8b3-417d-a1ef-79afa8b2a0c9","system_id":"levelo_inurba_marseille","lat":43.30897,"lon":5.37192,"is_reserved":false,"is_disabled":false,"rental_uris":{"android":"levelo://app?vid=40e6f5b0-a8b3-417d-a1ef-79afa8b2a0c9","ios":"levelo://app?vid=40e6f5b0-a8b3-417d-a1ef-79afa8b2a0c9"},"vehicle_type_id":"4","last_reported":1729508935,"current_range_meters":28800,"station_id":"ce4bguh2rcd13ifvqckg","pricing_plan_id":"cebpf4jnsgd1na2vs0mg"},{"bike_id":"f69ca7ef-2996-4441-8144-e9b3853af022","system_id":"levelo_inurba_marseille","lat":43.25933,"lon":5.40909,"is_reserved":false,"is_disabled":false,"rental_uris":{"android":"levelo://app?vid=f69ca7ef-2996-4441-8144-e9b3853af022","ios":"levelo://app?vid=f69ca7ef-2996-4441-8144-e9b3853af022"},"vehicle_type_id":"4","last_reported":1729508935,"current_range_meters":22400,"station_id":"ce4bhm92rcd13ifvqglg","pricing_plan_id":"cebpf4jnsgd1na2vs0mg"},{"bike_id":"e36e8b70-cdbc-4b6c-9fe9-c4fbf657cc2e","system_id":"levelo_inurba_marseille","lat":43.31511,"lon":5.3896,"is_reserved":false,"is_disabled":false,"rental_uris":{"android":"levelo://app?vid=e36e8b70-cdbc-4b6c-9fe9-c4fbf657cc2e","ios":"levelo://app?vid=e36e8b70-cdbc-4b6c-9fe9-c4fbf657cc2e"},"vehicle_type_id":"4","last_reported":1729508935,"current_range_meters":22800,"station_id":"","pricing_plan_id":"cebpf4jnsgd1na2vs0mg"},{"bike_id":"5e1c1bd4-2feb-43ad-99a5-41953b106e78","system_id":"levelo_inurba_marseille","lat":43.28945,"lon":5.36396,"is_reserved":false,"is_disabled":false,"rental_uris":{"android":"levelo://app?vid=5e1c1bd4-2feb-43ad-99a5-41953b106e78","ios":"levelo://app?vid=5e1c1bd4-2feb-43ad-99a5-41953b106e78"},"vehicle_type_id":"4","last_reported":1729508935,"current_range_meters":28000,"station_id":"ce4bhc92rcd13ifvqetg","pricing_plan_id":"cebpf4jnsgd1na2vs0mg"},{"bike_id":"c917234d-9ad4-461b-8a0b-a4b79c96b068","system_id":"levelo_inurba_marseille","lat":43.31226,"lon":5.3962,"is_reserved":false,"is_disabled":false,"rental_uris":{"android":"levelo://app?vid=c917234d-9ad4-461b-8a0b-a4b79c96b068","ios":"levelo://app?vid=c917234d-9ad4-461b-8a0b-a4b79c96b068"},"vehicle_type_id":"4","last_reported":1729508935,"current_range_meters":15200,"station_id":"ce4bgvp2rcd13ifvqcu0","pricing_plan_id":"cebpf4jnsgd1na2vs0mg"},{"bike_id":"7174d7df-f95a-491a-a34e-a4275caac552","system_id":"levelo_inurba_marseille","lat":43.26683,"lon":5.38261,"is_reserved":false,"is_disabled":false,"rental_uris":{"android":"levelo://app?vid=7174d7df-f95a-491a-a34e-a4275caac552","ios":"levelo://app?vid=7174d7df-f95a-491a-a34e-a4275caac552"},"vehicle_type_id":"4","last_reported":1729508935,"current_range_meters":19200,"station_id":"ce4bhg92rcd13ifvqf90","pricing_plan_id":"cebpf4jnsgd1na2vs0mg"},{"bike_id":"cd0dce23-200f-416c-916b-7be9d153fea3","system_id":"levelo_inurba_marseille","lat":43.2606,"lon":5.38544,"is_reserved":false,"is_disabled":false,"rental_uris":{"android":"levelo://app?vid=cd0dce23-200f-416c-916b-7be9d153fea3","ios":"levelo://app?vid=cd0dce23-200f-416c-916b-7be9d153fea3"},"vehicle_type_id":"4","last_reported":1729508935,"current_range_meters":14800,"station_id":"","pricing_plan_id":"cebpf4jnsgd1na2vs0mg"},{"bike_id":"5a0f47f5-c537-464a-98b6-693ebb92a740","system_id":"levelo_inurba_marseille","lat":43.23176,"lon":5.39984,"is_reserved":false,"is_disabled":false,"rental_uris":{"android":"levelo://app?vid=5a0f47f5-c537-464a-98b6-693ebb92a740","ios":"levelo://app?vid=5a0f47f5-c537-464a-98b6-693ebb92a740"},"vehicle_type_id":"4","last_reported":1729508935,"current_range_meters":24800,"station_id":"ce4bhn12rcd13ifvqgqg","pricing_plan_id":"cebpf4jnsgd1na2vs0mg"},{"bike_id":"a446dd39-d409-4b96-a8ec-c5997003028a","system_id":"levelo_inurba_marseille","lat":43.22933,"lon":5.35379,"is_reserved":false,"is_disabled":false,"rental_uris":{"android":"levelo://app?vid=a446dd39-d409-4b96-a8ec-c5997003028a","ios":"levelo://app?vid=a446dd39-d409-4b96-a8ec-c5997003028a"},"vehicle_type_id":"4","last_reported":1729508935,"current_range_meters":38400,"station_id":"cpo3532slgdg3j2ikp40","pricing_plan_id":"cebpf4jnsgd1na2vs0mg"},{"bike_id":"86f680b7-d8d0-45c2-bd6c-7639aae30d26","system_id":"levelo_inurba_marseille","lat":43.241802,"lon":5.397315,"is_reserved":false,"is_disabled":false,"rental_uris":{"android":"levelo://app?vid=86f680b7-d8d0-45c2-bd6c-7639aae30d26","ios":"levelo://app?vid=86f680b7-d8d0-45c2-bd6c-7639aae30d26"},"vehicle_type_id":"4","last_reported":1729508935,"current_range_meters":19600,"station_id":"ce4bhn12rcd13ifvqgpg","pricing_plan_id":"cebpf4jnsgd1na2vs0mg"},{"bike_id":"e35cc56b-adb4-434c-b46e-6f2eaf6ed28f","system_id":"levelo_inurba_marseille","lat":43.24664,"lon":5.38155,"is_reserved":false,"is_disabled":false,"rental_uris":{"android":"levelo://app?vid=e35cc56b-adb4-434c-b46e-6f2eaf6ed28f","ios":"levelo://app?vid=e35cc56b-adb4-434c-b46e-6f2eaf6ed28f"},"vehicle_type_id":"4","last_reported":1729508935,"current_range_meters":26800,"station_id":"ce4bhih2rcd13ifvqfr0","pricing_plan_id":"cebpf4jnsgd1na2vs0mg"},{"bike_id":"8deeda66-aa1d-41a6-95c2-fd6566620e6a","system_id":"levelo_inurba_marseille","lat":43.32479,"lon":5.36561,"is_reserved":false,"is_disabled":false,"rental_uris":{"android":"levelo://app?vid=8deeda66-aa1d-41a6-95c2-fd6566620e6a","ios":"levelo://app?vid=8deeda66-aa1d-41a6-95c2-fd6566620e6a"},"vehicle_type_id":"4","last_reported":1729508935,"current_range_meters":36000,"station_id":"ce4bhs12rcd13ifvqhvg","pricing_plan_id":"cebpf4jnsgd1na2vs0mg"},{"bike_id":"6670352d-ea39-4392-9ae9-a3b6ac92e931","system_id":"levelo_inurba_marseille","lat":43.29935,"lon":5.36535,"is_reserved":false,"is_disabled":false,"rental_uris":{"android":"levelo://app?vid=6670352d-ea39-4392-9ae9-a3b6ac92e931","ios":"levelo://app?vid=6670352d-ea39-4392-9ae9-a3b6ac92e931"},"vehicle_type_id":"4","last_reported":1729508935,"current_range_meters":33600,"station_id":"ce4bgm92rcd13ifvqbr0","pricing_plan_id":"cebpf4jnsgd1na2vs0mg"},{"bike_id":"384bdfe8-3a75-40ec-a9a2-f6076d16d355","system_id":"levelo_inurba_marseille","lat":43.308938,"lon":5.372002,"is_reserved":false,"is_disabled":false,"rental_uris":{"android":"levelo://app?vid=384bdfe8-3a75-40ec-a9a2-f6076d16d355","ios":"levelo://app?vid=384bdfe8-3a75-40ec-a9a2-f6076d16d355"},"vehicle_type_id":"4","last_reported":1729508935,"current_range_meters":38000,"station_id":"ce4bguh2rcd13ifvqckg","pricing_plan_id":"cebpf4jnsgd1na2vs0mg"},{"bike_id":"f77d75a0-21c8-4ccc-bba5-f5d7d460aa1d","system_id":"levelo_inurba_marseille","lat":43.2955,"lon":5.42285,"is_reserved":false,"is_disabled":false,"rental_uris":{"android":"levelo://app?vid=f77d75a0-21c8-4ccc-bba5-f5d7d460aa1d","ios":"levelo://app?vid=f77d75a0-21c8-4ccc-bba5-f5d7d460aa1d"},"vehicle_type_id":"4","last_reported":1729508935,"current_range_meters":33600,"station_id":"ce4bhph2rcd13ifvqhdg","pricing_plan_id":"cebpf4jnsgd1na2vs0mg"},{"bike_id":"e3bd1799-d90a-4b0d-9087-8873a9f9f703","system_id":"levelo_inurba_marseille","lat":43.30547,"lon":5.36528,"is_reserved":false,"is_disabled":false,"rental_uris":{"android":"levelo://app?vid=e3bd1799-d90a-4b0d-9087-8873a9f9f703","ios":"levelo://app?vid=e3bd1799-d90a-4b0d-9087-8873a9f9f703"},"vehicle_type_id":"4","last_reported":1729508935,"current_range_meters":36800,"station_id":"ce4bgs12rcd13ifvqcag","pricing_plan_id":"cebpf4jnsgd1na2vs0mg"},{"bike_id":"1c8b78c2-013b-4d1b-a8e5-cacbb2f2d57b","system_id":"levelo_inurba_marseille","lat":43.28941,"lon":5.36641,"is_reserved":false,"is_disabled":false,"rental_uris":{"android":"levelo://app?vid=1c8b78c2-013b-4d1b-a8e5-cacbb2f2d57b","ios":"levelo://app?vid=1c8b78c2-013b-4d1b-a8e5-cacbb2f2d57b"},"vehicle_type_id":"4","last_reported":1729508935,"current_range_meters":29600,"station_id":"ce4bhap2rcd13ifvqek0","pricing_plan_id":"cebpf4jnsgd1na2vs0mg"},{"bike_id":"fb4c1f40-f843-4a8a-8dc9-8cb92e4b3334","system_id":"levelo_inurba_marseille","lat":43.26945,"lon":5.40248,"is_reserved":false,"is_disabled":false,"rental_uris":{"android":"levelo://app?vid=fb4c1f40-f843-4a8a-8dc9-8cb92e4b3334","ios":"levelo://app?vid=fb4c1f40-f843-4a8a-8dc9-8cb92e4b3334"},"vehicle_type_id":"4","last_reported":1729508935,"current_range_meters":27600,"station_id":"cjm6bp8fraef2m0cb0m0","pricing_plan_id":"cebpf4jnsgd1na2vs0mg"},{"bike_id":"923b32f3-398f-448e-aac8-c2491973f767","system_id":"levelo_inurba_marseille","lat":43.32342,"lon":5.40623,"is_reserved":false,"is_disabled":false,"rental_uris":{"android":"levelo://app?vid=923b32f3-398f-448e-aac8-c2491973f767","ios":"levelo://app?vid=923b32f3-398f-448e-aac8-c2491973f767"},"vehicle_type_id":"4","last_reported":1729508935,"current_range_meters":31200,"station_id":"ce4bhq92rcd13ifvqhjg","pricing_plan_id":"cebpf4jnsgd1na2vs0mg"},{"bike_id":"d5020426-469a-46fc-9dcc-c6fa2317a2d2","system_id":"levelo_inurba_marseille","lat":43.25718,"lon":5.41103,"is_reserved":false,"is_disabled":false,"rental_uris":{"android":"levelo://app?vid=d5020426-469a-46fc-9dcc-c6fa2317a2d2","ios":"levelo://app?vid=d5020426-469a-46fc-9dcc-c6fa2317a2d2"},"vehicle_type_id":"4","last_reported":1729508935,"current_range_meters":32800,"station_id":"ce4bhkp2rcd13ifvqgd0","pricing_plan_id":"cebpf4jnsgd1na2vs0mg"},{"bike_id":"f0b62db5-5892-4cd3-91e1-48dd33a8bb96","system_id":"levelo_inurba_marseille","lat":43.24549,"lon":5.39524,"is_reserved":false,"is_disabled":false,"rental_uris":{"android":"levelo://app?vid=f0b62db5-5892-4cd3-91e1-48dd33a8bb96","ios":"levelo://app?vid=f0b62db5-5892-4cd3-91e1-48dd33a8bb96"},"vehicle_type_id":"4","last_reported":1729508935,"current_range_meters":4800,"station_id":"ce4bhlp2rcd13ifvqgjg","pricing_plan_id":"cebpf4jnsgd1na2vs0mg"},{"bike_id":"f7fa3dea-9749-4e6d-a184-0c0eec411b5e","system_id":"levelo_inurba_marseille","lat":43.29672,"lon":5.37307,"is_reserved":false,"is_disabled":false,"rental_uris":{"android":"levelo://app?vid=f7fa3dea-9749-4e6d-a184-0c0eec411b5e","ios":"levelo://app?vid=f7fa3dea-9749-4e6d-a184-0c0eec411b5e"},"vehicle_type_id":"4","last_reported":1729508935,"current_range_meters":12400,"station_id":"ce4bgk12rcd13ifvqbj0","pricing_plan_id":"cebpf4jnsgd1na2vs0mg"},{"bike_id":"1fe0492f-d2dc-494b-836e-3907b283ad3d","system_id":"levelo_inurba_marseille","lat":43.28413,"lon":5.34975,"is_reserved":false,"is_disabled":false,"rental_uris":{"android":"levelo://app?vid=1fe0492f-d2dc-494b-836e-3907b283ad3d","ios":"levelo://app?vid=1fe0492f-d2dc-494b-836e-3907b283ad3d"},"vehicle_type_id":"4","last_reported":1729508935,"current_range_meters":3200,"station_id":"ce4bhbh2rcd13ifvqepg","pricing_plan_id":"cebpf4jnsgd1na2vs0mg"},{"bike_id":"c15bad0a-d558-47fd-906f-c76d780e13be","system_id":"levelo_inurba_marseille","lat":43.28703,"lon":5.39983,"is_reserved":false,"is_disabled":false,"rental_uris":{"android":"levelo://app?vid=c15bad0a-d558-47fd-906f-c76d780e13be","ios":"levelo://app?vid=c15bad0a-d558-47fd-906f-c76d780e13be"},"vehicle_type_id":"4","last_reported":1729508935,"current_range_meters":10800,"station_id":"ce4bho92rcd13ifvqh3g","pricing_plan_id":"cebpf4jnsgd1na2vs0mg"},{"bike_id":"3701adb6-e87b-44e7-b5b8-a659a9565d5b","system_id":"levelo_inurba_marseille","lat":43.24072,"lon":5.37756,"is_reserved":false,"is_disabled":false,"rental_uris":{"android":"levelo://app?vid=3701adb6-e87b-44e7-b5b8-a659a9565d5b","ios":"levelo://app?vid=3701adb6-e87b-44e7-b5b8-a659a9565d5b"},"vehicle_type_id":"4","last_reported":1729508935,"current_range_meters":4800,"station_id":"ce4bhnp2rcd13ifvqgvg","pricing_plan_id":"cebpf4jnsgd1na2vs0mg"},{"bike_id":"fc2db51a-f0ef-4e75-ad3a-b27ae4dc3a7b","system_id":"levelo_inurba_marseille","lat":43.32492,"lon":5.36561,"is_reserved":false,"is_disabled":false,"rental_uris":{"android":"levelo://app?vid=fc2db51a-f0ef-4e75-ad3a-b27ae4dc3a7b","ios":"levelo://app?vid=fc2db51a-f0ef-4e75-ad3a-b27ae4dc3a7b"},"vehicle_type_id":"4","last_reported":1729508935,"current_range_meters":17600,"station_id":"ce4bhs12rcd13ifvqhvg","pricing_plan_id":"cebpf4jnsgd1na2vs0mg"},{"bike_id":"2fdf444c-bdb9-478f-ad75-22e42eee449c","system_id":"levelo_inurba_marseille","lat":43.31339,"lon":5.36714,"is_reserved":false,"is_disabled":false,"rental_uris":{"android":"levelo://app?vid=2fdf444c-bdb9-478f-ad75-22e42eee449c","ios":"levelo://app?vid=2fdf444c-bdb9-478f-ad75-22e42eee449c"},"vehicle_type_id":"4","last_reported":1729508935,"current_range_meters":30400,"station_id":"ce4bgr92rcd13ifvqc6g","pricing_plan_id":"cebpf4jnsgd1na2vs0mg"},{"bike_id":"3615b44c-4b10-4917-92fc-8e6b95ee5cb1","system_id":"levelo_inurba_marseille","lat":43.336,"lon":5.41029,"is_reserved":false,"is_disabled":false,"rental_uris":{"android":"levelo://app?vid=3615b44c-4b10-4917-92fc-8e6b95ee5cb1","ios":"levelo://app?vid=3615b44c-4b10-4917-92fc-8e6b95ee5cb1"},"vehicle_type_id":"4","last_reported":1729508935,"current_range_meters":36400,"station_id":"ce4bhqh2rcd13ifvqhmg","pricing_plan_id":"cebpf4jnsgd1na2vs0mg"},{"bike_id":"0b923dd1-548c-4e5f-8039-71a30a1aa65f","system_id":"levelo_inurba_marseille","lat":43.34144,"lon":5.40898,"is_reserved":false,"is_disabled":false,"rental_uris":{"android":"levelo://app?vid=0b923dd1-548c-4e5f-8039-71a30a1aa65f","ios":"levelo://app?vid=0b923dd1-548c-4e5f-8039-71a30a1aa65f"},"vehicle_type_id":"4","last_reported":1729508935,"current_range_meters":23200,"station_id":"ce4bhqh2rcd13ifvqhlg","pricing_plan_id":"cebpf4jnsgd1na2vs0mg"},{"bike_id":"38bedc2f-08d9-4a48-99c8-67fc25dcc307","system_id":"levelo_inurba_marseille","lat":43.29893,"lon":5.43669,"is_reserved":false,"is_disabled":false,"rental_uris":{"android":"levelo://app?vid=38bedc2f-08d9-4a48-99c8-67fc25dcc307","ios":"levelo://app?vid=38bedc2f-08d9-4a48-99c8-67fc25dcc307"},"vehicle_type_id":"4","last_reported":1729508935,"current_range_meters":33200,"station_id":"ce4bhpp2rcd13ifvqhfg","pricing_plan_id":"cebpf4jnsgd1na2vs0mg"},{"bike_id":"767e54ea-2862-4d5d-9e5e-31ffd94b6375","system_id":"levelo_inurba_marseille","lat":43.24546,"lon":5.39529,"is_reserved":false,"is_disabled":false,"rental_uris":{"android":"levelo://app?vid=767e54ea-2862-4d5d-9e5e-31ffd94b6375","ios":"levelo://app?vid=767e54ea-2862-4d5d-9e5e-31ffd94b6375"},"vehicle_type_id":"4","last_reported":1729508935,"current_range_meters":10800,"station_id":"ce4bhlp2rcd13ifvqgjg","pricing_plan_id":"cebpf4jnsgd1na2vs0mg"},{"bike_id":"ad955ef6-481e-491a-83e0-60cafd48f12a","system_id":"levelo_inurba_marseille","lat":43.29571,"lon":5.39967,"is_reserved":false,"is_disabled":false,"rental_uris":{"android":"levelo://app?vid=ad955ef6-481e-491a-83e0-60cafd48f12a","ios":"levelo://app?vid=ad955ef6-481e-491a-83e0-60cafd48f12a"},"vehicle_type_id":"4","last_reported":1729508935,"current_range_meters":18800,"station_id":"ce4bh312rcd13ifvqdj0","pricing_plan_id":"cebpf4jnsgd1na2vs0mg"},{"bike_id":"315017ba-b5d0-4fd6-ba1a-28d177315e54","system_id":"levelo_inurba_marseille","lat":43.29622,"lon":5.3715,"is_reserved":false,"is_disabled":false,"rental_uris":{"android":"levelo://app?vid=315017ba-b5d0-4fd6-ba1a-28d177315e54","ios":"levelo://app?vid=315017ba-b5d0-4fd6-ba1a-28d177315e54"},"vehicle_type_id":"4","last_reported":1729508935,"current_range_meters":36800,"station_id":"ce4bgnh2rcd13ifvqc0g","pricing_plan_id":"cebpf4jnsgd1na2vs0mg"},{"bike_id":"a10da813-f234-40d0-b852-f99c8096045a","system_id":"levelo_inurba_marseille","lat":43.275,"lon":5.4245,"is_reserved":false,"is_disabled":false,"rental_uris":{"android":"levelo://app?vid=a10da813-f234-40d0-b852-f99c8096045a","ios":"levelo://app?vid=a10da813-f234-40d0-b852-f99c8096045a"},"vehicle_type_id":"4","last_reported":1729508935,"current_range_meters":4400,"station_id":"ce4bhn92rcd13ifvqgrg","pricing_plan_id":"cebpf4jnsgd1na2vs0mg"},{"bike_id":"f368d2c9-190f-4db4-a766-ac84e90dd6b8","system_id":"levelo_inurba_marseille","lat":43.25928,"lon":5.40901,"is_reserved":false,"is_disabled":false,"rental_uris":{"android":"levelo://app?vid=f368d2c9-190f-4db4-a766-ac84e90dd6b8","ios":"levelo://app?vid=f368d2c9-190f-4db4-a766-ac84e90dd6b8"},"vehicle_type_id":"4","last_reported":1729508935,"current_range_meters":12000,"station_id":"ce4bhm92rcd13ifvqglg","pricing_plan_id":"cebpf4jnsgd1na2vs0mg"},{"bike_id":"f125cbbf-958d-406d-a867-10cd439e665f","system_id":"levelo_inurba_marseille","lat":43.26205,"lon":5.37928,"is_reserved":false,"is_disabled":false,"rental_uris":{"android":"levelo://app?vid=f125cbbf-958d-406d-a867-10cd439e665f","ios":"levelo://app?vid=f125cbbf-958d-406d-a867-10cd439e665f"},"vehicle_type_id":"4","last_reported":1729508935,"current_range_meters":37600,"station_id":"ce4bhjp2rcd13ifvqg90","pricing_plan_id":"cebpf4jnsgd1na2vs0mg"},{"bike_id":"f97417bb-6569-44de-b14f-51c61556b74a","system_id":"levelo_inurba_marseille","lat":43.23155,"lon":5.437,"is_reserved":false,"is_disabled":false,"rental_uris":{"android":"levelo://app?vid=f97417bb-6569-44de-b14f-51c61556b74a","ios":"levelo://app?vid=f97417bb-6569-44de-b14f-51c61556b74a"},"vehicle_type_id":"4","last_reported":1729508935,"current_range_meters":38800,"station_id":"ce4bhmp2rcd13ifvqgog","pricing_plan_id":"cebpf4jnsgd1na2vs0mg"},{"bike_id":"80784dfe-c582-466f-95ad-8e743e8a562c","system_id":"levelo_inurba_marseille","lat":43.302814,"lon":5.376994,"is_reserved":false,"is_disabled":false,"rental_uris":{"android":"levelo://app?vid=80784dfe-c582-466f-95ad-8e743e8a562c","ios":"levelo://app?vid=80784dfe-c582-466f-95ad-8e743e8a562c"},"vehicle_type_id":"4","last_reported":1729508935,"current_range_meters":39200,"station_id":"ce4bguh2rcd13ifvqcj0","pricing_plan_id":"cebpf4jnsgd1na2vs0mg"},{"bike_id":"36a7110c-f2d6-4f49-b120-459775e68afb","system_id":"levelo_inurba_marseille","lat":43.26565,"lon":5.3901,"is_reserved":false,"is_disabled":false,"rental_uris":{"android":"levelo://app?vid=36a7110c-f2d6-4f49-b120-459775e68afb","ios":"levelo://app?vid=36a7110c-f2d6-4f49-b120-459775e68afb"},"vehicle_type_id":"4","last_reported":1729508935,"current_range_meters":32000,"station_id":"ce4bhe12rcd13ifvqf30","pricing_plan_id":"cebpf4jnsgd1na2vs0mg"},{"bike_id":"3a90cd5a-8d84-4a1f-9da8-3547bb5d20c1","system_id":"levelo_inurba_marseille","lat":43.23192,"lon":5.35544,"is_reserved":false,"is_disabled":false,"rental_uris":{"android":"levelo://app?vid=3a90cd5a-8d84-4a1f-9da8-3547bb5d20c1","ios":"levelo://app?vid=3a90cd5a-8d84-4a1f-9da8-3547bb5d20c1"},"vehicle_type_id":"4","last_reported":1729508935,"current_range_meters":38800,"station_id":"ce4bhu92rcd13ifvqi70","pricing_plan_id":"cebpf4jnsgd1na2vs0mg"},{"bike_id":"b0fa5059-f20e-4983-a7a9-b5e7b43c7eff","system_id":"levelo_inurba_marseille","lat":43.26685,"lon":5.38272,"is_reserved":false,"is_disabled":false,"rental_uris":{"android":"levelo://app?vid=b0fa5059-f20e-4983-a7a9-b5e7b43c7eff","ios":"levelo://app?vid=b0fa5059-f20e-4983-a7a9-b5e7b43c7eff"},"vehicle_type_id":"4","last_reported":1729508935,"current_range_meters":38800,"station_id":"ce4bhg92rcd13ifvqf90","pricing_plan_id":"cebpf4jnsgd1na2vs0mg"},{"bike_id":"bddf1334-d888-40f8-b6e9-18b5529cf0f4","system_id":"levelo_inurba_marseille","lat":43.31675,"lon":5.37543,"is_reserved":false,"is_disabled":false,"rental_uris":{"android":"levelo://app?vid=bddf1334-d888-40f8-b6e9-18b5529cf0f4","ios":"levelo://app?vid=bddf1334-d888-40f8-b6e9-18b5529cf0f4"},"vehicle_type_id":"4","last_reported":1729508935,"current_range_meters":16800,"station_id":"","pricing_plan_id":"cebpf4jnsgd1na2vs0mg"},{"bike_id":"27d7397b-3a64-4c8d-985f-c89fa0625145","system_id":"levelo_inurba_marseille","lat":43.2319,"lon":5.35543,"is_reserved":false,"is_disabled":false,"rental_uris":{"android":"levelo://app?vid=27d7397b-3a64-4c8d-985f-c89fa0625145","ios":"levelo://app?vid=27d7397b-3a64-4c8d-985f-c89fa0625145"},"vehicle_type_id":"4","last_reported":1729508935,"current_range_meters":38000,"station_id":"ce4bhu92rcd13ifvqi70","pricing_plan_id":"cebpf4jnsgd1na2vs0mg"},{"bike_id":"3bfe6581-3b87-4d32-a937-aa5c820bcd2f","system_id":"levelo_inurba_marseille","lat":43.274954,"lon":5.424499,"is_reserved":false,"is_disabled":false,"rental_uris":{"android":"levelo://app?vid=3bfe6581-3b87-4d32-a937-aa5c820bcd2f","ios":"levelo://app?vid=3bfe6581-3b87-4d32-a937-aa5c820bcd2f"},"vehicle_type_id":"4","last_reported":1729508935,"current_range_meters":23200,"station_id":"ce4bhn92rcd13ifvqgrg","pricing_plan_id":"cebpf4jnsgd1na2vs0mg"},{"bike_id":"3f0d9aed-7732-4b7d-9bda-19e598f97764","system_id":"levelo_inurba_marseille","lat":43.32488,"lon":5.36558,"is_reserved":false,"is_disabled":false,"rental_uris":{"android":"levelo://app?vid=3f0d9aed-7732-4b7d-9bda-19e598f97764","ios":"levelo://app?vid=3f0d9aed-7732-4b7d-9bda-19e598f97764"},"vehicle_type_id":"4","last_reported":1729508935,"current_range_meters":35200,"station_id":"ce4bhs12rcd13ifvqhvg","pricing_plan_id":"cebpf4jnsgd1na2vs0mg"},{"bike_id":"72e6b4bb-9e4a-42d1-b613-5e9a43b62c9f","system_id":"levelo_inurba_marseille","lat":43.24391,"lon":5.37056,"is_reserved":false,"is_disabled":false,"rental_uris":{"android":"levelo://app?vid=72e6b4bb-9e4a-42d1-b613-5e9a43b62c9f","ios":"levelo://app?vid=72e6b4bb-9e4a-42d1-b613-5e9a43b62c9f"},"vehicle_type_id":"4","last_reported":1729508935,"current_range_meters":38800,"station_id":"ce4bhhh2rcd13ifvqfk0","pricing_plan_id":"cebpf4jnsgd1na2vs0mg"},{"bike_id":"b7a735d7-f1dd-4ee6-9916-5d65507bb1f6","system_id":"levelo_inurba_marseille","lat":43.33608,"lon":5.41032,"is_reserved":false,"is_disabled":false,"rental_uris":{"android":"levelo://app?vid=b7a735d7-f1dd-4ee6-9916-5d65507bb1f6","ios":"levelo://app?vid=b7a735d7-f1dd-4ee6-9916-5d65507bb1f6"},"vehicle_type_id":"4","last_reported":1729508935,"current_range_meters":31200,"station_id":"ce4bhqh2rcd13ifvqhmg","pricing_plan_id":"cebpf4jnsgd1na2vs0mg"},{"bike_id":"3213665e-989c-4d22-9f5a-31c8522597dd","system_id":"levelo_inurba_marseille","lat":43.296,"lon":5.36142,"is_reserved":false,"is_disabled":false,"rental_uris":{"android":"levelo://app?vid=3213665e-989c-4d22-9f5a-31c8522597dd","ios":"levelo://app?vid=3213665e-989c-4d22-9f5a-31c8522597dd"},"vehicle_type_id":"4","last_reported":1729508935,"current_range_meters":10800,"station_id":"","pricing_plan_id":"cebpf4jnsgd1na2vs0mg"},{"bike_id":"bedc5643-78f2-43b5-ae66-ca0bf0d382be","system_id":"levelo_inurba_marseille","lat":43.25585,"lon":5.38233,"is_reserved":false,"is_disabled":false,"rental_uris":{"android":"levelo://app?vid=bedc5643-78f2-43b5-ae66-ca0bf0d382be","ios":"levelo://app?vid=bedc5643-78f2-43b5-ae66-ca0bf0d382be"},"vehicle_type_id":"4","last_reported":1729508935,"current_range_meters":25600,"station_id":"ce4bhih2rcd13ifvqfs0","pricing_plan_id":"cebpf4jnsgd1na2vs0mg"},{"bike_id":"2caecab8-3c6a-4131-82c3-f8c24cdb61cf","system_id":"levelo_inurba_marseille","lat":43.23151,"lon":5.43714,"is_reserved":false,"is_disabled":false,"rental_uris":{"android":"levelo://app?vid=2caecab8-3c6a-4131-82c3-f8c24cdb61cf","ios":"levelo://app?vid=2caecab8-3c6a-4131-82c3-f8c24cdb61cf"},"vehicle_type_id":"4","last_reported":1729508935,"current_range_meters":12000,"station_id":"ce4bhmp2rcd13ifvqgog","pricing_plan_id":"cebpf4jnsgd1na2vs0mg"},{"bike_id":"9d2e0c69-f021-402d-8b23-72fb2cba341b","system_id":"levelo_inurba_marseille","lat":43.31342,"lon":5.36713,"is_reserved":false,"is_disabled":false,"rental_uris":{"android":"levelo://app?vid=9d2e0c69-f021-402d-8b23-72fb2cba341b","ios":"levelo://app?vid=9d2e0c69-f021-402d-8b23-72fb2cba341b"},"vehicle_type_id":"4","last_reported":1729508935,"current_range_meters":38800,"station_id":"ce4bgr92rcd13ifvqc6g","pricing_plan_id":"cebpf4jnsgd1na2vs0mg"},{"bike_id":"150b2076-fa3d-4436-b76f-3b9f9d8be659","system_id":"levelo_inurba_marseille","lat":43.33603,"lon":5.4103,"is_reserved":false,"is_disabled":false,"rental_uris":{"android":"levelo://app?vid=150b2076-fa3d-4436-b76f-3b9f9d8be659","ios":"levelo://app?vid=150b2076-fa3d-4436-b76f-3b9f9d8be659"},"vehicle_type_id":"4","last_reported":1729508935,"current_range_meters":38000,"station_id":"ce4bhqh2rcd13ifvqhmg","pricing_plan_id":"cebpf4jnsgd1na2vs0mg"},{"bike_id":"825c64b6-5c2e-4cd6-ade0-d334f3c3c338","system_id":"levelo_inurba_marseille","lat":43.23153,"lon":5.437,"is_reserved":false,"is_disabled":false,"rental_uris":{"android":"levelo://app?vid=825c64b6-5c2e-4cd6-ade0-d334f3c3c338","ios":"levelo://app?vid=825c64b6-5c2e-4cd6-ade0-d334f3c3c338"},"vehicle_type_id":"4","last_reported":1729508935,"current_range_meters":38800,"station_id":"ce4bhmp2rcd13ifvqgog","pricing_plan_id":"cebpf4jnsgd1na2vs0mg"},{"bike_id":"d56c1027-3f82-4ee2-be22-0a6f81faea4e","system_id":"levelo_inurba_marseille","lat":43.30906,"lon":5.36854,"is_reserved":false,"is_disabled":false,"rental_uris":{"android":"levelo://app?vid=d56c1027-3f82-4ee2-be22-0a6f81faea4e","ios":"levelo://app?vid=d56c1027-3f82-4ee2-be22-0a6f81faea4e"},"vehicle_type_id":"4","last_reported":1729508935,"current_range_meters":38800,"station_id":"ce4bgn92rcd13ifvqbvg","pricing_plan_id":"cebpf4jnsgd1na2vs0mg"},{"bike_id":"2cfc7470-0924-496d-a1c3-b7271900a5b5","system_id":"levelo_inurba_marseille","lat":43.23199,"lon":5.35545,"is_reserved":false,"is_disabled":false,"rental_uris":{"android":"levelo://app?vid=2cfc7470-0924-496d-a1c3-b7271900a5b5","ios":"levelo://app?vid=2cfc7470-0924-496d-a1c3-b7271900a5b5"},"vehicle_type_id":"4","last_reported":1729508935,"current_range_meters":16800,"station_id":"ce4bhu92rcd13ifvqi70","pricing_plan_id":"cebpf4jnsgd1na2vs0mg"},{"bike_id":"0ad09360-8500-40f1-b5fd-ae7e7ba93d86","system_id":"levelo_inurba_marseille","lat":43.32368,"lon":5.3888,"is_reserved":false,"is_disabled":false,"rental_uris":{"android":"levelo://app?vid=0ad09360-8500-40f1-b5fd-ae7e7ba93d86","ios":"levelo://app?vid=0ad09360-8500-40f1-b5fd-ae7e7ba93d86"},"vehicle_type_id":"4","last_reported":1729508935,"current_range_meters":23200,"station_id":"ce4bhqp2rcd13ifvqhog","pricing_plan_id":"cebpf4jnsgd1na2vs0mg"},{"bike_id":"9ab0dba1-0940-46b2-b96b-592e28a83516","system_id":"levelo_inurba_marseille","lat":43.29303,"lon":5.37458,"is_reserved":false,"is_disabled":false,"rental_uris":{"android":"levelo://app?vid=9ab0dba1-0940-46b2-b96b-592e28a83516","ios":"levelo://app?vid=9ab0dba1-0940-46b2-b96b-592e28a83516"},"vehicle_type_id":"4","last_reported":1729508935,"current_range_meters":17200,"station_id":"ce4bgi12rcd13ifvqb70","pricing_plan_id":"cebpf4jnsgd1na2vs0mg"},{"bike_id":"2dab364a-105f-4114-b23b-94bcd65aad82","system_id":"levelo_inurba_marseille","lat":43.28152,"lon":5.42645,"is_reserved":false,"is_disabled":false,"rental_uris":{"android":"levelo://app?vid=2dab364a-105f-4114-b23b-94bcd65aad82","ios":"levelo://app?vid=2dab364a-105f-4114-b23b-94bcd65aad82"},"vehicle_type_id":"4","last_reported":1729508935,"current_range_meters":22000,"station_id":"ce4bhnh2rcd13ifvqgug","pricing_plan_id":"cebpf4jnsgd1na2vs0mg"},{"bike_id":"2b710056-10d8-45d7-a2cd-48f9f477421f","system_id":"levelo_inurba_marseille","lat":43.25578,"lon":5.38226,"is_reserved":false,"is_disabled":false,"rental_uris":{"android":"levelo://app?vid=2b710056-10d8-45d7-a2cd-48f9f477421f","ios":"levelo://app?vid=2b710056-10d8-45d7-a2cd-48f9f477421f"},"vehicle_type_id":"4","last_reported":1729508935,"current_range_meters":22000,"station_id":"ce4bhih2rcd13ifvqfs0","pricing_plan_id":"cebpf4jnsgd1na2vs0mg"},{"bike_id":"48596c0c-d42e-4d1e-b001-eb9a96b7bd6c","system_id":"levelo_inurba_marseille","lat":43.32339,"lon":5.40618,"is_reserved":false,"is_disabled":false,"rental_uris":{"android":"levelo://app?vid=48596c0c-d42e-4d1e-b001-eb9a96b7bd6c","ios":"levelo://app?vid=48596c0c-d42e-4d1e-b001-eb9a96b7bd6c"},"vehicle_type_id":"4","last_reported":1729508935,"current_range_meters":20400,"station_id":"ce4bhq92rcd13ifvqhjg","pricing_plan_id":"cebpf4jnsgd1na2vs0mg"},{"bike_id":"b07b9fe8-26ba-4090-90c4-9e581d2e4afd","system_id":"levelo_inurba_marseille","lat":43.26197,"lon":5.37929,"is_reserved":false,"is_disabled":false,"rental_uris":{"android":"levelo://app?vid=b07b9fe8-26ba-4090-90c4-9e581d2e4afd","ios":"levelo://app?vid=b07b9fe8-26ba-4090-90c4-9e581d2e4afd"},"vehicle_type_id":"4","last_reported":1729508935,"current_range_meters":10800,"station_id":"ce4bhjp2rcd13ifvqg90","pricing_plan_id":"cebpf4jnsgd1na2vs0mg"},{"bike_id":"f8b63d8f-4e2f-4837-a17d-513561d77cd6","system_id":"levelo_inurba_marseille","lat":43.2963,"lon":5.37154,"is_reserved":false,"is_disabled":false,"rental_uris":{"android":"levelo://app?vid=f8b63d8f-4e2f-4837-a17d-513561d77cd6","ios":"levelo://app?vid=f8b63d8f-4e2f-4837-a17d-513561d77cd6"},"vehicle_type_id":"4","last_reported":1729508935,"current_range_meters":24800,"station_id":"ce4bgnh2rcd13ifvqc0g","pricing_plan_id":"cebpf4jnsgd1na2vs0mg"},{"bike_id":"499dab8c-5949-469d-8c71-3ee9e43a1fb2","system_id":"levelo_inurba_marseille","lat":43.272089,"lon":5.391306,"is_reserved":false,"is_disabled":false,"rental_uris":{"android":"levelo://app?vid=499dab8c-5949-469d-8c71-3ee9e43a1fb2","ios":"levelo://app?vid=499dab8c-5949-469d-8c71-3ee9e43a1fb2"},"vehicle_type_id":"4","last_reported":1729508935,"current_range_meters":7200,"station_id":"ce4bgvh2rcd13ifvqcs0","pricing_plan_id":"cebpf4jnsgd1na2vs0mg"},{"bike_id":"acfe4f16-3f9f-4b22-97ba-461ac20539b3","system_id":"levelo_inurba_marseille","lat":43.297996,"lon":5.381087,"is_reserved":false,"is_disabled":false,"rental_uris":{"android":"levelo://app?vid=acfe4f16-3f9f-4b22-97ba-461ac20539b3","ios":"levelo://app?vid=acfe4f16-3f9f-4b22-97ba-461ac20539b3"},"vehicle_type_id":"4","last_reported":1729508935,"current_range_meters":28400,"station_id":"ce4bhn92rcd13ifvqgrg","pricing_plan_id":"cebpf4jnsgd1na2vs0mg"},{"bike_id":"a727af58-92b1-45e9-8a19-c4cf4c8e045f","system_id":"levelo_inurba_marseille","lat":43.29849,"lon":5.36285,"is_reserved":false,"is_disabled":false,"rental_uris":{"android":"levelo://app?vid=a727af58-92b1-45e9-8a19-c4cf4c8e045f","ios":"levelo://app?vid=a727af58-92b1-45e9-8a19-c4cf4c8e045f"},"vehicle_type_id":"4","last_reported":1729508935,"current_range_meters":38800,"station_id":"ce4bgpp2rcd13ifvqc3g","pricing_plan_id":"cebpf4jnsgd1na2vs0mg"},{"bike_id":"5a11fde4-305f-4d0a-b713-a8c28cbfc6c3","system_id":"levelo_inurba_marseille","lat":43.30127,"lon":5.3877,"is_reserved":false,"is_disabled":false,"rental_uris":{"android":"levelo://app?vid=5a11fde4-305f-4d0a-b713-a8c28cbfc6c3","ios":"levelo://app?vid=5a11fde4-305f-4d0a-b713-a8c28cbfc6c3"},"vehicle_type_id":"4","last_reported":1729508935,"current_range_meters":38800,"station_id":"ce4bghh2rcd13ifvqb60","pricing_plan_id":"cebpf4jnsgd1na2vs0mg"},{"bike_id":"d420456d-e821-4956-a8b2-6b9637b3c382","system_id":"levelo_inurba_marseille","lat":43.29304,"lon":5.37173,"is_reserved":false,"is_disabled":false,"rental_uris":{"android":"levelo://app?vid=d420456d-e821-4956-a8b2-6b9637b3c382","ios":"levelo://app?vid=d420456d-e821-4956-a8b2-6b9637b3c382"},"vehicle_type_id":"4","last_reported":1729508935,"current_range_meters":20400,"station_id":"ce4bgh92rcd13ifvqb40","pricing_plan_id":"cebpf4jnsgd1na2vs0mg"},{"bike_id":"10fad5ba-53eb-4868-bf58-6140ce197efb","system_id":"levelo_inurba_marseille","lat":43.29705,"lon":5.37694,"is_reserved":false,"is_disabled":false,"rental_uris":{"android":"levelo://app?vid=10fad5ba-53eb-4868-bf58-6140ce197efb","ios":"levelo://app?vid=10fad5ba-53eb-4868-bf58-6140ce197efb"},"vehicle_type_id":"4","last_reported":1729508935,"current_range_meters":29600,"station_id":"ce4bgkh2rcd13ifvqbl0","pricing_plan_id":"cebpf4jnsgd1na2vs0mg"},{"bike_id":"139ebd0b-8bfb-4bff-aad1-7d1ba8b26af7","system_id":"levelo_inurba_marseille","lat":43.29167,"lon":5.39478,"is_reserved":false,"is_disabled":false,"rental_uris":{"android":"levelo://app?vid=139ebd0b-8bfb-4bff-aad1-7d1ba8b26af7","ios":"levelo://app?vid=139ebd0b-8bfb-4bff-aad1-7d1ba8b26af7"},"vehicle_type_id":"4","last_reported":1729508935,"current_range_meters":26000,"station_id":"ce4bh3h2rcd13ifvqdn0","pricing_plan_id":"cebpf4jnsgd1na2vs0mg"},{"bike_id":"d6375ce1-731d-47e2-9391-967a110cfb42","system_id":"levelo_inurba_marseille","lat":43.24656,"lon":5.3889,"is_reserved":false,"is_disabled":false,"rental_uris":{"android":"levelo://app?vid=d6375ce1-731d-47e2-9391-967a110cfb42","ios":"levelo://app?vid=d6375ce1-731d-47e2-9391-967a110cfb42"},"vehicle_type_id":"4","last_reported":1729508935,"current_range_meters":19600,"station_id":"ce4bhg12rcd13ifvqf60","pricing_plan_id":"cebpf4jnsgd1na2vs0mg"},{"bike_id":"c2c922f9-28f5-4727-a6fc-df832ecece2e","system_id":"levelo_inurba_marseille","lat":43.24543,"lon":5.39524,"is_reserved":false,"is_disabled":false,"rental_uris":{"android":"levelo://app?vid=c2c922f9-28f5-4727-a6fc-df832ecece2e","ios":"levelo://app?vid=c2c922f9-28f5-4727-a6fc-df832ecece2e"},"vehicle_type_id":"4","last_reported":1729508935,"current_range_meters":16400,"station_id":"ce4bhlp2rcd13ifvqgjg","pricing_plan_id":"cebpf4jnsgd1na2vs0mg"},{"bike_id":"e8f0a0b0-3497-4919-87eb-b091fabf0e94","system_id":"levelo_inurba_marseille","lat":43.26561,"lon":5.39016,"is_reserved":false,"is_disabled":false,"rental_uris":{"android":"levelo://app?vid=e8f0a0b0-3497-4919-87eb-b091fabf0e94","ios":"levelo://app?vid=e8f0a0b0-3497-4919-87eb-b091fabf0e94"},"vehicle_type_id":"4","last_reported":1729508935,"current_range_meters":36800,"station_id":"ce4bhe12rcd13ifvqf30","pricing_plan_id":"cebpf4jnsgd1na2vs0mg"},{"bike_id":"5430bba4-ce8c-4694-a91c-cbc659893ce5","system_id":"levelo_inurba_marseille","lat":43.26682,"lon":5.38266,"is_reserved":false,"is_disabled":false,"rental_uris":{"android":"levelo://app?vid=5430bba4-ce8c-4694-a91c-cbc659893ce5","ios":"levelo://app?vid=5430bba4-ce8c-4694-a91c-cbc659893ce5"},"vehicle_type_id":"4","last_reported":1729508935,"current_range_meters":38800,"station_id":"ce4bhg92rcd13ifvqf90","pricing_plan_id":"cebpf4jnsgd1na2vs0mg"},{"bike_id":"2a8cfce5-93d5-4a5e-832b-148482060dca","system_id":"levelo_inurba_marseille","lat":43.32366,"lon":5.38881,"is_reserved":false,"is_disabled":false,"rental_uris":{"android":"levelo://app?vid=2a8cfce5-93d5-4a5e-832b-148482060dca","ios":"levelo://app?vid=2a8cfce5-93d5-4a5e-832b-148482060dca"},"vehicle_type_id":"4","last_reported":1729508935,"current_range_meters":20800,"station_id":"ce4bhqp2rcd13ifvqhog","pricing_plan_id":"cebpf4jnsgd1na2vs0mg"},{"bike_id":"6492c42c-e9fd-4010-bf6f-315b98b052ce","system_id":"levelo_inurba_marseille","lat":43.33757,"lon":5.37448,"is_reserved":false,"is_disabled":false,"rental_uris":{"android":"levelo://app?vid=6492c42c-e9fd-4010-bf6f-315b98b052ce","ios":"levelo://app?vid=6492c42c-e9fd-4010-bf6f-315b98b052ce"},"vehicle_type_id":"4","last_reported":1729508935,"current_range_meters":36400,"station_id":"","pricing_plan_id":"cebpf4jnsgd1na2vs0mg"},{"bike_id":"1ead9b8b-e7ad-4ca6-89f0-6de2294996a2","system_id":"levelo_inurba_marseille","lat":43.28159,"lon":5.42637,"is_reserved":false,"is_disabled":false,"rental_uris":{"android":"levelo://app?vid=1ead9b8b-e7ad-4ca6-89f0-6de2294996a2","ios":"levelo://app?vid=1ead9b8b-e7ad-4ca6-89f0-6de2294996a2"},"vehicle_type_id":"4","last_reported":1729508935,"current_range_meters":24800,"station_id":"ce4bhnh2rcd13ifvqgug","pricing_plan_id":"cebpf4jnsgd1na2vs0mg"},{"bike_id":"fccb27b3-90f4-4411-a56b-003b7acda73c","system_id":"levelo_inurba_marseille","lat":43.28152,"lon":5.42639,"is_reserved":false,"is_disabled":false,"rental_uris":{"android":"levelo://app?vid=fccb27b3-90f4-4411-a56b-003b7acda73c","ios":"levelo://app?vid=fccb27b3-90f4-4411-a56b-003b7acda73c"},"vehicle_type_id":"4","last_reported":1729508935,"current_range_meters":28800,"station_id":"ce4bhnh2rcd13ifvqgug","pricing_plan_id":"cebpf4jnsgd1na2vs0mg"},{"bike_id":"183d1af2-10ec-4240-9e55-6fe27c1e4b2a","system_id":"levelo_inurba_marseille","lat":43.293051,"lon":5.371733,"is_reserved":false,"is_disabled":false,"rental_uris":{"android":"levelo://app?vid=183d1af2-10ec-4240-9e55-6fe27c1e4b2a","ios":"levelo://app?vid=183d1af2-10ec-4240-9e55-6fe27c1e4b2a"},"vehicle_type_id":"4","last_reported":1729508935,"current_range_meters":38800,"station_id":"ce4bgh92rcd13ifvqb40","pricing_plan_id":"cebpf4jnsgd1na2vs0mg"},{"bike_id":"8735f2f2-9ee9-4e3b-85bd-ab5252e93e71","system_id":"levelo_inurba_marseille","lat":43.29057,"lon":5.37164,"is_reserved":false,"is_disabled":false,"rental_uris":{"android":"levelo://app?vid=8735f2f2-9ee9-4e3b-85bd-ab5252e93e71","ios":"levelo://app?vid=8735f2f2-9ee9-4e3b-85bd-ab5252e93e71"},"vehicle_type_id":"4","last_reported":1729508935,"current_range_meters":35600,"station_id":"ce4bh5p2rcd13ifvqe4g","pricing_plan_id":"cebpf4jnsgd1na2vs0mg"},{"bike_id":"ce67f893-be99-4efe-b42e-d03b1820ca8a","system_id":"levelo_inurba_marseille","lat":43.31712,"lon":5.37738,"is_reserved":false,"is_disabled":false,"rental_uris":{"android":"levelo://app?vid=ce67f893-be99-4efe-b42e-d03b1820ca8a","ios":"levelo://app?vid=ce67f893-be99-4efe-b42e-d03b1820ca8a"},"vehicle_type_id":"4","last_reported":1729508935,"current_range_meters":11200,"station_id":"ce4bgth2rcd13ifvqch0","pricing_plan_id":"cebpf4jnsgd1na2vs0mg"},{"bike_id":"607e006a-1644-49b2-aa31-4e69df5fe002","system_id":"levelo_inurba_marseille","lat":43.270253,"lon":5.419854,"is_reserved":false,"is_disabled":false,"rental_uris":{"android":"levelo://app?vid=607e006a-1644-49b2-aa31-4e69df5fe002","ios":"levelo://app?vid=607e006a-1644-49b2-aa31-4e69df5fe002"},"vehicle_type_id":"4","last_reported":1729508935,"current_range_meters":11200,"station_id":"ce4bhk92rcd13ifvqgb0","pricing_plan_id":"cebpf4jnsgd1na2vs0mg"},{"bike_id":"68785256-39fe-444c-8570-fe6ebe85880f","system_id":"levelo_inurba_marseille","lat":43.298,"lon":5.40403,"is_reserved":false,"is_disabled":false,"rental_uris":{"android":"levelo://app?vid=68785256-39fe-444c-8570-fe6ebe85880f","ios":"levelo://app?vid=68785256-39fe-444c-8570-fe6ebe85880f"},"vehicle_type_id":"4","last_reported":1729508935,"current_range_meters":30000,"station_id":"ce4bh112rcd13ifvqd90","pricing_plan_id":"cebpf4jnsgd1na2vs0mg"},{"bike_id":"c0e918f6-a62e-4c9d-938a-2ee1b95f693a","system_id":"levelo_inurba_marseille","lat":43.26679,"lon":5.38261,"is_reserved":false,"is_disabled":false,"rental_uris":{"android":"levelo://app?vid=c0e918f6-a62e-4c9d-938a-2ee1b95f693a","ios":"levelo://app?vid=c0e918f6-a62e-4c9d-938a-2ee1b95f693a"},"vehicle_type_id":"4","last_reported":1729508935,"current_range_meters":19200,"station_id":"ce4bhg92rcd13ifvqf90","pricing_plan_id":"cebpf4jnsgd1na2vs0mg"},{"bike_id":"fc8ee28f-b2df-4931-9212-d98489b5c270","system_id":"levelo_inurba_marseille","lat":43.29895,"lon":5.43653,"is_reserved":false,"is_disabled":false,"rental_uris":{"android":"levelo://app?vid=fc8ee28f-b2df-4931-9212-d98489b5c270","ios":"levelo://app?vid=fc8ee28f-b2df-4931-9212-d98489b5c270"},"vehicle_type_id":"4","last_reported":1729508935,"current_range_meters":25200,"station_id":"ce4bhpp2rcd13ifvqhfg","pricing_plan_id":"cebpf4jnsgd1na2vs0mg"},{"bike_id":"9e1de301-470d-4685-a94b-1047c27a7cde","system_id":"levelo_inurba_marseille","lat":43.28713,"lon":5.37937,"is_reserved":false,"is_disabled":false,"rental_uris":{"android":"levelo://app?vid=9e1de301-470d-4685-a94b-1047c27a7cde","ios":"levelo://app?vid=9e1de301-470d-4685-a94b-1047c27a7cde"},"vehicle_type_id":"4","last_reported":1729508935,"current_range_meters":16000,"station_id":"ce4bh9p2rcd13ifvqec0","pricing_plan_id":"cebpf4jnsgd1na2vs0mg"},{"bike_id":"d022902e-4f7c-4f05-aec8-0c802211b8cc","system_id":"levelo_inurba_marseille","lat":43.25942,"lon":5.40895,"is_reserved":false,"is_disabled":false,"rental_uris":{"android":"levelo://app?vid=d022902e-4f7c-4f05-aec8-0c802211b8cc","ios":"levelo://app?vid=d022902e-4f7c-4f05-aec8-0c802211b8cc"},"vehicle_type_id":"4","last_reported":1729508935,"current_range_meters":32000,"station_id":"ce4bhm92rcd13ifvqglg","pricing_plan_id":"cebpf4jnsgd1na2vs0mg"},{"bike_id":"a9497fe1-bc20-4783-aa3c-fbb63f514484","system_id":"levelo_inurba_marseille","lat":43.30531,"lon":5.36527,"is_reserved":false,"is_disabled":false,"rental_uris":{"android":"levelo://app?vid=a9497fe1-bc20-4783-aa3c-fbb63f514484","ios":"levelo://app?vid=a9497fe1-bc20-4783-aa3c-fbb63f514484"},"vehicle_type_id":"4","last_reported":1729508935,"current_range_meters":38800,"station_id":"ce4bgs12rcd13ifvqcag","pricing_plan_id":"cebpf4jnsgd1na2vs0mg"},{"bike_id":"6a690f1f-731a-4514-8da7-70ef86efc444","system_id":"levelo_inurba_marseille","lat":43.31158,"lon":5.38723,"is_reserved":false,"is_disabled":false,"rental_uris":{"android":"levelo://app?vid=6a690f1f-731a-4514-8da7-70ef86efc444","ios":"levelo://app?vid=6a690f1f-731a-4514-8da7-70ef86efc444"},"vehicle_type_id":"4","last_reported":1729508935,"current_range_meters":15200,"station_id":"ce4bgv12rcd13ifvqcp0","pricing_plan_id":"cebpf4jnsgd1na2vs0mg"},{"bike_id":"a1a86ad0-2b25-4a95-80bf-8301249e06b6","system_id":"levelo_inurba_marseille","lat":43.26062,"lon":5.39387,"is_reserved":false,"is_disabled":false,"rental_uris":{"android":"levelo://app?vid=a1a86ad0-2b25-4a95-80bf-8301249e06b6","ios":"levelo://app?vid=a1a86ad0-2b25-4a95-80bf-8301249e06b6"},"vehicle_type_id":"4","last_reported":1729508935,"current_range_meters":36000,"station_id":"ce4bhh92rcd13ifvqfj0","pricing_plan_id":"cebpf4jnsgd1na2vs0mg"},{"bike_id":"041c83ea-c320-4be6-862d-deaa50b2a9d7","system_id":"levelo_inurba_marseille","lat":43.2761,"lon":5.36108,"is_reserved":false,"is_disabled":false,"rental_uris":{"android":"levelo://app?vid=041c83ea-c320-4be6-862d-deaa50b2a9d7","ios":"levelo://app?vid=041c83ea-c320-4be6-862d-deaa50b2a9d7"},"vehicle_type_id":"4","last_reported":1729508935,"current_range_meters":38000,"station_id":"ce4bgj92rcd13ifvqbe0","pricing_plan_id":"cebpf4jnsgd1na2vs0mg"},{"bike_id":"19f7b1c3-9756-4126-88e9-eb759e247939","system_id":"levelo_inurba_marseille","lat":43.28274,"lon":5.35067,"is_reserved":false,"is_disabled":false,"rental_uris":{"android":"levelo://app?vid=19f7b1c3-9756-4126-88e9-eb759e247939","ios":"levelo://app?vid=19f7b1c3-9756-4126-88e9-eb759e247939"},"vehicle_type_id":"4","last_reported":1729508935,"current_range_meters":30000,"station_id":"ce4bhbp2rcd13ifvqerg","pricing_plan_id":"cebpf4jnsgd1na2vs0mg"},{"bike_id":"931da876-d0ed-4146-82c7-6d132f483c10","system_id":"levelo_inurba_marseille","lat":43.32106,"lon":5.36772,"is_reserved":false,"is_disabled":false,"rental_uris":{"android":"levelo://app?vid=931da876-d0ed-4146-82c7-6d132f483c10","ios":"levelo://app?vid=931da876-d0ed-4146-82c7-6d132f483c10"},"vehicle_type_id":"4","last_reported":1729508935,"current_range_meters":36800,"station_id":"ce4bhrh2rcd13ifvqhug","pricing_plan_id":"cebpf4jnsgd1na2vs0mg"},{"bike_id":"fcd06b54-ed4e-4d57-b35f-c535f2a6986a","system_id":"levelo_inurba_marseille","lat":43.23155,"lon":5.43707,"is_reserved":false,"is_disabled":false,"rental_uris":{"android":"levelo://app?vid=fcd06b54-ed4e-4d57-b35f-c535f2a6986a","ios":"levelo://app?vid=fcd06b54-ed4e-4d57-b35f-c535f2a6986a"},"vehicle_type_id":"4","last_reported":1729508935,"current_range_meters":38800,"station_id":"ce4bhmp2rcd13ifvqgog","pricing_plan_id":"cebpf4jnsgd1na2vs0mg"},{"bike_id":"68bb16cf-3232-4389-967e-55bb18f1f996","system_id":"levelo_inurba_marseille","lat":43.31347,"lon":5.36702,"is_reserved":false,"is_disabled":false,"rental_uris":{"android":"levelo://app?vid=68bb16cf-3232-4389-967e-55bb18f1f996","ios":"levelo://app?vid=68bb16cf-3232-4389-967e-55bb18f1f996"},"vehicle_type_id":"4","last_reported":1729508935,"current_range_meters":38800,"station_id":"ce4bgr92rcd13ifvqc6g","pricing_plan_id":"cebpf4jnsgd1na2vs0mg"},{"bike_id":"dc6c91b9-7a2a-44d6-9883-90ad5793c58c","system_id":"levelo_inurba_marseille","lat":43.295815,"lon":5.367414,"is_reserved":false,"is_disabled":false,"rental_uris":{"android":"levelo://app?vid=dc6c91b9-7a2a-44d6-9883-90ad5793c58c","ios":"levelo://app?vid=dc6c91b9-7a2a-44d6-9883-90ad5793c58c"},"vehicle_type_id":"4","last_reported":1729508935,"current_range_meters":39200,"station_id":"ce4bgph2rcd13ifvqc2g","pricing_plan_id":"cebpf4jnsgd1na2vs0mg"},{"bike_id":"d17084cd-ed00-4a9e-b6c8-e4d9c1930285","system_id":"levelo_inurba_marseille","lat":43.29971,"lon":5.37169,"is_reserved":false,"is_disabled":false,"rental_uris":{"android":"levelo://app?vid=d17084cd-ed00-4a9e-b6c8-e4d9c1930285","ios":"levelo://app?vid=d17084cd-ed00-4a9e-b6c8-e4d9c1930285"},"vehicle_type_id":"4","last_reported":1729508935,"current_range_meters":19600,"station_id":"ce4bgr92rcd13ifvqc7g","pricing_plan_id":"cebpf4jnsgd1na2vs0mg"},{"bike_id":"375d33e3-2041-4b56-a557-54bde93a99de","system_id":"levelo_inurba_marseille","lat":43.30538,"lon":5.36542,"is_reserved":false,"is_disabled":false,"rental_uris":{"android":"levelo://app?vid=375d33e3-2041-4b56-a557-54bde93a99de","ios":"levelo://app?vid=375d33e3-2041-4b56-a557-54bde93a99de"},"vehicle_type_id":"4","last_reported":1729508935,"current_range_meters":20800,"station_id":"ce4bgs12rcd13ifvqcag","pricing_plan_id":"cebpf4jnsgd1na2vs0mg"},{"bike_id":"a0e9ed9e-1525-41e4-8990-d05478aeda56","system_id":"levelo_inurba_marseille","lat":43.301433,"lon":5.38079,"is_reserved":false,"is_disabled":false,"rental_uris":{"android":"levelo://app?vid=a0e9ed9e-1525-41e4-8990-d05478aeda56","ios":"levelo://app?vid=a0e9ed9e-1525-41e4-8990-d05478aeda56"},"vehicle_type_id":"4","last_reported":1729508935,"current_range_meters":19600,"station_id":"ce4bgt12rcd13ifvqcd0","pricing_plan_id":"cebpf4jnsgd1na2vs0mg"},{"bike_id":"5c713b5b-ad4f-49b6-bbaf-90c5b7036076","system_id":"levelo_inurba_marseille","lat":43.2904,"lon":5.37558,"is_reserved":false,"is_disabled":false,"rental_uris":{"android":"levelo://app?vid=5c713b5b-ad4f-49b6-bbaf-90c5b7036076","ios":"levelo://app?vid=5c713b5b-ad4f-49b6-bbaf-90c5b7036076"},"vehicle_type_id":"4","last_reported":1729508935,"current_range_meters":9200,"station_id":"ce4bh692rcd13ifvqe90","pricing_plan_id":"cebpf4jnsgd1na2vs0mg"},{"bike_id":"0c1c7708-b979-4d7e-982d-190e9148b9a6","system_id":"levelo_inurba_marseille","lat":43.26684,"lon":5.38263,"is_reserved":false,"is_disabled":false,"rental_uris":{"android":"levelo://app?vid=0c1c7708-b979-4d7e-982d-190e9148b9a6","ios":"levelo://app?vid=0c1c7708-b979-4d7e-982d-190e9148b9a6"},"vehicle_type_id":"4","last_reported":1729508935,"current_range_meters":34800,"station_id":"ce4bhg92rcd13ifvqf90","pricing_plan_id":"cebpf4jnsgd1na2vs0mg"},{"bike_id":"724c3898-fa40-46b5-a6ca-5091666cabb4","system_id":"levelo_inurba_marseille","lat":43.23192,"lon":5.3554,"is_reserved":false,"is_disabled":false,"rental_uris":{"android":"levelo://app?vid=724c3898-fa40-46b5-a6ca-5091666cabb4","ios":"levelo://app?vid=724c3898-fa40-46b5-a6ca-5091666cabb4"},"vehicle_type_id":"4","last_reported":1729508935,"current_range_meters":37600,"station_id":"ce4bhu92rcd13ifvqi70","pricing_plan_id":"cebpf4jnsgd1na2vs0mg"},{"bike_id":"fb574375-21a3-4cc9-b093-05167f9899a8","system_id":"levelo_inurba_marseille","lat":43.31337,"lon":5.36718,"is_reserved":false,"is_disabled":false,"rental_uris":{"android":"levelo://app?vid=fb574375-21a3-4cc9-b093-05167f9899a8","ios":"levelo://app?vid=fb574375-21a3-4cc9-b093-05167f9899a8"},"vehicle_type_id":"4","last_reported":1729508935,"current_range_meters":38800,"station_id":"ce4bgr92rcd13ifvqc6g","pricing_plan_id":"cebpf4jnsgd1na2vs0mg"},{"bike_id":"a4dfb33b-4c2d-4d86-a698-fff9938b84e5","system_id":"levelo_inurba_marseille","lat":43.28612,"lon":5.37064,"is_reserved":false,"is_disabled":false,"rental_uris":{"android":"levelo://app?vid=a4dfb33b-4c2d-4d86-a698-fff9938b84e5","ios":"levelo://app?vid=a4dfb33b-4c2d-4d86-a698-fff9938b84e5"},"vehicle_type_id":"4","last_reported":1729508935,"current_range_meters":38000,"station_id":"ce4bht12rcd13ifvqi60","pricing_plan_id":"cebpf4jnsgd1na2vs0mg"},{"bike_id":"5de3fedf-e86d-42b6-9243-b2c6063fe3cb","system_id":"levelo_inurba_marseille","lat":43.22936,"lon":5.35373,"is_reserved":false,"is_disabled":false,"rental_uris":{"android":"levelo://app?vid=5de3fedf-e86d-42b6-9243-b2c6063fe3cb","ios":"levelo://app?vid=5de3fedf-e86d-42b6-9243-b2c6063fe3cb"},"vehicle_type_id":"4","last_reported":1729508935,"current_range_meters":28000,"station_id":"cpo3532slgdg3j2ikp40","pricing_plan_id":"cebpf4jnsgd1na2vs0mg"},{"bike_id":"e6fe4940-a098-49cc-8d38-77b9bd14611a","system_id":"levelo_inurba_marseille","lat":43.32115,"lon":5.36767,"is_reserved":false,"is_disabled":false,"rental_uris":{"android":"levelo://app?vid=e6fe4940-a098-49cc-8d38-77b9bd14611a","ios":"levelo://app?vid=e6fe4940-a098-49cc-8d38-77b9bd14611a"},"vehicle_type_id":"4","last_reported":1729508935,"current_range_meters":17200,"station_id":"ce4bhrh2rcd13ifvqhug","pricing_plan_id":"cebpf4jnsgd1na2vs0mg"},{"bike_id":"b3131808-ec56-42ed-9011-7c56a602997c","system_id":"levelo_inurba_marseille","lat":43.26948,"lon":5.38631,"is_reserved":false,"is_disabled":false,"rental_uris":{"android":"levelo://app?vid=b3131808-ec56-42ed-9011-7c56a602997c","ios":"levelo://app?vid=b3131808-ec56-42ed-9011-7c56a602997c"},"vehicle_type_id":"4","last_reported":1729508935,"current_range_meters":38800,"station_id":"ce4bhh92rcd13ifvqfh0","pricing_plan_id":"cebpf4jnsgd1na2vs0mg"},{"bike_id":"a6592f3c-16dc-46f3-9cdc-63129ca9c54d","system_id":"levelo_inurba_marseille","lat":43.30917,"lon":5.3685,"is_reserved":false,"is_disabled":false,"rental_uris":{"android":"levelo://app?vid=a6592f3c-16dc-46f3-9cdc-63129ca9c54d","ios":"levelo://app?vid=a6592f3c-16dc-46f3-9cdc-63129ca9c54d"},"vehicle_type_id":"4","last_reported":1729508935,"current_range_meters":38800,"station_id":"ce4bgn92rcd13ifvqbvg","pricing_plan_id":"cebpf4jnsgd1na2vs0mg"},{"bike_id":"556f9454-68d7-4fb5-95e0-1576bee02e63","system_id":"levelo_inurba_marseille","lat":43.28715,"lon":5.3794,"is_reserved":false,"is_disabled":false,"rental_uris":{"android":"levelo://app?vid=556f9454-68d7-4fb5-95e0-1576bee02e63","ios":"levelo://app?vid=556f9454-68d7-4fb5-95e0-1576bee02e63"},"vehicle_type_id":"4","last_reported":1729508935,"current_range_meters":37600,"station_id":"ce4bh9p2rcd13ifvqec0","pricing_plan_id":"cebpf4jnsgd1na2vs0mg"},{"bike_id":"69f7af31-8cc4-4b1d-9daf-3f9700bccd34","system_id":"levelo_inurba_marseille","lat":43.28423,"lon":5.34991,"is_reserved":false,"is_disabled":false,"rental_uris":{"android":"levelo://app?vid=69f7af31-8cc4-4b1d-9daf-3f9700bccd34","ios":"levelo://app?vid=69f7af31-8cc4-4b1d-9daf-3f9700bccd34"},"vehicle_type_id":"4","last_reported":1729508935,"current_range_meters":38800,"station_id":"ce4bhbh2rcd13ifvqepg","pricing_plan_id":"cebpf4jnsgd1na2vs0mg"},{"bike_id":"8fa96be3-6654-43db-997f-afce5f780403","system_id":"levelo_inurba_marseille","lat":43.33749,"lon":5.37445,"is_reserved":false,"is_disabled":false,"rental_uris":{"android":"levelo://app?vid=8fa96be3-6654-43db-997f-afce5f780403","ios":"levelo://app?vid=8fa96be3-6654-43db-997f-afce5f780403"},"vehicle_type_id":"4","last_reported":1729508935,"current_range_meters":38000,"station_id":"","pricing_plan_id":"cebpf4jnsgd1na2vs0mg"},{"bike_id":"56d8207f-7279-4a2f-8152-71c25024352e","system_id":"levelo_inurba_marseille","lat":43.300248,"lon":5.39669,"is_reserved":false,"is_disabled":false,"rental_uris":{"android":"levelo://app?vid=56d8207f-7279-4a2f-8152-71c25024352e","ios":"levelo://app?vid=56d8207f-7279-4a2f-8152-71c25024352e"},"vehicle_type_id":"4","last_reported":1729508935,"current_range_meters":38800,"station_id":"ce4bh0h2rcd13ifvqd50","pricing_plan_id":"cebpf4jnsgd1na2vs0mg"},{"bike_id":"629e19e8-d172-4e14-a9b4-ed14faf0d86f","system_id":"levelo_inurba_marseille","lat":43.309008,"lon":5.374108,"is_reserved":false,"is_disabled":false,"rental_uris":{"android":"levelo://app?vid=629e19e8-d172-4e14-a9b4-ed14faf0d86f","ios":"levelo://app?vid=629e19e8-d172-4e14-a9b4-ed14faf0d86f"},"vehicle_type_id":"4","last_reported":1729508935,"current_range_meters":29600,"station_id":"ce4bgkp2rcd13ifvqbmg","pricing_plan_id":"cebpf4jnsgd1na2vs0mg"},{"bike_id":"37ae01aa-26bc-475e-b5cb-29678660af33","system_id":"levelo_inurba_marseille","lat":43.33771,"lon":5.37451,"is_reserved":false,"is_disabled":false,"rental_uris":{"android":"levelo://app?vid=37ae01aa-26bc-475e-b5cb-29678660af33","ios":"levelo://app?vid=37ae01aa-26bc-475e-b5cb-29678660af33"},"vehicle_type_id":"4","last_reported":1729508935,"current_range_meters":37600,"station_id":"","pricing_plan_id":"cebpf4jnsgd1na2vs0mg"},{"bike_id":"99e03b36-818f-433b-a871-4f96a925ff08","system_id":"levelo_inurba_marseille","lat":43.28613,"lon":5.35104,"is_reserved":false,"is_disabled":false,"rental_uris":{"android":"levelo://app?vid=99e03b36-818f-433b-a871-4f96a925ff08","ios":"levelo://app?vid=99e03b36-818f-433b-a871-4f96a925ff08"},"vehicle_type_id":"4","last_reported":1729508935,"current_range_meters":38000,"station_id":"ce4bhch2rcd13ifvqeug","pricing_plan_id":"cebpf4jnsgd1na2vs0mg"},{"bike_id":"a282c733-704b-4bf2-bd0a-667a625750f7","system_id":"levelo_inurba_marseille","lat":43.22935,"lon":5.35378,"is_reserved":false,"is_disabled":false,"rental_uris":{"android":"levelo://app?vid=a282c733-704b-4bf2-bd0a-667a625750f7","ios":"levelo://app?vid=a282c733-704b-4bf2-bd0a-667a625750f7"},"vehicle_type_id":"4","last_reported":1729508935,"current_range_meters":38800,"station_id":"cpo3532slgdg3j2ikp40","pricing_plan_id":"cebpf4jnsgd1na2vs0mg"},{"bike_id":"0d596b5f-71c2-4088-b9b4-64ac7dc4aa67","system_id":"levelo_inurba_marseille","lat":43.25004,"lon":5.38923,"is_reserved":false,"is_disabled":false,"rental_uris":{"android":"levelo://app?vid=0d596b5f-71c2-4088-b9b4-64ac7dc4aa67","ios":"levelo://app?vid=0d596b5f-71c2-4088-b9b4-64ac7dc4aa67"},"vehicle_type_id":"4","last_reported":1729508935,"current_range_meters":16400,"station_id":"ce4bhgp2rcd13ifvqfd0","pricing_plan_id":"cebpf4jnsgd1na2vs0mg"},{"bike_id":"97a3c8fc-38cd-404f-bd5a-76ad4094000b","system_id":"levelo_inurba_marseille","lat":43.279885,"lon":5.400142,"is_reserved":false,"is_disabled":false,"rental_uris":{"android":"levelo://app?vid=97a3c8fc-38cd-404f-bd5a-76ad4094000b","ios":"levelo://app?vid=97a3c8fc-38cd-404f-bd5a-76ad4094000b"},"vehicle_type_id":"4","last_reported":1729508935,"current_range_meters":14000,"station_id":"ce4bho92rcd13ifvqh4g","pricing_plan_id":"cebpf4jnsgd1na2vs0mg"},{"bike_id":"3bf2ae1c-49b2-4936-93d0-295eb17bee45","system_id":"levelo_inurba_marseille","lat":43.23062,"lon":5.35489,"is_reserved":false,"is_disabled":false,"rental_uris":{"android":"levelo://app?vid=3bf2ae1c-49b2-4936-93d0-295eb17bee45","ios":"levelo://app?vid=3bf2ae1c-49b2-4936-93d0-295eb17bee45"},"vehicle_type_id":"4","last_reported":1729508935,"current_range_meters":37600,"station_id":"cpo3342slgdg3j2ifvpg","pricing_plan_id":"cebpf4jnsgd1na2vs0mg"},{"bike_id":"251e44fb-5992-4cab-b11f-f21c840c11a8","system_id":"levelo_inurba_marseille","lat":43.28421,"lon":5.34982,"is_reserved":false,"is_disabled":false,"rental_uris":{"android":"levelo://app?vid=251e44fb-5992-4cab-b11f-f21c840c11a8","ios":"levelo://app?vid=251e44fb-5992-4cab-b11f-f21c840c11a8"},"vehicle_type_id":"4","last_reported":1729508935,"current_range_meters":20800,"station_id":"ce4bhbh2rcd13ifvqepg","pricing_plan_id":"cebpf4jnsgd1na2vs0mg"},{"bike_id":"45584baa-b8db-4e3b-bdc4-f5f9bfd6bc73","system_id":"levelo_inurba_marseille","lat":43.26195,"lon":5.37445,"is_reserved":false,"is_disabled":false,"rental_uris":{"android":"levelo://app?vid=45584baa-b8db-4e3b-bdc4-f5f9bfd6bc73","ios":"levelo://app?vid=45584baa-b8db-4e3b-bdc4-f5f9bfd6bc73"},"vehicle_type_id":"4","last_reported":1729508935,"current_range_meters":6800,"station_id":"ce4bhgp2rcd13ifvqfc0","pricing_plan_id":"cebpf4jnsgd1na2vs0mg"},{"bike_id":"01edebeb-e9df-4db9-8e23-851a215d3d7f","system_id":"levelo_inurba_marseille","lat":43.3053,"lon":5.36696,"is_reserved":false,"is_disabled":false,"rental_uris":{"android":"levelo://app?vid=01edebeb-e9df-4db9-8e23-851a215d3d7f","ios":"levelo://app?vid=01edebeb-e9df-4db9-8e23-851a215d3d7f"},"vehicle_type_id":"4","last_reported":1729508935,"current_range_meters":38800,"station_id":"ce4bgrp2rcd13ifvqc9g","pricing_plan_id":"cebpf4jnsgd1na2vs0mg"},{"bike_id":"99b460b8-9ffd-4434-9ba0-4a0e517831fb","system_id":"levelo_inurba_marseille","lat":43.29797,"lon":5.40406,"is_reserved":false,"is_disabled":false,"rental_uris":{"android":"levelo://app?vid=99b460b8-9ffd-4434-9ba0-4a0e517831fb","ios":"levelo://app?vid=99b460b8-9ffd-4434-9ba0-4a0e517831fb"},"vehicle_type_id":"4","last_reported":1729508935,"current_range_meters":30800,"station_id":"ce4bh112rcd13ifvqd90","pricing_plan_id":"cebpf4jnsgd1na2vs0mg"},{"bike_id":"3bf6f025-c632-400c-88d4-a07e7a7a01f6","system_id":"levelo_inurba_marseille","lat":43.28462,"lon":5.35887,"is_reserved":false,"is_disabled":false,"rental_uris":{"android":"levelo://app?vid=3bf6f025-c632-400c-88d4-a07e7a7a01f6","ios":"levelo://app?vid=3bf6f025-c632-400c-88d4-a07e7a7a01f6"},"vehicle_type_id":"4","last_reported":1729508935,"current_range_meters":38000,"station_id":"ce4bhah2rcd13ifvqei0","pricing_plan_id":"cebpf4jnsgd1na2vs0mg"},{"bike_id":"8f6a42bc-b4d5-4506-bfe5-f274f72a1ae4","system_id":"levelo_inurba_marseille","lat":43.24181,"lon":5.39731,"is_reserved":false,"is_disabled":false,"rental_uris":{"android":"levelo://app?vid=8f6a42bc-b4d5-4506-bfe5-f274f72a1ae4","ios":"levelo://app?vid=8f6a42bc-b4d5-4506-bfe5-f274f72a1ae4"},"vehicle_type_id":"4","last_reported":1729508935,"current_range_meters":38800,"station_id":"ce4bhn12rcd13ifvqgpg","pricing_plan_id":"cebpf4jnsgd1na2vs0mg"},{"bike_id":"ea0deb3c-9985-43ab-a9d5-a273704552c4","system_id":"levelo_inurba_marseille","lat":43.25583,"lon":5.38228,"is_reserved":false,"is_disabled":false,"rental_uris":{"android":"levelo://app?vid=ea0deb3c-9985-43ab-a9d5-a273704552c4","ios":"levelo://app?vid=ea0deb3c-9985-43ab-a9d5-a273704552c4"},"vehicle_type_id":"4","last_reported":1729508935,"current_range_meters":27200,"station_id":"ce4bhih2rcd13ifvqfs0","pricing_plan_id":"cebpf4jnsgd1na2vs0mg"},{"bike_id":"d65a6c9e-9d5a-489b-a90f-22472165b759","system_id":"levelo_inurba_marseille","lat":43.30552,"lon":5.36528,"is_reserved":false,"is_disabled":false,"rental_uris":{"android":"levelo://app?vid=d65a6c9e-9d5a-489b-a90f-22472165b759","ios":"levelo://app?vid=d65a6c9e-9d5a-489b-a90f-22472165b759"},"vehicle_type_id":"4","last_reported":1729508935,"current_range_meters":24000,"station_id":"ce4bgl12rcd13ifvqbo0","pricing_plan_id":"cebpf4jnsgd1na2vs0mg"},{"bike_id":"fc9e44c7-fda4-4ce8-8818-600912cdab91","system_id":"levelo_inurba_marseille","lat":43.25937,"lon":5.40899,"is_reserved":false,"is_disabled":false,"rental_uris":{"android":"levelo://app?vid=fc9e44c7-fda4-4ce8-8818-600912cdab91","ios":"levelo://app?vid=fc9e44c7-fda4-4ce8-8818-600912cdab91"},"vehicle_type_id":"4","last_reported":1729508935,"current_range_meters":38400,"station_id":"ce4bhm92rcd13ifvqglg","pricing_plan_id":"cebpf4jnsgd1na2vs0mg"},{"bike_id":"342bb506-8e82-4fe8-8123-2298181f1aa1","system_id":"levelo_inurba_marseille","lat":43.30797,"lon":5.38167,"is_reserved":false,"is_disabled":false,"rental_uris":{"android":"levelo://app?vid=342bb506-8e82-4fe8-8123-2298181f1aa1","ios":"levelo://app?vid=342bb506-8e82-4fe8-8123-2298181f1aa1"},"vehicle_type_id":"4","last_reported":1729508935,"current_range_meters":32400,"station_id":"","pricing_plan_id":"cebpf4jnsgd1na2vs0mg"},{"bike_id":"123669ac-ce4e-44c2-b6bb-60c52866970c","system_id":"levelo_inurba_marseille","lat":43.27618,"lon":5.36115,"is_reserved":false,"is_disabled":false,"rental_uris":{"android":"levelo://app?vid=123669ac-ce4e-44c2-b6bb-60c52866970c","ios":"levelo://app?vid=123669ac-ce4e-44c2-b6bb-60c52866970c"},"vehicle_type_id":"4","last_reported":1729508935,"current_range_meters":38400,"station_id":"ce4bgj92rcd13ifvqbe0","pricing_plan_id":"cebpf4jnsgd1na2vs0mg"},{"bike_id":"bf2b6112-f175-437b-a740-723e077b3b15","system_id":"levelo_inurba_marseille","lat":43.290527,"lon":5.371263,"is_reserved":false,"is_disabled":false,"rental_uris":{"android":"levelo://app?vid=bf2b6112-f175-437b-a740-723e077b3b15","ios":"levelo://app?vid=bf2b6112-f175-437b-a740-723e077b3b15"},"vehicle_type_id":"4","last_reported":1729508935,"current_range_meters":26000,"station_id":"ce4bhb12rcd13ifvqem0","pricing_plan_id":"cebpf4jnsgd1na2vs0mg"},{"bike_id":"53442209-de2c-48e5-93ab-7b580e04a6b6","system_id":"levelo_inurba_marseille","lat":43.31341,"lon":5.36725,"is_reserved":false,"is_disabled":false,"rental_uris":{"android":"levelo://app?vid=53442209-de2c-48e5-93ab-7b580e04a6b6","ios":"levelo://app?vid=53442209-de2c-48e5-93ab-7b580e04a6b6"},"vehicle_type_id":"4","last_reported":1729508935,"current_range_meters":9600,"station_id":"ce4bgr92rcd13ifvqc6g","pricing_plan_id":"cebpf4jnsgd1na2vs0mg"},{"bike_id":"a4dcf7be-cfb5-4526-b771-c918645e7286","system_id":"levelo_inurba_marseille","lat":43.28416,"lon":5.34976,"is_reserved":false,"is_disabled":false,"rental_uris":{"android":"levelo://app?vid=a4dcf7be-cfb5-4526-b771-c918645e7286","ios":"levelo://app?vid=a4dcf7be-cfb5-4526-b771-c918645e7286"},"vehicle_type_id":"4","last_reported":1729508935,"current_range_meters":35200,"station_id":"ce4bhbh2rcd13ifvqepg","pricing_plan_id":"cebpf4jnsgd1na2vs0mg"},{"bike_id":"211b054e-13d0-4870-9564-de1cb8b654f1","system_id":"levelo_inurba_marseille","lat":43.313535,"lon":5.36719,"is_reserved":false,"is_disabled":false,"rental_uris":{"android":"levelo://app?vid=211b054e-13d0-4870-9564-de1cb8b654f1","ios":"levelo://app?vid=211b054e-13d0-4870-9564-de1cb8b654f1"},"vehicle_type_id":"4","last_reported":1729508935,"current_range_meters":25600,"station_id":"ce4bgr92rcd13ifvqc6g","pricing_plan_id":"cebpf4jnsgd1na2vs0mg"},{"bike_id":"cf2ef2e5-54b3-4c70-9b14-e27633d40865","system_id":"levelo_inurba_marseille","lat":43.28418,"lon":5.34992,"is_reserved":false,"is_disabled":false,"rental_uris":{"android":"levelo://app?vid=cf2ef2e5-54b3-4c70-9b14-e27633d40865","ios":"levelo://app?vid=cf2ef2e5-54b3-4c70-9b14-e27633d40865"},"vehicle_type_id":"4","last_reported":1729508935,"current_range_meters":38000,"station_id":"ce4bhbh2rcd13ifvqepg","pricing_plan_id":"cebpf4jnsgd1na2vs0mg"},{"bike_id":"0f63ca9c-8ce7-457c-81ca-98654a5016f7","system_id":"levelo_inurba_marseille","lat":43.28574,"lon":5.39492,"is_reserved":false,"is_disabled":false,"rental_uris":{"android":"levelo://app?vid=0f63ca9c-8ce7-457c-81ca-98654a5016f7","ios":"levelo://app?vid=0f63ca9c-8ce7-457c-81ca-98654a5016f7"},"vehicle_type_id":"4","last_reported":1729508935,"current_range_meters":25200,"station_id":"ce4bh292rcd13ifvqdg0","pricing_plan_id":"cebpf4jnsgd1na2vs0mg"},{"bike_id":"418bd683-b6c0-4394-90d1-454d0664a04c","system_id":"levelo_inurba_marseille","lat":43.33609,"lon":5.41022,"is_reserved":false,"is_disabled":false,"rental_uris":{"android":"levelo://app?vid=418bd683-b6c0-4394-90d1-454d0664a04c","ios":"levelo://app?vid=418bd683-b6c0-4394-90d1-454d0664a04c"},"vehicle_type_id":"4","last_reported":1729508935,"current_range_meters":38800,"station_id":"ce4bhqh2rcd13ifvqhmg","pricing_plan_id":"cebpf4jnsgd1na2vs0mg"},{"bike_id":"53136745-46ec-42df-a233-c8fabbec71b3","system_id":"levelo_inurba_marseille","lat":43.2984,"lon":5.362608,"is_reserved":false,"is_disabled":false,"rental_uris":{"android":"levelo://app?vid=53136745-46ec-42df-a233-c8fabbec71b3","ios":"levelo://app?vid=53136745-46ec-42df-a233-c8fabbec71b3"},"vehicle_type_id":"4","last_reported":1729508935,"current_range_meters":38800,"station_id":"ce4bgpp2rcd13ifvqc3g","pricing_plan_id":"cebpf4jnsgd1na2vs0mg"},{"bike_id":"831e42e8-8858-4a5c-b2b1-2b0e9edaa837","system_id":"levelo_inurba_marseille","lat":43.28853,"lon":5.39325,"is_reserved":false,"is_disabled":false,"rental_uris":{"android":"levelo://app?vid=831e42e8-8858-4a5c-b2b1-2b0e9edaa837","ios":"levelo://app?vid=831e42e8-8858-4a5c-b2b1-2b0e9edaa837"},"vehicle_type_id":"4","last_reported":1729508935,"current_range_meters":34000,"station_id":"cjm6bp8fraef2m0cb0m0","pricing_plan_id":"cebpf4jnsgd1na2vs0mg"},{"bike_id":"fcae2bab-33f3-4764-8301-058751f684f4","system_id":"levelo_inurba_marseille","lat":43.33605,"lon":5.41031,"is_reserved":false,"is_disabled":false,"rental_uris":{"android":"levelo://app?vid=fcae2bab-33f3-4764-8301-058751f684f4","ios":"levelo://app?vid=fcae2bab-33f3-4764-8301-058751f684f4"},"vehicle_type_id":"4","last_reported":1729508935,"current_range_meters":26800,"station_id":"ce4bhqh2rcd13ifvqhmg","pricing_plan_id":"cebpf4jnsgd1na2vs0mg"},{"bike_id":"6673ce0e-8abb-45c5-a38b-af6c73aa3e6c","system_id":"levelo_inurba_marseille","lat":43.31327,"lon":5.39688,"is_reserved":false,"is_disabled":false,"rental_uris":{"android":"levelo://app?vid=6673ce0e-8abb-45c5-a38b-af6c73aa3e6c","ios":"levelo://app?vid=6673ce0e-8abb-45c5-a38b-af6c73aa3e6c"},"vehicle_type_id":"4","last_reported":1729508935,"current_range_meters":25600,"station_id":"ce4bgvp2rcd13ifvqcu0","pricing_plan_id":"cebpf4jnsgd1na2vs0mg"},{"bike_id":"8a76263e-db79-49db-b51f-c7f54e5aa5fd","system_id":"levelo_inurba_marseille","lat":43.284921,"lon":5.385614,"is_reserved":false,"is_disabled":false,"rental_uris":{"android":"levelo://app?vid=8a76263e-db79-49db-b51f-c7f54e5aa5fd","ios":"levelo://app?vid=8a76263e-db79-49db-b51f-c7f54e5aa5fd"},"vehicle_type_id":"4","last_reported":1729508935,"current_range_meters":38000,"station_id":"ce4bh8p2rcd13ifvqeb0","pricing_plan_id":"cebpf4jnsgd1na2vs0mg"},{"bike_id":"72ce73d7-fd9d-4f5b-b71d-76a2be6f2932","system_id":"levelo_inurba_marseille","lat":43.33752,"lon":5.37434,"is_reserved":false,"is_disabled":false,"rental_uris":{"android":"levelo://app?vid=72ce73d7-fd9d-4f5b-b71d-76a2be6f2932","ios":"levelo://app?vid=72ce73d7-fd9d-4f5b-b71d-76a2be6f2932"},"vehicle_type_id":"4","last_reported":1729508935,"current_range_meters":3200,"station_id":"","pricing_plan_id":"cebpf4jnsgd1na2vs0mg"},{"bike_id":"75f3d9a9-89ad-4abc-9d7b-6216446ea90a","system_id":"levelo_inurba_marseille","lat":43.337444,"lon":5.374475,"is_reserved":false,"is_disabled":false,"rental_uris":{"android":"levelo://app?vid=75f3d9a9-89ad-4abc-9d7b-6216446ea90a","ios":"levelo://app?vid=75f3d9a9-89ad-4abc-9d7b-6216446ea90a"},"vehicle_type_id":"4","last_reported":1729508935,"current_range_meters":25600,"station_id":"","pricing_plan_id":"cebpf4jnsgd1na2vs0mg"},{"bike_id":"10d82a95-7c79-4f63-8fd4-56d1f5d32320","system_id":"levelo_inurba_marseille","lat":43.29006,"lon":5.35618,"is_reserved":false,"is_disabled":false,"rental_uris":{"android":"levelo://app?vid=10d82a95-7c79-4f63-8fd4-56d1f5d32320","ios":"levelo://app?vid=10d82a95-7c79-4f63-8fd4-56d1f5d32320"},"vehicle_type_id":"4","last_reported":1729508935,"current_range_meters":38400,"station_id":"ce4bhb92rcd13ifvqen0","pricing_plan_id":"cebpf4jnsgd1na2vs0mg"},{"bike_id":"1a9e8cdd-16ba-419c-8108-4c14a1491d6e","system_id":"levelo_inurba_marseille","lat":43.31351,"lon":5.36712,"is_reserved":false,"is_disabled":false,"rental_uris":{"android":"levelo://app?vid=1a9e8cdd-16ba-419c-8108-4c14a1491d6e","ios":"levelo://app?vid=1a9e8cdd-16ba-419c-8108-4c14a1491d6e"},"vehicle_type_id":"4","last_reported":1729508935,"current_range_meters":32000,"station_id":"ce4bgr92rcd13ifvqc6g","pricing_plan_id":"cebpf4jnsgd1na2vs0mg"},{"bike_id":"5e7b708e-8b6c-4b0f-8903-29eed52f361f","system_id":"levelo_inurba_marseille","lat":43.27496,"lon":5.4245,"is_reserved":false,"is_disabled":false,"rental_uris":{"android":"levelo://app?vid=5e7b708e-8b6c-4b0f-8903-29eed52f361f","ios":"levelo://app?vid=5e7b708e-8b6c-4b0f-8903-29eed52f361f"},"vehicle_type_id":"4","last_reported":1729508935,"current_range_meters":16800,"station_id":"ce4bhn92rcd13ifvqgrg","pricing_plan_id":"cebpf4jnsgd1na2vs0mg"},{"bike_id":"3096e674-b0f4-4e78-a9f1-972f0184b623","system_id":"levelo_inurba_marseille","lat":43.28037,"lon":5.36941,"is_reserved":false,"is_disabled":false,"rental_uris":{"android":"levelo://app?vid=3096e674-b0f4-4e78-a9f1-972f0184b623","ios":"levelo://app?vid=3096e674-b0f4-4e78-a9f1-972f0184b623"},"vehicle_type_id":"4","last_reported":1729508935,"current_range_meters":34000,"station_id":"ce4bha12rcd13ifvqef0","pricing_plan_id":"cebpf4jnsgd1na2vs0mg"},{"bike_id":"82fe763b-cf6e-491f-a2b3-1418f7022979","system_id":"levelo_inurba_marseille","lat":43.341309,"lon":5.41021,"is_reserved":false,"is_disabled":false,"rental_uris":{"android":"levelo://app?vid=82fe763b-cf6e-491f-a2b3-1418f7022979","ios":"levelo://app?vid=82fe763b-cf6e-491f-a2b3-1418f7022979"},"vehicle_type_id":"4","last_reported":1729508935,"current_range_meters":6800,"station_id":"ce4bhqh2rcd13ifvqhlg","pricing_plan_id":"cebpf4jnsgd1na2vs0mg"},{"bike_id":"62081fb8-4276-46d4-9604-7fe2920adcfb","system_id":"levelo_inurba_marseille","lat":43.26677,"lon":5.38268,"is_reserved":false,"is_disabled":false,"rental_uris":{"android":"levelo://app?vid=62081fb8-4276-46d4-9604-7fe2920adcfb","ios":"levelo://app?vid=62081fb8-4276-46d4-9604-7fe2920adcfb"},"vehicle_type_id":"4","last_reported":1729508935,"current_range_meters":16000,"station_id":"ce4bhg92rcd13ifvqf90","pricing_plan_id":"cebpf4jnsgd1na2vs0mg"},{"bike_id":"d9138eb3-ef01-47c0-9ce6-015231f1e16c","system_id":"levelo_inurba_marseille","lat":43.24074,"lon":5.37758,"is_reserved":false,"is_disabled":false,"rental_uris":{"android":"levelo://app?vid=d9138eb3-ef01-47c0-9ce6-015231f1e16c","ios":"levelo://app?vid=d9138eb3-ef01-47c0-9ce6-015231f1e16c"},"vehicle_type_id":"4","last_reported":1729508935,"current_range_meters":30400,"station_id":"ce4bhnp2rcd13ifvqgvg","pricing_plan_id":"cebpf4jnsgd1na2vs0mg"},{"bike_id":"2e31d8fa-3fe5-4fba-9403-f6f83112273d","system_id":"levelo_inurba_marseille","lat":43.24181,"lon":5.3973,"is_reserved":false,"is_disabled":false,"rental_uris":{"android":"levelo://app?vid=2e31d8fa-3fe5-4fba-9403-f6f83112273d","ios":"levelo://app?vid=2e31d8fa-3fe5-4fba-9403-f6f83112273d"},"vehicle_type_id":"4","last_reported":1729508935,"current_range_meters":16000,"station_id":"ce4bhn12rcd13ifvqgpg","pricing_plan_id":"cebpf4jnsgd1na2vs0mg"},{"bike_id":"07b3d301-b6dd-4582-86c7-ee20d7c309f2","system_id":"levelo_inurba_marseille","lat":43.27964,"lon":5.38737,"is_reserved":false,"is_disabled":false,"rental_uris":{"android":"levelo://app?vid=07b3d301-b6dd-4582-86c7-ee20d7c309f2","ios":"levelo://app?vid=07b3d301-b6dd-4582-86c7-ee20d7c309f2"},"vehicle_type_id":"4","last_reported":1729508935,"current_range_meters":24800,"station_id":"ce4bhg12rcd13ifvqf80","pricing_plan_id":"cebpf4jnsgd1na2vs0mg"},{"bike_id":"0540830f-71f4-4849-8d06-63bd57143a69","system_id":"levelo_inurba_marseille","lat":43.30905,"lon":5.36849,"is_reserved":false,"is_disabled":false,"rental_uris":{"android":"levelo://app?vid=0540830f-71f4-4849-8d06-63bd57143a69","ios":"levelo://app?vid=0540830f-71f4-4849-8d06-63bd57143a69"},"vehicle_type_id":"4","last_reported":1729508935,"current_range_meters":32800,"station_id":"ce4bgn92rcd13ifvqbvg","pricing_plan_id":"cebpf4jnsgd1na2vs0mg"},{"bike_id":"edeaf9ec-a2db-438a-8dc3-3deb474329f6","system_id":"levelo_inurba_marseille","lat":43.27609,"lon":5.36115,"is_reserved":false,"is_disabled":false,"rental_uris":{"android":"levelo://app?vid=edeaf9ec-a2db-438a-8dc3-3deb474329f6","ios":"levelo://app?vid=edeaf9ec-a2db-438a-8dc3-3deb474329f6"},"vehicle_type_id":"4","last_reported":1729508935,"current_range_meters":38800,"station_id":"ce4bgj92rcd13ifvqbe0","pricing_plan_id":"cebpf4jnsgd1na2vs0mg"},{"bike_id":"93a94103-19a0-447f-ad9d-6cb5f148a9ff","system_id":"levelo_inurba_marseille","lat":43.31346,"lon":5.36714,"is_reserved":false,"is_disabled":false,"rental_uris":{"android":"levelo://app?vid=93a94103-19a0-447f-ad9d-6cb5f148a9ff","ios":"levelo://app?vid=93a94103-19a0-447f-ad9d-6cb5f148a9ff"},"vehicle_type_id":"4","last_reported":1729508935,"current_range_meters":18000,"station_id":"ce4bgr92rcd13ifvqc6g","pricing_plan_id":"cebpf4jnsgd1na2vs0mg"},{"bike_id":"1cb08bb2-9adf-48de-bcaf-5956e0efb87e","system_id":"levelo_inurba_marseille","lat":43.2901,"lon":5.35607,"is_reserved":false,"is_disabled":false,"rental_uris":{"android":"levelo://app?vid=1cb08bb2-9adf-48de-bcaf-5956e0efb87e","ios":"levelo://app?vid=1cb08bb2-9adf-48de-bcaf-5956e0efb87e"},"vehicle_type_id":"4","last_reported":1729508935,"current_range_meters":37600,"station_id":"ce4bhb92rcd13ifvqen0","pricing_plan_id":"cebpf4jnsgd1na2vs0mg"},{"bike_id":"f5a63c6e-bf5c-4ed7-a5ca-5d31de635d55","system_id":"levelo_inurba_marseille","lat":43.285675,"lon":5.384968,"is_reserved":false,"is_disabled":false,"rental_uris":{"android":"levelo://app?vid=f5a63c6e-bf5c-4ed7-a5ca-5d31de635d55","ios":"levelo://app?vid=f5a63c6e-bf5c-4ed7-a5ca-5d31de635d55"},"vehicle_type_id":"4","last_reported":1729508935,"current_range_meters":16800,"station_id":"ce4bho92rcd13ifvqh4g","pricing_plan_id":"cebpf4jnsgd1na2vs0mg"},{"bike_id":"09c742b9-67aa-44f1-b833-7cf3d42021e8","system_id":"levelo_inurba_marseille","lat":43.25575,"lon":5.38228,"is_reserved":false,"is_disabled":false,"rental_uris":{"android":"levelo://app?vid=09c742b9-67aa-44f1-b833-7cf3d42021e8","ios":"levelo://app?vid=09c742b9-67aa-44f1-b833-7cf3d42021e8"},"vehicle_type_id":"4","last_reported":1729508935,"current_range_meters":32400,"station_id":"ce4bhih2rcd13ifvqfs0","pricing_plan_id":"cebpf4jnsgd1na2vs0mg"},{"bike_id":"7d9f68d9-9e53-425f-b33f-54d65f9fd05c","system_id":"levelo_inurba_marseille","lat":43.30781,"lon":5.37648,"is_reserved":false,"is_disabled":false,"rental_uris":{"android":"levelo://app?vid=7d9f68d9-9e53-425f-b33f-54d65f9fd05c","ios":"levelo://app?vid=7d9f68d9-9e53-425f-b33f-54d65f9fd05c"},"vehicle_type_id":"4","last_reported":1729508935,"current_range_meters":37600,"station_id":"","pricing_plan_id":"cebpf4jnsgd1na2vs0mg"},{"bike_id":"1e7d6989-8269-42fe-b2a9-d468131a3491","system_id":"levelo_inurba_marseille","lat":43.23154,"lon":5.43719,"is_reserved":false,"is_disabled":false,"rental_uris":{"android":"levelo://app?vid=1e7d6989-8269-42fe-b2a9-d468131a3491","ios":"levelo://app?vid=1e7d6989-8269-42fe-b2a9-d468131a3491"},"vehicle_type_id":"4","last_reported":1729508935,"current_range_meters":8000,"station_id":"ce4bhmp2rcd13ifvqgog","pricing_plan_id":"cebpf4jnsgd1na2vs0mg"},{"bike_id":"af4c151b-55ef-4585-bbbe-70ad47e8c7a1","system_id":"levelo_inurba_marseille","lat":43.241752,"lon":5.397332,"is_reserved":false,"is_disabled":false,"rental_uris":{"android":"levelo://app?vid=af4c151b-55ef-4585-bbbe-70ad47e8c7a1","ios":"levelo://app?vid=af4c151b-55ef-4585-bbbe-70ad47e8c7a1"},"vehicle_type_id":"4","last_reported":1729508935,"current_range_meters":15200,"station_id":"ce4bhn12rcd13ifvqgpg","pricing_plan_id":"cebpf4jnsgd1na2vs0mg"},{"bike_id":"5706087f-2d2b-42c9-bc56-4a666c64cf92","system_id":"levelo_inurba_marseille","lat":43.290771,"lon":5.371621,"is_reserved":false,"is_disabled":false,"rental_uris":{"android":"levelo://app?vid=5706087f-2d2b-42c9-bc56-4a666c64cf92","ios":"levelo://app?vid=5706087f-2d2b-42c9-bc56-4a666c64cf92"},"vehicle_type_id":"4","last_reported":1729508935,"current_range_meters":36000,"station_id":"ce4bh5p2rcd13ifvqe4g","pricing_plan_id":"cebpf4jnsgd1na2vs0mg"},{"bike_id":"88bbbf35-37d2-4710-a25d-0165b8f53608","system_id":"levelo_inurba_marseille","lat":43.30955,"lon":5.39036,"is_reserved":false,"is_disabled":false,"rental_uris":{"android":"levelo://app?vid=88bbbf35-37d2-4710-a25d-0165b8f53608","ios":"levelo://app?vid=88bbbf35-37d2-4710-a25d-0165b8f53608"},"vehicle_type_id":"4","last_reported":1729508935,"current_range_meters":35200,"station_id":"ce4bgup2rcd13ifvqco0","pricing_plan_id":"cebpf4jnsgd1na2vs0mg"},{"bike_id":"304e116c-22b7-4fec-8df3-5316f5ceb0f4","system_id":"levelo_inurba_marseille","lat":43.33725,"lon":5.39183,"is_reserved":false,"is_disabled":false,"rental_uris":{"android":"levelo://app?vid=304e116c-22b7-4fec-8df3-5316f5ceb0f4","ios":"levelo://app?vid=304e116c-22b7-4fec-8df3-5316f5ceb0f4"},"vehicle_type_id":"4","last_reported":1729508935,"current_range_meters":38800,"station_id":"ce4bhr92rcd13ifvqhsg","pricing_plan_id":"cebpf4jnsgd1na2vs0mg"},{"bike_id":"a2ff7b2b-5e26-41a9-9d00-30856d16ab12","system_id":"levelo_inurba_marseille","lat":43.29037,"lon":5.38643,"is_reserved":false,"is_disabled":false,"rental_uris":{"android":"levelo://app?vid=a2ff7b2b-5e26-41a9-9d00-30856d16ab12","ios":"levelo://app?vid=a2ff7b2b-5e26-41a9-9d00-30856d16ab12"},"vehicle_type_id":"4","last_reported":1729508935,"current_range_meters":20000,"station_id":"ce4bh4p2rcd13ifvqe0g","pricing_plan_id":"cebpf4jnsgd1na2vs0mg"},{"bike_id":"af5b0722-e55f-412a-8435-bc157de821bc","system_id":"levelo_inurba_marseille","lat":43.32543,"lon":5.41436,"is_reserved":false,"is_disabled":false,"rental_uris":{"android":"levelo://app?vid=af5b0722-e55f-412a-8435-bc157de821bc","ios":"levelo://app?vid=af5b0722-e55f-412a-8435-bc157de821bc"},"vehicle_type_id":"4","last_reported":1729508935,"current_range_meters":36400,"station_id":"ce4bhq12rcd13ifvqhhg","pricing_plan_id":"cebpf4jnsgd1na2vs0mg"},{"bike_id":"fcf1530e-1b44-41cc-9720-6cd1e7371ad7","system_id":"levelo_inurba_marseille","lat":43.29851,"lon":5.36281,"is_reserved":false,"is_disabled":false,"rental_uris":{"android":"levelo://app?vid=fcf1530e-1b44-41cc-9720-6cd1e7371ad7","ios":"levelo://app?vid=fcf1530e-1b44-41cc-9720-6cd1e7371ad7"},"vehicle_type_id":"4","last_reported":1729508935,"current_range_meters":36800,"station_id":"ce4bgpp2rcd13ifvqc3g","pricing_plan_id":"cebpf4jnsgd1na2vs0mg"},{"bike_id":"5c5a395b-461e-419a-8d5e-f7e399cdb6f5","system_id":"levelo_inurba_marseille","lat":43.27321,"lon":5.39094,"is_reserved":false,"is_disabled":false,"rental_uris":{"android":"levelo://app?vid=5c5a395b-461e-419a-8d5e-f7e399cdb6f5","ios":"levelo://app?vid=5c5a395b-461e-419a-8d5e-f7e399cdb6f5"},"vehicle_type_id":"4","last_reported":1729508935,"current_range_meters":26800,"station_id":"ce4bhgp2rcd13ifvqfe0","pricing_plan_id":"cebpf4jnsgd1na2vs0mg"},{"bike_id":"b36bdfe6-6451-4109-b361-4e043f1c7531","system_id":"levelo_inurba_marseille","lat":43.25582,"lon":5.38226,"is_reserved":false,"is_disabled":false,"rental_uris":{"android":"levelo://app?vid=b36bdfe6-6451-4109-b361-4e043f1c7531","ios":"levelo://app?vid=b36bdfe6-6451-4109-b361-4e043f1c7531"},"vehicle_type_id":"4","last_reported":1729508935,"current_range_meters":36400,"station_id":"ce4bhih2rcd13ifvqfs0","pricing_plan_id":"cebpf4jnsgd1na2vs0mg"},{"bike_id":"f1d0119e-3fe3-411c-ac9b-3f7a6a4fa987","system_id":"levelo_inurba_marseille","lat":43.33603,"lon":5.41024,"is_reserved":false,"is_disabled":false,"rental_uris":{"android":"levelo://app?vid=f1d0119e-3fe3-411c-ac9b-3f7a6a4fa987","ios":"levelo://app?vid=f1d0119e-3fe3-411c-ac9b-3f7a6a4fa987"},"vehicle_type_id":"4","last_reported":1729508935,"current_range_meters":38000,"station_id":"ce4bhqh2rcd13ifvqhmg","pricing_plan_id":"cebpf4jnsgd1na2vs0mg"},{"bike_id":"621f5b13-92ac-4b4b-91b5-93e732ced509","system_id":"levelo_inurba_marseille","lat":43.2958,"lon":5.36738,"is_reserved":false,"is_disabled":false,"rental_uris":{"android":"levelo://app?vid=621f5b13-92ac-4b4b-91b5-93e732ced509","ios":"levelo://app?vid=621f5b13-92ac-4b4b-91b5-93e732ced509"},"vehicle_type_id":"4","last_reported":1729508935,"current_range_meters":38000,"station_id":"ce4bgph2rcd13ifvqc2g","pricing_plan_id":"cebpf4jnsgd1na2vs0mg"},{"bike_id":"824c638a-8131-4fdb-8884-344416eb8cea","system_id":"levelo_inurba_marseille","lat":43.29107,"lon":5.38116,"is_reserved":false,"is_disabled":false,"rental_uris":{"android":"levelo://app?vid=824c638a-8131-4fdb-8884-344416eb8cea","ios":"levelo://app?vid=824c638a-8131-4fdb-8884-344416eb8cea"},"vehicle_type_id":"4","last_reported":1729508935,"current_range_meters":30800,"station_id":"ce4bh512rcd13ifvqe2g","pricing_plan_id":"cebpf4jnsgd1na2vs0mg"},{"bike_id":"83bc48ad-0cb9-4e6f-b2c3-e75476fc8958","system_id":"levelo_inurba_marseille","lat":43.28482,"lon":5.38565,"is_reserved":false,"is_disabled":false,"rental_uris":{"android":"levelo://app?vid=83bc48ad-0cb9-4e6f-b2c3-e75476fc8958","ios":"levelo://app?vid=83bc48ad-0cb9-4e6f-b2c3-e75476fc8958"},"vehicle_type_id":"4","last_reported":1729508935,"current_range_meters":18000,"station_id":"ce4bh8p2rcd13ifvqeb0","pricing_plan_id":"cebpf4jnsgd1na2vs0mg"},{"bike_id":"ca3273fa-d860-4b0d-9638-0d4a1dd4ebba","system_id":"levelo_inurba_marseille","lat":43.24547,"lon":5.39529,"is_reserved":false,"is_disabled":false,"rental_uris":{"android":"levelo://app?vid=ca3273fa-d860-4b0d-9638-0d4a1dd4ebba","ios":"levelo://app?vid=ca3273fa-d860-4b0d-9638-0d4a1dd4ebba"},"vehicle_type_id":"4","last_reported":1729508935,"current_range_meters":11600,"station_id":"ce4bhlp2rcd13ifvqgjg","pricing_plan_id":"cebpf4jnsgd1na2vs0mg"},{"bike_id":"4a48e2c6-4bc7-468e-8332-68301b7c0fb8","system_id":"levelo_inurba_marseille","lat":43.2984,"lon":5.36269,"is_reserved":false,"is_disabled":false,"rental_uris":{"android":"levelo://app?vid=4a48e2c6-4bc7-468e-8332-68301b7c0fb8","ios":"levelo://app?vid=4a48e2c6-4bc7-468e-8332-68301b7c0fb8"},"vehicle_type_id":"4","last_reported":1729508935,"current_range_meters":38800,"station_id":"ce4bgpp2rcd13ifvqc3g","pricing_plan_id":"cebpf4jnsgd1na2vs0mg"},{"bike_id":"ce9ecacf-8e93-4787-a904-a7e38f42be39","system_id":"levelo_inurba_marseille","lat":43.25116,"lon":5.40316,"is_reserved":false,"is_disabled":false,"rental_uris":{"android":"levelo://app?vid=ce9ecacf-8e93-4787-a904-a7e38f42be39","ios":"levelo://app?vid=ce9ecacf-8e93-4787-a904-a7e38f42be39"},"vehicle_type_id":"4","last_reported":1729508935,"current_range_meters":20000,"station_id":"ce4bhlh2rcd13ifvqgig","pricing_plan_id":"cebpf4jnsgd1na2vs0mg"},{"bike_id":"9fddaaf4-e52e-4819-9f69-997350a168e9","system_id":"levelo_inurba_marseille","lat":43.31265,"lon":5.40178,"is_reserved":false,"is_disabled":false,"rental_uris":{"android":"levelo://app?vid=9fddaaf4-e52e-4819-9f69-997350a168e9","ios":"levelo://app?vid=9fddaaf4-e52e-4819-9f69-997350a168e9"},"vehicle_type_id":"4","last_reported":1729508935,"current_range_meters":9200,"station_id":"ce4bh092rcd13ifvqd30","pricing_plan_id":"cebpf4jnsgd1na2vs0mg"},{"bike_id":"ec410b17-864e-49b1-89fa-4c6d52662be9","system_id":"levelo_inurba_marseille","lat":43.30537,"lon":5.36703,"is_reserved":false,"is_disabled":false,"rental_uris":{"android":"levelo://app?vid=ec410b17-864e-49b1-89fa-4c6d52662be9","ios":"levelo://app?vid=ec410b17-864e-49b1-89fa-4c6d52662be9"},"vehicle_type_id":"4","last_reported":1729508935,"current_range_meters":38800,"station_id":"ce4bgrp2rcd13ifvqc9g","pricing_plan_id":"cebpf4jnsgd1na2vs0mg"},{"bike_id":"056484fe-5a6c-4f7d-86b8-9b977e1e6184","system_id":"levelo_inurba_marseille","lat":43.29552,"lon":5.42285,"is_reserved":false,"is_disabled":false,"rental_uris":{"android":"levelo://app?vid=056484fe-5a6c-4f7d-86b8-9b977e1e6184","ios":"levelo://app?vid=056484fe-5a6c-4f7d-86b8-9b977e1e6184"},"vehicle_type_id":"4","last_reported":1729508935,"current_range_meters":39200,"station_id":"ce4bhph2rcd13ifvqhdg","pricing_plan_id":"cebpf4jnsgd1na2vs0mg"},{"bike_id":"35c7f996-cdf4-4d84-871e-bac46979876e","system_id":"levelo_inurba_marseille","lat":43.30553,"lon":5.36525,"is_reserved":false,"is_disabled":false,"rental_uris":{"android":"levelo://app?vid=35c7f996-cdf4-4d84-871e-bac46979876e","ios":"levelo://app?vid=35c7f996-cdf4-4d84-871e-bac46979876e"},"vehicle_type_id":"4","last_reported":1729508935,"current_range_meters":38400,"station_id":"ce4bgs12rcd13ifvqcag","pricing_plan_id":"cebpf4jnsgd1na2vs0mg"},{"bike_id":"be7101ff-0b4e-48fd-9365-13eca7a70c93","system_id":"levelo_inurba_marseille","lat":43.34144,"lon":5.40903,"is_reserved":false,"is_disabled":false,"rental_uris":{"android":"levelo://app?vid=be7101ff-0b4e-48fd-9365-13eca7a70c93","ios":"levelo://app?vid=be7101ff-0b4e-48fd-9365-13eca7a70c93"},"vehicle_type_id":"4","last_reported":1729508935,"current_range_meters":38800,"station_id":"ce4bhqh2rcd13ifvqhlg","pricing_plan_id":"cebpf4jnsgd1na2vs0mg"},{"bike_id":"959fcc76-507b-4e6d-b589-55b223d88c24","system_id":"levelo_inurba_marseille","lat":43.32538,"lon":5.41438,"is_reserved":false,"is_disabled":false,"rental_uris":{"android":"levelo://app?vid=959fcc76-507b-4e6d-b589-55b223d88c24","ios":"levelo://app?vid=959fcc76-507b-4e6d-b589-55b223d88c24"},"vehicle_type_id":"4","last_reported":1729508935,"current_range_meters":3600,"station_id":"ce4bhq12rcd13ifvqhhg","pricing_plan_id":"cebpf4jnsgd1na2vs0mg"},{"bike_id":"7a4e6c1d-b82d-402a-bd61-7c9db91ecc60","system_id":"levelo_inurba_marseille","lat":43.29923,"lon":5.37471,"is_reserved":false,"is_disabled":false,"rental_uris":{"android":"levelo://app?vid=7a4e6c1d-b82d-402a-bd61-7c9db91ecc60","ios":"levelo://app?vid=7a4e6c1d-b82d-402a-bd61-7c9db91ecc60"},"vehicle_type_id":"4","last_reported":1729508935,"current_range_meters":31200,"station_id":"ce4bgjh2rcd13ifvqbg0","pricing_plan_id":"cebpf4jnsgd1na2vs0mg"},