{"last_updated":1784245737,"ttl":60,"version":"2.2","data":{"bikes":[{"bike_id":"ba0c28b1-8732-48e2-8079-f25b2b3fbc3c","system_id":"levelo_inurba_marseille","lat":43.337444,"lon":5.374475,"is_reserved":false,"is_disabled":false,"rental_uris":{"android":"levelo://app?vid=ba0c28b1-8732-48e2-8079-f25b2b3fbc3c","ios":"levelo://app?vid=ba0c28b1-8732-48e2-8079-f25b2b3fbc3c"},"vehicle_type_id":"4","last_reported":1784245738,"current_range_meters":0,"station_id":"","pricing_plan_id":"cebpf4jnsgd1na2vs0mg"},{"bike_id":"06be68d1-d154-4017-ac64-8ba40ff837b3","system_id":"levelo_inurba_marseille","lat":43.3132,"lon":5.39682,"is_reserved":false,"is_disabled":false,"rental_uris":{"android":"levelo://app?vid=06be68d1-d154-4017-ac64-8ba40ff837b3","ios":"levelo://app?vid=06be68d1-d154-4017-ac64-8ba40ff837b3"},"vehicle_type_id":"4","last_reported":1784245738,"current_range_meters":38800,"station_id":"ce4bgvp2rcd13ifvqcu0","pricing_plan_id":"cebpf4jnsgd1na2vs0mg"},{"bike_id":"7e0734e9-3f12-4f45-acaa-b4495153c621","system_id":"levelo_inurba_marseille","lat":43.26384,"lon":5.4107,"is_reserved":false,"is_disabled":false,"rental_uris":{"android":"levelo://app?vid=7e0734e9-3f12-4f45-acaa-b4495153c621","ios":"levelo://app?vid=7e0734e9-3f12-4f45-acaa-b4495153c621"},"vehicle_type_id":"4","last_reported":1784245738,"current_range_meters":39200,"station_id":"st_d4e5ca6na9uc73bfl5fg","pricing_plan_id":"cebpf4jnsgd1na2vs0mg"},{"bike_id":"91e44ead-433c-4788-aa52-7f232544dce5","system_id":"levelo_inurba_marseille","lat":43.23897,"lon":5.37466,"is_reserved":false,"is_disabled":false,"rental_uris":{"android":"levelo://app?vid=91e44ead-433c-4788-aa52-7f232544dce5","ios":"levelo://app?vid=91e44ead-433c-4788-aa52-7f232544dce5"},"vehicle_type_id":"4","last_reported":1784245738,"current_range_meters":38000,"station_id":"st_d6sm7csbq4hs73f8fpjg","pricing_plan_id":"cebpf4jnsgd1na2vs0mg"},{"bike_id":"76b63993-96f7-484a-8343-5ea3ca2d69bf","system_id":"levelo_inurba_marseille","lat":43.27461,"lon":5.36152,"is_reserved":false,"is_disabled":false,"rental_uris":{"android":"levelo://app?vid=76b63993-96f7-484a-8343-5ea3ca2d69bf","ios":"levelo://app?vid=76b63993-96f7-484a-8343-5ea3ca2d69bf"},"vehicle_type_id":"4","last_reported":1784245738,"current_range_meters":30400,"station_id":"","pricing_plan_id":"cebpf4jnsgd1na2vs0mg"},{"bike_id":"e61c0aeb-af28-4aa9-a0f6-f584f3c400aa","system_id":"levelo_inurba_marseille","lat":43.2623,"lon":5.40464,"is_reserved":false,"is_disabled":false,"rental_uris":{"android":"levelo://app?vid=e61c0aeb-af28-4aa9-a0f6-f584f3c400aa","ios":"levelo://app?vid=e61c0aeb-af28-4aa9-a0f6-f584f3c400aa"},"vehicle_type_id":"4","last_reported":1784245738,"current_range_meters":15200,"station_id":"ce4bhmh2rcd13ifvqgmg","pricing_plan_id":"cebpf4jnsgd1na2vs0mg"},{"bike_id":"a0437164-419a-4e09-9676-85c512958c75","system_id":"levelo_inurba_marseille","lat":43.2407,"lon":5.37753,"is_reserved":false,"is_disabled":false,"rental_uris":{"android":"levelo://app?vid=a0437164-419a-4e09-9676-85c512958c75","ios":"levelo://app?vid=a0437164-419a-4e09-9676-85c512958c75"},"vehicle_type_id":"4","last_reported":1784245738,"current_range_meters":32000,"station_id":"ce4bhnp2rcd13ifvqgvg","pricing_plan_id":"cebpf4jnsgd1na2vs0mg"},{"bike_id":"21e7d0fc-8e03-40d4-ae82-3487485d82d5","system_id":"levelo_inurba_marseille","lat":43.30799,"lon":5.38179,"is_reserved":false,"is_disabled":false,"rental_uris":{"android":"levelo://app?vid=21e7d0fc-8e03-40d4-ae82-3487485d82d5","ios":"levelo://app?vid=21e7d0fc-8e03-40d4-ae82-3487485d82d5"},"vehicle_type_id":"4","last_reported":1784245738,"current_range_meters":11600,"station_id":"ce4bgt12rcd13ifvqce0","pricing_plan_id":"cebpf4jnsgd1na2vs0mg"},{"bike_id":"1f9d573d-4a28-4bb4-b7f8-f4bd60661fe2","system_id":"levelo_inurba_marseille","lat":43.29182,"lon":5.39351,"is_reserved":false,"is_disabled":false,"rental_uris":{"android":"levelo://app?vid=1f9d573d-4a28-4bb4-b7f8-f4bd60661fe2","ios":"levelo://app?vid=1f9d573d-4a28-4bb4-b7f8-f4bd60661fe2"},"vehicle_type_id":"4","last_reported":1784245738,"current_range_meters":16400,"station_id":"","pricing_plan_id":"cebpf4jnsgd1na2vs0mg"},{"bike_id":"93f62aaf-97ab-422a-99e3-4c99e240ad11","system_id":"levelo_inurba_marseille","lat":43.26531,"lon":5.39043,"is_reserved":false,"is_disabled":true,"rental_uris":{"android":"levelo://app?vid=93f62aaf-97ab-422a-99e3-4c99e240ad11","ios":"levelo://app?vid=93f62aaf-97ab-422a-99e3-4c99e240ad11"},"vehicle_type_id":"4","last_reported":1784245738,"current_range_meters":36800,"station_id":"ce4bhe12rcd13ifvqf30","pricing_plan_id":"cebpf4jnsgd1na2vs0mg"},{"bike_id":"440d842b-b3d9-4918-bd20-80a0b435238e","system_id":"levelo_inurba_marseille","lat":43.29453,"lon":5.39752,"is_reserved":false,"is_disabled":false,"rental_uris":{"android":"levelo://app?vid=440d842b-b3d9-4918-bd20-80a0b435238e","ios":"levelo://app?vid=440d842b-b3d9-4918-bd20-80a0b435238e"},"vehicle_type_id":"4","last_reported":1784245738,"current_range_meters":9600,"station_id":"ce4bh3h2rcd13ifvqdo0","pricing_plan_id":"cebpf4jnsgd1na2vs0mg"},{"bike_id":"db8bd5d3-bb99-4688-8de3-0b156a227ffe","system_id":"levelo_inurba_marseille","lat":43.29928,"lon":5.37451,"is_reserved":false,"is_disabled":true,"rental_uris":{"android":"levelo://app?vid=db8bd5d3-bb99-4688-8de3-0b156a227ffe","ios":"levelo://app?vid=db8bd5d3-bb99-4688-8de3-0b156a227ffe"},"vehicle_type_id":"4","last_reported":1784245738,"current_range_meters":11600,"station_id":"ce4bgjh2rcd13ifvqbg0","pricing_plan_id":"cebpf4jnsgd1na2vs0mg"},{"bike_id":"d749523d-f93c-49d0-8009-b305dd6d3874","system_id":"levelo_inurba_marseille","lat":43.2509,"lon":5.39532,"is_reserved":false,"is_disabled":false,"rental_uris":{"android":"levelo://app?vid=d749523d-f93c-49d0-8009-b305dd6d3874","ios":"levelo://app?vid=d749523d-f93c-49d0-8009-b305dd6d3874"},"vehicle_type_id":"4","last_reported":1784245738,"current_range_meters":24000,"station_id":"ce4bhm12rcd13ifvqgkg","pricing_plan_id":"cebpf4jnsgd1na2vs0mg"},{"bike_id":"96849611-00d5-4884-b0dc-e03df79fa9c3","system_id":"levelo_inurba_marseille","lat":43.24387,"lon":5.37075,"is_reserved":false,"is_disabled":false,"rental_uris":{"android":"levelo://app?vid=96849611-00d5-4884-b0dc-e03df79fa9c3","ios":"levelo://app?vid=96849611-00d5-4884-b0dc-e03df79fa9c3"},"vehicle_type_id":"4","last_reported":1784245738,"current_range_meters":16800,"station_id":"ce4bhhh2rcd13ifvqfk0","pricing_plan_id":"cebpf4jnsgd1na2vs0mg"},{"bike_id":"e71494cd-d4a8-436a-a5c6-260a2924500e","system_id":"levelo_inurba_marseille","lat":43.26234,"lon":5.38769,"is_reserved":false,"is_disabled":true,"rental_uris":{"android":"levelo://app?vid=e71494cd-d4a8-436a-a5c6-260a2924500e","ios":"levelo://app?vid=e71494cd-d4a8-436a-a5c6-260a2924500e"},"vehicle_type_id":"4","last_reported":1784245738,"current_range_meters":33200,"station_id":"st_d8gjfg747rts73coq3b0","pricing_plan_id":"cebpf4jnsgd1na2vs0mg"},{"bike_id":"4dd83e35-73dd-44b8-9d3c-9c21e3418d4e","system_id":"levelo_inurba_marseille","lat":43.27468,"lon":5.42554,"is_reserved":false,"is_disabled":false,"rental_uris":{"android":"levelo://app?vid=4dd83e35-73dd-44b8-9d3c-9c21e3418d4e","ios":"levelo://app?vid=4dd83e35-73dd-44b8-9d3c-9c21e3418d4e"},"vehicle_type_id":"4","last_reported":1784245738,"current_range_meters":16800,"station_id":"st_d8t4bh7nbrqs73arha60","pricing_plan_id":"cebpf4jnsgd1na2vs0mg"},{"bike_id":"013ea336-d828-44ac-a5f7-5f3385c8a12f","system_id":"levelo_inurba_marseille","lat":43.29216,"lon":5.38425,"is_reserved":false,"is_disabled":false,"rental_uris":{"android":"levelo://app?vid=013ea336-d828-44ac-a5f7-5f3385c8a12f","ios":"levelo://app?vid=013ea336-d828-44ac-a5f7-5f3385c8a12f"},"vehicle_type_id":"4","last_reported":1784245738,"current_range_meters":11200,"station_id":"","pricing_plan_id":"cebpf4jnsgd1na2vs0mg"},{"bike_id":"be8bbbaa-6f67-4276-9ad1-5f97e8153ed0","system_id":"levelo_inurba_marseille","lat":43.248,"lon":5.3745,"is_reserved":false,"is_disabled":false,"rental_uris":{"android":"levelo://app?vid=be8bbbaa-6f67-4276-9ad1-5f97e8153ed0","ios":"levelo://app?vid=be8bbbaa-6f67-4276-9ad1-5f97e8153ed0"},"vehicle_type_id":"4","last_reported":1784245738,"current_range_meters":28000,"station_id":"ce4bhgh2rcd13ifvqfb0","pricing_plan_id":"cebpf4jnsgd1na2vs0mg"},{"bike_id":"5369b032-dcc5-484a-9b18-671fceb20e9f","system_id":"levelo_inurba_marseille","lat":43.25005,"lon":5.38925,"is_reserved":false,"is_disabled":false,"rental_uris":{"android":"levelo://app?vid=5369b032-dcc5-484a-9b18-671fceb20e9f","ios":"levelo://app?vid=5369b032-dcc5-484a-9b18-671fceb20e9f"},"vehicle_type_id":"4","last_reported":1784245738,"current_range_meters":23200,"station_id":"ce4bhgp2rcd13ifvqfd0","pricing_plan_id":"cebpf4jnsgd1na2vs0mg"},{"bike_id":"c9414f15-0e25-4b03-905a-aa80e6e492aa","system_id":"levelo_inurba_marseille","lat":43.30944,"lon":5.40143,"is_reserved":false,"is_disabled":false,"rental_uris":{"android":"levelo://app?vid=c9414f15-0e25-4b03-905a-aa80e6e492aa","ios":"levelo://app?vid=c9414f15-0e25-4b03-905a-aa80e6e492aa"},"vehicle_type_id":"4","last_reported":1784245738,"current_range_meters":10000,"station_id":"ce4bgvp2rcd13ifvqct0","pricing_plan_id":"cebpf4jnsgd1na2vs0mg"},{"bike_id":"daf11da9-09e4-45d4-814b-e16971bc59a4","system_id":"levelo_inurba_marseille","lat":43.27973,"lon":5.38695,"is_reserved":false,"is_disabled":true,"rental_uris":{"android":"levelo://app?vid=daf11da9-09e4-45d4-814b-e16971bc59a4","ios":"levelo://app?vid=daf11da9-09e4-45d4-814b-e16971bc59a4"},"vehicle_type_id":"4","last_reported":1784245738,"current_range_meters":28400,"station_id":"ce4bhg12rcd13ifvqf80","pricing_plan_id":"cebpf4jnsgd1na2vs0mg"},{"bike_id":"989ddb64-e616-4f87-a305-bd08f1c95b6a","system_id":"levelo_inurba_marseille","lat":43.2856,"lon":5.39484,"is_reserved":false,"is_disabled":false,"rental_uris":{"android":"levelo://app?vid=989ddb64-e616-4f87-a305-bd08f1c95b6a","ios":"levelo://app?vid=989ddb64-e616-4f87-a305-bd08f1c95b6a"},"vehicle_type_id":"4","last_reported":1784245738,"current_range_meters":36400,"station_id":"ce4bh292rcd13ifvqdg0","pricing_plan_id":"cebpf4jnsgd1na2vs0mg"},{"bike_id":"6f681dcb-ee4c-458d-aac3-7caa1c6605da","system_id":"levelo_inurba_marseille","lat":43.26483,"lon":5.39557,"is_reserved":false,"is_disabled":false,"rental_uris":{"android":"levelo://app?vid=6f681dcb-ee4c-458d-aac3-7caa1c6605da","ios":"levelo://app?vid=6f681dcb-ee4c-458d-aac3-7caa1c6605da"},"vehicle_type_id":"4","last_reported":1784245738,"current_range_meters":23200,"station_id":"ce4bhi12rcd13ifvqfq0","pricing_plan_id":"cebpf4jnsgd1na2vs0mg"},{"bike_id":"fd5332a3-4b08-4896-9051-60acc76b5a70","system_id":"levelo_inurba_marseille","lat":43.29472,"lon":5.38668,"is_reserved":false,"is_disabled":false,"rental_uris":{"android":"levelo://app?vid=fd5332a3-4b08-4896-9051-60acc76b5a70","ios":"levelo://app?vid=fd5332a3-4b08-4896-9051-60acc76b5a70"},"vehicle_type_id":"4","last_reported":1784245738,"current_range_meters":16400,"station_id":"","pricing_plan_id":"cebpf4jnsgd1na2vs0mg"},{"bike_id":"25eef984-50da-4a17-b2d3-69c3cc9ed414","system_id":"levelo_inurba_marseille","lat":43.311151,"lon":5.377718,"is_reserved":false,"is_disabled":false,"rental_uris":{"android":"levelo://app?vid=25eef984-50da-4a17-b2d3-69c3cc9ed414","ios":"levelo://app?vid=25eef984-50da-4a17-b2d3-69c3cc9ed414"},"vehicle_type_id":"4","last_reported":1784245738,"current_range_meters":33600,"station_id":"ce4bgt92rcd13ifvqcg0","pricing_plan_id":"cebpf4jnsgd1na2vs0mg"},{"bike_id":"ea3e03c4-4dd6-4479-b8b4-8fd80bfdda8e","system_id":"levelo_inurba_marseille","lat":43.27061,"lon":5.38309,"is_reserved":false,"is_disabled":false,"rental_uris":{"android":"levelo://app?vid=ea3e03c4-4dd6-4479-b8b4-8fd80bfdda8e","ios":"levelo://app?vid=ea3e03c4-4dd6-4479-b8b4-8fd80bfdda8e"},"vehicle_type_id":"4","last_reported":1784245738,"current_range_meters":38400,"station_id":"st_d3n2fo6cfp8s73cte1j0","pricing_plan_id":"cebpf4jnsgd1na2vs0mg"},{"bike_id":"7c61336b-8587-42a6-a24c-0c28365462b0","system_id":"levelo_inurba_marseille","lat":43.28375,"lon":5.38112,"is_reserved":false,"is_disabled":false,"rental_uris":{"android":"levelo://app?vid=7c61336b-8587-42a6-a24c-0c28365462b0","ios":"levelo://app?vid=7c61336b-8587-42a6-a24c-0c28365462b0"},"vehicle_type_id":"4","last_reported":1784245738,"current_range_meters":38400,"station_id":"ce4bh412rcd13ifvqdr0","pricing_plan_id":"cebpf4jnsgd1na2vs0mg"},{"bike_id":"8c691d7a-4d6a-44b5-9ca9-8ad0c4f58584","system_id":"levelo_inurba_marseille","lat":43.27215,"lon":5.40998,"is_reserved":false,"is_disabled":false,"rental_uris":{"android":"levelo://app?vid=8c691d7a-4d6a-44b5-9ca9-8ad0c4f58584","ios":"levelo://app?vid=8c691d7a-4d6a-44b5-9ca9-8ad0c4f58584"},"vehicle_type_id":"4","last_reported":1784245738,"current_range_meters":19200,"station_id":"ce4bhl12rcd13ifvqgf0","pricing_plan_id":"cebpf4jnsgd1na2vs0mg"},{"bike_id":"41fb20d3-d896-457e-8cad-f5756248e0f0","system_id":"levelo_inurba_marseille","lat":43.28004,"lon":5.38257,"is_reserved":false,"is_disabled":false,"rental_uris":{"android":"levelo://app?vid=41fb20d3-d896-457e-8cad-f5756248e0f0","ios":"levelo://app?vid=41fb20d3-d896-457e-8cad-f5756248e0f0"},"vehicle_type_id":"4","last_reported":1784245738,"current_range_meters":33600,"station_id":"","pricing_plan_id":"cebpf4jnsgd1na2vs0mg"},{"bike_id":"508a38b7-cb09-4051-819b-6ddfe0f50522","system_id":"levelo_inurba_marseille","lat":43.30575,"lon":5.37235,"is_reserved":false,"is_disabled":false,"rental_uris":{"android":"levelo://app?vid=508a38b7-cb09-4051-819b-6ddfe0f50522","ios":"levelo://app?vid=508a38b7-cb09-4051-819b-6ddfe0f50522"},"vehicle_type_id":"4","last_reported":1784245738,"current_range_meters":32400,"station_id":"ce4bgqh2rcd13ifvqc4g","pricing_plan_id":"cebpf4jnsgd1na2vs0mg"},{"bike_id":"e4064152-b01a-460a-934b-4b0ab157c51c","system_id":"levelo_inurba_marseille","lat":43.23033,"lon":5.35526,"is_reserved":false,"is_disabled":false,"rental_uris":{"android":"levelo://app?vid=e4064152-b01a-460a-934b-4b0ab157c51c","ios":"levelo://app?vid=e4064152-b01a-460a-934b-4b0ab157c51c"},"vehicle_type_id":"4","last_reported":1784245738,"current_range_meters":10000,"station_id":"cpo3342slgdg3j2ifvpg","pricing_plan_id":"cebpf4jnsgd1na2vs0mg"},{"bike_id":"4d103531-dc76-4632-9ed6-3b8eae789ecc","system_id":"levelo_inurba_marseille","lat":43.3211,"lon":5.36781,"is_reserved":false,"is_disabled":false,"rental_uris":{"android":"levelo://app?vid=4d103531-dc76-4632-9ed6-3b8eae789ecc","ios":"levelo://app?vid=4d103531-dc76-4632-9ed6-3b8eae789ecc"},"vehicle_type_id":"4","last_reported":1784245738,"current_range_meters":16800,"station_id":"ce4bhrh2rcd13ifvqhug","pricing_plan_id":"cebpf4jnsgd1na2vs0mg"},{"bike_id":"f7264d59-ce3e-4e18-a6ed-eb8563363ee8","system_id":"levelo_inurba_marseille","lat":43.30421,"lon":5.39753,"is_reserved":false,"is_disabled":false,"rental_uris":{"android":"levelo://app?vid=f7264d59-ce3e-4e18-a6ed-eb8563363ee8","ios":"levelo://app?vid=f7264d59-ce3e-4e18-a6ed-eb8563363ee8"},"vehicle_type_id":"4","last_reported":1784245738,"current_range_meters":30000,"station_id":"ce4bh092rcd13ifvqd20","pricing_plan_id":"cebpf4jnsgd1na2vs0mg"},{"bike_id":"ef6880d0-6944-4f6a-8f40-6662368b8f75","system_id":"levelo_inurba_marseille","lat":43.31461,"lon":5.45408,"is_reserved":false,"is_disabled":false,"rental_uris":{"android":"levelo://app?vid=ef6880d0-6944-4f6a-8f40-6662368b8f75","ios":"levelo://app?vid=ef6880d0-6944-4f6a-8f40-6662368b8f75"},"vehicle_type_id":"4","last_reported":1784245738,"current_range_meters":16400,"station_id":"","pricing_plan_id":"cebpf4jnsgd1na2vs0mg"},{"bike_id":"4e2d5fd3-5034-4336-b99f-b5d15f7f224c","system_id":"levelo_inurba_marseille","lat":43.2893,"lon":5.36641,"is_reserved":false,"is_disabled":false,"rental_uris":{"android":"levelo://app?vid=4e2d5fd3-5034-4336-b99f-b5d15f7f224c","ios":"levelo://app?vid=4e2d5fd3-5034-4336-b99f-b5d15f7f224c"},"vehicle_type_id":"4","last_reported":1784245738,"current_range_meters":38400,"station_id":"ce4bhap2rcd13ifvqek0","pricing_plan_id":"cebpf4jnsgd1na2vs0mg"},{"bike_id":"34760a6e-66ee-4b33-a4dc-da3cc59fca09","system_id":"levelo_inurba_marseille","lat":43.29191,"lon":5.39335,"is_reserved":false,"is_disabled":false,"rental_uris":{"android":"levelo://app?vid=34760a6e-66ee-4b33-a4dc-da3cc59fca09","ios":"levelo://app?vid=34760a6e-66ee-4b33-a4dc-da3cc59fca09"},"vehicle_type_id":"4","last_reported":1784245738,"current_range_meters":8000,"station_id":"ce4bh192rcd13ifvqdd0","pricing_plan_id":"cebpf4jnsgd1na2vs0mg"},{"bike_id":"a7046d25-98a0-470a-a205-da0b548d272d","system_id":"levelo_inurba_marseille","lat":43.28085,"lon":5.35234,"is_reserved":false,"is_disabled":false,"rental_uris":{"android":"levelo://app?vid=a7046d25-98a0-470a-a205-da0b548d272d","ios":"levelo://app?vid=a7046d25-98a0-470a-a205-da0b548d272d"},"vehicle_type_id":"4","last_reported":1784245738,"current_range_meters":19200,"station_id":"","pricing_plan_id":"cebpf4jnsgd1na2vs0mg"},{"bike_id":"0a40ae01-64b0-4659-b079-6398000f3eb2","system_id":"levelo_inurba_marseille","lat":43.306,"lon":5.39362,"is_reserved":false,"is_disabled":false,"rental_uris":{"android":"levelo://app?vid=0a40ae01-64b0-4659-b079-6398000f3eb2","ios":"levelo://app?vid=0a40ae01-64b0-4659-b079-6398000f3eb2"},"vehicle_type_id":"4","last_reported":1784245738,"current_range_meters":39200,"station_id":"ce4bh0p2rcd13ifvqd80","pricing_plan_id":"cebpf4jnsgd1na2vs0mg"},{"bike_id":"dc2c2cc0-3946-4b69-b597-58de491acd68","system_id":"levelo_inurba_marseille","lat":43.28853,"lon":5.39292,"is_reserved":false,"is_disabled":false,"rental_uris":{"android":"levelo://app?vid=dc2c2cc0-3946-4b69-b597-58de491acd68","ios":"levelo://app?vid=dc2c2cc0-3946-4b69-b597-58de491acd68"},"vehicle_type_id":"4","last_reported":1784245738,"current_range_meters":12800,"station_id":"ce4bh2p2rcd13ifvqdi0","pricing_plan_id":"cebpf4jnsgd1na2vs0mg"},{"bike_id":"d183c213-4177-4bf2-b9e0-24872be8a9c8","system_id":"levelo_inurba_marseille","lat":43.28487,"lon":5.4839,"is_reserved":false,"is_disabled":false,"rental_uris":{"android":"levelo://app?vid=d183c213-4177-4bf2-b9e0-24872be8a9c8","ios":"levelo://app?vid=d183c213-4177-4bf2-b9e0-24872be8a9c8"},"vehicle_type_id":"4","last_reported":1784245738,"current_range_meters":22800,"station_id":"st_d3svhcjqgbts73a3dn0g","pricing_plan_id":"cebpf4jnsgd1na2vs0mg"},{"bike_id":"9bccb3fe-68f6-4fb2-9450-7f024dfaa074","system_id":"levelo_inurba_marseille","lat":43.30634,"lon":5.40065,"is_reserved":false,"is_disabled":false,"rental_uris":{"android":"levelo://app?vid=9bccb3fe-68f6-4fb2-9450-7f024dfaa074","ios":"levelo://app?vid=9bccb3fe-68f6-4fb2-9450-7f024dfaa074"},"vehicle_type_id":"4","last_reported":1784245738,"current_range_meters":30000,"station_id":"ce4bh112rcd13ifvqda0","pricing_plan_id":"cebpf4jnsgd1na2vs0mg"},{"bike_id":"40223663-4f15-40e6-96ef-3d3eca68d755","system_id":"levelo_inurba_marseille","lat":43.28563,"lon":5.39504,"is_reserved":false,"is_disabled":false,"rental_uris":{"android":"levelo://app?vid=40223663-4f15-40e6-96ef-3d3eca68d755","ios":"levelo://app?vid=40223663-4f15-40e6-96ef-3d3eca68d755"},"vehicle_type_id":"4","last_reported":1784245738,"current_range_meters":17200,"station_id":"ce4bh292rcd13ifvqdg0","pricing_plan_id":"cebpf4jnsgd1na2vs0mg"},{"bike_id":"77f0b611-8e54-40ee-804a-9a0ef852a88a","system_id":"levelo_inurba_marseille","lat":43.31208,"lon":5.36873,"is_reserved":false,"is_disabled":true,"rental_uris":{"android":"levelo://app?vid=77f0b611-8e54-40ee-804a-9a0ef852a88a","ios":"levelo://app?vid=77f0b611-8e54-40ee-804a-9a0ef852a88a"},"vehicle_type_id":"4","last_reported":1784245738,"current_range_meters":19200,"station_id":"ce4bgl92rcd13ifvqbq0","pricing_plan_id":"cebpf4jnsgd1na2vs0mg"},{"bike_id":"c02fae68-b830-49c5-a95d-7df80e01f2ab","system_id":"levelo_inurba_marseille","lat":43.30352,"lon":5.41486,"is_reserved":false,"is_disabled":false,"rental_uris":{"android":"levelo://app?vid=c02fae68-b830-49c5-a95d-7df80e01f2ab","ios":"levelo://app?vid=c02fae68-b830-49c5-a95d-7df80e01f2ab"},"vehicle_type_id":"4","last_reported":1784245738,"current_range_meters":20400,"station_id":"","pricing_plan_id":"cebpf4jnsgd1na2vs0mg"},{"bike_id":"d539bf4d-cb1c-4e7e-8162-9fcef57a6b1c","system_id":"levelo_inurba_marseille","lat":43.30812,"lon":5.37652,"is_reserved":false,"is_disabled":false,"rental_uris":{"android":"levelo://app?vid=d539bf4d-cb1c-4e7e-8162-9fcef57a6b1c","ios":"levelo://app?vid=d539bf4d-cb1c-4e7e-8162-9fcef57a6b1c"},"vehicle_type_id":"4","last_reported":1784245738,"current_range_meters":38800,"station_id":"ce4bgv92rcd13ifvqcq0","pricing_plan_id":"cebpf4jnsgd1na2vs0mg"},{"bike_id":"e4e2da61-31a3-435a-b1ec-9bb834559f2e","system_id":"levelo_inurba_marseille","lat":43.25011,"lon":5.38931,"is_reserved":false,"is_disabled":false,"rental_uris":{"android":"levelo://app?vid=e4e2da61-31a3-435a-b1ec-9bb834559f2e","ios":"levelo://app?vid=e4e2da61-31a3-435a-b1ec-9bb834559f2e"},"vehicle_type_id":"4","last_reported":1784245738,"current_range_meters":32400,"station_id":"ce4bhgp2rcd13ifvqfd0","pricing_plan_id":"cebpf4jnsgd1na2vs0mg"},{"bike_id":"d5285a14-cc8e-4fa1-8a28-59e368440eff","system_id":"levelo_inurba_marseille","lat":43.27506,"lon":5.41606,"is_reserved":false,"is_disabled":false,"rental_uris":{"android":"levelo://app?vid=d5285a14-cc8e-4fa1-8a28-59e368440eff","ios":"levelo://app?vid=d5285a14-cc8e-4fa1-8a28-59e368440eff"},"vehicle_type_id":"4","last_reported":1784245738,"current_range_meters":27200,"station_id":"st_d6im8g6chgec73a5pndg","pricing_plan_id":"cebpf4jnsgd1na2vs0mg"},{"bike_id":"392401b7-b71c-4b9e-97c7-aae6d6fc6d08","system_id":"levelo_inurba_marseille","lat":43.30446,"lon":5.38878,"is_reserved":false,"is_disabled":false,"rental_uris":{"android":"levelo://app?vid=392401b7-b71c-4b9e-97c7-aae6d6fc6d08","ios":"levelo://app?vid=392401b7-b71c-4b9e-97c7-aae6d6fc6d08"},"vehicle_type_id":"4","last_reported":1784245738,"current_range_meters":39200,"station_id":"ce4bgk12rcd13ifvqbi0","pricing_plan_id":"cebpf4jnsgd1na2vs0mg"},{"bike_id":"e0c7065e-7f74-4b06-ae7b-f933c635df87","system_id":"levelo_inurba_marseille","lat":43.29558,"lon":5.42273,"is_reserved":false,"is_disabled":false,"rental_uris":{"android":"levelo://app?vid=e0c7065e-7f74-4b06-ae7b-f933c635df87","ios":"levelo://app?vid=e0c7065e-7f74-4b06-ae7b-f933c635df87"},"vehicle_type_id":"4","last_reported":1784245738,"current_range_meters":38800,"station_id":"ce4bhph2rcd13ifvqhdg","pricing_plan_id":"cebpf4jnsgd1na2vs0mg"},{"bike_id":"3d9d15ce-5804-4209-b92a-723f598d0341","system_id":"levelo_inurba_marseille","lat":43.212,"lon":5.35071,"is_reserved":false,"is_disabled":false,"rental_uris":{"android":"levelo://app?vid=3d9d15ce-5804-4209-b92a-723f598d0341","ios":"levelo://app?vid=3d9d15ce-5804-4209-b92a-723f598d0341"},"vehicle_type_id":"4","last_reported":1784245738,"current_range_meters":16000,"station_id":"st_cvj6sg6p6f1abm77japg","pricing_plan_id":"cebpf4jnsgd1na2vs0mg"},{"bike_id":"0242f6f7-fb21-409d-84e0-fdbac2c8c278","system_id":"levelo_inurba_marseille","lat":43.30504,"lon":5.4,"is_reserved":false,"is_disabled":false,"rental_uris":{"android":"levelo://app?vid=0242f6f7-fb21-409d-84e0-fdbac2c8c278","ios":"levelo://app?vid=0242f6f7-fb21-409d-84e0-fdbac2c8c278"},"vehicle_type_id":"4","last_reported":1784245738,"current_range_meters":36400,"station_id":"","pricing_plan_id":"cebpf4jnsgd1na2vs0mg"},{"bike_id":"81394e63-313d-4859-b7cc-8e22c34fe6ba","system_id":"levelo_inurba_marseille","lat":43.26813,"lon":5.3956,"is_reserved":false,"is_disabled":true,"rental_uris":{"android":"levelo://app?vid=81394e63-313d-4859-b7cc-8e22c34fe6ba","ios":"levelo://app?vid=81394e63-313d-4859-b7cc-8e22c34fe6ba"},"vehicle_type_id":"4","last_reported":1784245738,"current_range_meters":0,"station_id":"","pricing_plan_id":"cebpf4jnsgd1na2vs0mg"},{"bike_id":"92f9377a-62ba-495b-8de9-1750140cdb94","system_id":"levelo_inurba_marseille","lat":43.2962,"lon":5.37151,"is_reserved":false,"is_disabled":true,"rental_uris":{"android":"levelo://app?vid=92f9377a-62ba-495b-8de9-1750140cdb94","ios":"levelo://app?vid=92f9377a-62ba-495b-8de9-1750140cdb94"},"vehicle_type_id":"4","last_reported":1784245738,"current_range_meters":11200,"station_id":"","pricing_plan_id":"cebpf4jnsgd1na2vs0mg"},{"bike_id":"54a43306-7593-4a50-9c1e-2cceaf860321","system_id":"levelo_inurba_marseille","lat":43.27817,"lon":5.40711,"is_reserved":false,"is_disabled":false,"rental_uris":{"android":"levelo://app?vid=54a43306-7593-4a50-9c1e-2cceaf860321","ios":"levelo://app?vid=54a43306-7593-4a50-9c1e-2cceaf860321"},"vehicle_type_id":"4","last_reported":1784245738,"current_range_meters":11600,"station_id":"ce4bhnh2rcd13ifvqgtg","pricing_plan_id":"cebpf4jnsgd1na2vs0mg"},{"bike_id":"e1bb6861-ee59-438c-aa2a-2a553b2d6f43","system_id":"levelo_inurba_marseille","lat":43.27199,"lon":5.40994,"is_reserved":false,"is_disabled":true,"rental_uris":{"android":"levelo://app?vid=e1bb6861-ee59-438c-aa2a-2a553b2d6f43","ios":"levelo://app?vid=e1bb6861-ee59-438c-aa2a-2a553b2d6f43"},"vehicle_type_id":"4","last_reported":1784245738,"current_range_meters":36400,"station_id":"ce4bhl12rcd13ifvqgf0","pricing_plan_id":"cebpf4jnsgd1na2vs0mg"},{"bike_id":"d61f5f42-3266-4ab9-bc4e-5a83331a7ece","system_id":"levelo_inurba_marseille","lat":43.25581,"lon":5.38238,"is_reserved":false,"is_disabled":true,"rental_uris":{"android":"levelo://app?vid=d61f5f42-3266-4ab9-bc4e-5a83331a7ece","ios":"levelo://app?vid=d61f5f42-3266-4ab9-bc4e-5a83331a7ece"},"vehicle_type_id":"4","last_reported":1784245738,"current_range_meters":35600,"station_id":"ce4bhih2rcd13ifvqfs0","pricing_plan_id":"cebpf4jnsgd1na2vs0mg"},{"bike_id":"06097b1f-6886-48c9-a8e6-84f03d133de4","system_id":"levelo_inurba_marseille","lat":43.31382,"lon":5.43237,"is_reserved":false,"is_disabled":false,"rental_uris":{"android":"levelo://app?vid=06097b1f-6886-48c9-a8e6-84f03d133de4","ios":"levelo://app?vid=06097b1f-6886-48c9-a8e6-84f03d133de4"},"vehicle_type_id":"4","last_reported":1784245738,"current_range_meters":4400,"station_id":"","pricing_plan_id":"cebpf4jnsgd1na2vs0mg"},{"bike_id":"34c5b572-acfb-4138-9633-fe327799f420","system_id":"levelo_inurba_marseille","lat":43.29542,"lon":5.36126,"is_reserved":false,"is_disabled":true,"rental_uris":{"android":"levelo://app?vid=34c5b572-acfb-4138-9633-fe327799f420","ios":"levelo://app?vid=34c5b572-acfb-4138-9633-fe327799f420"},"vehicle_type_id":"4","last_reported":1784245738,"current_range_meters":33600,"station_id":"","pricing_plan_id":"cebpf4jnsgd1na2vs0mg"},{"bike_id":"c70a5a1a-1138-428e-9352-e5f388c6b2fe","system_id":"levelo_inurba_marseille","lat":43.33771,"lon":5.37489,"is_reserved":false,"is_disabled":false,"rental_uris":{"android":"levelo://app?vid=c70a5a1a-1138-428e-9352-e5f388c6b2fe","ios":"levelo://app?vid=c70a5a1a-1138-428e-9352-e5f388c6b2fe"},"vehicle_type_id":"4","last_reported":1784245738,"current_range_meters":29600,"station_id":"","pricing_plan_id":"cebpf4jnsgd1na2vs0mg"},{"bike_id":"448ab149-1e23-45d2-8d41-536c144b6b21","system_id":"levelo_inurba_marseille","lat":43.31753,"lon":5.39012,"is_reserved":false,"is_disabled":false,"rental_uris":{"android":"levelo://app?vid=448ab149-1e23-45d2-8d41-536c144b6b21","ios":"levelo://app?vid=448ab149-1e23-45d2-8d41-536c144b6b21"},"vehicle_type_id":"4","last_reported":1784245738,"current_range_meters":16800,"station_id":"ce4bhqp2rcd13ifvqhng","pricing_plan_id":"cebpf4jnsgd1na2vs0mg"},{"bike_id":"e4069052-09f3-4aad-a4cf-82efe46eca69","system_id":"levelo_inurba_marseille","lat":43.27899,"lon":5.38018,"is_reserved":false,"is_disabled":false,"rental_uris":{"android":"levelo://app?vid=e4069052-09f3-4aad-a4cf-82efe46eca69","ios":"levelo://app?vid=e4069052-09f3-4aad-a4cf-82efe46eca69"},"vehicle_type_id":"4","last_reported":1784245738,"current_range_meters":38400,"station_id":"ce4bhf92rcd13ifvqf50","pricing_plan_id":"cebpf4jnsgd1na2vs0mg"},{"bike_id":"2623e023-e953-40ac-8068-15d2169ca99d","system_id":"levelo_inurba_marseille","lat":43.28716,"lon":5.46693,"is_reserved":false,"is_disabled":false,"rental_uris":{"android":"levelo://app?vid=2623e023-e953-40ac-8068-15d2169ca99d","ios":"levelo://app?vid=2623e023-e953-40ac-8068-15d2169ca99d"},"vehicle_type_id":"4","last_reported":1784245738,"current_range_meters":8400,"station_id":"st_d6tc3vkotcvc738tfjhg","pricing_plan_id":"cebpf4jnsgd1na2vs0mg"},{"bike_id":"c02ff727-b4b3-40d1-8167-8117fd3cb3f6","system_id":"levelo_inurba_marseille","lat":43.30784,"lon":5.37652,"is_reserved":false,"is_disabled":false,"rental_uris":{"android":"levelo://app?vid=c02ff727-b4b3-40d1-8167-8117fd3cb3f6","ios":"levelo://app?vid=c02ff727-b4b3-40d1-8167-8117fd3cb3f6"},"vehicle_type_id":"4","last_reported":1784245738,"current_range_meters":22000,"station_id":"ce4bgv92rcd13ifvqcq0","pricing_plan_id":"cebpf4jnsgd1na2vs0mg"},{"bike_id":"7a5203cf-b3c3-4680-afa1-0e3d4d1fb7e2","system_id":"levelo_inurba_marseille","lat":43.23898,"lon":5.37455,"is_reserved":false,"is_disabled":false,"rental_uris":{"android":"levelo://app?vid=7a5203cf-b3c3-4680-afa1-0e3d4d1fb7e2","ios":"levelo://app?vid=7a5203cf-b3c3-4680-afa1-0e3d4d1fb7e2"},"vehicle_type_id":"4","last_reported":1784245738,"current_range_meters":38000,"station_id":"st_d6sm7csbq4hs73f8fpjg","pricing_plan_id":"cebpf4jnsgd1na2vs0mg"},{"bike_id":"69b6ed8c-1f17-46c2-8d4a-815055a3a3c4","system_id":"levelo_inurba_marseille","lat":43.29003,"lon":5.35609,"is_reserved":false,"is_disabled":true,"rental_uris":{"android":"levelo://app?vid=69b6ed8c-1f17-46c2-8d4a-815055a3a3c4","ios":"levelo://app?vid=69b6ed8c-1f17-46c2-8d4a-815055a3a3c4"},"vehicle_type_id":"4","last_reported":1784245738,"current_range_meters":39200,"station_id":"ce4bhb92rcd13ifvqen0","pricing_plan_id":"cebpf4jnsgd1na2vs0mg"},{"bike_id":"e116cdcb-4338-44f3-bbda-c37fecaa40fd","system_id":"levelo_inurba_marseille","lat":43.30326,"lon":5.4044,"is_reserved":false,"is_disabled":false,"rental_uris":{"android":"levelo://app?vid=e116cdcb-4338-44f3-bbda-c37fecaa40fd","ios":"levelo://app?vid=e116cdcb-4338-44f3-bbda-c37fecaa40fd"},"vehicle_type_id":"4","last_reported":1784245738,"current_range_meters":32000,"station_id":"ce4bh012rcd13ifvqd10","pricing_plan_id":"cebpf4jnsgd1na2vs0mg"},{"bike_id":"88b7397c-c2ee-4ad9-987e-d19713a5624e","system_id":"levelo_inurba_marseille","lat":43.30196,"lon":5.36634,"is_reserved":false,"is_disabled":false,"rental_uris":{"android":"levelo://app?vid=88b7397c-c2ee-4ad9-987e-d19713a5624e","ios":"levelo://app?vid=88b7397c-c2ee-4ad9-987e-d19713a5624e"},"vehicle_type_id":"4","last_reported":1784245738,"current_range_meters":21600,"station_id":"ce4bgrh2rcd13ifvqc8g","pricing_plan_id":"cebpf4jnsgd1na2vs0mg"},{"bike_id":"26901743-feef-443e-84d5-5ea3007378c1","system_id":"levelo_inurba_marseille","lat":43.25082,"lon":5.39519,"is_reserved":false,"is_disabled":false,"rental_uris":{"android":"levelo://app?vid=26901743-feef-443e-84d5-5ea3007378c1","ios":"levelo://app?vid=26901743-feef-443e-84d5-5ea3007378c1"},"vehicle_type_id":"4","last_reported":1784245738,"current_range_meters":29600,"station_id":"ce4bhm12rcd13ifvqgkg","pricing_plan_id":"cebpf4jnsgd1na2vs0mg"},{"bike_id":"530d5b81-1545-4b49-8624-2c00cc3d9834","system_id":"levelo_inurba_marseille","lat":43.25328,"lon":5.42179,"is_reserved":false,"is_disabled":false,"rental_uris":{"android":"levelo://app?vid=530d5b81-1545-4b49-8624-2c00cc3d9834","ios":"levelo://app?vid=530d5b81-1545-4b49-8624-2c00cc3d9834"},"vehicle_type_id":"4","last_reported":1784245738,"current_range_meters":14800,"station_id":"st_d2m65c5bi1j21697t3ng","pricing_plan_id":"cebpf4jnsgd1na2vs0mg"},{"bike_id":"863d0357-9100-4091-8be6-61d932e4e898","system_id":"levelo_inurba_marseille","lat":43.3373,"lon":5.37451,"is_reserved":false,"is_disabled":false,"rental_uris":{"android":"levelo://app?vid=863d0357-9100-4091-8be6-61d932e4e898","ios":"levelo://app?vid=863d0357-9100-4091-8be6-61d932e4e898"},"vehicle_type_id":"4","last_reported":1784245738,"current_range_meters":37600,"station_id":"","pricing_plan_id":"cebpf4jnsgd1na2vs0mg"},{"bike_id":"f44d0928-8ad6-4308-b10f-ade40ce37ee2","system_id":"levelo_inurba_marseille","lat":43.27992,"lon":5.38257,"is_reserved":false,"is_disabled":false,"rental_uris":{"android":"levelo://app?vid=f44d0928-8ad6-4308-b10f-ade40ce37ee2","ios":"levelo://app?vid=f44d0928-8ad6-4308-b10f-ade40ce37ee2"},"vehicle_type_id":"4","last_reported":1784245738,"current_range_meters":28000,"station_id":"","pricing_plan_id":"cebpf4jnsgd1na2vs0mg"},{"bike_id":"476582e1-be21-4bc4-8542-d86de0e420c6","system_id":"levelo_inurba_marseille","lat":43.24554,"lon":5.39519,"is_reserved":false,"is_disabled":false,"rental_uris":{"android":"levelo://app?vid=476582e1-be21-4bc4-8542-d86de0e420c6","ios":"levelo://app?vid=476582e1-be21-4bc4-8542-d86de0e420c6"},"vehicle_type_id":"4","last_reported":1784245738,"current_range_meters":39200,"station_id":"ce4bhlp2rcd13ifvqgjg","pricing_plan_id":"cebpf4jnsgd1na2vs0mg"},{"bike_id":"2769d5a0-636f-4f9e-b929-e3698b2807d2","system_id":"levelo_inurba_marseille","lat":43.28717,"lon":5.3866,"is_reserved":false,"is_disabled":false,"rental_uris":{"android":"levelo://app?vid=2769d5a0-636f-4f9e-b929-e3698b2807d2","ios":"levelo://app?vid=2769d5a0-636f-4f9e-b929-e3698b2807d2"},"vehicle_type_id":"4","last_reported":1784245738,"current_range_meters":38800,"station_id":"ce4bh492rcd13ifvqdug","pricing_plan_id":"cebpf4jnsgd1na2vs0mg"},{"bike_id":"10ef5bd0-f130-4452-b7f2-391aef329ae1","system_id":"levelo_inurba_marseille","lat":43.28163,"lon":5.42649,"is_reserved":false,"is_disabled":false,"rental_uris":{"android":"levelo://app?vid=10ef5bd0-f130-4452-b7f2-391aef329ae1","ios":"levelo://app?vid=10ef5bd0-f130-4452-b7f2-391aef329ae1"},"vehicle_type_id":"4","last_reported":1784245738,"current_range_meters":34800,"station_id":"ce4bhnh2rcd13ifvqgug","pricing_plan_id":"cebpf4jnsgd1na2vs0mg"},{"bike_id":"a60a7f95-e481-429a-b9c4-0ea1f3bec23c","system_id":"levelo_inurba_marseille","lat":43.3079,"lon":5.37646,"is_reserved":false,"is_disabled":false,"rental_uris":{"android":"levelo://app?vid=a60a7f95-e481-429a-b9c4-0ea1f3bec23c","ios":"levelo://app?vid=a60a7f95-e481-429a-b9c4-0ea1f3bec23c"},"vehicle_type_id":"4","last_reported":1784245738,"current_range_meters":30000,"station_id":"ce4bgv92rcd13ifvqcq0","pricing_plan_id":"cebpf4jnsgd1na2vs0mg"},{"bike_id":"8ba7f2d6-52d3-4c56-b19a-19a142e62779","system_id":"levelo_inurba_marseille","lat":43.24067,"lon":5.3776,"is_reserved":false,"is_disabled":false,"rental_uris":{"android":"levelo://app?vid=8ba7f2d6-52d3-4c56-b19a-19a142e62779","ios":"levelo://app?vid=8ba7f2d6-52d3-4c56-b19a-19a142e62779"},"vehicle_type_id":"4","last_reported":1784245738,"current_range_meters":18000,"station_id":"ce4bhnp2rcd13ifvqgvg","pricing_plan_id":"cebpf4jnsgd1na2vs0mg"},{"bike_id":"3df7b3ee-3083-4a49-a1f1-8ec2f9d7ba3b","system_id":"levelo_inurba_marseille","lat":43.26044,"lon":5.39403,"is_reserved":false,"is_disabled":false,"rental_uris":{"android":"levelo://app?vid=3df7b3ee-3083-4a49-a1f1-8ec2f9d7ba3b","ios":"levelo://app?vid=3df7b3ee-3083-4a49-a1f1-8ec2f9d7ba3b"},"vehicle_type_id":"4","last_reported":1784245738,"current_range_meters":30000,"station_id":"ce4bhh92rcd13ifvqfj0","pricing_plan_id":"cebpf4jnsgd1na2vs0mg"},{"bike_id":"692e39d8-285b-41d0-a15a-1de09e6388a5","system_id":"levelo_inurba_marseille","lat":43.248,"lon":5.3745,"is_reserved":false,"is_disabled":false,"rental_uris":{"android":"levelo://app?vid=692e39d8-285b-41d0-a15a-1de09e6388a5","ios":"levelo://app?vid=692e39d8-285b-41d0-a15a-1de09e6388a5"},"vehicle_type_id":"4","last_reported":1784245738,"current_range_meters":39200,"station_id":"ce4bhgh2rcd13ifvqfb0","pricing_plan_id":"cebpf4jnsgd1na2vs0mg"},{"bike_id":"eeaaed66-36f9-477d-98fb-d53a7ffce760","system_id":"levelo_inurba_marseille","lat":43.26551,"lon":5.37307,"is_reserved":false,"is_disabled":true,"rental_uris":{"android":"levelo://app?vid=eeaaed66-36f9-477d-98fb-d53a7ffce760","ios":"levelo://app?vid=eeaaed66-36f9-477d-98fb-d53a7ffce760"},"vehicle_type_id":"4","last_reported":1784245738,"current_range_meters":36800,"station_id":"ce4bhg12rcd13ifvqf70","pricing_plan_id":"cebpf4jnsgd1na2vs0mg"},{"bike_id":"1702cc2f-2c66-448b-8b54-58c477324e70","system_id":"levelo_inurba_marseille","lat":43.27339,"lon":5.39097,"is_reserved":false,"is_disabled":false,"rental_uris":{"android":"levelo://app?vid=1702cc2f-2c66-448b-8b54-58c477324e70","ios":"levelo://app?vid=1702cc2f-2c66-448b-8b54-58c477324e70"},"vehicle_type_id":"4","last_reported":1784245738,"current_range_meters":15200,"station_id":"ce4bhgp2rcd13ifvqfe0","pricing_plan_id":"cebpf4jnsgd1na2vs0mg"},{"bike_id":"62879b25-1727-4823-bff0-7559f6f6befd","system_id":"levelo_inurba_marseille","lat":43.29563,"lon":5.3999,"is_reserved":false,"is_disabled":false,"rental_uris":{"android":"levelo://app?vid=62879b25-1727-4823-bff0-7559f6f6befd","ios":"levelo://app?vid=62879b25-1727-4823-bff0-7559f6f6befd"},"vehicle_type_id":"4","last_reported":1784245738,"current_range_meters":39200,"station_id":"ce4bh312rcd13ifvqdj0","pricing_plan_id":"cebpf4jnsgd1na2vs0mg"},{"bike_id":"57091f55-05a7-48f3-b9de-2a363c338c85","system_id":"levelo_inurba_marseille","lat":43.23903,"lon":5.37453,"is_reserved":false,"is_disabled":false,"rental_uris":{"android":"levelo://app?vid=57091f55-05a7-48f3-b9de-2a363c338c85","ios":"levelo://app?vid=57091f55-05a7-48f3-b9de-2a363c338c85"},"vehicle_type_id":"4","last_reported":1784245738,"current_range_meters":39200,"station_id":"st_d6sm7csbq4hs73f8fpjg","pricing_plan_id":"cebpf4jnsgd1na2vs0mg"},{"bike_id":"5ee03f4b-159d-426a-a2ca-0b6a084e3698","system_id":"levelo_inurba_marseille","lat":43.23791,"lon":5.36628,"is_reserved":false,"is_disabled":false,"rental_uris":{"android":"levelo://app?vid=5ee03f4b-159d-426a-a2ca-0b6a084e3698","ios":"levelo://app?vid=5ee03f4b-159d-426a-a2ca-0b6a084e3698"},"vehicle_type_id":"4","last_reported":1784245738,"current_range_meters":30800,"station_id":"st_d3nk18o9ro0c73en2l3g","pricing_plan_id":"cebpf4jnsgd1na2vs0mg"},{"bike_id":"e9700518-bfab-4e19-9c8e-e3cb6414cf72","system_id":"levelo_inurba_marseille","lat":43.29191,"lon":5.35802,"is_reserved":false,"is_disabled":true,"rental_uris":{"android":"levelo://app?vid=e9700518-bfab-4e19-9c8e-e3cb6414cf72","ios":"levelo://app?vid=e9700518-bfab-4e19-9c8e-e3cb6414cf72"},"vehicle_type_id":"4","last_reported":1784245738,"current_range_meters":13600,"station_id":"ce4bhb12rcd13ifvqel0","pricing_plan_id":"cebpf4jnsgd1na2vs0mg"},{"bike_id":"3dea77de-07e8-443f-83ee-8820e38376a2","system_id":"levelo_inurba_marseille","lat":43.30657,"lon":5.40072,"is_reserved":false,"is_disabled":false,"rental_uris":{"android":"levelo://app?vid=3dea77de-07e8-443f-83ee-8820e38376a2","ios":"levelo://app?vid=3dea77de-07e8-443f-83ee-8820e38376a2"},"vehicle_type_id":"4","last_reported":1784245738,"current_range_meters":38000,"station_id":"ce4bh112rcd13ifvqda0","pricing_plan_id":"cebpf4jnsgd1na2vs0mg"},{"bike_id":"95ce5d31-1444-4ecd-9f97-683dd61e0473","system_id":"levelo_inurba_marseille","lat":43.30031,"lon":5.40163,"is_reserved":false,"is_disabled":false,"rental_uris":{"android":"levelo://app?vid=95ce5d31-1444-4ecd-9f97-683dd61e0473","ios":"levelo://app?vid=95ce5d31-1444-4ecd-9f97-683dd61e0473"},"vehicle_type_id":"4","last_reported":1784245738,"current_range_meters":14400,"station_id":"","pricing_plan_id":"cebpf4jnsgd1na2vs0mg"},{"bike_id":"40133888-0505-4ab7-bf98-89cc8c9f1fbd","system_id":"levelo_inurba_marseille","lat":43.31249,"lon":5.38137,"is_reserved":false,"is_disabled":false,"rental_uris":{"android":"levelo://app?vid=40133888-0505-4ab7-bf98-89cc8c9f1fbd","ios":"levelo://app?vid=40133888-0505-4ab7-bf98-89cc8c9f1fbd"},"vehicle_type_id":"4","last_reported":1784245738,"current_range_meters":18800,"station_id":"","pricing_plan_id":"cebpf4jnsgd1na2vs0mg"},{"bike_id":"d90ef593-ecb1-43e8-9a4f-cc31b284aa71","system_id":"levelo_inurba_marseille","lat":43.28431,"lon":5.39256,"is_reserved":false,"is_disabled":false,"rental_uris":{"android":"levelo://app?vid=d90ef593-ecb1-43e8-9a4f-cc31b284aa71","ios":"levelo://app?vid=d90ef593-ecb1-43e8-9a4f-cc31b284aa71"},"vehicle_type_id":"4","last_reported":1784245738,"current_range_meters":10800,"station_id":"ce4bhoh2rcd13ifvqh5g","pricing_plan_id":"cebpf4jnsgd1na2vs0mg"},{"bike_id":"5f57010c-543e-49b5-a2c0-23e93ad02088","system_id":"levelo_inurba_marseille","lat":43.30879,"lon":5.39635,"is_reserved":false,"is_disabled":false,"rental_uris":{"android":"levelo://app?vid=5f57010c-543e-49b5-a2c0-23e93ad02088","ios":"levelo://app?vid=5f57010c-543e-49b5-a2c0-23e93ad02088"},"vehicle_type_id":"4","last_reported":1784245738,"current_range_meters":6000,"station_id":"ce4bh012rcd13ifvqcv0","pricing_plan_id":"cebpf4jnsgd1na2vs0mg"},{"bike_id":"71b9772f-5f70-4c31-a7a9-812878aee042","system_id":"levelo_inurba_marseille","lat":43.31493,"lon":5.37313,"is_reserved":false,"is_disabled":false,"rental_uris":{"android":"levelo://app?vid=71b9772f-5f70-4c31-a7a9-812878aee042","ios":"levelo://app?vid=71b9772f-5f70-4c31-a7a9-812878aee042"},"vehicle_type_id":"4","last_reported":1784245738,"current_range_meters":6800,"station_id":"ce4bgt12rcd13ifvqcd0","pricing_plan_id":"cebpf4jnsgd1na2vs0mg"},{"bike_id":"34b4978e-492d-4d36-a2d7-7a18159a1fee","system_id":"levelo_inurba_marseille","lat":43.24691,"lon":5.3813,"is_reserved":false,"is_disabled":false,"rental_uris":{"android":"levelo://app?vid=34b4978e-492d-4d36-a2d7-7a18159a1fee","ios":"levelo://app?vid=34b4978e-492d-4d36-a2d7-7a18159a1fee"},"vehicle_type_id":"4","last_reported":1784245738,"current_range_meters":23200,"station_id":"ce4bhih2rcd13ifvqfr0","pricing_plan_id":"cebpf4jnsgd1na2vs0mg"},{"bike_id":"3c753f7d-05ef-4be4-955a-57ecef18bd25","system_id":"levelo_inurba_marseille","lat":43.30324,"lon":5.40447,"is_reserved":false,"is_disabled":false,"rental_uris":{"android":"levelo://app?vid=3c753f7d-05ef-4be4-955a-57ecef18bd25","ios":"levelo://app?vid=3c753f7d-05ef-4be4-955a-57ecef18bd25"},"vehicle_type_id":"4","last_reported":1784245738,"current_range_meters":33200,"station_id":"ce4bh012rcd13ifvqd10","pricing_plan_id":"cebpf4jnsgd1na2vs0mg"},{"bike_id":"a566c211-e1e0-4568-b77b-a9dc6f5d3ef4","system_id":"levelo_inurba_marseille","lat":43.2558,"lon":5.38229,"is_reserved":false,"is_disabled":false,"rental_uris":{"android":"levelo://app?vid=a566c211-e1e0-4568-b77b-a9dc6f5d3ef4","ios":"levelo://app?vid=a566c211-e1e0-4568-b77b-a9dc6f5d3ef4"},"vehicle_type_id":"4","last_reported":1784245738,"current_range_meters":38400,"station_id":"ce4bhih2rcd13ifvqfs0","pricing_plan_id":"cebpf4jnsgd1na2vs0mg"},{"bike_id":"2cf70b42-201a-46c7-8a30-f764bd82f7ce","system_id":"levelo_inurba_marseille","lat":43.28974,"lon":5.364,"is_reserved":false,"is_disabled":false,"rental_uris":{"android":"levelo://app?vid=2cf70b42-201a-46c7-8a30-f764bd82f7ce","ios":"levelo://app?vid=2cf70b42-201a-46c7-8a30-f764bd82f7ce"},"vehicle_type_id":"4","last_reported":1784245738,"current_range_meters":28000,"station_id":"ce4bhc92rcd13ifvqetg","pricing_plan_id":"cebpf4jnsgd1na2vs0mg"},{"bike_id":"0a02345c-1556-441c-8acf-3f4813610f57","system_id":"levelo_inurba_marseille","lat":43.30883,"lon":5.39592,"is_reserved":false,"is_disabled":false,"rental_uris":{"android":"levelo://app?vid=0a02345c-1556-441c-8acf-3f4813610f57","ios":"levelo://app?vid=0a02345c-1556-441c-8acf-3f4813610f57"},"vehicle_type_id":"4","last_reported":1784245738,"current_range_meters":8800,"station_id":"","pricing_plan_id":"cebpf4jnsgd1na2vs0mg"},{"bike_id":"81587832-75ed-49cd-91c3-f57f9b8cec45","system_id":"levelo_inurba_marseille","lat":43.29037,"lon":5.35917,"is_reserved":false,"is_disabled":true,"rental_uris":{"android":"levelo://app?vid=81587832-75ed-49cd-91c3-f57f9b8cec45","ios":"levelo://app?vid=81587832-75ed-49cd-91c3-f57f9b8cec45"},"vehicle_type_id":"4","last_reported":1784245738,"current_range_meters":13600,"station_id":"ce4bha92rcd13ifvqeg0","pricing_plan_id":"cebpf4jnsgd1na2vs0mg"},{"bike_id":"eff755d0-d2d1-428e-9513-b340abc3bf30","system_id":"levelo_inurba_marseille","lat":43.29873,"lon":5.38909,"is_reserved":false,"is_disabled":false,"rental_uris":{"android":"levelo://app?vid=eff755d0-d2d1-428e-9513-b340abc3bf30","ios":"levelo://app?vid=eff755d0-d2d1-428e-9513-b340abc3bf30"},"vehicle_type_id":"4","last_reported":1784245738,"current_range_meters":28000,"station_id":"ce4bh392rcd13ifvqdl0","pricing_plan_id":"cebpf4jnsgd1na2vs0mg"},{"bike_id":"8a2ed306-8405-4822-b70f-abc1f81e1070","system_id":"levelo_inurba_marseille","lat":43.24547,"lon":5.39554,"is_reserved":false,"is_disabled":false,"rental_uris":{"android":"levelo://app?vid=8a2ed306-8405-4822-b70f-abc1f81e1070","ios":"levelo://app?vid=8a2ed306-8405-4822-b70f-abc1f81e1070"},"vehicle_type_id":"4","last_reported":1784245738,"current_range_meters":24800,"station_id":"ce4bhlp2rcd13ifvqgjg","pricing_plan_id":"cebpf4jnsgd1na2vs0mg"},{"bike_id":"16cc449f-16a3-4fe7-a9b5-0e4008cc40a2","system_id":"levelo_inurba_marseille","lat":43.27891,"lon":5.38002,"is_reserved":false,"is_disabled":false,"rental_uris":{"android":"levelo://app?vid=16cc449f-16a3-4fe7-a9b5-0e4008cc40a2","ios":"levelo://app?vid=16cc449f-16a3-4fe7-a9b5-0e4008cc40a2"},"vehicle_type_id":"4","last_reported":1784245738,"current_range_meters":39200,"station_id":"ce4bhf92rcd13ifvqf50","pricing_plan_id":"cebpf4jnsgd1na2vs0mg"},{"bike_id":"1fb2594b-e7ab-44d5-82e0-2f25ad1ec43c","system_id":"levelo_inurba_marseille","lat":43.29251,"lon":5.40907,"is_reserved":false,"is_disabled":false,"rental_uris":{"android":"levelo://app?vid=1fb2594b-e7ab-44d5-82e0-2f25ad1ec43c","ios":"levelo://app?vid=1fb2594b-e7ab-44d5-82e0-2f25ad1ec43c"},"vehicle_type_id":"4","last_reported":1784245738,"current_range_meters":32800,"station_id":"ce4bh192rcd13ifvqdc0","pricing_plan_id":"cebpf4jnsgd1na2vs0mg"},{"bike_id":"f4c81a21-0a04-46d1-b965-579c6ebb43bc","system_id":"levelo_inurba_marseille","lat":43.29041,"lon":5.38167,"is_reserved":false,"is_disabled":false,"rental_uris":{"android":"levelo://app?vid=f4c81a21-0a04-46d1-b965-579c6ebb43bc","ios":"levelo://app?vid=f4c81a21-0a04-46d1-b965-579c6ebb43bc"},"vehicle_type_id":"4","last_reported":1784245738,"current_range_meters":39200,"station_id":"ce4bh4p2rcd13ifvqe1g","pricing_plan_id":"cebpf4jnsgd1na2vs0mg"},{"bike_id":"1871fb83-23dc-4127-99c0-e3f0fdd4e14e","system_id":"levelo_inurba_marseille","lat":43.29003,"lon":5.38141,"is_reserved":false,"is_disabled":false,"rental_uris":{"android":"levelo://app?vid=1871fb83-23dc-4127-99c0-e3f0fdd4e14e","ios":"levelo://app?vid=1871fb83-23dc-4127-99c0-e3f0fdd4e14e"},"vehicle_type_id":"4","last_reported":1784245738,"current_range_meters":28000,"station_id":"ce4bh4p2rcd13ifvqe1g","pricing_plan_id":"cebpf4jnsgd1na2vs0mg"},{"bike_id":"e363b584-92a2-4c61-adfd-371a2577000d","system_id":"levelo_inurba_marseille","lat":43.29896,"lon":5.43665,"is_reserved":false,"is_disabled":false,"rental_uris":{"android":"levelo://app?vid=e363b584-92a2-4c61-adfd-371a2577000d","ios":"levelo://app?vid=e363b584-92a2-4c61-adfd-371a2577000d"},"vehicle_type_id":"4","last_reported":1784245738,"current_range_meters":31200,"station_id":"ce4bhpp2rcd13ifvqhfg","pricing_plan_id":"cebpf4jnsgd1na2vs0mg"},{"bike_id":"b3de1f87-8692-4cff-8713-bf556442815e","system_id":"levelo_inurba_marseille","lat":43.29507,"lon":5.39414,"is_reserved":false,"is_disabled":false,"rental_uris":{"android":"levelo://app?vid=b3de1f87-8692-4cff-8713-bf556442815e","ios":"levelo://app?vid=b3de1f87-8692-4cff-8713-bf556442815e"},"vehicle_type_id":"4","last_reported":1784245738,"current_range_meters":10800,"station_id":"ce4bh292rcd13ifvqdf0","pricing_plan_id":"cebpf4jnsgd1na2vs0mg"},{"bike_id":"7b164250-8ba6-4082-98de-506ae29b89ef","system_id":"levelo_inurba_marseille","lat":43.31364,"lon":5.38488,"is_reserved":false,"is_disabled":false,"rental_uris":{"android":"levelo://app?vid=7b164250-8ba6-4082-98de-506ae29b89ef","ios":"levelo://app?vid=7b164250-8ba6-4082-98de-506ae29b89ef"},"vehicle_type_id":"4","last_reported":1784245738,"current_range_meters":19200,"station_id":"ce4bgt92rcd13ifvqcf0","pricing_plan_id":"cebpf4jnsgd1na2vs0mg"},{"bike_id":"0c964dab-40ec-49b5-8e4d-a4ff83f48bf2","system_id":"levelo_inurba_marseille","lat":43.27941,"lon":5.39108,"is_reserved":false,"is_disabled":false,"rental_uris":{"android":"levelo://app?vid=0c964dab-40ec-49b5-8e4d-a4ff83f48bf2","ios":"levelo://app?vid=0c964dab-40ec-49b5-8e4d-a4ff83f48bf2"},"vehicle_type_id":"4","last_reported":1784245738,"current_range_meters":28000,"station_id":"","pricing_plan_id":"cebpf4jnsgd1na2vs0mg"},{"bike_id":"db804df3-315d-4bf7-ba40-8d29e1203335","system_id":"levelo_inurba_marseille","lat":43.30922,"lon":5.40153,"is_reserved":false,"is_disabled":false,"rental_uris":{"android":"levelo://app?vid=db804df3-315d-4bf7-ba40-8d29e1203335","ios":"levelo://app?vid=db804df3-315d-4bf7-ba40-8d29e1203335"},"vehicle_type_id":"4","last_reported":1784245738,"current_range_meters":32000,"station_id":"ce4bgvp2rcd13ifvqct0","pricing_plan_id":"cebpf4jnsgd1na2vs0mg"},{"bike_id":"7ff8118f-6c81-4cdf-8a1d-4753d954065d","system_id":"levelo_inurba_marseille","lat":43.29598,"lon":5.37991,"is_reserved":false,"is_disabled":false,"rental_uris":{"android":"levelo://app?vid=7ff8118f-6c81-4cdf-8a1d-4753d954065d","ios":"levelo://app?vid=7ff8118f-6c81-4cdf-8a1d-4753d954065d"},"vehicle_type_id":"4","last_reported":1784245738,"current_range_meters":11600,"station_id":"","pricing_plan_id":"cebpf4jnsgd1na2vs0mg"},{"bike_id":"3da6bd28-86e6-4bb5-9156-89be9ed06d84","system_id":"levelo_inurba_marseille","lat":43.28336,"lon":5.38872,"is_reserved":false,"is_disabled":false,"rental_uris":{"android":"levelo://app?vid=3da6bd28-86e6-4bb5-9156-89be9ed06d84","ios":"levelo://app?vid=3da6bd28-86e6-4bb5-9156-89be9ed06d84"},"vehicle_type_id":"4","last_reported":1784245738,"current_range_meters":28800,"station_id":"","pricing_plan_id":"cebpf4jnsgd1na2vs0mg"},{"bike_id":"f853e491-d7e8-464d-9464-55b9e28faacc","system_id":"levelo_inurba_marseille","lat":43.26792,"lon":5.38402,"is_reserved":false,"is_disabled":false,"rental_uris":{"android":"levelo://app?vid=f853e491-d7e8-464d-9464-55b9e28faacc","ios":"levelo://app?vid=f853e491-d7e8-464d-9464-55b9e28faacc"},"vehicle_type_id":"4","last_reported":1784245738,"current_range_meters":8000,"station_id":"","pricing_plan_id":"cebpf4jnsgd1na2vs0mg"},{"bike_id":"851f73ad-5e1e-41ff-b74b-1c4b032f1ba9","system_id":"levelo_inurba_marseille","lat":43.26919,"lon":5.40244,"is_reserved":false,"is_disabled":false,"rental_uris":{"android":"levelo://app?vid=851f73ad-5e1e-41ff-b74b-1c4b032f1ba9","ios":"levelo://app?vid=851f73ad-5e1e-41ff-b74b-1c4b032f1ba9"},"vehicle_type_id":"4","last_reported":1784245738,"current_range_meters":25600,"station_id":"cjm6bp8fraef2m0cb0m0","pricing_plan_id":"cebpf4jnsgd1na2vs0mg"},{"bike_id":"463a2e3b-76c2-4feb-bdfe-c83991a79cfe","system_id":"levelo_inurba_marseille","lat":43.26205,"lon":5.37438,"is_reserved":false,"is_disabled":true,"rental_uris":{"android":"levelo://app?vid=463a2e3b-76c2-4feb-bdfe-c83991a79cfe","ios":"levelo://app?vid=463a2e3b-76c2-4feb-bdfe-c83991a79cfe"},"vehicle_type_id":"4","last_reported":1784245738,"current_range_meters":39200,"station_id":"ce4bhgp2rcd13ifvqfc0","pricing_plan_id":"cebpf4jnsgd1na2vs0mg"},{"bike_id":"fa00d1c8-0409-431e-9d07-27f516bf6b91","system_id":"levelo_inurba_marseille","lat":43.29964,"lon":5.37142,"is_reserved":false,"is_disabled":false,"rental_uris":{"android":"levelo://app?vid=fa00d1c8-0409-431e-9d07-27f516bf6b91","ios":"levelo://app?vid=fa00d1c8-0409-431e-9d07-27f516bf6b91"},"vehicle_type_id":"4","last_reported":1784245738,"current_range_meters":38000,"station_id":"ce4bgr92rcd13ifvqc7g","pricing_plan_id":"cebpf4jnsgd1na2vs0mg"},{"bike_id":"1de5753c-f77d-4a34-b134-58bee8bc010c","system_id":"levelo_inurba_marseille","lat":43.26542,"lon":5.3729,"is_reserved":false,"is_disabled":true,"rental_uris":{"android":"levelo://app?vid=1de5753c-f77d-4a34-b134-58bee8bc010c","ios":"levelo://app?vid=1de5753c-f77d-4a34-b134-58bee8bc010c"},"vehicle_type_id":"4","last_reported":1784245738,"current_range_meters":25600,"station_id":"ce4bhg12rcd13ifvqf70","pricing_plan_id":"cebpf4jnsgd1na2vs0mg"},{"bike_id":"02db0076-7dbc-435e-bc51-c22d580acb98","system_id":"levelo_inurba_marseille","lat":43.31488,"lon":5.37313,"is_reserved":false,"is_disabled":false,"rental_uris":{"android":"levelo://app?vid=02db0076-7dbc-435e-bc51-c22d580acb98","ios":"levelo://app?vid=02db0076-7dbc-435e-bc51-c22d580acb98"},"vehicle_type_id":"4","last_reported":1784245738,"current_range_meters":39200,"station_id":"ce4bgt12rcd13ifvqcd0","pricing_plan_id":"cebpf4jnsgd1na2vs0mg"},{"bike_id":"6b7bc794-a8b6-4b15-bdfb-b2fb240ae758","system_id":"levelo_inurba_marseille","lat":43.28413,"lon":5.34991,"is_reserved":false,"is_disabled":true,"rental_uris":{"android":"levelo://app?vid=6b7bc794-a8b6-4b15-bdfb-b2fb240ae758","ios":"levelo://app?vid=6b7bc794-a8b6-4b15-bdfb-b2fb240ae758"},"vehicle_type_id":"4","last_reported":1784245738,"current_range_meters":39200,"station_id":"ce4bhbh2rcd13ifvqepg","pricing_plan_id":"cebpf4jnsgd1na2vs0mg"},{"bike_id":"ccb7aa3c-d66b-4147-9c3e-2e8014c4c176","system_id":"levelo_inurba_marseille","lat":43.28916,"lon":5.35945,"is_reserved":false,"is_disabled":false,"rental_uris":{"android":"levelo://app?vid=ccb7aa3c-d66b-4147-9c3e-2e8014c4c176","ios":"levelo://app?vid=ccb7aa3c-d66b-4147-9c3e-2e8014c4c176"},"vehicle_type_id":"4","last_reported":1784245738,"current_range_meters":11600,"station_id":"","pricing_plan_id":"cebpf4jnsgd1na2vs0mg"},{"bike_id":"8cb258d9-9483-4f48-b131-6fedf00e07f1","system_id":"levelo_inurba_marseille","lat":43.26064,"lon":5.394,"is_reserved":false,"is_disabled":false,"rental_uris":{"android":"levelo://app?vid=8cb258d9-9483-4f48-b131-6fedf00e07f1","ios":"levelo://app?vid=8cb258d9-9483-4f48-b131-6fedf00e07f1"},"vehicle_type_id":"4","last_reported":1784245738,"current_range_meters":27600,"station_id":"ce4bhh92rcd13ifvqfj0","pricing_plan_id":"cebpf4jnsgd1na2vs0mg"},{"bike_id":"b757706d-1d17-4285-9a90-30a7e24d51ef","system_id":"levelo_inurba_marseille","lat":43.2847,"lon":5.38438,"is_reserved":false,"is_disabled":false,"rental_uris":{"android":"levelo://app?vid=b757706d-1d17-4285-9a90-30a7e24d51ef","ios":"levelo://app?vid=b757706d-1d17-4285-9a90-30a7e24d51ef"},"vehicle_type_id":"4","last_reported":1784245738,"current_range_meters":39200,"station_id":"ce4bh512rcd13ifvqe3g","pricing_plan_id":"cebpf4jnsgd1na2vs0mg"},{"bike_id":"d6b0724d-3030-4e7b-8778-a4d582b3070a","system_id":"levelo_inurba_marseille","lat":43.28615,"lon":5.35113,"is_reserved":false,"is_disabled":true,"rental_uris":{"android":"levelo://app?vid=d6b0724d-3030-4e7b-8778-a4d582b3070a","ios":"levelo://app?vid=d6b0724d-3030-4e7b-8778-a4d582b3070a"},"vehicle_type_id":"4","last_reported":1784245738,"current_range_meters":26800,"station_id":"ce4bhch2rcd13ifvqeug","pricing_plan_id":"cebpf4jnsgd1na2vs0mg"},{"bike_id":"70b4266b-6f2a-4bb7-934f-a2a2bf37b44f","system_id":"levelo_inurba_marseille","lat":43.25129,"lon":5.40321,"is_reserved":false,"is_disabled":true,"rental_uris":{"android":"levelo://app?vid=70b4266b-6f2a-4bb7-934f-a2a2bf37b44f","ios":"levelo://app?vid=70b4266b-6f2a-4bb7-934f-a2a2bf37b44f"},"vehicle_type_id":"4","last_reported":1784245738,"current_range_meters":0,"station_id":"ce4bhlh2rcd13ifvqgig","pricing_plan_id":"cebpf4jnsgd1na2vs0mg"},{"bike_id":"a2e22e1c-01d9-44c4-8edb-2e7548de2436","system_id":"levelo_inurba_marseille","lat":43.28125,"lon":5.42773,"is_reserved":false,"is_disabled":true,"rental_uris":{"android":"levelo://app?vid=a2e22e1c-01d9-44c4-8edb-2e7548de2436","ios":"levelo://app?vid=a2e22e1c-01d9-44c4-8edb-2e7548de2436"},"vehicle_type_id":"4","last_reported":1784245738,"current_range_meters":0,"station_id":"","pricing_plan_id":"cebpf4jnsgd1na2vs0mg"},{"bike_id":"ac02a0b5-8ca2-437c-9b25-ae5afa743e73","system_id":"levelo_inurba_marseille","lat":43.28339,"lon":5.38109,"is_reserved":false,"is_disabled":false,"rental_uris":{"android":"levelo://app?vid=ac02a0b5-8ca2-437c-9b25-ae5afa743e73","ios":"levelo://app?vid=ac02a0b5-8ca2-437c-9b25-ae5afa743e73"},"vehicle_type_id":"4","last_reported":1784245738,"current_range_meters":38400,"station_id":"ce4bh412rcd13ifvqdr0","pricing_plan_id":"cebpf4jnsgd1na2vs0mg"},{"bike_id":"fb58b4a5-8e17-45a1-95b4-c617e83b05f9","system_id":"levelo_inurba_marseille","lat":43.23182,"lon":5.39991,"is_reserved":false,"is_disabled":false,"rental_uris":{"android":"levelo://app?vid=fb58b4a5-8e17-45a1-95b4-c617e83b05f9","ios":"levelo://app?vid=fb58b4a5-8e17-45a1-95b4-c617e83b05f9"},"vehicle_type_id":"4","last_reported":1784245738,"current_range_meters":39200,"station_id":"ce4bhn12rcd13ifvqgqg","pricing_plan_id":"cebpf4jnsgd1na2vs0mg"},{"bike_id":"412bf695-ea10-4492-b0a0-99d2e6b31e3f","system_id":"levelo_inurba_marseille","lat":43.2959,"lon":5.40288,"is_reserved":false,"is_disabled":false,"rental_uris":{"android":"levelo://app?vid=412bf695-ea10-4492-b0a0-99d2e6b31e3f","ios":"levelo://app?vid=412bf695-ea10-4492-b0a0-99d2e6b31e3f"},"vehicle_type_id":"4","last_reported":1784245738,"current_range_meters":38400,"station_id":"","pricing_plan_id":"cebpf4jnsgd1na2vs0mg"},{"bike_id":"17ef7521-be57-48c8-a115-ded8df7df309","system_id":"levelo_inurba_marseille","lat":43.26191,"lon":5.37447,"is_reserved":false,"is_disabled":true,"rental_uris":{"android":"levelo://app?vid=17ef7521-be57-48c8-a115-ded8df7df309","ios":"levelo://app?vid=17ef7521-be57-48c8-a115-ded8df7df309"},"vehicle_type_id":"4","last_reported":1784245738,"current_range_meters":39200,"station_id":"ce4bhgp2rcd13ifvqfc0","pricing_plan_id":"cebpf4jnsgd1na2vs0mg"},{"bike_id":"309521c0-4202-4408-a042-7084b8f3183f","system_id":"levelo_inurba_marseille","lat":43.31502,"lon":5.37284,"is_reserved":false,"is_disabled":false,"rental_uris":{"android":"levelo://app?vid=309521c0-4202-4408-a042-7084b8f3183f","ios":"levelo://app?vid=309521c0-4202-4408-a042-7084b8f3183f"},"vehicle_type_id":"4","last_reported":1784245738,"current_range_meters":30800,"station_id":"ce4bgt12rcd13ifvqcd0","pricing_plan_id":"cebpf4jnsgd1na2vs0mg"},{"bike_id":"dba95777-cb14-4e1b-8f71-08f792d0dd48","system_id":"levelo_inurba_marseille","lat":43.33605,"lon":5.41036,"is_reserved":false,"is_disabled":false,"rental_uris":{"android":"levelo://app?vid=dba95777-cb14-4e1b-8f71-08f792d0dd48","ios":"levelo://app?vid=dba95777-cb14-4e1b-8f71-08f792d0dd48"},"vehicle_type_id":"4","last_reported":1784245738,"current_range_meters":39200,"station_id":"ce4bhqh2rcd13ifvqhmg","pricing_plan_id":"cebpf4jnsgd1na2vs0mg"},{"bike_id":"9816fcfb-fed5-46a5-a828-dec154df7717","system_id":"levelo_inurba_marseille","lat":43.26797,"lon":5.40276,"is_reserved":false,"is_disabled":true,"rental_uris":{"android":"levelo://app?vid=9816fcfb-fed5-46a5-a828-dec154df7717","ios":"levelo://app?vid=9816fcfb-fed5-46a5-a828-dec154df7717"},"vehicle_type_id":"4","last_reported":1784245738,"current_range_meters":29600,"station_id":"ce501612rcd8frsf0b60","pricing_plan_id":"cebpf4jnsgd1na2vs0mg"},{"bike_id":"51432bc6-7717-4ce9-860b-5e1ae158d41a","system_id":"levelo_inurba_marseille","lat":43.311204,"lon":5.37774,"is_reserved":false,"is_disabled":false,"rental_uris":{"android":"levelo://app?vid=51432bc6-7717-4ce9-860b-5e1ae158d41a","ios":"levelo://app?vid=51432bc6-7717-4ce9-860b-5e1ae158d41a"},"vehicle_type_id":"4","last_reported":1784245738,"current_range_meters":4400,"station_id":"ce4bgt92rcd13ifvqcg0","pricing_plan_id":"cebpf4jnsgd1na2vs0mg"},{"bike_id":"ff564722-4b1e-4a6b-a871-1dfd4bf74358","system_id":"levelo_inurba_marseille","lat":43.29384,"lon":5.37837,"is_reserved":false,"is_disabled":false,"rental_uris":{"android":"levelo://app?vid=ff564722-4b1e-4a6b-a871-1dfd4bf74358","ios":"levelo://app?vid=ff564722-4b1e-4a6b-a871-1dfd4bf74358"},"vehicle_type_id":"4","last_reported":1784245738,"current_range_meters":31200,"station_id":"ce4bgjh2rcd13ifvqbf0","pricing_plan_id":"cebpf4jnsgd1na2vs0mg"},{"bike_id":"68db2b70-f50d-43a3-8171-99c4f159ea09","system_id":"levelo_inurba_marseille","lat":43.24816,"lon":5.37457,"is_reserved":false,"is_disabled":false,"rental_uris":{"android":"levelo://app?vid=68db2b70-f50d-43a3-8171-99c4f159ea09","ios":"levelo://app?vid=68db2b70-f50d-43a3-8171-99c4f159ea09"},"vehicle_type_id":"4","last_reported":1784245738,"current_range_meters":8800,"station_id":"ce4bhgh2rcd13ifvqfb0","pricing_plan_id":"cebpf4jnsgd1na2vs0mg"},{"bike_id":"bd529bea-55e2-462e-96f2-84ef02ccf732","system_id":"levelo_inurba_marseille","lat":43.31363,"lon":5.38513,"is_reserved":false,"is_disabled":false,"rental_uris":{"android":"levelo://app?vid=bd529bea-55e2-462e-96f2-84ef02ccf732","ios":"levelo://app?vid=bd529bea-55e2-462e-96f2-84ef02ccf732"},"vehicle_type_id":"4","last_reported":1784245738,"current_range_meters":24800,"station_id":"ce4bgt92rcd13ifvqcf0","pricing_plan_id":"cebpf4jnsgd1na2vs0mg"},{"bike_id":"d5c9c027-ce9b-46f0-b4eb-fc40b239d150","system_id":"levelo_inurba_marseille","lat":43.3172,"lon":5.40445,"is_reserved":false,"is_disabled":false,"rental_uris":{"android":"levelo://app?vid=d5c9c027-ce9b-46f0-b4eb-fc40b239d150","ios":"levelo://app?vid=d5c9c027-ce9b-46f0-b4eb-fc40b239d150"},"vehicle_type_id":"4","last_reported":1784245738,"current_range_meters":38400,"station_id":"ce4bh012rcd13ifvqd00","pricing_plan_id":"cebpf4jnsgd1na2vs0mg"},{"bike_id":"de836a4f-3506-45ef-b6ab-2a2745f881ed","system_id":"levelo_inurba_marseille","lat":43.2954,"lon":5.38396,"is_reserved":false,"is_disabled":false,"rental_uris":{"android":"levelo://app?vid=de836a4f-3506-45ef-b6ab-2a2745f881ed","ios":"levelo://app?vid=de836a4f-3506-45ef-b6ab-2a2745f881ed"},"vehicle_type_id":"4","last_reported":1784245738,"current_range_meters":18000,"station_id":"","pricing_plan_id":"cebpf4jnsgd1na2vs0mg"},{"bike_id":"ba31ff88-1d88-44d2-b738-f39de79f28d0","system_id":"levelo_inurba_marseille","lat":43.29798,"lon":5.39351,"is_reserved":false,"is_disabled":false,"rental_uris":{"android":"levelo://app?vid=ba31ff88-1d88-44d2-b738-f39de79f28d0","ios":"levelo://app?vid=ba31ff88-1d88-44d2-b738-f39de79f28d0"},"vehicle_type_id":"4","last_reported":1784245738,"current_range_meters":32800,"station_id":"chh1huq6cuj3fo74tm60","pricing_plan_id":"cebpf4jnsgd1na2vs0mg"},{"bike_id":"942148f9-90f2-4171-8f05-98ba0ca85bcb","system_id":"levelo_inurba_marseille","lat":43.28483,"lon":5.4843,"is_reserved":false,"is_disabled":false,"rental_uris":{"android":"levelo://app?vid=942148f9-90f2-4171-8f05-98ba0ca85bcb","ios":"levelo://app?vid=942148f9-90f2-4171-8f05-98ba0ca85bcb"},"vehicle_type_id":"4","last_reported":1784245738,"current_range_meters":11200,"station_id":"st_d3svhcjqgbts73a3dn0g","pricing_plan_id":"cebpf4jnsgd1na2vs0mg"},{"bike_id":"2cd21150-d2b7-4b36-880f-cb5e3af2b424","system_id":"levelo_inurba_marseille","lat":43.2418,"lon":5.3973,"is_reserved":false,"is_disabled":false,"rental_uris":{"android":"levelo://app?vid=2cd21150-d2b7-4b36-880f-cb5e3af2b424","ios":"levelo://app?vid=2cd21150-d2b7-4b36-880f-cb5e3af2b424"},"vehicle_type_id":"4","last_reported":1784245738,"current_range_meters":4800,"station_id":"ce4bhn12rcd13ifvqgpg","pricing_plan_id":"cebpf4jnsgd1na2vs0mg"},{"bike_id":"b2b194ed-86a5-4dc8-b828-5b80e1681197","system_id":"levelo_inurba_marseille","lat":43.28524,"lon":5.44134,"is_reserved":false,"is_disabled":false,"rental_uris":{"android":"levelo://app?vid=b2b194ed-86a5-4dc8-b828-5b80e1681197","ios":"levelo://app?vid=b2b194ed-86a5-4dc8-b828-5b80e1681197"},"vehicle_type_id":"4","last_reported":1784245738,"current_range_meters":39200,"station_id":"st_d3j3df2ikq2c7380ej80","pricing_plan_id":"cebpf4jnsgd1na2vs0mg"},{"bike_id":"74e379ab-ffad-4776-8b24-2509d0d86cff","system_id":"levelo_inurba_marseille","lat":43.2797,"lon":5.387417,"is_reserved":false,"is_disabled":false,"rental_uris":{"android":"levelo://app?vid=74e379ab-ffad-4776-8b24-2509d0d86cff","ios":"levelo://app?vid=74e379ab-ffad-4776-8b24-2509d0d86cff"},"vehicle_type_id":"4","last_reported":1784245738,"current_range_meters":35600,"station_id":"ce4bhg12rcd13ifvqf80","pricing_plan_id":"cebpf4jnsgd1na2vs0mg"},{"bike_id":"2a93def1-9840-4751-b465-b53bb0ce6123","system_id":"levelo_inurba_marseille","lat":43.22558,"lon":5.41635,"is_reserved":false,"is_disabled":false,"rental_uris":{"android":"levelo://app?vid=2a93def1-9840-4751-b465-b53bb0ce6123","ios":"levelo://app?vid=2a93def1-9840-4751-b465-b53bb0ce6123"},"vehicle_type_id":"4","last_reported":1784245738,"current_range_meters":18800,"station_id":"st_d2o4gvlbi1j2169b742g","pricing_plan_id":"cebpf4jnsgd1na2vs0mg"},{"bike_id":"ff8cbcca-37d3-49dd-af4b-126722b555ff","system_id":"levelo_inurba_marseille","lat":43.24065,"lon":5.37793,"is_reserved":false,"is_disabled":false,"rental_uris":{"android":"levelo://app?vid=ff8cbcca-37d3-49dd-af4b-126722b555ff","ios":"levelo://app?vid=ff8cbcca-37d3-49dd-af4b-126722b555ff"},"vehicle_type_id":"4","last_reported":1784245738,"current_range_meters":27600,"station_id":"ce4bhnp2rcd13ifvqgvg","pricing_plan_id":"cebpf4jnsgd1na2vs0mg"},{"bike_id":"10592882-7bed-4bde-a924-b4cdb04c175f","system_id":"levelo_inurba_marseille","lat":43.28162,"lon":5.4264,"is_reserved":false,"is_disabled":false,"rental_uris":{"android":"levelo://app?vid=10592882-7bed-4bde-a924-b4cdb04c175f","ios":"levelo://app?vid=10592882-7bed-4bde-a924-b4cdb04c175f"},"vehicle_type_id":"4","last_reported":1784245738,"current_range_meters":37600,"station_id":"ce4bhnh2rcd13ifvqgug","pricing_plan_id":"cebpf4jnsgd1na2vs0mg"},{"bike_id":"b617c35b-7c51-4687-9948-30e5ef21086e","system_id":"levelo_inurba_marseille","lat":43.28717,"lon":5.46694,"is_reserved":false,"is_disabled":false,"rental_uris":{"android":"levelo://app?vid=b617c35b-7c51-4687-9948-30e5ef21086e","ios":"levelo://app?vid=b617c35b-7c51-4687-9948-30e5ef21086e"},"vehicle_type_id":"4","last_reported":1784245738,"current_range_meters":16400,"station_id":"st_d6tc3vkotcvc738tfjhg","pricing_plan_id":"cebpf4jnsgd1na2vs0mg"},{"bike_id":"4702674c-fd65-4e4a-968f-8730608f47d9","system_id":"levelo_inurba_marseille","lat":43.2988,"lon":5.39738,"is_reserved":false,"is_disabled":false,"rental_uris":{"android":"levelo://app?vid=4702674c-fd65-4e4a-968f-8730608f47d9","ios":"levelo://app?vid=4702674c-fd65-4e4a-968f-8730608f47d9"},"vehicle_type_id":"4","last_reported":1784245738,"current_range_meters":19200,"station_id":"ce4bh0h2rcd13ifvqd50","pricing_plan_id":"cebpf4jnsgd1na2vs0mg"},{"bike_id":"abd28b51-9db3-4251-8023-1ab1c1cc68c9","system_id":"levelo_inurba_marseille","lat":43.27999,"lon":5.41674,"is_reserved":false,"is_disabled":true,"rental_uris":{"android":"levelo://app?vid=abd28b51-9db3-4251-8023-1ab1c1cc68c9","ios":"levelo://app?vid=abd28b51-9db3-4251-8023-1ab1c1cc68c9"},"vehicle_type_id":"4","last_reported":1784245738,"current_range_meters":25600,"station_id":"ce4bho12rcd13ifvqh1g","pricing_plan_id":"cebpf4jnsgd1na2vs0mg"},{"bike_id":"fea820c7-0ce2-416f-b410-5a7d516e7f22","system_id":"levelo_inurba_marseille","lat":43.30408,"lon":5.41289,"is_reserved":false,"is_disabled":false,"rental_uris":{"android":"levelo://app?vid=fea820c7-0ce2-416f-b410-5a7d516e7f22","ios":"levelo://app?vid=fea820c7-0ce2-416f-b410-5a7d516e7f22"},"vehicle_type_id":"4","last_reported":1784245738,"current_range_meters":39200,"station_id":"ce4bhop2rcd13ifvqh8g","pricing_plan_id":"cebpf4jnsgd1na2vs0mg"},{"bike_id":"6d32b765-aa0d-46a8-942b-fd272d4b06e6","system_id":"levelo_inurba_marseille","lat":43.2761,"lon":5.36125,"is_reserved":false,"is_disabled":true,"rental_uris":{"android":"levelo://app?vid=6d32b765-aa0d-46a8-942b-fd272d4b06e6","ios":"levelo://app?vid=6d32b765-aa0d-46a8-942b-fd272d4b06e6"},"vehicle_type_id":"4","last_reported":1784245738,"current_range_meters":9600,"station_id":"ce4bgj92rcd13ifvqbe0","pricing_plan_id":"cebpf4jnsgd1na2vs0mg"},{"bike_id":"21f439ca-4336-4cea-8a70-612d8a89f5e8","system_id":"levelo_inurba_marseille","lat":43.21748,"lon":5.3462,"is_reserved":false,"is_disabled":false,"rental_uris":{"android":"levelo://app?vid=21f439ca-4336-4cea-8a70-612d8a89f5e8","ios":"levelo://app?vid=21f439ca-4336-4cea-8a70-612d8a89f5e8"},"vehicle_type_id":"4","last_reported":1784245738,"current_range_meters":19600,"station_id":"st_cvj6r9ubvosntc0bgbag","pricing_plan_id":"cebpf4jnsgd1na2vs0mg"},{"bike_id":"fa3de344-4295-40f5-8fc4-c11ba8a07127","system_id":"levelo_inurba_marseille","lat":43.27813,"lon":5.40715,"is_reserved":false,"is_disabled":false,"rental_uris":{"android":"levelo://app?vid=fa3de344-4295-40f5-8fc4-c11ba8a07127","ios":"levelo://app?vid=fa3de344-4295-40f5-8fc4-c11ba8a07127"},"vehicle_type_id":"4","last_reported":1784245738,"current_range_meters":36400,"station_id":"ce4bhnh2rcd13ifvqgtg","pricing_plan_id":"cebpf4jnsgd1na2vs0mg"},{"bike_id":"57889d2e-37dd-4f8f-b3ab-1bc0a62b2215","system_id":"levelo_inurba_marseille","lat":43.30461,"lon":5.37905,"is_reserved":false,"is_disabled":true,"rental_uris":{"android":"levelo://app?vid=57889d2e-37dd-4f8f-b3ab-1bc0a62b2215","ios":"levelo://app?vid=57889d2e-37dd-4f8f-b3ab-1bc0a62b2215"},"vehicle_type_id":"4","last_reported":1784245738,"current_range_meters":27600,"station_id":"ce4bgup2rcd13ifvqcn0","pricing_plan_id":"cebpf4jnsgd1na2vs0mg"},{"bike_id":"c6b62028-2fba-481c-a2b5-507778ec7c93","system_id":"levelo_inurba_marseille","lat":43.31551,"lon":5.41365,"is_reserved":false,"is_disabled":true,"rental_uris":{"android":"levelo://app?vid=c6b62028-2fba-481c-a2b5-507778ec7c93","ios":"levelo://app?vid=c6b62028-2fba-481c-a2b5-507778ec7c93"},"vehicle_type_id":"4","last_reported":1784245738,"current_range_meters":0,"station_id":"","pricing_plan_id":"cebpf4jnsgd1na2vs0mg"},{"bike_id":"7135d7f5-2834-488f-baf4-a3b0445e023c","system_id":"levelo_inurba_marseille","lat":43.279732,"lon":5.387456,"is_reserved":false,"is_disabled":true,"rental_uris":{"android":"levelo://app?vid=7135d7f5-2834-488f-baf4-a3b0445e023c","ios":"levelo://app?vid=7135d7f5-2834-488f-baf4-a3b0445e023c"},"vehicle_type_id":"4","last_reported":1784245738,"current_range_meters":35600,"station_id":"ce4bhg12rcd13ifvqf80","pricing_plan_id":"cebpf4jnsgd1na2vs0mg"},{"bike_id":"1cc89822-93d0-47df-9a31-8fbc0be65f81","system_id":"levelo_inurba_marseille","lat":43.27939,"lon":5.41056,"is_reserved":false,"is_disabled":false,"rental_uris":{"android":"levelo://app?vid=1cc89822-93d0-47df-9a31-8fbc0be65f81","ios":"levelo://app?vid=1cc89822-93d0-47df-9a31-8fbc0be65f81"},"vehicle_type_id":"4","last_reported":1784245738,"current_range_meters":29600,"station_id":"ce4bhnp2rcd13ifvqh0g","pricing_plan_id":"cebpf4jnsgd1na2vs0mg"},{"bike_id":"8946fedd-2e32-49ed-b51d-8d2209da3742","system_id":"levelo_inurba_marseille","lat":43.29406,"lon":5.38146,"is_reserved":false,"is_disabled":false,"rental_uris":{"android":"levelo://app?vid=8946fedd-2e32-49ed-b51d-8d2209da3742","ios":"levelo://app?vid=8946fedd-2e32-49ed-b51d-8d2209da3742"},"vehicle_type_id":"4","last_reported":1784245738,"current_range_meters":9600,"station_id":"","pricing_plan_id":"cebpf4jnsgd1na2vs0mg"},{"bike_id":"51905566-557d-413c-97fd-b84daf11e827","system_id":"levelo_inurba_marseille","lat":43.27901,"lon":5.39598,"is_reserved":false,"is_disabled":true,"rental_uris":{"android":"levelo://app?vid=51905566-557d-413c-97fd-b84daf11e827","ios":"levelo://app?vid=51905566-557d-413c-97fd-b84daf11e827"},"vehicle_type_id":"4","last_reported":1784245738,"current_range_meters":31200,"station_id":"ce4bhf92rcd13ifvqf40","pricing_plan_id":"cebpf4jnsgd1na2vs0mg"},{"bike_id":"1fd3872c-1cbb-4e5b-97bc-1f5e2bf1ca78","system_id":"levelo_inurba_marseille","lat":43.231527,"lon":5.437046,"is_reserved":false,"is_disabled":false,"rental_uris":{"android":"levelo://app?vid=1fd3872c-1cbb-4e5b-97bc-1f5e2bf1ca78","ios":"levelo://app?vid=1fd3872c-1cbb-4e5b-97bc-1f5e2bf1ca78"},"vehicle_type_id":"4","last_reported":1784245738,"current_range_meters":38800,"station_id":"ce4bhmp2rcd13ifvqgog","pricing_plan_id":"cebpf4jnsgd1na2vs0mg"},{"bike_id":"04f79851-52e6-4303-9105-2ba3a3dca261","system_id":"levelo_inurba_marseille","lat":43.2437,"lon":5.37045,"is_reserved":false,"is_disabled":false,"rental_uris":{"android":"levelo://app?vid=04f79851-52e6-4303-9105-2ba3a3dca261","ios":"levelo://app?vid=04f79851-52e6-4303-9105-2ba3a3dca261"},"vehicle_type_id":"4","last_reported":1784245738,"current_range_meters":39200,"station_id":"ce4bhhh2rcd13ifvqfk0","pricing_plan_id":"cebpf4jnsgd1na2vs0mg"},{"bike_id":"78b472ae-7ca1-438d-a65f-f93d06645001","system_id":"levelo_inurba_marseille","lat":43.29199,"lon":5.36045,"is_reserved":false,"is_disabled":true,"rental_uris":{"android":"levelo://app?vid=78b472ae-7ca1-438d-a65f-f93d06645001","ios":"levelo://app?vid=78b472ae-7ca1-438d-a65f-f93d06645001"},"vehicle_type_id":"4","last_reported":1784245738,"current_range_meters":8400,"station_id":"","pricing_plan_id":"cebpf4jnsgd1na2vs0mg"},{"bike_id":"aea11bbc-2d6f-4be0-b121-dbc2d33dd165","system_id":"levelo_inurba_marseille","lat":43.32038,"lon":5.4157,"is_reserved":false,"is_disabled":false,"rental_uris":{"android":"levelo://app?vid=aea11bbc-2d6f-4be0-b121-dbc2d33dd165","ios":"levelo://app?vid=aea11bbc-2d6f-4be0-b121-dbc2d33dd165"},"vehicle_type_id":"4","last_reported":1784245738,"current_range_meters":39200,"station_id":"ce4bhq92rcd13ifvqhkg","pricing_plan_id":"cebpf4jnsgd1na2vs0mg"},{"bike_id":"4c6ecbea-a926-4293-8ede-b01e0502d0a0","system_id":"levelo_inurba_marseille","lat":43.28425,"lon":5.35684,"is_reserved":false,"is_disabled":false,"rental_uris":{"android":"levelo://app?vid=4c6ecbea-a926-4293-8ede-b01e0502d0a0","ios":"levelo://app?vid=4c6ecbea-a926-4293-8ede-b01e0502d0a0"},"vehicle_type_id":"4","last_reported":1784245738,"current_range_meters":14000,"station_id":"","pricing_plan_id":"cebpf4jnsgd1na2vs0mg"},{"bike_id":"96825e0c-14e6-44a1-9638-22706c4a0540","system_id":"levelo_inurba_marseille","lat":43.27208,"lon":5.39197,"is_reserved":false,"is_disabled":true,"rental_uris":{"android":"levelo://app?vid=96825e0c-14e6-44a1-9638-22706c4a0540","ios":"levelo://app?vid=96825e0c-14e6-44a1-9638-22706c4a0540"},"vehicle_type_id":"4","last_reported":1784245738,"current_range_meters":4800,"station_id":"ce4bhhp2rcd13ifvqfm0","pricing_plan_id":"cebpf4jnsgd1na2vs0mg"},{"bike_id":"945ce0ea-ffc1-40d7-9ea3-c6ada1751970","system_id":"levelo_inurba_marseille","lat":43.3114,"lon":5.38755,"is_reserved":false,"is_disabled":false,"rental_uris":{"android":"levelo://app?vid=945ce0ea-ffc1-40d7-9ea3-c6ada1751970","ios":"levelo://app?vid=945ce0ea-ffc1-40d7-9ea3-c6ada1751970"},"vehicle_type_id":"4","last_reported":1784245738,"current_range_meters":15200,"station_id":"","pricing_plan_id":"cebpf4jnsgd1na2vs0mg"},{"bike_id":"b3fb29a4-60a1-42fd-96a6-135db1ae8322","system_id":"levelo_inurba_marseille","lat":43.270807,"lon":5.382666,"is_reserved":false,"is_disabled":false,"rental_uris":{"android":"levelo://app?vid=b3fb29a4-60a1-42fd-96a6-135db1ae8322","ios":"levelo://app?vid=b3fb29a4-60a1-42fd-96a6-135db1ae8322"},"vehicle_type_id":"4","last_reported":1784245738,"current_range_meters":28800,"station_id":"st_d3n2fo6cfp8s73cte1j0","pricing_plan_id":"cebpf4jnsgd1na2vs0mg"},{"bike_id":"29dc7248-c9a4-4516-96d1-2c94db54da10","system_id":"levelo_inurba_marseille","lat":43.27691,"lon":5.38887,"is_reserved":false,"is_disabled":false,"rental_uris":{"android":"levelo://app?vid=29dc7248-c9a4-4516-96d1-2c94db54da10","ios":"levelo://app?vid=29dc7248-c9a4-4516-96d1-2c94db54da10"},"vehicle_type_id":"4","last_reported":1784245738,"current_range_meters":10800,"station_id":"ce4bhi12rcd13ifvqfo0","pricing_plan_id":"cebpf4jnsgd1na2vs0mg"},{"bike_id":"9f5e9f93-d27a-4745-b2fc-4f8bd5f2e7dd","system_id":"levelo_inurba_marseille","lat":43.28214,"lon":5.39043,"is_reserved":false,"is_disabled":false,"rental_uris":{"android":"levelo://app?vid=9f5e9f93-d27a-4745-b2fc-4f8bd5f2e7dd","ios":"levelo://app?vid=9f5e9f93-d27a-4745-b2fc-4f8bd5f2e7dd"},"vehicle_type_id":"4","last_reported":1784245738,"current_range_meters":22800,"station_id":"ce4bhn92rcd13ifvqgsg","pricing_plan_id":"cebpf4jnsgd1na2vs0mg"},{"bike_id":"f9a5994c-c7cd-4b61-a1ac-5facbf202489","system_id":"levelo_inurba_marseille","lat":43.28696,"lon":5.39976,"is_reserved":false,"is_disabled":false,"rental_uris":{"android":"levelo://app?vid=f9a5994c-c7cd-4b61-a1ac-5facbf202489","ios":"levelo://app?vid=f9a5994c-c7cd-4b61-a1ac-5facbf202489"},"vehicle_type_id":"4","last_reported":1784245738,"current_range_meters":24400,"station_id":"ce4bho92rcd13ifvqh3g","pricing_plan_id":"cebpf4jnsgd1na2vs0mg"},{"bike_id":"cbf57bb6-373a-442c-9860-92cf9215a1bb","system_id":"levelo_inurba_marseille","lat":43.30525,"lon":5.36532,"is_reserved":false,"is_disabled":true,"rental_uris":{"android":"levelo://app?vid=cbf57bb6-373a-442c-9860-92cf9215a1bb","ios":"levelo://app?vid=cbf57bb6-373a-442c-9860-92cf9215a1bb"},"vehicle_type_id":"4","last_reported":1784245738,"current_range_meters":29600,"station_id":"ce4bgs12rcd13ifvqcag","pricing_plan_id":"cebpf4jnsgd1na2vs0mg"},{"bike_id":"f510017f-38fa-4dc8-9884-430b43be2034","system_id":"levelo_inurba_marseille","lat":43.29234,"lon":5.36063,"is_reserved":false,"is_disabled":false,"rental_uris":{"android":"levelo://app?vid=f510017f-38fa-4dc8-9884-430b43be2034","ios":"levelo://app?vid=f510017f-38fa-4dc8-9884-430b43be2034"},"vehicle_type_id":"4","last_reported":1784245738,"current_range_meters":14400,"station_id":"","pricing_plan_id":"cebpf4jnsgd1na2vs0mg"},{"bike_id":"fad4d476-b565-4b81-9166-a20796df0b18","system_id":"levelo_inurba_marseille","lat":43.24798,"lon":5.37448,"is_reserved":false,"is_disabled":false,"rental_uris":{"android":"levelo://app?vid=fad4d476-b565-4b81-9166-a20796df0b18","ios":"levelo://app?vid=fad4d476-b565-4b81-9166-a20796df0b18"},"vehicle_type_id":"4","last_reported":1784245738,"current_range_meters":22000,"station_id":"","pricing_plan_id":"cebpf4jnsgd1na2vs0mg"},{"bike_id":"ddf1b4ef-0e62-45df-aa45-78c467e588f8","system_id":"levelo_inurba_marseille","lat":43.28105,"lon":5.37833,"is_reserved":false,"is_disabled":false,"rental_uris":{"android":"levelo://app?vid=ddf1b4ef-0e62-45df-aa45-78c467e588f8","ios":"levelo://app?vid=ddf1b4ef-0e62-45df-aa45-78c467e588f8"},"vehicle_type_id":"4","last_reported":1784245738,"current_range_meters":34000,"station_id":"ce4bha12rcd13ifvqee0","pricing_plan_id":"cebpf4jnsgd1na2vs0mg"},{"bike_id":"e8b2132e-2e2f-4678-bd27-ce3f9f11f158","system_id":"levelo_inurba_marseille","lat":43.30455,"lon":5.37905,"is_reserved":false,"is_disabled":true,"rental_uris":{"android":"levelo://app?vid=e8b2132e-2e2f-4678-bd27-ce3f9f11f158","ios":"levelo://app?vid=e8b2132e-2e2f-4678-bd27-ce3f9f11f158"},"vehicle_type_id":"4","last_reported":1784245738,"current_range_meters":22400,"station_id":"ce4bgup2rcd13ifvqcn0","pricing_plan_id":"cebpf4jnsgd1na2vs0mg"},{"bike_id":"17f00b12-f8d0-413a-b992-98dadbd11261","system_id":"levelo_inurba_marseille","lat":43.25001,"lon":5.38916,"is_reserved":false,"is_disabled":false,"rental_uris":{"android":"levelo://app?vid=17f00b12-f8d0-413a-b992-98dadbd11261","ios":"levelo://app?vid=17f00b12-f8d0-413a-b992-98dadbd11261"},"vehicle_type_id":"4","last_reported":1784245738,"current_range_meters":38000,"station_id":"ce4bhgp2rcd13ifvqfd0","pricing_plan_id":"cebpf4jnsgd1na2vs0mg"},{"bike_id":"93f173f0-b5e7-453c-b62d-5cea08429256","system_id":"levelo_inurba_marseille","lat":43.29195,"lon":5.35796,"is_reserved":false,"is_disabled":true,"rental_uris":{"android":"levelo://app?vid=93f173f0-b5e7-453c-b62d-5cea08429256","ios":"levelo://app?vid=93f173f0-b5e7-453c-b62d-5cea08429256"},"vehicle_type_id":"4","last_reported":1784245738,"current_range_meters":30000,"station_id":"ce4bhb12rcd13ifvqel0","pricing_plan_id":"cebpf4jnsgd1na2vs0mg"},{"bike_id":"100fb275-aa68-479c-9c14-db467920b76d","system_id":"levelo_inurba_marseille","lat":43.28655,"lon":5.36358,"is_reserved":false,"is_disabled":false,"rental_uris":{"android":"levelo://app?vid=100fb275-aa68-479c-9c14-db467920b76d","ios":"levelo://app?vid=100fb275-aa68-479c-9c14-db467920b76d"},"vehicle_type_id":"4","last_reported":1784245738,"current_range_meters":36800,"station_id":"ce4bhah2rcd13ifvqej0","pricing_plan_id":"cebpf4jnsgd1na2vs0mg"},{"bike_id":"4f54c651-15d1-492f-8d09-70f1f809ad4f","system_id":"levelo_inurba_marseille","lat":43.27456,"lon":5.42549,"is_reserved":false,"is_disabled":false,"rental_uris":{"android":"levelo://app?vid=4f54c651-15d1-492f-8d09-70f1f809ad4f","ios":"levelo://app?vid=4f54c651-15d1-492f-8d09-70f1f809ad4f"},"vehicle_type_id":"4","last_reported":1784245738,"current_range_meters":30800,"station_id":"st_d8t4bh7nbrqs73arha60","pricing_plan_id":"cebpf4jnsgd1na2vs0mg"},{"bike_id":"04ed4e41-07b7-4d3e-ad9d-b2def000bec2","system_id":"levelo_inurba_marseille","lat":43.31833,"lon":5.39001,"is_reserved":false,"is_disabled":false,"rental_uris":{"android":"levelo://app?vid=04ed4e41-07b7-4d3e-ad9d-b2def000bec2","ios":"levelo://app?vid=04ed4e41-07b7-4d3e-ad9d-b2def000bec2"},"vehicle_type_id":"4","last_reported":1784245738,"current_range_meters":37600,"station_id":"","pricing_plan_id":"cebpf4jnsgd1na2vs0mg"},{"bike_id":"f3b23395-26d5-4c0e-b718-dfd4c36d7332","system_id":"levelo_inurba_marseille","lat":43.30799,"lon":5.38178,"is_reserved":false,"is_disabled":false,"rental_uris":{"android":"levelo://app?vid=f3b23395-26d5-4c0e-b718-dfd4c36d7332","ios":"levelo://app?vid=f3b23395-26d5-4c0e-b718-dfd4c36d7332"},"vehicle_type_id":"4","last_reported":1784245738,"current_range_meters":40000,"station_id":"ce4bgt12rcd13ifvqce0","pricing_plan_id":"cebpf4jnsgd1na2vs0mg"},{"bike_id":"8b294f14-7fd6-4630-bc3c-76ed29b97fe8","system_id":"levelo_inurba_marseille","lat":43.30131,"lon":5.39878,"is_reserved":false,"is_disabled":false,"rental_uris":{"android":"levelo://app?vid=8b294f14-7fd6-4630-bc3c-76ed29b97fe8","ios":"levelo://app?vid=8b294f14-7fd6-4630-bc3c-76ed29b97fe8"},"vehicle_type_id":"4","last_reported":1784245738,"current_range_meters":36400,"station_id":"ce4bh0h2rcd13ifvqd40","pricing_plan_id":"cebpf4jnsgd1na2vs0mg"},{"bike_id":"f0e8fbee-116b-4575-8cba-462368abdb7b","system_id":"levelo_inurba_marseille","lat":43.29924,"lon":5.37452,"is_reserved":false,"is_disabled":false,"rental_uris":{"android":"levelo://app?vid=f0e8fbee-116b-4575-8cba-462368abdb7b","ios":"levelo://app?vid=f0e8fbee-116b-4575-8cba-462368abdb7b"},"vehicle_type_id":"4","last_reported":1784245738,"current_range_meters":23200,"station_id":"ce4bgjh2rcd13ifvqbg0","pricing_plan_id":"cebpf4jnsgd1na2vs0mg"},{"bike_id":"c4a7b80c-6b15-48f4-8796-916b0a9d1a2b","system_id":"levelo_inurba_marseille","lat":43.2905,"lon":5.39937,"is_reserved":false,"is_disabled":false,"rental_uris":{"android":"levelo://app?vid=c4a7b80c-6b15-48f4-8796-916b0a9d1a2b","ios":"levelo://app?vid=c4a7b80c-6b15-48f4-8796-916b0a9d1a2b"},"vehicle_type_id":"4","last_reported":1784245738,"current_range_meters":35200,"station_id":"ce4bh392rcd13ifvqdm0","pricing_plan_id":"cebpf4jnsgd1na2vs0mg"},{"bike_id":"9485be1f-c90e-4919-888f-8ea173824e12","system_id":"levelo_inurba_marseille","lat":43.22527,"lon":5.34836,"is_reserved":false,"is_disabled":false,"rental_uris":{"android":"levelo://app?vid=9485be1f-c90e-4919-888f-8ea173824e12","ios":"levelo://app?vid=9485be1f-c90e-4919-888f-8ea173824e12"},"vehicle_type_id":"4","last_reported":1784245738,"current_range_meters":25600,"station_id":"st_cvj5dfep6f1abm77gieg","pricing_plan_id":"cebpf4jnsgd1na2vs0mg"},{"bike_id":"0cce3696-a780-4bf7-8b3f-2997139761e8","system_id":"levelo_inurba_marseille","lat":43.3077,"lon":5.3764,"is_reserved":false,"is_disabled":false,"rental_uris":{"android":"levelo://app?vid=0cce3696-a780-4bf7-8b3f-2997139761e8","ios":"levelo://app?vid=0cce3696-a780-4bf7-8b3f-2997139761e8"},"vehicle_type_id":"4","last_reported":1784245738,"current_range_meters":39200,"station_id":"ce4bgv92rcd13ifvqcq0","pricing_plan_id":"cebpf4jnsgd1na2vs0mg"},{"bike_id":"0cc9064c-9e67-4dd7-b11e-84260d626c23","system_id":"levelo_inurba_marseille","lat":43.299,"lon":5.38139,"is_reserved":false,"is_disabled":true,"rental_uris":{"android":"levelo://app?vid=0cc9064c-9e67-4dd7-b11e-84260d626c23","ios":"levelo://app?vid=0cc9064c-9e67-4dd7-b11e-84260d626c23"},"vehicle_type_id":"4","last_reported":1784245738,"current_range_meters":38400,"station_id":"ce4bgj12rcd13ifvqbc0","pricing_plan_id":"cebpf4jnsgd1na2vs0mg"},{"bike_id":"97a5bd11-ae13-41ce-a375-66adda70c59a","system_id":"levelo_inurba_marseille","lat":43.28655,"lon":5.36355,"is_reserved":false,"is_disabled":false,"rental_uris":{"android":"levelo://app?vid=97a5bd11-ae13-41ce-a375-66adda70c59a","ios":"levelo://app?vid=97a5bd11-ae13-41ce-a375-66adda70c59a"},"vehicle_type_id":"4","last_reported":1784245738,"current_range_meters":39200,"station_id":"ce4bhah2rcd13ifvqej0","pricing_plan_id":"cebpf4jnsgd1na2vs0mg"},{"bike_id":"c9a59056-ae0e-4897-9fea-d31bc3d1cee2","system_id":"levelo_inurba_marseille","lat":43.28654,"lon":5.4002,"is_reserved":false,"is_disabled":false,"rental_uris":{"android":"levelo://app?vid=c9a59056-ae0e-4897-9fea-d31bc3d1cee2","ios":"levelo://app?vid=c9a59056-ae0e-4897-9fea-d31bc3d1cee2"},"vehicle_type_id":"4","last_reported":1784245738,"current_range_meters":27600,"station_id":"ce4bho92rcd13ifvqh3g","pricing_plan_id":"cebpf4jnsgd1na2vs0mg"},{"bike_id":"d34f4750-e237-4b97-97f5-f7d9fd381132","system_id":"levelo_inurba_marseille","lat":43.28028,"lon":5.36924,"is_reserved":false,"is_disabled":false,"rental_uris":{"android":"levelo://app?vid=d34f4750-e237-4b97-97f5-f7d9fd381132","ios":"levelo://app?vid=d34f4750-e237-4b97-97f5-f7d9fd381132"},"vehicle_type_id":"4","last_reported":1784245738,"current_range_meters":38400,"station_id":"ce4bha12rcd13ifvqef0","pricing_plan_id":"cebpf4jnsgd1na2vs0mg"},{"bike_id":"dbbb3219-f764-4e7a-9255-55506377a43e","system_id":"levelo_inurba_marseille","lat":43.30567,"lon":5.38433,"is_reserved":false,"is_disabled":false,"rental_uris":{"android":"levelo://app?vid=dbbb3219-f764-4e7a-9255-55506377a43e","ios":"levelo://app?vid=dbbb3219-f764-4e7a-9255-55506377a43e"},"vehicle_type_id":"4","last_reported":1784245738,"current_range_meters":21600,"station_id":"ce4bgg92rcd13ifvqb30","pricing_plan_id":"cebpf4jnsgd1na2vs0mg"},{"bike_id":"fa3031ad-6631-4525-91b1-34b5dbda5527","system_id":"levelo_inurba_marseille","lat":43.29043,"lon":5.39957,"is_reserved":false,"is_disabled":false,"rental_uris":{"android":"levelo://app?vid=fa3031ad-6631-4525-91b1-34b5dbda5527","ios":"levelo://app?vid=fa3031ad-6631-4525-91b1-34b5dbda5527"},"vehicle_type_id":"4","last_reported":1784245738,"current_range_meters":39200,"station_id":"ce4bh392rcd13ifvqdm0","pricing_plan_id":"cebpf4jnsgd1na2vs0mg"},{"bike_id":"d1a1018e-1079-44b1-ae0e-4f59c2e0900b","system_id":"levelo_inurba_marseille","lat":43.29194,"lon":5.3931,"is_reserved":false,"is_disabled":false,"rental_uris":{"android":"levelo://app?vid=d1a1018e-1079-44b1-ae0e-4f59c2e0900b","ios":"levelo://app?vid=d1a1018e-1079-44b1-ae0e-4f59c2e0900b"},"vehicle_type_id":"4","last_reported":1784245738,"current_range_meters":27600,"station_id":"ce4bh192rcd13ifvqdd0","pricing_plan_id":"cebpf4jnsgd1na2vs0mg"},{"bike_id":"1d9f3df3-4693-4dfa-8626-345c609c22e4","system_id":"levelo_inurba_marseille","lat":43.29088,"lon":5.37409,"is_reserved":false,"is_disabled":false,"rental_uris":{"android":"levelo://app?vid=1d9f3df3-4693-4dfa-8626-345c609c22e4","ios":"levelo://app?vid=1d9f3df3-4693-4dfa-8626-345c609c22e4"},"vehicle_type_id":"4","last_reported":1784245738,"current_range_meters":28000,"station_id":"","pricing_plan_id":"cebpf4jnsgd1na2vs0mg"},{"bike_id":"9887cbd2-57f7-4b5d-b53f-0db540ed727d","system_id":"levelo_inurba_marseille","lat":43.28723,"lon":5.37389,"is_reserved":false,"is_disabled":false,"rental_uris":{"android":"levelo://app?vid=9887cbd2-57f7-4b5d-b53f-0db540ed727d","ios":"levelo://app?vid=9887cbd2-57f7-4b5d-b53f-0db540ed727d"},"vehicle_type_id":"4","last_reported":1784245738,"current_range_meters":20400,"station_id":"ce4bh3p2rcd13ifvqdq0","pricing_plan_id":"cebpf4jnsgd1na2vs0mg"},{"bike_id":"202f9ad0-42a8-41b4-9ba7-c7ec0280e620","system_id":"levelo_inurba_marseille","lat":43.23194,"lon":5.35547,"is_reserved":false,"is_disabled":false,"rental_uris":{"android":"levelo://app?vid=202f9ad0-42a8-41b4-9ba7-c7ec0280e620","ios":"levelo://app?vid=202f9ad0-42a8-41b4-9ba7-c7ec0280e620"},"vehicle_type_id":"4","last_reported":1784245738,"current_range_meters":38400,"station_id":"ce4bhu92rcd13ifvqi70","pricing_plan_id":"cebpf4jnsgd1na2vs0mg"},{"bike_id":"d3ee0907-9882-4b16-b0d5-e56c8fd9c029","system_id":"levelo_inurba_marseille","lat":43.2867,"lon":5.3635,"is_reserved":false,"is_disabled":false,"rental_uris":{"android":"levelo://app?vid=d3ee0907-9882-4b16-b0d5-e56c8fd9c029","ios":"levelo://app?vid=d3ee0907-9882-4b16-b0d5-e56c8fd9c029"},"vehicle_type_id":"4","last_reported":1784245738,"current_range_meters":36000,"station_id":"ce4bhah2rcd13ifvqej0","pricing_plan_id":"cebpf4jnsgd1na2vs0mg"},{"bike_id":"319dceb6-04bb-4676-93c6-3e12abfde2dd","system_id":"levelo_inurba_marseille","lat":43.24992,"lon":5.38937,"is_reserved":false,"is_disabled":false,"rental_uris":{"android":"levelo://app?vid=319dceb6-04bb-4676-93c6-3e12abfde2dd","ios":"levelo://app?vid=319dceb6-04bb-4676-93c6-3e12abfde2dd"},"vehicle_type_id":"4","last_reported":1784245738,"current_range_meters":33200,"station_id":"ce4bhgp2rcd13ifvqfd0","pricing_plan_id":"cebpf4jnsgd1na2vs0mg"},{"bike_id":"f3955824-bc9b-40e3-bb4b-91c4e41aa833","system_id":"levelo_inurba_marseille","lat":43.30127,"lon":5.37416,"is_reserved":false,"is_disabled":true,"rental_uris":{"android":"levelo://app?vid=f3955824-bc9b-40e3-bb4b-91c4e41aa833","ios":"levelo://app?vid=f3955824-bc9b-40e3-bb4b-91c4e41aa833"},"vehicle_type_id":"4","last_reported":1784245738,"current_range_meters":17600,"station_id":"ce4bgs92rcd13ifvqcc0","pricing_plan_id":"cebpf4jnsgd1na2vs0mg"},{"bike_id":"4c445abe-25ad-466b-a445-744bf62fbea8","system_id":"levelo_inurba_marseille","lat":43.26203,"lon":5.37934,"is_reserved":false,"is_disabled":false,"rental_uris":{"android":"levelo://app?vid=4c445abe-25ad-466b-a445-744bf62fbea8","ios":"levelo://app?vid=4c445abe-25ad-466b-a445-744bf62fbea8"},"vehicle_type_id":"4","last_reported":1784245738,"current_range_meters":38800,"station_id":"ce4bhjp2rcd13ifvqg90","pricing_plan_id":"cebpf4jnsgd1na2vs0mg"},{"bike_id":"632ba4c2-82e5-4027-a7bb-cab224a3baee","system_id":"levelo_inurba_marseille","lat":43.23011,"lon":5.44511,"is_reserved":false,"is_disabled":false,"rental_uris":{"android":"levelo://app?vid=632ba4c2-82e5-4027-a7bb-cab224a3baee","ios":"levelo://app?vid=632ba4c2-82e5-4027-a7bb-cab224a3baee"},"vehicle_type_id":"4","last_reported":1784245738,"current_range_meters":8800,"station_id":"","pricing_plan_id":"cebpf4jnsgd1na2vs0mg"},{"bike_id":"33e399de-0a02-4d88-91c4-050341234223","system_id":"levelo_inurba_marseille","lat":43.30118,"lon":5.39852,"is_reserved":false,"is_disabled":false,"rental_uris":{"android":"levelo://app?vid=33e399de-0a02-4d88-91c4-050341234223","ios":"levelo://app?vid=33e399de-0a02-4d88-91c4-050341234223"},"vehicle_type_id":"4","last_reported":1784245738,"current_range_meters":35200,"station_id":"ce4bh0h2rcd13ifvqd40","pricing_plan_id":"cebpf4jnsgd1na2vs0mg"},{"bike_id":"e342b9f1-a6f4-474a-88a4-70e56cc058cc","system_id":"levelo_inurba_marseille","lat":43.3148,"lon":5.37302,"is_reserved":false,"is_disabled":false,"rental_uris":{"android":"levelo://app?vid=e342b9f1-a6f4-474a-88a4-70e56cc058cc","ios":"levelo://app?vid=e342b9f1-a6f4-474a-88a4-70e56cc058cc"},"vehicle_type_id":"4","last_reported":1784245738,"current_range_meters":6400,"station_id":"ce4bgt12rcd13ifvqcd0","pricing_plan_id":"cebpf4jnsgd1na2vs0mg"},{"bike_id":"845968b0-a792-4ca7-b281-50637a8b173d","system_id":"levelo_inurba_marseille","lat":43.30322,"lon":5.40441,"is_reserved":false,"is_disabled":false,"rental_uris":{"android":"levelo://app?vid=845968b0-a792-4ca7-b281-50637a8b173d","ios":"levelo://app?vid=845968b0-a792-4ca7-b281-50637a8b173d"},"vehicle_type_id":"4","last_reported":1784245738,"current_range_meters":34800,"station_id":"ce4bh012rcd13ifvqd10","pricing_plan_id":"cebpf4jnsgd1na2vs0mg"},{"bike_id":"0d3e100f-48fe-47e1-bef7-0a1dcfcc4955","system_id":"levelo_inurba_marseille","lat":43.33689,"lon":5.39165,"is_reserved":false,"is_disabled":false,"rental_uris":{"android":"levelo://app?vid=0d3e100f-48fe-47e1-bef7-0a1dcfcc4955","ios":"levelo://app?vid=0d3e100f-48fe-47e1-bef7-0a1dcfcc4955"},"vehicle_type_id":"4","last_reported":1784245738,"current_range_meters":32000,"station_id":"ce4bhr92rcd13ifvqhsg","pricing_plan_id":"cebpf4jnsgd1na2vs0mg"},{"bike_id":"8109b825-2eb6-467e-b313-e806da3e20b4","system_id":"levelo_inurba_marseille","lat":43.28153,"lon":5.42645,"is_reserved":false,"is_disabled":false,"rental_uris":{"android":"levelo://app?vid=8109b825-2eb6-467e-b313-e806da3e20b4","ios":"levelo://app?vid=8109b825-2eb6-467e-b313-e806da3e20b4"},"vehicle_type_id":"4","last_reported":1784245738,"current_range_meters":8800,"station_id":"ce4bhnh2rcd13ifvqgug","pricing_plan_id":"cebpf4jnsgd1na2vs0mg"},{"bike_id":"287adad5-5e66-4962-bf27-f75e78a46f79","system_id":"levelo_inurba_marseille","lat":43.29801,"lon":5.38107,"is_reserved":false,"is_disabled":true,"rental_uris":{"android":"levelo://app?vid=287adad5-5e66-4962-bf27-f75e78a46f79","ios":"levelo://app?vid=287adad5-5e66-4962-bf27-f75e78a46f79"},"vehicle_type_id":"4","last_reported":1784245738,"current_range_meters":15200,"station_id":"ce4bgip2rcd13ifvqbb0","pricing_plan_id":"cebpf4jnsgd1na2vs0mg"},{"bike_id":"ddbfbc6e-9ea5-4164-b0a2-7cc31ec7c025","system_id":"levelo_inurba_marseille","lat":43.32089,"lon":5.3684,"is_reserved":false,"is_disabled":false,"rental_uris":{"android":"levelo://app?vid=ddbfbc6e-9ea5-4164-b0a2-7cc31ec7c025","ios":"levelo://app?vid=ddbfbc6e-9ea5-4164-b0a2-7cc31ec7c025"},"vehicle_type_id":"4","last_reported":1784245738,"current_range_meters":19600,"station_id":"","pricing_plan_id":"cebpf4jnsgd1na2vs0mg"},{"bike_id":"aef89b62-f3f2-42ae-b2a6-748efd514ebd","system_id":"levelo_inurba_marseille","lat":43.30975,"lon":5.3965,"is_reserved":false,"is_disabled":false,"rental_uris":{"android":"levelo://app?vid=aef89b62-f3f2-42ae-b2a6-748efd514ebd","ios":"levelo://app?vid=aef89b62-f3f2-42ae-b2a6-748efd514ebd"},"vehicle_type_id":"4","last_reported":1784245738,"current_range_meters":11600,"station_id":"","pricing_plan_id":"cebpf4jnsgd1na2vs0mg"},{"bike_id":"5006ca7c-b3aa-466b-b32f-17a05e279cdb","system_id":"levelo_inurba_marseille","lat":43.30408,"lon":5.39746,"is_reserved":false,"is_disabled":false,"rental_uris":{"android":"levelo://app?vid=5006ca7c-b3aa-466b-b32f-17a05e279cdb","ios":"levelo://app?vid=5006ca7c-b3aa-466b-b32f-17a05e279cdb"},"vehicle_type_id":"4","last_reported":1784245738,"current_range_meters":24000,"station_id":"ce4bh092rcd13ifvqd20","pricing_plan_id":"cebpf4jnsgd1na2vs0mg"},{"bike_id":"f224c4ad-de42-406f-bdf6-9220ce5b5b74","system_id":"levelo_inurba_marseille","lat":43.30414,"lon":5.41286,"is_reserved":false,"is_disabled":false,"rental_uris":{"android":"levelo://app?vid=f224c4ad-de42-406f-bdf6-9220ce5b5b74","ios":"levelo://app?vid=f224c4ad-de42-406f-bdf6-9220ce5b5b74"},"vehicle_type_id":"4","last_reported":1784245738,"current_range_meters":15200,"station_id":"ce4bhop2rcd13ifvqh8g","pricing_plan_id":"cebpf4jnsgd1na2vs0mg"},{"bike_id":"fe9d1eb8-801f-4c8c-9f75-9cb8e94f370f","system_id":"levelo_inurba_marseille","lat":43.31885,"lon":5.40731,"is_reserved":false,"is_disabled":false,"rental_uris":{"android":"levelo://app?vid=fe9d1eb8-801f-4c8c-9f75-9cb8e94f370f","ios":"levelo://app?vid=fe9d1eb8-801f-4c8c-9f75-9cb8e94f370f"},"vehicle_type_id":"4","last_reported":1784245738,"current_range_meters":30800,"station_id":"ce4bhq12rcd13ifvqhig","pricing_plan_id":"cebpf4jnsgd1na2vs0mg"},{"bike_id":"b0c8d500-7067-4269-9c54-7d180c74a3a9","system_id":"levelo_inurba_marseille","lat":43.2904,"lon":5.3592,"is_reserved":false,"is_disabled":false,"rental_uris":{"android":"levelo://app?vid=b0c8d500-7067-4269-9c54-7d180c74a3a9","ios":"levelo://app?vid=b0c8d500-7067-4269-9c54-7d180c74a3a9"},"vehicle_type_id":"4","last_reported":1784245738,"current_range_meters":6400,"station_id":"ce4bha92rcd13ifvqeg0","pricing_plan_id":"cebpf4jnsgd1na2vs0mg"},{"bike_id":"8acd8ac0-b356-4336-af26-82ecc65adb94","system_id":"levelo_inurba_marseille","lat":43.2844,"lon":5.39188,"is_reserved":false,"is_disabled":false,"rental_uris":{"android":"levelo://app?vid=8acd8ac0-b356-4336-af26-82ecc65adb94","ios":"levelo://app?vid=8acd8ac0-b356-4336-af26-82ecc65adb94"},"vehicle_type_id":"4","last_reported":1784245738,"current_range_meters":30000,"station_id":"ce4bhoh2rcd13ifvqh5g","pricing_plan_id":"cebpf4jnsgd1na2vs0mg"},{"bike_id":"b4b7cf45-857d-499f-903c-2153de8727c5","system_id":"levelo_inurba_marseille","lat":43.32492,"lon":5.3658,"is_reserved":false,"is_disabled":false,"rental_uris":{"android":"levelo://app?vid=b4b7cf45-857d-499f-903c-2153de8727c5","ios":"levelo://app?vid=b4b7cf45-857d-499f-903c-2153de8727c5"},"vehicle_type_id":"4","last_reported":1784245738,"current_range_meters":39200,"station_id":"ce4bhs12rcd13ifvqhvg","pricing_plan_id":"cebpf4jnsgd1na2vs0mg"},{"bike_id":"3b38e1b3-f0b6-425e-89ac-3867e5d3c8d0","system_id":"levelo_inurba_marseille","lat":43.25119,"lon":5.40328,"is_reserved":false,"is_disabled":false,"rental_uris":{"android":"levelo://app?vid=3b38e1b3-f0b6-425e-89ac-3867e5d3c8d0","ios":"levelo://app?vid=3b38e1b3-f0b6-425e-89ac-3867e5d3c8d0"},"vehicle_type_id":"4","last_reported":1784245738,"current_range_meters":6000,"station_id":"ce4bhlh2rcd13ifvqgig","pricing_plan_id":"cebpf4jnsgd1na2vs0mg"},{"bike_id":"e35a471f-4162-47db-b945-02d55802c4cc","system_id":"levelo_inurba_marseille","lat":43.28535,"lon":5.44108,"is_reserved":false,"is_disabled":false,"rental_uris":{"android":"levelo://app?vid=e35a471f-4162-47db-b945-02d55802c4cc","ios":"levelo://app?vid=e35a471f-4162-47db-b945-02d55802c4cc"},"vehicle_type_id":"4","last_reported":1784245738,"current_range_meters":38000,"station_id":"st_d3j3df2ikq2c7380ej80","pricing_plan_id":"cebpf4jnsgd1na2vs0mg"},{"bike_id":"de33586d-1ad6-43fb-abac-eff95af90a64","system_id":"levelo_inurba_marseille","lat":43.26021,"lon":5.37548,"is_reserved":false,"is_disabled":true,"rental_uris":{"android":"levelo://app?vid=de33586d-1ad6-43fb-abac-eff95af90a64","ios":"levelo://app?vid=de33586d-1ad6-43fb-abac-eff95af90a64"},"vehicle_type_id":"4","last_reported":1784245738,"current_range_meters":25200,"station_id":"ce4bhgh2rcd13ifvqfa0","pricing_plan_id":"cebpf4jnsgd1na2vs0mg"},{"bike_id":"61804fc0-72a7-449f-ad34-2d4f7c8e20d0","system_id":"levelo_inurba_marseille","lat":43.27186,"lon":5.41001,"is_reserved":false,"is_disabled":false,"rental_uris":{"android":"levelo://app?vid=61804fc0-72a7-449f-ad34-2d4f7c8e20d0","ios":"levelo://app?vid=61804fc0-72a7-449f-ad34-2d4f7c8e20d0"},"vehicle_type_id":"4","last_reported":1784245738,"current_range_meters":27200,"station_id":"ce4bhl12rcd13ifvqgf0","pricing_plan_id":"cebpf4jnsgd1na2vs0mg"},{"bike_id":"8d35f373-a260-4aa9-9c99-8da954203902","system_id":"levelo_inurba_marseille","lat":43.30921,"lon":5.40154,"is_reserved":false,"is_disabled":false,"rental_uris":{"android":"levelo://app?vid=8d35f373-a260-4aa9-9c99-8da954203902","ios":"levelo://app?vid=8d35f373-a260-4aa9-9c99-8da954203902"},"vehicle_type_id":"4","last_reported":1784245738,"current_range_meters":39200,"station_id":"ce4bgvp2rcd13ifvqct0","pricing_plan_id":"cebpf4jnsgd1na2vs0mg"},{"bike_id":"5071112f-97ec-47b6-ab51-02d6f01099ff","system_id":"levelo_inurba_marseille","lat":43.269268,"lon":5.389179,"is_reserved":false,"is_disabled":false,"rental_uris":{"android":"levelo://app?vid=5071112f-97ec-47b6-ab51-02d6f01099ff","ios":"levelo://app?vid=5071112f-97ec-47b6-ab51-02d6f01099ff"},"vehicle_type_id":"4","last_reported":1784245738,"current_range_meters":32000,"station_id":"ce4bhhh2rcd13ifvqfl0","pricing_plan_id":"cebpf4jnsgd1na2vs0mg"},{"bike_id":"2cfbcf99-439e-43e6-8359-fe0f5a87d4df","system_id":"levelo_inurba_marseille","lat":43.248,"lon":5.37453,"is_reserved":false,"is_disabled":false,"rental_uris":{"android":"levelo://app?vid=2cfbcf99-439e-43e6-8359-fe0f5a87d4df","ios":"levelo://app?vid=2cfbcf99-439e-43e6-8359-fe0f5a87d4df"},"vehicle_type_id":"4","last_reported":1784245738,"current_range_meters":39200,"station_id":"ce4bhgh2rcd13ifvqfb0","pricing_plan_id":"cebpf4jnsgd1na2vs0mg"},{"bike_id":"5934dfff-666b-4536-966e-3a9ad6955bb0","system_id":"levelo_inurba_marseille","lat":43.29247,"lon":5.39965,"is_reserved":false,"is_disabled":false,"rental_uris":{"android":"levelo://app?vid=5934dfff-666b-4536-966e-3a9ad6955bb0","ios":"levelo://app?vid=5934dfff-666b-4536-966e-3a9ad6955bb0"},"vehicle_type_id":"4","last_reported":1784245738,"current_range_meters":9600,"station_id":"","pricing_plan_id":"cebpf4jnsgd1na2vs0mg"},