{"last_updated":1739617582,"ttl":60,"version":"2.2","data":{"bikes":[{"bike_id":"b6bb2318-d580-4943-8980-cb32cbee2b0c","system_id":"levelo_inurba_marseille","lat":43.2972,"lon":5.37698,"is_reserved":false,"is_disabled":false,"rental_uris":{"android":"levelo://app?vid=b6bb2318-d580-4943-8980-cb32cbee2b0c","ios":"levelo://app?vid=b6bb2318-d580-4943-8980-cb32cbee2b0c"},"vehicle_type_id":"4","last_reported":1739617582,"current_range_meters":30800,"station_id":"ce4bgkh2rcd13ifvqbl0","pricing_plan_id":"cebpf4jnsgd1na2vs0mg"},{"bike_id":"28a0d7cd-7716-4c19-9e8a-deaf38943c66","system_id":"levelo_inurba_marseille","lat":43.28457,"lon":5.359,"is_reserved":false,"is_disabled":false,"rental_uris":{"android":"levelo://app?vid=28a0d7cd-7716-4c19-9e8a-deaf38943c66","ios":"levelo://app?vid=28a0d7cd-7716-4c19-9e8a-deaf38943c66"},"vehicle_type_id":"4","last_reported":1739617582,"current_range_meters":28800,"station_id":"ce4bhah2rcd13ifvqei0","pricing_plan_id":"cebpf4jnsgd1na2vs0mg"},{"bike_id":"74c3ebf3-6f99-44a2-aee4-b5e80bf0cdd0","system_id":"levelo_inurba_marseille","lat":43.31711,"lon":5.43704,"is_reserved":false,"is_disabled":false,"rental_uris":{"android":"levelo://app?vid=74c3ebf3-6f99-44a2-aee4-b5e80bf0cdd0","ios":"levelo://app?vid=74c3ebf3-6f99-44a2-aee4-b5e80bf0cdd0"},"vehicle_type_id":"4","last_reported":1739617582,"current_range_meters":10000,"station_id":"ce4bhp92rcd13ifvqhcg","pricing_plan_id":"cebpf4jnsgd1na2vs0mg"},{"bike_id":"fb8a6337-1866-4237-9fd6-1bf63d54ae5c","system_id":"levelo_inurba_marseille","lat":43.30138,"lon":5.3878,"is_reserved":false,"is_disabled":true,"rental_uris":{"android":"levelo://app?vid=fb8a6337-1866-4237-9fd6-1bf63d54ae5c","ios":"levelo://app?vid=fb8a6337-1866-4237-9fd6-1bf63d54ae5c"},"vehicle_type_id":"4","last_reported":1739617582,"current_range_meters":37600,"station_id":"ce4bghh2rcd13ifvqb60","pricing_plan_id":"cebpf4jnsgd1na2vs0mg"},{"bike_id":"aeeb603c-9e21-471f-a3b4-471a46d5c228","system_id":"levelo_inurba_marseille","lat":43.2416,"lon":5.36416,"is_reserved":false,"is_disabled":false,"rental_uris":{"android":"levelo://app?vid=aeeb603c-9e21-471f-a3b4-471a46d5c228","ios":"levelo://app?vid=aeeb603c-9e21-471f-a3b4-471a46d5c228"},"vehicle_type_id":"4","last_reported":1739617582,"current_range_meters":17200,"station_id":"cpo36qri1sfpv3e86is0","pricing_plan_id":"cebpf4jnsgd1na2vs0mg"},{"bike_id":"1d4165b9-e8af-42e7-8e88-54a0f84b4f26","system_id":"levelo_inurba_marseille","lat":43.23213,"lon":5.39982,"is_reserved":false,"is_disabled":false,"rental_uris":{"android":"levelo://app?vid=1d4165b9-e8af-42e7-8e88-54a0f84b4f26","ios":"levelo://app?vid=1d4165b9-e8af-42e7-8e88-54a0f84b4f26"},"vehicle_type_id":"4","last_reported":1739617582,"current_range_meters":25600,"station_id":"ce4bhn12rcd13ifvqgqg","pricing_plan_id":"cebpf4jnsgd1na2vs0mg"},{"bike_id":"c1e76274-801b-4893-b793-e635178d8b86","system_id":"levelo_inurba_marseille","lat":43.23961,"lon":5.36636,"is_reserved":false,"is_disabled":false,"rental_uris":{"android":"levelo://app?vid=c1e76274-801b-4893-b793-e635178d8b86","ios":"levelo://app?vid=c1e76274-801b-4893-b793-e635178d8b86"},"vehicle_type_id":"4","last_reported":1739617582,"current_range_meters":38000,"station_id":"ce4bhi12rcd13ifvqfp0","pricing_plan_id":"cebpf4jnsgd1na2vs0mg"},{"bike_id":"af1c93b6-01b9-4955-8ba8-945dcd85101e","system_id":"levelo_inurba_marseille","lat":43.30268,"lon":5.377,"is_reserved":false,"is_disabled":false,"rental_uris":{"android":"levelo://app?vid=af1c93b6-01b9-4955-8ba8-945dcd85101e","ios":"levelo://app?vid=af1c93b6-01b9-4955-8ba8-945dcd85101e"},"vehicle_type_id":"4","last_reported":1739617582,"current_range_meters":34800,"station_id":"ce4bguh2rcd13ifvqcj0","pricing_plan_id":"cebpf4jnsgd1na2vs0mg"},{"bike_id":"27a6901f-c571-4183-a230-5d080776dec8","system_id":"levelo_inurba_marseille","lat":43.29725,"lon":5.37689,"is_reserved":false,"is_disabled":false,"rental_uris":{"android":"levelo://app?vid=27a6901f-c571-4183-a230-5d080776dec8","ios":"levelo://app?vid=27a6901f-c571-4183-a230-5d080776dec8"},"vehicle_type_id":"4","last_reported":1739617582,"current_range_meters":24000,"station_id":"ce4bgkh2rcd13ifvqbl0","pricing_plan_id":"cebpf4jnsgd1na2vs0mg"},{"bike_id":"cefb3533-cae4-4c4e-88f0-3fef707463aa","system_id":"levelo_inurba_marseille","lat":43.30541,"lon":5.36512,"is_reserved":false,"is_disabled":false,"rental_uris":{"android":"levelo://app?vid=cefb3533-cae4-4c4e-88f0-3fef707463aa","ios":"levelo://app?vid=cefb3533-cae4-4c4e-88f0-3fef707463aa"},"vehicle_type_id":"4","last_reported":1739617582,"current_range_meters":21600,"station_id":"ce4bgs12rcd13ifvqcag","pricing_plan_id":"cebpf4jnsgd1na2vs0mg"},{"bike_id":"484527d8-0820-40f5-8186-1686fa6584d4","system_id":"levelo_inurba_marseille","lat":43.28269,"lon":5.35072,"is_reserved":false,"is_disabled":false,"rental_uris":{"android":"levelo://app?vid=484527d8-0820-40f5-8186-1686fa6584d4","ios":"levelo://app?vid=484527d8-0820-40f5-8186-1686fa6584d4"},"vehicle_type_id":"4","last_reported":1739617582,"current_range_meters":29600,"station_id":"ce4bhbp2rcd13ifvqerg","pricing_plan_id":"cebpf4jnsgd1na2vs0mg"},{"bike_id":"c74f8124-73dc-4bd8-a98e-9fa42c510bc4","system_id":"levelo_inurba_marseille","lat":43.23187,"lon":5.39983,"is_reserved":false,"is_disabled":false,"rental_uris":{"android":"levelo://app?vid=c74f8124-73dc-4bd8-a98e-9fa42c510bc4","ios":"levelo://app?vid=c74f8124-73dc-4bd8-a98e-9fa42c510bc4"},"vehicle_type_id":"4","last_reported":1739617582,"current_range_meters":25600,"station_id":"ce4bhn12rcd13ifvqgqg","pricing_plan_id":"cebpf4jnsgd1na2vs0mg"},{"bike_id":"8949fce8-cc2f-4b04-ac31-604707222ede","system_id":"levelo_inurba_marseille","lat":43.30882,"lon":5.3964,"is_reserved":false,"is_disabled":false,"rental_uris":{"android":"levelo://app?vid=8949fce8-cc2f-4b04-ac31-604707222ede","ios":"levelo://app?vid=8949fce8-cc2f-4b04-ac31-604707222ede"},"vehicle_type_id":"4","last_reported":1739617582,"current_range_meters":32400,"station_id":"ce4bh0h2rcd13ifvqd40","pricing_plan_id":"cebpf4jnsgd1na2vs0mg"},{"bike_id":"eace11fc-366d-49db-ab9f-2f957d528477","system_id":"levelo_inurba_marseille","lat":43.25502,"lon":5.37652,"is_reserved":false,"is_disabled":false,"rental_uris":{"android":"levelo://app?vid=eace11fc-366d-49db-ab9f-2f957d528477","ios":"levelo://app?vid=eace11fc-366d-49db-ab9f-2f957d528477"},"vehicle_type_id":"4","last_reported":1739617582,"current_range_meters":38800,"station_id":"ce4bhh12rcd13ifvqff0","pricing_plan_id":"cebpf4jnsgd1na2vs0mg"},{"bike_id":"c7322498-81a4-46c8-b4c9-ec796bfac1e6","system_id":"levelo_inurba_marseille","lat":43.24158,"lon":5.36472,"is_reserved":false,"is_disabled":false,"rental_uris":{"android":"levelo://app?vid=c7322498-81a4-46c8-b4c9-ec796bfac1e6","ios":"levelo://app?vid=c7322498-81a4-46c8-b4c9-ec796bfac1e6"},"vehicle_type_id":"4","last_reported":1739617582,"current_range_meters":38800,"station_id":"cpo36qri1sfpv3e86is0","pricing_plan_id":"cebpf4jnsgd1na2vs0mg"},{"bike_id":"5d2484e8-d08f-4bba-ae77-36cb31e97e9b","system_id":"levelo_inurba_marseille","lat":43.29558,"lon":5.42277,"is_reserved":false,"is_disabled":false,"rental_uris":{"android":"levelo://app?vid=5d2484e8-d08f-4bba-ae77-36cb31e97e9b","ios":"levelo://app?vid=5d2484e8-d08f-4bba-ae77-36cb31e97e9b"},"vehicle_type_id":"4","last_reported":1739617582,"current_range_meters":39200,"station_id":"ce4bhph2rcd13ifvqhdg","pricing_plan_id":"cebpf4jnsgd1na2vs0mg"},{"bike_id":"6b42f4f1-2360-420a-81a5-fa8f868ac30d","system_id":"levelo_inurba_marseille","lat":43.27197,"lon":5.39023,"is_reserved":false,"is_disabled":false,"rental_uris":{"android":"levelo://app?vid=6b42f4f1-2360-420a-81a5-fa8f868ac30d","ios":"levelo://app?vid=6b42f4f1-2360-420a-81a5-fa8f868ac30d"},"vehicle_type_id":"4","last_reported":1739617582,"current_range_meters":33600,"station_id":"","pricing_plan_id":"cebpf4jnsgd1na2vs0mg"},{"bike_id":"782b87f5-4195-46ee-9455-084f74af58f0","system_id":"levelo_inurba_marseille","lat":43.27307,"lon":5.39107,"is_reserved":false,"is_disabled":false,"rental_uris":{"android":"levelo://app?vid=782b87f5-4195-46ee-9455-084f74af58f0","ios":"levelo://app?vid=782b87f5-4195-46ee-9455-084f74af58f0"},"vehicle_type_id":"4","last_reported":1739617582,"current_range_meters":37600,"station_id":"ce4bhgp2rcd13ifvqfe0","pricing_plan_id":"cebpf4jnsgd1na2vs0mg"},{"bike_id":"3c65401e-b701-4310-9227-bb4163f16dd4","system_id":"levelo_inurba_marseille","lat":43.2959,"lon":5.37505,"is_reserved":false,"is_disabled":false,"rental_uris":{"android":"levelo://app?vid=3c65401e-b701-4310-9227-bb4163f16dd4","ios":"levelo://app?vid=3c65401e-b701-4310-9227-bb4163f16dd4"},"vehicle_type_id":"4","last_reported":1739617582,"current_range_meters":38800,"station_id":"ce4bgh92rcd13ifvqb50","pricing_plan_id":"cebpf4jnsgd1na2vs0mg"},{"bike_id":"6ec6c686-c53d-4108-ad4c-4d96fea2b652","system_id":"levelo_inurba_marseille","lat":43.30641,"lon":5.40072,"is_reserved":false,"is_disabled":false,"rental_uris":{"android":"levelo://app?vid=6ec6c686-c53d-4108-ad4c-4d96fea2b652","ios":"levelo://app?vid=6ec6c686-c53d-4108-ad4c-4d96fea2b652"},"vehicle_type_id":"4","last_reported":1739617582,"current_range_meters":19600,"station_id":"ce4bh112rcd13ifvqda0","pricing_plan_id":"cebpf4jnsgd1na2vs0mg"},{"bike_id":"424ac609-4d79-408c-9829-f4d111f0a95f","system_id":"levelo_inurba_marseille","lat":43.3042,"lon":5.39757,"is_reserved":false,"is_disabled":false,"rental_uris":{"android":"levelo://app?vid=424ac609-4d79-408c-9829-f4d111f0a95f","ios":"levelo://app?vid=424ac609-4d79-408c-9829-f4d111f0a95f"},"vehicle_type_id":"4","last_reported":1739617582,"current_range_meters":38800,"station_id":"ce4bh092rcd13ifvqd20","pricing_plan_id":"cebpf4jnsgd1na2vs0mg"},{"bike_id":"b34c6303-752a-46a1-93ad-ddbc991e20b6","system_id":"levelo_inurba_marseille","lat":43.23074,"lon":5.35501,"is_reserved":false,"is_disabled":false,"rental_uris":{"android":"levelo://app?vid=b34c6303-752a-46a1-93ad-ddbc991e20b6","ios":"levelo://app?vid=b34c6303-752a-46a1-93ad-ddbc991e20b6"},"vehicle_type_id":"4","last_reported":1739617582,"current_range_meters":37600,"station_id":"cpo3342slgdg3j2ifvpg","pricing_plan_id":"cebpf4jnsgd1na2vs0mg"},{"bike_id":"d814ee26-050b-424e-b737-d3f6d8a14099","system_id":"levelo_inurba_marseille","lat":43.29252,"lon":5.38437,"is_reserved":false,"is_disabled":true,"rental_uris":{"android":"levelo://app?vid=d814ee26-050b-424e-b737-d3f6d8a14099","ios":"levelo://app?vid=d814ee26-050b-424e-b737-d3f6d8a14099"},"vehicle_type_id":"4","last_reported":1739617582,"current_range_meters":27600,"station_id":"ce4bh692rcd13ifvqea0","pricing_plan_id":"cebpf4jnsgd1na2vs0mg"},{"bike_id":"78d173ae-b715-496b-84c7-0dad149a44f3","system_id":"levelo_inurba_marseille","lat":43.29296,"lon":5.40936,"is_reserved":false,"is_disabled":false,"rental_uris":{"android":"levelo://app?vid=78d173ae-b715-496b-84c7-0dad149a44f3","ios":"levelo://app?vid=78d173ae-b715-496b-84c7-0dad149a44f3"},"vehicle_type_id":"4","last_reported":1739617582,"current_range_meters":38800,"station_id":"ce4bh192rcd13ifvqdc0","pricing_plan_id":"cebpf4jnsgd1na2vs0mg"},{"bike_id":"ada330b7-ec79-45f2-bb41-8ca7b50d8f1e","system_id":"levelo_inurba_marseille","lat":43.29568,"lon":5.3997,"is_reserved":false,"is_disabled":false,"rental_uris":{"android":"levelo://app?vid=ada330b7-ec79-45f2-bb41-8ca7b50d8f1e","ios":"levelo://app?vid=ada330b7-ec79-45f2-bb41-8ca7b50d8f1e"},"vehicle_type_id":"4","last_reported":1739617582,"current_range_meters":34000,"station_id":"ce4bh312rcd13ifvqdj0","pricing_plan_id":"cebpf4jnsgd1na2vs0mg"},{"bike_id":"1300f95a-15ad-4299-a221-177495e93e42","system_id":"levelo_inurba_marseille","lat":43.32656,"lon":5.41004,"is_reserved":false,"is_disabled":false,"rental_uris":{"android":"levelo://app?vid=1300f95a-15ad-4299-a221-177495e93e42","ios":"levelo://app?vid=1300f95a-15ad-4299-a221-177495e93e42"},"vehicle_type_id":"4","last_reported":1739617582,"current_range_meters":23200,"station_id":"ce4bhpp2rcd13ifvqhgg","pricing_plan_id":"cebpf4jnsgd1na2vs0mg"},{"bike_id":"255fd5c2-9340-4c1b-b742-6c450e9fc85b","system_id":"levelo_inurba_marseille","lat":43.337444,"lon":5.374475,"is_reserved":false,"is_disabled":false,"rental_uris":{"android":"levelo://app?vid=255fd5c2-9340-4c1b-b742-6c450e9fc85b","ios":"levelo://app?vid=255fd5c2-9340-4c1b-b742-6c450e9fc85b"},"vehicle_type_id":"4","last_reported":1739617582,"current_range_meters":36800,"station_id":"","pricing_plan_id":"cebpf4jnsgd1na2vs0mg"},{"bike_id":"0f7993d0-1d95-4387-96fe-a2c80128079f","system_id":"levelo_inurba_marseille","lat":43.30496,"lon":5.37917,"is_reserved":false,"is_disabled":false,"rental_uris":{"android":"levelo://app?vid=0f7993d0-1d95-4387-96fe-a2c80128079f","ios":"levelo://app?vid=0f7993d0-1d95-4387-96fe-a2c80128079f"},"vehicle_type_id":"4","last_reported":1739617582,"current_range_meters":17600,"station_id":"ce4bgup2rcd13ifvqcn0","pricing_plan_id":"cebpf4jnsgd1na2vs0mg"},{"bike_id":"27feb435-c99b-4f80-867b-2866d50d7db7","system_id":"levelo_inurba_marseille","lat":43.23066,"lon":5.3549,"is_reserved":false,"is_disabled":false,"rental_uris":{"android":"levelo://app?vid=27feb435-c99b-4f80-867b-2866d50d7db7","ios":"levelo://app?vid=27feb435-c99b-4f80-867b-2866d50d7db7"},"vehicle_type_id":"4","last_reported":1739617582,"current_range_meters":20000,"station_id":"cpo3342slgdg3j2ifvpg","pricing_plan_id":"cebpf4jnsgd1na2vs0mg"},{"bike_id":"d430bbf5-dcb4-4006-8220-7af0587abbc5","system_id":"levelo_inurba_marseille","lat":43.2509,"lon":5.39525,"is_reserved":false,"is_disabled":false,"rental_uris":{"android":"levelo://app?vid=d430bbf5-dcb4-4006-8220-7af0587abbc5","ios":"levelo://app?vid=d430bbf5-dcb4-4006-8220-7af0587abbc5"},"vehicle_type_id":"4","last_reported":1739617582,"current_range_meters":38800,"station_id":"ce4bhm12rcd13ifvqgkg","pricing_plan_id":"cebpf4jnsgd1na2vs0mg"},{"bike_id":"5ac1b3e9-6624-4bab-a598-45ab544a1b2f","system_id":"levelo_inurba_marseille","lat":43.26687,"lon":5.38327,"is_reserved":false,"is_disabled":false,"rental_uris":{"android":"levelo://app?vid=5ac1b3e9-6624-4bab-a598-45ab544a1b2f","ios":"levelo://app?vid=5ac1b3e9-6624-4bab-a598-45ab544a1b2f"},"vehicle_type_id":"4","last_reported":1739617582,"current_range_meters":8400,"station_id":"ce4bhg92rcd13ifvqf90","pricing_plan_id":"cebpf4jnsgd1na2vs0mg"},{"bike_id":"929dec46-a283-4540-a646-36398c5ae9d9","system_id":"levelo_inurba_marseille","lat":43.2861,"lon":5.37067,"is_reserved":false,"is_disabled":false,"rental_uris":{"android":"levelo://app?vid=929dec46-a283-4540-a646-36398c5ae9d9","ios":"levelo://app?vid=929dec46-a283-4540-a646-36398c5ae9d9"},"vehicle_type_id":"4","last_reported":1739617582,"current_range_meters":31200,"station_id":"ce4bht12rcd13ifvqi60","pricing_plan_id":"cebpf4jnsgd1na2vs0mg"},{"bike_id":"76564f9c-b768-43c9-9d19-35975b91936d","system_id":"levelo_inurba_marseille","lat":43.32016,"lon":5.37677,"is_reserved":false,"is_disabled":false,"rental_uris":{"android":"levelo://app?vid=76564f9c-b768-43c9-9d19-35975b91936d","ios":"levelo://app?vid=76564f9c-b768-43c9-9d19-35975b91936d"},"vehicle_type_id":"4","last_reported":1739617582,"current_range_meters":30400,"station_id":"","pricing_plan_id":"cebpf4jnsgd1na2vs0mg"},{"bike_id":"1f0657bb-7196-41de-84fc-c834bbf90b28","system_id":"levelo_inurba_marseille","lat":43.28079,"lon":5.39671,"is_reserved":false,"is_disabled":true,"rental_uris":{"android":"levelo://app?vid=1f0657bb-7196-41de-84fc-c834bbf90b28","ios":"levelo://app?vid=1f0657bb-7196-41de-84fc-c834bbf90b28"},"vehicle_type_id":"4","last_reported":1739617582,"current_range_meters":36400,"station_id":"ce4bho12rcd13ifvqh2g","pricing_plan_id":"cebpf4jnsgd1na2vs0mg"},{"bike_id":"4085957e-a34f-48ec-8023-d0e7a9e56b71","system_id":"levelo_inurba_marseille","lat":43.23066,"lon":5.35489,"is_reserved":false,"is_disabled":false,"rental_uris":{"android":"levelo://app?vid=4085957e-a34f-48ec-8023-d0e7a9e56b71","ios":"levelo://app?vid=4085957e-a34f-48ec-8023-d0e7a9e56b71"},"vehicle_type_id":"4","last_reported":1739617582,"current_range_meters":38800,"station_id":"cpo3342slgdg3j2ifvpg","pricing_plan_id":"cebpf4jnsgd1na2vs0mg"},{"bike_id":"1eaaa93a-5c29-40ae-a6a7-dc10bd39dcd0","system_id":"levelo_inurba_marseille","lat":43.275653,"lon":5.384197,"is_reserved":false,"is_disabled":false,"rental_uris":{"android":"levelo://app?vid=1eaaa93a-5c29-40ae-a6a7-dc10bd39dcd0","ios":"levelo://app?vid=1eaaa93a-5c29-40ae-a6a7-dc10bd39dcd0"},"vehicle_type_id":"4","last_reported":1739617582,"current_range_meters":39200,"station_id":"ce4bhh92rcd13ifvqfi0","pricing_plan_id":"cebpf4jnsgd1na2vs0mg"},{"bike_id":"179c65d4-e637-43fd-ba13-7b8d408dfcda","system_id":"levelo_inurba_marseille","lat":43.2957,"lon":5.42268,"is_reserved":false,"is_disabled":false,"rental_uris":{"android":"levelo://app?vid=179c65d4-e637-43fd-ba13-7b8d408dfcda","ios":"levelo://app?vid=179c65d4-e637-43fd-ba13-7b8d408dfcda"},"vehicle_type_id":"4","last_reported":1739617582,"current_range_meters":17600,"station_id":"ce4bhph2rcd13ifvqhdg","pricing_plan_id":"cebpf4jnsgd1na2vs0mg"},{"bike_id":"7a2aa0ae-fdf7-4793-9ccf-dca69e169d96","system_id":"levelo_inurba_marseille","lat":43.29261,"lon":5.40909,"is_reserved":false,"is_disabled":false,"rental_uris":{"android":"levelo://app?vid=7a2aa0ae-fdf7-4793-9ccf-dca69e169d96","ios":"levelo://app?vid=7a2aa0ae-fdf7-4793-9ccf-dca69e169d96"},"vehicle_type_id":"4","last_reported":1739617582,"current_range_meters":38800,"station_id":"ce4bh192rcd13ifvqdc0","pricing_plan_id":"cebpf4jnsgd1na2vs0mg"},{"bike_id":"97708c38-52e6-4f5f-9662-cb7bef18df90","system_id":"levelo_inurba_marseille","lat":43.30679,"lon":5.40066,"is_reserved":false,"is_disabled":false,"rental_uris":{"android":"levelo://app?vid=97708c38-52e6-4f5f-9662-cb7bef18df90","ios":"levelo://app?vid=97708c38-52e6-4f5f-9662-cb7bef18df90"},"vehicle_type_id":"4","last_reported":1739617582,"current_range_meters":38800,"station_id":"ce4bh112rcd13ifvqda0","pricing_plan_id":"cebpf4jnsgd1na2vs0mg"},{"bike_id":"7939e1da-40e8-450f-9eb5-84e0e738859f","system_id":"levelo_inurba_marseille","lat":43.29869,"lon":5.39746,"is_reserved":false,"is_disabled":false,"rental_uris":{"android":"levelo://app?vid=7939e1da-40e8-450f-9eb5-84e0e738859f","ios":"levelo://app?vid=7939e1da-40e8-450f-9eb5-84e0e738859f"},"vehicle_type_id":"4","last_reported":1739617582,"current_range_meters":39200,"station_id":"ce4bh0h2rcd13ifvqd50","pricing_plan_id":"cebpf4jnsgd1na2vs0mg"},{"bike_id":"e0ac3828-c26c-4b02-8a79-aff116cdccd8","system_id":"levelo_inurba_marseille","lat":43.29535,"lon":5.37512,"is_reserved":false,"is_disabled":false,"rental_uris":{"android":"levelo://app?vid=e0ac3828-c26c-4b02-8a79-aff116cdccd8","ios":"levelo://app?vid=e0ac3828-c26c-4b02-8a79-aff116cdccd8"},"vehicle_type_id":"4","last_reported":1739617582,"current_range_meters":25600,"station_id":"ce4bgkp2rcd13ifvqbmg","pricing_plan_id":"cebpf4jnsgd1na2vs0mg"},{"bike_id":"f92e748a-9f9b-4e54-8084-07e33515f3d5","system_id":"levelo_inurba_marseille","lat":43.27072,"lon":5.39325,"is_reserved":false,"is_disabled":true,"rental_uris":{"android":"levelo://app?vid=f92e748a-9f9b-4e54-8084-07e33515f3d5","ios":"levelo://app?vid=f92e748a-9f9b-4e54-8084-07e33515f3d5"},"vehicle_type_id":"4","last_reported":1739617582,"current_range_meters":0,"station_id":"","pricing_plan_id":"cebpf4jnsgd1na2vs0mg"},{"bike_id":"ba1a3262-de25-4637-9abe-b60292a133fa","system_id":"levelo_inurba_marseille","lat":43.30562,"lon":5.36582,"is_reserved":false,"is_disabled":false,"rental_uris":{"android":"levelo://app?vid=ba1a3262-de25-4637-9abe-b60292a133fa","ios":"levelo://app?vid=ba1a3262-de25-4637-9abe-b60292a133fa"},"vehicle_type_id":"4","last_reported":1739617582,"current_range_meters":25200,"station_id":"ce4bgs12rcd13ifvqcag","pricing_plan_id":"cebpf4jnsgd1na2vs0mg"},{"bike_id":"e37cd727-54ed-4ebd-b616-8e4019f8eb2c","system_id":"levelo_inurba_marseille","lat":43.2511,"lon":5.40328,"is_reserved":false,"is_disabled":false,"rental_uris":{"android":"levelo://app?vid=e37cd727-54ed-4ebd-b616-8e4019f8eb2c","ios":"levelo://app?vid=e37cd727-54ed-4ebd-b616-8e4019f8eb2c"},"vehicle_type_id":"4","last_reported":1739617582,"current_range_meters":30800,"station_id":"ce4bhlh2rcd13ifvqgig","pricing_plan_id":"cebpf4jnsgd1na2vs0mg"},{"bike_id":"5983c051-1c5e-4217-9dd2-c65801e2f37a","system_id":"levelo_inurba_marseille","lat":43.27053,"lon":5.40256,"is_reserved":false,"is_disabled":false,"rental_uris":{"android":"levelo://app?vid=5983c051-1c5e-4217-9dd2-c65801e2f37a","ios":"levelo://app?vid=5983c051-1c5e-4217-9dd2-c65801e2f37a"},"vehicle_type_id":"4","last_reported":1739617582,"current_range_meters":17600,"station_id":"ce4bhk92rcd13ifvqgc0","pricing_plan_id":"cebpf4jnsgd1na2vs0mg"},{"bike_id":"92dd76db-fc74-414e-bcda-17b7621ccc19","system_id":"levelo_inurba_marseille","lat":43.29262,"lon":5.37618,"is_reserved":false,"is_disabled":false,"rental_uris":{"android":"levelo://app?vid=92dd76db-fc74-414e-bcda-17b7621ccc19","ios":"levelo://app?vid=92dd76db-fc74-414e-bcda-17b7621ccc19"},"vehicle_type_id":"4","last_reported":1739617582,"current_range_meters":15200,"station_id":"ce4bgi12rcd13ifvqb70","pricing_plan_id":"cebpf4jnsgd1na2vs0mg"},{"bike_id":"cd73739e-6850-4923-81be-52053efe4bcd","system_id":"levelo_inurba_marseille","lat":43.28614,"lon":5.35113,"is_reserved":false,"is_disabled":false,"rental_uris":{"android":"levelo://app?vid=cd73739e-6850-4923-81be-52053efe4bcd","ios":"levelo://app?vid=cd73739e-6850-4923-81be-52053efe4bcd"},"vehicle_type_id":"4","last_reported":1739617582,"current_range_meters":26000,"station_id":"ce4bhch2rcd13ifvqeug","pricing_plan_id":"cebpf4jnsgd1na2vs0mg"},{"bike_id":"9cf8e6d9-67b8-441b-8ab4-08ef8560d2b0","system_id":"levelo_inurba_marseille","lat":43.33514,"lon":5.35585,"is_reserved":false,"is_disabled":true,"rental_uris":{"android":"levelo://app?vid=9cf8e6d9-67b8-441b-8ab4-08ef8560d2b0","ios":"levelo://app?vid=9cf8e6d9-67b8-441b-8ab4-08ef8560d2b0"},"vehicle_type_id":"4","last_reported":1739617582,"current_range_meters":0,"station_id":"","pricing_plan_id":"cebpf4jnsgd1na2vs0mg"},{"bike_id":"97558278-44d0-4d57-9a88-f388767d2460","system_id":"levelo_inurba_marseille","lat":43.26555,"lon":5.37282,"is_reserved":false,"is_disabled":false,"rental_uris":{"android":"levelo://app?vid=97558278-44d0-4d57-9a88-f388767d2460","ios":"levelo://app?vid=97558278-44d0-4d57-9a88-f388767d2460"},"vehicle_type_id":"4","last_reported":1739617582,"current_range_meters":37600,"station_id":"ce4bhg12rcd13ifvqf70","pricing_plan_id":"cebpf4jnsgd1na2vs0mg"},{"bike_id":"e8383a41-ab98-41de-8229-dcb769519e9e","system_id":"levelo_inurba_marseille","lat":43.2792,"lon":5.39574,"is_reserved":false,"is_disabled":false,"rental_uris":{"android":"levelo://app?vid=e8383a41-ab98-41de-8229-dcb769519e9e","ios":"levelo://app?vid=e8383a41-ab98-41de-8229-dcb769519e9e"},"vehicle_type_id":"4","last_reported":1739617582,"current_range_meters":16000,"station_id":"ce4bhf92rcd13ifvqf40","pricing_plan_id":"cebpf4jnsgd1na2vs0mg"},{"bike_id":"c9b8c3f6-abee-4653-bcd7-dd93abe3a884","system_id":"levelo_inurba_marseille","lat":43.25492,"lon":5.37662,"is_reserved":false,"is_disabled":true,"rental_uris":{"android":"levelo://app?vid=c9b8c3f6-abee-4653-bcd7-dd93abe3a884","ios":"levelo://app?vid=c9b8c3f6-abee-4653-bcd7-dd93abe3a884"},"vehicle_type_id":"4","last_reported":1739617582,"current_range_meters":1600,"station_id":"ce4bhh12rcd13ifvqff0","pricing_plan_id":"cebpf4jnsgd1na2vs0mg"},{"bike_id":"c5e5ee3c-422c-40c8-97e8-b9c497db8046","system_id":"levelo_inurba_marseille","lat":43.304,"lon":5.41277,"is_reserved":false,"is_disabled":false,"rental_uris":{"android":"levelo://app?vid=c5e5ee3c-422c-40c8-97e8-b9c497db8046","ios":"levelo://app?vid=c5e5ee3c-422c-40c8-97e8-b9c497db8046"},"vehicle_type_id":"4","last_reported":1739617582,"current_range_meters":38800,"station_id":"ce4bhop2rcd13ifvqh8g","pricing_plan_id":"cebpf4jnsgd1na2vs0mg"},{"bike_id":"811b63d6-9c3c-4b06-849e-3b400f65e795","system_id":"levelo_inurba_marseille","lat":43.24632,"lon":5.38911,"is_reserved":false,"is_disabled":false,"rental_uris":{"android":"levelo://app?vid=811b63d6-9c3c-4b06-849e-3b400f65e795","ios":"levelo://app?vid=811b63d6-9c3c-4b06-849e-3b400f65e795"},"vehicle_type_id":"4","last_reported":1739617582,"current_range_meters":10000,"station_id":"ce4bhg12rcd13ifvqf60","pricing_plan_id":"cebpf4jnsgd1na2vs0mg"},{"bike_id":"1fb8615d-1d06-491a-8bc7-9e6a2427d569","system_id":"levelo_inurba_marseille","lat":43.27914,"lon":5.3958,"is_reserved":false,"is_disabled":false,"rental_uris":{"android":"levelo://app?vid=1fb8615d-1d06-491a-8bc7-9e6a2427d569","ios":"levelo://app?vid=1fb8615d-1d06-491a-8bc7-9e6a2427d569"},"vehicle_type_id":"4","last_reported":1739617582,"current_range_meters":30800,"station_id":"ce4bhf92rcd13ifvqf40","pricing_plan_id":"cebpf4jnsgd1na2vs0mg"},{"bike_id":"8f5592f5-8e76-44ea-9d95-fe82f44a76d2","system_id":"levelo_inurba_marseille","lat":43.24067,"lon":5.37741,"is_reserved":false,"is_disabled":false,"rental_uris":{"android":"levelo://app?vid=8f5592f5-8e76-44ea-9d95-fe82f44a76d2","ios":"levelo://app?vid=8f5592f5-8e76-44ea-9d95-fe82f44a76d2"},"vehicle_type_id":"4","last_reported":1739617582,"current_range_meters":38000,"station_id":"ce4bhnp2rcd13ifvqgvg","pricing_plan_id":"cebpf4jnsgd1na2vs0mg"},{"bike_id":"be9f3d93-6f26-425f-8b47-54b5e242f5cd","system_id":"levelo_inurba_marseille","lat":43.30425,"lon":5.39729,"is_reserved":false,"is_disabled":false,"rental_uris":{"android":"levelo://app?vid=be9f3d93-6f26-425f-8b47-54b5e242f5cd","ios":"levelo://app?vid=be9f3d93-6f26-425f-8b47-54b5e242f5cd"},"vehicle_type_id":"4","last_reported":1739617582,"current_range_meters":38800,"station_id":"ce4bh092rcd13ifvqd20","pricing_plan_id":"cebpf4jnsgd1na2vs0mg"},{"bike_id":"82ed5ff6-4703-4858-9957-bc3a14eeeae3","system_id":"levelo_inurba_marseille","lat":43.2407,"lon":5.37759,"is_reserved":false,"is_disabled":false,"rental_uris":{"android":"levelo://app?vid=82ed5ff6-4703-4858-9957-bc3a14eeeae3","ios":"levelo://app?vid=82ed5ff6-4703-4858-9957-bc3a14eeeae3"},"vehicle_type_id":"4","last_reported":1739617582,"current_range_meters":25200,"station_id":"ce4bhnp2rcd13ifvqgvg","pricing_plan_id":"cebpf4jnsgd1na2vs0mg"},{"bike_id":"51ab7186-5043-4bed-baca-73708608a302","system_id":"levelo_inurba_marseille","lat":43.29584,"lon":5.37026,"is_reserved":false,"is_disabled":true,"rental_uris":{"android":"levelo://app?vid=51ab7186-5043-4bed-baca-73708608a302","ios":"levelo://app?vid=51ab7186-5043-4bed-baca-73708608a302"},"vehicle_type_id":"4","last_reported":1739617582,"current_range_meters":0,"station_id":"","pricing_plan_id":"cebpf4jnsgd1na2vs0mg"},{"bike_id":"5fe7620a-d6ab-4d6f-ae3f-cc94d7b13d26","system_id":"levelo_inurba_marseille","lat":43.29179,"lon":5.37147,"is_reserved":false,"is_disabled":false,"rental_uris":{"android":"levelo://app?vid=5fe7620a-d6ab-4d6f-ae3f-cc94d7b13d26","ios":"levelo://app?vid=5fe7620a-d6ab-4d6f-ae3f-cc94d7b13d26"},"vehicle_type_id":"4","last_reported":1739617582,"current_range_meters":28400,"station_id":"ce4bha92rcd13ifvqeh0","pricing_plan_id":"cebpf4jnsgd1na2vs0mg"},{"bike_id":"635450e7-7bbd-4225-8704-989f96e65061","system_id":"levelo_inurba_marseille","lat":43.27511,"lon":5.42474,"is_reserved":false,"is_disabled":false,"rental_uris":{"android":"levelo://app?vid=635450e7-7bbd-4225-8704-989f96e65061","ios":"levelo://app?vid=635450e7-7bbd-4225-8704-989f96e65061"},"vehicle_type_id":"4","last_reported":1739617582,"current_range_meters":38800,"station_id":"ce4bhn92rcd13ifvqgrg","pricing_plan_id":"cebpf4jnsgd1na2vs0mg"},{"bike_id":"78948909-7dfc-4a5a-a38d-28bdd6cb794c","system_id":"levelo_inurba_marseille","lat":43.3169,"lon":5.40478,"is_reserved":false,"is_disabled":false,"rental_uris":{"android":"levelo://app?vid=78948909-7dfc-4a5a-a38d-28bdd6cb794c","ios":"levelo://app?vid=78948909-7dfc-4a5a-a38d-28bdd6cb794c"},"vehicle_type_id":"4","last_reported":1739617582,"current_range_meters":26800,"station_id":"ce4bh012rcd13ifvqd00","pricing_plan_id":"cebpf4jnsgd1na2vs0mg"},{"bike_id":"5fbe50a8-885b-4657-b77c-df4181249707","system_id":"levelo_inurba_marseille","lat":43.30074,"lon":5.40489,"is_reserved":false,"is_disabled":false,"rental_uris":{"android":"levelo://app?vid=5fbe50a8-885b-4657-b77c-df4181249707","ios":"levelo://app?vid=5fbe50a8-885b-4657-b77c-df4181249707"},"vehicle_type_id":"4","last_reported":1739617582,"current_range_meters":34000,"station_id":"","pricing_plan_id":"cebpf4jnsgd1na2vs0mg"},{"bike_id":"c40e2cb9-b89c-4dbd-956b-535ef79f1d37","system_id":"levelo_inurba_marseille","lat":43.24814,"lon":5.3746,"is_reserved":false,"is_disabled":false,"rental_uris":{"android":"levelo://app?vid=c40e2cb9-b89c-4dbd-956b-535ef79f1d37","ios":"levelo://app?vid=c40e2cb9-b89c-4dbd-956b-535ef79f1d37"},"vehicle_type_id":"4","last_reported":1739617582,"current_range_meters":24400,"station_id":"ce4bhgh2rcd13ifvqfb0","pricing_plan_id":"cebpf4jnsgd1na2vs0mg"},{"bike_id":"1bd31d39-639d-4151-b08a-dc61c6c95f38","system_id":"levelo_inurba_marseille","lat":43.24652,"lon":5.38888,"is_reserved":false,"is_disabled":false,"rental_uris":{"android":"levelo://app?vid=1bd31d39-639d-4151-b08a-dc61c6c95f38","ios":"levelo://app?vid=1bd31d39-639d-4151-b08a-dc61c6c95f38"},"vehicle_type_id":"4","last_reported":1739617582,"current_range_meters":16400,"station_id":"ce4bhg12rcd13ifvqf60","pricing_plan_id":"cebpf4jnsgd1na2vs0mg"},{"bike_id":"6d14ffd0-8cb0-40f3-8b6f-5b79b4098bae","system_id":"levelo_inurba_marseille","lat":43.28093,"lon":5.37854,"is_reserved":false,"is_disabled":false,"rental_uris":{"android":"levelo://app?vid=6d14ffd0-8cb0-40f3-8b6f-5b79b4098bae","ios":"levelo://app?vid=6d14ffd0-8cb0-40f3-8b6f-5b79b4098bae"},"vehicle_type_id":"4","last_reported":1739617582,"current_range_meters":32000,"station_id":"ce4bha12rcd13ifvqee0","pricing_plan_id":"cebpf4jnsgd1na2vs0mg"},{"bike_id":"39d0edfe-96b8-4773-8e96-52ea788de559","system_id":"levelo_inurba_marseille","lat":43.2922,"lon":5.35793,"is_reserved":false,"is_disabled":false,"rental_uris":{"android":"levelo://app?vid=39d0edfe-96b8-4773-8e96-52ea788de559","ios":"levelo://app?vid=39d0edfe-96b8-4773-8e96-52ea788de559"},"vehicle_type_id":"4","last_reported":1739617582,"current_range_meters":38800,"station_id":"ce4bhb12rcd13ifvqel0","pricing_plan_id":"cebpf4jnsgd1na2vs0mg"},{"bike_id":"4afd05b5-41e1-4012-b907-304d88773920","system_id":"levelo_inurba_marseille","lat":43.23958,"lon":5.36623,"is_reserved":false,"is_disabled":false,"rental_uris":{"android":"levelo://app?vid=4afd05b5-41e1-4012-b907-304d88773920","ios":"levelo://app?vid=4afd05b5-41e1-4012-b907-304d88773920"},"vehicle_type_id":"4","last_reported":1739617582,"current_range_meters":38800,"station_id":"ce4bhi12rcd13ifvqfp0","pricing_plan_id":"cebpf4jnsgd1na2vs0mg"},{"bike_id":"26a65ce5-4e15-4967-befa-30646df7d78c","system_id":"levelo_inurba_marseille","lat":43.2956,"lon":5.42302,"is_reserved":false,"is_disabled":false,"rental_uris":{"android":"levelo://app?vid=26a65ce5-4e15-4967-befa-30646df7d78c","ios":"levelo://app?vid=26a65ce5-4e15-4967-befa-30646df7d78c"},"vehicle_type_id":"4","last_reported":1739617582,"current_range_meters":31200,"station_id":"ce4bhph2rcd13ifvqhdg","pricing_plan_id":"cebpf4jnsgd1na2vs0mg"},{"bike_id":"899e44e7-60b0-44a7-9ff3-d0219b681de2","system_id":"levelo_inurba_marseille","lat":43.28152,"lon":5.42645,"is_reserved":false,"is_disabled":false,"rental_uris":{"android":"levelo://app?vid=899e44e7-60b0-44a7-9ff3-d0219b681de2","ios":"levelo://app?vid=899e44e7-60b0-44a7-9ff3-d0219b681de2"},"vehicle_type_id":"4","last_reported":1739617582,"current_range_meters":35600,"station_id":"ce4bhnh2rcd13ifvqgug","pricing_plan_id":"cebpf4jnsgd1na2vs0mg"},{"bike_id":"c8c0516c-62b0-4cbf-88f8-60819aff6581","system_id":"levelo_inurba_marseille","lat":43.25497,"lon":5.37681,"is_reserved":false,"is_disabled":false,"rental_uris":{"android":"levelo://app?vid=c8c0516c-62b0-4cbf-88f8-60819aff6581","ios":"levelo://app?vid=c8c0516c-62b0-4cbf-88f8-60819aff6581"},"vehicle_type_id":"4","last_reported":1739617582,"current_range_meters":27600,"station_id":"ce4bhh12rcd13ifvqff0","pricing_plan_id":"cebpf4jnsgd1na2vs0mg"},{"bike_id":"0c8f77b4-e2d3-4959-9595-23898a9b76cd","system_id":"levelo_inurba_marseille","lat":43.30426,"lon":5.39749,"is_reserved":false,"is_disabled":false,"rental_uris":{"android":"levelo://app?vid=0c8f77b4-e2d3-4959-9595-23898a9b76cd","ios":"levelo://app?vid=0c8f77b4-e2d3-4959-9595-23898a9b76cd"},"vehicle_type_id":"4","last_reported":1739617582,"current_range_meters":26000,"station_id":"ce4bh092rcd13ifvqd20","pricing_plan_id":"cebpf4jnsgd1na2vs0mg"},{"bike_id":"dee3601d-ddca-408e-b8e5-fdf3429aa605","system_id":"levelo_inurba_marseille","lat":43.28997,"lon":5.35615,"is_reserved":false,"is_disabled":false,"rental_uris":{"android":"levelo://app?vid=dee3601d-ddca-408e-b8e5-fdf3429aa605","ios":"levelo://app?vid=dee3601d-ddca-408e-b8e5-fdf3429aa605"},"vehicle_type_id":"4","last_reported":1739617582,"current_range_meters":39200,"station_id":"ce4bhb92rcd13ifvqen0","pricing_plan_id":"cebpf4jnsgd1na2vs0mg"},{"bike_id":"29cf4d1a-ccab-47b7-95f1-f6a1fd28b7c1","system_id":"levelo_inurba_marseille","lat":43.30543,"lon":5.36532,"is_reserved":false,"is_disabled":false,"rental_uris":{"android":"levelo://app?vid=29cf4d1a-ccab-47b7-95f1-f6a1fd28b7c1","ios":"levelo://app?vid=29cf4d1a-ccab-47b7-95f1-f6a1fd28b7c1"},"vehicle_type_id":"4","last_reported":1739617582,"current_range_meters":36000,"station_id":"ce4bgs12rcd13ifvqcag","pricing_plan_id":"cebpf4jnsgd1na2vs0mg"},{"bike_id":"c1868f98-c702-4178-ba2d-52b537ed8d10","system_id":"levelo_inurba_marseille","lat":43.30204,"lon":5.39458,"is_reserved":false,"is_disabled":false,"rental_uris":{"android":"levelo://app?vid=c1868f98-c702-4178-ba2d-52b537ed8d10","ios":"levelo://app?vid=c1868f98-c702-4178-ba2d-52b537ed8d10"},"vehicle_type_id":"4","last_reported":1739617582,"current_range_meters":38800,"station_id":"ce4bh0p2rcd13ifvqd70","pricing_plan_id":"cebpf4jnsgd1na2vs0mg"},{"bike_id":"397f7144-3e20-4f61-9149-2720265fc375","system_id":"levelo_inurba_marseille","lat":43.240743,"lon":5.377608,"is_reserved":false,"is_disabled":false,"rental_uris":{"android":"levelo://app?vid=397f7144-3e20-4f61-9149-2720265fc375","ios":"levelo://app?vid=397f7144-3e20-4f61-9149-2720265fc375"},"vehicle_type_id":"4","last_reported":1739617582,"current_range_meters":38000,"station_id":"ce4bhnp2rcd13ifvqgvg","pricing_plan_id":"cebpf4jnsgd1na2vs0mg"},{"bike_id":"a631f734-4aa1-4ec4-bfa7-ef8429122ef0","system_id":"levelo_inurba_marseille","lat":43.25729,"lon":5.41125,"is_reserved":false,"is_disabled":false,"rental_uris":{"android":"levelo://app?vid=a631f734-4aa1-4ec4-bfa7-ef8429122ef0","ios":"levelo://app?vid=a631f734-4aa1-4ec4-bfa7-ef8429122ef0"},"vehicle_type_id":"4","last_reported":1739617582,"current_range_meters":18000,"station_id":"ce4bhkp2rcd13ifvqgd0","pricing_plan_id":"cebpf4jnsgd1na2vs0mg"},{"bike_id":"9c5a9138-5c3d-41ea-947f-4245b3af750a","system_id":"levelo_inurba_marseille","lat":43.29725,"lon":5.37692,"is_reserved":false,"is_disabled":false,"rental_uris":{"android":"levelo://app?vid=9c5a9138-5c3d-41ea-947f-4245b3af750a","ios":"levelo://app?vid=9c5a9138-5c3d-41ea-947f-4245b3af750a"},"vehicle_type_id":"4","last_reported":1739617582,"current_range_meters":38800,"station_id":"ce4bgkh2rcd13ifvqbl0","pricing_plan_id":"cebpf4jnsgd1na2vs0mg"},{"bike_id":"2a4e1fb2-dd1c-4d78-b31e-408473fbb6dd","system_id":"levelo_inurba_marseille","lat":43.28837,"lon":5.35785,"is_reserved":false,"is_disabled":false,"rental_uris":{"android":"levelo://app?vid=2a4e1fb2-dd1c-4d78-b31e-408473fbb6dd","ios":"levelo://app?vid=2a4e1fb2-dd1c-4d78-b31e-408473fbb6dd"},"vehicle_type_id":"4","last_reported":1739617582,"current_range_meters":18800,"station_id":"ce4bhb12rcd13ifvqem0","pricing_plan_id":"cebpf4jnsgd1na2vs0mg"},{"bike_id":"498115ff-d163-4924-9cc6-afa312fea580","system_id":"levelo_inurba_marseille","lat":43.29278,"lon":5.40157,"is_reserved":false,"is_disabled":false,"rental_uris":{"android":"levelo://app?vid=498115ff-d163-4924-9cc6-afa312fea580","ios":"levelo://app?vid=498115ff-d163-4924-9cc6-afa312fea580"},"vehicle_type_id":"4","last_reported":1739617582,"current_range_meters":22400,"station_id":"ce4bh312rcd13ifvqdk0","pricing_plan_id":"cebpf4jnsgd1na2vs0mg"},{"bike_id":"2f20c888-1c19-44ef-9647-43bde1a55ad1","system_id":"levelo_inurba_marseille","lat":43.29532,"lon":5.38542,"is_reserved":false,"is_disabled":false,"rental_uris":{"android":"levelo://app?vid=2f20c888-1c19-44ef-9647-43bde1a55ad1","ios":"levelo://app?vid=2f20c888-1c19-44ef-9647-43bde1a55ad1"},"vehicle_type_id":"4","last_reported":1739617582,"current_range_meters":34800,"station_id":"ce4bgih2rcd13ifvqba0","pricing_plan_id":"cebpf4jnsgd1na2vs0mg"},{"bike_id":"04f97bcf-f64c-4d53-b7f4-d1dfbc8e79c0","system_id":"levelo_inurba_marseille","lat":43.26213,"lon":5.3744,"is_reserved":false,"is_disabled":false,"rental_uris":{"android":"levelo://app?vid=04f97bcf-f64c-4d53-b7f4-d1dfbc8e79c0","ios":"levelo://app?vid=04f97bcf-f64c-4d53-b7f4-d1dfbc8e79c0"},"vehicle_type_id":"4","last_reported":1739617582,"current_range_meters":15200,"station_id":"ce4bhgp2rcd13ifvqfc0","pricing_plan_id":"cebpf4jnsgd1na2vs0mg"},{"bike_id":"258f2806-7b6c-4de8-8a7d-3a791724ae3d","system_id":"levelo_inurba_marseille","lat":43.27979,"lon":5.41652,"is_reserved":false,"is_disabled":false,"rental_uris":{"android":"levelo://app?vid=258f2806-7b6c-4de8-8a7d-3a791724ae3d","ios":"levelo://app?vid=258f2806-7b6c-4de8-8a7d-3a791724ae3d"},"vehicle_type_id":"4","last_reported":1739617582,"current_range_meters":39200,"station_id":"ce4bho12rcd13ifvqh1g","pricing_plan_id":"cebpf4jnsgd1na2vs0mg"},{"bike_id":"1e645fba-58fd-4cdd-ba0a-9a8716d4ab9c","system_id":"levelo_inurba_marseille","lat":43.26555,"lon":5.39044,"is_reserved":false,"is_disabled":false,"rental_uris":{"android":"levelo://app?vid=1e645fba-58fd-4cdd-ba0a-9a8716d4ab9c","ios":"levelo://app?vid=1e645fba-58fd-4cdd-ba0a-9a8716d4ab9c"},"vehicle_type_id":"4","last_reported":1739617582,"current_range_meters":28800,"station_id":"ce4bhe12rcd13ifvqf30","pricing_plan_id":"cebpf4jnsgd1na2vs0mg"},{"bike_id":"0e8fceb1-ca35-46d0-bdf2-7053674d26bb","system_id":"levelo_inurba_marseille","lat":43.262059,"lon":5.374451,"is_reserved":false,"is_disabled":false,"rental_uris":{"android":"levelo://app?vid=0e8fceb1-ca35-46d0-bdf2-7053674d26bb","ios":"levelo://app?vid=0e8fceb1-ca35-46d0-bdf2-7053674d26bb"},"vehicle_type_id":"4","last_reported":1739617582,"current_range_meters":35200,"station_id":"ce4bhgp2rcd13ifvqfc0","pricing_plan_id":"cebpf4jnsgd1na2vs0mg"},{"bike_id":"8d89262f-7bab-408f-b55c-fa5cc065d9cf","system_id":"levelo_inurba_marseille","lat":43.27825,"lon":5.39205,"is_reserved":false,"is_disabled":false,"rental_uris":{"android":"levelo://app?vid=8d89262f-7bab-408f-b55c-fa5cc065d9cf","ios":"levelo://app?vid=8d89262f-7bab-408f-b55c-fa5cc065d9cf"},"vehicle_type_id":"4","last_reported":1739617582,"current_range_meters":38800,"station_id":"ce4bhjp2rcd13ifvqga0","pricing_plan_id":"cebpf4jnsgd1na2vs0mg"},{"bike_id":"c51e8a8c-2dd6-4e4e-982c-e2a03bb7ecf9","system_id":"levelo_inurba_marseille","lat":43.29228,"lon":5.36077,"is_reserved":false,"is_disabled":false,"rental_uris":{"android":"levelo://app?vid=c51e8a8c-2dd6-4e4e-982c-e2a03bb7ecf9","ios":"levelo://app?vid=c51e8a8c-2dd6-4e4e-982c-e2a03bb7ecf9"},"vehicle_type_id":"4","last_reported":1739617582,"current_range_meters":28000,"station_id":"ce4bhbh2rcd13ifvqeqg","pricing_plan_id":"cebpf4jnsgd1na2vs0mg"},{"bike_id":"c2a1a342-d679-4037-a27e-b2fb148f26d7","system_id":"levelo_inurba_marseille","lat":43.25578,"lon":5.38245,"is_reserved":false,"is_disabled":false,"rental_uris":{"android":"levelo://app?vid=c2a1a342-d679-4037-a27e-b2fb148f26d7","ios":"levelo://app?vid=c2a1a342-d679-4037-a27e-b2fb148f26d7"},"vehicle_type_id":"4","last_reported":1739617582,"current_range_meters":33200,"station_id":"ce4bhih2rcd13ifvqfs0","pricing_plan_id":"cebpf4jnsgd1na2vs0mg"},{"bike_id":"7d1f73a9-1979-4206-a2e9-b308073bbc5d","system_id":"levelo_inurba_marseille","lat":43.26025,"lon":5.37547,"is_reserved":false,"is_disabled":true,"rental_uris":{"android":"levelo://app?vid=7d1f73a9-1979-4206-a2e9-b308073bbc5d","ios":"levelo://app?vid=7d1f73a9-1979-4206-a2e9-b308073bbc5d"},"vehicle_type_id":"4","last_reported":1739617582,"current_range_meters":0,"station_id":"ce4bhgh2rcd13ifvqfa0","pricing_plan_id":"cebpf4jnsgd1na2vs0mg"},{"bike_id":"ea97ac5e-3549-4466-a935-a370db5cd759","system_id":"levelo_inurba_marseille","lat":43.27933,"lon":5.4105,"is_reserved":false,"is_disabled":false,"rental_uris":{"android":"levelo://app?vid=ea97ac5e-3549-4466-a935-a370db5cd759","ios":"levelo://app?vid=ea97ac5e-3549-4466-a935-a370db5cd759"},"vehicle_type_id":"4","last_reported":1739617582,"current_range_meters":30000,"station_id":"ce4bhnp2rcd13ifvqh0g","pricing_plan_id":"cebpf4jnsgd1na2vs0mg"},{"bike_id":"d0366eab-598a-4252-a062-ddcd4c837443","system_id":"levelo_inurba_marseille","lat":43.26936,"lon":5.38914,"is_reserved":false,"is_disabled":false,"rental_uris":{"android":"levelo://app?vid=d0366eab-598a-4252-a062-ddcd4c837443","ios":"levelo://app?vid=d0366eab-598a-4252-a062-ddcd4c837443"},"vehicle_type_id":"4","last_reported":1739617582,"current_range_meters":38800,"station_id":"ce4bhhh2rcd13ifvqfl0","pricing_plan_id":"cebpf4jnsgd1na2vs0mg"},{"bike_id":"1a1ef5ab-cccf-47f4-80d5-b55fd7e3e973","system_id":"levelo_inurba_marseille","lat":43.30077,"lon":5.3907,"is_reserved":false,"is_disabled":false,"rental_uris":{"android":"levelo://app?vid=1a1ef5ab-cccf-47f4-80d5-b55fd7e3e973","ios":"levelo://app?vid=1a1ef5ab-cccf-47f4-80d5-b55fd7e3e973"},"vehicle_type_id":"4","last_reported":1739617582,"current_range_meters":38800,"station_id":"ce4bh192rcd13ifvqdb0","pricing_plan_id":"cebpf4jnsgd1na2vs0mg"},{"bike_id":"d1b7e7c3-d876-4585-aa93-a701646b8c19","system_id":"levelo_inurba_marseille","lat":43.23208,"lon":5.39958,"is_reserved":false,"is_disabled":false,"rental_uris":{"android":"levelo://app?vid=d1b7e7c3-d876-4585-aa93-a701646b8c19","ios":"levelo://app?vid=d1b7e7c3-d876-4585-aa93-a701646b8c19"},"vehicle_type_id":"4","last_reported":1739617582,"current_range_meters":31200,"station_id":"ce4bhn12rcd13ifvqgqg","pricing_plan_id":"cebpf4jnsgd1na2vs0mg"},{"bike_id":"dc4fc55f-0ea9-49a1-bb39-4722eda2c2cd","system_id":"levelo_inurba_marseille","lat":43.29908,"lon":5.37656,"is_reserved":false,"is_disabled":false,"rental_uris":{"android":"levelo://app?vid=dc4fc55f-0ea9-49a1-bb39-4722eda2c2cd","ios":"levelo://app?vid=dc4fc55f-0ea9-49a1-bb39-4722eda2c2cd"},"vehicle_type_id":"4","last_reported":1739617582,"current_range_meters":18000,"station_id":"","pricing_plan_id":"cebpf4jnsgd1na2vs0mg"},{"bike_id":"151b4b94-201a-42b7-9cd0-0a3bdd281af1","system_id":"levelo_inurba_marseille","lat":43.28421,"lon":5.34991,"is_reserved":false,"is_disabled":false,"rental_uris":{"android":"levelo://app?vid=151b4b94-201a-42b7-9cd0-0a3bdd281af1","ios":"levelo://app?vid=151b4b94-201a-42b7-9cd0-0a3bdd281af1"},"vehicle_type_id":"4","last_reported":1739617582,"current_range_meters":32000,"station_id":"ce4bhbh2rcd13ifvqepg","pricing_plan_id":"cebpf4jnsgd1na2vs0mg"},{"bike_id":"10410a5f-c872-4cbc-84fb-fe2ad13b1e20","system_id":"levelo_inurba_marseille","lat":43.28423,"lon":5.34986,"is_reserved":false,"is_disabled":false,"rental_uris":{"android":"levelo://app?vid=10410a5f-c872-4cbc-84fb-fe2ad13b1e20","ios":"levelo://app?vid=10410a5f-c872-4cbc-84fb-fe2ad13b1e20"},"vehicle_type_id":"4","last_reported":1739617582,"current_range_meters":30000,"station_id":"ce4bhbh2rcd13ifvqepg","pricing_plan_id":"cebpf4jnsgd1na2vs0mg"},{"bike_id":"5343cfbc-2904-4004-897d-d9ebb146a73a","system_id":"levelo_inurba_marseille","lat":43.294891,"lon":5.374234,"is_reserved":false,"is_disabled":false,"rental_uris":{"android":"levelo://app?vid=5343cfbc-2904-4004-897d-d9ebb146a73a","ios":"levelo://app?vid=5343cfbc-2904-4004-897d-d9ebb146a73a"},"vehicle_type_id":"4","last_reported":1739617582,"current_range_meters":25600,"station_id":"ce4bgph2rcd13ifvqc2g","pricing_plan_id":"cebpf4jnsgd1na2vs0mg"},{"bike_id":"d2c98906-95e6-41f0-887e-addf55786d50","system_id":"levelo_inurba_marseille","lat":43.2795,"lon":5.41047,"is_reserved":false,"is_disabled":false,"rental_uris":{"android":"levelo://app?vid=d2c98906-95e6-41f0-887e-addf55786d50","ios":"levelo://app?vid=d2c98906-95e6-41f0-887e-addf55786d50"},"vehicle_type_id":"4","last_reported":1739617582,"current_range_meters":25200,"station_id":"ce4bhnp2rcd13ifvqh0g","pricing_plan_id":"cebpf4jnsgd1na2vs0mg"},{"bike_id":"4ad51a02-f2dd-46e4-a406-ba69455ffee4","system_id":"levelo_inurba_marseille","lat":43.28024,"lon":5.40851,"is_reserved":false,"is_disabled":false,"rental_uris":{"android":"levelo://app?vid=4ad51a02-f2dd-46e4-a406-ba69455ffee4","ios":"levelo://app?vid=4ad51a02-f2dd-46e4-a406-ba69455ffee4"},"vehicle_type_id":"4","last_reported":1739617582,"current_range_meters":8800,"station_id":"","pricing_plan_id":"cebpf4jnsgd1na2vs0mg"},{"bike_id":"c4df4f16-0512-464a-a719-0bb1f3feadb0","system_id":"levelo_inurba_marseille","lat":43.32351,"lon":5.40625,"is_reserved":false,"is_disabled":false,"rental_uris":{"android":"levelo://app?vid=c4df4f16-0512-464a-a719-0bb1f3feadb0","ios":"levelo://app?vid=c4df4f16-0512-464a-a719-0bb1f3feadb0"},"vehicle_type_id":"4","last_reported":1739617582,"current_range_meters":20400,"station_id":"ce4bhq92rcd13ifvqhjg","pricing_plan_id":"cebpf4jnsgd1na2vs0mg"},{"bike_id":"5423b4eb-0bb8-4cf9-829d-80a1104aa3a3","system_id":"levelo_inurba_marseille","lat":43.29799,"lon":5.40404,"is_reserved":false,"is_disabled":false,"rental_uris":{"android":"levelo://app?vid=5423b4eb-0bb8-4cf9-829d-80a1104aa3a3","ios":"levelo://app?vid=5423b4eb-0bb8-4cf9-829d-80a1104aa3a3"},"vehicle_type_id":"4","last_reported":1739617582,"current_range_meters":8800,"station_id":"ce4bh112rcd13ifvqd90","pricing_plan_id":"cebpf4jnsgd1na2vs0mg"},{"bike_id":"9af4b56b-cb93-463a-9889-79218f110253","system_id":"levelo_inurba_marseille","lat":43.30871,"lon":5.39644,"is_reserved":false,"is_disabled":false,"rental_uris":{"android":"levelo://app?vid=9af4b56b-cb93-463a-9889-79218f110253","ios":"levelo://app?vid=9af4b56b-cb93-463a-9889-79218f110253"},"vehicle_type_id":"4","last_reported":1739617582,"current_range_meters":7200,"station_id":"ce4bh012rcd13ifvqcv0","pricing_plan_id":"cebpf4jnsgd1na2vs0mg"},{"bike_id":"03eba1d0-92c1-4e6e-a4d0-7c546f2439c0","system_id":"levelo_inurba_marseille","lat":43.337444,"lon":5.374475,"is_reserved":false,"is_disabled":true,"rental_uris":{"android":"levelo://app?vid=03eba1d0-92c1-4e6e-a4d0-7c546f2439c0","ios":"levelo://app?vid=03eba1d0-92c1-4e6e-a4d0-7c546f2439c0"},"vehicle_type_id":"4","last_reported":1739617582,"current_range_meters":0,"station_id":"","pricing_plan_id":"cebpf4jnsgd1na2vs0mg"},{"bike_id":"3ce9ce58-7c99-4dbb-a109-d0a36243ebfb","system_id":"levelo_inurba_marseille","lat":43.28443,"lon":5.39189,"is_reserved":false,"is_disabled":true,"rental_uris":{"android":"levelo://app?vid=3ce9ce58-7c99-4dbb-a109-d0a36243ebfb","ios":"levelo://app?vid=3ce9ce58-7c99-4dbb-a109-d0a36243ebfb"},"vehicle_type_id":"4","last_reported":1739617582,"current_range_meters":32800,"station_id":"ce4bhoh2rcd13ifvqh5g","pricing_plan_id":"cebpf4jnsgd1na2vs0mg"},{"bike_id":"37d274bc-7488-45e2-be26-b72715489ecd","system_id":"levelo_inurba_marseille","lat":43.28478,"lon":5.39198,"is_reserved":false,"is_disabled":true,"rental_uris":{"android":"levelo://app?vid=37d274bc-7488-45e2-be26-b72715489ecd","ios":"levelo://app?vid=37d274bc-7488-45e2-be26-b72715489ecd"},"vehicle_type_id":"4","last_reported":1739617582,"current_range_meters":37600,"station_id":"ce4bhoh2rcd13ifvqh5g","pricing_plan_id":"cebpf4jnsgd1na2vs0mg"},{"bike_id":"8208b9be-b2fb-4d4a-9708-6254e17f01c5","system_id":"levelo_inurba_marseille","lat":43.25492,"lon":5.37654,"is_reserved":false,"is_disabled":false,"rental_uris":{"android":"levelo://app?vid=8208b9be-b2fb-4d4a-9708-6254e17f01c5","ios":"levelo://app?vid=8208b9be-b2fb-4d4a-9708-6254e17f01c5"},"vehicle_type_id":"4","last_reported":1739617582,"current_range_meters":38000,"station_id":"ce4bhh12rcd13ifvqff0","pricing_plan_id":"cebpf4jnsgd1na2vs0mg"},{"bike_id":"3441c353-b491-45c0-96a9-12ca432004ac","system_id":"levelo_inurba_marseille","lat":43.30312,"lon":5.39206,"is_reserved":false,"is_disabled":false,"rental_uris":{"android":"levelo://app?vid=3441c353-b491-45c0-96a9-12ca432004ac","ios":"levelo://app?vid=3441c353-b491-45c0-96a9-12ca432004ac"},"vehicle_type_id":"4","last_reported":1739617582,"current_range_meters":38000,"station_id":"ce4bgkh2rcd13ifvqbk0","pricing_plan_id":"cebpf4jnsgd1na2vs0mg"},{"bike_id":"6731b96d-efef-4717-971c-9529035bf9eb","system_id":"levelo_inurba_marseille","lat":43.32277,"lon":5.38254,"is_reserved":false,"is_disabled":false,"rental_uris":{"android":"levelo://app?vid=6731b96d-efef-4717-971c-9529035bf9eb","ios":"levelo://app?vid=6731b96d-efef-4717-971c-9529035bf9eb"},"vehicle_type_id":"4","last_reported":1739617582,"current_range_meters":37600,"station_id":"ce4bhr12rcd13ifvqhqg","pricing_plan_id":"cebpf4jnsgd1na2vs0mg"},{"bike_id":"5016e875-414a-41bd-8f00-6a5845e39ba6","system_id":"levelo_inurba_marseille","lat":43.30795,"lon":5.43547,"is_reserved":false,"is_disabled":false,"rental_uris":{"android":"levelo://app?vid=5016e875-414a-41bd-8f00-6a5845e39ba6","ios":"levelo://app?vid=5016e875-414a-41bd-8f00-6a5845e39ba6"},"vehicle_type_id":"4","last_reported":1739617582,"current_range_meters":30400,"station_id":"ce4bhph2rcd13ifvqheg","pricing_plan_id":"cebpf4jnsgd1na2vs0mg"},{"bike_id":"d3473a14-b7ed-4ab0-bc3a-9d17732cb400","system_id":"levelo_inurba_marseille","lat":43.27969,"lon":5.38734,"is_reserved":false,"is_disabled":false,"rental_uris":{"android":"levelo://app?vid=d3473a14-b7ed-4ab0-bc3a-9d17732cb400","ios":"levelo://app?vid=d3473a14-b7ed-4ab0-bc3a-9d17732cb400"},"vehicle_type_id":"4","last_reported":1739617582,"current_range_meters":35200,"station_id":"ce4bhg12rcd13ifvqf80","pricing_plan_id":"cebpf4jnsgd1na2vs0mg"},{"bike_id":"683dd2bd-1e81-48dd-a1eb-4b7a7378e30c","system_id":"levelo_inurba_marseille","lat":43.24405,"lon":5.37043,"is_reserved":false,"is_disabled":false,"rental_uris":{"android":"levelo://app?vid=683dd2bd-1e81-48dd-a1eb-4b7a7378e30c","ios":"levelo://app?vid=683dd2bd-1e81-48dd-a1eb-4b7a7378e30c"},"vehicle_type_id":"4","last_reported":1739617582,"current_range_meters":29600,"station_id":"ce4bhhh2rcd13ifvqfk0","pricing_plan_id":"cebpf4jnsgd1na2vs0mg"},{"bike_id":"a56dd895-dcb3-443d-8e30-5f93bbc4530e","system_id":"levelo_inurba_marseille","lat":43.30217,"lon":5.39476,"is_reserved":false,"is_disabled":false,"rental_uris":{"android":"levelo://app?vid=a56dd895-dcb3-443d-8e30-5f93bbc4530e","ios":"levelo://app?vid=a56dd895-dcb3-443d-8e30-5f93bbc4530e"},"vehicle_type_id":"4","last_reported":1739617582,"current_range_meters":23200,"station_id":"ce4bh0p2rcd13ifvqd70","pricing_plan_id":"cebpf4jnsgd1na2vs0mg"},{"bike_id":"ee7453f3-3fa3-4e0d-9a64-bd9106059582","system_id":"levelo_inurba_marseille","lat":43.29614,"lon":5.37735,"is_reserved":false,"is_disabled":false,"rental_uris":{"android":"levelo://app?vid=ee7453f3-3fa3-4e0d-9a64-bd9106059582","ios":"levelo://app?vid=ee7453f3-3fa3-4e0d-9a64-bd9106059582"},"vehicle_type_id":"4","last_reported":1739617582,"current_range_meters":39200,"station_id":"ce4bgi92rcd13ifvqb90","pricing_plan_id":"cebpf4jnsgd1na2vs0mg"},{"bike_id":"4a3390da-723e-41e0-897b-f3f8543420cb","system_id":"levelo_inurba_marseille","lat":43.27944,"lon":5.4105,"is_reserved":false,"is_disabled":false,"rental_uris":{"android":"levelo://app?vid=4a3390da-723e-41e0-897b-f3f8543420cb","ios":"levelo://app?vid=4a3390da-723e-41e0-897b-f3f8543420cb"},"vehicle_type_id":"4","last_reported":1739617582,"current_range_meters":24000,"station_id":"ce4bhnp2rcd13ifvqh0g","pricing_plan_id":"cebpf4jnsgd1na2vs0mg"},{"bike_id":"c79308e5-c96d-4861-a5a1-5b7cbeee3ab5","system_id":"levelo_inurba_marseille","lat":43.28477,"lon":5.38424,"is_reserved":false,"is_disabled":false,"rental_uris":{"android":"levelo://app?vid=c79308e5-c96d-4861-a5a1-5b7cbeee3ab5","ios":"levelo://app?vid=c79308e5-c96d-4861-a5a1-5b7cbeee3ab5"},"vehicle_type_id":"4","last_reported":1739617582,"current_range_meters":16000,"station_id":"ce4bh512rcd13ifvqe3g","pricing_plan_id":"cebpf4jnsgd1na2vs0mg"},{"bike_id":"bd1fbd17-5ecd-4c2a-9290-d1ffd1a70214","system_id":"levelo_inurba_marseille","lat":43.29549,"lon":5.42289,"is_reserved":false,"is_disabled":false,"rental_uris":{"android":"levelo://app?vid=bd1fbd17-5ecd-4c2a-9290-d1ffd1a70214","ios":"levelo://app?vid=bd1fbd17-5ecd-4c2a-9290-d1ffd1a70214"},"vehicle_type_id":"4","last_reported":1739617582,"current_range_meters":33200,"station_id":"ce4bhph2rcd13ifvqhdg","pricing_plan_id":"cebpf4jnsgd1na2vs0mg"},{"bike_id":"e492bf36-b9da-4024-88d1-1b3161c4bdab","system_id":"levelo_inurba_marseille","lat":43.26937,"lon":5.40258,"is_reserved":false,"is_disabled":false,"rental_uris":{"android":"levelo://app?vid=e492bf36-b9da-4024-88d1-1b3161c4bdab","ios":"levelo://app?vid=e492bf36-b9da-4024-88d1-1b3161c4bdab"},"vehicle_type_id":"4","last_reported":1739617582,"current_range_meters":27600,"station_id":"cjm6bp8fraef2m0cb0m0","pricing_plan_id":"cebpf4jnsgd1na2vs0mg"},{"bike_id":"7161ce51-e148-4bc2-9d42-902da71d43a3","system_id":"levelo_inurba_marseille","lat":43.30539,"lon":5.38437,"is_reserved":false,"is_disabled":false,"rental_uris":{"android":"levelo://app?vid=7161ce51-e148-4bc2-9d42-902da71d43a3","ios":"levelo://app?vid=7161ce51-e148-4bc2-9d42-902da71d43a3"},"vehicle_type_id":"4","last_reported":1739617582,"current_range_meters":11200,"station_id":"ce4bgg92rcd13ifvqb30","pricing_plan_id":"cebpf4jnsgd1na2vs0mg"},{"bike_id":"69c7e01c-d6ef-4b61-9ec2-86890f10e5fa","system_id":"levelo_inurba_marseille","lat":43.30097,"lon":5.39092,"is_reserved":false,"is_disabled":false,"rental_uris":{"android":"levelo://app?vid=69c7e01c-d6ef-4b61-9ec2-86890f10e5fa","ios":"levelo://app?vid=69c7e01c-d6ef-4b61-9ec2-86890f10e5fa"},"vehicle_type_id":"4","last_reported":1739617582,"current_range_meters":39200,"station_id":"ce4bh192rcd13ifvqdb0","pricing_plan_id":"cebpf4jnsgd1na2vs0mg"},{"bike_id":"4f34ac20-13f8-4bff-8fa6-5425328bb98e","system_id":"levelo_inurba_marseille","lat":43.30239,"lon":5.4009,"is_reserved":false,"is_disabled":true,"rental_uris":{"android":"levelo://app?vid=4f34ac20-13f8-4bff-8fa6-5425328bb98e","ios":"levelo://app?vid=4f34ac20-13f8-4bff-8fa6-5425328bb98e"},"vehicle_type_id":"4","last_reported":1739617582,"current_range_meters":28400,"station_id":"ce4bgvh2rcd13ifvqcs0","pricing_plan_id":"cebpf4jnsgd1na2vs0mg"},{"bike_id":"95b44814-f984-47a7-9d5d-b7aa69f907c9","system_id":"levelo_inurba_marseille","lat":43.28414,"lon":5.3752,"is_reserved":false,"is_disabled":true,"rental_uris":{"android":"levelo://app?vid=95b44814-f984-47a7-9d5d-b7aa69f907c9","ios":"levelo://app?vid=95b44814-f984-47a7-9d5d-b7aa69f907c9"},"vehicle_type_id":"4","last_reported":1739617582,"current_range_meters":11600,"station_id":"ce4bh412rcd13ifvqds0","pricing_plan_id":"cebpf4jnsgd1na2vs0mg"},{"bike_id":"290e8fa8-cff1-4e37-812f-43dadd234618","system_id":"levelo_inurba_marseille","lat":43.30293,"lon":5.39224,"is_reserved":false,"is_disabled":true,"rental_uris":{"android":"levelo://app?vid=290e8fa8-cff1-4e37-812f-43dadd234618","ios":"levelo://app?vid=290e8fa8-cff1-4e37-812f-43dadd234618"},"vehicle_type_id":"4","last_reported":1739617582,"current_range_meters":36800,"station_id":"ce4bgkh2rcd13ifvqbk0","pricing_plan_id":"cebpf4jnsgd1na2vs0mg"},{"bike_id":"e5e25a05-78f7-42e7-bd0f-55177573602f","system_id":"levelo_inurba_marseille","lat":43.30185,"lon":5.36616,"is_reserved":false,"is_disabled":false,"rental_uris":{"android":"levelo://app?vid=e5e25a05-78f7-42e7-bd0f-55177573602f","ios":"levelo://app?vid=e5e25a05-78f7-42e7-bd0f-55177573602f"},"vehicle_type_id":"4","last_reported":1739617582,"current_range_meters":28800,"station_id":"ce4bgrh2rcd13ifvqc8g","pricing_plan_id":"cebpf4jnsgd1na2vs0mg"},{"bike_id":"9f1b1cbc-4b80-4505-88fe-aa616ee653bf","system_id":"levelo_inurba_marseille","lat":43.30896,"lon":5.3719,"is_reserved":false,"is_disabled":false,"rental_uris":{"android":"levelo://app?vid=9f1b1cbc-4b80-4505-88fe-aa616ee653bf","ios":"levelo://app?vid=9f1b1cbc-4b80-4505-88fe-aa616ee653bf"},"vehicle_type_id":"4","last_reported":1739617582,"current_range_meters":32400,"station_id":"ce4bguh2rcd13ifvqckg","pricing_plan_id":"cebpf4jnsgd1na2vs0mg"},{"bike_id":"074119ac-1075-43cf-a78c-e9e1c84e4d82","system_id":"levelo_inurba_marseille","lat":43.29295,"lon":5.37466,"is_reserved":false,"is_disabled":false,"rental_uris":{"android":"levelo://app?vid=074119ac-1075-43cf-a78c-e9e1c84e4d82","ios":"levelo://app?vid=074119ac-1075-43cf-a78c-e9e1c84e4d82"},"vehicle_type_id":"4","last_reported":1739617582,"current_range_meters":15200,"station_id":"ce4bgi12rcd13ifvqb70","pricing_plan_id":"cebpf4jnsgd1na2vs0mg"},{"bike_id":"30631e65-f49b-4964-9019-812350455780","system_id":"levelo_inurba_marseille","lat":43.28478,"lon":5.38427,"is_reserved":false,"is_disabled":false,"rental_uris":{"android":"levelo://app?vid=30631e65-f49b-4964-9019-812350455780","ios":"levelo://app?vid=30631e65-f49b-4964-9019-812350455780"},"vehicle_type_id":"4","last_reported":1739617582,"current_range_meters":30400,"station_id":"ce4bh512rcd13ifvqe3g","pricing_plan_id":"cebpf4jnsgd1na2vs0mg"},{"bike_id":"312ffda6-57ec-493a-a409-1ceba4974ee9","system_id":"levelo_inurba_marseille","lat":43.311769,"lon":5.387178,"is_reserved":false,"is_disabled":false,"rental_uris":{"android":"levelo://app?vid=312ffda6-57ec-493a-a409-1ceba4974ee9","ios":"levelo://app?vid=312ffda6-57ec-493a-a409-1ceba4974ee9"},"vehicle_type_id":"4","last_reported":1739617582,"current_range_meters":29600,"station_id":"ce4bgv12rcd13ifvqcp0","pricing_plan_id":"cebpf4jnsgd1na2vs0mg"},{"bike_id":"75db3319-47a4-4333-bbe7-2be989fde128","system_id":"levelo_inurba_marseille","lat":43.29803,"lon":5.3809,"is_reserved":false,"is_disabled":false,"rental_uris":{"android":"levelo://app?vid=75db3319-47a4-4333-bbe7-2be989fde128","ios":"levelo://app?vid=75db3319-47a4-4333-bbe7-2be989fde128"},"vehicle_type_id":"4","last_reported":1739617582,"current_range_meters":38800,"station_id":"ce4bgip2rcd13ifvqbb0","pricing_plan_id":"cebpf4jnsgd1na2vs0mg"},{"bike_id":"3b2bde9a-e21b-4f53-b40f-a6b97bfabe92","system_id":"levelo_inurba_marseille","lat":43.290283,"lon":5.386689,"is_reserved":false,"is_disabled":false,"rental_uris":{"android":"levelo://app?vid=3b2bde9a-e21b-4f53-b40f-a6b97bfabe92","ios":"levelo://app?vid=3b2bde9a-e21b-4f53-b40f-a6b97bfabe92"},"vehicle_type_id":"4","last_reported":1739617582,"current_range_meters":16800,"station_id":"ce4bh4p2rcd13ifvqe0g","pricing_plan_id":"cebpf4jnsgd1na2vs0mg"},{"bike_id":"55ecae1b-850f-4b2c-bfd4-05a7e8df375d","system_id":"levelo_inurba_marseille","lat":43.30935,"lon":5.40142,"is_reserved":false,"is_disabled":false,"rental_uris":{"android":"levelo://app?vid=55ecae1b-850f-4b2c-bfd4-05a7e8df375d","ios":"levelo://app?vid=55ecae1b-850f-4b2c-bfd4-05a7e8df375d"},"vehicle_type_id":"4","last_reported":1739617582,"current_range_meters":36400,"station_id":"ce4bgvp2rcd13ifvqct0","pricing_plan_id":"cebpf4jnsgd1na2vs0mg"},{"bike_id":"d8ffc342-dabe-41b2-b417-1950dcd75981","system_id":"levelo_inurba_marseille","lat":43.30136,"lon":5.38782,"is_reserved":false,"is_disabled":false,"rental_uris":{"android":"levelo://app?vid=d8ffc342-dabe-41b2-b417-1950dcd75981","ios":"levelo://app?vid=d8ffc342-dabe-41b2-b417-1950dcd75981"},"vehicle_type_id":"4","last_reported":1739617582,"current_range_meters":24800,"station_id":"ce4bghh2rcd13ifvqb60","pricing_plan_id":"cebpf4jnsgd1na2vs0mg"},{"bike_id":"5e4d0a44-8da3-4b75-a4a5-dae05507d132","system_id":"levelo_inurba_marseille","lat":43.278107,"lon":5.407368,"is_reserved":false,"is_disabled":false,"rental_uris":{"android":"levelo://app?vid=5e4d0a44-8da3-4b75-a4a5-dae05507d132","ios":"levelo://app?vid=5e4d0a44-8da3-4b75-a4a5-dae05507d132"},"vehicle_type_id":"4","last_reported":1739617582,"current_range_meters":22400,"station_id":"ce4bhh12rcd13ifvqff0","pricing_plan_id":"cebpf4jnsgd1na2vs0mg"},{"bike_id":"6815710c-f0b0-439b-b997-896dc070b1c3","system_id":"levelo_inurba_marseille","lat":43.26816,"lon":5.40257,"is_reserved":false,"is_disabled":false,"rental_uris":{"android":"levelo://app?vid=6815710c-f0b0-439b-b997-896dc070b1c3","ios":"levelo://app?vid=6815710c-f0b0-439b-b997-896dc070b1c3"},"vehicle_type_id":"4","last_reported":1739617582,"current_range_meters":38800,"station_id":"ce501612rcd8frsf0b60","pricing_plan_id":"cebpf4jnsgd1na2vs0mg"},{"bike_id":"ba6ee90b-9d94-4f43-8358-366faab5901e","system_id":"levelo_inurba_marseille","lat":43.28074,"lon":5.39663,"is_reserved":false,"is_disabled":false,"rental_uris":{"android":"levelo://app?vid=ba6ee90b-9d94-4f43-8358-366faab5901e","ios":"levelo://app?vid=ba6ee90b-9d94-4f43-8358-366faab5901e"},"vehicle_type_id":"4","last_reported":1739617582,"current_range_meters":34800,"station_id":"ce4bho12rcd13ifvqh2g","pricing_plan_id":"cebpf4jnsgd1na2vs0mg"},{"bike_id":"fe0f12a8-8d62-4d79-b629-bda6901e6297","system_id":"levelo_inurba_marseille","lat":43.2693,"lon":5.40267,"is_reserved":false,"is_disabled":true,"rental_uris":{"android":"levelo://app?vid=fe0f12a8-8d62-4d79-b629-bda6901e6297","ios":"levelo://app?vid=fe0f12a8-8d62-4d79-b629-bda6901e6297"},"vehicle_type_id":"4","last_reported":1739617582,"current_range_meters":32000,"station_id":"cjm6bp8fraef2m0cb0m0","pricing_plan_id":"cebpf4jnsgd1na2vs0mg"},{"bike_id":"71b09600-92bf-4db2-a8a0-9901e3e52200","system_id":"levelo_inurba_marseille","lat":43.30114,"lon":5.37408,"is_reserved":false,"is_disabled":false,"rental_uris":{"android":"levelo://app?vid=71b09600-92bf-4db2-a8a0-9901e3e52200","ios":"levelo://app?vid=71b09600-92bf-4db2-a8a0-9901e3e52200"},"vehicle_type_id":"4","last_reported":1739617582,"current_range_meters":22400,"station_id":"ce4bgs92rcd13ifvqcc0","pricing_plan_id":"cebpf4jnsgd1na2vs0mg"},{"bike_id":"5429a055-5c17-4863-ac08-ee7234bc7af8","system_id":"levelo_inurba_marseille","lat":43.32361,"lon":5.36765,"is_reserved":false,"is_disabled":false,"rental_uris":{"android":"levelo://app?vid=5429a055-5c17-4863-ac08-ee7234bc7af8","ios":"levelo://app?vid=5429a055-5c17-4863-ac08-ee7234bc7af8"},"vehicle_type_id":"4","last_reported":1739617582,"current_range_meters":33200,"station_id":"ce4bhsh2rcd13ifvqi2g","pricing_plan_id":"cebpf4jnsgd1na2vs0mg"},{"bike_id":"f8aa8631-00bb-4f5d-8f29-8445fb781f09","system_id":"levelo_inurba_marseille","lat":43.29629,"lon":5.37171,"is_reserved":false,"is_disabled":false,"rental_uris":{"android":"levelo://app?vid=f8aa8631-00bb-4f5d-8f29-8445fb781f09","ios":"levelo://app?vid=f8aa8631-00bb-4f5d-8f29-8445fb781f09"},"vehicle_type_id":"4","last_reported":1739617582,"current_range_meters":38800,"station_id":"ce4bgnh2rcd13ifvqc0g","pricing_plan_id":"cebpf4jnsgd1na2vs0mg"},{"bike_id":"bed1bab1-82f3-4487-b91a-f226eb89893b","system_id":"levelo_inurba_marseille","lat":43.24808,"lon":5.3746,"is_reserved":false,"is_disabled":false,"rental_uris":{"android":"levelo://app?vid=bed1bab1-82f3-4487-b91a-f226eb89893b","ios":"levelo://app?vid=bed1bab1-82f3-4487-b91a-f226eb89893b"},"vehicle_type_id":"4","last_reported":1739617582,"current_range_meters":38800,"station_id":"ce4bhgh2rcd13ifvqfb0","pricing_plan_id":"cebpf4jnsgd1na2vs0mg"},{"bike_id":"9d7698bb-e50d-48d9-a268-b717d0a3874f","system_id":"levelo_inurba_marseille","lat":43.29382,"lon":5.37837,"is_reserved":false,"is_disabled":false,"rental_uris":{"android":"levelo://app?vid=9d7698bb-e50d-48d9-a268-b717d0a3874f","ios":"levelo://app?vid=9d7698bb-e50d-48d9-a268-b717d0a3874f"},"vehicle_type_id":"4","last_reported":1739617582,"current_range_meters":28000,"station_id":"ce4bgjh2rcd13ifvqbf0","pricing_plan_id":"cebpf4jnsgd1na2vs0mg"},{"bike_id":"1e559f12-6a89-4305-8cef-58c3159fadf8","system_id":"levelo_inurba_marseille","lat":43.29531,"lon":5.39404,"is_reserved":false,"is_disabled":false,"rental_uris":{"android":"levelo://app?vid=1e559f12-6a89-4305-8cef-58c3159fadf8","ios":"levelo://app?vid=1e559f12-6a89-4305-8cef-58c3159fadf8"},"vehicle_type_id":"4","last_reported":1739617582,"current_range_meters":32000,"station_id":"ce4bh292rcd13ifvqdf0","pricing_plan_id":"cebpf4jnsgd1na2vs0mg"},{"bike_id":"60f63138-f893-49b4-926c-eaa78179c7d8","system_id":"levelo_inurba_marseille","lat":43.25872,"lon":5.39894,"is_reserved":false,"is_disabled":false,"rental_uris":{"android":"levelo://app?vid=60f63138-f893-49b4-926c-eaa78179c7d8","ios":"levelo://app?vid=60f63138-f893-49b4-926c-eaa78179c7d8"},"vehicle_type_id":"4","last_reported":1739617582,"current_range_meters":29600,"station_id":"ce4bhl92rcd13ifvqghg","pricing_plan_id":"cebpf4jnsgd1na2vs0mg"},{"bike_id":"8e27dff1-77f5-4a1b-b9c0-4017a7900542","system_id":"levelo_inurba_marseille","lat":43.29181,"lon":5.35803,"is_reserved":false,"is_disabled":false,"rental_uris":{"android":"levelo://app?vid=8e27dff1-77f5-4a1b-b9c0-4017a7900542","ios":"levelo://app?vid=8e27dff1-77f5-4a1b-b9c0-4017a7900542"},"vehicle_type_id":"4","last_reported":1739617582,"current_range_meters":22000,"station_id":"ce4bhb12rcd13ifvqel0","pricing_plan_id":"cebpf4jnsgd1na2vs0mg"},{"bike_id":"bb60cb61-5efe-41d6-b5f0-573cb6639cdb","system_id":"levelo_inurba_marseille","lat":43.296234,"lon":5.37729,"is_reserved":false,"is_disabled":false,"rental_uris":{"android":"levelo://app?vid=bb60cb61-5efe-41d6-b5f0-573cb6639cdb","ios":"levelo://app?vid=bb60cb61-5efe-41d6-b5f0-573cb6639cdb"},"vehicle_type_id":"4","last_reported":1739617582,"current_range_meters":22400,"station_id":"ce4bgi92rcd13ifvqb90","pricing_plan_id":"cebpf4jnsgd1na2vs0mg"},{"bike_id":"981f0c84-c763-4744-ab7e-6d6374d30546","system_id":"levelo_inurba_marseille","lat":43.25522,"lon":5.37644,"is_reserved":false,"is_disabled":false,"rental_uris":{"android":"levelo://app?vid=981f0c84-c763-4744-ab7e-6d6374d30546","ios":"levelo://app?vid=981f0c84-c763-4744-ab7e-6d6374d30546"},"vehicle_type_id":"4","last_reported":1739617582,"current_range_meters":39200,"station_id":"ce4bhh12rcd13ifvqff0","pricing_plan_id":"cebpf4jnsgd1na2vs0mg"},{"bike_id":"e2421ffa-148e-429f-8a0d-c426f330625c","system_id":"levelo_inurba_marseille","lat":43.26805,"lon":5.40264,"is_reserved":false,"is_disabled":false,"rental_uris":{"android":"levelo://app?vid=e2421ffa-148e-429f-8a0d-c426f330625c","ios":"levelo://app?vid=e2421ffa-148e-429f-8a0d-c426f330625c"},"vehicle_type_id":"4","last_reported":1739617582,"current_range_meters":9200,"station_id":"ce501612rcd8frsf0b60","pricing_plan_id":"cebpf4jnsgd1na2vs0mg"},{"bike_id":"c4c30d43-c99a-4375-b69e-29accecccae5","system_id":"levelo_inurba_marseille","lat":43.31166,"lon":5.38724,"is_reserved":false,"is_disabled":false,"rental_uris":{"android":"levelo://app?vid=c4c30d43-c99a-4375-b69e-29accecccae5","ios":"levelo://app?vid=c4c30d43-c99a-4375-b69e-29accecccae5"},"vehicle_type_id":"4","last_reported":1739617582,"current_range_meters":36000,"station_id":"ce4bgv12rcd13ifvqcp0","pricing_plan_id":"cebpf4jnsgd1na2vs0mg"},{"bike_id":"0940bc76-06ec-48d0-8734-75e1fc848a06","system_id":"levelo_inurba_marseille","lat":43.29582,"lon":5.37559,"is_reserved":false,"is_disabled":false,"rental_uris":{"android":"levelo://app?vid=0940bc76-06ec-48d0-8734-75e1fc848a06","ios":"levelo://app?vid=0940bc76-06ec-48d0-8734-75e1fc848a06"},"vehicle_type_id":"4","last_reported":1739617582,"current_range_meters":22000,"station_id":"ce4bgh92rcd13ifvqb50","pricing_plan_id":"cebpf4jnsgd1na2vs0mg"},{"bike_id":"f3577e40-d3b4-4c9c-af82-d1b37865ee10","system_id":"levelo_inurba_marseille","lat":43.25575,"lon":5.38234,"is_reserved":false,"is_disabled":true,"rental_uris":{"android":"levelo://app?vid=f3577e40-d3b4-4c9c-af82-d1b37865ee10","ios":"levelo://app?vid=f3577e40-d3b4-4c9c-af82-d1b37865ee10"},"vehicle_type_id":"4","last_reported":1739617582,"current_range_meters":1200,"station_id":"ce4bhih2rcd13ifvqfs0","pricing_plan_id":"cebpf4jnsgd1na2vs0mg"},{"bike_id":"7c899794-3263-4e7e-b8cc-232637b51dda","system_id":"levelo_inurba_marseille","lat":43.30956,"lon":5.39041,"is_reserved":false,"is_disabled":false,"rental_uris":{"android":"levelo://app?vid=7c899794-3263-4e7e-b8cc-232637b51dda","ios":"levelo://app?vid=7c899794-3263-4e7e-b8cc-232637b51dda"},"vehicle_type_id":"4","last_reported":1739617582,"current_range_meters":32400,"station_id":"ce4bgup2rcd13ifvqco0","pricing_plan_id":"cebpf4jnsgd1na2vs0mg"},{"bike_id":"cc06cad4-1ba5-4b99-a089-1e5671255834","system_id":"levelo_inurba_marseille","lat":43.29636,"lon":5.37728,"is_reserved":false,"is_disabled":false,"rental_uris":{"android":"levelo://app?vid=cc06cad4-1ba5-4b99-a089-1e5671255834","ios":"levelo://app?vid=cc06cad4-1ba5-4b99-a089-1e5671255834"},"vehicle_type_id":"4","last_reported":1739617582,"current_range_meters":38000,"station_id":"ce4bgi92rcd13ifvqb90","pricing_plan_id":"cebpf4jnsgd1na2vs0mg"},{"bike_id":"b3b0121c-d2f5-4bcd-aae6-f236573eef32","system_id":"levelo_inurba_marseille","lat":43.27067,"lon":5.40284,"is_reserved":false,"is_disabled":false,"rental_uris":{"android":"levelo://app?vid=b3b0121c-d2f5-4bcd-aae6-f236573eef32","ios":"levelo://app?vid=b3b0121c-d2f5-4bcd-aae6-f236573eef32"},"vehicle_type_id":"4","last_reported":1739617582,"current_range_meters":38800,"station_id":"ce4bhk92rcd13ifvqgc0","pricing_plan_id":"cebpf4jnsgd1na2vs0mg"},{"bike_id":"53b5f8d9-591b-4722-8b93-d03568f78034","system_id":"levelo_inurba_marseille","lat":43.28451,"lon":5.35911,"is_reserved":false,"is_disabled":false,"rental_uris":{"android":"levelo://app?vid=53b5f8d9-591b-4722-8b93-d03568f78034","ios":"levelo://app?vid=53b5f8d9-591b-4722-8b93-d03568f78034"},"vehicle_type_id":"4","last_reported":1739617582,"current_range_meters":25600,"station_id":"ce4bhah2rcd13ifvqei0","pricing_plan_id":"cebpf4jnsgd1na2vs0mg"},{"bike_id":"083c94d3-d18e-44fb-98eb-98310b2b2694","system_id":"levelo_inurba_marseille","lat":43.30207,"lon":5.39456,"is_reserved":false,"is_disabled":false,"rental_uris":{"android":"levelo://app?vid=083c94d3-d18e-44fb-98eb-98310b2b2694","ios":"levelo://app?vid=083c94d3-d18e-44fb-98eb-98310b2b2694"},"vehicle_type_id":"4","last_reported":1739617582,"current_range_meters":38800,"station_id":"ce4bh0p2rcd13ifvqd70","pricing_plan_id":"cebpf4jnsgd1na2vs0mg"},{"bike_id":"1d2187b0-d3c9-4f00-aaee-80b985a88d23","system_id":"levelo_inurba_marseille","lat":43.30205,"lon":5.3946,"is_reserved":false,"is_disabled":false,"rental_uris":{"android":"levelo://app?vid=1d2187b0-d3c9-4f00-aaee-80b985a88d23","ios":"levelo://app?vid=1d2187b0-d3c9-4f00-aaee-80b985a88d23"},"vehicle_type_id":"4","last_reported":1739617582,"current_range_meters":22000,"station_id":"ce4bh0p2rcd13ifvqd70","pricing_plan_id":"cebpf4jnsgd1na2vs0mg"},{"bike_id":"9de06f62-e014-4e5a-bd12-c29322ab9098","system_id":"levelo_inurba_marseille","lat":43.30949,"lon":5.39035,"is_reserved":false,"is_disabled":true,"rental_uris":{"android":"levelo://app?vid=9de06f62-e014-4e5a-bd12-c29322ab9098","ios":"levelo://app?vid=9de06f62-e014-4e5a-bd12-c29322ab9098"},"vehicle_type_id":"4","last_reported":1739617582,"current_range_meters":0,"station_id":"ce4bgup2rcd13ifvqco0","pricing_plan_id":"cebpf4jnsgd1na2vs0mg"},{"bike_id":"2a84e518-823c-4611-93b7-031f04718c55","system_id":"levelo_inurba_marseille","lat":43.27172,"lon":5.40997,"is_reserved":false,"is_disabled":false,"rental_uris":{"android":"levelo://app?vid=2a84e518-823c-4611-93b7-031f04718c55","ios":"levelo://app?vid=2a84e518-823c-4611-93b7-031f04718c55"},"vehicle_type_id":"4","last_reported":1739617582,"current_range_meters":5600,"station_id":"ce4bhl12rcd13ifvqgf0","pricing_plan_id":"cebpf4jnsgd1na2vs0mg"},{"bike_id":"e5e5a17e-27a5-454b-904b-e271a7fe6a76","system_id":"levelo_inurba_marseille","lat":43.28084,"lon":5.39661,"is_reserved":false,"is_disabled":false,"rental_uris":{"android":"levelo://app?vid=e5e5a17e-27a5-454b-904b-e271a7fe6a76","ios":"levelo://app?vid=e5e5a17e-27a5-454b-904b-e271a7fe6a76"},"vehicle_type_id":"4","last_reported":1739617582,"current_range_meters":39200,"station_id":"ce4bho12rcd13ifvqh2g","pricing_plan_id":"cebpf4jnsgd1na2vs0mg"},{"bike_id":"ddf1d674-41d6-443f-b0f1-1da7df267862","system_id":"levelo_inurba_marseille","lat":43.230593,"lon":5.354956,"is_reserved":false,"is_disabled":false,"rental_uris":{"android":"levelo://app?vid=ddf1d674-41d6-443f-b0f1-1da7df267862","ios":"levelo://app?vid=ddf1d674-41d6-443f-b0f1-1da7df267862"},"vehicle_type_id":"4","last_reported":1739617582,"current_range_meters":21600,"station_id":"cpo3342slgdg3j2ifvpg","pricing_plan_id":"cebpf4jnsgd1na2vs0mg"},{"bike_id":"45d478f3-34a9-4671-9e6b-3e6e52015c4f","system_id":"levelo_inurba_marseille","lat":43.3046,"lon":5.37896,"is_reserved":false,"is_disabled":false,"rental_uris":{"android":"levelo://app?vid=45d478f3-34a9-4671-9e6b-3e6e52015c4f","ios":"levelo://app?vid=45d478f3-34a9-4671-9e6b-3e6e52015c4f"},"vehicle_type_id":"4","last_reported":1739617582,"current_range_meters":39200,"station_id":"ce4bgup2rcd13ifvqcn0","pricing_plan_id":"cebpf4jnsgd1na2vs0mg"},{"bike_id":"46f7dd7f-3698-4a4b-84b6-cdfa84e75594","system_id":"levelo_inurba_marseille","lat":43.23961,"lon":5.36631,"is_reserved":false,"is_disabled":false,"rental_uris":{"android":"levelo://app?vid=46f7dd7f-3698-4a4b-84b6-cdfa84e75594","ios":"levelo://app?vid=46f7dd7f-3698-4a4b-84b6-cdfa84e75594"},"vehicle_type_id":"4","last_reported":1739617582,"current_range_meters":27600,"station_id":"ce4bhi12rcd13ifvqfp0","pricing_plan_id":"cebpf4jnsgd1na2vs0mg"},{"bike_id":"0caad6c4-d95c-4dff-8cba-167bb9d70f8c","system_id":"levelo_inurba_marseille","lat":43.337444,"lon":5.374475,"is_reserved":false,"is_disabled":false,"rental_uris":{"android":"levelo://app?vid=0caad6c4-d95c-4dff-8cba-167bb9d70f8c","ios":"levelo://app?vid=0caad6c4-d95c-4dff-8cba-167bb9d70f8c"},"vehicle_type_id":"4","last_reported":1739617582,"current_range_meters":36400,"station_id":"","pricing_plan_id":"cebpf4jnsgd1na2vs0mg"},{"bike_id":"6fd14201-9274-4012-a310-3f01af072715","system_id":"levelo_inurba_marseille","lat":43.25109,"lon":5.40312,"is_reserved":false,"is_disabled":false,"rental_uris":{"android":"levelo://app?vid=6fd14201-9274-4012-a310-3f01af072715","ios":"levelo://app?vid=6fd14201-9274-4012-a310-3f01af072715"},"vehicle_type_id":"4","last_reported":1739617582,"current_range_meters":38400,"station_id":"ce4bhlh2rcd13ifvqgig","pricing_plan_id":"cebpf4jnsgd1na2vs0mg"},{"bike_id":"c166ea4f-ec0a-46f1-b56f-20699e18eb96","system_id":"levelo_inurba_marseille","lat":43.32487,"lon":5.36553,"is_reserved":false,"is_disabled":false,"rental_uris":{"android":"levelo://app?vid=c166ea4f-ec0a-46f1-b56f-20699e18eb96","ios":"levelo://app?vid=c166ea4f-ec0a-46f1-b56f-20699e18eb96"},"vehicle_type_id":"4","last_reported":1739617582,"current_range_meters":25600,"station_id":"ce4bhs12rcd13ifvqhvg","pricing_plan_id":"cebpf4jnsgd1na2vs0mg"},{"bike_id":"e9d71415-1817-4a43-bb37-1593c65a9a52","system_id":"levelo_inurba_marseille","lat":43.304,"lon":5.413,"is_reserved":false,"is_disabled":false,"rental_uris":{"android":"levelo://app?vid=e9d71415-1817-4a43-bb37-1593c65a9a52","ios":"levelo://app?vid=e9d71415-1817-4a43-bb37-1593c65a9a52"},"vehicle_type_id":"4","last_reported":1739617582,"current_range_meters":10000,"station_id":"ce4bhop2rcd13ifvqh8g","pricing_plan_id":"cebpf4jnsgd1na2vs0mg"},{"bike_id":"c38e6823-b54d-4e87-aaea-f0a0293f56dc","system_id":"levelo_inurba_marseille","lat":43.22939,"lon":5.35382,"is_reserved":false,"is_disabled":true,"rental_uris":{"android":"levelo://app?vid=c38e6823-b54d-4e87-aaea-f0a0293f56dc","ios":"levelo://app?vid=c38e6823-b54d-4e87-aaea-f0a0293f56dc"},"vehicle_type_id":"4","last_reported":1739617582,"current_range_meters":0,"station_id":"cpo3532slgdg3j2ikp40","pricing_plan_id":"cebpf4jnsgd1na2vs0mg"},{"bike_id":"2f79e81a-7027-4c82-8b0a-92ebacbe6365","system_id":"levelo_inurba_marseille","lat":43.26818,"lon":5.40271,"is_reserved":false,"is_disabled":false,"rental_uris":{"android":"levelo://app?vid=2f79e81a-7027-4c82-8b0a-92ebacbe6365","ios":"levelo://app?vid=2f79e81a-7027-4c82-8b0a-92ebacbe6365"},"vehicle_type_id":"4","last_reported":1739617582,"current_range_meters":34000,"station_id":"ce501612rcd8frsf0b60","pricing_plan_id":"cebpf4jnsgd1na2vs0mg"},{"bike_id":"a8bc8483-ceef-456e-92ec-efcc9ae8cb95","system_id":"levelo_inurba_marseille","lat":43.27605,"lon":5.36125,"is_reserved":false,"is_disabled":false,"rental_uris":{"android":"levelo://app?vid=a8bc8483-ceef-456e-92ec-efcc9ae8cb95","ios":"levelo://app?vid=a8bc8483-ceef-456e-92ec-efcc9ae8cb95"},"vehicle_type_id":"4","last_reported":1739617582,"current_range_meters":36400,"station_id":"ce4bgj92rcd13ifvqbe0","pricing_plan_id":"cebpf4jnsgd1na2vs0mg"},{"bike_id":"4aaa0363-f313-42f1-83f9-2f2886c48346","system_id":"levelo_inurba_marseille","lat":43.31391,"lon":5.38811,"is_reserved":false,"is_disabled":true,"rental_uris":{"android":"levelo://app?vid=4aaa0363-f313-42f1-83f9-2f2886c48346","ios":"levelo://app?vid=4aaa0363-f313-42f1-83f9-2f2886c48346"},"vehicle_type_id":"4","last_reported":1739617582,"current_range_meters":0,"station_id":"","pricing_plan_id":"cebpf4jnsgd1na2vs0mg"},{"bike_id":"2052c5d8-520c-4dcd-8e5f-7c15b8bce85f","system_id":"levelo_inurba_marseille","lat":43.28705,"lon":5.37391,"is_reserved":false,"is_disabled":false,"rental_uris":{"android":"levelo://app?vid=2052c5d8-520c-4dcd-8e5f-7c15b8bce85f","ios":"levelo://app?vid=2052c5d8-520c-4dcd-8e5f-7c15b8bce85f"},"vehicle_type_id":"4","last_reported":1739617582,"current_range_meters":38800,"station_id":"ce4bh3p2rcd13ifvqdq0","pricing_plan_id":"cebpf4jnsgd1na2vs0mg"},{"bike_id":"43dc5574-eed0-4b1d-9289-f32002400d84","system_id":"levelo_inurba_marseille","lat":43.24173,"lon":5.36397,"is_reserved":false,"is_disabled":false,"rental_uris":{"android":"levelo://app?vid=43dc5574-eed0-4b1d-9289-f32002400d84","ios":"levelo://app?vid=43dc5574-eed0-4b1d-9289-f32002400d84"},"vehicle_type_id":"4","last_reported":1739617582,"current_range_meters":11600,"station_id":"cpo36qri1sfpv3e86is0","pricing_plan_id":"cebpf4jnsgd1na2vs0mg"},{"bike_id":"b7675672-ea91-4212-a3c2-1e75ea117425","system_id":"levelo_inurba_marseille","lat":43.28171,"lon":5.4264,"is_reserved":false,"is_disabled":true,"rental_uris":{"android":"levelo://app?vid=b7675672-ea91-4212-a3c2-1e75ea117425","ios":"levelo://app?vid=b7675672-ea91-4212-a3c2-1e75ea117425"},"vehicle_type_id":"4","last_reported":1739617582,"current_range_meters":0,"station_id":"ce4bhnh2rcd13ifvqgug","pricing_plan_id":"cebpf4jnsgd1na2vs0mg"},{"bike_id":"008ed16f-d916-42dc-9845-48f81c518e29","system_id":"levelo_inurba_marseille","lat":43.30194,"lon":5.36599,"is_reserved":false,"is_disabled":false,"rental_uris":{"android":"levelo://app?vid=008ed16f-d916-42dc-9845-48f81c518e29","ios":"levelo://app?vid=008ed16f-d916-42dc-9845-48f81c518e29"},"vehicle_type_id":"4","last_reported":1739617582,"current_range_meters":39200,"station_id":"ce4bgrh2rcd13ifvqc8g","pricing_plan_id":"cebpf4jnsgd1na2vs0mg"},{"bike_id":"4235ce89-19ca-4588-835f-77ed16dc3abc","system_id":"levelo_inurba_marseille","lat":43.28159,"lon":5.42642,"is_reserved":false,"is_disabled":false,"rental_uris":{"android":"levelo://app?vid=4235ce89-19ca-4588-835f-77ed16dc3abc","ios":"levelo://app?vid=4235ce89-19ca-4588-835f-77ed16dc3abc"},"vehicle_type_id":"4","last_reported":1739617582,"current_range_meters":38000,"station_id":"ce4bhnh2rcd13ifvqgug","pricing_plan_id":"cebpf4jnsgd1na2vs0mg"},{"bike_id":"a40ecc08-bf05-4a6f-ad20-96a1ea035de9","system_id":"levelo_inurba_marseille","lat":43.29574,"lon":5.37517,"is_reserved":false,"is_disabled":false,"rental_uris":{"android":"levelo://app?vid=a40ecc08-bf05-4a6f-ad20-96a1ea035de9","ios":"levelo://app?vid=a40ecc08-bf05-4a6f-ad20-96a1ea035de9"},"vehicle_type_id":"4","last_reported":1739617582,"current_range_meters":35200,"station_id":"ce4bgh92rcd13ifvqb50","pricing_plan_id":"cebpf4jnsgd1na2vs0mg"},{"bike_id":"9bcc3779-160f-4f11-a908-15bc41b1ac43","system_id":"levelo_inurba_marseille","lat":43.27994,"lon":5.40004,"is_reserved":false,"is_disabled":true,"rental_uris":{"android":"levelo://app?vid=9bcc3779-160f-4f11-a908-15bc41b1ac43","ios":"levelo://app?vid=9bcc3779-160f-4f11-a908-15bc41b1ac43"},"vehicle_type_id":"4","last_reported":1739617582,"current_range_meters":7200,"station_id":"ce4bho92rcd13ifvqh4g","pricing_plan_id":"cebpf4jnsgd1na2vs0mg"},{"bike_id":"92d1ee13-e974-447f-aca6-7b5bff8f8b19","system_id":"levelo_inurba_marseille","lat":43.28074,"lon":5.3966,"is_reserved":false,"is_disabled":false,"rental_uris":{"android":"levelo://app?vid=92d1ee13-e974-447f-aca6-7b5bff8f8b19","ios":"levelo://app?vid=92d1ee13-e974-447f-aca6-7b5bff8f8b19"},"vehicle_type_id":"4","last_reported":1739617582,"current_range_meters":38800,"station_id":"ce4bho12rcd13ifvqh2g","pricing_plan_id":"cebpf4jnsgd1na2vs0mg"},{"bike_id":"5beae94d-9ddf-462a-997a-7835f11c6382","system_id":"levelo_inurba_marseille","lat":43.30941,"lon":5.39035,"is_reserved":false,"is_disabled":false,"rental_uris":{"android":"levelo://app?vid=5beae94d-9ddf-462a-997a-7835f11c6382","ios":"levelo://app?vid=5beae94d-9ddf-462a-997a-7835f11c6382"},"vehicle_type_id":"4","last_reported":1739617582,"current_range_meters":36000,"station_id":"ce4bgup2rcd13ifvqco0","pricing_plan_id":"cebpf4jnsgd1na2vs0mg"},{"bike_id":"9700395c-94cd-4718-9d60-e19bd1280b4f","system_id":"levelo_inurba_marseille","lat":43.29523,"lon":5.38537,"is_reserved":false,"is_disabled":false,"rental_uris":{"android":"levelo://app?vid=9700395c-94cd-4718-9d60-e19bd1280b4f","ios":"levelo://app?vid=9700395c-94cd-4718-9d60-e19bd1280b4f"},"vehicle_type_id":"4","last_reported":1739617582,"current_range_meters":34800,"station_id":"ce4bgih2rcd13ifvqba0","pricing_plan_id":"cebpf4jnsgd1na2vs0mg"},{"bike_id":"5f431628-1b2d-4a9e-9493-29ef6605563f","system_id":"levelo_inurba_marseille","lat":43.29526,"lon":5.39041,"is_reserved":false,"is_disabled":true,"rental_uris":{"android":"levelo://app?vid=5f431628-1b2d-4a9e-9493-29ef6605563f","ios":"levelo://app?vid=5f431628-1b2d-4a9e-9493-29ef6605563f"},"vehicle_type_id":"4","last_reported":1739617582,"current_range_meters":38000,"station_id":"ce4bh3p2rcd13ifvqdp0","pricing_plan_id":"cebpf4jnsgd1na2vs0mg"},{"bike_id":"dbfb7df1-d758-448c-9075-e7feb5f00d8e","system_id":"levelo_inurba_marseille","lat":43.24043,"lon":5.37775,"is_reserved":false,"is_disabled":false,"rental_uris":{"android":"levelo://app?vid=dbfb7df1-d758-448c-9075-e7feb5f00d8e","ios":"levelo://app?vid=dbfb7df1-d758-448c-9075-e7feb5f00d8e"},"vehicle_type_id":"4","last_reported":1739617582,"current_range_meters":18000,"station_id":"ce4bhnp2rcd13ifvqgvg","pricing_plan_id":"cebpf4jnsgd1na2vs0mg"},{"bike_id":"f66f74df-96d8-4ce3-87c1-7f9b86778635","system_id":"levelo_inurba_marseille","lat":43.229324,"lon":5.353752,"is_reserved":false,"is_disabled":false,"rental_uris":{"android":"levelo://app?vid=f66f74df-96d8-4ce3-87c1-7f9b86778635","ios":"levelo://app?vid=f66f74df-96d8-4ce3-87c1-7f9b86778635"},"vehicle_type_id":"4","last_reported":1739617582,"current_range_meters":20800,"station_id":"cpo3532slgdg3j2ikp40","pricing_plan_id":"cebpf4jnsgd1na2vs0mg"},{"bike_id":"e031351b-efdb-4640-8255-b69e1640bbff","system_id":"levelo_inurba_marseille","lat":43.24167,"lon":5.36386,"is_reserved":false,"is_disabled":false,"rental_uris":{"android":"levelo://app?vid=e031351b-efdb-4640-8255-b69e1640bbff","ios":"levelo://app?vid=e031351b-efdb-4640-8255-b69e1640bbff"},"vehicle_type_id":"4","last_reported":1739617582,"current_range_meters":30400,"station_id":"cpo36qri1sfpv3e86is0","pricing_plan_id":"cebpf4jnsgd1na2vs0mg"},{"bike_id":"a99daf69-1403-4f45-8227-4d8ec1dfb8df","system_id":"levelo_inurba_marseille","lat":43.337444,"lon":5.374475,"is_reserved":false,"is_disabled":false,"rental_uris":{"android":"levelo://app?vid=a99daf69-1403-4f45-8227-4d8ec1dfb8df","ios":"levelo://app?vid=a99daf69-1403-4f45-8227-4d8ec1dfb8df"},"vehicle_type_id":"4","last_reported":1739617582,"current_range_meters":16000,"station_id":"ce4bgr92rcd13ifvqc7g","pricing_plan_id":"cebpf4jnsgd1na2vs0mg"},{"bike_id":"98a8dae0-84f1-4836-a1a2-1b7ff39aee19","system_id":"levelo_inurba_marseille","lat":43.30943,"lon":5.39048,"is_reserved":false,"is_disabled":false,"rental_uris":{"android":"levelo://app?vid=98a8dae0-84f1-4836-a1a2-1b7ff39aee19","ios":"levelo://app?vid=98a8dae0-84f1-4836-a1a2-1b7ff39aee19"},"vehicle_type_id":"4","last_reported":1739617582,"current_range_meters":38800,"station_id":"ce4bgup2rcd13ifvqco0","pricing_plan_id":"cebpf4jnsgd1na2vs0mg"},{"bike_id":"2e015c42-cc40-4232-915d-7ff51faaa1bf","system_id":"levelo_inurba_marseille","lat":43.27377,"lon":5.36258,"is_reserved":false,"is_disabled":false,"rental_uris":{"android":"levelo://app?vid=2e015c42-cc40-4232-915d-7ff51faaa1bf","ios":"levelo://app?vid=2e015c42-cc40-4232-915d-7ff51faaa1bf"},"vehicle_type_id":"4","last_reported":1739617582,"current_range_meters":6000,"station_id":"ce4bhbh2rcd13ifvqeo0","pricing_plan_id":"cebpf4jnsgd1na2vs0mg"},{"bike_id":"b21cd36d-735b-4507-9bf1-1493f9d1436b","system_id":"levelo_inurba_marseille","lat":43.30162,"lon":5.38076,"is_reserved":false,"is_disabled":false,"rental_uris":{"android":"levelo://app?vid=b21cd36d-735b-4507-9bf1-1493f9d1436b","ios":"levelo://app?vid=b21cd36d-735b-4507-9bf1-1493f9d1436b"},"vehicle_type_id":"4","last_reported":1739617582,"current_range_meters":38800,"station_id":"ce4bgjp2rcd13ifvqbh0","pricing_plan_id":"cebpf4jnsgd1na2vs0mg"},{"bike_id":"9aded10a-f840-4d16-8025-118dd69fb7c7","system_id":"levelo_inurba_marseille","lat":43.30084,"lon":5.39073,"is_reserved":false,"is_disabled":false,"rental_uris":{"android":"levelo://app?vid=9aded10a-f840-4d16-8025-118dd69fb7c7","ios":"levelo://app?vid=9aded10a-f840-4d16-8025-118dd69fb7c7"},"vehicle_type_id":"4","last_reported":1739617582,"current_range_meters":20800,"station_id":"ce4bh192rcd13ifvqdb0","pricing_plan_id":"cebpf4jnsgd1na2vs0mg"},{"bike_id":"60784c7f-3331-4816-8812-33fd9a6b9897","system_id":"levelo_inurba_marseille","lat":43.30956,"lon":5.3904,"is_reserved":false,"is_disabled":false,"rental_uris":{"android":"levelo://app?vid=60784c7f-3331-4816-8812-33fd9a6b9897","ios":"levelo://app?vid=60784c7f-3331-4816-8812-33fd9a6b9897"},"vehicle_type_id":"4","last_reported":1739617582,"current_range_meters":33200,"station_id":"ce4bgup2rcd13ifvqco0","pricing_plan_id":"cebpf4jnsgd1na2vs0mg"},{"bike_id":"ad4af932-f51b-41b8-983b-7e431dcc24a9","system_id":"levelo_inurba_marseille","lat":43.31131,"lon":5.38261,"is_reserved":false,"is_disabled":true,"rental_uris":{"android":"levelo://app?vid=ad4af932-f51b-41b8-983b-7e431dcc24a9","ios":"levelo://app?vid=ad4af932-f51b-41b8-983b-7e431dcc24a9"},"vehicle_type_id":"4","last_reported":1739617582,"current_range_meters":400,"station_id":"","pricing_plan_id":"cebpf4jnsgd1na2vs0mg"},{"bike_id":"95d42703-1a37-4cb4-8b06-69616f6b8e6d","system_id":"levelo_inurba_marseille","lat":43.27675,"lon":5.38914,"is_reserved":false,"is_disabled":true,"rental_uris":{"android":"levelo://app?vid=95d42703-1a37-4cb4-8b06-69616f6b8e6d","ios":"levelo://app?vid=95d42703-1a37-4cb4-8b06-69616f6b8e6d"},"vehicle_type_id":"4","last_reported":1739617582,"current_range_meters":38000,"station_id":"ce4bhi12rcd13ifvqfo0","pricing_plan_id":"cebpf4jnsgd1na2vs0mg"},{"bike_id":"492bcbb6-9023-4459-9b9d-6ec125624bb4","system_id":"levelo_inurba_marseille","lat":43.26212,"lon":5.37483,"is_reserved":false,"is_disabled":false,"rental_uris":{"android":"levelo://app?vid=492bcbb6-9023-4459-9b9d-6ec125624bb4","ios":"levelo://app?vid=492bcbb6-9023-4459-9b9d-6ec125624bb4"},"vehicle_type_id":"4","last_reported":1739617582,"current_range_meters":29600,"station_id":"ce4bhh12rcd13ifvqff0","pricing_plan_id":"cebpf4jnsgd1na2vs0mg"},{"bike_id":"dfb8b4bf-66b7-4f69-91ef-2703e7099d0d","system_id":"levelo_inurba_marseille","lat":43.26772,"lon":5.3942,"is_reserved":false,"is_disabled":true,"rental_uris":{"android":"levelo://app?vid=dfb8b4bf-66b7-4f69-91ef-2703e7099d0d","ios":"levelo://app?vid=dfb8b4bf-66b7-4f69-91ef-2703e7099d0d"},"vehicle_type_id":"4","last_reported":1739617582,"current_range_meters":5600,"station_id":"ce4bhh12rcd13ifvqfg0","pricing_plan_id":"cebpf4jnsgd1na2vs0mg"},{"bike_id":"0bbfac10-35d9-4a62-a88d-1e4a98fee6b9","system_id":"levelo_inurba_marseille","lat":43.30366,"lon":5.41872,"is_reserved":false,"is_disabled":false,"rental_uris":{"android":"levelo://app?vid=0bbfac10-35d9-4a62-a88d-1e4a98fee6b9","ios":"levelo://app?vid=0bbfac10-35d9-4a62-a88d-1e4a98fee6b9"},"vehicle_type_id":"4","last_reported":1739617582,"current_range_meters":38000,"station_id":"ce4bhop2rcd13ifvqh7g","pricing_plan_id":"cebpf4jnsgd1na2vs0mg"},{"bike_id":"3a9e60e0-b74c-4baa-9e51-0eab2b07b7f9","system_id":"levelo_inurba_marseille","lat":43.27969,"lon":5.38725,"is_reserved":false,"is_disabled":false,"rental_uris":{"android":"levelo://app?vid=3a9e60e0-b74c-4baa-9e51-0eab2b07b7f9","ios":"levelo://app?vid=3a9e60e0-b74c-4baa-9e51-0eab2b07b7f9"},"vehicle_type_id":"4","last_reported":1739617582,"current_range_meters":28400,"station_id":"ce4bhg12rcd13ifvqf80","pricing_plan_id":"cebpf4jnsgd1na2vs0mg"},{"bike_id":"3893b19f-ff96-4eec-9ace-a6c59815c4d1","system_id":"levelo_inurba_marseille","lat":43.28976,"lon":5.35603,"is_reserved":false,"is_disabled":false,"rental_uris":{"android":"levelo://app?vid=3893b19f-ff96-4eec-9ace-a6c59815c4d1","ios":"levelo://app?vid=3893b19f-ff96-4eec-9ace-a6c59815c4d1"},"vehicle_type_id":"4","last_reported":1739617582,"current_range_meters":39200,"station_id":"ce4bhb92rcd13ifvqen0","pricing_plan_id":"cebpf4jnsgd1na2vs0mg"},{"bike_id":"5e5a05a5-9929-40f5-9cce-020e08e40f65","system_id":"levelo_inurba_marseille","lat":43.29717,"lon":5.37677,"is_reserved":false,"is_disabled":false,"rental_uris":{"android":"levelo://app?vid=5e5a05a5-9929-40f5-9cce-020e08e40f65","ios":"levelo://app?vid=5e5a05a5-9929-40f5-9cce-020e08e40f65"},"vehicle_type_id":"4","last_reported":1739617582,"current_range_meters":24000,"station_id":"ce4bgkh2rcd13ifvqbl0","pricing_plan_id":"cebpf4jnsgd1na2vs0mg"},{"bike_id":"8d709b49-82e8-4cb1-90dd-bddd0753bfa8","system_id":"levelo_inurba_marseille","lat":43.29616,"lon":5.3773,"is_reserved":false,"is_disabled":false,"rental_uris":{"android":"levelo://app?vid=8d709b49-82e8-4cb1-90dd-bddd0753bfa8","ios":"levelo://app?vid=8d709b49-82e8-4cb1-90dd-bddd0753bfa8"},"vehicle_type_id":"4","last_reported":1739617582,"current_range_meters":38800,"station_id":"ce4bgi92rcd13ifvqb90","pricing_plan_id":"cebpf4jnsgd1na2vs0mg"},{"bike_id":"50e4dbc0-7e08-45fc-92ad-1a72e55806a5","system_id":"levelo_inurba_marseille","lat":43.29024,"lon":5.39979,"is_reserved":false,"is_disabled":false,"rental_uris":{"android":"levelo://app?vid=50e4dbc0-7e08-45fc-92ad-1a72e55806a5","ios":"levelo://app?vid=50e4dbc0-7e08-45fc-92ad-1a72e55806a5"},"vehicle_type_id":"4","last_reported":1739617582,"current_range_meters":17200,"station_id":"ce4bh392rcd13ifvqdm0","pricing_plan_id":"cebpf4jnsgd1na2vs0mg"},{"bike_id":"f00a432d-6e5e-4ca0-a2b9-2ac1fcc4c4f4","system_id":"levelo_inurba_marseille","lat":43.27988,"lon":5.40018,"is_reserved":false,"is_disabled":false,"rental_uris":{"android":"levelo://app?vid=f00a432d-6e5e-4ca0-a2b9-2ac1fcc4c4f4","ios":"levelo://app?vid=f00a432d-6e5e-4ca0-a2b9-2ac1fcc4c4f4"},"vehicle_type_id":"4","last_reported":1739617582,"current_range_meters":38800,"station_id":"ce4bho92rcd13ifvqh4g","pricing_plan_id":"cebpf4jnsgd1na2vs0mg"},{"bike_id":"a750a14f-62f9-42fb-ab51-ebfcb3c0fbfb","system_id":"levelo_inurba_marseille","lat":43.29564,"lon":5.37507,"is_reserved":false,"is_disabled":false,"rental_uris":{"android":"levelo://app?vid=a750a14f-62f9-42fb-ab51-ebfcb3c0fbfb","ios":"levelo://app?vid=a750a14f-62f9-42fb-ab51-ebfcb3c0fbfb"},"vehicle_type_id":"4","last_reported":1739617582,"current_range_meters":36000,"station_id":"ce4bgh92rcd13ifvqb50","pricing_plan_id":"cebpf4jnsgd1na2vs0mg"},{"bike_id":"201b0315-f60e-45b0-a64d-ce13682f54e1","system_id":"levelo_inurba_marseille","lat":43.29054,"lon":5.35948,"is_reserved":false,"is_disabled":false,"rental_uris":{"android":"levelo://app?vid=201b0315-f60e-45b0-a64d-ce13682f54e1","ios":"levelo://app?vid=201b0315-f60e-45b0-a64d-ce13682f54e1"},"vehicle_type_id":"4","last_reported":1739617582,"current_range_meters":38800,"station_id":"ce4bha92rcd13ifvqeg0","pricing_plan_id":"cebpf4jnsgd1na2vs0mg"},{"bike_id":"63ea1146-6635-4ab9-8ded-196ccb45282d","system_id":"levelo_inurba_marseille","lat":43.23062,"lon":5.3549,"is_reserved":false,"is_disabled":false,"rental_uris":{"android":"levelo://app?vid=63ea1146-6635-4ab9-8ded-196ccb45282d","ios":"levelo://app?vid=63ea1146-6635-4ab9-8ded-196ccb45282d"},"vehicle_type_id":"4","last_reported":1739617582,"current_range_meters":18000,"station_id":"cpo3342slgdg3j2ifvpg","pricing_plan_id":"cebpf4jnsgd1na2vs0mg"},{"bike_id":"d4c8c5d0-a371-434f-9621-65161baca610","system_id":"levelo_inurba_marseille","lat":43.2862,"lon":5.37066,"is_reserved":false,"is_disabled":false,"rental_uris":{"android":"levelo://app?vid=d4c8c5d0-a371-434f-9621-65161baca610","ios":"levelo://app?vid=d4c8c5d0-a371-434f-9621-65161baca610"},"vehicle_type_id":"4","last_reported":1739617582,"current_range_meters":33200,"station_id":"ce4bht12rcd13ifvqi60","pricing_plan_id":"cebpf4jnsgd1na2vs0mg"},{"bike_id":"643e599c-fe97-4957-af35-257d6f342bb3","system_id":"levelo_inurba_marseille","lat":43.29276,"lon":5.40156,"is_reserved":false,"is_disabled":false,"rental_uris":{"android":"levelo://app?vid=643e599c-fe97-4957-af35-257d6f342bb3","ios":"levelo://app?vid=643e599c-fe97-4957-af35-257d6f342bb3"},"vehicle_type_id":"4","last_reported":1739617582,"current_range_meters":24400,"station_id":"ce4bh312rcd13ifvqdk0","pricing_plan_id":"cebpf4jnsgd1na2vs0mg"},{"bike_id":"31649830-ad30-45df-b2fe-832ef87f5c00","system_id":"levelo_inurba_marseille","lat":43.28713,"lon":5.37936,"is_reserved":false,"is_disabled":false,"rental_uris":{"android":"levelo://app?vid=31649830-ad30-45df-b2fe-832ef87f5c00","ios":"levelo://app?vid=31649830-ad30-45df-b2fe-832ef87f5c00"},"vehicle_type_id":"4","last_reported":1739617582,"current_range_meters":33600,"station_id":"ce4bh9p2rcd13ifvqec0","pricing_plan_id":"cebpf4jnsgd1na2vs0mg"},{"bike_id":"747b0f18-8c94-4c79-b7aa-84de399bcf84","system_id":"levelo_inurba_marseille","lat":43.29027,"lon":5.39972,"is_reserved":false,"is_disabled":false,"rental_uris":{"android":"levelo://app?vid=747b0f18-8c94-4c79-b7aa-84de399bcf84","ios":"levelo://app?vid=747b0f18-8c94-4c79-b7aa-84de399bcf84"},"vehicle_type_id":"4","last_reported":1739617582,"current_range_meters":38000,"station_id":"ce4bh392rcd13ifvqdm0","pricing_plan_id":"cebpf4jnsgd1na2vs0mg"},{"bike_id":"cfca2bb6-96c4-410b-992e-a130fa9d4f24","system_id":"levelo_inurba_marseille","lat":43.29539,"lon":5.39031,"is_reserved":false,"is_disabled":false,"rental_uris":{"android":"levelo://app?vid=cfca2bb6-96c4-410b-992e-a130fa9d4f24","ios":"levelo://app?vid=cfca2bb6-96c4-410b-992e-a130fa9d4f24"},"vehicle_type_id":"4","last_reported":1739617582,"current_range_meters":37600,"station_id":"ce4bh3p2rcd13ifvqdp0","pricing_plan_id":"cebpf4jnsgd1na2vs0mg"},{"bike_id":"b7e517c3-9dc8-4a4a-aada-46ba42403708","system_id":"levelo_inurba_marseille","lat":43.29843,"lon":5.39741,"is_reserved":false,"is_disabled":true,"rental_uris":{"android":"levelo://app?vid=b7e517c3-9dc8-4a4a-aada-46ba42403708","ios":"levelo://app?vid=b7e517c3-9dc8-4a4a-aada-46ba42403708"},"vehicle_type_id":"4","last_reported":1739617582,"current_range_meters":32000,"station_id":"ce4bh0h2rcd13ifvqd50","pricing_plan_id":"cebpf4jnsgd1na2vs0mg"},{"bike_id":"68970d15-2f9e-4af2-b628-4c08c9b71c5c","system_id":"levelo_inurba_marseille","lat":43.24827,"lon":5.37489,"is_reserved":false,"is_disabled":false,"rental_uris":{"android":"levelo://app?vid=68970d15-2f9e-4af2-b628-4c08c9b71c5c","ios":"levelo://app?vid=68970d15-2f9e-4af2-b628-4c08c9b71c5c"},"vehicle_type_id":"4","last_reported":1739617582,"current_range_meters":19600,"station_id":"ce4bhgh2rcd13ifvqfb0","pricing_plan_id":"cebpf4jnsgd1na2vs0mg"},{"bike_id":"c1665b9a-8804-49fb-a2e7-87ab5bdd8b6d","system_id":"levelo_inurba_marseille","lat":43.33734,"lon":5.39189,"is_reserved":false,"is_disabled":false,"rental_uris":{"android":"levelo://app?vid=c1665b9a-8804-49fb-a2e7-87ab5bdd8b6d","ios":"levelo://app?vid=c1665b9a-8804-49fb-a2e7-87ab5bdd8b6d"},"vehicle_type_id":"4","last_reported":1739617582,"current_range_meters":38800,"station_id":"ce4bhr92rcd13ifvqhsg","pricing_plan_id":"cebpf4jnsgd1na2vs0mg"},{"bike_id":"8bc9d648-50a7-42aa-ab90-62df0b8cc213","system_id":"levelo_inurba_marseille","lat":43.287042,"lon":5.37945,"is_reserved":false,"is_disabled":false,"rental_uris":{"android":"levelo://app?vid=8bc9d648-50a7-42aa-ab90-62df0b8cc213","ios":"levelo://app?vid=8bc9d648-50a7-42aa-ab90-62df0b8cc213"},"vehicle_type_id":"4","last_reported":1739617582,"current_range_meters":37600,"station_id":"ce4bh9p2rcd13ifvqec0","pricing_plan_id":"cebpf4jnsgd1na2vs0mg"},{"bike_id":"5c381eca-4257-4fd5-9296-339ca91bf680","system_id":"levelo_inurba_marseille","lat":43.31992,"lon":5.38153,"is_reserved":false,"is_disabled":true,"rental_uris":{"android":"levelo://app?vid=5c381eca-4257-4fd5-9296-339ca91bf680","ios":"levelo://app?vid=5c381eca-4257-4fd5-9296-339ca91bf680"},"vehicle_type_id":"4","last_reported":1739617582,"current_range_meters":1200,"station_id":"ce4bhr12rcd13ifvqhpg","pricing_plan_id":"cebpf4jnsgd1na2vs0mg"},{"bike_id":"ce67776b-2411-4c5e-ad7d-3b8ca5234407","system_id":"levelo_inurba_marseille","lat":43.2866,"lon":5.36361,"is_reserved":false,"is_disabled":false,"rental_uris":{"android":"levelo://app?vid=ce67776b-2411-4c5e-ad7d-3b8ca5234407","ios":"levelo://app?vid=ce67776b-2411-4c5e-ad7d-3b8ca5234407"},"vehicle_type_id":"4","last_reported":1739617582,"current_range_meters":33200,"station_id":"ce4bhah2rcd13ifvqej0","pricing_plan_id":"cebpf4jnsgd1na2vs0mg"},{"bike_id":"282211ad-bbca-4d13-9801-d0ebb9c1483d","system_id":"levelo_inurba_marseille","lat":43.29555,"lon":5.42293,"is_reserved":false,"is_disabled":false,"rental_uris":{"android":"levelo://app?vid=282211ad-bbca-4d13-9801-d0ebb9c1483d","ios":"levelo://app?vid=282211ad-bbca-4d13-9801-d0ebb9c1483d"},"vehicle_type_id":"4","last_reported":1739617582,"current_range_meters":26000,"station_id":"ce4bhph2rcd13ifvqhdg","pricing_plan_id":"cebpf4jnsgd1na2vs0mg"},{"bike_id":"a27c9ce4-f3a5-4f72-8d2b-b0b55f360911","system_id":"levelo_inurba_marseille","lat":43.3094,"lon":5.39057,"is_reserved":false,"is_disabled":false,"rental_uris":{"android":"levelo://app?vid=a27c9ce4-f3a5-4f72-8d2b-b0b55f360911","ios":"levelo://app?vid=a27c9ce4-f3a5-4f72-8d2b-b0b55f360911"},"vehicle_type_id":"4","last_reported":1739617582,"current_range_meters":32000,"station_id":"ce4bgup2rcd13ifvqco0","pricing_plan_id":"cebpf4jnsgd1na2vs0mg"},{"bike_id":"d157203c-3a5b-4bbc-9638-6eefce740d5e","system_id":"levelo_inurba_marseille","lat":43.23218,"lon":5.35551,"is_reserved":false,"is_disabled":false,"rental_uris":{"android":"levelo://app?vid=d157203c-3a5b-4bbc-9638-6eefce740d5e","ios":"levelo://app?vid=d157203c-3a5b-4bbc-9638-6eefce740d5e"},"vehicle_type_id":"4","last_reported":1739617582,"current_range_meters":24800,"station_id":"ce4bhu92rcd13ifvqi70","pricing_plan_id":"cebpf4jnsgd1na2vs0mg"},{"bike_id":"ab761f08-1e0a-4231-9bcc-bde3a6c90930","system_id":"levelo_inurba_marseille","lat":43.29962,"lon":5.41335,"is_reserved":false,"is_disabled":false,"rental_uris":{"android":"levelo://app?vid=ab761f08-1e0a-4231-9bcc-bde3a6c90930","ios":"levelo://app?vid=ab761f08-1e0a-4231-9bcc-bde3a6c90930"},"vehicle_type_id":"4","last_reported":1739617582,"current_range_meters":38800,"station_id":"ce4bhp12rcd13ifvqh9g","pricing_plan_id":"cebpf4jnsgd1na2vs0mg"},{"bike_id":"411c8b19-3070-40bb-8d13-0d17b30f8b01","system_id":"levelo_inurba_marseille","lat":43.30141,"lon":5.39855,"is_reserved":false,"is_disabled":false,"rental_uris":{"android":"levelo://app?vid=411c8b19-3070-40bb-8d13-0d17b30f8b01","ios":"levelo://app?vid=411c8b19-3070-40bb-8d13-0d17b30f8b01"},"vehicle_type_id":"4","last_reported":1739617582,"current_range_meters":36400,"station_id":"ce4bh0h2rcd13ifvqd40","pricing_plan_id":"cebpf4jnsgd1na2vs0mg"},{"bike_id":"3067cc11-ea3d-4497-a8fa-3717c9b08d94","system_id":"levelo_inurba_marseille","lat":43.2733,"lon":5.39118,"is_reserved":false,"is_disabled":true,"rental_uris":{"android":"levelo://app?vid=3067cc11-ea3d-4497-a8fa-3717c9b08d94","ios":"levelo://app?vid=3067cc11-ea3d-4497-a8fa-3717c9b08d94"},"vehicle_type_id":"4","last_reported":1739617582,"current_range_meters":38000,"station_id":"ce4bhgp2rcd13ifvqfe0","pricing_plan_id":"cebpf4jnsgd1na2vs0mg"},