{"last_updated":1769584648,"ttl":60,"version":"2.2","data":{"bikes":[{"bike_id":"2ef180bd-573c-4ce4-af13-b221aae53c17","system_id":"levelo_inurba_marseille","lat":43.29605,"lon":5.38103,"is_reserved":false,"is_disabled":true,"rental_uris":{"android":"levelo://app?vid=2ef180bd-573c-4ce4-af13-b221aae53c17","ios":"levelo://app?vid=2ef180bd-573c-4ce4-af13-b221aae53c17"},"vehicle_type_id":"4","last_reported":1769584648,"current_range_meters":2800,"station_id":"ce4bgl12rcd13ifvqbo0","pricing_plan_id":"cebpf4jnsgd1na2vs0mg"},{"bike_id":"700fea19-1f0b-46cc-ade6-9fa0d06d4ef2","system_id":"levelo_inurba_marseille","lat":43.312331,"lon":5.368726,"is_reserved":false,"is_disabled":false,"rental_uris":{"android":"levelo://app?vid=700fea19-1f0b-46cc-ade6-9fa0d06d4ef2","ios":"levelo://app?vid=700fea19-1f0b-46cc-ade6-9fa0d06d4ef2"},"vehicle_type_id":"4","last_reported":1769584648,"current_range_meters":2800,"station_id":"ce4bgl92rcd13ifvqbq0","pricing_plan_id":"cebpf4jnsgd1na2vs0mg"},{"bike_id":"1874eda8-a3c3-49b6-9412-f0fc01cc3854","system_id":"levelo_inurba_marseille","lat":43.32364,"lon":5.36719,"is_reserved":false,"is_disabled":false,"rental_uris":{"android":"levelo://app?vid=1874eda8-a3c3-49b6-9412-f0fc01cc3854","ios":"levelo://app?vid=1874eda8-a3c3-49b6-9412-f0fc01cc3854"},"vehicle_type_id":"4","last_reported":1769584648,"current_range_meters":2800,"station_id":"ce4bhsh2rcd13ifvqi2g","pricing_plan_id":"cebpf4jnsgd1na2vs0mg"},{"bike_id":"e2912b90-a2e7-4158-81a6-8d358cdc4e62","system_id":"levelo_inurba_marseille","lat":43.29912,"lon":5.37469,"is_reserved":false,"is_disabled":false,"rental_uris":{"android":"levelo://app?vid=e2912b90-a2e7-4158-81a6-8d358cdc4e62","ios":"levelo://app?vid=e2912b90-a2e7-4158-81a6-8d358cdc4e62"},"vehicle_type_id":"4","last_reported":1769584648,"current_range_meters":2800,"station_id":"ce4bgjh2rcd13ifvqbg0","pricing_plan_id":"cebpf4jnsgd1na2vs0mg"},{"bike_id":"9dfb6817-685c-4921-bd42-d3eacb986f1a","system_id":"levelo_inurba_marseille","lat":43.253418,"lon":5.421713,"is_reserved":false,"is_disabled":false,"rental_uris":{"android":"levelo://app?vid=9dfb6817-685c-4921-bd42-d3eacb986f1a","ios":"levelo://app?vid=9dfb6817-685c-4921-bd42-d3eacb986f1a"},"vehicle_type_id":"4","last_reported":1769584648,"current_range_meters":2800,"station_id":"st_d2m65c5bi1j21697t3ng","pricing_plan_id":"cebpf4jnsgd1na2vs0mg"},{"bike_id":"91d870a4-4a3d-4749-b0c2-ad130846435a","system_id":"levelo_inurba_marseille","lat":43.313586,"lon":5.36695,"is_reserved":false,"is_disabled":false,"rental_uris":{"android":"levelo://app?vid=91d870a4-4a3d-4749-b0c2-ad130846435a","ios":"levelo://app?vid=91d870a4-4a3d-4749-b0c2-ad130846435a"},"vehicle_type_id":"4","last_reported":1769584648,"current_range_meters":2800,"station_id":"ce4bgr92rcd13ifvqc6g","pricing_plan_id":"cebpf4jnsgd1na2vs0mg"},{"bike_id":"4b4e8521-2ba4-44a1-ae99-0e0cab827900","system_id":"levelo_inurba_marseille","lat":43.29047,"lon":5.37578,"is_reserved":false,"is_disabled":false,"rental_uris":{"android":"levelo://app?vid=4b4e8521-2ba4-44a1-ae99-0e0cab827900","ios":"levelo://app?vid=4b4e8521-2ba4-44a1-ae99-0e0cab827900"},"vehicle_type_id":"4","last_reported":1769584648,"current_range_meters":2800,"station_id":"ce4bh692rcd13ifvqe90","pricing_plan_id":"cebpf4jnsgd1na2vs0mg"},{"bike_id":"c4331a36-6999-42e2-9488-7f8c2c2dfef1","system_id":"levelo_inurba_marseille","lat":43.30802,"lon":5.40485,"is_reserved":false,"is_disabled":false,"rental_uris":{"android":"levelo://app?vid=c4331a36-6999-42e2-9488-7f8c2c2dfef1","ios":"levelo://app?vid=c4331a36-6999-42e2-9488-7f8c2c2dfef1"},"vehicle_type_id":"4","last_reported":1769584648,"current_range_meters":2800,"station_id":"","pricing_plan_id":"cebpf4jnsgd1na2vs0mg"},{"bike_id":"3068b6de-22ec-4bb7-bd70-ef84189d5ccf","system_id":"levelo_inurba_marseille","lat":43.24167,"lon":5.36393,"is_reserved":false,"is_disabled":false,"rental_uris":{"android":"levelo://app?vid=3068b6de-22ec-4bb7-bd70-ef84189d5ccf","ios":"levelo://app?vid=3068b6de-22ec-4bb7-bd70-ef84189d5ccf"},"vehicle_type_id":"4","last_reported":1769584648,"current_range_meters":2800,"station_id":"cpo36qri1sfpv3e86is0","pricing_plan_id":"cebpf4jnsgd1na2vs0mg"},{"bike_id":"2d43f51b-59fd-4122-a464-335142037fbb","system_id":"levelo_inurba_marseille","lat":43.29598,"lon":5.38124,"is_reserved":false,"is_disabled":false,"rental_uris":{"android":"levelo://app?vid=2d43f51b-59fd-4122-a464-335142037fbb","ios":"levelo://app?vid=2d43f51b-59fd-4122-a464-335142037fbb"},"vehicle_type_id":"4","last_reported":1769584648,"current_range_meters":2800,"station_id":"ce4bgl12rcd13ifvqbo0","pricing_plan_id":"cebpf4jnsgd1na2vs0mg"},{"bike_id":"93a22037-e4e2-4113-9b87-111effc461b7","system_id":"levelo_inurba_marseille","lat":43.27493,"lon":5.42442,"is_reserved":false,"is_disabled":false,"rental_uris":{"android":"levelo://app?vid=93a22037-e4e2-4113-9b87-111effc461b7","ios":"levelo://app?vid=93a22037-e4e2-4113-9b87-111effc461b7"},"vehicle_type_id":"4","last_reported":1769584648,"current_range_meters":3200,"station_id":"ce4bhn92rcd13ifvqgrg","pricing_plan_id":"cebpf4jnsgd1na2vs0mg"},{"bike_id":"4182a78b-f81a-4339-a5bf-fd0c809cb67c","system_id":"levelo_inurba_marseille","lat":43.2418,"lon":5.36412,"is_reserved":false,"is_disabled":false,"rental_uris":{"android":"levelo://app?vid=4182a78b-f81a-4339-a5bf-fd0c809cb67c","ios":"levelo://app?vid=4182a78b-f81a-4339-a5bf-fd0c809cb67c"},"vehicle_type_id":"4","last_reported":1769584648,"current_range_meters":3200,"station_id":"cpo36qri1sfpv3e86is0","pricing_plan_id":"cebpf4jnsgd1na2vs0mg"},{"bike_id":"9c0f94c4-b37c-40bf-80a5-dff27d73ee95","system_id":"levelo_inurba_marseille","lat":43.26565,"lon":5.3907,"is_reserved":false,"is_disabled":false,"rental_uris":{"android":"levelo://app?vid=9c0f94c4-b37c-40bf-80a5-dff27d73ee95","ios":"levelo://app?vid=9c0f94c4-b37c-40bf-80a5-dff27d73ee95"},"vehicle_type_id":"4","last_reported":1769584648,"current_range_meters":3200,"station_id":"","pricing_plan_id":"cebpf4jnsgd1na2vs0mg"},{"bike_id":"8a8efbd2-c8c7-47dd-9cd0-80920d5272d5","system_id":"levelo_inurba_marseille","lat":43.28411,"lon":5.3815,"is_reserved":false,"is_disabled":false,"rental_uris":{"android":"levelo://app?vid=8a8efbd2-c8c7-47dd-9cd0-80920d5272d5","ios":"levelo://app?vid=8a8efbd2-c8c7-47dd-9cd0-80920d5272d5"},"vehicle_type_id":"4","last_reported":1769584648,"current_range_meters":3200,"station_id":"","pricing_plan_id":"cebpf4jnsgd1na2vs0mg"},{"bike_id":"542c4194-0cbb-46a2-81b1-a944e64c63f6","system_id":"levelo_inurba_marseille","lat":43.27187,"lon":5.41003,"is_reserved":false,"is_disabled":false,"rental_uris":{"android":"levelo://app?vid=542c4194-0cbb-46a2-81b1-a944e64c63f6","ios":"levelo://app?vid=542c4194-0cbb-46a2-81b1-a944e64c63f6"},"vehicle_type_id":"4","last_reported":1769584648,"current_range_meters":3200,"station_id":"ce4bhl12rcd13ifvqgf0","pricing_plan_id":"cebpf4jnsgd1na2vs0mg"},{"bike_id":"50975ff8-ef5b-48ef-9a63-788455e79d9e","system_id":"levelo_inurba_marseille","lat":43.30176,"lon":5.3662,"is_reserved":false,"is_disabled":false,"rental_uris":{"android":"levelo://app?vid=50975ff8-ef5b-48ef-9a63-788455e79d9e","ios":"levelo://app?vid=50975ff8-ef5b-48ef-9a63-788455e79d9e"},"vehicle_type_id":"4","last_reported":1769584648,"current_range_meters":3200,"station_id":"ce4bgrh2rcd13ifvqc8g","pricing_plan_id":"cebpf4jnsgd1na2vs0mg"},{"bike_id":"ab0a70a7-dbb7-40ac-a422-c24f6af74d46","system_id":"levelo_inurba_marseille","lat":43.29023,"lon":5.38133,"is_reserved":false,"is_disabled":false,"rental_uris":{"android":"levelo://app?vid=ab0a70a7-dbb7-40ac-a422-c24f6af74d46","ios":"levelo://app?vid=ab0a70a7-dbb7-40ac-a422-c24f6af74d46"},"vehicle_type_id":"4","last_reported":1769584648,"current_range_meters":3600,"station_id":"ce4bh4p2rcd13ifvqe1g","pricing_plan_id":"cebpf4jnsgd1na2vs0mg"},{"bike_id":"67319617-e363-454c-971c-619a05701ccc","system_id":"levelo_inurba_marseille","lat":43.30906,"lon":5.40338,"is_reserved":false,"is_disabled":false,"rental_uris":{"android":"levelo://app?vid=67319617-e363-454c-971c-619a05701ccc","ios":"levelo://app?vid=67319617-e363-454c-971c-619a05701ccc"},"vehicle_type_id":"4","last_reported":1769584648,"current_range_meters":3600,"station_id":"","pricing_plan_id":"cebpf4jnsgd1na2vs0mg"},{"bike_id":"4563cd4a-14be-4cd2-962a-8eb9b6992943","system_id":"levelo_inurba_marseille","lat":43.23197,"lon":5.35552,"is_reserved":false,"is_disabled":false,"rental_uris":{"android":"levelo://app?vid=4563cd4a-14be-4cd2-962a-8eb9b6992943","ios":"levelo://app?vid=4563cd4a-14be-4cd2-962a-8eb9b6992943"},"vehicle_type_id":"4","last_reported":1769584648,"current_range_meters":3600,"station_id":"ce4bhu92rcd13ifvqi70","pricing_plan_id":"cebpf4jnsgd1na2vs0mg"},{"bike_id":"ebb420da-9f91-41a5-8e07-8ddc17ac8d79","system_id":"levelo_inurba_marseille","lat":43.27992,"lon":5.41666,"is_reserved":false,"is_disabled":false,"rental_uris":{"android":"levelo://app?vid=ebb420da-9f91-41a5-8e07-8ddc17ac8d79","ios":"levelo://app?vid=ebb420da-9f91-41a5-8e07-8ddc17ac8d79"},"vehicle_type_id":"4","last_reported":1769584648,"current_range_meters":3600,"station_id":"ce4bho12rcd13ifvqh1g","pricing_plan_id":"cebpf4jnsgd1na2vs0mg"},{"bike_id":"553f7ec8-0556-4b19-a60a-b39852dc6c80","system_id":"levelo_inurba_marseille","lat":43.28426,"lon":5.3917,"is_reserved":false,"is_disabled":false,"rental_uris":{"android":"levelo://app?vid=553f7ec8-0556-4b19-a60a-b39852dc6c80","ios":"levelo://app?vid=553f7ec8-0556-4b19-a60a-b39852dc6c80"},"vehicle_type_id":"4","last_reported":1769584648,"current_range_meters":3600,"station_id":"ce4bhoh2rcd13ifvqh5g","pricing_plan_id":"cebpf4jnsgd1na2vs0mg"},{"bike_id":"e1120862-e77d-472e-b5c8-670c3df22cb9","system_id":"levelo_inurba_marseille","lat":43.24052,"lon":5.37798,"is_reserved":false,"is_disabled":false,"rental_uris":{"android":"levelo://app?vid=e1120862-e77d-472e-b5c8-670c3df22cb9","ios":"levelo://app?vid=e1120862-e77d-472e-b5c8-670c3df22cb9"},"vehicle_type_id":"4","last_reported":1769584648,"current_range_meters":3600,"station_id":"ce4bhnp2rcd13ifvqgvg","pricing_plan_id":"cebpf4jnsgd1na2vs0mg"},{"bike_id":"29aa5aa3-c04d-4a4a-9381-86a1ba9e5e8a","system_id":"levelo_inurba_marseille","lat":43.26544,"lon":5.37295,"is_reserved":false,"is_disabled":false,"rental_uris":{"android":"levelo://app?vid=29aa5aa3-c04d-4a4a-9381-86a1ba9e5e8a","ios":"levelo://app?vid=29aa5aa3-c04d-4a4a-9381-86a1ba9e5e8a"},"vehicle_type_id":"4","last_reported":1769584648,"current_range_meters":3600,"station_id":"ce4bhg12rcd13ifvqf70","pricing_plan_id":"cebpf4jnsgd1na2vs0mg"},{"bike_id":"719075ca-0fc5-46e5-a7a9-99e73984d012","system_id":"levelo_inurba_marseille","lat":43.33517,"lon":5.37489,"is_reserved":false,"is_disabled":false,"rental_uris":{"android":"levelo://app?vid=719075ca-0fc5-46e5-a7a9-99e73984d012","ios":"levelo://app?vid=719075ca-0fc5-46e5-a7a9-99e73984d012"},"vehicle_type_id":"4","last_reported":1769584648,"current_range_meters":3600,"station_id":"","pricing_plan_id":"cebpf4jnsgd1na2vs0mg"},{"bike_id":"9d3e3713-b1f5-4f31-b786-ecd7f8f5227c","system_id":"levelo_inurba_marseille","lat":43.286095,"lon":5.370628,"is_reserved":false,"is_disabled":false,"rental_uris":{"android":"levelo://app?vid=9d3e3713-b1f5-4f31-b786-ecd7f8f5227c","ios":"levelo://app?vid=9d3e3713-b1f5-4f31-b786-ecd7f8f5227c"},"vehicle_type_id":"4","last_reported":1769584648,"current_range_meters":3600,"station_id":"ce4bht12rcd13ifvqi60","pricing_plan_id":"cebpf4jnsgd1na2vs0mg"},{"bike_id":"aef48c2d-4e9e-44fa-b69a-17199407ac19","system_id":"levelo_inurba_marseille","lat":43.28484,"lon":5.48394,"is_reserved":false,"is_disabled":false,"rental_uris":{"android":"levelo://app?vid=aef48c2d-4e9e-44fa-b69a-17199407ac19","ios":"levelo://app?vid=aef48c2d-4e9e-44fa-b69a-17199407ac19"},"vehicle_type_id":"4","last_reported":1769584648,"current_range_meters":3600,"station_id":"st_d3svhcjqgbts73a3dn0g","pricing_plan_id":"cebpf4jnsgd1na2vs0mg"},{"bike_id":"4d891c58-f813-4fc8-87d6-9e518aec06e8","system_id":"levelo_inurba_marseille","lat":43.22922,"lon":5.3538,"is_reserved":false,"is_disabled":false,"rental_uris":{"android":"levelo://app?vid=4d891c58-f813-4fc8-87d6-9e518aec06e8","ios":"levelo://app?vid=4d891c58-f813-4fc8-87d6-9e518aec06e8"},"vehicle_type_id":"4","last_reported":1769584648,"current_range_meters":4000,"station_id":"cpo3532slgdg3j2ikp40","pricing_plan_id":"cebpf4jnsgd1na2vs0mg"},{"bike_id":"94db9fa0-8282-482b-aead-c8d846fa7a5c","system_id":"levelo_inurba_marseille","lat":43.29277,"lon":5.40123,"is_reserved":false,"is_disabled":false,"rental_uris":{"android":"levelo://app?vid=94db9fa0-8282-482b-aead-c8d846fa7a5c","ios":"levelo://app?vid=94db9fa0-8282-482b-aead-c8d846fa7a5c"},"vehicle_type_id":"4","last_reported":1769584648,"current_range_meters":4000,"station_id":"ce4bh312rcd13ifvqdk0","pricing_plan_id":"cebpf4jnsgd1na2vs0mg"},{"bike_id":"a4197ac1-f17c-4dde-8532-d7c6e6881287","system_id":"levelo_inurba_marseille","lat":43.23187,"lon":5.35562,"is_reserved":false,"is_disabled":false,"rental_uris":{"android":"levelo://app?vid=a4197ac1-f17c-4dde-8532-d7c6e6881287","ios":"levelo://app?vid=a4197ac1-f17c-4dde-8532-d7c6e6881287"},"vehicle_type_id":"4","last_reported":1769584648,"current_range_meters":4000,"station_id":"ce4bhu92rcd13ifvqi70","pricing_plan_id":"cebpf4jnsgd1na2vs0mg"},{"bike_id":"56ff693f-8f60-40c3-8693-8a135efa1062","system_id":"levelo_inurba_marseille","lat":43.27057,"lon":5.40261,"is_reserved":false,"is_disabled":false,"rental_uris":{"android":"levelo://app?vid=56ff693f-8f60-40c3-8693-8a135efa1062","ios":"levelo://app?vid=56ff693f-8f60-40c3-8693-8a135efa1062"},"vehicle_type_id":"4","last_reported":1769584648,"current_range_meters":4000,"station_id":"ce4bhk92rcd13ifvqgc0","pricing_plan_id":"cebpf4jnsgd1na2vs0mg"},{"bike_id":"7538a865-1dd9-4a97-95e0-6d30a52209b6","system_id":"levelo_inurba_marseille","lat":43.24625,"lon":5.43175,"is_reserved":false,"is_disabled":false,"rental_uris":{"android":"levelo://app?vid=7538a865-1dd9-4a97-95e0-6d30a52209b6","ios":"levelo://app?vid=7538a865-1dd9-4a97-95e0-6d30a52209b6"},"vehicle_type_id":"4","last_reported":1769584648,"current_range_meters":4000,"station_id":"st_d2m6c4gdas8pm72e190g","pricing_plan_id":"cebpf4jnsgd1na2vs0mg"},{"bike_id":"096a1852-fb1d-4408-9731-e62773f23bdc","system_id":"levelo_inurba_marseille","lat":43.2894,"lon":5.39633,"is_reserved":false,"is_disabled":false,"rental_uris":{"android":"levelo://app?vid=096a1852-fb1d-4408-9731-e62773f23bdc","ios":"levelo://app?vid=096a1852-fb1d-4408-9731-e62773f23bdc"},"vehicle_type_id":"4","last_reported":1769584648,"current_range_meters":4000,"station_id":"ce4bh3h2rcd13ifvqdn0","pricing_plan_id":"cebpf4jnsgd1na2vs0mg"},{"bike_id":"99dae5f1-83c9-4208-a53a-2a2a21e9a1a8","system_id":"levelo_inurba_marseille","lat":43.30662,"lon":5.40083,"is_reserved":false,"is_disabled":false,"rental_uris":{"android":"levelo://app?vid=99dae5f1-83c9-4208-a53a-2a2a21e9a1a8","ios":"levelo://app?vid=99dae5f1-83c9-4208-a53a-2a2a21e9a1a8"},"vehicle_type_id":"4","last_reported":1769584648,"current_range_meters":4000,"station_id":"ce4bh112rcd13ifvqda0","pricing_plan_id":"cebpf4jnsgd1na2vs0mg"},{"bike_id":"210d34b3-637d-4a3a-93be-c748d1fe37e1","system_id":"levelo_inurba_marseille","lat":43.24629,"lon":5.43153,"is_reserved":false,"is_disabled":false,"rental_uris":{"android":"levelo://app?vid=210d34b3-637d-4a3a-93be-c748d1fe37e1","ios":"levelo://app?vid=210d34b3-637d-4a3a-93be-c748d1fe37e1"},"vehicle_type_id":"4","last_reported":1769584648,"current_range_meters":4000,"station_id":"st_d2m6c4gdas8pm72e190g","pricing_plan_id":"cebpf4jnsgd1na2vs0mg"},{"bike_id":"36f7c41f-78fc-4f53-8c20-a0d2a7d86399","system_id":"levelo_inurba_marseille","lat":43.31271,"lon":5.40196,"is_reserved":false,"is_disabled":false,"rental_uris":{"android":"levelo://app?vid=36f7c41f-78fc-4f53-8c20-a0d2a7d86399","ios":"levelo://app?vid=36f7c41f-78fc-4f53-8c20-a0d2a7d86399"},"vehicle_type_id":"4","last_reported":1769584648,"current_range_meters":4400,"station_id":"ce4bh092rcd13ifvqd30","pricing_plan_id":"cebpf4jnsgd1na2vs0mg"},{"bike_id":"b1c835b9-d1b0-4420-b1bf-6cfd071e73dc","system_id":"levelo_inurba_marseille","lat":43.248048,"lon":5.374453,"is_reserved":false,"is_disabled":false,"rental_uris":{"android":"levelo://app?vid=b1c835b9-d1b0-4420-b1bf-6cfd071e73dc","ios":"levelo://app?vid=b1c835b9-d1b0-4420-b1bf-6cfd071e73dc"},"vehicle_type_id":"4","last_reported":1769584648,"current_range_meters":4400,"station_id":"ce4bhgh2rcd13ifvqfb0","pricing_plan_id":"cebpf4jnsgd1na2vs0mg"},{"bike_id":"13572e35-2aa0-4de4-8fc0-3a452362e536","system_id":"levelo_inurba_marseille","lat":43.28603,"lon":5.3511,"is_reserved":false,"is_disabled":false,"rental_uris":{"android":"levelo://app?vid=13572e35-2aa0-4de4-8fc0-3a452362e536","ios":"levelo://app?vid=13572e35-2aa0-4de4-8fc0-3a452362e536"},"vehicle_type_id":"4","last_reported":1769584648,"current_range_meters":4400,"station_id":"ce4bhch2rcd13ifvqeug","pricing_plan_id":"cebpf4jnsgd1na2vs0mg"},{"bike_id":"e01e12df-208f-43ee-99bf-5376acaa42bf","system_id":"levelo_inurba_marseille","lat":43.28869,"lon":5.42511,"is_reserved":false,"is_disabled":false,"rental_uris":{"android":"levelo://app?vid=e01e12df-208f-43ee-99bf-5376acaa42bf","ios":"levelo://app?vid=e01e12df-208f-43ee-99bf-5376acaa42bf"},"vehicle_type_id":"4","last_reported":1769584648,"current_range_meters":4400,"station_id":"st_d3b462108ojc7389ooeg","pricing_plan_id":"cebpf4jnsgd1na2vs0mg"},{"bike_id":"9bcda961-27cd-4075-b93d-da48aacaa36e","system_id":"levelo_inurba_marseille","lat":43.26686,"lon":5.38274,"is_reserved":false,"is_disabled":false,"rental_uris":{"android":"levelo://app?vid=9bcda961-27cd-4075-b93d-da48aacaa36e","ios":"levelo://app?vid=9bcda961-27cd-4075-b93d-da48aacaa36e"},"vehicle_type_id":"4","last_reported":1769584648,"current_range_meters":4400,"station_id":"ce4bhg92rcd13ifvqf90","pricing_plan_id":"cebpf4jnsgd1na2vs0mg"},{"bike_id":"b1d411da-d9de-417f-9943-4d5aa9df36ed","system_id":"levelo_inurba_marseille","lat":43.29583,"lon":5.39272,"is_reserved":false,"is_disabled":false,"rental_uris":{"android":"levelo://app?vid=b1d411da-d9de-417f-9943-4d5aa9df36ed","ios":"levelo://app?vid=b1d411da-d9de-417f-9943-4d5aa9df36ed"},"vehicle_type_id":"4","last_reported":1769584648,"current_range_meters":4400,"station_id":"","pricing_plan_id":"cebpf4jnsgd1na2vs0mg"},{"bike_id":"5b1328e1-725c-435f-9cc2-db91a5108ba5","system_id":"levelo_inurba_marseille","lat":43.25004,"lon":5.38972,"is_reserved":false,"is_disabled":false,"rental_uris":{"android":"levelo://app?vid=5b1328e1-725c-435f-9cc2-db91a5108ba5","ios":"levelo://app?vid=5b1328e1-725c-435f-9cc2-db91a5108ba5"},"vehicle_type_id":"4","last_reported":1769584648,"current_range_meters":4400,"station_id":"ce4bhgp2rcd13ifvqfd0","pricing_plan_id":"cebpf4jnsgd1na2vs0mg"},{"bike_id":"e25bebe5-a155-4b39-977a-f9a7df78d040","system_id":"levelo_inurba_marseille","lat":43.27993,"lon":5.40005,"is_reserved":false,"is_disabled":false,"rental_uris":{"android":"levelo://app?vid=e25bebe5-a155-4b39-977a-f9a7df78d040","ios":"levelo://app?vid=e25bebe5-a155-4b39-977a-f9a7df78d040"},"vehicle_type_id":"4","last_reported":1769584648,"current_range_meters":4800,"station_id":"ce4bho92rcd13ifvqh4g","pricing_plan_id":"cebpf4jnsgd1na2vs0mg"},{"bike_id":"9381fd80-ecdc-4343-8355-1f4e601fa674","system_id":"levelo_inurba_marseille","lat":43.31361,"lon":5.38502,"is_reserved":false,"is_disabled":false,"rental_uris":{"android":"levelo://app?vid=9381fd80-ecdc-4343-8355-1f4e601fa674","ios":"levelo://app?vid=9381fd80-ecdc-4343-8355-1f4e601fa674"},"vehicle_type_id":"4","last_reported":1769584648,"current_range_meters":4800,"station_id":"ce4bgt92rcd13ifvqcf0","pricing_plan_id":"cebpf4jnsgd1na2vs0mg"},{"bike_id":"9dfe4fba-9e48-4cb0-bd24-cda4cd328a21","system_id":"levelo_inurba_marseille","lat":43.27949,"lon":5.38696,"is_reserved":false,"is_disabled":false,"rental_uris":{"android":"levelo://app?vid=9dfe4fba-9e48-4cb0-bd24-cda4cd328a21","ios":"levelo://app?vid=9dfe4fba-9e48-4cb0-bd24-cda4cd328a21"},"vehicle_type_id":"4","last_reported":1769584648,"current_range_meters":4800,"station_id":"ce4bhg12rcd13ifvqf80","pricing_plan_id":"cebpf4jnsgd1na2vs0mg"},{"bike_id":"5bfdb40e-6240-426b-8a1f-e18063270894","system_id":"levelo_inurba_marseille","lat":43.27054,"lon":5.40262,"is_reserved":false,"is_disabled":false,"rental_uris":{"android":"levelo://app?vid=5bfdb40e-6240-426b-8a1f-e18063270894","ios":"levelo://app?vid=5bfdb40e-6240-426b-8a1f-e18063270894"},"vehicle_type_id":"4","last_reported":1769584648,"current_range_meters":4800,"station_id":"ce4bhk92rcd13ifvqgc0","pricing_plan_id":"cebpf4jnsgd1na2vs0mg"},{"bike_id":"61880ac2-f997-4832-8d0d-3d1f8617cb44","system_id":"levelo_inurba_marseille","lat":43.244635,"lon":5.425306,"is_reserved":false,"is_disabled":false,"rental_uris":{"android":"levelo://app?vid=61880ac2-f997-4832-8d0d-3d1f8617cb44","ios":"levelo://app?vid=61880ac2-f997-4832-8d0d-3d1f8617cb44"},"vehicle_type_id":"4","last_reported":1769584648,"current_range_meters":4800,"station_id":"st_d4a3vfp97mjs738cd8kg","pricing_plan_id":"cebpf4jnsgd1na2vs0mg"},{"bike_id":"51f12955-85fa-488e-a5a3-3568ec645218","system_id":"levelo_inurba_marseille","lat":43.23146,"lon":5.43728,"is_reserved":false,"is_disabled":false,"rental_uris":{"android":"levelo://app?vid=51f12955-85fa-488e-a5a3-3568ec645218","ios":"levelo://app?vid=51f12955-85fa-488e-a5a3-3568ec645218"},"vehicle_type_id":"4","last_reported":1769584648,"current_range_meters":4800,"station_id":"ce4bhmp2rcd13ifvqgog","pricing_plan_id":"cebpf4jnsgd1na2vs0mg"},{"bike_id":"2aa6b353-d73a-4541-8855-3d2656382d33","system_id":"levelo_inurba_marseille","lat":43.25938,"lon":5.40901,"is_reserved":false,"is_disabled":false,"rental_uris":{"android":"levelo://app?vid=2aa6b353-d73a-4541-8855-3d2656382d33","ios":"levelo://app?vid=2aa6b353-d73a-4541-8855-3d2656382d33"},"vehicle_type_id":"4","last_reported":1769584648,"current_range_meters":4800,"station_id":"ce4bhm92rcd13ifvqglg","pricing_plan_id":"cebpf4jnsgd1na2vs0mg"},{"bike_id":"9c9de364-ff0d-43b3-9427-12b2b9e24fb6","system_id":"levelo_inurba_marseille","lat":43.258239,"lon":5.39438,"is_reserved":false,"is_disabled":false,"rental_uris":{"android":"levelo://app?vid=9c9de364-ff0d-43b3-9427-12b2b9e24fb6","ios":"levelo://app?vid=9c9de364-ff0d-43b3-9427-12b2b9e24fb6"},"vehicle_type_id":"4","last_reported":1769584648,"current_range_meters":4800,"station_id":"ce4bhip2rcd13ifvqft0","pricing_plan_id":"cebpf4jnsgd1na2vs0mg"},{"bike_id":"4854dc84-dcec-4dbc-9c00-a6f61a1c1439","system_id":"levelo_inurba_marseille","lat":43.29941,"lon":5.36509,"is_reserved":false,"is_disabled":false,"rental_uris":{"android":"levelo://app?vid=4854dc84-dcec-4dbc-9c00-a6f61a1c1439","ios":"levelo://app?vid=4854dc84-dcec-4dbc-9c00-a6f61a1c1439"},"vehicle_type_id":"4","last_reported":1769584648,"current_range_meters":5600,"station_id":"ce4bgm92rcd13ifvqbr0","pricing_plan_id":"cebpf4jnsgd1na2vs0mg"},{"bike_id":"13412fd6-fcc8-4592-8f33-a77ca55d2b61","system_id":"levelo_inurba_marseille","lat":43.31072,"lon":5.38736,"is_reserved":false,"is_disabled":false,"rental_uris":{"android":"levelo://app?vid=13412fd6-fcc8-4592-8f33-a77ca55d2b61","ios":"levelo://app?vid=13412fd6-fcc8-4592-8f33-a77ca55d2b61"},"vehicle_type_id":"4","last_reported":1769584648,"current_range_meters":5600,"station_id":"","pricing_plan_id":"cebpf4jnsgd1na2vs0mg"},{"bike_id":"51b8f39f-e87e-4327-a9b7-dad481cf0cba","system_id":"levelo_inurba_marseille","lat":43.23778,"lon":5.36633,"is_reserved":false,"is_disabled":false,"rental_uris":{"android":"levelo://app?vid=51b8f39f-e87e-4327-a9b7-dad481cf0cba","ios":"levelo://app?vid=51b8f39f-e87e-4327-a9b7-dad481cf0cba"},"vehicle_type_id":"4","last_reported":1769584648,"current_range_meters":5600,"station_id":"st_d3nk18o9ro0c73en2l3g","pricing_plan_id":"cebpf4jnsgd1na2vs0mg"},{"bike_id":"747f4c47-aefe-4b01-b365-5dc585c0a65f","system_id":"levelo_inurba_marseille","lat":43.26563,"lon":5.40331,"is_reserved":false,"is_disabled":false,"rental_uris":{"android":"levelo://app?vid=747f4c47-aefe-4b01-b365-5dc585c0a65f","ios":"levelo://app?vid=747f4c47-aefe-4b01-b365-5dc585c0a65f"},"vehicle_type_id":"4","last_reported":1769584648,"current_range_meters":5600,"station_id":"ce4bhmp2rcd13ifvqgng","pricing_plan_id":"cebpf4jnsgd1na2vs0mg"},{"bike_id":"e3468abb-1201-4a3f-8e5a-44c212800d22","system_id":"levelo_inurba_marseille","lat":43.2929,"lon":5.36862,"is_reserved":false,"is_disabled":false,"rental_uris":{"android":"levelo://app?vid=e3468abb-1201-4a3f-8e5a-44c212800d22","ios":"levelo://app?vid=e3468abb-1201-4a3f-8e5a-44c212800d22"},"vehicle_type_id":"4","last_reported":1769584648,"current_range_meters":5600,"station_id":"ce4bhbp2rcd13ifvqesg","pricing_plan_id":"cebpf4jnsgd1na2vs0mg"},{"bike_id":"11befed1-a92b-4a9f-975e-e6b2233bc5ee","system_id":"levelo_inurba_marseille","lat":43.2562,"lon":5.41958,"is_reserved":false,"is_disabled":false,"rental_uris":{"android":"levelo://app?vid=11befed1-a92b-4a9f-975e-e6b2233bc5ee","ios":"levelo://app?vid=11befed1-a92b-4a9f-975e-e6b2233bc5ee"},"vehicle_type_id":"4","last_reported":1769584648,"current_range_meters":5600,"station_id":"","pricing_plan_id":"cebpf4jnsgd1na2vs0mg"},{"bike_id":"175e5f71-fbb3-4254-8434-f47a57e9bda6","system_id":"levelo_inurba_marseille","lat":43.23149,"lon":5.43724,"is_reserved":false,"is_disabled":false,"rental_uris":{"android":"levelo://app?vid=175e5f71-fbb3-4254-8434-f47a57e9bda6","ios":"levelo://app?vid=175e5f71-fbb3-4254-8434-f47a57e9bda6"},"vehicle_type_id":"4","last_reported":1769584648,"current_range_meters":5600,"station_id":"ce4bhmp2rcd13ifvqgog","pricing_plan_id":"cebpf4jnsgd1na2vs0mg"},{"bike_id":"8daea874-6378-4664-a8a0-600241f931cc","system_id":"levelo_inurba_marseille","lat":43.23796,"lon":5.36669,"is_reserved":false,"is_disabled":false,"rental_uris":{"android":"levelo://app?vid=8daea874-6378-4664-a8a0-600241f931cc","ios":"levelo://app?vid=8daea874-6378-4664-a8a0-600241f931cc"},"vehicle_type_id":"4","last_reported":1769584648,"current_range_meters":5600,"station_id":"st_d3nk18o9ro0c73en2l3g","pricing_plan_id":"cebpf4jnsgd1na2vs0mg"},{"bike_id":"a5ef2b0b-b618-43d1-9c04-75419de035cf","system_id":"levelo_inurba_marseille","lat":43.33157,"lon":5.37689,"is_reserved":false,"is_disabled":false,"rental_uris":{"android":"levelo://app?vid=a5ef2b0b-b618-43d1-9c04-75419de035cf","ios":"levelo://app?vid=a5ef2b0b-b618-43d1-9c04-75419de035cf"},"vehicle_type_id":"4","last_reported":1769584648,"current_range_meters":5600,"station_id":"st_d46cu089ee8s73dldbu0","pricing_plan_id":"cebpf4jnsgd1na2vs0mg"},{"bike_id":"cde15862-5903-40cf-85c7-0239a05d7958","system_id":"levelo_inurba_marseille","lat":43.302117,"lon":5.394655,"is_reserved":false,"is_disabled":false,"rental_uris":{"android":"levelo://app?vid=cde15862-5903-40cf-85c7-0239a05d7958","ios":"levelo://app?vid=cde15862-5903-40cf-85c7-0239a05d7958"},"vehicle_type_id":"4","last_reported":1769584648,"current_range_meters":5600,"station_id":"ce4bh0p2rcd13ifvqd70","pricing_plan_id":"cebpf4jnsgd1na2vs0mg"},{"bike_id":"4b3417a6-1f1f-4163-87a9-5c0d16767f2a","system_id":"levelo_inurba_marseille","lat":43.284798,"lon":5.483928,"is_reserved":false,"is_disabled":false,"rental_uris":{"android":"levelo://app?vid=4b3417a6-1f1f-4163-87a9-5c0d16767f2a","ios":"levelo://app?vid=4b3417a6-1f1f-4163-87a9-5c0d16767f2a"},"vehicle_type_id":"4","last_reported":1769584648,"current_range_meters":5600,"station_id":"st_d3svhcjqgbts73a3dn0g","pricing_plan_id":"cebpf4jnsgd1na2vs0mg"},{"bike_id":"681ce965-8852-47c7-848e-dc11cce7b7a3","system_id":"levelo_inurba_marseille","lat":43.28412,"lon":5.37542,"is_reserved":false,"is_disabled":false,"rental_uris":{"android":"levelo://app?vid=681ce965-8852-47c7-848e-dc11cce7b7a3","ios":"levelo://app?vid=681ce965-8852-47c7-848e-dc11cce7b7a3"},"vehicle_type_id":"4","last_reported":1769584648,"current_range_meters":5600,"station_id":"ce4bh412rcd13ifvqds0","pricing_plan_id":"cebpf4jnsgd1na2vs0mg"},{"bike_id":"78aa4272-c4e4-4137-8530-4c40847f1cd9","system_id":"levelo_inurba_marseille","lat":43.30518,"lon":5.36708,"is_reserved":false,"is_disabled":false,"rental_uris":{"android":"levelo://app?vid=78aa4272-c4e4-4137-8530-4c40847f1cd9","ios":"levelo://app?vid=78aa4272-c4e4-4137-8530-4c40847f1cd9"},"vehicle_type_id":"4","last_reported":1769584648,"current_range_meters":5600,"station_id":"ce4bgrp2rcd13ifvqc9g","pricing_plan_id":"cebpf4jnsgd1na2vs0mg"},{"bike_id":"db91af1c-8610-46d2-8811-cba210a8ff4f","system_id":"levelo_inurba_marseille","lat":43.33289,"lon":5.37962,"is_reserved":false,"is_disabled":false,"rental_uris":{"android":"levelo://app?vid=db91af1c-8610-46d2-8811-cba210a8ff4f","ios":"levelo://app?vid=db91af1c-8610-46d2-8811-cba210a8ff4f"},"vehicle_type_id":"4","last_reported":1769584648,"current_range_meters":5600,"station_id":"","pricing_plan_id":"cebpf4jnsgd1na2vs0mg"},{"bike_id":"caf214c6-f51e-422f-a150-65a2d01f29fe","system_id":"levelo_inurba_marseille","lat":43.33273,"lon":5.36608,"is_reserved":false,"is_disabled":false,"rental_uris":{"android":"levelo://app?vid=caf214c6-f51e-422f-a150-65a2d01f29fe","ios":"levelo://app?vid=caf214c6-f51e-422f-a150-65a2d01f29fe"},"vehicle_type_id":"4","last_reported":1769584648,"current_range_meters":5600,"station_id":"","pricing_plan_id":"cebpf4jnsgd1na2vs0mg"},{"bike_id":"b244fee1-5adf-4ca2-81e4-cb11581286dd","system_id":"levelo_inurba_marseille","lat":43.29605,"lon":5.37764,"is_reserved":false,"is_disabled":false,"rental_uris":{"android":"levelo://app?vid=b244fee1-5adf-4ca2-81e4-cb11581286dd","ios":"levelo://app?vid=b244fee1-5adf-4ca2-81e4-cb11581286dd"},"vehicle_type_id":"4","last_reported":1769584648,"current_range_meters":6000,"station_id":"ce4bgi92rcd13ifvqb90","pricing_plan_id":"cebpf4jnsgd1na2vs0mg"},{"bike_id":"8a225959-9028-4e8e-bb41-43f7382c386a","system_id":"levelo_inurba_marseille","lat":43.25431,"lon":5.39588,"is_reserved":false,"is_disabled":false,"rental_uris":{"android":"levelo://app?vid=8a225959-9028-4e8e-bb41-43f7382c386a","ios":"levelo://app?vid=8a225959-9028-4e8e-bb41-43f7382c386a"},"vehicle_type_id":"4","last_reported":1769584648,"current_range_meters":6000,"station_id":"","pricing_plan_id":"cebpf4jnsgd1na2vs0mg"},{"bike_id":"730f088c-00d8-4b8f-a391-1a0afdcd34ad","system_id":"levelo_inurba_marseille","lat":43.259368,"lon":5.409046,"is_reserved":false,"is_disabled":false,"rental_uris":{"android":"levelo://app?vid=730f088c-00d8-4b8f-a391-1a0afdcd34ad","ios":"levelo://app?vid=730f088c-00d8-4b8f-a391-1a0afdcd34ad"},"vehicle_type_id":"4","last_reported":1769584648,"current_range_meters":6000,"station_id":"ce4bhm92rcd13ifvqglg","pricing_plan_id":"cebpf4jnsgd1na2vs0mg"},{"bike_id":"eeec3323-1eab-4171-a774-187bc3a536e5","system_id":"levelo_inurba_marseille","lat":43.299456,"lon":5.365281,"is_reserved":false,"is_disabled":false,"rental_uris":{"android":"levelo://app?vid=eeec3323-1eab-4171-a774-187bc3a536e5","ios":"levelo://app?vid=eeec3323-1eab-4171-a774-187bc3a536e5"},"vehicle_type_id":"4","last_reported":1769584648,"current_range_meters":6000,"station_id":"ce4bgm92rcd13ifvqbr0","pricing_plan_id":"cebpf4jnsgd1na2vs0mg"},{"bike_id":"773a0794-9608-48d0-ac87-744f6b7bca0d","system_id":"levelo_inurba_marseille","lat":43.22561,"lon":5.41639,"is_reserved":false,"is_disabled":false,"rental_uris":{"android":"levelo://app?vid=773a0794-9608-48d0-ac87-744f6b7bca0d","ios":"levelo://app?vid=773a0794-9608-48d0-ac87-744f6b7bca0d"},"vehicle_type_id":"4","last_reported":1769584648,"current_range_meters":6000,"station_id":"st_d2o4gvlbi1j2169b742g","pricing_plan_id":"cebpf4jnsgd1na2vs0mg"},{"bike_id":"0c714c3c-98dd-4b90-9807-b9ebe105cd7e","system_id":"levelo_inurba_marseille","lat":43.27568,"lon":5.3843,"is_reserved":false,"is_disabled":false,"rental_uris":{"android":"levelo://app?vid=0c714c3c-98dd-4b90-9807-b9ebe105cd7e","ios":"levelo://app?vid=0c714c3c-98dd-4b90-9807-b9ebe105cd7e"},"vehicle_type_id":"4","last_reported":1769584648,"current_range_meters":6000,"station_id":"ce4bhh92rcd13ifvqfi0","pricing_plan_id":"cebpf4jnsgd1na2vs0mg"},{"bike_id":"38939492-5112-461d-8788-f383260a8286","system_id":"levelo_inurba_marseille","lat":43.3316,"lon":5.37688,"is_reserved":false,"is_disabled":false,"rental_uris":{"android":"levelo://app?vid=38939492-5112-461d-8788-f383260a8286","ios":"levelo://app?vid=38939492-5112-461d-8788-f383260a8286"},"vehicle_type_id":"4","last_reported":1769584648,"current_range_meters":6000,"station_id":"st_d46cu089ee8s73dldbu0","pricing_plan_id":"cebpf4jnsgd1na2vs0mg"},{"bike_id":"21ba2119-db74-43aa-b8cc-a48471daa57f","system_id":"levelo_inurba_marseille","lat":43.2606,"lon":5.39382,"is_reserved":false,"is_disabled":false,"rental_uris":{"android":"levelo://app?vid=21ba2119-db74-43aa-b8cc-a48471daa57f","ios":"levelo://app?vid=21ba2119-db74-43aa-b8cc-a48471daa57f"},"vehicle_type_id":"4","last_reported":1769584648,"current_range_meters":6000,"station_id":"ce4bhh92rcd13ifvqfj0","pricing_plan_id":"cebpf4jnsgd1na2vs0mg"},{"bike_id":"05e80049-710b-4474-a49b-13f4c34a335e","system_id":"levelo_inurba_marseille","lat":43.23151,"lon":5.43726,"is_reserved":false,"is_disabled":false,"rental_uris":{"android":"levelo://app?vid=05e80049-710b-4474-a49b-13f4c34a335e","ios":"levelo://app?vid=05e80049-710b-4474-a49b-13f4c34a335e"},"vehicle_type_id":"4","last_reported":1769584648,"current_range_meters":6000,"station_id":"ce4bhmp2rcd13ifvqgog","pricing_plan_id":"cebpf4jnsgd1na2vs0mg"},{"bike_id":"ec6cd7cd-b5d0-46e7-a3c8-0526c2ec4592","system_id":"levelo_inurba_marseille","lat":43.28441,"lon":5.34995,"is_reserved":false,"is_disabled":false,"rental_uris":{"android":"levelo://app?vid=ec6cd7cd-b5d0-46e7-a3c8-0526c2ec4592","ios":"levelo://app?vid=ec6cd7cd-b5d0-46e7-a3c8-0526c2ec4592"},"vehicle_type_id":"4","last_reported":1769584648,"current_range_meters":6000,"station_id":"ce4bhbh2rcd13ifvqepg","pricing_plan_id":"cebpf4jnsgd1na2vs0mg"},{"bike_id":"5629f77c-efd7-418d-a053-3ace41b8a029","system_id":"levelo_inurba_marseille","lat":43.28255,"lon":5.35077,"is_reserved":false,"is_disabled":false,"rental_uris":{"android":"levelo://app?vid=5629f77c-efd7-418d-a053-3ace41b8a029","ios":"levelo://app?vid=5629f77c-efd7-418d-a053-3ace41b8a029"},"vehicle_type_id":"4","last_reported":1769584648,"current_range_meters":6000,"station_id":"ce4bhbp2rcd13ifvqerg","pricing_plan_id":"cebpf4jnsgd1na2vs0mg"},{"bike_id":"0e3e56a8-c028-4a2f-88ed-6334be577f88","system_id":"levelo_inurba_marseille","lat":43.23144,"lon":5.43743,"is_reserved":false,"is_disabled":false,"rental_uris":{"android":"levelo://app?vid=0e3e56a8-c028-4a2f-88ed-6334be577f88","ios":"levelo://app?vid=0e3e56a8-c028-4a2f-88ed-6334be577f88"},"vehicle_type_id":"4","last_reported":1769584648,"current_range_meters":6000,"station_id":"ce4bhmp2rcd13ifvqgog","pricing_plan_id":"cebpf4jnsgd1na2vs0mg"},{"bike_id":"a9c793a9-5d97-4324-bdcb-d5a005f7a8f7","system_id":"levelo_inurba_marseille","lat":43.309492,"lon":5.390417,"is_reserved":false,"is_disabled":true,"rental_uris":{"android":"levelo://app?vid=a9c793a9-5d97-4324-bdcb-d5a005f7a8f7","ios":"levelo://app?vid=a9c793a9-5d97-4324-bdcb-d5a005f7a8f7"},"vehicle_type_id":"4","last_reported":1769584648,"current_range_meters":6000,"station_id":"ce4bgup2rcd13ifvqco0","pricing_plan_id":"cebpf4jnsgd1na2vs0mg"},{"bike_id":"2ca6fe91-be90-4997-84ae-2ea75d00b036","system_id":"levelo_inurba_marseille","lat":43.30632,"lon":5.43143,"is_reserved":false,"is_disabled":false,"rental_uris":{"android":"levelo://app?vid=2ca6fe91-be90-4997-84ae-2ea75d00b036","ios":"levelo://app?vid=2ca6fe91-be90-4997-84ae-2ea75d00b036"},"vehicle_type_id":"4","last_reported":1769584648,"current_range_meters":6000,"station_id":"","pricing_plan_id":"cebpf4jnsgd1na2vs0mg"},{"bike_id":"5c2c9c64-631b-4f4c-9cde-05f2c810e22d","system_id":"levelo_inurba_marseille","lat":43.249497,"lon":5.404839,"is_reserved":false,"is_disabled":false,"rental_uris":{"android":"levelo://app?vid=5c2c9c64-631b-4f4c-9cde-05f2c810e22d","ios":"levelo://app?vid=5c2c9c64-631b-4f4c-9cde-05f2c810e22d"},"vehicle_type_id":"4","last_reported":1769584648,"current_range_meters":6000,"station_id":"st_d2ngiaodas8pm72gd1h0","pricing_plan_id":"cebpf4jnsgd1na2vs0mg"},{"bike_id":"db310099-e410-46db-8f42-7b76b3ec64f2","system_id":"levelo_inurba_marseille","lat":43.25822,"lon":5.39436,"is_reserved":false,"is_disabled":false,"rental_uris":{"android":"levelo://app?vid=db310099-e410-46db-8f42-7b76b3ec64f2","ios":"levelo://app?vid=db310099-e410-46db-8f42-7b76b3ec64f2"},"vehicle_type_id":"4","last_reported":1769584648,"current_range_meters":6000,"station_id":"ce4bhip2rcd13ifvqft0","pricing_plan_id":"cebpf4jnsgd1na2vs0mg"},{"bike_id":"2e77998e-c517-4f35-8821-169fc0fea54e","system_id":"levelo_inurba_marseille","lat":43.23184,"lon":5.35546,"is_reserved":false,"is_disabled":false,"rental_uris":{"android":"levelo://app?vid=2e77998e-c517-4f35-8821-169fc0fea54e","ios":"levelo://app?vid=2e77998e-c517-4f35-8821-169fc0fea54e"},"vehicle_type_id":"4","last_reported":1769584648,"current_range_meters":6000,"station_id":"ce4bhu92rcd13ifvqi70","pricing_plan_id":"cebpf4jnsgd1na2vs0mg"},{"bike_id":"de9aa781-9c4f-4eff-9a2c-5d6291b57e78","system_id":"levelo_inurba_marseille","lat":43.2861,"lon":5.39875,"is_reserved":false,"is_disabled":false,"rental_uris":{"android":"levelo://app?vid=de9aa781-9c4f-4eff-9a2c-5d6291b57e78","ios":"levelo://app?vid=de9aa781-9c4f-4eff-9a2c-5d6291b57e78"},"vehicle_type_id":"4","last_reported":1769584648,"current_range_meters":6400,"station_id":"st_d4a7ka997mjs738ck50g","pricing_plan_id":"cebpf4jnsgd1na2vs0mg"},{"bike_id":"d2c4eb74-42b0-4647-9a1a-00c8b86dfe4c","system_id":"levelo_inurba_marseille","lat":43.25829,"lon":5.39442,"is_reserved":false,"is_disabled":false,"rental_uris":{"android":"levelo://app?vid=d2c4eb74-42b0-4647-9a1a-00c8b86dfe4c","ios":"levelo://app?vid=d2c4eb74-42b0-4647-9a1a-00c8b86dfe4c"},"vehicle_type_id":"4","last_reported":1769584648,"current_range_meters":6400,"station_id":"ce4bhip2rcd13ifvqft0","pricing_plan_id":"cebpf4jnsgd1na2vs0mg"},{"bike_id":"fcab2187-722c-47c3-bd9b-060a8b766a7c","system_id":"levelo_inurba_marseille","lat":43.24058,"lon":5.3774,"is_reserved":false,"is_disabled":true,"rental_uris":{"android":"levelo://app?vid=fcab2187-722c-47c3-bd9b-060a8b766a7c","ios":"levelo://app?vid=fcab2187-722c-47c3-bd9b-060a8b766a7c"},"vehicle_type_id":"4","last_reported":1769584648,"current_range_meters":6400,"station_id":"ce4bhnp2rcd13ifvqgvg","pricing_plan_id":"cebpf4jnsgd1na2vs0mg"},{"bike_id":"958b43fb-8c80-4692-977b-3f50e641a707","system_id":"levelo_inurba_marseille","lat":43.25933,"lon":5.40923,"is_reserved":false,"is_disabled":false,"rental_uris":{"android":"levelo://app?vid=958b43fb-8c80-4692-977b-3f50e641a707","ios":"levelo://app?vid=958b43fb-8c80-4692-977b-3f50e641a707"},"vehicle_type_id":"4","last_reported":1769584648,"current_range_meters":6400,"station_id":"ce4bhm92rcd13ifvqglg","pricing_plan_id":"cebpf4jnsgd1na2vs0mg"},{"bike_id":"d89cf35e-ea72-4be0-abab-d87970f6484a","system_id":"levelo_inurba_marseille","lat":43.30547,"lon":5.36531,"is_reserved":false,"is_disabled":false,"rental_uris":{"android":"levelo://app?vid=d89cf35e-ea72-4be0-abab-d87970f6484a","ios":"levelo://app?vid=d89cf35e-ea72-4be0-abab-d87970f6484a"},"vehicle_type_id":"4","last_reported":1769584648,"current_range_meters":6400,"station_id":"ce4bgs12rcd13ifvqcag","pricing_plan_id":"cebpf4jnsgd1na2vs0mg"},{"bike_id":"5ec5e39e-3ed1-40f6-847f-e3215d6e9aa5","system_id":"levelo_inurba_marseille","lat":43.28402,"lon":5.34992,"is_reserved":false,"is_disabled":false,"rental_uris":{"android":"levelo://app?vid=5ec5e39e-3ed1-40f6-847f-e3215d6e9aa5","ios":"levelo://app?vid=5ec5e39e-3ed1-40f6-847f-e3215d6e9aa5"},"vehicle_type_id":"4","last_reported":1769584648,"current_range_meters":6400,"station_id":"ce4bhbh2rcd13ifvqepg","pricing_plan_id":"cebpf4jnsgd1na2vs0mg"},{"bike_id":"82a6b099-0577-4798-9a60-21fb38c2bbb7","system_id":"levelo_inurba_marseille","lat":43.29798,"lon":5.44056,"is_reserved":false,"is_disabled":false,"rental_uris":{"android":"levelo://app?vid=82a6b099-0577-4798-9a60-21fb38c2bbb7","ios":"levelo://app?vid=82a6b099-0577-4798-9a60-21fb38c2bbb7"},"vehicle_type_id":"4","last_reported":1769584648,"current_range_meters":6800,"station_id":"st_d3jp68qikq2c7381ktn0","pricing_plan_id":"cebpf4jnsgd1na2vs0mg"},{"bike_id":"3f2aa41d-c383-46ab-8819-d330a3a97ead","system_id":"levelo_inurba_marseille","lat":43.24072,"lon":5.37762,"is_reserved":false,"is_disabled":false,"rental_uris":{"android":"levelo://app?vid=3f2aa41d-c383-46ab-8819-d330a3a97ead","ios":"levelo://app?vid=3f2aa41d-c383-46ab-8819-d330a3a97ead"},"vehicle_type_id":"4","last_reported":1769584648,"current_range_meters":6800,"station_id":"ce4bhnp2rcd13ifvqgvg","pricing_plan_id":"cebpf4jnsgd1na2vs0mg"},{"bike_id":"9d18fdf9-39ae-4327-b5b3-8e0012d45c5a","system_id":"levelo_inurba_marseille","lat":43.31516,"lon":5.38028,"is_reserved":false,"is_disabled":false,"rental_uris":{"android":"levelo://app?vid=9d18fdf9-39ae-4327-b5b3-8e0012d45c5a","ios":"levelo://app?vid=9d18fdf9-39ae-4327-b5b3-8e0012d45c5a"},"vehicle_type_id":"4","last_reported":1769584648,"current_range_meters":6800,"station_id":"ce4bhsp2rcd13ifvqi50","pricing_plan_id":"cebpf4jnsgd1na2vs0mg"},{"bike_id":"3bc5eb93-5e52-4f30-bca7-1c72bb708566","system_id":"levelo_inurba_marseille","lat":43.30853,"lon":5.37186,"is_reserved":false,"is_disabled":false,"rental_uris":{"android":"levelo://app?vid=3bc5eb93-5e52-4f30-bca7-1c72bb708566","ios":"levelo://app?vid=3bc5eb93-5e52-4f30-bca7-1c72bb708566"},"vehicle_type_id":"4","last_reported":1769584648,"current_range_meters":6800,"station_id":"","pricing_plan_id":"cebpf4jnsgd1na2vs0mg"},{"bike_id":"759670d0-c948-436b-b631-5d332f353659","system_id":"levelo_inurba_marseille","lat":43.30135,"lon":5.38081,"is_reserved":false,"is_disabled":false,"rental_uris":{"android":"levelo://app?vid=759670d0-c948-436b-b631-5d332f353659","ios":"levelo://app?vid=759670d0-c948-436b-b631-5d332f353659"},"vehicle_type_id":"4","last_reported":1769584648,"current_range_meters":6800,"station_id":"ce4bgjp2rcd13ifvqbh0","pricing_plan_id":"cebpf4jnsgd1na2vs0mg"},{"bike_id":"37898724-93a0-4c37-b4d2-86862ecb9561","system_id":"levelo_inurba_marseille","lat":43.24389,"lon":5.37074,"is_reserved":false,"is_disabled":false,"rental_uris":{"android":"levelo://app?vid=37898724-93a0-4c37-b4d2-86862ecb9561","ios":"levelo://app?vid=37898724-93a0-4c37-b4d2-86862ecb9561"},"vehicle_type_id":"4","last_reported":1769584648,"current_range_meters":6800,"station_id":"ce4bhhh2rcd13ifvqfk0","pricing_plan_id":"cebpf4jnsgd1na2vs0mg"},{"bike_id":"1ad2e393-a92c-4f9d-816f-005ca727b14e","system_id":"levelo_inurba_marseille","lat":43.23139,"lon":5.43726,"is_reserved":false,"is_disabled":false,"rental_uris":{"android":"levelo://app?vid=1ad2e393-a92c-4f9d-816f-005ca727b14e","ios":"levelo://app?vid=1ad2e393-a92c-4f9d-816f-005ca727b14e"},"vehicle_type_id":"4","last_reported":1769584648,"current_range_meters":6800,"station_id":"ce4bhmp2rcd13ifvqgog","pricing_plan_id":"cebpf4jnsgd1na2vs0mg"},{"bike_id":"0e2af928-1823-41b4-be10-9ab8609a9a2e","system_id":"levelo_inurba_marseille","lat":43.24162,"lon":5.36412,"is_reserved":false,"is_disabled":false,"rental_uris":{"android":"levelo://app?vid=0e2af928-1823-41b4-be10-9ab8609a9a2e","ios":"levelo://app?vid=0e2af928-1823-41b4-be10-9ab8609a9a2e"},"vehicle_type_id":"4","last_reported":1769584648,"current_range_meters":6800,"station_id":"cpo36qri1sfpv3e86is0","pricing_plan_id":"cebpf4jnsgd1na2vs0mg"},{"bike_id":"81fef906-e459-4704-b7bd-13ca2e6b9c5d","system_id":"levelo_inurba_marseille","lat":43.25578,"lon":5.38235,"is_reserved":false,"is_disabled":false,"rental_uris":{"android":"levelo://app?vid=81fef906-e459-4704-b7bd-13ca2e6b9c5d","ios":"levelo://app?vid=81fef906-e459-4704-b7bd-13ca2e6b9c5d"},"vehicle_type_id":"4","last_reported":1769584648,"current_range_meters":6800,"station_id":"ce4bhih2rcd13ifvqfs0","pricing_plan_id":"cebpf4jnsgd1na2vs0mg"},{"bike_id":"832ba7eb-1c35-43cb-be63-61f58639df63","system_id":"levelo_inurba_marseille","lat":43.32327,"lon":5.36756,"is_reserved":false,"is_disabled":false,"rental_uris":{"android":"levelo://app?vid=832ba7eb-1c35-43cb-be63-61f58639df63","ios":"levelo://app?vid=832ba7eb-1c35-43cb-be63-61f58639df63"},"vehicle_type_id":"4","last_reported":1769584648,"current_range_meters":6800,"station_id":"ce4bhsh2rcd13ifvqi2g","pricing_plan_id":"cebpf4jnsgd1na2vs0mg"},{"bike_id":"8de525a9-5bd3-43a9-9291-a02ed36bbc58","system_id":"levelo_inurba_marseille","lat":43.33162,"lon":5.37683,"is_reserved":false,"is_disabled":false,"rental_uris":{"android":"levelo://app?vid=8de525a9-5bd3-43a9-9291-a02ed36bbc58","ios":"levelo://app?vid=8de525a9-5bd3-43a9-9291-a02ed36bbc58"},"vehicle_type_id":"4","last_reported":1769584648,"current_range_meters":6800,"station_id":"st_d46cu089ee8s73dldbu0","pricing_plan_id":"cebpf4jnsgd1na2vs0mg"},{"bike_id":"a8f1b119-7c8f-4823-adf6-e1c0d9df05c4","system_id":"levelo_inurba_marseille","lat":43.30604,"lon":5.40083,"is_reserved":false,"is_disabled":false,"rental_uris":{"android":"levelo://app?vid=a8f1b119-7c8f-4823-adf6-e1c0d9df05c4","ios":"levelo://app?vid=a8f1b119-7c8f-4823-adf6-e1c0d9df05c4"},"vehicle_type_id":"4","last_reported":1769584648,"current_range_meters":6800,"station_id":"ce4bh112rcd13ifvqda0","pricing_plan_id":"cebpf4jnsgd1na2vs0mg"},{"bike_id":"55815b43-85cf-40ff-97dd-1477d8dcbf09","system_id":"levelo_inurba_marseille","lat":43.23144,"lon":5.43726,"is_reserved":false,"is_disabled":false,"rental_uris":{"android":"levelo://app?vid=55815b43-85cf-40ff-97dd-1477d8dcbf09","ios":"levelo://app?vid=55815b43-85cf-40ff-97dd-1477d8dcbf09"},"vehicle_type_id":"4","last_reported":1769584648,"current_range_meters":6800,"station_id":"ce4bhmp2rcd13ifvqgog","pricing_plan_id":"cebpf4jnsgd1na2vs0mg"},{"bike_id":"43cdc93d-f3f2-47d5-9737-990cb5438b9e","system_id":"levelo_inurba_marseille","lat":43.33152,"lon":5.3768,"is_reserved":false,"is_disabled":false,"rental_uris":{"android":"levelo://app?vid=43cdc93d-f3f2-47d5-9737-990cb5438b9e","ios":"levelo://app?vid=43cdc93d-f3f2-47d5-9737-990cb5438b9e"},"vehicle_type_id":"4","last_reported":1769584648,"current_range_meters":6800,"station_id":"st_d46cu089ee8s73dldbu0","pricing_plan_id":"cebpf4jnsgd1na2vs0mg"},{"bike_id":"5432d7a0-1700-4fbb-98da-e9587b56686e","system_id":"levelo_inurba_marseille","lat":43.27608,"lon":5.36128,"is_reserved":false,"is_disabled":false,"rental_uris":{"android":"levelo://app?vid=5432d7a0-1700-4fbb-98da-e9587b56686e","ios":"levelo://app?vid=5432d7a0-1700-4fbb-98da-e9587b56686e"},"vehicle_type_id":"4","last_reported":1769584648,"current_range_meters":7200,"station_id":"ce4bgj92rcd13ifvqbe0","pricing_plan_id":"cebpf4jnsgd1na2vs0mg"},{"bike_id":"2b025830-a75f-4dd0-9345-1f4a2853b8f8","system_id":"levelo_inurba_marseille","lat":43.32347,"lon":5.36695,"is_reserved":false,"is_disabled":false,"rental_uris":{"android":"levelo://app?vid=2b025830-a75f-4dd0-9345-1f4a2853b8f8","ios":"levelo://app?vid=2b025830-a75f-4dd0-9345-1f4a2853b8f8"},"vehicle_type_id":"4","last_reported":1769584648,"current_range_meters":7200,"station_id":"","pricing_plan_id":"cebpf4jnsgd1na2vs0mg"},{"bike_id":"70e6e4b1-7efc-43fa-b416-14145ad2c461","system_id":"levelo_inurba_marseille","lat":43.27816,"lon":5.40728,"is_reserved":false,"is_disabled":false,"rental_uris":{"android":"levelo://app?vid=70e6e4b1-7efc-43fa-b416-14145ad2c461","ios":"levelo://app?vid=70e6e4b1-7efc-43fa-b416-14145ad2c461"},"vehicle_type_id":"4","last_reported":1769584648,"current_range_meters":7200,"station_id":"ce4bhnh2rcd13ifvqgtg","pricing_plan_id":"cebpf4jnsgd1na2vs0mg"},{"bike_id":"701b1f82-872b-404a-b1b9-c04d698fc931","system_id":"levelo_inurba_marseille","lat":43.28996,"lon":5.35638,"is_reserved":false,"is_disabled":true,"rental_uris":{"android":"levelo://app?vid=701b1f82-872b-404a-b1b9-c04d698fc931","ios":"levelo://app?vid=701b1f82-872b-404a-b1b9-c04d698fc931"},"vehicle_type_id":"4","last_reported":1769584648,"current_range_meters":7200,"station_id":"ce4bhb92rcd13ifvqen0","pricing_plan_id":"cebpf4jnsgd1na2vs0mg"},{"bike_id":"83fc51a6-33d8-4514-8bb6-691df6dd60b4","system_id":"levelo_inurba_marseille","lat":43.301222,"lon":5.431056,"is_reserved":false,"is_disabled":false,"rental_uris":{"android":"levelo://app?vid=83fc51a6-33d8-4514-8bb6-691df6dd60b4","ios":"levelo://app?vid=83fc51a6-33d8-4514-8bb6-691df6dd60b4"},"vehicle_type_id":"4","last_reported":1769584648,"current_range_meters":7200,"station_id":"st_d3js3co5814s73ftftug","pricing_plan_id":"cebpf4jnsgd1na2vs0mg"},{"bike_id":"2a770b69-a29c-46f1-9c6e-486a3cde4ff9","system_id":"levelo_inurba_marseille","lat":43.29189,"lon":5.39309,"is_reserved":false,"is_disabled":false,"rental_uris":{"android":"levelo://app?vid=2a770b69-a29c-46f1-9c6e-486a3cde4ff9","ios":"levelo://app?vid=2a770b69-a29c-46f1-9c6e-486a3cde4ff9"},"vehicle_type_id":"4","last_reported":1769584648,"current_range_meters":7200,"station_id":"ce4bh192rcd13ifvqdd0","pricing_plan_id":"cebpf4jnsgd1na2vs0mg"},{"bike_id":"f1b504c8-6ca4-4143-a7a7-e72830d2ebb5","system_id":"levelo_inurba_marseille","lat":43.28105,"lon":5.37829,"is_reserved":false,"is_disabled":false,"rental_uris":{"android":"levelo://app?vid=f1b504c8-6ca4-4143-a7a7-e72830d2ebb5","ios":"levelo://app?vid=f1b504c8-6ca4-4143-a7a7-e72830d2ebb5"},"vehicle_type_id":"4","last_reported":1769584648,"current_range_meters":7200,"station_id":"ce4bha12rcd13ifvqee0","pricing_plan_id":"cebpf4jnsgd1na2vs0mg"},{"bike_id":"63dc15a4-721e-4373-abbf-a95cac1a8859","system_id":"levelo_inurba_marseille","lat":43.26914,"lon":5.40266,"is_reserved":false,"is_disabled":false,"rental_uris":{"android":"levelo://app?vid=63dc15a4-721e-4373-abbf-a95cac1a8859","ios":"levelo://app?vid=63dc15a4-721e-4373-abbf-a95cac1a8859"},"vehicle_type_id":"4","last_reported":1769584648,"current_range_meters":7200,"station_id":"cjm6bp8fraef2m0cb0m0","pricing_plan_id":"cebpf4jnsgd1na2vs0mg"},{"bike_id":"396ec683-e6cb-4075-8fab-ea51d545abde","system_id":"levelo_inurba_marseille","lat":43.27088,"lon":5.4026,"is_reserved":false,"is_disabled":false,"rental_uris":{"android":"levelo://app?vid=396ec683-e6cb-4075-8fab-ea51d545abde","ios":"levelo://app?vid=396ec683-e6cb-4075-8fab-ea51d545abde"},"vehicle_type_id":"4","last_reported":1769584648,"current_range_meters":7200,"station_id":"ce4bhk92rcd13ifvqgc0","pricing_plan_id":"cebpf4jnsgd1na2vs0mg"},{"bike_id":"69c7f316-91ef-4e7e-b7c9-fa2468ad9829","system_id":"levelo_inurba_marseille","lat":43.27988,"lon":5.41679,"is_reserved":false,"is_disabled":false,"rental_uris":{"android":"levelo://app?vid=69c7f316-91ef-4e7e-b7c9-fa2468ad9829","ios":"levelo://app?vid=69c7f316-91ef-4e7e-b7c9-fa2468ad9829"},"vehicle_type_id":"4","last_reported":1769584648,"current_range_meters":7200,"station_id":"ce4bho12rcd13ifvqh1g","pricing_plan_id":"cebpf4jnsgd1na2vs0mg"},{"bike_id":"69015cf3-bc6b-446f-9be5-f6f422a1478d","system_id":"levelo_inurba_marseille","lat":43.28856,"lon":5.4254,"is_reserved":false,"is_disabled":false,"rental_uris":{"android":"levelo://app?vid=69015cf3-bc6b-446f-9be5-f6f422a1478d","ios":"levelo://app?vid=69015cf3-bc6b-446f-9be5-f6f422a1478d"},"vehicle_type_id":"4","last_reported":1769584648,"current_range_meters":7200,"station_id":"st_d3b462108ojc7389ooeg","pricing_plan_id":"cebpf4jnsgd1na2vs0mg"},{"bike_id":"dd025a3b-8d88-4cc7-98ea-d46d5c91c806","system_id":"levelo_inurba_marseille","lat":43.27192,"lon":5.40997,"is_reserved":false,"is_disabled":false,"rental_uris":{"android":"levelo://app?vid=dd025a3b-8d88-4cc7-98ea-d46d5c91c806","ios":"levelo://app?vid=dd025a3b-8d88-4cc7-98ea-d46d5c91c806"},"vehicle_type_id":"4","last_reported":1769584648,"current_range_meters":7200,"station_id":"ce4bhl12rcd13ifvqgf0","pricing_plan_id":"cebpf4jnsgd1na2vs0mg"},{"bike_id":"415343c8-f4d1-4c58-85d1-0233c1b521d9","system_id":"levelo_inurba_marseille","lat":43.26679,"lon":5.38281,"is_reserved":false,"is_disabled":false,"rental_uris":{"android":"levelo://app?vid=415343c8-f4d1-4c58-85d1-0233c1b521d9","ios":"levelo://app?vid=415343c8-f4d1-4c58-85d1-0233c1b521d9"},"vehicle_type_id":"4","last_reported":1769584648,"current_range_meters":7200,"station_id":"ce4bhg92rcd13ifvqf90","pricing_plan_id":"cebpf4jnsgd1na2vs0mg"},{"bike_id":"bd3b0a67-2084-4ca5-8e9b-9b93b601cec9","system_id":"levelo_inurba_marseille","lat":43.231858,"lon":5.399833,"is_reserved":false,"is_disabled":false,"rental_uris":{"android":"levelo://app?vid=bd3b0a67-2084-4ca5-8e9b-9b93b601cec9","ios":"levelo://app?vid=bd3b0a67-2084-4ca5-8e9b-9b93b601cec9"},"vehicle_type_id":"4","last_reported":1769584648,"current_range_meters":7200,"station_id":"ce4bhn12rcd13ifvqgqg","pricing_plan_id":"cebpf4jnsgd1na2vs0mg"},{"bike_id":"42f8414b-aac3-4531-a10a-d65bb6862d25","system_id":"levelo_inurba_marseille","lat":43.25325,"lon":5.42186,"is_reserved":false,"is_disabled":false,"rental_uris":{"android":"levelo://app?vid=42f8414b-aac3-4531-a10a-d65bb6862d25","ios":"levelo://app?vid=42f8414b-aac3-4531-a10a-d65bb6862d25"},"vehicle_type_id":"4","last_reported":1769584648,"current_range_meters":7200,"station_id":"st_d2m65c5bi1j21697t3ng","pricing_plan_id":"cebpf4jnsgd1na2vs0mg"},{"bike_id":"99601a2c-48b8-4f74-97ad-6df8e49ff5ae","system_id":"levelo_inurba_marseille","lat":43.31502,"lon":5.37343,"is_reserved":false,"is_disabled":false,"rental_uris":{"android":"levelo://app?vid=99601a2c-48b8-4f74-97ad-6df8e49ff5ae","ios":"levelo://app?vid=99601a2c-48b8-4f74-97ad-6df8e49ff5ae"},"vehicle_type_id":"4","last_reported":1769584648,"current_range_meters":8000,"station_id":"ce4bgt12rcd13ifvqcd0","pricing_plan_id":"cebpf4jnsgd1na2vs0mg"},{"bike_id":"d6f39e75-dc9f-4ba9-bbb4-c7d3ad379682","system_id":"levelo_inurba_marseille","lat":43.297354,"lon":5.376875,"is_reserved":false,"is_disabled":true,"rental_uris":{"android":"levelo://app?vid=d6f39e75-dc9f-4ba9-bbb4-c7d3ad379682","ios":"levelo://app?vid=d6f39e75-dc9f-4ba9-bbb4-c7d3ad379682"},"vehicle_type_id":"4","last_reported":1769584648,"current_range_meters":8000,"station_id":"ce4bgkh2rcd13ifvqbl0","pricing_plan_id":"cebpf4jnsgd1na2vs0mg"},{"bike_id":"c9026cf3-bc60-41ac-ba3f-4fdf4bcb4586","system_id":"levelo_inurba_marseille","lat":43.25335,"lon":5.42174,"is_reserved":false,"is_disabled":false,"rental_uris":{"android":"levelo://app?vid=c9026cf3-bc60-41ac-ba3f-4fdf4bcb4586","ios":"levelo://app?vid=c9026cf3-bc60-41ac-ba3f-4fdf4bcb4586"},"vehicle_type_id":"4","last_reported":1769584648,"current_range_meters":8000,"station_id":"st_d2m65c5bi1j21697t3ng","pricing_plan_id":"cebpf4jnsgd1na2vs0mg"},{"bike_id":"16199858-b735-4ef4-aea3-a073cd0a7000","system_id":"levelo_inurba_marseille","lat":43.25578,"lon":5.38234,"is_reserved":false,"is_disabled":false,"rental_uris":{"android":"levelo://app?vid=16199858-b735-4ef4-aea3-a073cd0a7000","ios":"levelo://app?vid=16199858-b735-4ef4-aea3-a073cd0a7000"},"vehicle_type_id":"4","last_reported":1769584648,"current_range_meters":8000,"station_id":"ce4bhih2rcd13ifvqfs0","pricing_plan_id":"cebpf4jnsgd1na2vs0mg"},{"bike_id":"b641be8d-2a32-425d-bc32-cceff7ab894e","system_id":"levelo_inurba_marseille","lat":43.24672,"lon":5.38169,"is_reserved":false,"is_disabled":false,"rental_uris":{"android":"levelo://app?vid=b641be8d-2a32-425d-bc32-cceff7ab894e","ios":"levelo://app?vid=b641be8d-2a32-425d-bc32-cceff7ab894e"},"vehicle_type_id":"4","last_reported":1769584648,"current_range_meters":8000,"station_id":"ce4bhih2rcd13ifvqfr0","pricing_plan_id":"cebpf4jnsgd1na2vs0mg"},{"bike_id":"1f27925c-ff25-4870-9c4e-ac24412cf67a","system_id":"levelo_inurba_marseille","lat":43.30083,"lon":5.37661,"is_reserved":false,"is_disabled":false,"rental_uris":{"android":"levelo://app?vid=1f27925c-ff25-4870-9c4e-ac24412cf67a","ios":"levelo://app?vid=1f27925c-ff25-4870-9c4e-ac24412cf67a"},"vehicle_type_id":"4","last_reported":1769584648,"current_range_meters":8000,"station_id":"","pricing_plan_id":"cebpf4jnsgd1na2vs0mg"},{"bike_id":"215d9242-cc67-4957-98e5-94a2159c71f8","system_id":"levelo_inurba_marseille","lat":43.32349,"lon":5.36752,"is_reserved":false,"is_disabled":false,"rental_uris":{"android":"levelo://app?vid=215d9242-cc67-4957-98e5-94a2159c71f8","ios":"levelo://app?vid=215d9242-cc67-4957-98e5-94a2159c71f8"},"vehicle_type_id":"4","last_reported":1769584648,"current_range_meters":8000,"station_id":"ce4bhsh2rcd13ifvqi2g","pricing_plan_id":"cebpf4jnsgd1na2vs0mg"},{"bike_id":"b9f685a2-54f3-47cb-9b00-af7eff09d826","system_id":"levelo_inurba_marseille","lat":43.278115,"lon":5.407188,"is_reserved":false,"is_disabled":false,"rental_uris":{"android":"levelo://app?vid=b9f685a2-54f3-47cb-9b00-af7eff09d826","ios":"levelo://app?vid=b9f685a2-54f3-47cb-9b00-af7eff09d826"},"vehicle_type_id":"4","last_reported":1769584648,"current_range_meters":8000,"station_id":"ce4bhnh2rcd13ifvqgtg","pricing_plan_id":"cebpf4jnsgd1na2vs0mg"},{"bike_id":"a8bb1413-c00e-4733-889d-5d7e76a39ec8","system_id":"levelo_inurba_marseille","lat":43.27059,"lon":5.38314,"is_reserved":false,"is_disabled":false,"rental_uris":{"android":"levelo://app?vid=a8bb1413-c00e-4733-889d-5d7e76a39ec8","ios":"levelo://app?vid=a8bb1413-c00e-4733-889d-5d7e76a39ec8"},"vehicle_type_id":"4","last_reported":1769584648,"current_range_meters":8000,"station_id":"st_d3n2fo6cfp8s73cte1j0","pricing_plan_id":"cebpf4jnsgd1na2vs0mg"},{"bike_id":"2e4b5a78-8d5f-49ab-a32c-da3979878386","system_id":"levelo_inurba_marseille","lat":43.25483,"lon":5.37649,"is_reserved":false,"is_disabled":false,"rental_uris":{"android":"levelo://app?vid=2e4b5a78-8d5f-49ab-a32c-da3979878386","ios":"levelo://app?vid=2e4b5a78-8d5f-49ab-a32c-da3979878386"},"vehicle_type_id":"4","last_reported":1769584648,"current_range_meters":8000,"station_id":"ce4bhh12rcd13ifvqff0","pricing_plan_id":"cebpf4jnsgd1na2vs0mg"},{"bike_id":"60c02f49-2adf-4424-ade8-9c6070d15506","system_id":"levelo_inurba_marseille","lat":43.25005,"lon":5.38913,"is_reserved":false,"is_disabled":false,"rental_uris":{"android":"levelo://app?vid=60c02f49-2adf-4424-ade8-9c6070d15506","ios":"levelo://app?vid=60c02f49-2adf-4424-ade8-9c6070d15506"},"vehicle_type_id":"4","last_reported":1769584648,"current_range_meters":8000,"station_id":"ce4bhgp2rcd13ifvqfd0","pricing_plan_id":"cebpf4jnsgd1na2vs0mg"},{"bike_id":"d75d722c-1278-467f-b25c-2eec7b30ce3e","system_id":"levelo_inurba_marseille","lat":43.29734,"lon":5.37724,"is_reserved":false,"is_disabled":false,"rental_uris":{"android":"levelo://app?vid=d75d722c-1278-467f-b25c-2eec7b30ce3e","ios":"levelo://app?vid=d75d722c-1278-467f-b25c-2eec7b30ce3e"},"vehicle_type_id":"4","last_reported":1769584648,"current_range_meters":8000,"station_id":"ce4bgkh2rcd13ifvqbl0","pricing_plan_id":"cebpf4jnsgd1na2vs0mg"},{"bike_id":"7685a49c-8aa3-4105-b6c4-9b0fdec5d0f8","system_id":"levelo_inurba_marseille","lat":43.31493,"lon":5.37233,"is_reserved":false,"is_disabled":false,"rental_uris":{"android":"levelo://app?vid=7685a49c-8aa3-4105-b6c4-9b0fdec5d0f8","ios":"levelo://app?vid=7685a49c-8aa3-4105-b6c4-9b0fdec5d0f8"},"vehicle_type_id":"4","last_reported":1769584648,"current_range_meters":8000,"station_id":"","pricing_plan_id":"cebpf4jnsgd1na2vs0mg"},{"bike_id":"41c91ad2-73b9-4699-b23d-1b5a65edd284","system_id":"levelo_inurba_marseille","lat":43.33531,"lon":5.37473,"is_reserved":false,"is_disabled":false,"rental_uris":{"android":"levelo://app?vid=41c91ad2-73b9-4699-b23d-1b5a65edd284","ios":"levelo://app?vid=41c91ad2-73b9-4699-b23d-1b5a65edd284"},"vehicle_type_id":"4","last_reported":1769584648,"current_range_meters":8000,"station_id":"","pricing_plan_id":"cebpf4jnsgd1na2vs0mg"},{"bike_id":"46811941-3c77-4e43-8b7a-4ca16cd49201","system_id":"levelo_inurba_marseille","lat":43.30153,"lon":5.38068,"is_reserved":false,"is_disabled":false,"rental_uris":{"android":"levelo://app?vid=46811941-3c77-4e43-8b7a-4ca16cd49201","ios":"levelo://app?vid=46811941-3c77-4e43-8b7a-4ca16cd49201"},"vehicle_type_id":"4","last_reported":1769584648,"current_range_meters":8000,"station_id":"ce4bgjp2rcd13ifvqbh0","pricing_plan_id":"cebpf4jnsgd1na2vs0mg"},{"bike_id":"5d05d531-ebc5-422e-a94d-fab2e789248e","system_id":"levelo_inurba_marseille","lat":43.2509,"lon":5.39516,"is_reserved":false,"is_disabled":false,"rental_uris":{"android":"levelo://app?vid=5d05d531-ebc5-422e-a94d-fab2e789248e","ios":"levelo://app?vid=5d05d531-ebc5-422e-a94d-fab2e789248e"},"vehicle_type_id":"4","last_reported":1769584648,"current_range_meters":8400,"station_id":"ce4bhm12rcd13ifvqgkg","pricing_plan_id":"cebpf4jnsgd1na2vs0mg"},{"bike_id":"6e210b8f-cfae-4f5d-b39e-e1b52dd91f76","system_id":"levelo_inurba_marseille","lat":43.29984,"lon":5.3849,"is_reserved":false,"is_disabled":false,"rental_uris":{"android":"levelo://app?vid=6e210b8f-cfae-4f5d-b39e-e1b52dd91f76","ios":"levelo://app?vid=6e210b8f-cfae-4f5d-b39e-e1b52dd91f76"},"vehicle_type_id":"4","last_reported":1769584648,"current_range_meters":8400,"station_id":"ce4bgj92rcd13ifvqbd0","pricing_plan_id":"cebpf4jnsgd1na2vs0mg"},{"bike_id":"7c70a630-f080-4d65-8f79-af323dbedc62","system_id":"levelo_inurba_marseille","lat":43.30153,"lon":5.43137,"is_reserved":false,"is_disabled":false,"rental_uris":{"android":"levelo://app?vid=7c70a630-f080-4d65-8f79-af323dbedc62","ios":"levelo://app?vid=7c70a630-f080-4d65-8f79-af323dbedc62"},"vehicle_type_id":"4","last_reported":1769584648,"current_range_meters":8400,"station_id":"st_d3js3co5814s73ftftug","pricing_plan_id":"cebpf4jnsgd1na2vs0mg"},{"bike_id":"72089be9-38d6-423c-b54b-444cdb64406b","system_id":"levelo_inurba_marseille","lat":43.28427,"lon":5.35009,"is_reserved":false,"is_disabled":false,"rental_uris":{"android":"levelo://app?vid=72089be9-38d6-423c-b54b-444cdb64406b","ios":"levelo://app?vid=72089be9-38d6-423c-b54b-444cdb64406b"},"vehicle_type_id":"4","last_reported":1769584648,"current_range_meters":8400,"station_id":"ce4bhbh2rcd13ifvqepg","pricing_plan_id":"cebpf4jnsgd1na2vs0mg"},{"bike_id":"234f7311-25dc-4b55-a0cb-d05382a81de7","system_id":"levelo_inurba_marseille","lat":43.30304,"lon":5.36887,"is_reserved":false,"is_disabled":false,"rental_uris":{"android":"levelo://app?vid=234f7311-25dc-4b55-a0cb-d05382a81de7","ios":"levelo://app?vid=234f7311-25dc-4b55-a0cb-d05382a81de7"},"vehicle_type_id":"4","last_reported":1769584648,"current_range_meters":8400,"station_id":"ce4bgqh2rcd13ifvqc5g","pricing_plan_id":"cebpf4jnsgd1na2vs0mg"},{"bike_id":"2bcdbb6d-4166-46e3-b40e-b7f8fafb723d","system_id":"levelo_inurba_marseille","lat":43.29032,"lon":5.3997,"is_reserved":false,"is_disabled":false,"rental_uris":{"android":"levelo://app?vid=2bcdbb6d-4166-46e3-b40e-b7f8fafb723d","ios":"levelo://app?vid=2bcdbb6d-4166-46e3-b40e-b7f8fafb723d"},"vehicle_type_id":"4","last_reported":1769584648,"current_range_meters":8400,"station_id":"ce4bh392rcd13ifvqdm0","pricing_plan_id":"cebpf4jnsgd1na2vs0mg"},{"bike_id":"c00d1abe-f6f3-4677-9b5b-65f2d4348ca7","system_id":"levelo_inurba_marseille","lat":43.231919,"lon":5.355519,"is_reserved":false,"is_disabled":false,"rental_uris":{"android":"levelo://app?vid=c00d1abe-f6f3-4677-9b5b-65f2d4348ca7","ios":"levelo://app?vid=c00d1abe-f6f3-4677-9b5b-65f2d4348ca7"},"vehicle_type_id":"4","last_reported":1769584648,"current_range_meters":8400,"station_id":"ce4bhu92rcd13ifvqi70","pricing_plan_id":"cebpf4jnsgd1na2vs0mg"},{"bike_id":"1ffbda22-e3ce-449b-8cf2-1a8499f4ffd7","system_id":"levelo_inurba_marseille","lat":43.26953,"lon":5.38635,"is_reserved":false,"is_disabled":false,"rental_uris":{"android":"levelo://app?vid=1ffbda22-e3ce-449b-8cf2-1a8499f4ffd7","ios":"levelo://app?vid=1ffbda22-e3ce-449b-8cf2-1a8499f4ffd7"},"vehicle_type_id":"4","last_reported":1769584648,"current_range_meters":8400,"station_id":"ce4bhh92rcd13ifvqfh0","pricing_plan_id":"cebpf4jnsgd1na2vs0mg"},{"bike_id":"0e67fe98-9108-433b-9434-394fc2106387","system_id":"levelo_inurba_marseille","lat":43.24631,"lon":5.43153,"is_reserved":false,"is_disabled":false,"rental_uris":{"android":"levelo://app?vid=0e67fe98-9108-433b-9434-394fc2106387","ios":"levelo://app?vid=0e67fe98-9108-433b-9434-394fc2106387"},"vehicle_type_id":"4","last_reported":1769584648,"current_range_meters":8400,"station_id":"st_d2m6c4gdas8pm72e190g","pricing_plan_id":"cebpf4jnsgd1na2vs0mg"},{"bike_id":"637b9777-0add-457f-8d9a-f4a28f2e8516","system_id":"levelo_inurba_marseille","lat":43.279929,"lon":5.400286,"is_reserved":false,"is_disabled":false,"rental_uris":{"android":"levelo://app?vid=637b9777-0add-457f-8d9a-f4a28f2e8516","ios":"levelo://app?vid=637b9777-0add-457f-8d9a-f4a28f2e8516"},"vehicle_type_id":"4","last_reported":1769584648,"current_range_meters":8400,"station_id":"ce4bho92rcd13ifvqh4g","pricing_plan_id":"cebpf4jnsgd1na2vs0mg"},{"bike_id":"dca56683-484c-4cbd-a002-b9a1d5c6aa4e","system_id":"levelo_inurba_marseille","lat":43.337682,"lon":5.374371,"is_reserved":false,"is_disabled":false,"rental_uris":{"android":"levelo://app?vid=dca56683-484c-4cbd-a002-b9a1d5c6aa4e","ios":"levelo://app?vid=dca56683-484c-4cbd-a002-b9a1d5c6aa4e"},"vehicle_type_id":"4","last_reported":1769584648,"current_range_meters":8400,"station_id":"","pricing_plan_id":"cebpf4jnsgd1na2vs0mg"},{"bike_id":"4a86f5b3-277b-48b1-947e-32d63c3bde2b","system_id":"levelo_inurba_marseille","lat":43.29838,"lon":5.36269,"is_reserved":false,"is_disabled":false,"rental_uris":{"android":"levelo://app?vid=4a86f5b3-277b-48b1-947e-32d63c3bde2b","ios":"levelo://app?vid=4a86f5b3-277b-48b1-947e-32d63c3bde2b"},"vehicle_type_id":"4","last_reported":1769584648,"current_range_meters":8400,"station_id":"ce4bgpp2rcd13ifvqc3g","pricing_plan_id":"cebpf4jnsgd1na2vs0mg"},{"bike_id":"69a8705c-622c-4687-befc-0e95f406c55e","system_id":"levelo_inurba_marseille","lat":43.22561,"lon":5.41645,"is_reserved":false,"is_disabled":false,"rental_uris":{"android":"levelo://app?vid=69a8705c-622c-4687-befc-0e95f406c55e","ios":"levelo://app?vid=69a8705c-622c-4687-befc-0e95f406c55e"},"vehicle_type_id":"4","last_reported":1769584648,"current_range_meters":8800,"station_id":"st_d2o4gvlbi1j2169b742g","pricing_plan_id":"cebpf4jnsgd1na2vs0mg"},{"bike_id":"b45c8d2c-8d88-4cef-8b61-a19c2da1c61e","system_id":"levelo_inurba_marseille","lat":43.33531,"lon":5.37474,"is_reserved":false,"is_disabled":false,"rental_uris":{"android":"levelo://app?vid=b45c8d2c-8d88-4cef-8b61-a19c2da1c61e","ios":"levelo://app?vid=b45c8d2c-8d88-4cef-8b61-a19c2da1c61e"},"vehicle_type_id":"4","last_reported":1769584648,"current_range_meters":8800,"station_id":"st_d46tts09ee8s73dlu43g","pricing_plan_id":"cebpf4jnsgd1na2vs0mg"},{"bike_id":"8f81f246-6d5d-41c6-a914-40ca18e88edd","system_id":"levelo_inurba_marseille","lat":43.33201,"lon":5.4026,"is_reserved":false,"is_disabled":false,"rental_uris":{"android":"levelo://app?vid=8f81f246-6d5d-41c6-a914-40ca18e88edd","ios":"levelo://app?vid=8f81f246-6d5d-41c6-a914-40ca18e88edd"},"vehicle_type_id":"4","last_reported":1769584648,"current_range_meters":8800,"station_id":"","pricing_plan_id":"cebpf4jnsgd1na2vs0mg"},{"bike_id":"c4afb074-53a0-4d44-b5f4-69a59fdc18cd","system_id":"levelo_inurba_marseille","lat":43.24168,"lon":5.36416,"is_reserved":false,"is_disabled":false,"rental_uris":{"android":"levelo://app?vid=c4afb074-53a0-4d44-b5f4-69a59fdc18cd","ios":"levelo://app?vid=c4afb074-53a0-4d44-b5f4-69a59fdc18cd"},"vehicle_type_id":"4","last_reported":1769584648,"current_range_meters":8800,"station_id":"cpo36qri1sfpv3e86is0","pricing_plan_id":"cebpf4jnsgd1na2vs0mg"},{"bike_id":"b4276242-8b33-4b8a-8eb9-9b51d4edf364","system_id":"levelo_inurba_marseille","lat":43.24537,"lon":5.39531,"is_reserved":false,"is_disabled":false,"rental_uris":{"android":"levelo://app?vid=b4276242-8b33-4b8a-8eb9-9b51d4edf364","ios":"levelo://app?vid=b4276242-8b33-4b8a-8eb9-9b51d4edf364"},"vehicle_type_id":"4","last_reported":1769584648,"current_range_meters":8800,"station_id":"ce4bhlp2rcd13ifvqgjg","pricing_plan_id":"cebpf4jnsgd1na2vs0mg"},{"bike_id":"edcf7268-9037-4d86-a040-f29b3b6258a5","system_id":"levelo_inurba_marseille","lat":43.32452,"lon":5.3658,"is_reserved":false,"is_disabled":false,"rental_uris":{"android":"levelo://app?vid=edcf7268-9037-4d86-a040-f29b3b6258a5","ios":"levelo://app?vid=edcf7268-9037-4d86-a040-f29b3b6258a5"},"vehicle_type_id":"4","last_reported":1769584648,"current_range_meters":8800,"station_id":"ce4bhs12rcd13ifvqhvg","pricing_plan_id":"cebpf4jnsgd1na2vs0mg"},{"bike_id":"e67fc9ad-980c-4bee-9cef-9478c6435fce","system_id":"levelo_inurba_marseille","lat":43.27947,"lon":5.41059,"is_reserved":false,"is_disabled":true,"rental_uris":{"android":"levelo://app?vid=e67fc9ad-980c-4bee-9cef-9478c6435fce","ios":"levelo://app?vid=e67fc9ad-980c-4bee-9cef-9478c6435fce"},"vehicle_type_id":"4","last_reported":1769584648,"current_range_meters":8800,"station_id":"ce4bhnp2rcd13ifvqh0g","pricing_plan_id":"cebpf4jnsgd1na2vs0mg"},{"bike_id":"452f769f-adc3-4ad7-809e-fe7e6a116547","system_id":"levelo_inurba_marseille","lat":43.29576,"lon":5.37546,"is_reserved":false,"is_disabled":false,"rental_uris":{"android":"levelo://app?vid=452f769f-adc3-4ad7-809e-fe7e6a116547","ios":"levelo://app?vid=452f769f-adc3-4ad7-809e-fe7e6a116547"},"vehicle_type_id":"4","last_reported":1769584648,"current_range_meters":8800,"station_id":"ce4bgh92rcd13ifvqb50","pricing_plan_id":"cebpf4jnsgd1na2vs0mg"},{"bike_id":"c5845baf-9f1a-482b-a6a9-83c61113307a","system_id":"levelo_inurba_marseille","lat":43.23068,"lon":5.35506,"is_reserved":false,"is_disabled":false,"rental_uris":{"android":"levelo://app?vid=c5845baf-9f1a-482b-a6a9-83c61113307a","ios":"levelo://app?vid=c5845baf-9f1a-482b-a6a9-83c61113307a"},"vehicle_type_id":"4","last_reported":1769584648,"current_range_meters":8800,"station_id":"cpo3342slgdg3j2ifvpg","pricing_plan_id":"cebpf4jnsgd1na2vs0mg"},{"bike_id":"a097c751-bb29-4ebe-bc02-881e85889070","system_id":"levelo_inurba_marseille","lat":43.28873,"lon":5.42482,"is_reserved":false,"is_disabled":false,"rental_uris":{"android":"levelo://app?vid=a097c751-bb29-4ebe-bc02-881e85889070","ios":"levelo://app?vid=a097c751-bb29-4ebe-bc02-881e85889070"},"vehicle_type_id":"4","last_reported":1769584648,"current_range_meters":8800,"station_id":"st_d3b462108ojc7389ooeg","pricing_plan_id":"cebpf4jnsgd1na2vs0mg"},{"bike_id":"f0eae6e6-e46c-4d12-9b40-260e4bc30f2a","system_id":"levelo_inurba_marseille","lat":43.307396,"lon":5.424317,"is_reserved":false,"is_disabled":false,"rental_uris":{"android":"levelo://app?vid=f0eae6e6-e46c-4d12-9b40-260e4bc30f2a","ios":"levelo://app?vid=f0eae6e6-e46c-4d12-9b40-260e4bc30f2a"},"vehicle_type_id":"4","last_reported":1769584648,"current_range_meters":8800,"station_id":"st_cvj6ca6bvosntc0bfgr0","pricing_plan_id":"cebpf4jnsgd1na2vs0mg"},{"bike_id":"cfedf624-7e0e-4bd9-a95e-500dd777dd55","system_id":"levelo_inurba_marseille","lat":43.2897,"lon":5.37844,"is_reserved":false,"is_disabled":false,"rental_uris":{"android":"levelo://app?vid=cfedf624-7e0e-4bd9-a95e-500dd777dd55","ios":"levelo://app?vid=cfedf624-7e0e-4bd9-a95e-500dd777dd55"},"vehicle_type_id":"4","last_reported":1769584648,"current_range_meters":8800,"station_id":"ce4bh9p2rcd13ifvqed0","pricing_plan_id":"cebpf4jnsgd1na2vs0mg"},{"bike_id":"cb244530-27d3-443c-b788-0340e0e04b1c","system_id":"levelo_inurba_marseille","lat":43.33162,"lon":5.37703,"is_reserved":false,"is_disabled":false,"rental_uris":{"android":"levelo://app?vid=cb244530-27d3-443c-b788-0340e0e04b1c","ios":"levelo://app?vid=cb244530-27d3-443c-b788-0340e0e04b1c"},"vehicle_type_id":"4","last_reported":1769584648,"current_range_meters":8800,"station_id":"st_d46cu089ee8s73dldbu0","pricing_plan_id":"cebpf4jnsgd1na2vs0mg"},{"bike_id":"fd5cac91-3b82-41b2-9b97-04cacea7a2ee","system_id":"levelo_inurba_marseille","lat":43.26197,"lon":5.37477,"is_reserved":false,"is_disabled":false,"rental_uris":{"android":"levelo://app?vid=fd5cac91-3b82-41b2-9b97-04cacea7a2ee","ios":"levelo://app?vid=fd5cac91-3b82-41b2-9b97-04cacea7a2ee"},"vehicle_type_id":"4","last_reported":1769584648,"current_range_meters":8800,"station_id":"ce4bhgp2rcd13ifvqfc0","pricing_plan_id":"cebpf4jnsgd1na2vs0mg"},{"bike_id":"cd815d97-e1a1-472a-b27d-260260422901","system_id":"levelo_inurba_marseille","lat":43.28859,"lon":5.42519,"is_reserved":false,"is_disabled":false,"rental_uris":{"android":"levelo://app?vid=cd815d97-e1a1-472a-b27d-260260422901","ios":"levelo://app?vid=cd815d97-e1a1-472a-b27d-260260422901"},"vehicle_type_id":"4","last_reported":1769584648,"current_range_meters":8800,"station_id":"st_d3b462108ojc7389ooeg","pricing_plan_id":"cebpf4jnsgd1na2vs0mg"},{"bike_id":"b8437f5d-1a9d-40c2-908d-8c815904e7ec","system_id":"levelo_inurba_marseille","lat":43.26035,"lon":5.3939,"is_reserved":false,"is_disabled":false,"rental_uris":{"android":"levelo://app?vid=b8437f5d-1a9d-40c2-908d-8c815904e7ec","ios":"levelo://app?vid=b8437f5d-1a9d-40c2-908d-8c815904e7ec"},"vehicle_type_id":"4","last_reported":1769584648,"current_range_meters":9200,"station_id":"ce4bhh92rcd13ifvqfj0","pricing_plan_id":"cebpf4jnsgd1na2vs0mg"},{"bike_id":"554273e5-dbc4-419c-93da-8c12effff02f","system_id":"levelo_inurba_marseille","lat":43.29926,"lon":5.3655,"is_reserved":false,"is_disabled":false,"rental_uris":{"android":"levelo://app?vid=554273e5-dbc4-419c-93da-8c12effff02f","ios":"levelo://app?vid=554273e5-dbc4-419c-93da-8c12effff02f"},"vehicle_type_id":"4","last_reported":1769584648,"current_range_meters":9200,"station_id":"ce4bgm92rcd13ifvqbr0","pricing_plan_id":"cebpf4jnsgd1na2vs0mg"},{"bike_id":"683c0f49-31bb-4a9b-877a-ad6cfca2974a","system_id":"levelo_inurba_marseille","lat":43.2742,"lon":5.39375,"is_reserved":false,"is_disabled":false,"rental_uris":{"android":"levelo://app?vid=683c0f49-31bb-4a9b-877a-ad6cfca2974a","ios":"levelo://app?vid=683c0f49-31bb-4a9b-877a-ad6cfca2974a"},"vehicle_type_id":"4","last_reported":1769584648,"current_range_meters":9200,"station_id":"ce4bhdp2rcd13ifvqf20","pricing_plan_id":"cebpf4jnsgd1na2vs0mg"},{"bike_id":"474f1086-a1a0-4862-9586-72b6d697aa42","system_id":"levelo_inurba_marseille","lat":43.3061,"lon":5.37227,"is_reserved":false,"is_disabled":false,"rental_uris":{"android":"levelo://app?vid=474f1086-a1a0-4862-9586-72b6d697aa42","ios":"levelo://app?vid=474f1086-a1a0-4862-9586-72b6d697aa42"},"vehicle_type_id":"4","last_reported":1769584648,"current_range_meters":9200,"station_id":"ce4bgqh2rcd13ifvqc4g","pricing_plan_id":"cebpf4jnsgd1na2vs0mg"},{"bike_id":"86f0ba6e-c862-4e0b-9683-b991dd2d9e44","system_id":"levelo_inurba_marseille","lat":43.2991,"lon":5.37472,"is_reserved":false,"is_disabled":false,"rental_uris":{"android":"levelo://app?vid=86f0ba6e-c862-4e0b-9683-b991dd2d9e44","ios":"levelo://app?vid=86f0ba6e-c862-4e0b-9683-b991dd2d9e44"},"vehicle_type_id":"4","last_reported":1769584648,"current_range_meters":9200,"station_id":"ce4bgjh2rcd13ifvqbg0","pricing_plan_id":"cebpf4jnsgd1na2vs0mg"},{"bike_id":"ec92a3d7-0aaf-40cf-9513-2fb7d35cc0c4","system_id":"levelo_inurba_marseille","lat":43.23062,"lon":5.35512,"is_reserved":false,"is_disabled":false,"rental_uris":{"android":"levelo://app?vid=ec92a3d7-0aaf-40cf-9513-2fb7d35cc0c4","ios":"levelo://app?vid=ec92a3d7-0aaf-40cf-9513-2fb7d35cc0c4"},"vehicle_type_id":"4","last_reported":1769584648,"current_range_meters":9200,"station_id":"cpo3342slgdg3j2ifvpg","pricing_plan_id":"cebpf4jnsgd1na2vs0mg"},{"bike_id":"bc230eaa-6d54-4e2d-8428-bb3463d83558","system_id":"levelo_inurba_marseille","lat":43.27298,"lon":5.39038,"is_reserved":false,"is_disabled":false,"rental_uris":{"android":"levelo://app?vid=bc230eaa-6d54-4e2d-8428-bb3463d83558","ios":"levelo://app?vid=bc230eaa-6d54-4e2d-8428-bb3463d83558"},"vehicle_type_id":"4","last_reported":1769584648,"current_range_meters":9600,"station_id":"ce4bhgp2rcd13ifvqfe0","pricing_plan_id":"cebpf4jnsgd1na2vs0mg"},{"bike_id":"c7e4813a-c248-4d27-817f-f64ef50a11f2","system_id":"levelo_inurba_marseille","lat":43.25943,"lon":5.40895,"is_reserved":false,"is_disabled":false,"rental_uris":{"android":"levelo://app?vid=c7e4813a-c248-4d27-817f-f64ef50a11f2","ios":"levelo://app?vid=c7e4813a-c248-4d27-817f-f64ef50a11f2"},"vehicle_type_id":"4","last_reported":1769584648,"current_range_meters":9600,"station_id":"ce4bhm92rcd13ifvqglg","pricing_plan_id":"cebpf4jnsgd1na2vs0mg"},{"bike_id":"29065f68-7126-4714-9ee4-88cfe04e93fc","system_id":"levelo_inurba_marseille","lat":43.28175,"lon":5.42694,"is_reserved":false,"is_disabled":false,"rental_uris":{"android":"levelo://app?vid=29065f68-7126-4714-9ee4-88cfe04e93fc","ios":"levelo://app?vid=29065f68-7126-4714-9ee4-88cfe04e93fc"},"vehicle_type_id":"4","last_reported":1769584648,"current_range_meters":9600,"station_id":"ce4bhnh2rcd13ifvqgug","pricing_plan_id":"cebpf4jnsgd1na2vs0mg"},{"bike_id":"9b2f527d-d05e-4b3d-98b5-f84c2874ffe8","system_id":"levelo_inurba_marseille","lat":43.29599,"lon":5.38105,"is_reserved":false,"is_disabled":false,"rental_uris":{"android":"levelo://app?vid=9b2f527d-d05e-4b3d-98b5-f84c2874ffe8","ios":"levelo://app?vid=9b2f527d-d05e-4b3d-98b5-f84c2874ffe8"},"vehicle_type_id":"4","last_reported":1769584648,"current_range_meters":9600,"station_id":"ce4bgl12rcd13ifvqbo0","pricing_plan_id":"cebpf4jnsgd1na2vs0mg"},{"bike_id":"1f8ec672-50ab-4328-868b-122a36694d34","system_id":"levelo_inurba_marseille","lat":43.284857,"lon":5.38418,"is_reserved":false,"is_disabled":false,"rental_uris":{"android":"levelo://app?vid=1f8ec672-50ab-4328-868b-122a36694d34","ios":"levelo://app?vid=1f8ec672-50ab-4328-868b-122a36694d34"},"vehicle_type_id":"4","last_reported":1769584648,"current_range_meters":9600,"station_id":"ce4bh8p2rcd13ifvqeb0","pricing_plan_id":"cebpf4jnsgd1na2vs0mg"},{"bike_id":"d6347785-7f4b-4520-b64a-bf5bb0e98944","system_id":"levelo_inurba_marseille","lat":43.24993,"lon":5.38959,"is_reserved":false,"is_disabled":false,"rental_uris":{"android":"levelo://app?vid=d6347785-7f4b-4520-b64a-bf5bb0e98944","ios":"levelo://app?vid=d6347785-7f4b-4520-b64a-bf5bb0e98944"},"vehicle_type_id":"4","last_reported":1769584648,"current_range_meters":9600,"station_id":"ce4bhgp2rcd13ifvqfd0","pricing_plan_id":"cebpf4jnsgd1na2vs0mg"},{"bike_id":"4ae21097-68ff-4a44-bcb7-3e142e11d517","system_id":"levelo_inurba_marseille","lat":43.24152,"lon":5.3642,"is_reserved":false,"is_disabled":false,"rental_uris":{"android":"levelo://app?vid=4ae21097-68ff-4a44-bcb7-3e142e11d517","ios":"levelo://app?vid=4ae21097-68ff-4a44-bcb7-3e142e11d517"},"vehicle_type_id":"4","last_reported":1769584648,"current_range_meters":9600,"station_id":"cpo36qri1sfpv3e86is0","pricing_plan_id":"cebpf4jnsgd1na2vs0mg"},{"bike_id":"1d6b32ed-dde8-4831-851e-66657d346ed1","system_id":"levelo_inurba_marseille","lat":43.313458,"lon":5.367243,"is_reserved":false,"is_disabled":false,"rental_uris":{"android":"levelo://app?vid=1d6b32ed-dde8-4831-851e-66657d346ed1","ios":"levelo://app?vid=1d6b32ed-dde8-4831-851e-66657d346ed1"},"vehicle_type_id":"4","last_reported":1769584648,"current_range_meters":9600,"station_id":"ce4bgr92rcd13ifvqc6g","pricing_plan_id":"cebpf4jnsgd1na2vs0mg"},{"bike_id":"b96775b7-8954-4f94-990f-968813344c58","system_id":"levelo_inurba_marseille","lat":43.3126,"lon":5.37803,"is_reserved":false,"is_disabled":false,"rental_uris":{"android":"levelo://app?vid=b96775b7-8954-4f94-990f-968813344c58","ios":"levelo://app?vid=b96775b7-8954-4f94-990f-968813344c58"},"vehicle_type_id":"4","last_reported":1769584648,"current_range_meters":9600,"station_id":"","pricing_plan_id":"cebpf4jnsgd1na2vs0mg"},{"bike_id":"8c50cc1b-6957-4db2-9b96-76d9d37bac03","system_id":"levelo_inurba_marseille","lat":43.2257,"lon":5.41632,"is_reserved":false,"is_disabled":false,"rental_uris":{"android":"levelo://app?vid=8c50cc1b-6957-4db2-9b96-76d9d37bac03","ios":"levelo://app?vid=8c50cc1b-6957-4db2-9b96-76d9d37bac03"},"vehicle_type_id":"4","last_reported":1769584648,"current_range_meters":9600,"station_id":"st_d2o4gvlbi1j2169b742g","pricing_plan_id":"cebpf4jnsgd1na2vs0mg"},{"bike_id":"9e930dcd-a029-48e2-b77a-e30c1c5109e0","system_id":"levelo_inurba_marseille","lat":43.29026,"lon":5.38651,"is_reserved":false,"is_disabled":false,"rental_uris":{"android":"levelo://app?vid=9e930dcd-a029-48e2-b77a-e30c1c5109e0","ios":"levelo://app?vid=9e930dcd-a029-48e2-b77a-e30c1c5109e0"},"vehicle_type_id":"4","last_reported":1769584648,"current_range_meters":9600,"station_id":"ce4bh4p2rcd13ifvqe0g","pricing_plan_id":"cebpf4jnsgd1na2vs0mg"},{"bike_id":"e52aa614-a897-4e5a-926e-b562b10310e7","system_id":"levelo_inurba_marseille","lat":43.301317,"lon":5.401587,"is_reserved":false,"is_disabled":false,"rental_uris":{"android":"levelo://app?vid=e52aa614-a897-4e5a-926e-b562b10310e7","ios":"levelo://app?vid=e52aa614-a897-4e5a-926e-b562b10310e7"},"vehicle_type_id":"4","last_reported":1769584648,"current_range_meters":9600,"station_id":"","pricing_plan_id":"cebpf4jnsgd1na2vs0mg"},{"bike_id":"de209029-a5b3-455f-ba80-339250aee2f8","system_id":"levelo_inurba_marseille","lat":43.29426,"lon":5.3976,"is_reserved":false,"is_disabled":false,"rental_uris":{"android":"levelo://app?vid=de209029-a5b3-455f-ba80-339250aee2f8","ios":"levelo://app?vid=de209029-a5b3-455f-ba80-339250aee2f8"},"vehicle_type_id":"4","last_reported":1769584648,"current_range_meters":9600,"station_id":"ce4bh3h2rcd13ifvqdo0","pricing_plan_id":"cebpf4jnsgd1na2vs0mg"},{"bike_id":"8c072e3b-353a-4ad6-aa38-ac83b00c79d4","system_id":"levelo_inurba_marseille","lat":43.31329,"lon":5.38677,"is_reserved":false,"is_disabled":false,"rental_uris":{"android":"levelo://app?vid=8c072e3b-353a-4ad6-aa38-ac83b00c79d4","ios":"levelo://app?vid=8c072e3b-353a-4ad6-aa38-ac83b00c79d4"},"vehicle_type_id":"4","last_reported":1769584648,"current_range_meters":9600,"station_id":"","pricing_plan_id":"cebpf4jnsgd1na2vs0mg"},{"bike_id":"c98b11d0-0520-418d-bfc6-d6149e6ffac9","system_id":"levelo_inurba_marseille","lat":43.28472,"lon":5.48411,"is_reserved":false,"is_disabled":false,"rental_uris":{"android":"levelo://app?vid=c98b11d0-0520-418d-bfc6-d6149e6ffac9","ios":"levelo://app?vid=c98b11d0-0520-418d-bfc6-d6149e6ffac9"},"vehicle_type_id":"4","last_reported":1769584648,"current_range_meters":9600,"station_id":"st_d3svhcjqgbts73a3dn0g","pricing_plan_id":"cebpf4jnsgd1na2vs0mg"},{"bike_id":"c484ea94-e5c7-48cf-a591-75eaeb52cc1e","system_id":"levelo_inurba_marseille","lat":43.32649,"lon":5.40993,"is_reserved":false,"is_disabled":false,"rental_uris":{"android":"levelo://app?vid=c484ea94-e5c7-48cf-a591-75eaeb52cc1e","ios":"levelo://app?vid=c484ea94-e5c7-48cf-a591-75eaeb52cc1e"},"vehicle_type_id":"4","last_reported":1769584648,"current_range_meters":9600,"station_id":"ce4bhpp2rcd13ifvqhgg","pricing_plan_id":"cebpf4jnsgd1na2vs0mg"},{"bike_id":"36855e79-f7ac-4112-b45f-3779dd796963","system_id":"levelo_inurba_marseille","lat":43.30182,"lon":5.37353,"is_reserved":false,"is_disabled":false,"rental_uris":{"android":"levelo://app?vid=36855e79-f7ac-4112-b45f-3779dd796963","ios":"levelo://app?vid=36855e79-f7ac-4112-b45f-3779dd796963"},"vehicle_type_id":"4","last_reported":1769584648,"current_range_meters":9600,"station_id":"","pricing_plan_id":"cebpf4jnsgd1na2vs0mg"},{"bike_id":"8148cc3a-8742-4692-b37d-81dedc907656","system_id":"levelo_inurba_marseille","lat":43.29925,"lon":5.36517,"is_reserved":false,"is_disabled":false,"rental_uris":{"android":"levelo://app?vid=8148cc3a-8742-4692-b37d-81dedc907656","ios":"levelo://app?vid=8148cc3a-8742-4692-b37d-81dedc907656"},"vehicle_type_id":"4","last_reported":1769584648,"current_range_meters":9600,"station_id":"ce4bgm92rcd13ifvqbr0","pricing_plan_id":"cebpf4jnsgd1na2vs0mg"},{"bike_id":"9806da0f-d7e9-4daf-99fc-e3fd22a4da76","system_id":"levelo_inurba_marseille","lat":43.25935,"lon":5.40881,"is_reserved":false,"is_disabled":false,"rental_uris":{"android":"levelo://app?vid=9806da0f-d7e9-4daf-99fc-e3fd22a4da76","ios":"levelo://app?vid=9806da0f-d7e9-4daf-99fc-e3fd22a4da76"},"vehicle_type_id":"4","last_reported":1769584648,"current_range_meters":10000,"station_id":"ce4bhm92rcd13ifvqglg","pricing_plan_id":"cebpf4jnsgd1na2vs0mg"},{"bike_id":"d58f344c-cd0b-44a8-8dbf-ba727762a67b","system_id":"levelo_inurba_marseille","lat":43.23152,"lon":5.43696,"is_reserved":false,"is_disabled":false,"rental_uris":{"android":"levelo://app?vid=d58f344c-cd0b-44a8-8dbf-ba727762a67b","ios":"levelo://app?vid=d58f344c-cd0b-44a8-8dbf-ba727762a67b"},"vehicle_type_id":"4","last_reported":1769584648,"current_range_meters":10000,"station_id":"ce4bhmp2rcd13ifvqgog","pricing_plan_id":"cebpf4jnsgd1na2vs0mg"},{"bike_id":"e8f03a56-57c3-45d7-aa77-c0c99a59d5d8","system_id":"levelo_inurba_marseille","lat":43.31483,"lon":5.37304,"is_reserved":false,"is_disabled":false,"rental_uris":{"android":"levelo://app?vid=e8f03a56-57c3-45d7-aa77-c0c99a59d5d8","ios":"levelo://app?vid=e8f03a56-57c3-45d7-aa77-c0c99a59d5d8"},"vehicle_type_id":"4","last_reported":1769584648,"current_range_meters":10000,"station_id":"ce4bgt12rcd13ifvqcd0","pricing_plan_id":"cebpf4jnsgd1na2vs0mg"},{"bike_id":"3e6599b3-80f5-4cb4-a947-9865a5671465","system_id":"levelo_inurba_marseille","lat":43.27606,"lon":5.36164,"is_reserved":false,"is_disabled":false,"rental_uris":{"android":"levelo://app?vid=3e6599b3-80f5-4cb4-a947-9865a5671465","ios":"levelo://app?vid=3e6599b3-80f5-4cb4-a947-9865a5671465"},"vehicle_type_id":"4","last_reported":1769584648,"current_range_meters":10000,"station_id":"","pricing_plan_id":"cebpf4jnsgd1na2vs0mg"},{"bike_id":"312472ef-ec71-4255-ba04-19d354fd64d5","system_id":"levelo_inurba_marseille","lat":43.239624,"lon":5.366272,"is_reserved":false,"is_disabled":false,"rental_uris":{"android":"levelo://app?vid=312472ef-ec71-4255-ba04-19d354fd64d5","ios":"levelo://app?vid=312472ef-ec71-4255-ba04-19d354fd64d5"},"vehicle_type_id":"4","last_reported":1769584648,"current_range_meters":10000,"station_id":"ce4bhi12rcd13ifvqfp0","pricing_plan_id":"cebpf4jnsgd1na2vs0mg"},{"bike_id":"4964a424-0af3-42e2-bf0b-74b0ddd1ccbc","system_id":"levelo_inurba_marseille","lat":43.25673,"lon":5.38695,"is_reserved":false,"is_disabled":false,"rental_uris":{"android":"levelo://app?vid=4964a424-0af3-42e2-bf0b-74b0ddd1ccbc","ios":"levelo://app?vid=4964a424-0af3-42e2-bf0b-74b0ddd1ccbc"},"vehicle_type_id":"4","last_reported":1769584648,"current_range_meters":10000,"station_id":"","pricing_plan_id":"cebpf4jnsgd1na2vs0mg"},{"bike_id":"26516155-7022-452e-98b2-f7eda9554bb7","system_id":"levelo_inurba_marseille","lat":43.24653,"lon":5.38903,"is_reserved":false,"is_disabled":false,"rental_uris":{"android":"levelo://app?vid=26516155-7022-452e-98b2-f7eda9554bb7","ios":"levelo://app?vid=26516155-7022-452e-98b2-f7eda9554bb7"},"vehicle_type_id":"4","last_reported":1769584648,"current_range_meters":10000,"station_id":"ce4bhg12rcd13ifvqf60","pricing_plan_id":"cebpf4jnsgd1na2vs0mg"},{"bike_id":"fa3935ca-5664-431b-81b3-d462965b7a2a","system_id":"levelo_inurba_marseille","lat":43.23148,"lon":5.43724,"is_reserved":false,"is_disabled":false,"rental_uris":{"android":"levelo://app?vid=fa3935ca-5664-431b-81b3-d462965b7a2a","ios":"levelo://app?vid=fa3935ca-5664-431b-81b3-d462965b7a2a"},"vehicle_type_id":"4","last_reported":1769584648,"current_range_meters":10000,"station_id":"ce4bhmp2rcd13ifvqgog","pricing_plan_id":"cebpf4jnsgd1na2vs0mg"},{"bike_id":"c07f73fb-61ca-46b5-b7a6-c22c91a3d83d","system_id":"levelo_inurba_marseille","lat":43.32482,"lon":5.36563,"is_reserved":false,"is_disabled":false,"rental_uris":{"android":"levelo://app?vid=c07f73fb-61ca-46b5-b7a6-c22c91a3d83d","ios":"levelo://app?vid=c07f73fb-61ca-46b5-b7a6-c22c91a3d83d"},"vehicle_type_id":"4","last_reported":1769584648,"current_range_meters":10000,"station_id":"ce4bhs12rcd13ifvqhvg","pricing_plan_id":"cebpf4jnsgd1na2vs0mg"},{"bike_id":"2dcd229b-9a70-410f-96af-5a659ecc8110","system_id":"levelo_inurba_marseille","lat":43.24152,"lon":5.36395,"is_reserved":false,"is_disabled":false,"rental_uris":{"android":"levelo://app?vid=2dcd229b-9a70-410f-96af-5a659ecc8110","ios":"levelo://app?vid=2dcd229b-9a70-410f-96af-5a659ecc8110"},"vehicle_type_id":"4","last_reported":1769584648,"current_range_meters":10000,"station_id":"cpo36qri1sfpv3e86is0","pricing_plan_id":"cebpf4jnsgd1na2vs0mg"},{"bike_id":"c3641efd-82fa-4de2-a15a-e6b19a434bf3","system_id":"levelo_inurba_marseille","lat":43.23962,"lon":5.36643,"is_reserved":false,"is_disabled":false,"rental_uris":{"android":"levelo://app?vid=c3641efd-82fa-4de2-a15a-e6b19a434bf3","ios":"levelo://app?vid=c3641efd-82fa-4de2-a15a-e6b19a434bf3"},"vehicle_type_id":"4","last_reported":1769584648,"current_range_meters":10000,"station_id":"ce4bhi12rcd13ifvqfp0","pricing_plan_id":"cebpf4jnsgd1na2vs0mg"},{"bike_id":"819981c6-c09c-48f5-aa65-3e2fffd4d035","system_id":"levelo_inurba_marseille","lat":43.27203,"lon":5.39191,"is_reserved":false,"is_disabled":false,"rental_uris":{"android":"levelo://app?vid=819981c6-c09c-48f5-aa65-3e2fffd4d035","ios":"levelo://app?vid=819981c6-c09c-48f5-aa65-3e2fffd4d035"},"vehicle_type_id":"4","last_reported":1769584648,"current_range_meters":10000,"station_id":"ce4bhhp2rcd13ifvqfm0","pricing_plan_id":"cebpf4jnsgd1na2vs0mg"},{"bike_id":"0a7405ad-871c-4a38-944c-17ac55cc69b6","system_id":"levelo_inurba_marseille","lat":43.24182,"lon":5.36409,"is_reserved":false,"is_disabled":false,"rental_uris":{"android":"levelo://app?vid=0a7405ad-871c-4a38-944c-17ac55cc69b6","ios":"levelo://app?vid=0a7405ad-871c-4a38-944c-17ac55cc69b6"},"vehicle_type_id":"4","last_reported":1769584648,"current_range_meters":10000,"station_id":"cpo36qri1sfpv3e86is0","pricing_plan_id":"cebpf4jnsgd1na2vs0mg"},{"bike_id":"7316f60c-8b12-4f7d-9646-805365ea2132","system_id":"levelo_inurba_marseille","lat":43.24581,"lon":5.394,"is_reserved":false,"is_disabled":false,"rental_uris":{"android":"levelo://app?vid=7316f60c-8b12-4f7d-9646-805365ea2132","ios":"levelo://app?vid=7316f60c-8b12-4f7d-9646-805365ea2132"},"vehicle_type_id":"4","last_reported":1769584648,"current_range_meters":10000,"station_id":"","pricing_plan_id":"cebpf4jnsgd1na2vs0mg"},{"bike_id":"7467cb27-eaf1-4da2-8e26-27fbbc086518","system_id":"levelo_inurba_marseille","lat":43.29941,"lon":5.42653,"is_reserved":false,"is_disabled":false,"rental_uris":{"android":"levelo://app?vid=7467cb27-eaf1-4da2-8e26-27fbbc086518","ios":"levelo://app?vid=7467cb27-eaf1-4da2-8e26-27fbbc086518"},"vehicle_type_id":"4","last_reported":1769584648,"current_range_meters":10000,"station_id":"","pricing_plan_id":"cebpf4jnsgd1na2vs0mg"},{"bike_id":"cef89498-fbf9-4ad5-afa6-46a5eea10249","system_id":"levelo_inurba_marseille","lat":43.273359,"lon":5.409698,"is_reserved":false,"is_disabled":false,"rental_uris":{"android":"levelo://app?vid=cef89498-fbf9-4ad5-afa6-46a5eea10249","ios":"levelo://app?vid=cef89498-fbf9-4ad5-afa6-46a5eea10249"},"vehicle_type_id":"4","last_reported":1769584648,"current_range_meters":10000,"station_id":"","pricing_plan_id":"cebpf4jnsgd1na2vs0mg"},{"bike_id":"4bd6cb39-f26e-431f-9c48-bc9838a79167","system_id":"levelo_inurba_marseille","lat":43.2983,"lon":5.4406,"is_reserved":false,"is_disabled":false,"rental_uris":{"android":"levelo://app?vid=4bd6cb39-f26e-431f-9c48-bc9838a79167","ios":"levelo://app?vid=4bd6cb39-f26e-431f-9c48-bc9838a79167"},"vehicle_type_id":"4","last_reported":1769584648,"current_range_meters":10000,"station_id":"st_d3jp68qikq2c7381ktn0","pricing_plan_id":"cebpf4jnsgd1na2vs0mg"},{"bike_id":"12d18314-b173-4f53-8c34-39de8e2a6514","system_id":"levelo_inurba_marseille","lat":43.28436,"lon":5.38792,"is_reserved":false,"is_disabled":false,"rental_uris":{"android":"levelo://app?vid=12d18314-b173-4f53-8c34-39de8e2a6514","ios":"levelo://app?vid=12d18314-b173-4f53-8c34-39de8e2a6514"},"vehicle_type_id":"4","last_reported":1769584648,"current_range_meters":10800,"station_id":"","pricing_plan_id":"cebpf4jnsgd1na2vs0mg"},{"bike_id":"9530e525-99a6-44ef-9550-48c35496d598","system_id":"levelo_inurba_marseille","lat":43.33533,"lon":5.37473,"is_reserved":false,"is_disabled":false,"rental_uris":{"android":"levelo://app?vid=9530e525-99a6-44ef-9550-48c35496d598","ios":"levelo://app?vid=9530e525-99a6-44ef-9550-48c35496d598"},"vehicle_type_id":"4","last_reported":1769584648,"current_range_meters":10800,"station_id":"st_d46tts09ee8s73dlu43g","pricing_plan_id":"cebpf4jnsgd1na2vs0mg"},{"bike_id":"a9d61f59-4fb7-4f9c-8f78-ddfcb7d9a59d","system_id":"levelo_inurba_marseille","lat":43.30146,"lon":5.38084,"is_reserved":false,"is_disabled":false,"rental_uris":{"android":"levelo://app?vid=a9d61f59-4fb7-4f9c-8f78-ddfcb7d9a59d","ios":"levelo://app?vid=a9d61f59-4fb7-4f9c-8f78-ddfcb7d9a59d"},"vehicle_type_id":"4","last_reported":1769584648,"current_range_meters":10800,"station_id":"ce4bgjp2rcd13ifvqbh0","pricing_plan_id":"cebpf4jnsgd1na2vs0mg"},{"bike_id":"541aab47-c46a-45ce-9946-ea87420fea14","system_id":"levelo_inurba_marseille","lat":43.23191,"lon":5.3997,"is_reserved":false,"is_disabled":false,"rental_uris":{"android":"levelo://app?vid=541aab47-c46a-45ce-9946-ea87420fea14","ios":"levelo://app?vid=541aab47-c46a-45ce-9946-ea87420fea14"},"vehicle_type_id":"4","last_reported":1769584648,"current_range_meters":10800,"station_id":"ce4bhn12rcd13ifvqgqg","pricing_plan_id":"cebpf4jnsgd1na2vs0mg"},{"bike_id":"802f6e05-7249-407a-aac4-32d2041628b8","system_id":"levelo_inurba_marseille","lat":43.230582,"lon":5.354921,"is_reserved":false,"is_disabled":false,"rental_uris":{"android":"levelo://app?vid=802f6e05-7249-407a-aac4-32d2041628b8","ios":"levelo://app?vid=802f6e05-7249-407a-aac4-32d2041628b8"},"vehicle_type_id":"4","last_reported":1769584648,"current_range_meters":10800,"station_id":"cpo3342slgdg3j2ifvpg","pricing_plan_id":"cebpf4jnsgd1na2vs0mg"},{"bike_id":"982edc25-dfa9-4d3c-954a-e454025b01e5","system_id":"levelo_inurba_marseille","lat":43.31739,"lon":5.39013,"is_reserved":false,"is_disabled":false,"rental_uris":{"android":"levelo://app?vid=982edc25-dfa9-4d3c-954a-e454025b01e5","ios":"levelo://app?vid=982edc25-dfa9-4d3c-954a-e454025b01e5"},"vehicle_type_id":"4","last_reported":1769584648,"current_range_meters":10800,"station_id":"ce4bhqp2rcd13ifvqhng","pricing_plan_id":"cebpf4jnsgd1na2vs0mg"},{"bike_id":"e236f0a6-2e87-48ed-94ce-e49f696f4842","system_id":"levelo_inurba_marseille","lat":43.26582,"lon":5.375,"is_reserved":false,"is_disabled":false,"rental_uris":{"android":"levelo://app?vid=e236f0a6-2e87-48ed-94ce-e49f696f4842","ios":"levelo://app?vid=e236f0a6-2e87-48ed-94ce-e49f696f4842"},"vehicle_type_id":"4","last_reported":1769584648,"current_range_meters":10800,"station_id":"","pricing_plan_id":"cebpf4jnsgd1na2vs0mg"},{"bike_id":"6c6890eb-05e5-44b7-8d4d-5528494830c4","system_id":"levelo_inurba_marseille","lat":43.289441,"lon":5.364027,"is_reserved":false,"is_disabled":true,"rental_uris":{"android":"levelo://app?vid=6c6890eb-05e5-44b7-8d4d-5528494830c4","ios":"levelo://app?vid=6c6890eb-05e5-44b7-8d4d-5528494830c4"},"vehicle_type_id":"4","last_reported":1769584648,"current_range_meters":10800,"station_id":"ce4bhc92rcd13ifvqetg","pricing_plan_id":"cebpf4jnsgd1na2vs0mg"},{"bike_id":"def94ae7-cad0-4b98-8d66-92c169e98d5f","system_id":"levelo_inurba_marseille","lat":43.23962,"lon":5.36635,"is_reserved":false,"is_disabled":false,"rental_uris":{"android":"levelo://app?vid=def94ae7-cad0-4b98-8d66-92c169e98d5f","ios":"levelo://app?vid=def94ae7-cad0-4b98-8d66-92c169e98d5f"},"vehicle_type_id":"4","last_reported":1769584648,"current_range_meters":10800,"station_id":"ce4bhi12rcd13ifvqfp0","pricing_plan_id":"cebpf4jnsgd1na2vs0mg"},{"bike_id":"7246c703-4166-4230-b118-edb0686b40ee","system_id":"levelo_inurba_marseille","lat":43.33154,"lon":5.377,"is_reserved":false,"is_disabled":false,"rental_uris":{"android":"levelo://app?vid=7246c703-4166-4230-b118-edb0686b40ee","ios":"levelo://app?vid=7246c703-4166-4230-b118-edb0686b40ee"},"vehicle_type_id":"4","last_reported":1769584648,"current_range_meters":10800,"station_id":"st_d46cu089ee8s73dldbu0","pricing_plan_id":"cebpf4jnsgd1na2vs0mg"},{"bike_id":"29e658f4-2359-46f1-90c1-df0499696a70","system_id":"levelo_inurba_marseille","lat":43.30123,"lon":5.43114,"is_reserved":false,"is_disabled":false,"rental_uris":{"android":"levelo://app?vid=29e658f4-2359-46f1-90c1-df0499696a70","ios":"levelo://app?vid=29e658f4-2359-46f1-90c1-df0499696a70"},"vehicle_type_id":"4","last_reported":1769584648,"current_range_meters":11200,"station_id":"st_d3js3co5814s73ftftug","pricing_plan_id":"cebpf4jnsgd1na2vs0mg"},{"bike_id":"7b6d8a8b-d351-4282-bf84-c6e7865bd8af","system_id":"levelo_inurba_marseille","lat":43.24631,"lon":5.38899,"is_reserved":false,"is_disabled":false,"rental_uris":{"android":"levelo://app?vid=7b6d8a8b-d351-4282-bf84-c6e7865bd8af","ios":"levelo://app?vid=7b6d8a8b-d351-4282-bf84-c6e7865bd8af"},"vehicle_type_id":"4","last_reported":1769584648,"current_range_meters":11200,"station_id":"ce4bhg12rcd13ifvqf60","pricing_plan_id":"cebpf4jnsgd1na2vs0mg"},{"bike_id":"ae137984-25be-4bf6-91de-8f22583dc351","system_id":"levelo_inurba_marseille","lat":43.30468,"lon":5.37919,"is_reserved":false,"is_disabled":false,"rental_uris":{"android":"levelo://app?vid=ae137984-25be-4bf6-91de-8f22583dc351","ios":"levelo://app?vid=ae137984-25be-4bf6-91de-8f22583dc351"},"vehicle_type_id":"4","last_reported":1769584648,"current_range_meters":11200,"station_id":"ce4bgup2rcd13ifvqcn0","pricing_plan_id":"cebpf4jnsgd1na2vs0mg"},{"bike_id":"1ea957b9-9175-4b85-8016-a64b1d81ef6c","system_id":"levelo_inurba_marseille","lat":43.28452,"lon":5.35889,"is_reserved":false,"is_disabled":true,"rental_uris":{"android":"levelo://app?vid=1ea957b9-9175-4b85-8016-a64b1d81ef6c","ios":"levelo://app?vid=1ea957b9-9175-4b85-8016-a64b1d81ef6c"},"vehicle_type_id":"4","last_reported":1769584648,"current_range_meters":11200,"station_id":"ce4bhah2rcd13ifvqei0","pricing_plan_id":"cebpf4jnsgd1na2vs0mg"},{"bike_id":"9ed7609a-cb80-435f-ad2f-eb10d300cd91","system_id":"levelo_inurba_marseille","lat":43.28107,"lon":5.37853,"is_reserved":false,"is_disabled":false,"rental_uris":{"android":"levelo://app?vid=9ed7609a-cb80-435f-ad2f-eb10d300cd91","ios":"levelo://app?vid=9ed7609a-cb80-435f-ad2f-eb10d300cd91"},"vehicle_type_id":"4","last_reported":1769584648,"current_range_meters":11200,"station_id":"ce4bha12rcd13ifvqee0","pricing_plan_id":"cebpf4jnsgd1na2vs0mg"},{"bike_id":"360bd922-c036-43fc-9f95-f2099189cf17","system_id":"levelo_inurba_marseille","lat":43.250037,"lon":5.389186,"is_reserved":false,"is_disabled":false,"rental_uris":{"android":"levelo://app?vid=360bd922-c036-43fc-9f95-f2099189cf17","ios":"levelo://app?vid=360bd922-c036-43fc-9f95-f2099189cf17"},"vehicle_type_id":"4","last_reported":1769584648,"current_range_meters":11200,"station_id":"ce4bhgp2rcd13ifvqfd0","pricing_plan_id":"cebpf4jnsgd1na2vs0mg"},{"bike_id":"963c2162-d7a9-4bf4-8c9d-638ae75d44bd","system_id":"levelo_inurba_marseille","lat":43.24157,"lon":5.36392,"is_reserved":false,"is_disabled":false,"rental_uris":{"android":"levelo://app?vid=963c2162-d7a9-4bf4-8c9d-638ae75d44bd","ios":"levelo://app?vid=963c2162-d7a9-4bf4-8c9d-638ae75d44bd"},"vehicle_type_id":"4","last_reported":1769584648,"current_range_meters":11200,"station_id":"cpo36qri1sfpv3e86is0","pricing_plan_id":"cebpf4jnsgd1na2vs0mg"},{"bike_id":"2b9c2ac6-0f85-4c6a-a497-526227ec3ab8","system_id":"levelo_inurba_marseille","lat":43.24636,"lon":5.43163,"is_reserved":false,"is_disabled":false,"rental_uris":{"android":"levelo://app?vid=2b9c2ac6-0f85-4c6a-a497-526227ec3ab8","ios":"levelo://app?vid=2b9c2ac6-0f85-4c6a-a497-526227ec3ab8"},"vehicle_type_id":"4","last_reported":1769584648,"current_range_meters":11200,"station_id":"st_d2m6c4gdas8pm72e190g","pricing_plan_id":"cebpf4jnsgd1na2vs0mg"},{"bike_id":"2d655a97-bd06-49e9-b2b4-efa072ca5fda","system_id":"levelo_inurba_marseille","lat":43.32098,"lon":5.36784,"is_reserved":false,"is_disabled":false,"rental_uris":{"android":"levelo://app?vid=2d655a97-bd06-49e9-b2b4-efa072ca5fda","ios":"levelo://app?vid=2d655a97-bd06-49e9-b2b4-efa072ca5fda"},"vehicle_type_id":"4","last_reported":1769584648,"current_range_meters":11200,"station_id":"ce4bhrh2rcd13ifvqhug","pricing_plan_id":"cebpf4jnsgd1na2vs0mg"},{"bike_id":"4a21105f-0a21-4324-a8f5-ce9579dee720","system_id":"levelo_inurba_marseille","lat":43.26935,"lon":5.38639,"is_reserved":false,"is_disabled":false,"rental_uris":{"android":"levelo://app?vid=4a21105f-0a21-4324-a8f5-ce9579dee720","ios":"levelo://app?vid=4a21105f-0a21-4324-a8f5-ce9579dee720"},"vehicle_type_id":"4","last_reported":1769584648,"current_range_meters":11200,"station_id":"ce4bhh92rcd13ifvqfh0","pricing_plan_id":"cebpf4jnsgd1na2vs0mg"},{"bike_id":"1bfe2930-bdb0-4422-9fe9-421cffed6f81","system_id":"levelo_inurba_marseille","lat":43.259194,"lon":5.409077,"is_reserved":false,"is_disabled":false,"rental_uris":{"android":"levelo://app?vid=1bfe2930-bdb0-4422-9fe9-421cffed6f81","ios":"levelo://app?vid=1bfe2930-bdb0-4422-9fe9-421cffed6f81"},"vehicle_type_id":"4","last_reported":1769584648,"current_range_meters":11200,"station_id":"ce4bhm92rcd13ifvqglg","pricing_plan_id":"cebpf4jnsgd1na2vs0mg"},