{"last_updated":1748156934,"ttl":60,"version":"2.2","data":{"bikes":[{"bike_id":"a2f1296c-e4fc-45d6-be73-b896b487012e","system_id":"levelo_inurba_marseille","lat":43.28601,"lon":5.35109,"is_reserved":false,"is_disabled":true,"rental_uris":{"android":"levelo://app?vid=a2f1296c-e4fc-45d6-be73-b896b487012e","ios":"levelo://app?vid=a2f1296c-e4fc-45d6-be73-b896b487012e"},"vehicle_type_id":"4","last_reported":1748156935,"current_range_meters":2800,"station_id":"ce4bhch2rcd13ifvqeug","pricing_plan_id":"cebpf4jnsgd1na2vs0mg"},{"bike_id":"3480dc63-6c53-4f8b-aa9c-a1ee019522f3","system_id":"levelo_inurba_marseille","lat":43.25723,"lon":5.41109,"is_reserved":false,"is_disabled":false,"rental_uris":{"android":"levelo://app?vid=3480dc63-6c53-4f8b-aa9c-a1ee019522f3","ios":"levelo://app?vid=3480dc63-6c53-4f8b-aa9c-a1ee019522f3"},"vehicle_type_id":"4","last_reported":1748156935,"current_range_meters":2800,"station_id":"ce4bhkp2rcd13ifvqgd0","pricing_plan_id":"cebpf4jnsgd1na2vs0mg"},{"bike_id":"398ac2c0-7185-42b7-b995-ea97c3f0a79d","system_id":"levelo_inurba_marseille","lat":43.232093,"lon":5.355545,"is_reserved":false,"is_disabled":false,"rental_uris":{"android":"levelo://app?vid=398ac2c0-7185-42b7-b995-ea97c3f0a79d","ios":"levelo://app?vid=398ac2c0-7185-42b7-b995-ea97c3f0a79d"},"vehicle_type_id":"4","last_reported":1748156935,"current_range_meters":2800,"station_id":"ce4bhu92rcd13ifvqi70","pricing_plan_id":"cebpf4jnsgd1na2vs0mg"},{"bike_id":"284b577c-0542-435a-953c-52a6e8a6b86b","system_id":"levelo_inurba_marseille","lat":43.290384,"lon":5.399719,"is_reserved":false,"is_disabled":false,"rental_uris":{"android":"levelo://app?vid=284b577c-0542-435a-953c-52a6e8a6b86b","ios":"levelo://app?vid=284b577c-0542-435a-953c-52a6e8a6b86b"},"vehicle_type_id":"4","last_reported":1748156935,"current_range_meters":2800,"station_id":"ce4bh392rcd13ifvqdm0","pricing_plan_id":"cebpf4jnsgd1na2vs0mg"},{"bike_id":"194666df-d60f-4dbf-918c-87098827f0fb","system_id":"levelo_inurba_marseille","lat":43.29403,"lon":5.37919,"is_reserved":false,"is_disabled":true,"rental_uris":{"android":"levelo://app?vid=194666df-d60f-4dbf-918c-87098827f0fb","ios":"levelo://app?vid=194666df-d60f-4dbf-918c-87098827f0fb"},"vehicle_type_id":"4","last_reported":1748156935,"current_range_meters":2800,"station_id":"","pricing_plan_id":"cebpf4jnsgd1na2vs0mg"},{"bike_id":"83f5bdfb-709b-4f8b-a793-bf2712ea28f9","system_id":"levelo_inurba_marseille","lat":43.30144,"lon":5.38091,"is_reserved":false,"is_disabled":false,"rental_uris":{"android":"levelo://app?vid=83f5bdfb-709b-4f8b-a793-bf2712ea28f9","ios":"levelo://app?vid=83f5bdfb-709b-4f8b-a793-bf2712ea28f9"},"vehicle_type_id":"4","last_reported":1748156935,"current_range_meters":2800,"station_id":"ce4bgjp2rcd13ifvqbh0","pricing_plan_id":"cebpf4jnsgd1na2vs0mg"},{"bike_id":"dcc8952c-72f3-491b-a5f7-8b6adc5da2dd","system_id":"levelo_inurba_marseille","lat":43.293003,"lon":5.371803,"is_reserved":false,"is_disabled":true,"rental_uris":{"android":"levelo://app?vid=dcc8952c-72f3-491b-a5f7-8b6adc5da2dd","ios":"levelo://app?vid=dcc8952c-72f3-491b-a5f7-8b6adc5da2dd"},"vehicle_type_id":"4","last_reported":1748156935,"current_range_meters":2800,"station_id":"ce4bgh92rcd13ifvqb40","pricing_plan_id":"cebpf4jnsgd1na2vs0mg"},{"bike_id":"fe336ded-9bcb-4f5e-99dd-6fa7c6b64bf7","system_id":"levelo_inurba_marseille","lat":43.27942,"lon":5.41011,"is_reserved":false,"is_disabled":false,"rental_uris":{"android":"levelo://app?vid=fe336ded-9bcb-4f5e-99dd-6fa7c6b64bf7","ios":"levelo://app?vid=fe336ded-9bcb-4f5e-99dd-6fa7c6b64bf7"},"vehicle_type_id":"4","last_reported":1748156935,"current_range_meters":3200,"station_id":"ce4bhnp2rcd13ifvqh0g","pricing_plan_id":"cebpf4jnsgd1na2vs0mg"},{"bike_id":"2bc939ae-6e84-4f6e-a090-fd6832ec0eac","system_id":"levelo_inurba_marseille","lat":43.322353,"lon":5.439667,"is_reserved":false,"is_disabled":false,"rental_uris":{"android":"levelo://app?vid=2bc939ae-6e84-4f6e-a090-fd6832ec0eac","ios":"levelo://app?vid=2bc939ae-6e84-4f6e-a090-fd6832ec0eac"},"vehicle_type_id":"4","last_reported":1748156935,"current_range_meters":3200,"station_id":"","pricing_plan_id":"cebpf4jnsgd1na2vs0mg"},{"bike_id":"3ae8acbf-de52-4f99-a222-ca5e8dbbd9da","system_id":"levelo_inurba_marseille","lat":43.27045,"lon":5.42301,"is_reserved":false,"is_disabled":true,"rental_uris":{"android":"levelo://app?vid=3ae8acbf-de52-4f99-a222-ca5e8dbbd9da","ios":"levelo://app?vid=3ae8acbf-de52-4f99-a222-ca5e8dbbd9da"},"vehicle_type_id":"4","last_reported":1748156935,"current_range_meters":3200,"station_id":"ce4bhk92rcd13ifvqgb0","pricing_plan_id":"cebpf4jnsgd1na2vs0mg"},{"bike_id":"3a2244df-611f-4b6d-a778-36b52e274311","system_id":"levelo_inurba_marseille","lat":43.24659,"lon":5.38163,"is_reserved":false,"is_disabled":false,"rental_uris":{"android":"levelo://app?vid=3a2244df-611f-4b6d-a778-36b52e274311","ios":"levelo://app?vid=3a2244df-611f-4b6d-a778-36b52e274311"},"vehicle_type_id":"4","last_reported":1748156935,"current_range_meters":3200,"station_id":"ce4bhih2rcd13ifvqfr0","pricing_plan_id":"cebpf4jnsgd1na2vs0mg"},{"bike_id":"8e57d20b-c38b-459f-8f5e-0fe106cc372c","system_id":"levelo_inurba_marseille","lat":43.253222,"lon":5.393682,"is_reserved":false,"is_disabled":false,"rental_uris":{"android":"levelo://app?vid=8e57d20b-c38b-459f-8f5e-0fe106cc372c","ios":"levelo://app?vid=8e57d20b-c38b-459f-8f5e-0fe106cc372c"},"vehicle_type_id":"4","last_reported":1748156935,"current_range_meters":3600,"station_id":"","pricing_plan_id":"cebpf4jnsgd1na2vs0mg"},{"bike_id":"a70fd15a-39d7-485d-b9e1-96a1f3cbba09","system_id":"levelo_inurba_marseille","lat":43.33013,"lon":5.39046,"is_reserved":false,"is_disabled":false,"rental_uris":{"android":"levelo://app?vid=a70fd15a-39d7-485d-b9e1-96a1f3cbba09","ios":"levelo://app?vid=a70fd15a-39d7-485d-b9e1-96a1f3cbba09"},"vehicle_type_id":"4","last_reported":1748156935,"current_range_meters":3600,"station_id":"ce4bhr92rcd13ifvqhrg","pricing_plan_id":"cebpf4jnsgd1na2vs0mg"},{"bike_id":"b1cd7696-67f8-4eff-91e0-21b942722290","system_id":"levelo_inurba_marseille","lat":43.304257,"lon":5.38889,"is_reserved":false,"is_disabled":false,"rental_uris":{"android":"levelo://app?vid=b1cd7696-67f8-4eff-91e0-21b942722290","ios":"levelo://app?vid=b1cd7696-67f8-4eff-91e0-21b942722290"},"vehicle_type_id":"4","last_reported":1748156935,"current_range_meters":3600,"station_id":"ce4bgk12rcd13ifvqbi0","pricing_plan_id":"cebpf4jnsgd1na2vs0mg"},{"bike_id":"21d4ae98-4a80-4105-9261-58511cd1d555","system_id":"levelo_inurba_marseille","lat":43.295546,"lon":5.422898,"is_reserved":false,"is_disabled":false,"rental_uris":{"android":"levelo://app?vid=21d4ae98-4a80-4105-9261-58511cd1d555","ios":"levelo://app?vid=21d4ae98-4a80-4105-9261-58511cd1d555"},"vehicle_type_id":"4","last_reported":1748156935,"current_range_meters":3600,"station_id":"ce4bhph2rcd13ifvqhdg","pricing_plan_id":"cebpf4jnsgd1na2vs0mg"},{"bike_id":"d256c6a4-d35b-4c32-b7db-2bac8ab63b70","system_id":"levelo_inurba_marseille","lat":43.231926,"lon":5.35552,"is_reserved":false,"is_disabled":false,"rental_uris":{"android":"levelo://app?vid=d256c6a4-d35b-4c32-b7db-2bac8ab63b70","ios":"levelo://app?vid=d256c6a4-d35b-4c32-b7db-2bac8ab63b70"},"vehicle_type_id":"4","last_reported":1748156935,"current_range_meters":4000,"station_id":"ce4bhu92rcd13ifvqi70","pricing_plan_id":"cebpf4jnsgd1na2vs0mg"},{"bike_id":"37b855d1-c279-4daa-8477-3016aed7898e","system_id":"levelo_inurba_marseille","lat":43.29498,"lon":5.42277,"is_reserved":false,"is_disabled":false,"rental_uris":{"android":"levelo://app?vid=37b855d1-c279-4daa-8477-3016aed7898e","ios":"levelo://app?vid=37b855d1-c279-4daa-8477-3016aed7898e"},"vehicle_type_id":"4","last_reported":1748156935,"current_range_meters":4000,"station_id":"","pricing_plan_id":"cebpf4jnsgd1na2vs0mg"},{"bike_id":"fa529a29-8d21-4f13-9783-e1708a99c344","system_id":"levelo_inurba_marseille","lat":43.246516,"lon":5.388955,"is_reserved":false,"is_disabled":false,"rental_uris":{"android":"levelo://app?vid=fa529a29-8d21-4f13-9783-e1708a99c344","ios":"levelo://app?vid=fa529a29-8d21-4f13-9783-e1708a99c344"},"vehicle_type_id":"4","last_reported":1748156935,"current_range_meters":4800,"station_id":"ce4bhlh2rcd13ifvqgig","pricing_plan_id":"cebpf4jnsgd1na2vs0mg"},{"bike_id":"5aff08f0-96dc-4aa7-83ce-16fcd3250d39","system_id":"levelo_inurba_marseille","lat":43.30883,"lon":5.39645,"is_reserved":false,"is_disabled":false,"rental_uris":{"android":"levelo://app?vid=5aff08f0-96dc-4aa7-83ce-16fcd3250d39","ios":"levelo://app?vid=5aff08f0-96dc-4aa7-83ce-16fcd3250d39"},"vehicle_type_id":"4","last_reported":1748156935,"current_range_meters":4800,"station_id":"ce4bh012rcd13ifvqcv0","pricing_plan_id":"cebpf4jnsgd1na2vs0mg"},{"bike_id":"24af8b93-e41b-4875-a755-f50e51e0b77e","system_id":"levelo_inurba_marseille","lat":43.23201,"lon":5.35543,"is_reserved":false,"is_disabled":false,"rental_uris":{"android":"levelo://app?vid=24af8b93-e41b-4875-a755-f50e51e0b77e","ios":"levelo://app?vid=24af8b93-e41b-4875-a755-f50e51e0b77e"},"vehicle_type_id":"4","last_reported":1748156935,"current_range_meters":4800,"station_id":"ce4bhu92rcd13ifvqi70","pricing_plan_id":"cebpf4jnsgd1na2vs0mg"},{"bike_id":"43e02c31-6e3f-4ffe-8537-f198543e5fc1","system_id":"levelo_inurba_marseille","lat":43.29725,"lon":5.37687,"is_reserved":false,"is_disabled":true,"rental_uris":{"android":"levelo://app?vid=43e02c31-6e3f-4ffe-8537-f198543e5fc1","ios":"levelo://app?vid=43e02c31-6e3f-4ffe-8537-f198543e5fc1"},"vehicle_type_id":"4","last_reported":1748156935,"current_range_meters":4800,"station_id":"ce4bgkh2rcd13ifvqbl0","pricing_plan_id":"cebpf4jnsgd1na2vs0mg"},{"bike_id":"caf1e107-9dfd-47fc-aae0-9606d8eca857","system_id":"levelo_inurba_marseille","lat":43.27369,"lon":5.36338,"is_reserved":false,"is_disabled":true,"rental_uris":{"android":"levelo://app?vid=caf1e107-9dfd-47fc-aae0-9606d8eca857","ios":"levelo://app?vid=caf1e107-9dfd-47fc-aae0-9606d8eca857"},"vehicle_type_id":"4","last_reported":1748156935,"current_range_meters":5600,"station_id":"","pricing_plan_id":"cebpf4jnsgd1na2vs0mg"},{"bike_id":"9d6f1d4e-ed40-4930-ba4a-59597809b547","system_id":"levelo_inurba_marseille","lat":43.23185,"lon":5.35564,"is_reserved":false,"is_disabled":false,"rental_uris":{"android":"levelo://app?vid=9d6f1d4e-ed40-4930-ba4a-59597809b547","ios":"levelo://app?vid=9d6f1d4e-ed40-4930-ba4a-59597809b547"},"vehicle_type_id":"4","last_reported":1748156935,"current_range_meters":5600,"station_id":"ce4bhu92rcd13ifvqi70","pricing_plan_id":"cebpf4jnsgd1na2vs0mg"},{"bike_id":"258fdb47-572e-4fa1-a7da-d0c9822f4f2d","system_id":"levelo_inurba_marseille","lat":43.29223,"lon":5.36057,"is_reserved":false,"is_disabled":false,"rental_uris":{"android":"levelo://app?vid=258fdb47-572e-4fa1-a7da-d0c9822f4f2d","ios":"levelo://app?vid=258fdb47-572e-4fa1-a7da-d0c9822f4f2d"},"vehicle_type_id":"4","last_reported":1748156935,"current_range_meters":5600,"station_id":"ce4bhbh2rcd13ifvqeqg","pricing_plan_id":"cebpf4jnsgd1na2vs0mg"},{"bike_id":"2920147d-122b-417b-abcf-ba50572b0890","system_id":"levelo_inurba_marseille","lat":43.2319,"lon":5.35578,"is_reserved":false,"is_disabled":false,"rental_uris":{"android":"levelo://app?vid=2920147d-122b-417b-abcf-ba50572b0890","ios":"levelo://app?vid=2920147d-122b-417b-abcf-ba50572b0890"},"vehicle_type_id":"4","last_reported":1748156935,"current_range_meters":5600,"station_id":"ce4bhu92rcd13ifvqi70","pricing_plan_id":"cebpf4jnsgd1na2vs0mg"},{"bike_id":"a17a842f-ba04-4d0e-9f38-09b9d8144085","system_id":"levelo_inurba_marseille","lat":43.269154,"lon":5.402742,"is_reserved":false,"is_disabled":true,"rental_uris":{"android":"levelo://app?vid=a17a842f-ba04-4d0e-9f38-09b9d8144085","ios":"levelo://app?vid=a17a842f-ba04-4d0e-9f38-09b9d8144085"},"vehicle_type_id":"4","last_reported":1748156935,"current_range_meters":5600,"station_id":"cjm6bp8fraef2m0cb0m0","pricing_plan_id":"cebpf4jnsgd1na2vs0mg"},{"bike_id":"e45ee233-d6b1-41b7-bc25-7b859c2db130","system_id":"levelo_inurba_marseille","lat":43.29806,"lon":5.38077,"is_reserved":false,"is_disabled":false,"rental_uris":{"android":"levelo://app?vid=e45ee233-d6b1-41b7-bc25-7b859c2db130","ios":"levelo://app?vid=e45ee233-d6b1-41b7-bc25-7b859c2db130"},"vehicle_type_id":"4","last_reported":1748156935,"current_range_meters":5600,"station_id":"ce4bgip2rcd13ifvqbb0","pricing_plan_id":"cebpf4jnsgd1na2vs0mg"},{"bike_id":"c121f3d2-6b16-4d6f-a3c0-80a5cc7487de","system_id":"levelo_inurba_marseille","lat":43.297132,"lon":5.366275,"is_reserved":false,"is_disabled":false,"rental_uris":{"android":"levelo://app?vid=c121f3d2-6b16-4d6f-a3c0-80a5cc7487de","ios":"levelo://app?vid=c121f3d2-6b16-4d6f-a3c0-80a5cc7487de"},"vehicle_type_id":"4","last_reported":1748156935,"current_range_meters":5600,"station_id":"ce4bgn12rcd13ifvqbt0","pricing_plan_id":"cebpf4jnsgd1na2vs0mg"},{"bike_id":"c0b51b19-5a3c-47b6-a728-20e9b0d3fca2","system_id":"levelo_inurba_marseille","lat":43.2175,"lon":5.34625,"is_reserved":false,"is_disabled":true,"rental_uris":{"android":"levelo://app?vid=c0b51b19-5a3c-47b6-a728-20e9b0d3fca2","ios":"levelo://app?vid=c0b51b19-5a3c-47b6-a728-20e9b0d3fca2"},"vehicle_type_id":"4","last_reported":1748156935,"current_range_meters":5600,"station_id":"st_cvj6r9ubvosntc0bgbag","pricing_plan_id":"cebpf4jnsgd1na2vs0mg"},{"bike_id":"13fdf9f5-cec8-4026-80f5-b5e3db77f7b1","system_id":"levelo_inurba_marseille","lat":43.240638,"lon":5.377619,"is_reserved":false,"is_disabled":false,"rental_uris":{"android":"levelo://app?vid=13fdf9f5-cec8-4026-80f5-b5e3db77f7b1","ios":"levelo://app?vid=13fdf9f5-cec8-4026-80f5-b5e3db77f7b1"},"vehicle_type_id":"4","last_reported":1748156935,"current_range_meters":6000,"station_id":"ce4bhnp2rcd13ifvqgvg","pricing_plan_id":"cebpf4jnsgd1na2vs0mg"},{"bike_id":"ccf8f055-3943-4d1f-8422-80c8d7e361da","system_id":"levelo_inurba_marseille","lat":43.25829,"lon":5.39416,"is_reserved":false,"is_disabled":false,"rental_uris":{"android":"levelo://app?vid=ccf8f055-3943-4d1f-8422-80c8d7e361da","ios":"levelo://app?vid=ccf8f055-3943-4d1f-8422-80c8d7e361da"},"vehicle_type_id":"4","last_reported":1748156935,"current_range_meters":6000,"station_id":"ce4bhip2rcd13ifvqft0","pricing_plan_id":"cebpf4jnsgd1na2vs0mg"},{"bike_id":"9cf27f2d-4ac6-4717-93ce-55bc5dbf8c58","system_id":"levelo_inurba_marseille","lat":43.24697,"lon":5.38105,"is_reserved":false,"is_disabled":false,"rental_uris":{"android":"levelo://app?vid=9cf27f2d-4ac6-4717-93ce-55bc5dbf8c58","ios":"levelo://app?vid=9cf27f2d-4ac6-4717-93ce-55bc5dbf8c58"},"vehicle_type_id":"4","last_reported":1748156935,"current_range_meters":6000,"station_id":"","pricing_plan_id":"cebpf4jnsgd1na2vs0mg"},{"bike_id":"7033f29b-2f82-40a9-922d-36b6315763bf","system_id":"levelo_inurba_marseille","lat":43.25116,"lon":5.40343,"is_reserved":false,"is_disabled":true,"rental_uris":{"android":"levelo://app?vid=7033f29b-2f82-40a9-922d-36b6315763bf","ios":"levelo://app?vid=7033f29b-2f82-40a9-922d-36b6315763bf"},"vehicle_type_id":"4","last_reported":1748156935,"current_range_meters":6000,"station_id":"ce4bhlh2rcd13ifvqgig","pricing_plan_id":"cebpf4jnsgd1na2vs0mg"},{"bike_id":"c16413fd-5d65-4ca2-8681-abb95bdf2d2a","system_id":"levelo_inurba_marseille","lat":43.30949,"lon":5.37144,"is_reserved":false,"is_disabled":false,"rental_uris":{"android":"levelo://app?vid=c16413fd-5d65-4ca2-8681-abb95bdf2d2a","ios":"levelo://app?vid=c16413fd-5d65-4ca2-8681-abb95bdf2d2a"},"vehicle_type_id":"4","last_reported":1748156935,"current_range_meters":6000,"station_id":"","pricing_plan_id":"cebpf4jnsgd1na2vs0mg"},{"bike_id":"fd358430-18f3-4e72-af8e-146c21e7dfb2","system_id":"levelo_inurba_marseille","lat":43.278336,"lon":5.392084,"is_reserved":false,"is_disabled":true,"rental_uris":{"android":"levelo://app?vid=fd358430-18f3-4e72-af8e-146c21e7dfb2","ios":"levelo://app?vid=fd358430-18f3-4e72-af8e-146c21e7dfb2"},"vehicle_type_id":"4","last_reported":1748156935,"current_range_meters":6000,"station_id":"ce4bhjp2rcd13ifvqga0","pricing_plan_id":"cebpf4jnsgd1na2vs0mg"},{"bike_id":"757c0c5f-e628-4578-ae97-938654a8725a","system_id":"levelo_inurba_marseille","lat":43.30919,"lon":5.40128,"is_reserved":false,"is_disabled":true,"rental_uris":{"android":"levelo://app?vid=757c0c5f-e628-4578-ae97-938654a8725a","ios":"levelo://app?vid=757c0c5f-e628-4578-ae97-938654a8725a"},"vehicle_type_id":"4","last_reported":1748156935,"current_range_meters":6400,"station_id":"ce4bgvp2rcd13ifvqct0","pricing_plan_id":"cebpf4jnsgd1na2vs0mg"},{"bike_id":"c8f48b82-02ee-427e-b5b1-64a05301ddb6","system_id":"levelo_inurba_marseille","lat":43.3025,"lon":5.40054,"is_reserved":false,"is_disabled":false,"rental_uris":{"android":"levelo://app?vid=c8f48b82-02ee-427e-b5b1-64a05301ddb6","ios":"levelo://app?vid=c8f48b82-02ee-427e-b5b1-64a05301ddb6"},"vehicle_type_id":"4","last_reported":1748156935,"current_range_meters":6400,"station_id":"ce4bgvh2rcd13ifvqcs0","pricing_plan_id":"cebpf4jnsgd1na2vs0mg"},{"bike_id":"bc7f89a1-e429-4d3e-a5d8-31ae772b0570","system_id":"levelo_inurba_marseille","lat":43.2511,"lon":5.40319,"is_reserved":false,"is_disabled":false,"rental_uris":{"android":"levelo://app?vid=bc7f89a1-e429-4d3e-a5d8-31ae772b0570","ios":"levelo://app?vid=bc7f89a1-e429-4d3e-a5d8-31ae772b0570"},"vehicle_type_id":"4","last_reported":1748156935,"current_range_meters":6400,"station_id":"ce4bhlh2rcd13ifvqgig","pricing_plan_id":"cebpf4jnsgd1na2vs0mg"},{"bike_id":"b3836e6a-b05b-4ba7-ae61-833bde9258fe","system_id":"levelo_inurba_marseille","lat":43.3294,"lon":5.45221,"is_reserved":false,"is_disabled":false,"rental_uris":{"android":"levelo://app?vid=b3836e6a-b05b-4ba7-ae61-833bde9258fe","ios":"levelo://app?vid=b3836e6a-b05b-4ba7-ae61-833bde9258fe"},"vehicle_type_id":"4","last_reported":1748156935,"current_range_meters":6400,"station_id":"","pricing_plan_id":"cebpf4jnsgd1na2vs0mg"},{"bike_id":"b9c2ccd4-cfa0-4f0c-89c5-b4326d242752","system_id":"levelo_inurba_marseille","lat":43.24082,"lon":5.37785,"is_reserved":false,"is_disabled":false,"rental_uris":{"android":"levelo://app?vid=b9c2ccd4-cfa0-4f0c-89c5-b4326d242752","ios":"levelo://app?vid=b9c2ccd4-cfa0-4f0c-89c5-b4326d242752"},"vehicle_type_id":"4","last_reported":1748156935,"current_range_meters":6800,"station_id":"ce4bhnp2rcd13ifvqgvg","pricing_plan_id":"cebpf4jnsgd1na2vs0mg"},{"bike_id":"bfd633be-a7e6-4d11-96e6-7ca9f4f58ac5","system_id":"levelo_inurba_marseille","lat":43.303155,"lon":5.404449,"is_reserved":false,"is_disabled":false,"rental_uris":{"android":"levelo://app?vid=bfd633be-a7e6-4d11-96e6-7ca9f4f58ac5","ios":"levelo://app?vid=bfd633be-a7e6-4d11-96e6-7ca9f4f58ac5"},"vehicle_type_id":"4","last_reported":1748156935,"current_range_meters":6800,"station_id":"ce4bh012rcd13ifvqd10","pricing_plan_id":"cebpf4jnsgd1na2vs0mg"},{"bike_id":"e833459d-3573-4483-b6bf-11463d58d134","system_id":"levelo_inurba_marseille","lat":43.29554,"lon":5.42283,"is_reserved":false,"is_disabled":false,"rental_uris":{"android":"levelo://app?vid=e833459d-3573-4483-b6bf-11463d58d134","ios":"levelo://app?vid=e833459d-3573-4483-b6bf-11463d58d134"},"vehicle_type_id":"4","last_reported":1748156935,"current_range_meters":6800,"station_id":"ce4bhph2rcd13ifvqhdg","pricing_plan_id":"cebpf4jnsgd1na2vs0mg"},{"bike_id":"6d18f989-8944-4ed3-b7c4-a284780bb26e","system_id":"levelo_inurba_marseille","lat":43.25095,"lon":5.40338,"is_reserved":false,"is_disabled":false,"rental_uris":{"android":"levelo://app?vid=6d18f989-8944-4ed3-b7c4-a284780bb26e","ios":"levelo://app?vid=6d18f989-8944-4ed3-b7c4-a284780bb26e"},"vehicle_type_id":"4","last_reported":1748156935,"current_range_meters":6800,"station_id":"ce4bhlh2rcd13ifvqgig","pricing_plan_id":"cebpf4jnsgd1na2vs0mg"},{"bike_id":"40d5f5df-f4a7-41a4-b16d-63484ff0379d","system_id":"levelo_inurba_marseille","lat":43.30921,"lon":5.40149,"is_reserved":false,"is_disabled":true,"rental_uris":{"android":"levelo://app?vid=40d5f5df-f4a7-41a4-b16d-63484ff0379d","ios":"levelo://app?vid=40d5f5df-f4a7-41a4-b16d-63484ff0379d"},"vehicle_type_id":"4","last_reported":1748156935,"current_range_meters":6800,"station_id":"ce4bgvp2rcd13ifvqct0","pricing_plan_id":"cebpf4jnsgd1na2vs0mg"},{"bike_id":"045cde77-b1ef-4984-94cb-bf83ff7c7831","system_id":"levelo_inurba_marseille","lat":43.232,"lon":5.39978,"is_reserved":false,"is_disabled":false,"rental_uris":{"android":"levelo://app?vid=045cde77-b1ef-4984-94cb-bf83ff7c7831","ios":"levelo://app?vid=045cde77-b1ef-4984-94cb-bf83ff7c7831"},"vehicle_type_id":"4","last_reported":1748156935,"current_range_meters":6800,"station_id":"ce4bhn12rcd13ifvqgqg","pricing_plan_id":"cebpf4jnsgd1na2vs0mg"},{"bike_id":"2c6c1601-7ad3-41b8-85f4-aa4519205b7c","system_id":"levelo_inurba_marseille","lat":43.251268,"lon":5.403277,"is_reserved":false,"is_disabled":false,"rental_uris":{"android":"levelo://app?vid=2c6c1601-7ad3-41b8-85f4-aa4519205b7c","ios":"levelo://app?vid=2c6c1601-7ad3-41b8-85f4-aa4519205b7c"},"vehicle_type_id":"4","last_reported":1748156935,"current_range_meters":7200,"station_id":"ce4bhlh2rcd13ifvqgig","pricing_plan_id":"cebpf4jnsgd1na2vs0mg"},{"bike_id":"9546d1ab-1ccb-4fe0-8b3b-7ffc67927051","system_id":"levelo_inurba_marseille","lat":43.28938,"lon":5.36641,"is_reserved":false,"is_disabled":true,"rental_uris":{"android":"levelo://app?vid=9546d1ab-1ccb-4fe0-8b3b-7ffc67927051","ios":"levelo://app?vid=9546d1ab-1ccb-4fe0-8b3b-7ffc67927051"},"vehicle_type_id":"4","last_reported":1748156935,"current_range_meters":7200,"station_id":"ce4bhap2rcd13ifvqek0","pricing_plan_id":"cebpf4jnsgd1na2vs0mg"},{"bike_id":"be22def8-9143-47c2-9f93-914f06198414","system_id":"levelo_inurba_marseille","lat":43.30938,"lon":5.40147,"is_reserved":false,"is_disabled":false,"rental_uris":{"android":"levelo://app?vid=be22def8-9143-47c2-9f93-914f06198414","ios":"levelo://app?vid=be22def8-9143-47c2-9f93-914f06198414"},"vehicle_type_id":"4","last_reported":1748156935,"current_range_meters":7200,"station_id":"ce4bgvp2rcd13ifvqct0","pricing_plan_id":"cebpf4jnsgd1na2vs0mg"},{"bike_id":"5c3e0494-8831-4e95-a8ba-1119f70e1412","system_id":"levelo_inurba_marseille","lat":43.25116,"lon":5.388165,"is_reserved":false,"is_disabled":false,"rental_uris":{"android":"levelo://app?vid=5c3e0494-8831-4e95-a8ba-1119f70e1412","ios":"levelo://app?vid=5c3e0494-8831-4e95-a8ba-1119f70e1412"},"vehicle_type_id":"4","last_reported":1748156935,"current_range_meters":7200,"station_id":"","pricing_plan_id":"cebpf4jnsgd1na2vs0mg"},{"bike_id":"2af99fd2-7eeb-4fcc-82f5-def257a6cb2b","system_id":"levelo_inurba_marseille","lat":43.279203,"lon":5.395793,"is_reserved":false,"is_disabled":false,"rental_uris":{"android":"levelo://app?vid=2af99fd2-7eeb-4fcc-82f5-def257a6cb2b","ios":"levelo://app?vid=2af99fd2-7eeb-4fcc-82f5-def257a6cb2b"},"vehicle_type_id":"4","last_reported":1748156935,"current_range_meters":7200,"station_id":"ce4bhf92rcd13ifvqf40","pricing_plan_id":"cebpf4jnsgd1na2vs0mg"},{"bike_id":"266f63d3-91cc-45e6-bcde-2a6b3263f52e","system_id":"levelo_inurba_marseille","lat":43.25091,"lon":5.40352,"is_reserved":false,"is_disabled":false,"rental_uris":{"android":"levelo://app?vid=266f63d3-91cc-45e6-bcde-2a6b3263f52e","ios":"levelo://app?vid=266f63d3-91cc-45e6-bcde-2a6b3263f52e"},"vehicle_type_id":"4","last_reported":1748156935,"current_range_meters":7200,"station_id":"ce4bhlh2rcd13ifvqgig","pricing_plan_id":"cebpf4jnsgd1na2vs0mg"},{"bike_id":"80deddbd-79cf-43eb-83c8-c56aedde1485","system_id":"levelo_inurba_marseille","lat":43.31747,"lon":5.40415,"is_reserved":false,"is_disabled":false,"rental_uris":{"android":"levelo://app?vid=80deddbd-79cf-43eb-83c8-c56aedde1485","ios":"levelo://app?vid=80deddbd-79cf-43eb-83c8-c56aedde1485"},"vehicle_type_id":"4","last_reported":1748156935,"current_range_meters":7200,"station_id":"","pricing_plan_id":"cebpf4jnsgd1na2vs0mg"},{"bike_id":"d2687c6b-2b92-4536-83c7-ceceeacc1deb","system_id":"levelo_inurba_marseille","lat":43.24667,"lon":5.38154,"is_reserved":false,"is_disabled":false,"rental_uris":{"android":"levelo://app?vid=d2687c6b-2b92-4536-83c7-ceceeacc1deb","ios":"levelo://app?vid=d2687c6b-2b92-4536-83c7-ceceeacc1deb"},"vehicle_type_id":"4","last_reported":1748156935,"current_range_meters":7200,"station_id":"ce4bhih2rcd13ifvqfr0","pricing_plan_id":"cebpf4jnsgd1na2vs0mg"},{"bike_id":"7d4313c8-0ca9-4d4f-bb96-9ef242bfa2ee","system_id":"levelo_inurba_marseille","lat":43.29254,"lon":5.38434,"is_reserved":false,"is_disabled":true,"rental_uris":{"android":"levelo://app?vid=7d4313c8-0ca9-4d4f-bb96-9ef242bfa2ee","ios":"levelo://app?vid=7d4313c8-0ca9-4d4f-bb96-9ef242bfa2ee"},"vehicle_type_id":"4","last_reported":1748156935,"current_range_meters":8000,"station_id":"ce4bh692rcd13ifvqea0","pricing_plan_id":"cebpf4jnsgd1na2vs0mg"},{"bike_id":"30445a14-5848-46cd-bb80-b09cb40a74dd","system_id":"levelo_inurba_marseille","lat":43.251038,"lon":5.403242,"is_reserved":false,"is_disabled":false,"rental_uris":{"android":"levelo://app?vid=30445a14-5848-46cd-bb80-b09cb40a74dd","ios":"levelo://app?vid=30445a14-5848-46cd-bb80-b09cb40a74dd"},"vehicle_type_id":"4","last_reported":1748156935,"current_range_meters":8000,"station_id":"ce4bhlh2rcd13ifvqgig","pricing_plan_id":"cebpf4jnsgd1na2vs0mg"},{"bike_id":"33f822d6-eeab-4cc4-b1ef-d755e9a84aa3","system_id":"levelo_inurba_marseille","lat":43.31692,"lon":5.43706,"is_reserved":false,"is_disabled":false,"rental_uris":{"android":"levelo://app?vid=33f822d6-eeab-4cc4-b1ef-d755e9a84aa3","ios":"levelo://app?vid=33f822d6-eeab-4cc4-b1ef-d755e9a84aa3"},"vehicle_type_id":"4","last_reported":1748156935,"current_range_meters":8000,"station_id":"ce4bhp92rcd13ifvqhcg","pricing_plan_id":"cebpf4jnsgd1na2vs0mg"},{"bike_id":"cb3127c5-a16a-4197-a684-7d1dd406bfe1","system_id":"levelo_inurba_marseille","lat":43.31255,"lon":5.39696,"is_reserved":false,"is_disabled":false,"rental_uris":{"android":"levelo://app?vid=cb3127c5-a16a-4197-a684-7d1dd406bfe1","ios":"levelo://app?vid=cb3127c5-a16a-4197-a684-7d1dd406bfe1"},"vehicle_type_id":"4","last_reported":1748156935,"current_range_meters":8000,"station_id":"","pricing_plan_id":"cebpf4jnsgd1na2vs0mg"},{"bike_id":"40572cad-a796-4f87-a02c-44bcfdb01f65","system_id":"levelo_inurba_marseille","lat":43.273422,"lon":5.361547,"is_reserved":false,"is_disabled":false,"rental_uris":{"android":"levelo://app?vid=40572cad-a796-4f87-a02c-44bcfdb01f65","ios":"levelo://app?vid=40572cad-a796-4f87-a02c-44bcfdb01f65"},"vehicle_type_id":"4","last_reported":1748156935,"current_range_meters":8000,"station_id":"","pricing_plan_id":"cebpf4jnsgd1na2vs0mg"},{"bike_id":"d5ddd455-df57-470b-90b1-29664b7edf5f","system_id":"levelo_inurba_marseille","lat":43.334188,"lon":5.400672,"is_reserved":false,"is_disabled":false,"rental_uris":{"android":"levelo://app?vid=d5ddd455-df57-470b-90b1-29664b7edf5f","ios":"levelo://app?vid=d5ddd455-df57-470b-90b1-29664b7edf5f"},"vehicle_type_id":"4","last_reported":1748156935,"current_range_meters":8000,"station_id":"","pricing_plan_id":"cebpf4jnsgd1na2vs0mg"},{"bike_id":"3581c28c-41f2-4cb7-b494-0448776c0438","system_id":"levelo_inurba_marseille","lat":43.29633,"lon":5.36056,"is_reserved":false,"is_disabled":false,"rental_uris":{"android":"levelo://app?vid=3581c28c-41f2-4cb7-b494-0448776c0438","ios":"levelo://app?vid=3581c28c-41f2-4cb7-b494-0448776c0438"},"vehicle_type_id":"4","last_reported":1748156935,"current_range_meters":8400,"station_id":"","pricing_plan_id":"cebpf4jnsgd1na2vs0mg"},{"bike_id":"9e10a5b8-5080-4f7e-8499-b14ca29da876","system_id":"levelo_inurba_marseille","lat":43.289949,"lon":5.356125,"is_reserved":false,"is_disabled":true,"rental_uris":{"android":"levelo://app?vid=9e10a5b8-5080-4f7e-8499-b14ca29da876","ios":"levelo://app?vid=9e10a5b8-5080-4f7e-8499-b14ca29da876"},"vehicle_type_id":"4","last_reported":1748156935,"current_range_meters":8400,"station_id":"ce4bhb92rcd13ifvqen0","pricing_plan_id":"cebpf4jnsgd1na2vs0mg"},{"bike_id":"3c75e648-a525-4de9-93fa-090b0f418121","system_id":"levelo_inurba_marseille","lat":43.31298,"lon":5.36854,"is_reserved":false,"is_disabled":false,"rental_uris":{"android":"levelo://app?vid=3c75e648-a525-4de9-93fa-090b0f418121","ios":"levelo://app?vid=3c75e648-a525-4de9-93fa-090b0f418121"},"vehicle_type_id":"4","last_reported":1748156935,"current_range_meters":8400,"station_id":"","pricing_plan_id":"cebpf4jnsgd1na2vs0mg"},{"bike_id":"fc8c72ad-ca61-42c6-ae90-f61b57e45328","system_id":"levelo_inurba_marseille","lat":43.27898,"lon":5.41862,"is_reserved":false,"is_disabled":false,"rental_uris":{"android":"levelo://app?vid=fc8c72ad-ca61-42c6-ae90-f61b57e45328","ios":"levelo://app?vid=fc8c72ad-ca61-42c6-ae90-f61b57e45328"},"vehicle_type_id":"4","last_reported":1748156935,"current_range_meters":8400,"station_id":"","pricing_plan_id":"cebpf4jnsgd1na2vs0mg"},{"bike_id":"ceb5dae6-874b-4d60-9609-82bcf4c8d4ed","system_id":"levelo_inurba_marseille","lat":43.304409,"lon":5.388453,"is_reserved":false,"is_disabled":true,"rental_uris":{"android":"levelo://app?vid=ceb5dae6-874b-4d60-9609-82bcf4c8d4ed","ios":"levelo://app?vid=ceb5dae6-874b-4d60-9609-82bcf4c8d4ed"},"vehicle_type_id":"4","last_reported":1748156935,"current_range_meters":8400,"station_id":"ce4bgk12rcd13ifvqbi0","pricing_plan_id":"cebpf4jnsgd1na2vs0mg"},{"bike_id":"8aa04072-9a9e-4c8f-b50d-e7005fddb952","system_id":"levelo_inurba_marseille","lat":43.24176,"lon":5.39725,"is_reserved":false,"is_disabled":false,"rental_uris":{"android":"levelo://app?vid=8aa04072-9a9e-4c8f-b50d-e7005fddb952","ios":"levelo://app?vid=8aa04072-9a9e-4c8f-b50d-e7005fddb952"},"vehicle_type_id":"4","last_reported":1748156935,"current_range_meters":8400,"station_id":"ce4bhn12rcd13ifvqgpg","pricing_plan_id":"cebpf4jnsgd1na2vs0mg"},{"bike_id":"87dc1d45-464b-416b-81d6-10b093bfc1ae","system_id":"levelo_inurba_marseille","lat":43.27065,"lon":5.42265,"is_reserved":false,"is_disabled":false,"rental_uris":{"android":"levelo://app?vid=87dc1d45-464b-416b-81d6-10b093bfc1ae","ios":"levelo://app?vid=87dc1d45-464b-416b-81d6-10b093bfc1ae"},"vehicle_type_id":"4","last_reported":1748156935,"current_range_meters":8400,"station_id":"ce4bhk92rcd13ifvqgb0","pricing_plan_id":"cebpf4jnsgd1na2vs0mg"},{"bike_id":"84b1d1a2-2301-4f7e-8fde-ecd5a1274476","system_id":"levelo_inurba_marseille","lat":43.270673,"lon":5.422809,"is_reserved":false,"is_disabled":false,"rental_uris":{"android":"levelo://app?vid=84b1d1a2-2301-4f7e-8fde-ecd5a1274476","ios":"levelo://app?vid=84b1d1a2-2301-4f7e-8fde-ecd5a1274476"},"vehicle_type_id":"4","last_reported":1748156935,"current_range_meters":8400,"station_id":"ce4bhk92rcd13ifvqgb0","pricing_plan_id":"cebpf4jnsgd1na2vs0mg"},{"bike_id":"aeb9ef90-389d-4ef3-899b-0a0feff09a32","system_id":"levelo_inurba_marseille","lat":43.31357,"lon":5.3803,"is_reserved":false,"is_disabled":false,"rental_uris":{"android":"levelo://app?vid=aeb9ef90-389d-4ef3-899b-0a0feff09a32","ios":"levelo://app?vid=aeb9ef90-389d-4ef3-899b-0a0feff09a32"},"vehicle_type_id":"4","last_reported":1748156935,"current_range_meters":8400,"station_id":"","pricing_plan_id":"cebpf4jnsgd1na2vs0mg"},{"bike_id":"5014cc52-ca7a-4568-a022-d9ed2c0a6d90","system_id":"levelo_inurba_marseille","lat":43.30374,"lon":5.42479,"is_reserved":false,"is_disabled":false,"rental_uris":{"android":"levelo://app?vid=5014cc52-ca7a-4568-a022-d9ed2c0a6d90","ios":"levelo://app?vid=5014cc52-ca7a-4568-a022-d9ed2c0a6d90"},"vehicle_type_id":"4","last_reported":1748156935,"current_range_meters":8400,"station_id":"ce4bhoh2rcd13ifvqh6g","pricing_plan_id":"cebpf4jnsgd1na2vs0mg"},{"bike_id":"50df2833-c24f-4064-9f93-b9a81dc82f32","system_id":"levelo_inurba_marseille","lat":43.30929,"lon":5.40132,"is_reserved":false,"is_disabled":false,"rental_uris":{"android":"levelo://app?vid=50df2833-c24f-4064-9f93-b9a81dc82f32","ios":"levelo://app?vid=50df2833-c24f-4064-9f93-b9a81dc82f32"},"vehicle_type_id":"4","last_reported":1748156935,"current_range_meters":8400,"station_id":"ce4bgvp2rcd13ifvqct0","pricing_plan_id":"cebpf4jnsgd1na2vs0mg"},{"bike_id":"d8c73d26-ef14-4027-b859-a9644e254b3d","system_id":"levelo_inurba_marseille","lat":43.314907,"lon":5.368931,"is_reserved":false,"is_disabled":false,"rental_uris":{"android":"levelo://app?vid=d8c73d26-ef14-4027-b859-a9644e254b3d","ios":"levelo://app?vid=d8c73d26-ef14-4027-b859-a9644e254b3d"},"vehicle_type_id":"4","last_reported":1748156935,"current_range_meters":8400,"station_id":"","pricing_plan_id":"cebpf4jnsgd1na2vs0mg"},{"bike_id":"7ea1a4eb-6d4b-44e3-b5fc-9a1127bcb445","system_id":"levelo_inurba_marseille","lat":43.30245,"lon":5.40081,"is_reserved":false,"is_disabled":false,"rental_uris":{"android":"levelo://app?vid=7ea1a4eb-6d4b-44e3-b5fc-9a1127bcb445","ios":"levelo://app?vid=7ea1a4eb-6d4b-44e3-b5fc-9a1127bcb445"},"vehicle_type_id":"4","last_reported":1748156935,"current_range_meters":8400,"station_id":"ce4bgvh2rcd13ifvqcs0","pricing_plan_id":"cebpf4jnsgd1na2vs0mg"},{"bike_id":"317402d7-3cf9-48ed-a017-14be367d398d","system_id":"levelo_inurba_marseille","lat":43.32335,"lon":5.40605,"is_reserved":false,"is_disabled":false,"rental_uris":{"android":"levelo://app?vid=317402d7-3cf9-48ed-a017-14be367d398d","ios":"levelo://app?vid=317402d7-3cf9-48ed-a017-14be367d398d"},"vehicle_type_id":"4","last_reported":1748156935,"current_range_meters":8800,"station_id":"ce4bhq92rcd13ifvqhjg","pricing_plan_id":"cebpf4jnsgd1na2vs0mg"},{"bike_id":"b257e1c4-2f2e-4cd2-bdcb-f4495a7aed9a","system_id":"levelo_inurba_marseille","lat":43.32092,"lon":5.40789,"is_reserved":false,"is_disabled":false,"rental_uris":{"android":"levelo://app?vid=b257e1c4-2f2e-4cd2-bdcb-f4495a7aed9a","ios":"levelo://app?vid=b257e1c4-2f2e-4cd2-bdcb-f4495a7aed9a"},"vehicle_type_id":"4","last_reported":1748156935,"current_range_meters":8800,"station_id":"","pricing_plan_id":"cebpf4jnsgd1na2vs0mg"},{"bike_id":"aaba240d-9ae2-4152-b865-0a8cf63c256e","system_id":"levelo_inurba_marseille","lat":43.30409,"lon":5.41301,"is_reserved":false,"is_disabled":false,"rental_uris":{"android":"levelo://app?vid=aaba240d-9ae2-4152-b865-0a8cf63c256e","ios":"levelo://app?vid=aaba240d-9ae2-4152-b865-0a8cf63c256e"},"vehicle_type_id":"4","last_reported":1748156935,"current_range_meters":8800,"station_id":"ce4bhop2rcd13ifvqh8g","pricing_plan_id":"cebpf4jnsgd1na2vs0mg"},{"bike_id":"631364b9-4f5e-4cc8-8e04-6ec26ba24d61","system_id":"levelo_inurba_marseille","lat":43.301286,"lon":5.387856,"is_reserved":false,"is_disabled":true,"rental_uris":{"android":"levelo://app?vid=631364b9-4f5e-4cc8-8e04-6ec26ba24d61","ios":"levelo://app?vid=631364b9-4f5e-4cc8-8e04-6ec26ba24d61"},"vehicle_type_id":"4","last_reported":1748156935,"current_range_meters":8800,"station_id":"ce4bghh2rcd13ifvqb60","pricing_plan_id":"cebpf4jnsgd1na2vs0mg"},{"bike_id":"88ac5a91-56d3-4573-b0f2-5c6bbb7d986b","system_id":"levelo_inurba_marseille","lat":43.26134,"lon":5.39737,"is_reserved":false,"is_disabled":false,"rental_uris":{"android":"levelo://app?vid=88ac5a91-56d3-4573-b0f2-5c6bbb7d986b","ios":"levelo://app?vid=88ac5a91-56d3-4573-b0f2-5c6bbb7d986b"},"vehicle_type_id":"4","last_reported":1748156935,"current_range_meters":8800,"station_id":"","pricing_plan_id":"cebpf4jnsgd1na2vs0mg"},{"bike_id":"eb7449bf-569b-46bd-ac86-51a1edea3186","system_id":"levelo_inurba_marseille","lat":43.302471,"lon":5.400499,"is_reserved":false,"is_disabled":false,"rental_uris":{"android":"levelo://app?vid=eb7449bf-569b-46bd-ac86-51a1edea3186","ios":"levelo://app?vid=eb7449bf-569b-46bd-ac86-51a1edea3186"},"vehicle_type_id":"4","last_reported":1748156935,"current_range_meters":8800,"station_id":"ce4bgvh2rcd13ifvqcs0","pricing_plan_id":"cebpf4jnsgd1na2vs0mg"},{"bike_id":"7716ce6a-459e-400b-adb2-38f7d87508e7","system_id":"levelo_inurba_marseille","lat":43.29721,"lon":5.37902,"is_reserved":false,"is_disabled":false,"rental_uris":{"android":"levelo://app?vid=7716ce6a-459e-400b-adb2-38f7d87508e7","ios":"levelo://app?vid=7716ce6a-459e-400b-adb2-38f7d87508e7"},"vehicle_type_id":"4","last_reported":1748156935,"current_range_meters":8800,"station_id":"","pricing_plan_id":"cebpf4jnsgd1na2vs0mg"},{"bike_id":"877c2675-6c4f-428f-bc46-03e7cf43c586","system_id":"levelo_inurba_marseille","lat":43.21751,"lon":5.34613,"is_reserved":false,"is_disabled":false,"rental_uris":{"android":"levelo://app?vid=877c2675-6c4f-428f-bc46-03e7cf43c586","ios":"levelo://app?vid=877c2675-6c4f-428f-bc46-03e7cf43c586"},"vehicle_type_id":"4","last_reported":1748156935,"current_range_meters":8800,"station_id":"st_cvj6r9ubvosntc0bgbag","pricing_plan_id":"cebpf4jnsgd1na2vs0mg"},{"bike_id":"a12f45b8-46e2-4001-87e4-447478f5dd34","system_id":"levelo_inurba_marseille","lat":43.29528,"lon":5.39397,"is_reserved":false,"is_disabled":false,"rental_uris":{"android":"levelo://app?vid=a12f45b8-46e2-4001-87e4-447478f5dd34","ios":"levelo://app?vid=a12f45b8-46e2-4001-87e4-447478f5dd34"},"vehicle_type_id":"4","last_reported":1748156935,"current_range_meters":8800,"station_id":"ce4bh292rcd13ifvqdf0","pricing_plan_id":"cebpf4jnsgd1na2vs0mg"},{"bike_id":"a2969d9b-b308-43ba-a932-55b8bd550f28","system_id":"levelo_inurba_marseille","lat":43.31491,"lon":5.40354,"is_reserved":false,"is_disabled":false,"rental_uris":{"android":"levelo://app?vid=a2969d9b-b308-43ba-a932-55b8bd550f28","ios":"levelo://app?vid=a2969d9b-b308-43ba-a932-55b8bd550f28"},"vehicle_type_id":"4","last_reported":1748156935,"current_range_meters":9200,"station_id":"","pricing_plan_id":"cebpf4jnsgd1na2vs0mg"},{"bike_id":"d9fa0449-e47c-4bbe-a91c-4939cab5d888","system_id":"levelo_inurba_marseille","lat":43.28508,"lon":5.42586,"is_reserved":false,"is_disabled":false,"rental_uris":{"android":"levelo://app?vid=d9fa0449-e47c-4bbe-a91c-4939cab5d888","ios":"levelo://app?vid=d9fa0449-e47c-4bbe-a91c-4939cab5d888"},"vehicle_type_id":"4","last_reported":1748156935,"current_range_meters":9200,"station_id":"","pricing_plan_id":"cebpf4jnsgd1na2vs0mg"},{"bike_id":"301fe2f8-a535-492e-8e34-7fadff48a616","system_id":"levelo_inurba_marseille","lat":43.30928,"lon":5.40176,"is_reserved":false,"is_disabled":false,"rental_uris":{"android":"levelo://app?vid=301fe2f8-a535-492e-8e34-7fadff48a616","ios":"levelo://app?vid=301fe2f8-a535-492e-8e34-7fadff48a616"},"vehicle_type_id":"4","last_reported":1748156935,"current_range_meters":9200,"station_id":"ce4bgvp2rcd13ifvqct0","pricing_plan_id":"cebpf4jnsgd1na2vs0mg"},{"bike_id":"4b21239c-4264-43d2-9677-18eac578f916","system_id":"levelo_inurba_marseille","lat":43.278138,"lon":5.407168,"is_reserved":false,"is_disabled":true,"rental_uris":{"android":"levelo://app?vid=4b21239c-4264-43d2-9677-18eac578f916","ios":"levelo://app?vid=4b21239c-4264-43d2-9677-18eac578f916"},"vehicle_type_id":"4","last_reported":1748156935,"current_range_meters":9200,"station_id":"ce4bhnh2rcd13ifvqgtg","pricing_plan_id":"cebpf4jnsgd1na2vs0mg"},{"bike_id":"3b5177f3-0448-443a-8b58-f7a054657b8b","system_id":"levelo_inurba_marseille","lat":43.30144,"lon":5.38104,"is_reserved":false,"is_disabled":false,"rental_uris":{"android":"levelo://app?vid=3b5177f3-0448-443a-8b58-f7a054657b8b","ios":"levelo://app?vid=3b5177f3-0448-443a-8b58-f7a054657b8b"},"vehicle_type_id":"4","last_reported":1748156935,"current_range_meters":9200,"station_id":"ce4bgjp2rcd13ifvqbh0","pricing_plan_id":"cebpf4jnsgd1na2vs0mg"},{"bike_id":"3139cf46-0720-4a2a-9447-daa9f1e5b248","system_id":"levelo_inurba_marseille","lat":43.29843,"lon":5.3627,"is_reserved":false,"is_disabled":false,"rental_uris":{"android":"levelo://app?vid=3139cf46-0720-4a2a-9447-daa9f1e5b248","ios":"levelo://app?vid=3139cf46-0720-4a2a-9447-daa9f1e5b248"},"vehicle_type_id":"4","last_reported":1748156935,"current_range_meters":8800,"station_id":"ce4bgpp2rcd13ifvqc3g","pricing_plan_id":"cebpf4jnsgd1na2vs0mg"},{"bike_id":"b72ccfd1-35cf-4b02-9c1a-90aef7c74e5f","system_id":"levelo_inurba_marseille","lat":43.24779,"lon":5.44269,"is_reserved":false,"is_disabled":false,"rental_uris":{"android":"levelo://app?vid=b72ccfd1-35cf-4b02-9c1a-90aef7c74e5f","ios":"levelo://app?vid=b72ccfd1-35cf-4b02-9c1a-90aef7c74e5f"},"vehicle_type_id":"4","last_reported":1748156935,"current_range_meters":9200,"station_id":"","pricing_plan_id":"cebpf4jnsgd1na2vs0mg"},{"bike_id":"8199505b-e114-4138-8581-1cb9b97e9b8c","system_id":"levelo_inurba_marseille","lat":43.29272,"lon":5.40101,"is_reserved":false,"is_disabled":false,"rental_uris":{"android":"levelo://app?vid=8199505b-e114-4138-8581-1cb9b97e9b8c","ios":"levelo://app?vid=8199505b-e114-4138-8581-1cb9b97e9b8c"},"vehicle_type_id":"4","last_reported":1748156935,"current_range_meters":9200,"station_id":"ce4bh312rcd13ifvqdk0","pricing_plan_id":"cebpf4jnsgd1na2vs0mg"},{"bike_id":"927e3f29-24b9-4e3b-83cd-8df6b912e853","system_id":"levelo_inurba_marseille","lat":43.30273,"lon":5.3729,"is_reserved":false,"is_disabled":false,"rental_uris":{"android":"levelo://app?vid=927e3f29-24b9-4e3b-83cd-8df6b912e853","ios":"levelo://app?vid=927e3f29-24b9-4e3b-83cd-8df6b912e853"},"vehicle_type_id":"4","last_reported":1748156935,"current_range_meters":9200,"station_id":"","pricing_plan_id":"cebpf4jnsgd1na2vs0mg"},{"bike_id":"0854c8ed-55c6-4535-9eff-3fa522326254","system_id":"levelo_inurba_marseille","lat":43.313714,"lon":5.374421,"is_reserved":false,"is_disabled":false,"rental_uris":{"android":"levelo://app?vid=0854c8ed-55c6-4535-9eff-3fa522326254","ios":"levelo://app?vid=0854c8ed-55c6-4535-9eff-3fa522326254"},"vehicle_type_id":"4","last_reported":1748156935,"current_range_meters":9600,"station_id":"","pricing_plan_id":"cebpf4jnsgd1na2vs0mg"},{"bike_id":"bf1f7f3c-cd03-4e16-83bf-ebf54137f48e","system_id":"levelo_inurba_marseille","lat":43.29057,"lon":5.36627,"is_reserved":false,"is_disabled":false,"rental_uris":{"android":"levelo://app?vid=bf1f7f3c-cd03-4e16-83bf-ebf54137f48e","ios":"levelo://app?vid=bf1f7f3c-cd03-4e16-83bf-ebf54137f48e"},"vehicle_type_id":"4","last_reported":1748156935,"current_range_meters":9600,"station_id":"","pricing_plan_id":"cebpf4jnsgd1na2vs0mg"},{"bike_id":"0d07a9b0-1530-42e3-a540-72853c9565ae","system_id":"levelo_inurba_marseille","lat":43.30153,"lon":5.38065,"is_reserved":false,"is_disabled":false,"rental_uris":{"android":"levelo://app?vid=0d07a9b0-1530-42e3-a540-72853c9565ae","ios":"levelo://app?vid=0d07a9b0-1530-42e3-a540-72853c9565ae"},"vehicle_type_id":"4","last_reported":1748156935,"current_range_meters":9600,"station_id":"ce4bgjp2rcd13ifvqbh0","pricing_plan_id":"cebpf4jnsgd1na2vs0mg"},{"bike_id":"494dfee6-f062-4620-b8a3-b03deeffc8c1","system_id":"levelo_inurba_marseille","lat":43.312259,"lon":5.368777,"is_reserved":false,"is_disabled":false,"rental_uris":{"android":"levelo://app?vid=494dfee6-f062-4620-b8a3-b03deeffc8c1","ios":"levelo://app?vid=494dfee6-f062-4620-b8a3-b03deeffc8c1"},"vehicle_type_id":"4","last_reported":1748156935,"current_range_meters":9600,"station_id":"ce4bgl92rcd13ifvqbq0","pricing_plan_id":"cebpf4jnsgd1na2vs0mg"},{"bike_id":"e88d39b7-8156-44b9-bc82-8241bf626566","system_id":"levelo_inurba_marseille","lat":43.29231,"lon":5.36047,"is_reserved":false,"is_disabled":false,"rental_uris":{"android":"levelo://app?vid=e88d39b7-8156-44b9-bc82-8241bf626566","ios":"levelo://app?vid=e88d39b7-8156-44b9-bc82-8241bf626566"},"vehicle_type_id":"4","last_reported":1748156935,"current_range_meters":9600,"station_id":"ce4bhbh2rcd13ifvqeqg","pricing_plan_id":"cebpf4jnsgd1na2vs0mg"},{"bike_id":"182a3f00-d89b-4214-9b86-57fede7634c5","system_id":"levelo_inurba_marseille","lat":43.308006,"lon":5.4352,"is_reserved":false,"is_disabled":false,"rental_uris":{"android":"levelo://app?vid=182a3f00-d89b-4214-9b86-57fede7634c5","ios":"levelo://app?vid=182a3f00-d89b-4214-9b86-57fede7634c5"},"vehicle_type_id":"4","last_reported":1748156935,"current_range_meters":9600,"station_id":"ce4bhph2rcd13ifvqheg","pricing_plan_id":"cebpf4jnsgd1na2vs0mg"},{"bike_id":"3324c888-dbcf-4750-bfe2-db489744956f","system_id":"levelo_inurba_marseille","lat":43.284768,"lon":5.384156,"is_reserved":false,"is_disabled":true,"rental_uris":{"android":"levelo://app?vid=3324c888-dbcf-4750-bfe2-db489744956f","ios":"levelo://app?vid=3324c888-dbcf-4750-bfe2-db489744956f"},"vehicle_type_id":"4","last_reported":1748156935,"current_range_meters":9600,"station_id":"ce4bh512rcd13ifvqe3g","pricing_plan_id":"cebpf4jnsgd1na2vs0mg"},{"bike_id":"74a88819-0ee3-4b83-98c9-302a3e1e7702","system_id":"levelo_inurba_marseille","lat":43.25111,"lon":5.40316,"is_reserved":false,"is_disabled":false,"rental_uris":{"android":"levelo://app?vid=74a88819-0ee3-4b83-98c9-302a3e1e7702","ios":"levelo://app?vid=74a88819-0ee3-4b83-98c9-302a3e1e7702"},"vehicle_type_id":"4","last_reported":1748156935,"current_range_meters":9600,"station_id":"ce4bhlh2rcd13ifvqgig","pricing_plan_id":"cebpf4jnsgd1na2vs0mg"},{"bike_id":"627576e1-5de8-45f6-a230-597134ae8ecc","system_id":"levelo_inurba_marseille","lat":43.28702,"lon":5.3997,"is_reserved":false,"is_disabled":false,"rental_uris":{"android":"levelo://app?vid=627576e1-5de8-45f6-a230-597134ae8ecc","ios":"levelo://app?vid=627576e1-5de8-45f6-a230-597134ae8ecc"},"vehicle_type_id":"4","last_reported":1748156935,"current_range_meters":9600,"station_id":"ce4bho92rcd13ifvqh3g","pricing_plan_id":"cebpf4jnsgd1na2vs0mg"},{"bike_id":"0ed7adf5-bdc1-4246-8ec6-b89b2551c486","system_id":"levelo_inurba_marseille","lat":43.3032,"lon":5.40425,"is_reserved":false,"is_disabled":false,"rental_uris":{"android":"levelo://app?vid=0ed7adf5-bdc1-4246-8ec6-b89b2551c486","ios":"levelo://app?vid=0ed7adf5-bdc1-4246-8ec6-b89b2551c486"},"vehicle_type_id":"4","last_reported":1748156935,"current_range_meters":9600,"station_id":"ce4bh012rcd13ifvqd10","pricing_plan_id":"cebpf4jnsgd1na2vs0mg"},{"bike_id":"8c489452-33ec-40fb-804e-08b0bc9dcc81","system_id":"levelo_inurba_marseille","lat":43.314342,"lon":5.373517,"is_reserved":false,"is_disabled":false,"rental_uris":{"android":"levelo://app?vid=8c489452-33ec-40fb-804e-08b0bc9dcc81","ios":"levelo://app?vid=8c489452-33ec-40fb-804e-08b0bc9dcc81"},"vehicle_type_id":"4","last_reported":1748156935,"current_range_meters":9600,"station_id":"","pricing_plan_id":"cebpf4jnsgd1na2vs0mg"},{"bike_id":"4db9f946-61ad-4d2c-aa52-0eaf2186d550","system_id":"levelo_inurba_marseille","lat":43.29291,"lon":5.40125,"is_reserved":false,"is_disabled":false,"rental_uris":{"android":"levelo://app?vid=4db9f946-61ad-4d2c-aa52-0eaf2186d550","ios":"levelo://app?vid=4db9f946-61ad-4d2c-aa52-0eaf2186d550"},"vehicle_type_id":"4","last_reported":1748156935,"current_range_meters":9600,"station_id":"ce4bh312rcd13ifvqdk0","pricing_plan_id":"cebpf4jnsgd1na2vs0mg"},{"bike_id":"c48c0c6d-638e-4ea6-b59e-9249e3f6466d","system_id":"levelo_inurba_marseille","lat":43.31472,"lon":5.37318,"is_reserved":false,"is_disabled":false,"rental_uris":{"android":"levelo://app?vid=c48c0c6d-638e-4ea6-b59e-9249e3f6466d","ios":"levelo://app?vid=c48c0c6d-638e-4ea6-b59e-9249e3f6466d"},"vehicle_type_id":"4","last_reported":1748156935,"current_range_meters":9600,"station_id":"ce4bgt12rcd13ifvqcd0","pricing_plan_id":"cebpf4jnsgd1na2vs0mg"},{"bike_id":"b5212b01-f768-4579-bb1f-18803bfb994e","system_id":"levelo_inurba_marseille","lat":43.3164,"lon":5.38907,"is_reserved":false,"is_disabled":false,"rental_uris":{"android":"levelo://app?vid=b5212b01-f768-4579-bb1f-18803bfb994e","ios":"levelo://app?vid=b5212b01-f768-4579-bb1f-18803bfb994e"},"vehicle_type_id":"4","last_reported":1748156935,"current_range_meters":10000,"station_id":"","pricing_plan_id":"cebpf4jnsgd1na2vs0mg"},{"bike_id":"452136e6-268f-4267-9c70-d28768f7bc9c","system_id":"levelo_inurba_marseille","lat":43.251083,"lon":5.403314,"is_reserved":false,"is_disabled":false,"rental_uris":{"android":"levelo://app?vid=452136e6-268f-4267-9c70-d28768f7bc9c","ios":"levelo://app?vid=452136e6-268f-4267-9c70-d28768f7bc9c"},"vehicle_type_id":"4","last_reported":1748156935,"current_range_meters":10000,"station_id":"ce4bhlh2rcd13ifvqgig","pricing_plan_id":"cebpf4jnsgd1na2vs0mg"},{"bike_id":"0ddf2b5a-1565-4aab-be09-ecef369e20f0","system_id":"levelo_inurba_marseille","lat":43.299069,"lon":5.381346,"is_reserved":false,"is_disabled":true,"rental_uris":{"android":"levelo://app?vid=0ddf2b5a-1565-4aab-be09-ecef369e20f0","ios":"levelo://app?vid=0ddf2b5a-1565-4aab-be09-ecef369e20f0"},"vehicle_type_id":"4","last_reported":1748156935,"current_range_meters":10000,"station_id":"ce4bgj12rcd13ifvqbc0","pricing_plan_id":"cebpf4jnsgd1na2vs0mg"},{"bike_id":"37c8c075-8f82-4272-989a-84f131b3479b","system_id":"levelo_inurba_marseille","lat":43.29223,"lon":5.36056,"is_reserved":false,"is_disabled":true,"rental_uris":{"android":"levelo://app?vid=37c8c075-8f82-4272-989a-84f131b3479b","ios":"levelo://app?vid=37c8c075-8f82-4272-989a-84f131b3479b"},"vehicle_type_id":"4","last_reported":1748156935,"current_range_meters":10000,"station_id":"ce4bhbh2rcd13ifvqeqg","pricing_plan_id":"cebpf4jnsgd1na2vs0mg"},{"bike_id":"764aa4a5-fdf1-45d2-8d85-f92b7302018b","system_id":"levelo_inurba_marseille","lat":43.32167,"lon":5.43988,"is_reserved":false,"is_disabled":false,"rental_uris":{"android":"levelo://app?vid=764aa4a5-fdf1-45d2-8d85-f92b7302018b","ios":"levelo://app?vid=764aa4a5-fdf1-45d2-8d85-f92b7302018b"},"vehicle_type_id":"4","last_reported":1748156935,"current_range_meters":10000,"station_id":"","pricing_plan_id":"cebpf4jnsgd1na2vs0mg"},{"bike_id":"6abb9ab4-3976-4e3e-b994-f2f72ee02055","system_id":"levelo_inurba_marseille","lat":43.318036,"lon":5.368043,"is_reserved":false,"is_disabled":false,"rental_uris":{"android":"levelo://app?vid=6abb9ab4-3976-4e3e-b994-f2f72ee02055","ios":"levelo://app?vid=6abb9ab4-3976-4e3e-b994-f2f72ee02055"},"vehicle_type_id":"4","last_reported":1748156935,"current_range_meters":10000,"station_id":"","pricing_plan_id":"cebpf4jnsgd1na2vs0mg"},{"bike_id":"847ace23-4b19-401e-a0a0-62985ebd3598","system_id":"levelo_inurba_marseille","lat":43.28849,"lon":5.39323,"is_reserved":false,"is_disabled":true,"rental_uris":{"android":"levelo://app?vid=847ace23-4b19-401e-a0a0-62985ebd3598","ios":"levelo://app?vid=847ace23-4b19-401e-a0a0-62985ebd3598"},"vehicle_type_id":"4","last_reported":1748156935,"current_range_meters":10000,"station_id":"ce4bh2p2rcd13ifvqdi0","pricing_plan_id":"cebpf4jnsgd1na2vs0mg"},{"bike_id":"7f33a486-e8ac-45e1-a9ec-4ad11a5a5ebd","system_id":"levelo_inurba_marseille","lat":43.31124,"lon":5.37753,"is_reserved":false,"is_disabled":false,"rental_uris":{"android":"levelo://app?vid=7f33a486-e8ac-45e1-a9ec-4ad11a5a5ebd","ios":"levelo://app?vid=7f33a486-e8ac-45e1-a9ec-4ad11a5a5ebd"},"vehicle_type_id":"4","last_reported":1748156935,"current_range_meters":10000,"station_id":"ce4bgt92rcd13ifvqcg0","pricing_plan_id":"cebpf4jnsgd1na2vs0mg"},{"bike_id":"40209089-ede8-4cc3-b89b-ffec9e3ab195","system_id":"levelo_inurba_marseille","lat":43.22922,"lon":5.35381,"is_reserved":false,"is_disabled":false,"rental_uris":{"android":"levelo://app?vid=40209089-ede8-4cc3-b89b-ffec9e3ab195","ios":"levelo://app?vid=40209089-ede8-4cc3-b89b-ffec9e3ab195"},"vehicle_type_id":"4","last_reported":1748156935,"current_range_meters":10000,"station_id":"cpo3532slgdg3j2ikp40","pricing_plan_id":"cebpf4jnsgd1na2vs0mg"},{"bike_id":"07c20b36-efcd-49b4-a301-75a9b7505c69","system_id":"levelo_inurba_marseille","lat":43.30147,"lon":5.38986,"is_reserved":false,"is_disabled":false,"rental_uris":{"android":"levelo://app?vid=07c20b36-efcd-49b4-a301-75a9b7505c69","ios":"levelo://app?vid=07c20b36-efcd-49b4-a301-75a9b7505c69"},"vehicle_type_id":"4","last_reported":1748156935,"current_range_meters":10000,"station_id":"","pricing_plan_id":"cebpf4jnsgd1na2vs0mg"},{"bike_id":"a4eba46b-0b2c-436e-bac9-c5bc5301b901","system_id":"levelo_inurba_marseille","lat":43.308837,"lon":5.396313,"is_reserved":false,"is_disabled":false,"rental_uris":{"android":"levelo://app?vid=a4eba46b-0b2c-436e-bac9-c5bc5301b901","ios":"levelo://app?vid=a4eba46b-0b2c-436e-bac9-c5bc5301b901"},"vehicle_type_id":"4","last_reported":1748156935,"current_range_meters":10000,"station_id":"ce4bh012rcd13ifvqcv0","pricing_plan_id":"cebpf4jnsgd1na2vs0mg"},{"bike_id":"da453a88-f81b-4e0f-9781-5a7f6c1d364c","system_id":"levelo_inurba_marseille","lat":43.337499,"lon":5.374469,"is_reserved":false,"is_disabled":false,"rental_uris":{"android":"levelo://app?vid=da453a88-f81b-4e0f-9781-5a7f6c1d364c","ios":"levelo://app?vid=da453a88-f81b-4e0f-9781-5a7f6c1d364c"},"vehicle_type_id":"4","last_reported":1748156935,"current_range_meters":10800,"station_id":"","pricing_plan_id":"cebpf4jnsgd1na2vs0mg"},{"bike_id":"864ac3b2-136a-4dc9-80f9-30dea8edbd33","system_id":"levelo_inurba_marseille","lat":43.25131,"lon":5.4032,"is_reserved":false,"is_disabled":false,"rental_uris":{"android":"levelo://app?vid=864ac3b2-136a-4dc9-80f9-30dea8edbd33","ios":"levelo://app?vid=864ac3b2-136a-4dc9-80f9-30dea8edbd33"},"vehicle_type_id":"4","last_reported":1748156935,"current_range_meters":10800,"station_id":"ce4bhlh2rcd13ifvqgig","pricing_plan_id":"cebpf4jnsgd1na2vs0mg"},{"bike_id":"16a91e98-b908-4e85-ac1a-3191b3f761d5","system_id":"levelo_inurba_marseille","lat":43.25092,"lon":5.39525,"is_reserved":false,"is_disabled":false,"rental_uris":{"android":"levelo://app?vid=16a91e98-b908-4e85-ac1a-3191b3f761d5","ios":"levelo://app?vid=16a91e98-b908-4e85-ac1a-3191b3f761d5"},"vehicle_type_id":"4","last_reported":1748156935,"current_range_meters":10800,"station_id":"ce4bhm12rcd13ifvqgkg","pricing_plan_id":"cebpf4jnsgd1na2vs0mg"},{"bike_id":"4f0adb5e-fcbf-4d9c-9091-a2bbf83763a0","system_id":"levelo_inurba_marseille","lat":43.270679,"lon":5.422823,"is_reserved":false,"is_disabled":false,"rental_uris":{"android":"levelo://app?vid=4f0adb5e-fcbf-4d9c-9091-a2bbf83763a0","ios":"levelo://app?vid=4f0adb5e-fcbf-4d9c-9091-a2bbf83763a0"},"vehicle_type_id":"4","last_reported":1748156935,"current_range_meters":10800,"station_id":"ce4bhk92rcd13ifvqgb0","pricing_plan_id":"cebpf4jnsgd1na2vs0mg"},{"bike_id":"750f6585-193a-4477-948c-580515d42c9e","system_id":"levelo_inurba_marseille","lat":43.32234,"lon":5.43964,"is_reserved":false,"is_disabled":false,"rental_uris":{"android":"levelo://app?vid=750f6585-193a-4477-948c-580515d42c9e","ios":"levelo://app?vid=750f6585-193a-4477-948c-580515d42c9e"},"vehicle_type_id":"4","last_reported":1748156935,"current_range_meters":10800,"station_id":"","pricing_plan_id":"cebpf4jnsgd1na2vs0mg"},{"bike_id":"a6d0259b-c4a3-4b49-ae20-4440c6d8a1b0","system_id":"levelo_inurba_marseille","lat":43.25084,"lon":5.39479,"is_reserved":false,"is_disabled":false,"rental_uris":{"android":"levelo://app?vid=a6d0259b-c4a3-4b49-ae20-4440c6d8a1b0","ios":"levelo://app?vid=a6d0259b-c4a3-4b49-ae20-4440c6d8a1b0"},"vehicle_type_id":"4","last_reported":1748156935,"current_range_meters":10800,"station_id":"ce4bhm12rcd13ifvqgkg","pricing_plan_id":"cebpf4jnsgd1na2vs0mg"},{"bike_id":"57d3f697-0606-47c6-bf97-482d6a1b5410","system_id":"levelo_inurba_marseille","lat":43.24676,"lon":5.38152,"is_reserved":false,"is_disabled":false,"rental_uris":{"android":"levelo://app?vid=57d3f697-0606-47c6-bf97-482d6a1b5410","ios":"levelo://app?vid=57d3f697-0606-47c6-bf97-482d6a1b5410"},"vehicle_type_id":"4","last_reported":1748156935,"current_range_meters":10800,"station_id":"ce4bhih2rcd13ifvqfr0","pricing_plan_id":"cebpf4jnsgd1na2vs0mg"},{"bike_id":"2edb42d9-ead7-4e0a-85e7-e7568ab38856","system_id":"levelo_inurba_marseille","lat":43.296774,"lon":5.372862,"is_reserved":false,"is_disabled":false,"rental_uris":{"android":"levelo://app?vid=2edb42d9-ead7-4e0a-85e7-e7568ab38856","ios":"levelo://app?vid=2edb42d9-ead7-4e0a-85e7-e7568ab38856"},"vehicle_type_id":"4","last_reported":1748156935,"current_range_meters":10800,"station_id":"ce4bgk12rcd13ifvqbj0","pricing_plan_id":"cebpf4jnsgd1na2vs0mg"},{"bike_id":"9b9ef349-5da1-4bfa-87de-6595ec01dc00","system_id":"levelo_inurba_marseille","lat":43.30919,"lon":5.40137,"is_reserved":false,"is_disabled":false,"rental_uris":{"android":"levelo://app?vid=9b9ef349-5da1-4bfa-87de-6595ec01dc00","ios":"levelo://app?vid=9b9ef349-5da1-4bfa-87de-6595ec01dc00"},"vehicle_type_id":"4","last_reported":1748156935,"current_range_meters":11200,"station_id":"ce4bgvp2rcd13ifvqct0","pricing_plan_id":"cebpf4jnsgd1na2vs0mg"},{"bike_id":"5a43856c-8e7e-4b3c-9a95-a039a79dd888","system_id":"levelo_inurba_marseille","lat":43.323647,"lon":5.388888,"is_reserved":false,"is_disabled":false,"rental_uris":{"android":"levelo://app?vid=5a43856c-8e7e-4b3c-9a95-a039a79dd888","ios":"levelo://app?vid=5a43856c-8e7e-4b3c-9a95-a039a79dd888"},"vehicle_type_id":"4","last_reported":1748156935,"current_range_meters":11200,"station_id":"ce4bhqp2rcd13ifvqhog","pricing_plan_id":"cebpf4jnsgd1na2vs0mg"},{"bike_id":"e4cb08ad-b518-4d2c-ad0d-0a1f92ea16aa","system_id":"levelo_inurba_marseille","lat":43.27947,"lon":5.41057,"is_reserved":false,"is_disabled":false,"rental_uris":{"android":"levelo://app?vid=e4cb08ad-b518-4d2c-ad0d-0a1f92ea16aa","ios":"levelo://app?vid=e4cb08ad-b518-4d2c-ad0d-0a1f92ea16aa"},"vehicle_type_id":"4","last_reported":1748156935,"current_range_meters":11200,"station_id":"ce4bhnp2rcd13ifvqh0g","pricing_plan_id":"cebpf4jnsgd1na2vs0mg"},{"bike_id":"34acafc0-31ea-4980-a807-286c88b02b0e","system_id":"levelo_inurba_marseille","lat":43.30662,"lon":5.4005,"is_reserved":false,"is_disabled":false,"rental_uris":{"android":"levelo://app?vid=34acafc0-31ea-4980-a807-286c88b02b0e","ios":"levelo://app?vid=34acafc0-31ea-4980-a807-286c88b02b0e"},"vehicle_type_id":"4","last_reported":1748156935,"current_range_meters":11200,"station_id":"ce4bh112rcd13ifvqda0","pricing_plan_id":"cebpf4jnsgd1na2vs0mg"},{"bike_id":"2f03c2fb-b0e6-4dd3-8ae8-9e2ead738d93","system_id":"levelo_inurba_marseille","lat":43.24056,"lon":5.37752,"is_reserved":false,"is_disabled":false,"rental_uris":{"android":"levelo://app?vid=2f03c2fb-b0e6-4dd3-8ae8-9e2ead738d93","ios":"levelo://app?vid=2f03c2fb-b0e6-4dd3-8ae8-9e2ead738d93"},"vehicle_type_id":"4","last_reported":1748156935,"current_range_meters":11200,"station_id":"ce4bhnp2rcd13ifvqgvg","pricing_plan_id":"cebpf4jnsgd1na2vs0mg"},{"bike_id":"0b6c3272-4869-46a2-ac1c-46a6577e0af4","system_id":"levelo_inurba_marseille","lat":43.30151,"lon":5.38081,"is_reserved":false,"is_disabled":false,"rental_uris":{"android":"levelo://app?vid=0b6c3272-4869-46a2-ac1c-46a6577e0af4","ios":"levelo://app?vid=0b6c3272-4869-46a2-ac1c-46a6577e0af4"},"vehicle_type_id":"4","last_reported":1748156935,"current_range_meters":11200,"station_id":"ce4bgjp2rcd13ifvqbh0","pricing_plan_id":"cebpf4jnsgd1na2vs0mg"},{"bike_id":"3850fd70-bc18-4c11-8473-90e02d666583","system_id":"levelo_inurba_marseille","lat":43.29753,"lon":5.46014,"is_reserved":false,"is_disabled":false,"rental_uris":{"android":"levelo://app?vid=3850fd70-bc18-4c11-8473-90e02d666583","ios":"levelo://app?vid=3850fd70-bc18-4c11-8473-90e02d666583"},"vehicle_type_id":"4","last_reported":1748156935,"current_range_meters":11600,"station_id":"","pricing_plan_id":"cebpf4jnsgd1na2vs0mg"},{"bike_id":"7ccb5967-b44e-4696-a291-c80afeb45cd9","system_id":"levelo_inurba_marseille","lat":43.307857,"lon":5.376497,"is_reserved":false,"is_disabled":false,"rental_uris":{"android":"levelo://app?vid=7ccb5967-b44e-4696-a291-c80afeb45cd9","ios":"levelo://app?vid=7ccb5967-b44e-4696-a291-c80afeb45cd9"},"vehicle_type_id":"4","last_reported":1748156935,"current_range_meters":11600,"station_id":"ce4bgv92rcd13ifvqcq0","pricing_plan_id":"cebpf4jnsgd1na2vs0mg"},{"bike_id":"2c9d4d00-7a63-473d-b55c-c423bc06eb22","system_id":"levelo_inurba_marseille","lat":43.30779,"lon":5.37644,"is_reserved":false,"is_disabled":false,"rental_uris":{"android":"levelo://app?vid=2c9d4d00-7a63-473d-b55c-c423bc06eb22","ios":"levelo://app?vid=2c9d4d00-7a63-473d-b55c-c423bc06eb22"},"vehicle_type_id":"4","last_reported":1748156935,"current_range_meters":11600,"station_id":"ce4bgv92rcd13ifvqcq0","pricing_plan_id":"cebpf4jnsgd1na2vs0mg"},{"bike_id":"5abb8a77-fbf0-4d21-805b-29790cff0e49","system_id":"levelo_inurba_marseille","lat":43.31094,"lon":5.42432,"is_reserved":false,"is_disabled":false,"rental_uris":{"android":"levelo://app?vid=5abb8a77-fbf0-4d21-805b-29790cff0e49","ios":"levelo://app?vid=5abb8a77-fbf0-4d21-805b-29790cff0e49"},"vehicle_type_id":"4","last_reported":1748156935,"current_range_meters":11600,"station_id":"ce4bhp92rcd13ifvqhag","pricing_plan_id":"cebpf4jnsgd1na2vs0mg"},{"bike_id":"acb4ee96-5a51-47be-8398-8fc8108b75a2","system_id":"levelo_inurba_marseille","lat":43.30881,"lon":5.39639,"is_reserved":false,"is_disabled":false,"rental_uris":{"android":"levelo://app?vid=acb4ee96-5a51-47be-8398-8fc8108b75a2","ios":"levelo://app?vid=acb4ee96-5a51-47be-8398-8fc8108b75a2"},"vehicle_type_id":"4","last_reported":1748156935,"current_range_meters":11600,"station_id":"ce4bh012rcd13ifvqcv0","pricing_plan_id":"cebpf4jnsgd1na2vs0mg"},{"bike_id":"d294229d-0afe-4675-ae8a-a0bb5339eba4","system_id":"levelo_inurba_marseille","lat":43.284187,"lon":5.358449,"is_reserved":false,"is_disabled":false,"rental_uris":{"android":"levelo://app?vid=d294229d-0afe-4675-ae8a-a0bb5339eba4","ios":"levelo://app?vid=d294229d-0afe-4675-ae8a-a0bb5339eba4"},"vehicle_type_id":"4","last_reported":1748156935,"current_range_meters":12000,"station_id":"ce4bhah2rcd13ifvqei0","pricing_plan_id":"cebpf4jnsgd1na2vs0mg"},{"bike_id":"7c320c1b-fb02-4806-9e80-37a7ccc7f401","system_id":"levelo_inurba_marseille","lat":43.23191,"lon":5.355636,"is_reserved":false,"is_disabled":false,"rental_uris":{"android":"levelo://app?vid=7c320c1b-fb02-4806-9e80-37a7ccc7f401","ios":"levelo://app?vid=7c320c1b-fb02-4806-9e80-37a7ccc7f401"},"vehicle_type_id":"4","last_reported":1748156935,"current_range_meters":12000,"station_id":"ce4bhu92rcd13ifvqi70","pricing_plan_id":"cebpf4jnsgd1na2vs0mg"},{"bike_id":"c08ac756-eabf-4e70-b8a6-a75f4703d621","system_id":"levelo_inurba_marseille","lat":43.31753,"lon":5.39017,"is_reserved":false,"is_disabled":false,"rental_uris":{"android":"levelo://app?vid=c08ac756-eabf-4e70-b8a6-a75f4703d621","ios":"levelo://app?vid=c08ac756-eabf-4e70-b8a6-a75f4703d621"},"vehicle_type_id":"4","last_reported":1748156935,"current_range_meters":12000,"station_id":"ce4bhqp2rcd13ifvqhng","pricing_plan_id":"cebpf4jnsgd1na2vs0mg"},{"bike_id":"fe3e0658-634a-47de-a11c-0409377aa09d","system_id":"levelo_inurba_marseille","lat":43.25125,"lon":5.4033,"is_reserved":false,"is_disabled":false,"rental_uris":{"android":"levelo://app?vid=fe3e0658-634a-47de-a11c-0409377aa09d","ios":"levelo://app?vid=fe3e0658-634a-47de-a11c-0409377aa09d"},"vehicle_type_id":"4","last_reported":1748156935,"current_range_meters":12400,"station_id":"ce4bhlh2rcd13ifvqgig","pricing_plan_id":"cebpf4jnsgd1na2vs0mg"},{"bike_id":"264d8cef-6a27-4c12-9c8f-846b36316b81","system_id":"levelo_inurba_marseille","lat":43.25829,"lon":5.39427,"is_reserved":false,"is_disabled":false,"rental_uris":{"android":"levelo://app?vid=264d8cef-6a27-4c12-9c8f-846b36316b81","ios":"levelo://app?vid=264d8cef-6a27-4c12-9c8f-846b36316b81"},"vehicle_type_id":"4","last_reported":1748156935,"current_range_meters":12400,"station_id":"ce4bhip2rcd13ifvqft0","pricing_plan_id":"cebpf4jnsgd1na2vs0mg"},{"bike_id":"46bf3c4c-74ae-4852-83de-7cfc48fab15c","system_id":"levelo_inurba_marseille","lat":43.27198,"lon":5.40993,"is_reserved":false,"is_disabled":false,"rental_uris":{"android":"levelo://app?vid=46bf3c4c-74ae-4852-83de-7cfc48fab15c","ios":"levelo://app?vid=46bf3c4c-74ae-4852-83de-7cfc48fab15c"},"vehicle_type_id":"4","last_reported":1748156935,"current_range_meters":12400,"station_id":"ce4bhl12rcd13ifvqgf0","pricing_plan_id":"cebpf4jnsgd1na2vs0mg"},{"bike_id":"40ebe455-dc85-4510-9ff0-20a2294f7450","system_id":"levelo_inurba_marseille","lat":43.32538,"lon":5.41412,"is_reserved":false,"is_disabled":false,"rental_uris":{"android":"levelo://app?vid=40ebe455-dc85-4510-9ff0-20a2294f7450","ios":"levelo://app?vid=40ebe455-dc85-4510-9ff0-20a2294f7450"},"vehicle_type_id":"4","last_reported":1748156935,"current_range_meters":12400,"station_id":"ce4bhq12rcd13ifvqhhg","pricing_plan_id":"cebpf4jnsgd1na2vs0mg"},{"bike_id":"451993eb-de22-44e9-b007-1348984f5041","system_id":"levelo_inurba_marseille","lat":43.25115,"lon":5.40323,"is_reserved":false,"is_disabled":false,"rental_uris":{"android":"levelo://app?vid=451993eb-de22-44e9-b007-1348984f5041","ios":"levelo://app?vid=451993eb-de22-44e9-b007-1348984f5041"},"vehicle_type_id":"4","last_reported":1748156935,"current_range_meters":12400,"station_id":"ce4bhlh2rcd13ifvqgig","pricing_plan_id":"cebpf4jnsgd1na2vs0mg"},{"bike_id":"e588bac4-9a86-4979-bfa2-d6f8331f4471","system_id":"levelo_inurba_marseille","lat":43.30656,"lon":5.4009,"is_reserved":false,"is_disabled":false,"rental_uris":{"android":"levelo://app?vid=e588bac4-9a86-4979-bfa2-d6f8331f4471","ios":"levelo://app?vid=e588bac4-9a86-4979-bfa2-d6f8331f4471"},"vehicle_type_id":"4","last_reported":1748156935,"current_range_meters":12400,"station_id":"ce4bh112rcd13ifvqda0","pricing_plan_id":"cebpf4jnsgd1na2vs0mg"},{"bike_id":"cad06a48-5d5e-4efb-bea6-69c2a06fa63c","system_id":"levelo_inurba_marseille","lat":43.31487,"lon":5.37285,"is_reserved":false,"is_disabled":false,"rental_uris":{"android":"levelo://app?vid=cad06a48-5d5e-4efb-bea6-69c2a06fa63c","ios":"levelo://app?vid=cad06a48-5d5e-4efb-bea6-69c2a06fa63c"},"vehicle_type_id":"4","last_reported":1748156935,"current_range_meters":12400,"station_id":"ce4bgt12rcd13ifvqcd0","pricing_plan_id":"cebpf4jnsgd1na2vs0mg"},{"bike_id":"0e526ac6-d22a-466e-909a-8989748e04a2","system_id":"levelo_inurba_marseille","lat":43.241712,"lon":5.397126,"is_reserved":false,"is_disabled":false,"rental_uris":{"android":"levelo://app?vid=0e526ac6-d22a-466e-909a-8989748e04a2","ios":"levelo://app?vid=0e526ac6-d22a-466e-909a-8989748e04a2"},"vehicle_type_id":"4","last_reported":1748156935,"current_range_meters":12400,"station_id":"ce4bhn12rcd13ifvqgpg","pricing_plan_id":"cebpf4jnsgd1na2vs0mg"},{"bike_id":"75462091-2d8e-4ce5-92e3-db45030d037c","system_id":"levelo_inurba_marseille","lat":43.251123,"lon":5.403352,"is_reserved":false,"is_disabled":false,"rental_uris":{"android":"levelo://app?vid=75462091-2d8e-4ce5-92e3-db45030d037c","ios":"levelo://app?vid=75462091-2d8e-4ce5-92e3-db45030d037c"},"vehicle_type_id":"4","last_reported":1748156935,"current_range_meters":12800,"station_id":"ce4bhlh2rcd13ifvqgig","pricing_plan_id":"cebpf4jnsgd1na2vs0mg"},{"bike_id":"985dfe2e-48ab-4438-8b44-7034bccf028e","system_id":"levelo_inurba_marseille","lat":43.269917,"lon":5.398498,"is_reserved":false,"is_disabled":false,"rental_uris":{"android":"levelo://app?vid=985dfe2e-48ab-4438-8b44-7034bccf028e","ios":"levelo://app?vid=985dfe2e-48ab-4438-8b44-7034bccf028e"},"vehicle_type_id":"4","last_reported":1748156935,"current_range_meters":12800,"station_id":"","pricing_plan_id":"cebpf4jnsgd1na2vs0mg"},{"bike_id":"7d3bd24a-e5f9-4754-8ec6-3ba44c9c4f5b","system_id":"levelo_inurba_marseille","lat":43.24791,"lon":5.37454,"is_reserved":false,"is_disabled":true,"rental_uris":{"android":"levelo://app?vid=7d3bd24a-e5f9-4754-8ec6-3ba44c9c4f5b","ios":"levelo://app?vid=7d3bd24a-e5f9-4754-8ec6-3ba44c9c4f5b"},"vehicle_type_id":"4","last_reported":1748156935,"current_range_meters":12800,"station_id":"ce4bhgh2rcd13ifvqfb0","pricing_plan_id":"cebpf4jnsgd1na2vs0mg"},{"bike_id":"a3071f1e-a9e6-4a50-9331-9f73af35b6cb","system_id":"levelo_inurba_marseille","lat":43.257228,"lon":5.411343,"is_reserved":false,"is_disabled":false,"rental_uris":{"android":"levelo://app?vid=a3071f1e-a9e6-4a50-9331-9f73af35b6cb","ios":"levelo://app?vid=a3071f1e-a9e6-4a50-9331-9f73af35b6cb"},"vehicle_type_id":"4","last_reported":1748156935,"current_range_meters":12800,"station_id":"ce4bhkp2rcd13ifvqgd0","pricing_plan_id":"cebpf4jnsgd1na2vs0mg"},{"bike_id":"e5040cc6-5912-44c1-a358-57f34154615c","system_id":"levelo_inurba_marseille","lat":43.28241,"lon":5.38609,"is_reserved":false,"is_disabled":true,"rental_uris":{"android":"levelo://app?vid=e5040cc6-5912-44c1-a358-57f34154615c","ios":"levelo://app?vid=e5040cc6-5912-44c1-a358-57f34154615c"},"vehicle_type_id":"4","last_reported":1748156935,"current_range_meters":12800,"station_id":"","pricing_plan_id":"cebpf4jnsgd1na2vs0mg"},{"bike_id":"dabc077c-bf8d-431d-a5ea-dcd441e9b7b1","system_id":"levelo_inurba_marseille","lat":43.24877,"lon":5.39725,"is_reserved":false,"is_disabled":false,"rental_uris":{"android":"levelo://app?vid=dabc077c-bf8d-431d-a5ea-dcd441e9b7b1","ios":"levelo://app?vid=dabc077c-bf8d-431d-a5ea-dcd441e9b7b1"},"vehicle_type_id":"4","last_reported":1748156935,"current_range_meters":12800,"station_id":"","pricing_plan_id":"cebpf4jnsgd1na2vs0mg"},{"bike_id":"503e77ba-d207-4c9b-9afd-725500ea3736","system_id":"levelo_inurba_marseille","lat":43.282609,"lon":5.350579,"is_reserved":false,"is_disabled":false,"rental_uris":{"android":"levelo://app?vid=503e77ba-d207-4c9b-9afd-725500ea3736","ios":"levelo://app?vid=503e77ba-d207-4c9b-9afd-725500ea3736"},"vehicle_type_id":"4","last_reported":1748156935,"current_range_meters":12800,"station_id":"ce4bhh92rcd13ifvqfj0","pricing_plan_id":"cebpf4jnsgd1na2vs0mg"},{"bike_id":"c86cfab1-5001-4b22-959b-864e00eafc09","system_id":"levelo_inurba_marseille","lat":43.308759,"lon":5.396552,"is_reserved":false,"is_disabled":false,"rental_uris":{"android":"levelo://app?vid=c86cfab1-5001-4b22-959b-864e00eafc09","ios":"levelo://app?vid=c86cfab1-5001-4b22-959b-864e00eafc09"},"vehicle_type_id":"4","last_reported":1748156935,"current_range_meters":12800,"station_id":"ce4bh012rcd13ifvqcv0","pricing_plan_id":"cebpf4jnsgd1na2vs0mg"},{"bike_id":"165077a1-e67b-4201-b428-f6cc53c4e5be","system_id":"levelo_inurba_marseille","lat":43.29722,"lon":5.37607,"is_reserved":false,"is_disabled":false,"rental_uris":{"android":"levelo://app?vid=165077a1-e67b-4201-b428-f6cc53c4e5be","ios":"levelo://app?vid=165077a1-e67b-4201-b428-f6cc53c4e5be"},"vehicle_type_id":"4","last_reported":1748156935,"current_range_meters":12800,"station_id":"ce4bgkh2rcd13ifvqbl0","pricing_plan_id":"cebpf4jnsgd1na2vs0mg"},{"bike_id":"689832fd-700b-44cc-b355-a7879317a987","system_id":"levelo_inurba_marseille","lat":43.30642,"lon":5.40063,"is_reserved":false,"is_disabled":false,"rental_uris":{"android":"levelo://app?vid=689832fd-700b-44cc-b355-a7879317a987","ios":"levelo://app?vid=689832fd-700b-44cc-b355-a7879317a987"},"vehicle_type_id":"4","last_reported":1748156935,"current_range_meters":12800,"station_id":"ce4bh112rcd13ifvqda0","pricing_plan_id":"cebpf4jnsgd1na2vs0mg"},{"bike_id":"509b76ff-57b6-43f9-89ca-0efb9a97316b","system_id":"levelo_inurba_marseille","lat":43.295607,"lon":5.37492,"is_reserved":false,"is_disabled":false,"rental_uris":{"android":"levelo://app?vid=509b76ff-57b6-43f9-89ca-0efb9a97316b","ios":"levelo://app?vid=509b76ff-57b6-43f9-89ca-0efb9a97316b"},"vehicle_type_id":"4","last_reported":1748156935,"current_range_meters":13600,"station_id":"ce4bgh92rcd13ifvqb50","pricing_plan_id":"cebpf4jnsgd1na2vs0mg"},{"bike_id":"7f0b3323-77a1-43c6-a91f-7eae2ece8cc3","system_id":"levelo_inurba_marseille","lat":43.31645,"lon":5.38952,"is_reserved":false,"is_disabled":false,"rental_uris":{"android":"levelo://app?vid=7f0b3323-77a1-43c6-a91f-7eae2ece8cc3","ios":"levelo://app?vid=7f0b3323-77a1-43c6-a91f-7eae2ece8cc3"},"vehicle_type_id":"4","last_reported":1748156935,"current_range_meters":13600,"station_id":"","pricing_plan_id":"cebpf4jnsgd1na2vs0mg"},{"bike_id":"e9496718-b841-4999-823d-28c5bee5d6f1","system_id":"levelo_inurba_marseille","lat":43.26537,"lon":5.39005,"is_reserved":false,"is_disabled":false,"rental_uris":{"android":"levelo://app?vid=e9496718-b841-4999-823d-28c5bee5d6f1","ios":"levelo://app?vid=e9496718-b841-4999-823d-28c5bee5d6f1"},"vehicle_type_id":"4","last_reported":1748156935,"current_range_meters":13600,"station_id":"ce4bhe12rcd13ifvqf30","pricing_plan_id":"cebpf4jnsgd1na2vs0mg"},{"bike_id":"7c5dd7b9-9055-44cd-abb0-ed98db231985","system_id":"levelo_inurba_marseille","lat":43.29002,"lon":5.35613,"is_reserved":false,"is_disabled":false,"rental_uris":{"android":"levelo://app?vid=7c5dd7b9-9055-44cd-abb0-ed98db231985","ios":"levelo://app?vid=7c5dd7b9-9055-44cd-abb0-ed98db231985"},"vehicle_type_id":"4","last_reported":1748156935,"current_range_meters":13600,"station_id":"ce4bhb92rcd13ifvqen0","pricing_plan_id":"cebpf4jnsgd1na2vs0mg"},{"bike_id":"446ec97d-5a68-43c3-bbb2-ed42bf29b327","system_id":"levelo_inurba_marseille","lat":43.31079,"lon":5.38341,"is_reserved":false,"is_disabled":false,"rental_uris":{"android":"levelo://app?vid=446ec97d-5a68-43c3-bbb2-ed42bf29b327","ios":"levelo://app?vid=446ec97d-5a68-43c3-bbb2-ed42bf29b327"},"vehicle_type_id":"4","last_reported":1748156935,"current_range_meters":13600,"station_id":"ce4bgv92rcd13ifvqcr0","pricing_plan_id":"cebpf4jnsgd1na2vs0mg"},{"bike_id":"54a3bbf5-ebe4-4594-9532-519c0897eb70","system_id":"levelo_inurba_marseille","lat":43.299694,"lon":5.413299,"is_reserved":false,"is_disabled":true,"rental_uris":{"android":"levelo://app?vid=54a3bbf5-ebe4-4594-9532-519c0897eb70","ios":"levelo://app?vid=54a3bbf5-ebe4-4594-9532-519c0897eb70"},"vehicle_type_id":"4","last_reported":1748156935,"current_range_meters":13600,"station_id":"ce4bhp12rcd13ifvqh9g","pricing_plan_id":"cebpf4jnsgd1na2vs0mg"},{"bike_id":"f980de9c-e947-4a52-af14-d5d96c2f53a2","system_id":"levelo_inurba_marseille","lat":43.30564,"lon":5.37153,"is_reserved":false,"is_disabled":false,"rental_uris":{"android":"levelo://app?vid=f980de9c-e947-4a52-af14-d5d96c2f53a2","ios":"levelo://app?vid=f980de9c-e947-4a52-af14-d5d96c2f53a2"},"vehicle_type_id":"4","last_reported":1748156935,"current_range_meters":13600,"station_id":"ce4bgqh2rcd13ifvqc4g","pricing_plan_id":"cebpf4jnsgd1na2vs0mg"},{"bike_id":"8c24a1cc-9755-4ef3-aee7-aeff472999dc","system_id":"levelo_inurba_marseille","lat":43.282717,"lon":5.350727,"is_reserved":false,"is_disabled":true,"rental_uris":{"android":"levelo://app?vid=8c24a1cc-9755-4ef3-aee7-aeff472999dc","ios":"levelo://app?vid=8c24a1cc-9755-4ef3-aee7-aeff472999dc"},"vehicle_type_id":"4","last_reported":1748156935,"current_range_meters":13600,"station_id":"ce4bhbp2rcd13ifvqerg","pricing_plan_id":"cebpf4jnsgd1na2vs0mg"},{"bike_id":"78084e65-0f8a-4a63-bf1c-3fbde80b370d","system_id":"levelo_inurba_marseille","lat":43.29442,"lon":5.43383,"is_reserved":false,"is_disabled":true,"rental_uris":{"android":"levelo://app?vid=78084e65-0f8a-4a63-bf1c-3fbde80b370d","ios":"levelo://app?vid=78084e65-0f8a-4a63-bf1c-3fbde80b370d"},"vehicle_type_id":"4","last_reported":1748156935,"current_range_meters":14000,"station_id":"","pricing_plan_id":"cebpf4jnsgd1na2vs0mg"},{"bike_id":"c665f447-5305-44d5-a70e-dbe478fd2554","system_id":"levelo_inurba_marseille","lat":43.30796,"lon":5.37645,"is_reserved":false,"is_disabled":false,"rental_uris":{"android":"levelo://app?vid=c665f447-5305-44d5-a70e-dbe478fd2554","ios":"levelo://app?vid=c665f447-5305-44d5-a70e-dbe478fd2554"},"vehicle_type_id":"4","last_reported":1748156935,"current_range_meters":14000,"station_id":"ce4bgv92rcd13ifvqcq0","pricing_plan_id":"cebpf4jnsgd1na2vs0mg"},{"bike_id":"a90e20a6-bffb-4ea1-8324-9ffba03b3cf7","system_id":"levelo_inurba_marseille","lat":43.25126,"lon":5.40312,"is_reserved":false,"is_disabled":false,"rental_uris":{"android":"levelo://app?vid=a90e20a6-bffb-4ea1-8324-9ffba03b3cf7","ios":"levelo://app?vid=a90e20a6-bffb-4ea1-8324-9ffba03b3cf7"},"vehicle_type_id":"4","last_reported":1748156935,"current_range_meters":14000,"station_id":"ce4bhlh2rcd13ifvqgig","pricing_plan_id":"cebpf4jnsgd1na2vs0mg"},{"bike_id":"1b18625e-19e9-4ba4-8600-fb9d5a0f7c73","system_id":"levelo_inurba_marseille","lat":43.25106,"lon":5.40298,"is_reserved":false,"is_disabled":false,"rental_uris":{"android":"levelo://app?vid=1b18625e-19e9-4ba4-8600-fb9d5a0f7c73","ios":"levelo://app?vid=1b18625e-19e9-4ba4-8600-fb9d5a0f7c73"},"vehicle_type_id":"4","last_reported":1748156935,"current_range_meters":14000,"station_id":"ce4bhlh2rcd13ifvqgig","pricing_plan_id":"cebpf4jnsgd1na2vs0mg"},{"bike_id":"afa67528-3199-49dc-9033-fffd81f5692f","system_id":"levelo_inurba_marseille","lat":43.301652,"lon":5.38083,"is_reserved":false,"is_disabled":false,"rental_uris":{"android":"levelo://app?vid=afa67528-3199-49dc-9033-fffd81f5692f","ios":"levelo://app?vid=afa67528-3199-49dc-9033-fffd81f5692f"},"vehicle_type_id":"4","last_reported":1748156935,"current_range_meters":14000,"station_id":"ce4bgjp2rcd13ifvqbh0","pricing_plan_id":"cebpf4jnsgd1na2vs0mg"},{"bike_id":"cb16c1b5-f0db-4cdd-bb07-10ba695a2b55","system_id":"levelo_inurba_marseille","lat":43.28711,"lon":5.37388,"is_reserved":false,"is_disabled":false,"rental_uris":{"android":"levelo://app?vid=cb16c1b5-f0db-4cdd-bb07-10ba695a2b55","ios":"levelo://app?vid=cb16c1b5-f0db-4cdd-bb07-10ba695a2b55"},"vehicle_type_id":"4","last_reported":1748156935,"current_range_meters":14400,"station_id":"ce4bh3p2rcd13ifvqdq0","pricing_plan_id":"cebpf4jnsgd1na2vs0mg"},{"bike_id":"1d780609-59ad-4544-a4c0-4a0ca0d9e99c","system_id":"levelo_inurba_marseille","lat":43.25497,"lon":5.37649,"is_reserved":false,"is_disabled":false,"rental_uris":{"android":"levelo://app?vid=1d780609-59ad-4544-a4c0-4a0ca0d9e99c","ios":"levelo://app?vid=1d780609-59ad-4544-a4c0-4a0ca0d9e99c"},"vehicle_type_id":"4","last_reported":1748156935,"current_range_meters":14400,"station_id":"ce4bhh12rcd13ifvqff0","pricing_plan_id":"cebpf4jnsgd1na2vs0mg"},{"bike_id":"cd07eb63-8cb3-4a52-a62d-91a94bcdd0d9","system_id":"levelo_inurba_marseille","lat":43.298705,"lon":5.389107,"is_reserved":false,"is_disabled":true,"rental_uris":{"android":"levelo://app?vid=cd07eb63-8cb3-4a52-a62d-91a94bcdd0d9","ios":"levelo://app?vid=cd07eb63-8cb3-4a52-a62d-91a94bcdd0d9"},"vehicle_type_id":"4","last_reported":1748156935,"current_range_meters":14400,"station_id":"ce4bh392rcd13ifvqdl0","pricing_plan_id":"cebpf4jnsgd1na2vs0mg"},{"bike_id":"d556693b-b657-4c5b-a34b-edba74314dcb","system_id":"levelo_inurba_marseille","lat":43.292765,"lon":5.401478,"is_reserved":false,"is_disabled":false,"rental_uris":{"android":"levelo://app?vid=d556693b-b657-4c5b-a34b-edba74314dcb","ios":"levelo://app?vid=d556693b-b657-4c5b-a34b-edba74314dcb"},"vehicle_type_id":"4","last_reported":1748156935,"current_range_meters":14400,"station_id":"ce4bh312rcd13ifvqdk0","pricing_plan_id":"cebpf4jnsgd1na2vs0mg"},{"bike_id":"a5b38d55-88c0-4aec-adc9-d8fc54a1ef4a","system_id":"levelo_inurba_marseille","lat":43.29281,"lon":5.40127,"is_reserved":false,"is_disabled":false,"rental_uris":{"android":"levelo://app?vid=a5b38d55-88c0-4aec-adc9-d8fc54a1ef4a","ios":"levelo://app?vid=a5b38d55-88c0-4aec-adc9-d8fc54a1ef4a"},"vehicle_type_id":"4","last_reported":1748156935,"current_range_meters":14400,"station_id":"ce4bh312rcd13ifvqdk0","pricing_plan_id":"cebpf4jnsgd1na2vs0mg"},{"bike_id":"72bfd565-feeb-4e2a-a249-dfd1a33ced4f","system_id":"levelo_inurba_marseille","lat":43.30884,"lon":5.3721,"is_reserved":false,"is_disabled":false,"rental_uris":{"android":"levelo://app?vid=72bfd565-feeb-4e2a-a249-dfd1a33ced4f","ios":"levelo://app?vid=72bfd565-feeb-4e2a-a249-dfd1a33ced4f"},"vehicle_type_id":"4","last_reported":1748156935,"current_range_meters":14400,"station_id":"ce4bguh2rcd13ifvqckg","pricing_plan_id":"cebpf4jnsgd1na2vs0mg"},{"bike_id":"2f4f97cc-faff-494c-82a3-534a476a06a3","system_id":"levelo_inurba_marseille","lat":43.27065,"lon":5.42268,"is_reserved":false,"is_disabled":false,"rental_uris":{"android":"levelo://app?vid=2f4f97cc-faff-494c-82a3-534a476a06a3","ios":"levelo://app?vid=2f4f97cc-faff-494c-82a3-534a476a06a3"},"vehicle_type_id":"4","last_reported":1748156935,"current_range_meters":14400,"station_id":"ce4bhk92rcd13ifvqgb0","pricing_plan_id":"cebpf4jnsgd1na2vs0mg"},{"bike_id":"c6a1711e-ee9a-40d5-b040-543f7ca91f8b","system_id":"levelo_inurba_marseille","lat":43.30362,"lon":5.41893,"is_reserved":false,"is_disabled":false,"rental_uris":{"android":"levelo://app?vid=c6a1711e-ee9a-40d5-b040-543f7ca91f8b","ios":"levelo://app?vid=c6a1711e-ee9a-40d5-b040-543f7ca91f8b"},"vehicle_type_id":"4","last_reported":1748156935,"current_range_meters":14400,"station_id":"ce4bhop2rcd13ifvqh7g","pricing_plan_id":"cebpf4jnsgd1na2vs0mg"},{"bike_id":"8e62abf4-bcfe-4914-88f3-2de709489afe","system_id":"levelo_inurba_marseille","lat":43.30738,"lon":5.37103,"is_reserved":false,"is_disabled":false,"rental_uris":{"android":"levelo://app?vid=8e62abf4-bcfe-4914-88f3-2de709489afe","ios":"levelo://app?vid=8e62abf4-bcfe-4914-88f3-2de709489afe"},"vehicle_type_id":"4","last_reported":1748156935,"current_range_meters":14800,"station_id":"","pricing_plan_id":"cebpf4jnsgd1na2vs0mg"},{"bike_id":"85deee00-d7a0-4124-9be7-10990aa84c4c","system_id":"levelo_inurba_marseille","lat":43.30932,"lon":5.40141,"is_reserved":false,"is_disabled":false,"rental_uris":{"android":"levelo://app?vid=85deee00-d7a0-4124-9be7-10990aa84c4c","ios":"levelo://app?vid=85deee00-d7a0-4124-9be7-10990aa84c4c"},"vehicle_type_id":"4","last_reported":1748156935,"current_range_meters":14800,"station_id":"ce4bgvp2rcd13ifvqct0","pricing_plan_id":"cebpf4jnsgd1na2vs0mg"},{"bike_id":"9677d2a3-7e3f-4ca5-bf18-0e183cd88b8c","system_id":"levelo_inurba_marseille","lat":43.32368,"lon":5.38872,"is_reserved":false,"is_disabled":false,"rental_uris":{"android":"levelo://app?vid=9677d2a3-7e3f-4ca5-bf18-0e183cd88b8c","ios":"levelo://app?vid=9677d2a3-7e3f-4ca5-bf18-0e183cd88b8c"},"vehicle_type_id":"4","last_reported":1748156935,"current_range_meters":14800,"station_id":"ce4bhqp2rcd13ifvqhog","pricing_plan_id":"cebpf4jnsgd1na2vs0mg"},{"bike_id":"244b36a0-5585-4aef-a371-7da408ef9135","system_id":"levelo_inurba_marseille","lat":43.30264,"lon":5.40052,"is_reserved":false,"is_disabled":false,"rental_uris":{"android":"levelo://app?vid=244b36a0-5585-4aef-a371-7da408ef9135","ios":"levelo://app?vid=244b36a0-5585-4aef-a371-7da408ef9135"},"vehicle_type_id":"4","last_reported":1748156935,"current_range_meters":14800,"station_id":"ce4bgvh2rcd13ifvqcs0","pricing_plan_id":"cebpf4jnsgd1na2vs0mg"},{"bike_id":"640d9557-c62d-4bb2-87e0-562f43b87fdd","system_id":"levelo_inurba_marseille","lat":43.29033,"lon":5.39962,"is_reserved":false,"is_disabled":false,"rental_uris":{"android":"levelo://app?vid=640d9557-c62d-4bb2-87e0-562f43b87fdd","ios":"levelo://app?vid=640d9557-c62d-4bb2-87e0-562f43b87fdd"},"vehicle_type_id":"4","last_reported":1748156935,"current_range_meters":14800,"station_id":"ce4bh392rcd13ifvqdm0","pricing_plan_id":"cebpf4jnsgd1na2vs0mg"},{"bike_id":"fb14966c-dc81-4839-a094-ab8c755c3e53","system_id":"levelo_inurba_marseille","lat":43.2869,"lon":5.38669,"is_reserved":false,"is_disabled":false,"rental_uris":{"android":"levelo://app?vid=fb14966c-dc81-4839-a094-ab8c755c3e53","ios":"levelo://app?vid=fb14966c-dc81-4839-a094-ab8c755c3e53"},"vehicle_type_id":"4","last_reported":1748156935,"current_range_meters":15200,"station_id":"ce4bh492rcd13ifvqdug","pricing_plan_id":"cebpf4jnsgd1na2vs0mg"},{"bike_id":"a4aef2b9-b7e8-4e2d-8340-592d28bc6c85","system_id":"levelo_inurba_marseille","lat":43.337582,"lon":5.374479,"is_reserved":false,"is_disabled":false,"rental_uris":{"android":"levelo://app?vid=a4aef2b9-b7e8-4e2d-8340-592d28bc6c85","ios":"levelo://app?vid=a4aef2b9-b7e8-4e2d-8340-592d28bc6c85"},"vehicle_type_id":"4","last_reported":1748156935,"current_range_meters":15200,"station_id":"","pricing_plan_id":"cebpf4jnsgd1na2vs0mg"},{"bike_id":"ad13f40f-afc2-41df-b951-1839fc39d6d9","system_id":"levelo_inurba_marseille","lat":43.28107,"lon":5.37833,"is_reserved":false,"is_disabled":false,"rental_uris":{"android":"levelo://app?vid=ad13f40f-afc2-41df-b951-1839fc39d6d9","ios":"levelo://app?vid=ad13f40f-afc2-41df-b951-1839fc39d6d9"},"vehicle_type_id":"4","last_reported":1748156935,"current_range_meters":14800,"station_id":"ce4bha12rcd13ifvqee0","pricing_plan_id":"cebpf4jnsgd1na2vs0mg"},{"bike_id":"c8d0d474-0967-490d-b87d-88bb1f989ea8","system_id":"levelo_inurba_marseille","lat":43.29273,"lon":5.36851,"is_reserved":false,"is_disabled":false,"rental_uris":{"android":"levelo://app?vid=c8d0d474-0967-490d-b87d-88bb1f989ea8","ios":"levelo://app?vid=c8d0d474-0967-490d-b87d-88bb1f989ea8"},"vehicle_type_id":"4","last_reported":1748156935,"current_range_meters":15200,"station_id":"ce4bhbp2rcd13ifvqesg","pricing_plan_id":"cebpf4jnsgd1na2vs0mg"},{"bike_id":"c5ce9847-a662-44bc-809c-18611c5abf75","system_id":"levelo_inurba_marseille","lat":43.231794,"lon":5.399816,"is_reserved":false,"is_disabled":false,"rental_uris":{"android":"levelo://app?vid=c5ce9847-a662-44bc-809c-18611c5abf75","ios":"levelo://app?vid=c5ce9847-a662-44bc-809c-18611c5abf75"},"vehicle_type_id":"4","last_reported":1748156935,"current_range_meters":15200,"station_id":"ce4bhn12rcd13ifvqgqg","pricing_plan_id":"cebpf4jnsgd1na2vs0mg"},{"bike_id":"7ea0f566-11f0-409d-992d-b93adbf3242b","system_id":"levelo_inurba_marseille","lat":43.28446,"lon":5.39204,"is_reserved":false,"is_disabled":false,"rental_uris":{"android":"levelo://app?vid=7ea0f566-11f0-409d-992d-b93adbf3242b","ios":"levelo://app?vid=7ea0f566-11f0-409d-992d-b93adbf3242b"},"vehicle_type_id":"4","last_reported":1748156935,"current_range_meters":15200,"station_id":"ce4bhoh2rcd13ifvqh5g","pricing_plan_id":"cebpf4jnsgd1na2vs0mg"},{"bike_id":"fc56555b-396d-4667-b896-0ad86036e39e","system_id":"levelo_inurba_marseille","lat":43.25906,"lon":5.38015,"is_reserved":false,"is_disabled":false,"rental_uris":{"android":"levelo://app?vid=fc56555b-396d-4667-b896-0ad86036e39e","ios":"levelo://app?vid=fc56555b-396d-4667-b896-0ad86036e39e"},"vehicle_type_id":"4","last_reported":1748156935,"current_range_meters":16000,"station_id":"","pricing_plan_id":"cebpf4jnsgd1na2vs0mg"},{"bike_id":"8311754a-cb3d-4215-82b0-66a10c26caae","system_id":"levelo_inurba_marseille","lat":43.30419,"lon":5.41293,"is_reserved":false,"is_disabled":false,"rental_uris":{"android":"levelo://app?vid=8311754a-cb3d-4215-82b0-66a10c26caae","ios":"levelo://app?vid=8311754a-cb3d-4215-82b0-66a10c26caae"},"vehicle_type_id":"4","last_reported":1748156935,"current_range_meters":16000,"station_id":"ce4bhop2rcd13ifvqh8g","pricing_plan_id":"cebpf4jnsgd1na2vs0mg"},{"bike_id":"d7d43624-a641-4381-92fc-49cd4e58cb5d","system_id":"levelo_inurba_marseille","lat":43.28439,"lon":5.34984,"is_reserved":false,"is_disabled":true,"rental_uris":{"android":"levelo://app?vid=d7d43624-a641-4381-92fc-49cd4e58cb5d","ios":"levelo://app?vid=d7d43624-a641-4381-92fc-49cd4e58cb5d"},"vehicle_type_id":"4","last_reported":1748156935,"current_range_meters":16000,"station_id":"ce4bhbh2rcd13ifvqepg","pricing_plan_id":"cebpf4jnsgd1na2vs0mg"},{"bike_id":"8834499c-e7c2-445e-bad5-6885b7ec612f","system_id":"levelo_inurba_marseille","lat":43.32361,"lon":5.36764,"is_reserved":false,"is_disabled":false,"rental_uris":{"android":"levelo://app?vid=8834499c-e7c2-445e-bad5-6885b7ec612f","ios":"levelo://app?vid=8834499c-e7c2-445e-bad5-6885b7ec612f"},"vehicle_type_id":"4","last_reported":1748156935,"current_range_meters":16000,"station_id":"ce4bhsh2rcd13ifvqi2g","pricing_plan_id":"cebpf4jnsgd1na2vs0mg"},{"bike_id":"5f43fc69-8c71-432e-92e0-d82040ee9ba1","system_id":"levelo_inurba_marseille","lat":43.23534,"lon":5.403248,"is_reserved":false,"is_disabled":false,"rental_uris":{"android":"levelo://app?vid=5f43fc69-8c71-432e-92e0-d82040ee9ba1","ios":"levelo://app?vid=5f43fc69-8c71-432e-92e0-d82040ee9ba1"},"vehicle_type_id":"4","last_reported":1748156935,"current_range_meters":16000,"station_id":"","pricing_plan_id":"cebpf4jnsgd1na2vs0mg"},{"bike_id":"36cc3f7f-d72d-494d-9241-1ed75dbf2342","system_id":"levelo_inurba_marseille","lat":43.25104,"lon":5.40326,"is_reserved":false,"is_disabled":false,"rental_uris":{"android":"levelo://app?vid=36cc3f7f-d72d-494d-9241-1ed75dbf2342","ios":"levelo://app?vid=36cc3f7f-d72d-494d-9241-1ed75dbf2342"},"vehicle_type_id":"4","last_reported":1748156935,"current_range_meters":16000,"station_id":"ce4bhlh2rcd13ifvqgig","pricing_plan_id":"cebpf4jnsgd1na2vs0mg"},{"bike_id":"437b3e2e-e236-4de3-9707-88eb6e5782e9","system_id":"levelo_inurba_marseille","lat":43.25116,"lon":5.40309,"is_reserved":false,"is_disabled":false,"rental_uris":{"android":"levelo://app?vid=437b3e2e-e236-4de3-9707-88eb6e5782e9","ios":"levelo://app?vid=437b3e2e-e236-4de3-9707-88eb6e5782e9"},"vehicle_type_id":"4","last_reported":1748156935,"current_range_meters":16000,"station_id":"ce4bhlh2rcd13ifvqgig","pricing_plan_id":"cebpf4jnsgd1na2vs0mg"},{"bike_id":"225ee3b0-6454-42cb-9b81-b349cb8b9cfb","system_id":"levelo_inurba_marseille","lat":43.21192,"lon":5.35073,"is_reserved":false,"is_disabled":false,"rental_uris":{"android":"levelo://app?vid=225ee3b0-6454-42cb-9b81-b349cb8b9cfb","ios":"levelo://app?vid=225ee3b0-6454-42cb-9b81-b349cb8b9cfb"},"vehicle_type_id":"4","last_reported":1748156935,"current_range_meters":16000,"station_id":"","pricing_plan_id":"cebpf4jnsgd1na2vs0mg"},{"bike_id":"197a1211-9556-4e79-bf92-df28dc5ee00d","system_id":"levelo_inurba_marseille","lat":43.29228,"lon":5.36069,"is_reserved":false,"is_disabled":false,"rental_uris":{"android":"levelo://app?vid=197a1211-9556-4e79-bf92-df28dc5ee00d","ios":"levelo://app?vid=197a1211-9556-4e79-bf92-df28dc5ee00d"},"vehicle_type_id":"4","last_reported":1748156935,"current_range_meters":16000,"station_id":"ce4bhbh2rcd13ifvqeqg","pricing_plan_id":"cebpf4jnsgd1na2vs0mg"},{"bike_id":"e96d95b8-5632-4e26-86f7-6aa32579e2a2","system_id":"levelo_inurba_marseille","lat":43.25115,"lon":5.40321,"is_reserved":false,"is_disabled":false,"rental_uris":{"android":"levelo://app?vid=e96d95b8-5632-4e26-86f7-6aa32579e2a2","ios":"levelo://app?vid=e96d95b8-5632-4e26-86f7-6aa32579e2a2"},"vehicle_type_id":"4","last_reported":1748156935,"current_range_meters":16000,"station_id":"ce4bhlh2rcd13ifvqgig","pricing_plan_id":"cebpf4jnsgd1na2vs0mg"},{"bike_id":"874fba91-fbda-4288-b17f-8759eec81e80","system_id":"levelo_inurba_marseille","lat":43.29282,"lon":5.401297,"is_reserved":false,"is_disabled":false,"rental_uris":{"android":"levelo://app?vid=874fba91-fbda-4288-b17f-8759eec81e80","ios":"levelo://app?vid=874fba91-fbda-4288-b17f-8759eec81e80"},"vehicle_type_id":"4","last_reported":1748156935,"current_range_meters":16000,"station_id":"ce4bhk92rcd13ifvqgb0","pricing_plan_id":"cebpf4jnsgd1na2vs0mg"},{"bike_id":"c216aea8-fe1d-44a6-a30b-27f8080f7997","system_id":"levelo_inurba_marseille","lat":43.25065,"lon":5.39509,"is_reserved":false,"is_disabled":false,"rental_uris":{"android":"levelo://app?vid=c216aea8-fe1d-44a6-a30b-27f8080f7997","ios":"levelo://app?vid=c216aea8-fe1d-44a6-a30b-27f8080f7997"},"vehicle_type_id":"4","last_reported":1748156935,"current_range_meters":16000,"station_id":"ce4bhm12rcd13ifvqgkg","pricing_plan_id":"cebpf4jnsgd1na2vs0mg"},{"bike_id":"8ac202ab-1ea2-416a-8a61-def86f3d8bc9","system_id":"levelo_inurba_marseille","lat":43.2572,"lon":5.41112,"is_reserved":false,"is_disabled":false,"rental_uris":{"android":"levelo://app?vid=8ac202ab-1ea2-416a-8a61-def86f3d8bc9","ios":"levelo://app?vid=8ac202ab-1ea2-416a-8a61-def86f3d8bc9"},"vehicle_type_id":"4","last_reported":1748156935,"current_range_meters":16400,"station_id":"ce4bhkp2rcd13ifvqgd0","pricing_plan_id":"cebpf4jnsgd1na2vs0mg"},{"bike_id":"f23040ee-d829-46dc-915d-f3b2af35e07f","system_id":"levelo_inurba_marseille","lat":43.25088,"lon":5.39489,"is_reserved":false,"is_disabled":false,"rental_uris":{"android":"levelo://app?vid=f23040ee-d829-46dc-915d-f3b2af35e07f","ios":"levelo://app?vid=f23040ee-d829-46dc-915d-f3b2af35e07f"},"vehicle_type_id":"4","last_reported":1748156935,"current_range_meters":16400,"station_id":"ce4bhm12rcd13ifvqgkg","pricing_plan_id":"cebpf4jnsgd1na2vs0mg"},{"bike_id":"97a1b038-1dd8-41a6-86b8-d25fb8c7e433","system_id":"levelo_inurba_marseille","lat":43.26218,"lon":5.40457,"is_reserved":false,"is_disabled":false,"rental_uris":{"android":"levelo://app?vid=97a1b038-1dd8-41a6-86b8-d25fb8c7e433","ios":"levelo://app?vid=97a1b038-1dd8-41a6-86b8-d25fb8c7e433"},"vehicle_type_id":"4","last_reported":1748156935,"current_range_meters":16400,"station_id":"ce4bhmh2rcd13ifvqgmg","pricing_plan_id":"cebpf4jnsgd1na2vs0mg"},{"bike_id":"c6586961-6c76-498d-aa17-e64b6b3660d2","system_id":"levelo_inurba_marseille","lat":43.27071,"lon":5.42276,"is_reserved":false,"is_disabled":false,"rental_uris":{"android":"levelo://app?vid=c6586961-6c76-498d-aa17-e64b6b3660d2","ios":"levelo://app?vid=c6586961-6c76-498d-aa17-e64b6b3660d2"},"vehicle_type_id":"4","last_reported":1748156935,"current_range_meters":16400,"station_id":"ce4bhk92rcd13ifvqgb0","pricing_plan_id":"cebpf4jnsgd1na2vs0mg"},{"bike_id":"b4246170-88b5-4358-8893-d97d7f960306","system_id":"levelo_inurba_marseille","lat":43.26049,"lon":5.39388,"is_reserved":false,"is_disabled":false,"rental_uris":{"android":"levelo://app?vid=b4246170-88b5-4358-8893-d97d7f960306","ios":"levelo://app?vid=b4246170-88b5-4358-8893-d97d7f960306"},"vehicle_type_id":"4","last_reported":1748156935,"current_range_meters":16400,"station_id":"ce4bhh92rcd13ifvqfj0","pricing_plan_id":"cebpf4jnsgd1na2vs0mg"},{"bike_id":"6deb94fc-b073-4532-aa31-b061d67aa10e","system_id":"levelo_inurba_marseille","lat":43.23196,"lon":5.3999,"is_reserved":false,"is_disabled":false,"rental_uris":{"android":"levelo://app?vid=6deb94fc-b073-4532-aa31-b061d67aa10e","ios":"levelo://app?vid=6deb94fc-b073-4532-aa31-b061d67aa10e"},"vehicle_type_id":"4","last_reported":1748156935,"current_range_meters":16400,"station_id":"ce4bhn12rcd13ifvqgqg","pricing_plan_id":"cebpf4jnsgd1na2vs0mg"},{"bike_id":"4edb82f7-e5cc-4ad2-94ec-73a0f659da4f","system_id":"levelo_inurba_marseille","lat":43.25109,"lon":5.40314,"is_reserved":false,"is_disabled":false,"rental_uris":{"android":"levelo://app?vid=4edb82f7-e5cc-4ad2-94ec-73a0f659da4f","ios":"levelo://app?vid=4edb82f7-e5cc-4ad2-94ec-73a0f659da4f"},"vehicle_type_id":"4","last_reported":1748156935,"current_range_meters":16400,"station_id":"ce4bhlh2rcd13ifvqgig","pricing_plan_id":"cebpf4jnsgd1na2vs0mg"},{"bike_id":"50873a96-2e0b-456e-b5cd-1dc02b4e43b7","system_id":"levelo_inurba_marseille","lat":43.29546,"lon":5.42276,"is_reserved":false,"is_disabled":false,"rental_uris":{"android":"levelo://app?vid=50873a96-2e0b-456e-b5cd-1dc02b4e43b7","ios":"levelo://app?vid=50873a96-2e0b-456e-b5cd-1dc02b4e43b7"},"vehicle_type_id":"4","last_reported":1748156935,"current_range_meters":16400,"station_id":"ce4bhph2rcd13ifvqhdg","pricing_plan_id":"cebpf4jnsgd1na2vs0mg"},{"bike_id":"db82c9b6-707f-4d56-8056-51c667b9537b","system_id":"levelo_inurba_marseille","lat":43.27212,"lon":5.39187,"is_reserved":false,"is_disabled":false,"rental_uris":{"android":"levelo://app?vid=db82c9b6-707f-4d56-8056-51c667b9537b","ios":"levelo://app?vid=db82c9b6-707f-4d56-8056-51c667b9537b"},"vehicle_type_id":"4","last_reported":1748156935,"current_range_meters":16800,"station_id":"ce4bhhp2rcd13ifvqfm0","pricing_plan_id":"cebpf4jnsgd1na2vs0mg"},{"bike_id":"bab7755c-6ee3-4153-8131-d60db78815d9","system_id":"levelo_inurba_marseille","lat":43.231888,"lon":5.355666,"is_reserved":false,"is_disabled":false,"rental_uris":{"android":"levelo://app?vid=bab7755c-6ee3-4153-8131-d60db78815d9","ios":"levelo://app?vid=bab7755c-6ee3-4153-8131-d60db78815d9"},"vehicle_type_id":"4","last_reported":1748156935,"current_range_meters":16800,"station_id":"ce4bhu92rcd13ifvqi70","pricing_plan_id":"cebpf4jnsgd1na2vs0mg"},{"bike_id":"f166c053-78c1-4c1b-9d66-3fa07ea98f6e","system_id":"levelo_inurba_marseille","lat":43.32649,"lon":5.366293,"is_reserved":false,"is_disabled":false,"rental_uris":{"android":"levelo://app?vid=f166c053-78c1-4c1b-9d66-3fa07ea98f6e","ios":"levelo://app?vid=f166c053-78c1-4c1b-9d66-3fa07ea98f6e"},"vehicle_type_id":"4","last_reported":1748156935,"current_range_meters":16800,"station_id":"","pricing_plan_id":"cebpf4jnsgd1na2vs0mg"},{"bike_id":"993c1907-cc1f-4ec9-9803-657bce0932ec","system_id":"levelo_inurba_marseille","lat":43.24806,"lon":5.37455,"is_reserved":false,"is_disabled":false,"rental_uris":{"android":"levelo://app?vid=993c1907-cc1f-4ec9-9803-657bce0932ec","ios":"levelo://app?vid=993c1907-cc1f-4ec9-9803-657bce0932ec"},"vehicle_type_id":"4","last_reported":1748156935,"current_range_meters":16800,"station_id":"ce4bhgh2rcd13ifvqfb0","pricing_plan_id":"cebpf4jnsgd1na2vs0mg"},{"bike_id":"41d795fd-6b15-4eca-98cc-80356500dbfe","system_id":"levelo_inurba_marseille","lat":43.24166,"lon":5.36405,"is_reserved":false,"is_disabled":true,"rental_uris":{"android":"levelo://app?vid=41d795fd-6b15-4eca-98cc-80356500dbfe","ios":"levelo://app?vid=41d795fd-6b15-4eca-98cc-80356500dbfe"},"vehicle_type_id":"4","last_reported":1748156935,"current_range_meters":16800,"station_id":"cpo36qri1sfpv3e86is0","pricing_plan_id":"cebpf4jnsgd1na2vs0mg"},{"bike_id":"b316b199-862f-4e3d-804d-1b0e6a21a9dc","system_id":"levelo_inurba_marseille","lat":43.31744,"lon":5.40407,"is_reserved":false,"is_disabled":false,"rental_uris":{"android":"levelo://app?vid=b316b199-862f-4e3d-804d-1b0e6a21a9dc","ios":"levelo://app?vid=b316b199-862f-4e3d-804d-1b0e6a21a9dc"},"vehicle_type_id":"4","last_reported":1748156935,"current_range_meters":16800,"station_id":"","pricing_plan_id":"cebpf4jnsgd1na2vs0mg"},{"bike_id":"c9fadf8d-c7a8-40b6-8176-779d5c48b865","system_id":"levelo_inurba_marseille","lat":43.29782,"lon":5.37088,"is_reserved":false,"is_disabled":false,"rental_uris":{"android":"levelo://app?vid=c9fadf8d-c7a8-40b6-8176-779d5c48b865","ios":"levelo://app?vid=c9fadf8d-c7a8-40b6-8176-779d5c48b865"},"vehicle_type_id":"4","last_reported":1748156935,"current_range_meters":16800,"station_id":"ce4bgop2rcd13ifvqc1g","pricing_plan_id":"cebpf4jnsgd1na2vs0mg"},{"bike_id":"7a91dfd5-fb7d-4962-8fe9-b7af1c96f793","system_id":"levelo_inurba_marseille","lat":43.3133,"lon":5.39703,"is_reserved":false,"is_disabled":false,"rental_uris":{"android":"levelo://app?vid=7a91dfd5-fb7d-4962-8fe9-b7af1c96f793","ios":"levelo://app?vid=7a91dfd5-fb7d-4962-8fe9-b7af1c96f793"},"vehicle_type_id":"4","last_reported":1748156935,"current_range_meters":16800,"station_id":"ce4bgvp2rcd13ifvqcu0","pricing_plan_id":"cebpf4jnsgd1na2vs0mg"},{"bike_id":"25a24deb-d63c-4c07-a5cd-9bbf94631d1b","system_id":"levelo_inurba_marseille","lat":43.292787,"lon":5.401216,"is_reserved":false,"is_disabled":false,"rental_uris":{"android":"levelo://app?vid=25a24deb-d63c-4c07-a5cd-9bbf94631d1b","ios":"levelo://app?vid=25a24deb-d63c-4c07-a5cd-9bbf94631d1b"},"vehicle_type_id":"4","last_reported":1748156935,"current_range_meters":16800,"station_id":"ce4bh312rcd13ifvqdk0","pricing_plan_id":"cebpf4jnsgd1na2vs0mg"},{"bike_id":"d989df4b-7ce8-4554-81aa-c1ad6d895a97","system_id":"levelo_inurba_marseille","lat":43.30149,"lon":5.38083,"is_reserved":false,"is_disabled":false,"rental_uris":{"android":"levelo://app?vid=d989df4b-7ce8-4554-81aa-c1ad6d895a97","ios":"levelo://app?vid=d989df4b-7ce8-4554-81aa-c1ad6d895a97"},"vehicle_type_id":"4","last_reported":1748156935,"current_range_meters":17200,"station_id":"ce4bgjp2rcd13ifvqbh0","pricing_plan_id":"cebpf4jnsgd1na2vs0mg"},{"bike_id":"54c6253e-fadb-4c37-95b3-44d18be22933","system_id":"levelo_inurba_marseille","lat":43.312527,"lon":5.368295,"is_reserved":false,"is_disabled":false,"rental_uris":{"android":"levelo://app?vid=54c6253e-fadb-4c37-95b3-44d18be22933","ios":"levelo://app?vid=54c6253e-fadb-4c37-95b3-44d18be22933"},"vehicle_type_id":"4","last_reported":1748156935,"current_range_meters":17200,"station_id":"ce4bgl92rcd13ifvqbq0","pricing_plan_id":"cebpf4jnsgd1na2vs0mg"},{"bike_id":"87535261-86b9-49e3-b459-a1f994799a87","system_id":"levelo_inurba_marseille","lat":43.28704,"lon":5.3999,"is_reserved":false,"is_disabled":false,"rental_uris":{"android":"levelo://app?vid=87535261-86b9-49e3-b459-a1f994799a87","ios":"levelo://app?vid=87535261-86b9-49e3-b459-a1f994799a87"},"vehicle_type_id":"4","last_reported":1748156935,"current_range_meters":17200,"station_id":"ce4bho92rcd13ifvqh3g","pricing_plan_id":"cebpf4jnsgd1na2vs0mg"},{"bike_id":"3f6e0c63-7532-4344-a7c3-77443d0e02fb","system_id":"levelo_inurba_marseille","lat":43.25861,"lon":5.39892,"is_reserved":false,"is_disabled":true,"rental_uris":{"android":"levelo://app?vid=3f6e0c63-7532-4344-a7c3-77443d0e02fb","ios":"levelo://app?vid=3f6e0c63-7532-4344-a7c3-77443d0e02fb"},"vehicle_type_id":"4","last_reported":1748156935,"current_range_meters":17200,"station_id":"ce4bhl92rcd13ifvqghg","pricing_plan_id":"cebpf4jnsgd1na2vs0mg"},{"bike_id":"fdcc1c47-0ee2-4a57-ab54-e916f78c6d3c","system_id":"levelo_inurba_marseille","lat":43.258304,"lon":5.394289,"is_reserved":false,"is_disabled":false,"rental_uris":{"android":"levelo://app?vid=fdcc1c47-0ee2-4a57-ab54-e916f78c6d3c","ios":"levelo://app?vid=fdcc1c47-0ee2-4a57-ab54-e916f78c6d3c"},"vehicle_type_id":"4","last_reported":1748156935,"current_range_meters":17200,"station_id":"ce4bhip2rcd13ifvqft0","pricing_plan_id":"cebpf4jnsgd1na2vs0mg"},{"bike_id":"93425edb-facc-433d-a580-24c8bcf46c50","system_id":"levelo_inurba_marseille","lat":43.30258,"lon":5.40047,"is_reserved":false,"is_disabled":false,"rental_uris":{"android":"levelo://app?vid=93425edb-facc-433d-a580-24c8bcf46c50","ios":"levelo://app?vid=93425edb-facc-433d-a580-24c8bcf46c50"},