{"last_updated":1706072826,"ttl":30,"version":"2.2","data":{"bikes":[{"bike_id":"ec9a0d22-9060-4a75-ad86-21c4ba65b3a7","system_id":"levelo_inurba_marseille","lat":43.31341,"lon":5.367098,"is_reserved":false,"is_disabled":false,"rental_uris":{"android":"levelo://app?vid=ec9a0d22-9060-4a75-ad86-21c4ba65b3a7","ios":"levelo://app?vid=ec9a0d22-9060-4a75-ad86-21c4ba65b3a7"},"vehicle_type_id":"4","last_reported":1706072826,"current_range_meters":0,"station_id":"ce4bgr92rcd13ifvqc6g","pricing_plan_id":"free"},{"bike_id":"c2ed9c0d-b07c-45ec-bdf2-16d882e57614","system_id":"levelo_inurba_marseille","lat":43.313391,"lon":5.36706,"is_reserved":false,"is_disabled":false,"rental_uris":{"android":"levelo://app?vid=c2ed9c0d-b07c-45ec-bdf2-16d882e57614","ios":"levelo://app?vid=c2ed9c0d-b07c-45ec-bdf2-16d882e57614"},"vehicle_type_id":"4","last_reported":1706072826,"current_range_meters":28400,"station_id":"ce4bgr92rcd13ifvqc6g","pricing_plan_id":"free"},{"bike_id":"d2a7b016-040b-4906-aad7-430c43f1476c","system_id":"levelo_inurba_marseille","lat":43.31185,"lon":5.36803,"is_reserved":false,"is_disabled":false,"rental_uris":{"android":"levelo://app?vid=d2a7b016-040b-4906-aad7-430c43f1476c","ios":"levelo://app?vid=d2a7b016-040b-4906-aad7-430c43f1476c"},"vehicle_type_id":"4","last_reported":1706072826,"current_range_meters":24800,"station_id":"","pricing_plan_id":"free"},{"bike_id":"38f91f47-3939-4a72-8f7a-4c5adc5fa5a9","system_id":"levelo_inurba_marseille","lat":43.312401,"lon":5.368525,"is_reserved":false,"is_disabled":false,"rental_uris":{"android":"levelo://app?vid=38f91f47-3939-4a72-8f7a-4c5adc5fa5a9","ios":"levelo://app?vid=38f91f47-3939-4a72-8f7a-4c5adc5fa5a9"},"vehicle_type_id":"4","last_reported":1706072826,"current_range_meters":3200,"station_id":"ce4bgl92rcd13ifvqbq0","pricing_plan_id":"free"},{"bike_id":"d2a98070-80a2-402a-a53c-dcf82879c005","system_id":"levelo_inurba_marseille","lat":43.3123,"lon":5.36858,"is_reserved":false,"is_disabled":false,"rental_uris":{"android":"levelo://app?vid=d2a98070-80a2-402a-a53c-dcf82879c005","ios":"levelo://app?vid=d2a98070-80a2-402a-a53c-dcf82879c005"},"vehicle_type_id":"4","last_reported":1706072826,"current_range_meters":28800,"station_id":"ce4bgl92rcd13ifvqbq0","pricing_plan_id":"free"},{"bike_id":"1544c2d8-3c0b-4190-95f9-0305ffe63a97","system_id":"levelo_inurba_marseille","lat":43.312239,"lon":5.368562,"is_reserved":false,"is_disabled":false,"rental_uris":{"android":"levelo://app?vid=1544c2d8-3c0b-4190-95f9-0305ffe63a97","ios":"levelo://app?vid=1544c2d8-3c0b-4190-95f9-0305ffe63a97"},"vehicle_type_id":"4","last_reported":1706072826,"current_range_meters":27600,"station_id":"ce4bgl92rcd13ifvqbq0","pricing_plan_id":"free"},{"bike_id":"1a9cf4ba-2dbe-4472-94a3-46dac362252d","system_id":"levelo_inurba_marseille","lat":43.312239,"lon":5.368562,"is_reserved":false,"is_disabled":false,"rental_uris":{"android":"levelo://app?vid=1a9cf4ba-2dbe-4472-94a3-46dac362252d","ios":"levelo://app?vid=1a9cf4ba-2dbe-4472-94a3-46dac362252d"},"vehicle_type_id":"4","last_reported":1706072826,"current_range_meters":26400,"station_id":"ce4bgl92rcd13ifvqbq0","pricing_plan_id":"free"},{"bike_id":"d9a26377-1b8e-4624-89dc-939f22f654cc","system_id":"levelo_inurba_marseille","lat":43.3123,"lon":5.36877,"is_reserved":false,"is_disabled":false,"rental_uris":{"android":"levelo://app?vid=d9a26377-1b8e-4624-89dc-939f22f654cc","ios":"levelo://app?vid=d9a26377-1b8e-4624-89dc-939f22f654cc"},"vehicle_type_id":"4","last_reported":1706072826,"current_range_meters":4000,"station_id":"ce4bgl92rcd13ifvqbq0","pricing_plan_id":"free"},{"bike_id":"4cd97704-7337-45a9-b998-0cb069fff06c","system_id":"levelo_inurba_marseille","lat":43.309047,"lon":5.368556,"is_reserved":false,"is_disabled":false,"rental_uris":{"android":"levelo://app?vid=4cd97704-7337-45a9-b998-0cb069fff06c","ios":"levelo://app?vid=4cd97704-7337-45a9-b998-0cb069fff06c"},"vehicle_type_id":"4","last_reported":1706072826,"current_range_meters":0,"station_id":"ce4bgn92rcd13ifvqbvg","pricing_plan_id":"free"},{"bike_id":"a24dce91-04bf-44d7-b70d-d13bddd04e14","system_id":"levelo_inurba_marseille","lat":43.314811,"lon":5.373103,"is_reserved":false,"is_disabled":false,"rental_uris":{"android":"levelo://app?vid=a24dce91-04bf-44d7-b70d-d13bddd04e14","ios":"levelo://app?vid=a24dce91-04bf-44d7-b70d-d13bddd04e14"},"vehicle_type_id":"4","last_reported":1706072826,"current_range_meters":13600,"station_id":"ce4bgt12rcd13ifvqcd0","pricing_plan_id":"free"},{"bike_id":"7145fc2b-67a8-4edd-8d6e-c1ff8b05f61e","system_id":"levelo_inurba_marseille","lat":43.314811,"lon":5.373103,"is_reserved":false,"is_disabled":false,"rental_uris":{"android":"levelo://app?vid=7145fc2b-67a8-4edd-8d6e-c1ff8b05f61e","ios":"levelo://app?vid=7145fc2b-67a8-4edd-8d6e-c1ff8b05f61e"},"vehicle_type_id":"4","last_reported":1706072826,"current_range_meters":18800,"station_id":"ce4bgt12rcd13ifvqcd0","pricing_plan_id":"free"},{"bike_id":"612f99a6-a13b-4113-bb75-d90bb602d869","system_id":"levelo_inurba_marseille","lat":43.314811,"lon":5.373103,"is_reserved":false,"is_disabled":false,"rental_uris":{"android":"levelo://app?vid=612f99a6-a13b-4113-bb75-d90bb602d869","ios":"levelo://app?vid=612f99a6-a13b-4113-bb75-d90bb602d869"},"vehicle_type_id":"4","last_reported":1706072826,"current_range_meters":28800,"station_id":"ce4bgt12rcd13ifvqcd0","pricing_plan_id":"free"},{"bike_id":"7b4d5413-e7d4-4b48-989b-a054ecccca13","system_id":"levelo_inurba_marseille","lat":43.314811,"lon":5.373103,"is_reserved":false,"is_disabled":false,"rental_uris":{"android":"levelo://app?vid=7b4d5413-e7d4-4b48-989b-a054ecccca13","ios":"levelo://app?vid=7b4d5413-e7d4-4b48-989b-a054ecccca13"},"vehicle_type_id":"4","last_reported":1706072826,"current_range_meters":21200,"station_id":"ce4bgt12rcd13ifvqcd0","pricing_plan_id":"free"},{"bike_id":"fa5224e1-0230-4ef1-9d1a-40547341a035","system_id":"levelo_inurba_marseille","lat":43.314811,"lon":5.373103,"is_reserved":false,"is_disabled":false,"rental_uris":{"android":"levelo://app?vid=fa5224e1-0230-4ef1-9d1a-40547341a035","ios":"levelo://app?vid=fa5224e1-0230-4ef1-9d1a-40547341a035"},"vehicle_type_id":"4","last_reported":1706072826,"current_range_meters":27200,"station_id":"ce4bgt12rcd13ifvqcd0","pricing_plan_id":"free"},{"bike_id":"17a746e3-8298-4731-899b-2280adfa0314","system_id":"levelo_inurba_marseille","lat":43.314811,"lon":5.373103,"is_reserved":false,"is_disabled":false,"rental_uris":{"android":"levelo://app?vid=17a746e3-8298-4731-899b-2280adfa0314","ios":"levelo://app?vid=17a746e3-8298-4731-899b-2280adfa0314"},"vehicle_type_id":"4","last_reported":1706072826,"current_range_meters":21600,"station_id":"ce4bgt12rcd13ifvqcd0","pricing_plan_id":"free"},{"bike_id":"64562e0a-5f49-43a5-a5cc-3fd5254b9389","system_id":"levelo_inurba_marseille","lat":43.314811,"lon":5.373104,"is_reserved":false,"is_disabled":false,"rental_uris":{"android":"levelo://app?vid=64562e0a-5f49-43a5-a5cc-3fd5254b9389","ios":"levelo://app?vid=64562e0a-5f49-43a5-a5cc-3fd5254b9389"},"vehicle_type_id":"4","last_reported":1706072826,"current_range_meters":22800,"station_id":"ce4bgt12rcd13ifvqcd0","pricing_plan_id":"free"},{"bike_id":"1c19c9d2-040e-4c15-892e-63ba3d6c6dfc","system_id":"levelo_inurba_marseille","lat":43.314811,"lon":5.373104,"is_reserved":false,"is_disabled":false,"rental_uris":{"android":"levelo://app?vid=1c19c9d2-040e-4c15-892e-63ba3d6c6dfc","ios":"levelo://app?vid=1c19c9d2-040e-4c15-892e-63ba3d6c6dfc"},"vehicle_type_id":"4","last_reported":1706072826,"current_range_meters":27600,"station_id":"ce4bgt12rcd13ifvqcd0","pricing_plan_id":"free"},{"bike_id":"7432051f-519f-42e0-85e6-7b1b3d5afd1d","system_id":"levelo_inurba_marseille","lat":43.309039,"lon":5.371797,"is_reserved":false,"is_disabled":false,"rental_uris":{"android":"levelo://app?vid=7432051f-519f-42e0-85e6-7b1b3d5afd1d","ios":"levelo://app?vid=7432051f-519f-42e0-85e6-7b1b3d5afd1d"},"vehicle_type_id":"4","last_reported":1706072826,"current_range_meters":30000,"station_id":"ce4bguh2rcd13ifvqckg","pricing_plan_id":"free"},{"bike_id":"dcce3576-8529-408e-995f-8bdf33d84392","system_id":"levelo_inurba_marseille","lat":43.309039,"lon":5.371797,"is_reserved":false,"is_disabled":false,"rental_uris":{"android":"levelo://app?vid=dcce3576-8529-408e-995f-8bdf33d84392","ios":"levelo://app?vid=dcce3576-8529-408e-995f-8bdf33d84392"},"vehicle_type_id":"4","last_reported":1706072826,"current_range_meters":17200,"station_id":"ce4bguh2rcd13ifvqckg","pricing_plan_id":"free"},{"bike_id":"b3f31939-f1e0-438c-934f-33a51364fb9c","system_id":"levelo_inurba_marseille","lat":43.309039,"lon":5.371797,"is_reserved":false,"is_disabled":false,"rental_uris":{"android":"levelo://app?vid=b3f31939-f1e0-438c-934f-33a51364fb9c","ios":"levelo://app?vid=b3f31939-f1e0-438c-934f-33a51364fb9c"},"vehicle_type_id":"4","last_reported":1706072826,"current_range_meters":17600,"station_id":"ce4bguh2rcd13ifvqckg","pricing_plan_id":"free"},{"bike_id":"25ba0fa4-cb25-4d0c-8c59-a19548b5e36d","system_id":"levelo_inurba_marseille","lat":43.3055,"lon":5.36528,"is_reserved":false,"is_disabled":false,"rental_uris":{"android":"levelo://app?vid=25ba0fa4-cb25-4d0c-8c59-a19548b5e36d","ios":"levelo://app?vid=25ba0fa4-cb25-4d0c-8c59-a19548b5e36d"},"vehicle_type_id":"4","last_reported":1706072826,"current_range_meters":25600,"station_id":"ce4bgs12rcd13ifvqcag","pricing_plan_id":"free"},{"bike_id":"43938538-a246-4677-b733-55dc54b64241","system_id":"levelo_inurba_marseille","lat":43.305368,"lon":5.367343,"is_reserved":false,"is_disabled":false,"rental_uris":{"android":"levelo://app?vid=43938538-a246-4677-b733-55dc54b64241","ios":"levelo://app?vid=43938538-a246-4677-b733-55dc54b64241"},"vehicle_type_id":"4","last_reported":1706072826,"current_range_meters":16000,"station_id":"ce4bgrp2rcd13ifvqc9g","pricing_plan_id":"free"},{"bike_id":"b067c5f0-0de0-4133-a43c-f97c069e0990","system_id":"levelo_inurba_marseille","lat":43.305989,"lon":5.37225,"is_reserved":false,"is_disabled":false,"rental_uris":{"android":"levelo://app?vid=b067c5f0-0de0-4133-a43c-f97c069e0990","ios":"levelo://app?vid=b067c5f0-0de0-4133-a43c-f97c069e0990"},"vehicle_type_id":"4","last_reported":1706072826,"current_range_meters":26400,"station_id":"ce4bgqh2rcd13ifvqc4g","pricing_plan_id":"free"},{"bike_id":"a2f0e19d-db99-49b6-8f3a-3995358a274b","system_id":"levelo_inurba_marseille","lat":43.305989,"lon":5.37225,"is_reserved":false,"is_disabled":false,"rental_uris":{"android":"levelo://app?vid=a2f0e19d-db99-49b6-8f3a-3995358a274b","ios":"levelo://app?vid=a2f0e19d-db99-49b6-8f3a-3995358a274b"},"vehicle_type_id":"4","last_reported":1706072826,"current_range_meters":25600,"station_id":"ce4bgqh2rcd13ifvqc4g","pricing_plan_id":"free"},{"bike_id":"04df9b81-480a-429b-98d9-7b6e39d920ff","system_id":"levelo_inurba_marseille","lat":43.311125,"lon":5.377624,"is_reserved":false,"is_disabled":false,"rental_uris":{"android":"levelo://app?vid=04df9b81-480a-429b-98d9-7b6e39d920ff","ios":"levelo://app?vid=04df9b81-480a-429b-98d9-7b6e39d920ff"},"vehicle_type_id":"4","last_reported":1706072826,"current_range_meters":4000,"station_id":"ce4bgt92rcd13ifvqcg0","pricing_plan_id":"free"},{"bike_id":"cf37a971-2ffd-4fdb-ab26-c43b1a4acc13","system_id":"levelo_inurba_marseille","lat":43.311131,"lon":5.377651,"is_reserved":false,"is_disabled":false,"rental_uris":{"android":"levelo://app?vid=cf37a971-2ffd-4fdb-ab26-c43b1a4acc13","ios":"levelo://app?vid=cf37a971-2ffd-4fdb-ab26-c43b1a4acc13"},"vehicle_type_id":"4","last_reported":1706072826,"current_range_meters":16800,"station_id":"ce4bgt92rcd13ifvqcg0","pricing_plan_id":"free"},{"bike_id":"c508de5d-6751-4c08-9006-72549e20f78c","system_id":"levelo_inurba_marseille","lat":43.311131,"lon":5.377651,"is_reserved":false,"is_disabled":false,"rental_uris":{"android":"levelo://app?vid=c508de5d-6751-4c08-9006-72549e20f78c","ios":"levelo://app?vid=c508de5d-6751-4c08-9006-72549e20f78c"},"vehicle_type_id":"4","last_reported":1706072826,"current_range_meters":20400,"station_id":"ce4bgt92rcd13ifvqcg0","pricing_plan_id":"free"},{"bike_id":"bf950a90-09ef-4abf-9df7-b53d07ee22dd","system_id":"levelo_inurba_marseille","lat":43.311125,"lon":5.377624,"is_reserved":false,"is_disabled":false,"rental_uris":{"android":"levelo://app?vid=bf950a90-09ef-4abf-9df7-b53d07ee22dd","ios":"levelo://app?vid=bf950a90-09ef-4abf-9df7-b53d07ee22dd"},"vehicle_type_id":"4","last_reported":1706072826,"current_range_meters":30400,"station_id":"ce4bgt92rcd13ifvqcg0","pricing_plan_id":"free"},{"bike_id":"ba0e07db-f3aa-42eb-8532-c1ab435b09e9","system_id":"levelo_inurba_marseille","lat":43.311131,"lon":5.377651,"is_reserved":false,"is_disabled":false,"rental_uris":{"android":"levelo://app?vid=ba0e07db-f3aa-42eb-8532-c1ab435b09e9","ios":"levelo://app?vid=ba0e07db-f3aa-42eb-8532-c1ab435b09e9"},"vehicle_type_id":"4","last_reported":1706072826,"current_range_meters":0,"station_id":"ce4bgt92rcd13ifvqcg0","pricing_plan_id":"free"},{"bike_id":"317ae99e-ca40-438d-8b95-f8190ff977a3","system_id":"levelo_inurba_marseille","lat":43.311125,"lon":5.377624,"is_reserved":false,"is_disabled":false,"rental_uris":{"android":"levelo://app?vid=317ae99e-ca40-438d-8b95-f8190ff977a3","ios":"levelo://app?vid=317ae99e-ca40-438d-8b95-f8190ff977a3"},"vehicle_type_id":"4","last_reported":1706072826,"current_range_meters":26000,"station_id":"ce4bgt92rcd13ifvqcg0","pricing_plan_id":"free"},{"bike_id":"fc0878a1-ab9d-44e6-9dad-1c71d18e5fc0","system_id":"levelo_inurba_marseille","lat":43.311125,"lon":5.377624,"is_reserved":false,"is_disabled":false,"rental_uris":{"android":"levelo://app?vid=fc0878a1-ab9d-44e6-9dad-1c71d18e5fc0","ios":"levelo://app?vid=fc0878a1-ab9d-44e6-9dad-1c71d18e5fc0"},"vehicle_type_id":"4","last_reported":1706072826,"current_range_meters":4800,"station_id":"ce4bgt92rcd13ifvqcg0","pricing_plan_id":"free"},{"bike_id":"67f1a4a4-753c-4a01-9cdf-87d78e924b91","system_id":"levelo_inurba_marseille","lat":43.311269,"lon":5.377687,"is_reserved":false,"is_disabled":false,"rental_uris":{"android":"levelo://app?vid=67f1a4a4-753c-4a01-9cdf-87d78e924b91","ios":"levelo://app?vid=67f1a4a4-753c-4a01-9cdf-87d78e924b91"},"vehicle_type_id":"4","last_reported":1706072826,"current_range_meters":15200,"station_id":"ce4bgt92rcd13ifvqcg0","pricing_plan_id":"free"},{"bike_id":"d7854f2c-e25b-4567-9ca1-100b79dde627","system_id":"levelo_inurba_marseille","lat":43.31711,"lon":5.37679,"is_reserved":false,"is_disabled":false,"rental_uris":{"android":"levelo://app?vid=d7854f2c-e25b-4567-9ca1-100b79dde627","ios":"levelo://app?vid=d7854f2c-e25b-4567-9ca1-100b79dde627"},"vehicle_type_id":"4","last_reported":1706072826,"current_range_meters":11600,"station_id":"ce4bgth2rcd13ifvqch0","pricing_plan_id":"free"},{"bike_id":"9f4d5025-1860-4080-86ac-1f941a4b3aaa","system_id":"levelo_inurba_marseille","lat":43.307945,"lon":5.376487,"is_reserved":false,"is_disabled":false,"rental_uris":{"android":"levelo://app?vid=9f4d5025-1860-4080-86ac-1f941a4b3aaa","ios":"levelo://app?vid=9f4d5025-1860-4080-86ac-1f941a4b3aaa"},"vehicle_type_id":"4","last_reported":1706072826,"current_range_meters":31600,"station_id":"ce4bgv92rcd13ifvqcq0","pricing_plan_id":"free"},{"bike_id":"9672df50-5f66-40e2-ab89-79df1e1d4087","system_id":"levelo_inurba_marseille","lat":43.307945,"lon":5.376487,"is_reserved":false,"is_disabled":false,"rental_uris":{"android":"levelo://app?vid=9672df50-5f66-40e2-ab89-79df1e1d4087","ios":"levelo://app?vid=9672df50-5f66-40e2-ab89-79df1e1d4087"},"vehicle_type_id":"4","last_reported":1706072826,"current_range_meters":10400,"station_id":"ce4bgv92rcd13ifvqcq0","pricing_plan_id":"free"},{"bike_id":"fe3ea01a-611d-45bb-ade9-61ab37619286","system_id":"levelo_inurba_marseille","lat":43.307945,"lon":5.376487,"is_reserved":false,"is_disabled":false,"rental_uris":{"android":"levelo://app?vid=fe3ea01a-611d-45bb-ade9-61ab37619286","ios":"levelo://app?vid=fe3ea01a-611d-45bb-ade9-61ab37619286"},"vehicle_type_id":"4","last_reported":1706072826,"current_range_meters":30000,"station_id":"ce4bgv92rcd13ifvqcq0","pricing_plan_id":"free"},{"bike_id":"5f5cd3e9-7129-40bf-ac62-08573e4bbb46","system_id":"levelo_inurba_marseille","lat":43.307945,"lon":5.376487,"is_reserved":false,"is_disabled":false,"rental_uris":{"android":"levelo://app?vid=5f5cd3e9-7129-40bf-ac62-08573e4bbb46","ios":"levelo://app?vid=5f5cd3e9-7129-40bf-ac62-08573e4bbb46"},"vehicle_type_id":"4","last_reported":1706072826,"current_range_meters":10800,"station_id":"ce4bgv92rcd13ifvqcq0","pricing_plan_id":"free"},{"bike_id":"cf3f0c35-a456-4355-9f4a-e5cc66bc3e7d","system_id":"levelo_inurba_marseille","lat":43.307945,"lon":5.376487,"is_reserved":false,"is_disabled":false,"rental_uris":{"android":"levelo://app?vid=cf3f0c35-a456-4355-9f4a-e5cc66bc3e7d","ios":"levelo://app?vid=cf3f0c35-a456-4355-9f4a-e5cc66bc3e7d"},"vehicle_type_id":"4","last_reported":1706072826,"current_range_meters":31200,"station_id":"ce4bgv92rcd13ifvqcq0","pricing_plan_id":"free"},{"bike_id":"41bb9c7a-d3ab-458d-9898-bf266a307c33","system_id":"levelo_inurba_marseille","lat":43.307945,"lon":5.376487,"is_reserved":false,"is_disabled":false,"rental_uris":{"android":"levelo://app?vid=41bb9c7a-d3ab-458d-9898-bf266a307c33","ios":"levelo://app?vid=41bb9c7a-d3ab-458d-9898-bf266a307c33"},"vehicle_type_id":"4","last_reported":1706072826,"current_range_meters":15600,"station_id":"ce4bgv92rcd13ifvqcq0","pricing_plan_id":"free"},{"bike_id":"a111c29d-23e6-41dd-980a-8196109059a9","system_id":"levelo_inurba_marseille","lat":43.307945,"lon":5.376487,"is_reserved":false,"is_disabled":false,"rental_uris":{"android":"levelo://app?vid=a111c29d-23e6-41dd-980a-8196109059a9","ios":"levelo://app?vid=a111c29d-23e6-41dd-980a-8196109059a9"},"vehicle_type_id":"4","last_reported":1706072826,"current_range_meters":32000,"station_id":"ce4bgv92rcd13ifvqcq0","pricing_plan_id":"free"},{"bike_id":"c00ff8ea-cdbf-46f4-9a5c-b2abe4228fde","system_id":"levelo_inurba_marseille","lat":43.307945,"lon":5.376487,"is_reserved":false,"is_disabled":false,"rental_uris":{"android":"levelo://app?vid=c00ff8ea-cdbf-46f4-9a5c-b2abe4228fde","ios":"levelo://app?vid=c00ff8ea-cdbf-46f4-9a5c-b2abe4228fde"},"vehicle_type_id":"4","last_reported":1706072826,"current_range_meters":32000,"station_id":"ce4bgv92rcd13ifvqcq0","pricing_plan_id":"free"},{"bike_id":"4ab61cc9-1949-4ab5-bcf1-8f07c54632b5","system_id":"levelo_inurba_marseille","lat":43.310365,"lon":5.38074,"is_reserved":false,"is_disabled":false,"rental_uris":{"android":"levelo://app?vid=4ab61cc9-1949-4ab5-bcf1-8f07c54632b5","ios":"levelo://app?vid=4ab61cc9-1949-4ab5-bcf1-8f07c54632b5"},"vehicle_type_id":"4","last_reported":1706072826,"current_range_meters":18400,"station_id":"","pricing_plan_id":"free"},{"bike_id":"c8f5b477-3a83-4b44-9183-a5fd83786e70","system_id":"levelo_inurba_marseille","lat":43.308115,"lon":5.381399,"is_reserved":false,"is_disabled":false,"rental_uris":{"android":"levelo://app?vid=c8f5b477-3a83-4b44-9183-a5fd83786e70","ios":"levelo://app?vid=c8f5b477-3a83-4b44-9183-a5fd83786e70"},"vehicle_type_id":"4","last_reported":1706072826,"current_range_meters":28000,"station_id":"ce4bgt12rcd13ifvqce0","pricing_plan_id":"free"},{"bike_id":"8c3340bc-167e-4c19-8027-c5dbabc26e82","system_id":"levelo_inurba_marseille","lat":43.308012,"lon":5.381511,"is_reserved":false,"is_disabled":false,"rental_uris":{"android":"levelo://app?vid=8c3340bc-167e-4c19-8027-c5dbabc26e82","ios":"levelo://app?vid=8c3340bc-167e-4c19-8027-c5dbabc26e82"},"vehicle_type_id":"4","last_reported":1706072826,"current_range_meters":11200,"station_id":"ce4bgt12rcd13ifvqce0","pricing_plan_id":"free"},{"bike_id":"fd52f797-a1a1-4a6f-b61a-51f1fecf89e4","system_id":"levelo_inurba_marseille","lat":43.308012,"lon":5.381511,"is_reserved":false,"is_disabled":false,"rental_uris":{"android":"levelo://app?vid=fd52f797-a1a1-4a6f-b61a-51f1fecf89e4","ios":"levelo://app?vid=fd52f797-a1a1-4a6f-b61a-51f1fecf89e4"},"vehicle_type_id":"4","last_reported":1706072826,"current_range_meters":10800,"station_id":"ce4bgt12rcd13ifvqce0","pricing_plan_id":"free"},{"bike_id":"93cd1237-9c1c-4a1f-a995-46619f3fba36","system_id":"levelo_inurba_marseille","lat":43.308012,"lon":5.381511,"is_reserved":false,"is_disabled":false,"rental_uris":{"android":"levelo://app?vid=93cd1237-9c1c-4a1f-a995-46619f3fba36","ios":"levelo://app?vid=93cd1237-9c1c-4a1f-a995-46619f3fba36"},"vehicle_type_id":"4","last_reported":1706072826,"current_range_meters":31200,"station_id":"ce4bgt12rcd13ifvqce0","pricing_plan_id":"free"},{"bike_id":"57f4a1d0-30b8-4140-8cb7-a30c09f393d9","system_id":"levelo_inurba_marseille","lat":43.308012,"lon":5.381511,"is_reserved":false,"is_disabled":false,"rental_uris":{"android":"levelo://app?vid=57f4a1d0-30b8-4140-8cb7-a30c09f393d9","ios":"levelo://app?vid=57f4a1d0-30b8-4140-8cb7-a30c09f393d9"},"vehicle_type_id":"4","last_reported":1706072826,"current_range_meters":31200,"station_id":"ce4bgt12rcd13ifvqce0","pricing_plan_id":"free"},{"bike_id":"f88e51f6-b22b-4861-8bdd-cba056aa9374","system_id":"levelo_inurba_marseille","lat":43.308012,"lon":5.381511,"is_reserved":false,"is_disabled":false,"rental_uris":{"android":"levelo://app?vid=f88e51f6-b22b-4861-8bdd-cba056aa9374","ios":"levelo://app?vid=f88e51f6-b22b-4861-8bdd-cba056aa9374"},"vehicle_type_id":"4","last_reported":1706072826,"current_range_meters":30400,"station_id":"ce4bgt12rcd13ifvqce0","pricing_plan_id":"free"},{"bike_id":"e2907953-0a31-41f8-8a54-4e8df08568c7","system_id":"levelo_inurba_marseille","lat":43.304282,"lon":5.378058,"is_reserved":false,"is_disabled":false,"rental_uris":{"android":"levelo://app?vid=e2907953-0a31-41f8-8a54-4e8df08568c7","ios":"levelo://app?vid=e2907953-0a31-41f8-8a54-4e8df08568c7"},"vehicle_type_id":"4","last_reported":1706072826,"current_range_meters":6800,"station_id":"","pricing_plan_id":"free"},{"bike_id":"c27861b5-82cc-4c50-8e9b-2e5eaea0ec1a","system_id":"levelo_inurba_marseille","lat":43.304606,"lon":5.379026,"is_reserved":false,"is_disabled":false,"rental_uris":{"android":"levelo://app?vid=c27861b5-82cc-4c50-8e9b-2e5eaea0ec1a","ios":"levelo://app?vid=c27861b5-82cc-4c50-8e9b-2e5eaea0ec1a"},"vehicle_type_id":"4","last_reported":1706072826,"current_range_meters":23200,"station_id":"ce4bgup2rcd13ifvqcn0","pricing_plan_id":"free"},{"bike_id":"80186e84-0066-4d47-b1c7-f4e0eba7edc3","system_id":"levelo_inurba_marseille","lat":43.304606,"lon":5.379026,"is_reserved":false,"is_disabled":false,"rental_uris":{"android":"levelo://app?vid=80186e84-0066-4d47-b1c7-f4e0eba7edc3","ios":"levelo://app?vid=80186e84-0066-4d47-b1c7-f4e0eba7edc3"},"vehicle_type_id":"4","last_reported":1706072826,"current_range_meters":21600,"station_id":"ce4bgup2rcd13ifvqcn0","pricing_plan_id":"free"},{"bike_id":"82ea628d-ffca-4274-bdf9-1a709f5d8ad9","system_id":"levelo_inurba_marseille","lat":43.304606,"lon":5.379026,"is_reserved":false,"is_disabled":false,"rental_uris":{"android":"levelo://app?vid=82ea628d-ffca-4274-bdf9-1a709f5d8ad9","ios":"levelo://app?vid=82ea628d-ffca-4274-bdf9-1a709f5d8ad9"},"vehicle_type_id":"4","last_reported":1706072826,"current_range_meters":12800,"station_id":"ce4bgup2rcd13ifvqcn0","pricing_plan_id":"free"},{"bike_id":"d61d3e0a-3991-4513-8e5d-7c716c9bd417","system_id":"levelo_inurba_marseille","lat":43.304606,"lon":5.379026,"is_reserved":false,"is_disabled":false,"rental_uris":{"android":"levelo://app?vid=d61d3e0a-3991-4513-8e5d-7c716c9bd417","ios":"levelo://app?vid=d61d3e0a-3991-4513-8e5d-7c716c9bd417"},"vehicle_type_id":"4","last_reported":1706072826,"current_range_meters":5200,"station_id":"ce4bgup2rcd13ifvqcn0","pricing_plan_id":"free"},{"bike_id":"31dbe871-94bd-4d98-ab57-47c26529a9d1","system_id":"levelo_inurba_marseille","lat":43.304606,"lon":5.379026,"is_reserved":false,"is_disabled":false,"rental_uris":{"android":"levelo://app?vid=31dbe871-94bd-4d98-ab57-47c26529a9d1","ios":"levelo://app?vid=31dbe871-94bd-4d98-ab57-47c26529a9d1"},"vehicle_type_id":"4","last_reported":1706072826,"current_range_meters":18400,"station_id":"ce4bgup2rcd13ifvqcn0","pricing_plan_id":"free"},{"bike_id":"f9ec75fa-4548-4db4-a027-2303d8560709","system_id":"levelo_inurba_marseille","lat":43.304606,"lon":5.379026,"is_reserved":false,"is_disabled":false,"rental_uris":{"android":"levelo://app?vid=f9ec75fa-4548-4db4-a027-2303d8560709","ios":"levelo://app?vid=f9ec75fa-4548-4db4-a027-2303d8560709"},"vehicle_type_id":"4","last_reported":1706072826,"current_range_meters":25600,"station_id":"ce4bgup2rcd13ifvqcn0","pricing_plan_id":"free"},{"bike_id":"e8864f13-cb02-44c6-88ab-ba5f258fe84f","system_id":"levelo_inurba_marseille","lat":43.324771,"lon":5.36557,"is_reserved":false,"is_disabled":false,"rental_uris":{"android":"levelo://app?vid=e8864f13-cb02-44c6-88ab-ba5f258fe84f","ios":"levelo://app?vid=e8864f13-cb02-44c6-88ab-ba5f258fe84f"},"vehicle_type_id":"4","last_reported":1706072826,"current_range_meters":20000,"station_id":"ce4bhs12rcd13ifvqhvg","pricing_plan_id":"free"},{"bike_id":"5eb89afe-c51f-4ff8-8e66-71558e6cd7e3","system_id":"levelo_inurba_marseille","lat":43.324771,"lon":5.36557,"is_reserved":false,"is_disabled":false,"rental_uris":{"android":"levelo://app?vid=5eb89afe-c51f-4ff8-8e66-71558e6cd7e3","ios":"levelo://app?vid=5eb89afe-c51f-4ff8-8e66-71558e6cd7e3"},"vehicle_type_id":"4","last_reported":1706072826,"current_range_meters":6400,"station_id":"ce4bhs12rcd13ifvqhvg","pricing_plan_id":"free"},{"bike_id":"3ce3e68d-0313-40cb-afa9-858c717ce4c9","system_id":"levelo_inurba_marseille","lat":43.319935,"lon":5.381699,"is_reserved":false,"is_disabled":false,"rental_uris":{"android":"levelo://app?vid=3ce3e68d-0313-40cb-afa9-858c717ce4c9","ios":"levelo://app?vid=3ce3e68d-0313-40cb-afa9-858c717ce4c9"},"vehicle_type_id":"4","last_reported":1706072826,"current_range_meters":20800,"station_id":"ce4bhr12rcd13ifvqhpg","pricing_plan_id":"free"},{"bike_id":"cc49fb07-820d-4047-984c-6077647af278","system_id":"levelo_inurba_marseille","lat":43.319935,"lon":5.381699,"is_reserved":false,"is_disabled":false,"rental_uris":{"android":"levelo://app?vid=cc49fb07-820d-4047-984c-6077647af278","ios":"levelo://app?vid=cc49fb07-820d-4047-984c-6077647af278"},"vehicle_type_id":"4","last_reported":1706072826,"current_range_meters":20000,"station_id":"ce4bhr12rcd13ifvqhpg","pricing_plan_id":"free"},{"bike_id":"00646b3f-5cf3-4e84-bfb8-47e4dcf2da8c","system_id":"levelo_inurba_marseille","lat":43.319935,"lon":5.381699,"is_reserved":false,"is_disabled":false,"rental_uris":{"android":"levelo://app?vid=00646b3f-5cf3-4e84-bfb8-47e4dcf2da8c","ios":"levelo://app?vid=00646b3f-5cf3-4e84-bfb8-47e4dcf2da8c"},"vehicle_type_id":"4","last_reported":1706072826,"current_range_meters":26800,"station_id":"ce4bhr12rcd13ifvqhpg","pricing_plan_id":"free"},{"bike_id":"efc906f1-6d07-435f-9e36-8719175d637b","system_id":"levelo_inurba_marseille","lat":43.319949,"lon":5.381508,"is_reserved":false,"is_disabled":false,"rental_uris":{"android":"levelo://app?vid=efc906f1-6d07-435f-9e36-8719175d637b","ios":"levelo://app?vid=efc906f1-6d07-435f-9e36-8719175d637b"},"vehicle_type_id":"4","last_reported":1706072826,"current_range_meters":31200,"station_id":"ce4bhr12rcd13ifvqhpg","pricing_plan_id":"free"},{"bike_id":"dc49a2bc-c54f-43f8-bdaf-bfb9096d0275","system_id":"levelo_inurba_marseille","lat":43.319935,"lon":5.381699,"is_reserved":false,"is_disabled":false,"rental_uris":{"android":"levelo://app?vid=dc49a2bc-c54f-43f8-bdaf-bfb9096d0275","ios":"levelo://app?vid=dc49a2bc-c54f-43f8-bdaf-bfb9096d0275"},"vehicle_type_id":"4","last_reported":1706072826,"current_range_meters":4400,"station_id":"ce4bhr12rcd13ifvqhpg","pricing_plan_id":"free"},{"bike_id":"4c2d4969-44b3-4b99-ac08-166dc554d101","system_id":"levelo_inurba_marseille","lat":43.32001,"lon":5.38149,"is_reserved":false,"is_disabled":false,"rental_uris":{"android":"levelo://app?vid=4c2d4969-44b3-4b99-ac08-166dc554d101","ios":"levelo://app?vid=4c2d4969-44b3-4b99-ac08-166dc554d101"},"vehicle_type_id":"4","last_reported":1706072826,"current_range_meters":12800,"station_id":"ce4bhr12rcd13ifvqhpg","pricing_plan_id":"free"},{"bike_id":"88483b5e-a393-4bfe-9800-1971f45b7e52","system_id":"levelo_inurba_marseille","lat":43.319935,"lon":5.381699,"is_reserved":false,"is_disabled":false,"rental_uris":{"android":"levelo://app?vid=88483b5e-a393-4bfe-9800-1971f45b7e52","ios":"levelo://app?vid=88483b5e-a393-4bfe-9800-1971f45b7e52"},"vehicle_type_id":"4","last_reported":1706072826,"current_range_meters":18000,"station_id":"ce4bhr12rcd13ifvqhpg","pricing_plan_id":"free"},{"bike_id":"fd388e30-6c90-4fbf-abdf-dd15ef425659","system_id":"levelo_inurba_marseille","lat":43.319967,"lon":5.381565,"is_reserved":false,"is_disabled":false,"rental_uris":{"android":"levelo://app?vid=fd388e30-6c90-4fbf-abdf-dd15ef425659","ios":"levelo://app?vid=fd388e30-6c90-4fbf-abdf-dd15ef425659"},"vehicle_type_id":"4","last_reported":1706072826,"current_range_meters":19200,"station_id":"ce4bhr12rcd13ifvqhpg","pricing_plan_id":"free"},{"bike_id":"24219b46-3c85-4714-bcda-d4451cd05d8e","system_id":"levelo_inurba_marseille","lat":43.32003,"lon":5.38152,"is_reserved":false,"is_disabled":false,"rental_uris":{"android":"levelo://app?vid=24219b46-3c85-4714-bcda-d4451cd05d8e","ios":"levelo://app?vid=24219b46-3c85-4714-bcda-d4451cd05d8e"},"vehicle_type_id":"4","last_reported":1706072826,"current_range_meters":20400,"station_id":"ce4bhr12rcd13ifvqhpg","pricing_plan_id":"free"},{"bike_id":"74f4b456-7646-4b21-858e-a71fa37ff2fd","system_id":"levelo_inurba_marseille","lat":43.319935,"lon":5.381699,"is_reserved":false,"is_disabled":false,"rental_uris":{"android":"levelo://app?vid=74f4b456-7646-4b21-858e-a71fa37ff2fd","ios":"levelo://app?vid=74f4b456-7646-4b21-858e-a71fa37ff2fd"},"vehicle_type_id":"4","last_reported":1706072826,"current_range_meters":31200,"station_id":"ce4bhr12rcd13ifvqhpg","pricing_plan_id":"free"},{"bike_id":"db5640b8-520d-4779-8ec1-4a4bc253b2f8","system_id":"levelo_inurba_marseille","lat":43.319935,"lon":5.381699,"is_reserved":false,"is_disabled":false,"rental_uris":{"android":"levelo://app?vid=db5640b8-520d-4779-8ec1-4a4bc253b2f8","ios":"levelo://app?vid=db5640b8-520d-4779-8ec1-4a4bc253b2f8"},"vehicle_type_id":"4","last_reported":1706072826,"current_range_meters":8000,"station_id":"ce4bhr12rcd13ifvqhpg","pricing_plan_id":"free"},{"bike_id":"dd60e452-a69f-4c17-8197-33ae922aeec7","system_id":"levelo_inurba_marseille","lat":43.31998,"lon":5.38162,"is_reserved":false,"is_disabled":false,"rental_uris":{"android":"levelo://app?vid=dd60e452-a69f-4c17-8197-33ae922aeec7","ios":"levelo://app?vid=dd60e452-a69f-4c17-8197-33ae922aeec7"},"vehicle_type_id":"4","last_reported":1706072826,"current_range_meters":24000,"station_id":"ce4bhr12rcd13ifvqhpg","pricing_plan_id":"free"},{"bike_id":"26473e6c-6aa5-4477-be16-b83b681d1fa5","system_id":"levelo_inurba_marseille","lat":43.32001,"lon":5.3816,"is_reserved":false,"is_disabled":false,"rental_uris":{"android":"levelo://app?vid=26473e6c-6aa5-4477-be16-b83b681d1fa5","ios":"levelo://app?vid=26473e6c-6aa5-4477-be16-b83b681d1fa5"},"vehicle_type_id":"4","last_reported":1706072826,"current_range_meters":16000,"station_id":"ce4bhr12rcd13ifvqhpg","pricing_plan_id":"free"},{"bike_id":"3cfdbbb1-ffe4-4166-9f7c-23d4a93ee3ac","system_id":"levelo_inurba_marseille","lat":43.313571,"lon":5.384829,"is_reserved":false,"is_disabled":false,"rental_uris":{"android":"levelo://app?vid=3cfdbbb1-ffe4-4166-9f7c-23d4a93ee3ac","ios":"levelo://app?vid=3cfdbbb1-ffe4-4166-9f7c-23d4a93ee3ac"},"vehicle_type_id":"4","last_reported":1706072826,"current_range_meters":6800,"station_id":"ce4bgt92rcd13ifvqcf0","pricing_plan_id":"free"},{"bike_id":"e579ea5e-ceed-4233-b248-81538b797eca","system_id":"levelo_inurba_marseille","lat":43.313571,"lon":5.384829,"is_reserved":false,"is_disabled":false,"rental_uris":{"android":"levelo://app?vid=e579ea5e-ceed-4233-b248-81538b797eca","ios":"levelo://app?vid=e579ea5e-ceed-4233-b248-81538b797eca"},"vehicle_type_id":"4","last_reported":1706072826,"current_range_meters":32000,"station_id":"ce4bgt92rcd13ifvqcf0","pricing_plan_id":"free"},{"bike_id":"1d743474-b300-4d17-be7e-3f0d9733e06b","system_id":"levelo_inurba_marseille","lat":43.313571,"lon":5.384829,"is_reserved":false,"is_disabled":false,"rental_uris":{"android":"levelo://app?vid=1d743474-b300-4d17-be7e-3f0d9733e06b","ios":"levelo://app?vid=1d743474-b300-4d17-be7e-3f0d9733e06b"},"vehicle_type_id":"4","last_reported":1706072826,"current_range_meters":18800,"station_id":"ce4bgt92rcd13ifvqcf0","pricing_plan_id":"free"},{"bike_id":"6e81b9fe-14d8-43d8-9ce1-78df58e1dd5b","system_id":"levelo_inurba_marseille","lat":43.313571,"lon":5.384829,"is_reserved":false,"is_disabled":false,"rental_uris":{"android":"levelo://app?vid=6e81b9fe-14d8-43d8-9ce1-78df58e1dd5b","ios":"levelo://app?vid=6e81b9fe-14d8-43d8-9ce1-78df58e1dd5b"},"vehicle_type_id":"4","last_reported":1706072826,"current_range_meters":28000,"station_id":"ce4bgt92rcd13ifvqcf0","pricing_plan_id":"free"},{"bike_id":"acb8ddf7-67d7-4b20-8e3f-75768f3b5100","system_id":"levelo_inurba_marseille","lat":43.313571,"lon":5.384829,"is_reserved":false,"is_disabled":false,"rental_uris":{"android":"levelo://app?vid=acb8ddf7-67d7-4b20-8e3f-75768f3b5100","ios":"levelo://app?vid=acb8ddf7-67d7-4b20-8e3f-75768f3b5100"},"vehicle_type_id":"4","last_reported":1706072826,"current_range_meters":30800,"station_id":"ce4bgt92rcd13ifvqcf0","pricing_plan_id":"free"},{"bike_id":"cb5253af-773c-42b9-8c1b-4554ec0630e1","system_id":"levelo_inurba_marseille","lat":43.299222,"lon":5.365554,"is_reserved":false,"is_disabled":false,"rental_uris":{"android":"levelo://app?vid=cb5253af-773c-42b9-8c1b-4554ec0630e1","ios":"levelo://app?vid=cb5253af-773c-42b9-8c1b-4554ec0630e1"},"vehicle_type_id":"4","last_reported":1706072826,"current_range_meters":11600,"station_id":"ce4bgm92rcd13ifvqbr0","pricing_plan_id":"free"},{"bike_id":"b339d68a-d3c3-42f2-b8c8-ee1db4cf2305","system_id":"levelo_inurba_marseille","lat":43.299724,"lon":5.371829,"is_reserved":false,"is_disabled":false,"rental_uris":{"android":"levelo://app?vid=b339d68a-d3c3-42f2-b8c8-ee1db4cf2305","ios":"levelo://app?vid=b339d68a-d3c3-42f2-b8c8-ee1db4cf2305"},"vehicle_type_id":"4","last_reported":1706072826,"current_range_meters":30400,"station_id":"ce4bgr92rcd13ifvqc7g","pricing_plan_id":"free"},{"bike_id":"7b7a4490-3e0d-4881-8822-c56610c08e98","system_id":"levelo_inurba_marseille","lat":43.305364,"lon":5.384119,"is_reserved":false,"is_disabled":false,"rental_uris":{"android":"levelo://app?vid=7b7a4490-3e0d-4881-8822-c56610c08e98","ios":"levelo://app?vid=7b7a4490-3e0d-4881-8822-c56610c08e98"},"vehicle_type_id":"4","last_reported":1706072826,"current_range_meters":29200,"station_id":"ce4bgg92rcd13ifvqb30","pricing_plan_id":"free"},{"bike_id":"84ffe673-5af9-4ba4-ab67-a1419b69ab67","system_id":"levelo_inurba_marseille","lat":43.311722,"lon":5.387247,"is_reserved":false,"is_disabled":false,"rental_uris":{"android":"levelo://app?vid=84ffe673-5af9-4ba4-ab67-a1419b69ab67","ios":"levelo://app?vid=84ffe673-5af9-4ba4-ab67-a1419b69ab67"},"vehicle_type_id":"4","last_reported":1706072826,"current_range_meters":27600,"station_id":"ce4bgv12rcd13ifvqcp0","pricing_plan_id":"free"},{"bike_id":"47e14d49-b774-47c3-a96e-de2ce1c0f7bb","system_id":"levelo_inurba_marseille","lat":43.311722,"lon":5.387247,"is_reserved":false,"is_disabled":false,"rental_uris":{"android":"levelo://app?vid=47e14d49-b774-47c3-a96e-de2ce1c0f7bb","ios":"levelo://app?vid=47e14d49-b774-47c3-a96e-de2ce1c0f7bb"},"vehicle_type_id":"4","last_reported":1706072826,"current_range_meters":27200,"station_id":"ce4bgv12rcd13ifvqcp0","pricing_plan_id":"free"},{"bike_id":"82111cc0-128e-43cb-a4c3-c0a66daa394d","system_id":"levelo_inurba_marseille","lat":43.311722,"lon":5.387247,"is_reserved":false,"is_disabled":false,"rental_uris":{"android":"levelo://app?vid=82111cc0-128e-43cb-a4c3-c0a66daa394d","ios":"levelo://app?vid=82111cc0-128e-43cb-a4c3-c0a66daa394d"},"vehicle_type_id":"4","last_reported":1706072826,"current_range_meters":31200,"station_id":"ce4bgv12rcd13ifvqcp0","pricing_plan_id":"free"},{"bike_id":"170f40b6-cc0e-4d6c-a6f3-50e67a11b4df","system_id":"levelo_inurba_marseille","lat":43.311722,"lon":5.387247,"is_reserved":false,"is_disabled":false,"rental_uris":{"android":"levelo://app?vid=170f40b6-cc0e-4d6c-a6f3-50e67a11b4df","ios":"levelo://app?vid=170f40b6-cc0e-4d6c-a6f3-50e67a11b4df"},"vehicle_type_id":"4","last_reported":1706072826,"current_range_meters":31600,"station_id":"ce4bgv12rcd13ifvqcp0","pricing_plan_id":"free"},{"bike_id":"0301e0f2-1b14-4b29-bc2a-c6f423dab75f","system_id":"levelo_inurba_marseille","lat":43.311722,"lon":5.387247,"is_reserved":false,"is_disabled":false,"rental_uris":{"android":"levelo://app?vid=0301e0f2-1b14-4b29-bc2a-c6f423dab75f","ios":"levelo://app?vid=0301e0f2-1b14-4b29-bc2a-c6f423dab75f"},"vehicle_type_id":"4","last_reported":1706072826,"current_range_meters":24800,"station_id":"ce4bgv12rcd13ifvqcp0","pricing_plan_id":"free"},{"bike_id":"22083802-a052-4e21-9482-c202066aa507","system_id":"levelo_inurba_marseille","lat":43.299243,"lon":5.37481,"is_reserved":false,"is_disabled":false,"rental_uris":{"android":"levelo://app?vid=22083802-a052-4e21-9482-c202066aa507","ios":"levelo://app?vid=22083802-a052-4e21-9482-c202066aa507"},"vehicle_type_id":"4","last_reported":1706072826,"current_range_meters":23200,"station_id":"ce4bgjh2rcd13ifvqbg0","pricing_plan_id":"free"},{"bike_id":"171d2d26-404a-4d95-bf44-3dcfca9fe8aa","system_id":"levelo_inurba_marseille","lat":43.322872,"lon":5.382756,"is_reserved":false,"is_disabled":false,"rental_uris":{"android":"levelo://app?vid=171d2d26-404a-4d95-bf44-3dcfca9fe8aa","ios":"levelo://app?vid=171d2d26-404a-4d95-bf44-3dcfca9fe8aa"},"vehicle_type_id":"4","last_reported":1706072826,"current_range_meters":21200,"station_id":"ce4bhr12rcd13ifvqhqg","pricing_plan_id":"free"},{"bike_id":"89789d60-57f9-4669-bae1-bd74942c359c","system_id":"levelo_inurba_marseille","lat":43.322872,"lon":5.382756,"is_reserved":false,"is_disabled":false,"rental_uris":{"android":"levelo://app?vid=89789d60-57f9-4669-bae1-bd74942c359c","ios":"levelo://app?vid=89789d60-57f9-4669-bae1-bd74942c359c"},"vehicle_type_id":"4","last_reported":1706072826,"current_range_meters":16000,"station_id":"ce4bhr12rcd13ifvqhqg","pricing_plan_id":"free"},{"bike_id":"455aa212-be06-4400-9478-d2f1e827f201","system_id":"levelo_inurba_marseille","lat":43.322872,"lon":5.382756,"is_reserved":false,"is_disabled":false,"rental_uris":{"android":"levelo://app?vid=455aa212-be06-4400-9478-d2f1e827f201","ios":"levelo://app?vid=455aa212-be06-4400-9478-d2f1e827f201"},"vehicle_type_id":"4","last_reported":1706072826,"current_range_meters":20400,"station_id":"ce4bhr12rcd13ifvqhqg","pricing_plan_id":"free"},{"bike_id":"e654f202-6c69-4242-8f59-efc7b661b26a","system_id":"levelo_inurba_marseille","lat":43.322872,"lon":5.382756,"is_reserved":false,"is_disabled":false,"rental_uris":{"android":"levelo://app?vid=e654f202-6c69-4242-8f59-efc7b661b26a","ios":"levelo://app?vid=e654f202-6c69-4242-8f59-efc7b661b26a"},"vehicle_type_id":"4","last_reported":1706072826,"current_range_meters":32000,"station_id":"ce4bhr12rcd13ifvqhqg","pricing_plan_id":"free"},{"bike_id":"96012ef5-e74f-4375-9b61-12f790002a3f","system_id":"levelo_inurba_marseille","lat":43.300048,"lon":5.379142,"is_reserved":false,"is_disabled":false,"rental_uris":{"android":"levelo://app?vid=96012ef5-e74f-4375-9b61-12f790002a3f","ios":"levelo://app?vid=96012ef5-e74f-4375-9b61-12f790002a3f"},"vehicle_type_id":"4","last_reported":1706072826,"current_range_meters":14400,"station_id":"","pricing_plan_id":"free"},{"bike_id":"572c30ca-2698-4ebb-9720-28d9ee8291d9","system_id":"levelo_inurba_marseille","lat":43.328237,"lon":5.366791,"is_reserved":false,"is_disabled":false,"rental_uris":{"android":"levelo://app?vid=572c30ca-2698-4ebb-9720-28d9ee8291d9","ios":"levelo://app?vid=572c30ca-2698-4ebb-9720-28d9ee8291d9"},"vehicle_type_id":"4","last_reported":1706072826,"current_range_meters":15600,"station_id":"ce4bhs92rcd13ifvqi0g","pricing_plan_id":"free"},{"bike_id":"6da9db5a-42ba-4fa8-afc9-4fdbb45498c1","system_id":"levelo_inurba_marseille","lat":43.32825,"lon":5.36681,"is_reserved":false,"is_disabled":false,"rental_uris":{"android":"levelo://app?vid=6da9db5a-42ba-4fa8-afc9-4fdbb45498c1","ios":"levelo://app?vid=6da9db5a-42ba-4fa8-afc9-4fdbb45498c1"},"vehicle_type_id":"4","last_reported":1706072826,"current_range_meters":16400,"station_id":"ce4bhs92rcd13ifvqi0g","pricing_plan_id":"free"},{"bike_id":"32a039db-eef1-4a0a-8c6a-17ab6d5d4eda","system_id":"levelo_inurba_marseille","lat":43.32826,"lon":5.36679,"is_reserved":false,"is_disabled":false,"rental_uris":{"android":"levelo://app?vid=32a039db-eef1-4a0a-8c6a-17ab6d5d4eda","ios":"levelo://app?vid=32a039db-eef1-4a0a-8c6a-17ab6d5d4eda"},"vehicle_type_id":"4","last_reported":1706072826,"current_range_meters":2800,"station_id":"ce4bhs92rcd13ifvqi0g","pricing_plan_id":"free"},{"bike_id":"e92d083a-dfb9-464f-a2d7-ffc480709cb3","system_id":"levelo_inurba_marseille","lat":43.328371,"lon":5.366912,"is_reserved":false,"is_disabled":false,"rental_uris":{"android":"levelo://app?vid=e92d083a-dfb9-464f-a2d7-ffc480709cb3","ios":"levelo://app?vid=e92d083a-dfb9-464f-a2d7-ffc480709cb3"},"vehicle_type_id":"4","last_reported":1706072826,"current_range_meters":11200,"station_id":"ce4bhs92rcd13ifvqi0g","pricing_plan_id":"free"},{"bike_id":"ea0178f3-2c6b-4af6-b062-91b0b8dde1df","system_id":"levelo_inurba_marseille","lat":43.328267,"lon":5.366843,"is_reserved":false,"is_disabled":false,"rental_uris":{"android":"levelo://app?vid=ea0178f3-2c6b-4af6-b062-91b0b8dde1df","ios":"levelo://app?vid=ea0178f3-2c6b-4af6-b062-91b0b8dde1df"},"vehicle_type_id":"4","last_reported":1706072826,"current_range_meters":6800,"station_id":"ce4bhs92rcd13ifvqi0g","pricing_plan_id":"free"},{"bike_id":"6721428b-c74b-45c6-886b-c2d04f1acc8c","system_id":"levelo_inurba_marseille","lat":43.328276,"lon":5.3669,"is_reserved":false,"is_disabled":false,"rental_uris":{"android":"levelo://app?vid=6721428b-c74b-45c6-886b-c2d04f1acc8c","ios":"levelo://app?vid=6721428b-c74b-45c6-886b-c2d04f1acc8c"},"vehicle_type_id":"4","last_reported":1706072826,"current_range_meters":11200,"station_id":"ce4bhs92rcd13ifvqi0g","pricing_plan_id":"free"},{"bike_id":"85cedcff-9e9a-415d-8415-195178ea3cb7","system_id":"levelo_inurba_marseille","lat":43.32828,"lon":5.36676,"is_reserved":false,"is_disabled":false,"rental_uris":{"android":"levelo://app?vid=85cedcff-9e9a-415d-8415-195178ea3cb7","ios":"levelo://app?vid=85cedcff-9e9a-415d-8415-195178ea3cb7"},"vehicle_type_id":"4","last_reported":1706072826,"current_range_meters":9200,"station_id":"ce4bhs92rcd13ifvqi0g","pricing_plan_id":"free"},{"bike_id":"38d4b3c6-c1c4-4ada-b0ed-8e6826ac2770","system_id":"levelo_inurba_marseille","lat":43.328371,"lon":5.366912,"is_reserved":false,"is_disabled":false,"rental_uris":{"android":"levelo://app?vid=38d4b3c6-c1c4-4ada-b0ed-8e6826ac2770","ios":"levelo://app?vid=38d4b3c6-c1c4-4ada-b0ed-8e6826ac2770"},"vehicle_type_id":"4","last_reported":1706072826,"current_range_meters":14400,"station_id":"ce4bhs92rcd13ifvqi0g","pricing_plan_id":"free"},{"bike_id":"73755ba0-1381-4d5d-8750-d3a07d3f4c75","system_id":"levelo_inurba_marseille","lat":43.328279,"lon":5.366424,"is_reserved":false,"is_disabled":false,"rental_uris":{"android":"levelo://app?vid=73755ba0-1381-4d5d-8750-d3a07d3f4c75","ios":"levelo://app?vid=73755ba0-1381-4d5d-8750-d3a07d3f4c75"},"vehicle_type_id":"4","last_reported":1706072826,"current_range_meters":8000,"station_id":"ce4bhs92rcd13ifvqi0g","pricing_plan_id":"free"},{"bike_id":"447532c0-56ca-46ac-9000-fea47d81b433","system_id":"levelo_inurba_marseille","lat":43.328298,"lon":5.3668,"is_reserved":false,"is_disabled":false,"rental_uris":{"android":"levelo://app?vid=447532c0-56ca-46ac-9000-fea47d81b433","ios":"levelo://app?vid=447532c0-56ca-46ac-9000-fea47d81b433"},"vehicle_type_id":"4","last_reported":1706072826,"current_range_meters":24400,"station_id":"ce4bhs92rcd13ifvqi0g","pricing_plan_id":"free"},{"bike_id":"5b7aaccd-f0dd-4bc4-a5b7-1581df3aca1d","system_id":"levelo_inurba_marseille","lat":43.328371,"lon":5.366909,"is_reserved":false,"is_disabled":false,"rental_uris":{"android":"levelo://app?vid=5b7aaccd-f0dd-4bc4-a5b7-1581df3aca1d","ios":"levelo://app?vid=5b7aaccd-f0dd-4bc4-a5b7-1581df3aca1d"},"vehicle_type_id":"4","last_reported":1706072826,"current_range_meters":12800,"station_id":"ce4bhs92rcd13ifvqi0g","pricing_plan_id":"free"},{"bike_id":"6851d2e7-d28c-47d0-964c-c2c15e7e3afe","system_id":"levelo_inurba_marseille","lat":43.328371,"lon":5.366909,"is_reserved":false,"is_disabled":false,"rental_uris":{"android":"levelo://app?vid=6851d2e7-d28c-47d0-964c-c2c15e7e3afe","ios":"levelo://app?vid=6851d2e7-d28c-47d0-964c-c2c15e7e3afe"},"vehicle_type_id":"4","last_reported":1706072826,"current_range_meters":2400,"station_id":"ce4bhs92rcd13ifvqi0g","pricing_plan_id":"free"},{"bike_id":"f529af8b-6eb5-4dad-b929-2be8fdbdd47b","system_id":"levelo_inurba_marseille","lat":43.328371,"lon":5.366909,"is_reserved":false,"is_disabled":false,"rental_uris":{"android":"levelo://app?vid=f529af8b-6eb5-4dad-b929-2be8fdbdd47b","ios":"levelo://app?vid=f529af8b-6eb5-4dad-b929-2be8fdbdd47b"},"vehicle_type_id":"4","last_reported":1706072826,"current_range_meters":27600,"station_id":"ce4bhs92rcd13ifvqi0g","pricing_plan_id":"free"},{"bike_id":"d8b5260c-205c-4300-9784-22ead2fde86f","system_id":"levelo_inurba_marseille","lat":43.328371,"lon":5.366909,"is_reserved":false,"is_disabled":false,"rental_uris":{"android":"levelo://app?vid=d8b5260c-205c-4300-9784-22ead2fde86f","ios":"levelo://app?vid=d8b5260c-205c-4300-9784-22ead2fde86f"},"vehicle_type_id":"4","last_reported":1706072826,"current_range_meters":16400,"station_id":"ce4bhs92rcd13ifvqi0g","pricing_plan_id":"free"},{"bike_id":"8e2e258c-9f25-408c-8291-bf6e5ba33180","system_id":"levelo_inurba_marseille","lat":43.328371,"lon":5.366909,"is_reserved":false,"is_disabled":false,"rental_uris":{"android":"levelo://app?vid=8e2e258c-9f25-408c-8291-bf6e5ba33180","ios":"levelo://app?vid=8e2e258c-9f25-408c-8291-bf6e5ba33180"},"vehicle_type_id":"4","last_reported":1706072826,"current_range_meters":26400,"station_id":"ce4bhs92rcd13ifvqi0g","pricing_plan_id":"free"},{"bike_id":"6250b890-bf0a-4090-bd22-163dd9de4533","system_id":"levelo_inurba_marseille","lat":43.328371,"lon":5.366909,"is_reserved":false,"is_disabled":false,"rental_uris":{"android":"levelo://app?vid=6250b890-bf0a-4090-bd22-163dd9de4533","ios":"levelo://app?vid=6250b890-bf0a-4090-bd22-163dd9de4533"},"vehicle_type_id":"4","last_reported":1706072826,"current_range_meters":20800,"station_id":"ce4bhs92rcd13ifvqi0g","pricing_plan_id":"free"},{"bike_id":"fb5c81e7-2e43-4803-b381-527ab4102689","system_id":"levelo_inurba_marseille","lat":43.328371,"lon":5.366909,"is_reserved":false,"is_disabled":false,"rental_uris":{"android":"levelo://app?vid=fb5c81e7-2e43-4803-b381-527ab4102689","ios":"levelo://app?vid=fb5c81e7-2e43-4803-b381-527ab4102689"},"vehicle_type_id":"4","last_reported":1706072826,"current_range_meters":30000,"station_id":"ce4bhs92rcd13ifvqi0g","pricing_plan_id":"free"},{"bike_id":"7089a61c-e4af-4be6-b327-9ae27e438203","system_id":"levelo_inurba_marseille","lat":43.328371,"lon":5.366909,"is_reserved":false,"is_disabled":false,"rental_uris":{"android":"levelo://app?vid=7089a61c-e4af-4be6-b327-9ae27e438203","ios":"levelo://app?vid=7089a61c-e4af-4be6-b327-9ae27e438203"},"vehicle_type_id":"4","last_reported":1706072826,"current_range_meters":12400,"station_id":"ce4bhs92rcd13ifvqi0g","pricing_plan_id":"free"},{"bike_id":"79d2d98a-29f2-4ffd-ae01-bfd8a1fa05d5","system_id":"levelo_inurba_marseille","lat":43.328371,"lon":5.366912,"is_reserved":false,"is_disabled":false,"rental_uris":{"android":"levelo://app?vid=79d2d98a-29f2-4ffd-ae01-bfd8a1fa05d5","ios":"levelo://app?vid=79d2d98a-29f2-4ffd-ae01-bfd8a1fa05d5"},"vehicle_type_id":"4","last_reported":1706072826,"current_range_meters":28000,"station_id":"ce4bhs92rcd13ifvqi0g","pricing_plan_id":"free"},{"bike_id":"204738f6-469d-4db3-bd14-c2b38ef5e726","system_id":"levelo_inurba_marseille","lat":43.328371,"lon":5.366912,"is_reserved":false,"is_disabled":false,"rental_uris":{"android":"levelo://app?vid=204738f6-469d-4db3-bd14-c2b38ef5e726","ios":"levelo://app?vid=204738f6-469d-4db3-bd14-c2b38ef5e726"},"vehicle_type_id":"4","last_reported":1706072826,"current_range_meters":22000,"station_id":"ce4bhs92rcd13ifvqi0g","pricing_plan_id":"free"},{"bike_id":"7a7fe1b6-0785-4248-a54a-ed56a9888f72","system_id":"levelo_inurba_marseille","lat":43.329217,"lon":5.36703,"is_reserved":false,"is_disabled":false,"rental_uris":{"android":"levelo://app?vid=7a7fe1b6-0785-4248-a54a-ed56a9888f72","ios":"levelo://app?vid=7a7fe1b6-0785-4248-a54a-ed56a9888f72"},"vehicle_type_id":"4","last_reported":1706072826,"current_range_meters":6000,"station_id":"","pricing_plan_id":"free"},{"bike_id":"35e5175e-c6c2-4d76-8210-c306e8aa9d4f","system_id":"levelo_inurba_marseille","lat":43.299028,"lon":5.381509,"is_reserved":false,"is_disabled":false,"rental_uris":{"android":"levelo://app?vid=35e5175e-c6c2-4d76-8210-c306e8aa9d4f","ios":"levelo://app?vid=35e5175e-c6c2-4d76-8210-c306e8aa9d4f"},"vehicle_type_id":"4","last_reported":1706072826,"current_range_meters":25200,"station_id":"ce4bgj12rcd13ifvqbc0","pricing_plan_id":"free"},{"bike_id":"a3efb443-a8a8-401a-a7be-5cf17d9797fb","system_id":"levelo_inurba_marseille","lat":43.299028,"lon":5.381509,"is_reserved":false,"is_disabled":false,"rental_uris":{"android":"levelo://app?vid=a3efb443-a8a8-401a-a7be-5cf17d9797fb","ios":"levelo://app?vid=a3efb443-a8a8-401a-a7be-5cf17d9797fb"},"vehicle_type_id":"4","last_reported":1706072826,"current_range_meters":28800,"station_id":"ce4bgj12rcd13ifvqbc0","pricing_plan_id":"free"},{"bike_id":"3b895663-13ee-4bb7-915e-2cbe89ba3adb","system_id":"levelo_inurba_marseille","lat":43.317557,"lon":5.390173,"is_reserved":false,"is_disabled":false,"rental_uris":{"android":"levelo://app?vid=3b895663-13ee-4bb7-915e-2cbe89ba3adb","ios":"levelo://app?vid=3b895663-13ee-4bb7-915e-2cbe89ba3adb"},"vehicle_type_id":"4","last_reported":1706072826,"current_range_meters":23200,"station_id":"ce4bhqp2rcd13ifvqhng","pricing_plan_id":"free"},{"bike_id":"455cf7b4-f3ea-4ac3-b26a-99d16bfdc36c","system_id":"levelo_inurba_marseille","lat":43.317557,"lon":5.390173,"is_reserved":false,"is_disabled":false,"rental_uris":{"android":"levelo://app?vid=455cf7b4-f3ea-4ac3-b26a-99d16bfdc36c","ios":"levelo://app?vid=455cf7b4-f3ea-4ac3-b26a-99d16bfdc36c"},"vehicle_type_id":"4","last_reported":1706072826,"current_range_meters":30000,"station_id":"ce4bhqp2rcd13ifvqhng","pricing_plan_id":"free"},{"bike_id":"f619c3bc-2027-4311-ae05-110bc7bc4028","system_id":"levelo_inurba_marseille","lat":43.304278,"lon":5.388868,"is_reserved":false,"is_disabled":false,"rental_uris":{"android":"levelo://app?vid=f619c3bc-2027-4311-ae05-110bc7bc4028","ios":"levelo://app?vid=f619c3bc-2027-4311-ae05-110bc7bc4028"},"vehicle_type_id":"4","last_reported":1706072826,"current_range_meters":30400,"station_id":"ce4bgk12rcd13ifvqbi0","pricing_plan_id":"free"},{"bike_id":"677b285e-b435-402f-bcd0-787daaf47372","system_id":"levelo_inurba_marseille","lat":43.304278,"lon":5.388868,"is_reserved":false,"is_disabled":false,"rental_uris":{"android":"levelo://app?vid=677b285e-b435-402f-bcd0-787daaf47372","ios":"levelo://app?vid=677b285e-b435-402f-bcd0-787daaf47372"},"vehicle_type_id":"4","last_reported":1706072826,"current_range_meters":26800,"station_id":"ce4bgk12rcd13ifvqbi0","pricing_plan_id":"free"},{"bike_id":"28395faf-8cf1-4f81-a0d6-4ca33555226e","system_id":"levelo_inurba_marseille","lat":43.32367,"lon":5.388836,"is_reserved":false,"is_disabled":false,"rental_uris":{"android":"levelo://app?vid=28395faf-8cf1-4f81-a0d6-4ca33555226e","ios":"levelo://app?vid=28395faf-8cf1-4f81-a0d6-4ca33555226e"},"vehicle_type_id":"4","last_reported":1706072826,"current_range_meters":12800,"station_id":"ce4bhqp2rcd13ifvqhog","pricing_plan_id":"free"},{"bike_id":"b3ae146c-2436-4afb-b45a-3899af5aa2de","system_id":"levelo_inurba_marseille","lat":43.32367,"lon":5.388836,"is_reserved":false,"is_disabled":false,"rental_uris":{"android":"levelo://app?vid=b3ae146c-2436-4afb-b45a-3899af5aa2de","ios":"levelo://app?vid=b3ae146c-2436-4afb-b45a-3899af5aa2de"},"vehicle_type_id":"4","last_reported":1706072826,"current_range_meters":18800,"station_id":"ce4bhqp2rcd13ifvqhog","pricing_plan_id":"free"},{"bike_id":"3aa7afa9-31c9-412e-b41c-5eb00ac6866d","system_id":"levelo_inurba_marseille","lat":43.306415,"lon":5.392985,"is_reserved":false,"is_disabled":false,"rental_uris":{"android":"levelo://app?vid=3aa7afa9-31c9-412e-b41c-5eb00ac6866d","ios":"levelo://app?vid=3aa7afa9-31c9-412e-b41c-5eb00ac6866d"},"vehicle_type_id":"4","last_reported":1706072826,"current_range_meters":20800,"station_id":"","pricing_plan_id":"free"},{"bike_id":"3e3882ca-ddfa-4405-ab8a-55f0a78970b8","system_id":"levelo_inurba_marseille","lat":43.306031,"lon":5.39356,"is_reserved":false,"is_disabled":false,"rental_uris":{"android":"levelo://app?vid=3e3882ca-ddfa-4405-ab8a-55f0a78970b8","ios":"levelo://app?vid=3e3882ca-ddfa-4405-ab8a-55f0a78970b8"},"vehicle_type_id":"4","last_reported":1706072826,"current_range_meters":28800,"station_id":"ce4bh0p2rcd13ifvqd80","pricing_plan_id":"free"},{"bike_id":"a35df7bf-4591-4262-b95f-ec37798ae801","system_id":"levelo_inurba_marseille","lat":43.302992,"lon":5.392136,"is_reserved":false,"is_disabled":false,"rental_uris":{"android":"levelo://app?vid=a35df7bf-4591-4262-b95f-ec37798ae801","ios":"levelo://app?vid=a35df7bf-4591-4262-b95f-ec37798ae801"},"vehicle_type_id":"4","last_reported":1706072826,"current_range_meters":30000,"station_id":"ce4bgkh2rcd13ifvqbk0","pricing_plan_id":"free"},{"bike_id":"108559eb-0086-4b88-8a12-331a614a5a79","system_id":"levelo_inurba_marseille","lat":43.294345,"lon":5.380276,"is_reserved":false,"is_disabled":false,"rental_uris":{"android":"levelo://app?vid=108559eb-0086-4b88-8a12-331a614a5a79","ios":"levelo://app?vid=108559eb-0086-4b88-8a12-331a614a5a79"},"vehicle_type_id":"4","last_reported":1706072826,"current_range_meters":11200,"station_id":"","pricing_plan_id":"free"},{"bike_id":"06dbe4d0-e384-45f6-8820-02802847f9f5","system_id":"levelo_inurba_marseille","lat":43.293009,"lon":5.374584,"is_reserved":false,"is_disabled":false,"rental_uris":{"android":"levelo://app?vid=06dbe4d0-e384-45f6-8820-02802847f9f5","ios":"levelo://app?vid=06dbe4d0-e384-45f6-8820-02802847f9f5"},"vehicle_type_id":"4","last_reported":1706072826,"current_range_meters":9200,"station_id":"ce4bgi12rcd13ifvqb70","pricing_plan_id":"free"},{"bike_id":"c85a1b8a-3977-46bf-940f-60d638112589","system_id":"levelo_inurba_marseille","lat":43.292681,"lon":5.376491,"is_reserved":false,"is_disabled":false,"rental_uris":{"android":"levelo://app?vid=c85a1b8a-3977-46bf-940f-60d638112589","ios":"levelo://app?vid=c85a1b8a-3977-46bf-940f-60d638112589"},"vehicle_type_id":"4","last_reported":1706072826,"current_range_meters":24800,"station_id":"","pricing_plan_id":"free"},{"bike_id":"ad2b5c51-ab73-46a1-8f01-e1df6dba81c2","system_id":"levelo_inurba_marseille","lat":43.298764,"lon":5.388973,"is_reserved":false,"is_disabled":false,"rental_uris":{"android":"levelo://app?vid=ad2b5c51-ab73-46a1-8f01-e1df6dba81c2","ios":"levelo://app?vid=ad2b5c51-ab73-46a1-8f01-e1df6dba81c2"},"vehicle_type_id":"4","last_reported":1706072826,"current_range_meters":28800,"station_id":"ce4bh392rcd13ifvqdl0","pricing_plan_id":"free"},{"bike_id":"950ff031-826c-40e0-bd97-c873746cf7ff","system_id":"levelo_inurba_marseille","lat":43.298713,"lon":5.389099,"is_reserved":false,"is_disabled":false,"rental_uris":{"android":"levelo://app?vid=950ff031-826c-40e0-bd97-c873746cf7ff","ios":"levelo://app?vid=950ff031-826c-40e0-bd97-c873746cf7ff"},"vehicle_type_id":"4","last_reported":1706072826,"current_range_meters":28400,"station_id":"ce4bh392rcd13ifvqdl0","pricing_plan_id":"free"},{"bike_id":"b1610a6f-9bb6-4c77-b3f9-ffe7cd4f950a","system_id":"levelo_inurba_marseille","lat":43.298714,"lon":5.389111,"is_reserved":false,"is_disabled":false,"rental_uris":{"android":"levelo://app?vid=b1610a6f-9bb6-4c77-b3f9-ffe7cd4f950a","ios":"levelo://app?vid=b1610a6f-9bb6-4c77-b3f9-ffe7cd4f950a"},"vehicle_type_id":"4","last_reported":1706072826,"current_range_meters":29200,"station_id":"ce4bh392rcd13ifvqdl0","pricing_plan_id":"free"},{"bike_id":"658ef7ce-c0aa-461d-ad6e-82fe3b8a6724","system_id":"levelo_inurba_marseille","lat":43.30888,"lon":5.39628,"is_reserved":false,"is_disabled":false,"rental_uris":{"android":"levelo://app?vid=658ef7ce-c0aa-461d-ad6e-82fe3b8a6724","ios":"levelo://app?vid=658ef7ce-c0aa-461d-ad6e-82fe3b8a6724"},"vehicle_type_id":"4","last_reported":1706072826,"current_range_meters":30400,"station_id":"ce4bh012rcd13ifvqcv0","pricing_plan_id":"free"},{"bike_id":"d18b3aab-cfc8-4131-884b-1a781f432799","system_id":"levelo_inurba_marseille","lat":43.30889,"lon":5.39632,"is_reserved":false,"is_disabled":false,"rental_uris":{"android":"levelo://app?vid=d18b3aab-cfc8-4131-884b-1a781f432799","ios":"levelo://app?vid=d18b3aab-cfc8-4131-884b-1a781f432799"},"vehicle_type_id":"4","last_reported":1706072826,"current_range_meters":12000,"station_id":"ce4bh012rcd13ifvqcv0","pricing_plan_id":"free"},{"bike_id":"05fbdd6d-5949-4fc7-b157-31ae89a0acf7","system_id":"levelo_inurba_marseille","lat":43.292,"lon":5.35797,"is_reserved":false,"is_disabled":false,"rental_uris":{"android":"levelo://app?vid=05fbdd6d-5949-4fc7-b157-31ae89a0acf7","ios":"levelo://app?vid=05fbdd6d-5949-4fc7-b157-31ae89a0acf7"},"vehicle_type_id":"4","last_reported":1706072826,"current_range_meters":28800,"station_id":"ce4bhb12rcd13ifvqel0","pricing_plan_id":"free"},{"bike_id":"b3298b71-8a2e-493d-934a-92975a163215","system_id":"levelo_inurba_marseille","lat":43.308878,"lon":5.396331,"is_reserved":false,"is_disabled":false,"rental_uris":{"android":"levelo://app?vid=b3298b71-8a2e-493d-934a-92975a163215","ios":"levelo://app?vid=b3298b71-8a2e-493d-934a-92975a163215"},"vehicle_type_id":"4","last_reported":1706072826,"current_range_meters":19600,"station_id":"ce4bh012rcd13ifvqcv0","pricing_plan_id":"free"},{"bike_id":"4a7bf42b-0b38-4de4-bd66-2a92e950bbdf","system_id":"levelo_inurba_marseille","lat":43.30891,"lon":5.39634,"is_reserved":false,"is_disabled":false,"rental_uris":{"android":"levelo://app?vid=4a7bf42b-0b38-4de4-bd66-2a92e950bbdf","ios":"levelo://app?vid=4a7bf42b-0b38-4de4-bd66-2a92e950bbdf"},"vehicle_type_id":"4","last_reported":1706072826,"current_range_meters":31200,"station_id":"ce4bh012rcd13ifvqcv0","pricing_plan_id":"free"},{"bike_id":"39f75718-96cb-4caf-83b6-4e4ee4c2d742","system_id":"levelo_inurba_marseille","lat":43.29198,"lon":5.35798,"is_reserved":false,"is_disabled":false,"rental_uris":{"android":"levelo://app?vid=39f75718-96cb-4caf-83b6-4e4ee4c2d742","ios":"levelo://app?vid=39f75718-96cb-4caf-83b6-4e4ee4c2d742"},"vehicle_type_id":"4","last_reported":1706072826,"current_range_meters":0,"station_id":"ce4bhb12rcd13ifvqel0","pricing_plan_id":"free"},{"bike_id":"ee3cfdd5-c4c0-4596-9b75-990c66ef91db","system_id":"levelo_inurba_marseille","lat":43.308874,"lon":5.39636,"is_reserved":false,"is_disabled":false,"rental_uris":{"android":"levelo://app?vid=ee3cfdd5-c4c0-4596-9b75-990c66ef91db","ios":"levelo://app?vid=ee3cfdd5-c4c0-4596-9b75-990c66ef91db"},"vehicle_type_id":"4","last_reported":1706072826,"current_range_meters":6000,"station_id":"ce4bh012rcd13ifvqcv0","pricing_plan_id":"free"},{"bike_id":"e4fd5f77-dda3-43b1-a33f-0a0ab95f303c","system_id":"levelo_inurba_marseille","lat":43.308889,"lon":5.396364,"is_reserved":false,"is_disabled":false,"rental_uris":{"android":"levelo://app?vid=e4fd5f77-dda3-43b1-a33f-0a0ab95f303c","ios":"levelo://app?vid=e4fd5f77-dda3-43b1-a33f-0a0ab95f303c"},"vehicle_type_id":"4","last_reported":1706072826,"current_range_meters":6000,"station_id":"ce4bh012rcd13ifvqcv0","pricing_plan_id":"free"},{"bike_id":"e470df0f-1488-41d8-83ee-afa09f50550e","system_id":"levelo_inurba_marseille","lat":43.308873,"lon":5.396373,"is_reserved":false,"is_disabled":false,"rental_uris":{"android":"levelo://app?vid=e470df0f-1488-41d8-83ee-afa09f50550e","ios":"levelo://app?vid=e470df0f-1488-41d8-83ee-afa09f50550e"},"vehicle_type_id":"4","last_reported":1706072826,"current_range_meters":4000,"station_id":"ce4bh012rcd13ifvqcv0","pricing_plan_id":"free"},{"bike_id":"ad43e1e0-4ee6-4cc6-a7b7-873115270563","system_id":"levelo_inurba_marseille","lat":43.308863,"lon":5.396373,"is_reserved":false,"is_disabled":false,"rental_uris":{"android":"levelo://app?vid=ad43e1e0-4ee6-4cc6-a7b7-873115270563","ios":"levelo://app?vid=ad43e1e0-4ee6-4cc6-a7b7-873115270563"},"vehicle_type_id":"4","last_reported":1706072826,"current_range_meters":21600,"station_id":"ce4bh012rcd13ifvqcv0","pricing_plan_id":"free"},{"bike_id":"e3c7539e-d971-47f8-9591-d45fbca23740","system_id":"levelo_inurba_marseille","lat":43.30889,"lon":5.39638,"is_reserved":false,"is_disabled":false,"rental_uris":{"android":"levelo://app?vid=e3c7539e-d971-47f8-9591-d45fbca23740","ios":"levelo://app?vid=e3c7539e-d971-47f8-9591-d45fbca23740"},"vehicle_type_id":"4","last_reported":1706072826,"current_range_meters":29200,"station_id":"ce4bh012rcd13ifvqcv0","pricing_plan_id":"free"},{"bike_id":"5e7a6b38-b865-4eab-82f2-9b56861caa36","system_id":"levelo_inurba_marseille","lat":43.308808,"lon":5.396362,"is_reserved":false,"is_disabled":false,"rental_uris":{"android":"levelo://app?vid=5e7a6b38-b865-4eab-82f2-9b56861caa36","ios":"levelo://app?vid=5e7a6b38-b865-4eab-82f2-9b56861caa36"},"vehicle_type_id":"4","last_reported":1706072826,"current_range_meters":14000,"station_id":"ce4bh012rcd13ifvqcv0","pricing_plan_id":"free"},{"bike_id":"5a423593-da43-4643-9c63-63b26fe2af4d","system_id":"levelo_inurba_marseille","lat":43.308883,"lon":5.396382,"is_reserved":false,"is_disabled":false,"rental_uris":{"android":"levelo://app?vid=5a423593-da43-4643-9c63-63b26fe2af4d","ios":"levelo://app?vid=5a423593-da43-4643-9c63-63b26fe2af4d"},"vehicle_type_id":"4","last_reported":1706072826,"current_range_meters":7600,"station_id":"ce4bh012rcd13ifvqcv0","pricing_plan_id":"free"},{"bike_id":"f73f91d2-f2e5-4b38-8487-098fc091291a","system_id":"levelo_inurba_marseille","lat":43.308884,"lon":5.396385,"is_reserved":false,"is_disabled":false,"rental_uris":{"android":"levelo://app?vid=f73f91d2-f2e5-4b38-8487-098fc091291a","ios":"levelo://app?vid=f73f91d2-f2e5-4b38-8487-098fc091291a"},"vehicle_type_id":"4","last_reported":1706072826,"current_range_meters":17200,"station_id":"ce4bh012rcd13ifvqcv0","pricing_plan_id":"free"},{"bike_id":"e36b906c-b037-4b5e-8952-0700e3f182e7","system_id":"levelo_inurba_marseille","lat":43.30885,"lon":5.3964,"is_reserved":false,"is_disabled":false,"rental_uris":{"android":"levelo://app?vid=e36b906c-b037-4b5e-8952-0700e3f182e7","ios":"levelo://app?vid=e36b906c-b037-4b5e-8952-0700e3f182e7"},"vehicle_type_id":"4","last_reported":1706072826,"current_range_meters":17600,"station_id":"ce4bh012rcd13ifvqcv0","pricing_plan_id":"free"},{"bike_id":"0c2cab1d-421f-413c-8bcf-f810452efcf2","system_id":"levelo_inurba_marseille","lat":43.308856,"lon":5.396404,"is_reserved":false,"is_disabled":false,"rental_uris":{"android":"levelo://app?vid=0c2cab1d-421f-413c-8bcf-f810452efcf2","ios":"levelo://app?vid=0c2cab1d-421f-413c-8bcf-f810452efcf2"},"vehicle_type_id":"4","last_reported":1706072826,"current_range_meters":20000,"station_id":"ce4bh012rcd13ifvqcv0","pricing_plan_id":"free"},{"bike_id":"bfbdb4fc-81ef-4391-ad6f-62f15820c02f","system_id":"levelo_inurba_marseille","lat":43.33382,"lon":5.37458,"is_reserved":false,"is_disabled":false,"rental_uris":{"android":"levelo://app?vid=bfbdb4fc-81ef-4391-ad6f-62f15820c02f","ios":"levelo://app?vid=bfbdb4fc-81ef-4391-ad6f-62f15820c02f"},"vehicle_type_id":"4","last_reported":1706072826,"current_range_meters":20000,"station_id":"","pricing_plan_id":"free"},{"bike_id":"ee570c37-7e5b-4f34-854d-9f0e3f694527","system_id":"levelo_inurba_marseille","lat":43.313315,"lon":5.396887,"is_reserved":false,"is_disabled":false,"rental_uris":{"android":"levelo://app?vid=ee570c37-7e5b-4f34-854d-9f0e3f694527","ios":"levelo://app?vid=ee570c37-7e5b-4f34-854d-9f0e3f694527"},"vehicle_type_id":"4","last_reported":1706072826,"current_range_meters":13200,"station_id":"ce4bgvp2rcd13ifvqcu0","pricing_plan_id":"free"},{"bike_id":"f5c1ad58-0b38-42c8-882d-37b379aaf79e","system_id":"levelo_inurba_marseille","lat":43.313291,"lon":5.396838,"is_reserved":false,"is_disabled":false,"rental_uris":{"android":"levelo://app?vid=f5c1ad58-0b38-42c8-882d-37b379aaf79e","ios":"levelo://app?vid=f5c1ad58-0b38-42c8-882d-37b379aaf79e"},"vehicle_type_id":"4","last_reported":1706072826,"current_range_meters":12000,"station_id":"ce4bgvp2rcd13ifvqcu0","pricing_plan_id":"free"},{"bike_id":"3ad45def-9801-4830-93f6-31b670685a91","system_id":"levelo_inurba_marseille","lat":43.308865,"lon":5.396426,"is_reserved":false,"is_disabled":false,"rental_uris":{"android":"levelo://app?vid=3ad45def-9801-4830-93f6-31b670685a91","ios":"levelo://app?vid=3ad45def-9801-4830-93f6-31b670685a91"},"vehicle_type_id":"4","last_reported":1706072826,"current_range_meters":18400,"station_id":"ce4bh012rcd13ifvqcv0","pricing_plan_id":"free"},{"bike_id":"a1c9e712-10d1-4be2-a6a0-54efcddeeb28","system_id":"levelo_inurba_marseille","lat":43.308901,"lon":5.396445,"is_reserved":false,"is_disabled":false,"rental_uris":{"android":"levelo://app?vid=a1c9e712-10d1-4be2-a6a0-54efcddeeb28","ios":"levelo://app?vid=a1c9e712-10d1-4be2-a6a0-54efcddeeb28"},"vehicle_type_id":"4","last_reported":1706072826,"current_range_meters":29200,"station_id":"ce4bh012rcd13ifvqcv0","pricing_plan_id":"free"},{"bike_id":"880cf841-262a-49e7-9fac-bc0879e9e867","system_id":"levelo_inurba_marseille","lat":43.308791,"lon":5.396451,"is_reserved":false,"is_disabled":false,"rental_uris":{"android":"levelo://app?vid=880cf841-262a-49e7-9fac-bc0879e9e867","ios":"levelo://app?vid=880cf841-262a-49e7-9fac-bc0879e9e867"},"vehicle_type_id":"4","last_reported":1706072826,"current_range_meters":27200,"station_id":"ce4bh012rcd13ifvqcv0","pricing_plan_id":"free"},{"bike_id":"7fc554d0-1d3c-4682-9d56-ad4b987dea3d","system_id":"levelo_inurba_marseille","lat":43.313243,"lon":5.396986,"is_reserved":false,"is_disabled":false,"rental_uris":{"android":"levelo://app?vid=7fc554d0-1d3c-4682-9d56-ad4b987dea3d","ios":"levelo://app?vid=7fc554d0-1d3c-4682-9d56-ad4b987dea3d"},"vehicle_type_id":"4","last_reported":1706072826,"current_range_meters":8000,"station_id":"ce4bgvp2rcd13ifvqcu0","pricing_plan_id":"free"},{"bike_id":"e1e96bd3-d4a7-4217-b9f8-077fc51279b7","system_id":"levelo_inurba_marseille","lat":43.313291,"lon":5.396838,"is_reserved":false,"is_disabled":false,"rental_uris":{"android":"levelo://app?vid=e1e96bd3-d4a7-4217-b9f8-077fc51279b7","ios":"levelo://app?vid=e1e96bd3-d4a7-4217-b9f8-077fc51279b7"},"vehicle_type_id":"4","last_reported":1706072826,"current_range_meters":32000,"station_id":"ce4bgvp2rcd13ifvqcu0","pricing_plan_id":"free"},{"bike_id":"1de920fe-d031-4d92-8e0f-ca6274322f4a","system_id":"levelo_inurba_marseille","lat":43.302008,"lon":5.394694,"is_reserved":false,"is_disabled":false,"rental_uris":{"android":"levelo://app?vid=1de920fe-d031-4d92-8e0f-ca6274322f4a","ios":"levelo://app?vid=1de920fe-d031-4d92-8e0f-ca6274322f4a"},"vehicle_type_id":"4","last_reported":1706072826,"current_range_meters":24400,"station_id":"ce4bh0p2rcd13ifvqd70","pricing_plan_id":"free"},{"bike_id":"a0517042-8b10-4713-bc63-984890b585db","system_id":"levelo_inurba_marseille","lat":43.290624,"lon":5.359245,"is_reserved":false,"is_disabled":false,"rental_uris":{"android":"levelo://app?vid=a0517042-8b10-4713-bc63-984890b585db","ios":"levelo://app?vid=a0517042-8b10-4713-bc63-984890b585db"},"vehicle_type_id":"4","last_reported":1706072826,"current_range_meters":27600,"station_id":"ce4bha92rcd13ifvqeg0","pricing_plan_id":"free"},{"bike_id":"56bb1c33-c6b0-4c4c-98be-d11c44720f23","system_id":"levelo_inurba_marseille","lat":43.290388,"lon":5.359202,"is_reserved":false,"is_disabled":false,"rental_uris":{"android":"levelo://app?vid=56bb1c33-c6b0-4c4c-98be-d11c44720f23","ios":"levelo://app?vid=56bb1c33-c6b0-4c4c-98be-d11c44720f23"},"vehicle_type_id":"4","last_reported":1706072826,"current_range_meters":31200,"station_id":"ce4bha92rcd13ifvqeg0","pricing_plan_id":"free"},{"bike_id":"e6d66a1b-d163-40b8-901b-0c9f93b706c6","system_id":"levelo_inurba_marseille","lat":43.290357,"lon":5.359311,"is_reserved":false,"is_disabled":false,"rental_uris":{"android":"levelo://app?vid=e6d66a1b-d163-40b8-901b-0c9f93b706c6","ios":"levelo://app?vid=e6d66a1b-d163-40b8-901b-0c9f93b706c6"},"vehicle_type_id":"4","last_reported":1706072826,"current_range_meters":31200,"station_id":"ce4bha92rcd13ifvqeg0","pricing_plan_id":"free"},{"bike_id":"98871879-4f99-4ce3-91ad-e20e99753d70","system_id":"levelo_inurba_marseille","lat":43.290631,"lon":5.359244,"is_reserved":false,"is_disabled":false,"rental_uris":{"android":"levelo://app?vid=98871879-4f99-4ce3-91ad-e20e99753d70","ios":"levelo://app?vid=98871879-4f99-4ce3-91ad-e20e99753d70"},"vehicle_type_id":"4","last_reported":1706072826,"current_range_meters":28400,"station_id":"ce4bha92rcd13ifvqeg0","pricing_plan_id":"free"},{"bike_id":"27cc010a-664d-498b-98a5-4e39854def8c","system_id":"levelo_inurba_marseille","lat":43.28948,"lon":5.36637,"is_reserved":false,"is_disabled":false,"rental_uris":{"android":"levelo://app?vid=27cc010a-664d-498b-98a5-4e39854def8c","ios":"levelo://app?vid=27cc010a-664d-498b-98a5-4e39854def8c"},"vehicle_type_id":"4","last_reported":1706072826,"current_range_meters":29600,"station_id":"ce4bhap2rcd13ifvqek0","pricing_plan_id":"free"},{"bike_id":"c79196de-5cde-4cb5-9e6a-76425eead33b","system_id":"levelo_inurba_marseille","lat":43.289452,"lon":5.36402,"is_reserved":false,"is_disabled":false,"rental_uris":{"android":"levelo://app?vid=c79196de-5cde-4cb5-9e6a-76425eead33b","ios":"levelo://app?vid=c79196de-5cde-4cb5-9e6a-76425eead33b"},"vehicle_type_id":"4","last_reported":1706072826,"current_range_meters":31200,"station_id":"ce4bhc92rcd13ifvqetg","pricing_plan_id":"free"},{"bike_id":"a9b62a41-eff4-4b40-a3fa-265cd419cfcf","system_id":"levelo_inurba_marseille","lat":43.30431,"lon":5.397416,"is_reserved":false,"is_disabled":false,"rental_uris":{"android":"levelo://app?vid=a9b62a41-eff4-4b40-a3fa-265cd419cfcf","ios":"levelo://app?vid=a9b62a41-eff4-4b40-a3fa-265cd419cfcf"},"vehicle_type_id":"4","last_reported":1706072826,"current_range_meters":17200,"station_id":"ce4bh092rcd13ifvqd20","pricing_plan_id":"free"},{"bike_id":"bbb7c430-4b49-4009-add7-018a2e04b9e9","system_id":"levelo_inurba_marseille","lat":43.304274,"lon":5.397513,"is_reserved":false,"is_disabled":false,"rental_uris":{"android":"levelo://app?vid=bbb7c430-4b49-4009-add7-018a2e04b9e9","ios":"levelo://app?vid=bbb7c430-4b49-4009-add7-018a2e04b9e9"},"vehicle_type_id":"4","last_reported":1706072826,"current_range_meters":26000,"station_id":"ce4bh092rcd13ifvqd20","pricing_plan_id":"free"},{"bike_id":"97e5ae61-9211-4bd0-a839-6be44bcafb3e","system_id":"levelo_inurba_marseille","lat":43.290104,"lon":5.356111,"is_reserved":false,"is_disabled":false,"rental_uris":{"android":"levelo://app?vid=97e5ae61-9211-4bd0-a839-6be44bcafb3e","ios":"levelo://app?vid=97e5ae61-9211-4bd0-a839-6be44bcafb3e"},"vehicle_type_id":"4","last_reported":1706072826,"current_range_meters":22800,"station_id":"ce4bhb92rcd13ifvqen0","pricing_plan_id":"free"},{"bike_id":"a64d202b-5b51-4aef-9d11-c80f169c8f30","system_id":"levelo_inurba_marseille","lat":43.290104,"lon":5.356111,"is_reserved":false,"is_disabled":false,"rental_uris":{"android":"levelo://app?vid=a64d202b-5b51-4aef-9d11-c80f169c8f30","ios":"levelo://app?vid=a64d202b-5b51-4aef-9d11-c80f169c8f30"},"vehicle_type_id":"4","last_reported":1706072826,"current_range_meters":24000,"station_id":"ce4bhb92rcd13ifvqen0","pricing_plan_id":"free"},{"bike_id":"7207cd00-6097-4eb2-ab80-47bb63315139","system_id":"levelo_inurba_marseille","lat":43.28998,"lon":5.35607,"is_reserved":false,"is_disabled":false,"rental_uris":{"android":"levelo://app?vid=7207cd00-6097-4eb2-ab80-47bb63315139","ios":"levelo://app?vid=7207cd00-6097-4eb2-ab80-47bb63315139"},"vehicle_type_id":"4","last_reported":1706072826,"current_range_meters":22800,"station_id":"ce4bhb92rcd13ifvqen0","pricing_plan_id":"free"},{"bike_id":"7e3b44a0-6518-4173-8fd1-e575b28a3580","system_id":"levelo_inurba_marseille","lat":43.297909,"lon":5.393402,"is_reserved":false,"is_disabled":false,"rental_uris":{"android":"levelo://app?vid=7e3b44a0-6518-4173-8fd1-e575b28a3580","ios":"levelo://app?vid=7e3b44a0-6518-4173-8fd1-e575b28a3580"},"vehicle_type_id":"4","last_reported":1706072826,"current_range_meters":30400,"station_id":"chh1huq6cuj3fo74tm60","pricing_plan_id":"free"},{"bike_id":"a1e806de-7881-4fd8-a3a5-9f3f5208bdc0","system_id":"levelo_inurba_marseille","lat":43.297815,"lon":5.393548,"is_reserved":false,"is_disabled":false,"rental_uris":{"android":"levelo://app?vid=a1e806de-7881-4fd8-a3a5-9f3f5208bdc0","ios":"levelo://app?vid=a1e806de-7881-4fd8-a3a5-9f3f5208bdc0"},"vehicle_type_id":"4","last_reported":1706072826,"current_range_meters":29600,"station_id":"chh1huq6cuj3fo74tm60","pricing_plan_id":"free"},{"bike_id":"fedd67f1-4f12-4162-acc8-91cfb3726602","system_id":"levelo_inurba_marseille","lat":43.297815,"lon":5.393548,"is_reserved":false,"is_disabled":false,"rental_uris":{"android":"levelo://app?vid=fedd67f1-4f12-4162-acc8-91cfb3726602","ios":"levelo://app?vid=fedd67f1-4f12-4162-acc8-91cfb3726602"},"vehicle_type_id":"4","last_reported":1706072826,"current_range_meters":15600,"station_id":"chh1huq6cuj3fo74tm60","pricing_plan_id":"free"},{"bike_id":"5bd801ae-98c5-4ed3-95c8-24c2fdac86c0","system_id":"levelo_inurba_marseille","lat":43.297815,"lon":5.393548,"is_reserved":false,"is_disabled":false,"rental_uris":{"android":"levelo://app?vid=5bd801ae-98c5-4ed3-95c8-24c2fdac86c0","ios":"levelo://app?vid=5bd801ae-98c5-4ed3-95c8-24c2fdac86c0"},"vehicle_type_id":"4","last_reported":1706072826,"current_range_meters":31200,"station_id":"chh1huq6cuj3fo74tm60","pricing_plan_id":"free"},{"bike_id":"67c380de-ab9c-4162-b94f-c63800b63578","system_id":"levelo_inurba_marseille","lat":43.330255,"lon":5.390402,"is_reserved":false,"is_disabled":false,"rental_uris":{"android":"levelo://app?vid=67c380de-ab9c-4162-b94f-c63800b63578","ios":"levelo://app?vid=67c380de-ab9c-4162-b94f-c63800b63578"},"vehicle_type_id":"4","last_reported":1706072826,"current_range_meters":7600,"station_id":"","pricing_plan_id":"free"},{"bike_id":"aa69581e-f633-4fe7-8be0-42e4946c00ed","system_id":"levelo_inurba_marseille","lat":43.295169,"lon":5.390426,"is_reserved":false,"is_disabled":false,"rental_uris":{"android":"levelo://app?vid=aa69581e-f633-4fe7-8be0-42e4946c00ed","ios":"levelo://app?vid=aa69581e-f633-4fe7-8be0-42e4946c00ed"},"vehicle_type_id":"4","last_reported":1706072826,"current_range_meters":19600,"station_id":"ce4bh3p2rcd13ifvqdp0","pricing_plan_id":"free"},{"bike_id":"853b3efa-39b0-4289-bf04-6a71bf583114","system_id":"levelo_inurba_marseille","lat":43.28856,"lon":5.358371,"is_reserved":false,"is_disabled":false,"rental_uris":{"android":"levelo://app?vid=853b3efa-39b0-4289-bf04-6a71bf583114","ios":"levelo://app?vid=853b3efa-39b0-4289-bf04-6a71bf583114"},"vehicle_type_id":"4","last_reported":1706072826,"current_range_meters":30000,"station_id":"ce4bhb12rcd13ifvqem0","pricing_plan_id":"free"},{"bike_id":"7e350033-17c9-42c2-b62f-617a96d712ca","system_id":"levelo_inurba_marseille","lat":43.28856,"lon":5.358371,"is_reserved":false,"is_disabled":false,"rental_uris":{"android":"levelo://app?vid=7e350033-17c9-42c2-b62f-617a96d712ca","ios":"levelo://app?vid=7e350033-17c9-42c2-b62f-617a96d712ca"},"vehicle_type_id":"4","last_reported":1706072826,"current_range_meters":4400,"station_id":"ce4bhb12rcd13ifvqem0","pricing_plan_id":"free"},{"bike_id":"803f435c-f72f-4aca-a707-644537ea2758","system_id":"levelo_inurba_marseille","lat":43.28856,"lon":5.358371,"is_reserved":false,"is_disabled":false,"rental_uris":{"android":"levelo://app?vid=803f435c-f72f-4aca-a707-644537ea2758","ios":"levelo://app?vid=803f435c-f72f-4aca-a707-644537ea2758"},"vehicle_type_id":"4","last_reported":1706072826,"current_range_meters":7200,"station_id":"ce4bhb12rcd13ifvqem0","pricing_plan_id":"free"},{"bike_id":"acb7ac40-2d0f-496c-87a2-095502ed748c","system_id":"levelo_inurba_marseille","lat":43.28856,"lon":5.358371,"is_reserved":false,"is_disabled":false,"rental_uris":{"android":"levelo://app?vid=acb7ac40-2d0f-496c-87a2-095502ed748c","ios":"levelo://app?vid=acb7ac40-2d0f-496c-87a2-095502ed748c"},"vehicle_type_id":"4","last_reported":1706072826,"current_range_meters":14800,"station_id":"ce4bhb12rcd13ifvqem0","pricing_plan_id":"free"},{"bike_id":"1cc8b87d-c914-4364-925d-625b0e108ce5","system_id":"levelo_inurba_marseille","lat":43.28856,"lon":5.358371,"is_reserved":false,"is_disabled":false,"rental_uris":{"android":"levelo://app?vid=1cc8b87d-c914-4364-925d-625b0e108ce5","ios":"levelo://app?vid=1cc8b87d-c914-4364-925d-625b0e108ce5"},"vehicle_type_id":"4","last_reported":1706072826,"current_range_meters":16800,"station_id":"ce4bhb12rcd13ifvqem0","pricing_plan_id":"free"},{"bike_id":"59c1d8f8-d8ab-4b62-988f-4bfc524b1823","system_id":"levelo_inurba_marseille","lat":43.28856,"lon":5.358371,"is_reserved":false,"is_disabled":false,"rental_uris":{"android":"levelo://app?vid=59c1d8f8-d8ab-4b62-988f-4bfc524b1823","ios":"levelo://app?vid=59c1d8f8-d8ab-4b62-988f-4bfc524b1823"},"vehicle_type_id":"4","last_reported":1706072826,"current_range_meters":26000,"station_id":"ce4bhb12rcd13ifvqem0","pricing_plan_id":"free"},{"bike_id":"2d23798b-72a4-4d14-8312-0b3cada91ff9","system_id":"levelo_inurba_marseille","lat":43.28856,"lon":5.358371,"is_reserved":false,"is_disabled":false,"rental_uris":{"android":"levelo://app?vid=2d23798b-72a4-4d14-8312-0b3cada91ff9","ios":"levelo://app?vid=2d23798b-72a4-4d14-8312-0b3cada91ff9"},"vehicle_type_id":"4","last_reported":1706072826,"current_range_meters":14800,"station_id":"ce4bhb12rcd13ifvqem0","pricing_plan_id":"free"},{"bike_id":"6f235fc1-706a-49b8-b9dd-1859f7eb91b4","system_id":"levelo_inurba_marseille","lat":43.28856,"lon":5.358371,"is_reserved":false,"is_disabled":false,"rental_uris":{"android":"levelo://app?vid=6f235fc1-706a-49b8-b9dd-1859f7eb91b4","ios":"levelo://app?vid=6f235fc1-706a-49b8-b9dd-1859f7eb91b4"},"vehicle_type_id":"4","last_reported":1706072826,"current_range_meters":31200,"station_id":"ce4bhb12rcd13ifvqem0","pricing_plan_id":"free"},{"bike_id":"af038385-ef17-4511-b1ed-eae25e80acec","system_id":"levelo_inurba_marseille","lat":43.302836,"lon":5.398769,"is_reserved":false,"is_disabled":false,"rental_uris":{"android":"levelo://app?vid=af038385-ef17-4511-b1ed-eae25e80acec","ios":"levelo://app?vid=af038385-ef17-4511-b1ed-eae25e80acec"},"vehicle_type_id":"4","last_reported":1706072826,"current_range_meters":22000,"station_id":"","pricing_plan_id":"free"},{"bike_id":"d934ed02-75c7-441a-adce-ee27f902e750","system_id":"levelo_inurba_marseille","lat":43.312742,"lon":5.401658,"is_reserved":false,"is_disabled":false,"rental_uris":{"android":"levelo://app?vid=d934ed02-75c7-441a-adce-ee27f902e750","ios":"levelo://app?vid=d934ed02-75c7-441a-adce-ee27f902e750"},"vehicle_type_id":"4","last_reported":1706072826,"current_range_meters":26400,"station_id":"ce4bh092rcd13ifvqd30","pricing_plan_id":"free"},{"bike_id":"63a86fe5-c548-4541-aa6d-1d021cfa5132","system_id":"levelo_inurba_marseille","lat":43.309396,"lon":5.401404,"is_reserved":false,"is_disabled":false,"rental_uris":{"android":"levelo://app?vid=63a86fe5-c548-4541-aa6d-1d021cfa5132","ios":"levelo://app?vid=63a86fe5-c548-4541-aa6d-1d021cfa5132"},"vehicle_type_id":"4","last_reported":1706072826,"current_range_meters":14400,"station_id":"ce4bgvp2rcd13ifvqct0","pricing_plan_id":"free"},{"bike_id":"2f680a74-a4fc-4b9c-b199-6d03b5b2012d","system_id":"levelo_inurba_marseille","lat":43.312609,"lon":5.401662,"is_reserved":false,"is_disabled":false,"rental_uris":{"android":"levelo://app?vid=2f680a74-a4fc-4b9c-b199-6d03b5b2012d","ios":"levelo://app?vid=2f680a74-a4fc-4b9c-b199-6d03b5b2012d"},"vehicle_type_id":"4","last_reported":1706072826,"current_range_meters":30400,"station_id":"ce4bh092rcd13ifvqd30","pricing_plan_id":"free"},{"bike_id":"b6334949-be2a-49a5-9b5a-67ae9a2ca61a","system_id":"levelo_inurba_marseille","lat":43.31268,"lon":5.40172,"is_reserved":false,"is_disabled":false,"rental_uris":{"android":"levelo://app?vid=b6334949-be2a-49a5-9b5a-67ae9a2ca61a","ios":"levelo://app?vid=b6334949-be2a-49a5-9b5a-67ae9a2ca61a"},"vehicle_type_id":"4","last_reported":1706072826,"current_range_meters":28400,"station_id":"ce4bh092rcd13ifvqd30","pricing_plan_id":"free"},{"bike_id":"2cdd2ce3-16cf-4153-b365-d7ed02785ce2","system_id":"levelo_inurba_marseille","lat":43.30931,"lon":5.40142,"is_reserved":false,"is_disabled":false,"rental_uris":{"android":"levelo://app?vid=2cdd2ce3-16cf-4153-b365-d7ed02785ce2","ios":"levelo://app?vid=2cdd2ce3-16cf-4153-b365-d7ed02785ce2"},"vehicle_type_id":"4","last_reported":1706072826,"current_range_meters":31200,"station_id":"ce4bgvp2rcd13ifvqct0","pricing_plan_id":"free"},{"bike_id":"83e00827-b68e-4ab2-9f79-393f141b4545","system_id":"levelo_inurba_marseille","lat":43.312609,"lon":5.401662,"is_reserved":false,"is_disabled":false,"rental_uris":{"android":"levelo://app?vid=83e00827-b68e-4ab2-9f79-393f141b4545","ios":"levelo://app?vid=83e00827-b68e-4ab2-9f79-393f141b4545"},"vehicle_type_id":"4","last_reported":1706072826,"current_range_meters":28400,"station_id":"ce4bh092rcd13ifvqd30","pricing_plan_id":"free"},{"bike_id":"dbc06b54-a034-4d4a-ad35-2ef89bd6bffc","system_id":"levelo_inurba_marseille","lat":43.31272,"lon":5.40175,"is_reserved":false,"is_disabled":false,"rental_uris":{"android":"levelo://app?vid=dbc06b54-a034-4d4a-ad35-2ef89bd6bffc","ios":"levelo://app?vid=dbc06b54-a034-4d4a-ad35-2ef89bd6bffc"},"vehicle_type_id":"4","last_reported":1706072826,"current_range_meters":31200,"station_id":"ce4bh092rcd13ifvqd30","pricing_plan_id":"free"},{"bike_id":"f3f56574-0a42-4878-af96-716c32ca81b6","system_id":"levelo_inurba_marseille","lat":43.306463,"lon":5.400664,"is_reserved":false,"is_disabled":false,"rental_uris":{"android":"levelo://app?vid=f3f56574-0a42-4878-af96-716c32ca81b6","ios":"levelo://app?vid=f3f56574-0a42-4878-af96-716c32ca81b6"},"vehicle_type_id":"4","last_reported":1706072826,"current_range_meters":19200,"station_id":"ce4bh112rcd13ifvqda0","pricing_plan_id":"free"},{"bike_id":"79adac48-d322-4fbf-aad5-87b1fad5f3da","system_id":"levelo_inurba_marseille","lat":43.309318,"lon":5.401433,"is_reserved":false,"is_disabled":false,"rental_uris":{"android":"levelo://app?vid=79adac48-d322-4fbf-aad5-87b1fad5f3da","ios":"levelo://app?vid=79adac48-d322-4fbf-aad5-87b1fad5f3da"},"vehicle_type_id":"4","last_reported":1706072826,"current_range_meters":23600,"station_id":"ce4bgvp2rcd13ifvqct0","pricing_plan_id":"free"},{"bike_id":"3e207e3e-8d7d-4594-9d90-f200b790bedc","system_id":"levelo_inurba_marseille","lat":43.30644,"lon":5.4007,"is_reserved":false,"is_disabled":false,"rental_uris":{"android":"levelo://app?vid=3e207e3e-8d7d-4594-9d90-f200b790bedc","ios":"levelo://app?vid=3e207e3e-8d7d-4594-9d90-f200b790bedc"},"vehicle_type_id":"4","last_reported":1706072826,"current_range_meters":4800,"station_id":"ce4bh112rcd13ifvqda0","pricing_plan_id":"free"},{"bike_id":"affeb696-b32b-45f9-8491-250f469835d4","system_id":"levelo_inurba_marseille","lat":43.3093,"lon":5.40149,"is_reserved":false,"is_disabled":false,"rental_uris":{"android":"levelo://app?vid=affeb696-b32b-45f9-8491-250f469835d4","ios":"levelo://app?vid=affeb696-b32b-45f9-8491-250f469835d4"},"vehicle_type_id":"4","last_reported":1706072826,"current_range_meters":13200,"station_id":"ce4bgvp2rcd13ifvqct0","pricing_plan_id":"free"},{"bike_id":"c4bce579-e593-411a-a243-d0cda52af56f","system_id":"levelo_inurba_marseille","lat":43.30931,"lon":5.401498,"is_reserved":false,"is_disabled":false,"rental_uris":{"android":"levelo://app?vid=c4bce579-e593-411a-a243-d0cda52af56f","ios":"levelo://app?vid=c4bce579-e593-411a-a243-d0cda52af56f"},"vehicle_type_id":"4","last_reported":1706072826,"current_range_meters":30000,"station_id":"ce4bgvp2rcd13ifvqct0","pricing_plan_id":"free"},{"bike_id":"b4897c8c-c6f7-4a1a-b17b-462a0f9447d0","system_id":"levelo_inurba_marseille","lat":43.306412,"lon":5.401035,"is_reserved":false,"is_disabled":false,"rental_uris":{"android":"levelo://app?vid=b4897c8c-c6f7-4a1a-b17b-462a0f9447d0","ios":"levelo://app?vid=b4897c8c-c6f7-4a1a-b17b-462a0f9447d0"},"vehicle_type_id":"4","last_reported":1706072826,"current_range_meters":22800,"station_id":"ce4bh112rcd13ifvqda0","pricing_plan_id":"free"},{"bike_id":"8c924263-f1ca-44dc-82dc-909c8482efc5","system_id":"levelo_inurba_marseille","lat":43.309242,"lon":5.401498,"is_reserved":false,"is_disabled":false,"rental_uris":{"android":"levelo://app?vid=8c924263-f1ca-44dc-82dc-909c8482efc5","ios":"levelo://app?vid=8c924263-f1ca-44dc-82dc-909c8482efc5"},"vehicle_type_id":"4","last_reported":1706072826,"current_range_meters":19600,"station_id":"ce4bgvp2rcd13ifvqct0","pricing_plan_id":"free"},{"bike_id":"a493c45e-deed-4f05-b9df-b6bb1af98b07","system_id":"levelo_inurba_marseille","lat":43.306421,"lon":5.40074,"is_reserved":false,"is_disabled":false,"rental_uris":{"android":"levelo://app?vid=a493c45e-deed-4f05-b9df-b6bb1af98b07","ios":"levelo://app?vid=a493c45e-deed-4f05-b9df-b6bb1af98b07"},"vehicle_type_id":"4","last_reported":1706072826,"current_range_meters":7600,"station_id":"ce4bh112rcd13ifvqda0","pricing_plan_id":"free"},{"bike_id":"17081a1f-9f97-4e9d-a26c-47c34541bc95","system_id":"levelo_inurba_marseille","lat":43.306365,"lon":5.400721,"is_reserved":false,"is_disabled":false,"rental_uris":{"android":"levelo://app?vid=17081a1f-9f97-4e9d-a26c-47c34541bc95","ios":"levelo://app?vid=17081a1f-9f97-4e9d-a26c-47c34541bc95"},"vehicle_type_id":"4","last_reported":1706072826,"current_range_meters":11200,"station_id":"ce4bh112rcd13ifvqda0","pricing_plan_id":"free"},{"bike_id":"6dfa28fd-3af0-45de-8d54-3e201eb4df17","system_id":"levelo_inurba_marseille","lat":43.306412,"lon":5.401035,"is_reserved":false,"is_disabled":false,"rental_uris":{"android":"levelo://app?vid=6dfa28fd-3af0-45de-8d54-3e201eb4df17","ios":"levelo://app?vid=6dfa28fd-3af0-45de-8d54-3e201eb4df17"},"vehicle_type_id":"4","last_reported":1706072826,"current_range_meters":4400,"station_id":"ce4bh112rcd13ifvqda0","pricing_plan_id":"free"},{"bike_id":"264b967c-4c3f-42ca-baf7-a14d3d47b950","system_id":"levelo_inurba_marseille","lat":43.306502,"lon":5.400794,"is_reserved":false,"is_disabled":false,"rental_uris":{"android":"levelo://app?vid=264b967c-4c3f-42ca-baf7-a14d3d47b950","ios":"levelo://app?vid=264b967c-4c3f-42ca-baf7-a14d3d47b950"},"vehicle_type_id":"4","last_reported":1706072826,"current_range_meters":0,"station_id":"ce4bh112rcd13ifvqda0","pricing_plan_id":"free"},{"bike_id":"4bc52d53-df8d-48e3-9c65-996da3ff1e57","system_id":"levelo_inurba_marseille","lat":43.306412,"lon":5.401035,"is_reserved":false,"is_disabled":false,"rental_uris":{"android":"levelo://app?vid=4bc52d53-df8d-48e3-9c65-996da3ff1e57","ios":"levelo://app?vid=4bc52d53-df8d-48e3-9c65-996da3ff1e57"},"vehicle_type_id":"4","last_reported":1706072826,"current_range_meters":20800,"station_id":"ce4bh112rcd13ifvqda0","pricing_plan_id":"free"},{"bike_id":"9e97375e-ad31-4261-8ad7-7b7fe5bf638f","system_id":"levelo_inurba_marseille","lat":43.306391,"lon":5.40076,"is_reserved":false,"is_disabled":false,"rental_uris":{"android":"levelo://app?vid=9e97375e-ad31-4261-8ad7-7b7fe5bf638f","ios":"levelo://app?vid=9e97375e-ad31-4261-8ad7-7b7fe5bf638f"},"vehicle_type_id":"4","last_reported":1706072826,"current_range_meters":8000,"station_id":"ce4bh112rcd13ifvqda0","pricing_plan_id":"free"},{"bike_id":"9c52be3d-5413-4f2b-80e6-ea31876366ae","system_id":"levelo_inurba_marseille","lat":43.306454,"lon":5.400799,"is_reserved":false,"is_disabled":false,"rental_uris":{"android":"levelo://app?vid=9c52be3d-5413-4f2b-80e6-ea31876366ae","ios":"levelo://app?vid=9c52be3d-5413-4f2b-80e6-ea31876366ae"},"vehicle_type_id":"4","last_reported":1706072826,"current_range_meters":5600,"station_id":"ce4bh112rcd13ifvqda0","pricing_plan_id":"free"},{"bike_id":"d13ed38d-1338-4715-b3a8-e7cc2cbae523","system_id":"levelo_inurba_marseille","lat":43.337565,"lon":5.374553,"is_reserved":false,"is_disabled":false,"rental_uris":{"android":"levelo://app?vid=d13ed38d-1338-4715-b3a8-e7cc2cbae523","ios":"levelo://app?vid=d13ed38d-1338-4715-b3a8-e7cc2cbae523"},"vehicle_type_id":"4","last_reported":1706072826,"current_range_meters":25600,"station_id":"","pricing_plan_id":"free"},{"bike_id":"38de1233-b558-4947-b37a-a431561fa52c","system_id":"levelo_inurba_marseille","lat":43.306412,"lon":5.401035,"is_reserved":false,"is_disabled":false,"rental_uris":{"android":"levelo://app?vid=38de1233-b558-4947-b37a-a431561fa52c","ios":"levelo://app?vid=38de1233-b558-4947-b37a-a431561fa52c"},"vehicle_type_id":"4","last_reported":1706072826,"current_range_meters":3600,"station_id":"ce4bh112rcd13ifvqda0","pricing_plan_id":"free"},{"bike_id":"9e3eb807-cb13-443b-ae09-22ddbd6033f2","system_id":"levelo_inurba_marseille","lat":43.306412,"lon":5.401035,"is_reserved":false,"is_disabled":false,"rental_uris":{"android":"levelo://app?vid=9e3eb807-cb13-443b-ae09-22ddbd6033f2","ios":"levelo://app?vid=9e3eb807-cb13-443b-ae09-22ddbd6033f2"},"vehicle_type_id":"4","last_reported":1706072826,"current_range_meters":28400,"station_id":"ce4bh112rcd13ifvqda0","pricing_plan_id":"free"},{"bike_id":"85ac0c71-3055-41a0-ba10-3c9c786ed2ba","system_id":"levelo_inurba_marseille","lat":43.33768,"lon":5.37421,"is_reserved":false,"is_disabled":false,"rental_uris":{"android":"levelo://app?vid=85ac0c71-3055-41a0-ba10-3c9c786ed2ba","ios":"levelo://app?vid=85ac0c71-3055-41a0-ba10-3c9c786ed2ba"},"vehicle_type_id":"4","last_reported":1706072826,"current_range_meters":20000,"station_id":"","pricing_plan_id":"free"},{"bike_id":"8b894521-1a30-4078-ab48-f86b65b9874e","system_id":"levelo_inurba_marseille","lat":43.33765,"lon":5.3748,"is_reserved":false,"is_disabled":false,"rental_uris":{"android":"levelo://app?vid=8b894521-1a30-4078-ab48-f86b65b9874e","ios":"levelo://app?vid=8b894521-1a30-4078-ab48-f86b65b9874e"},"vehicle_type_id":"4","last_reported":1706072826,"current_range_meters":24400,"station_id":"","pricing_plan_id":"free"},{"bike_id":"19f51fbb-06a9-4724-97c1-b02c1b65ffde","system_id":"levelo_inurba_marseille","lat":43.337681,"lon":5.37488,"is_reserved":false,"is_disabled":false,"rental_uris":{"android":"levelo://app?vid=19f51fbb-06a9-4724-97c1-b02c1b65ffde","ios":"levelo://app?vid=19f51fbb-06a9-4724-97c1-b02c1b65ffde"},"vehicle_type_id":"4","last_reported":1706072826,"current_range_meters":20000,"station_id":"","pricing_plan_id":"free"},{"bike_id":"7e1e4949-6623-4e1c-b1a8-683d92992097","system_id":"levelo_inurba_marseille","lat":43.301117,"lon":5.398795,"is_reserved":false,"is_disabled":false,"rental_uris":{"android":"levelo://app?vid=7e1e4949-6623-4e1c-b1a8-683d92992097","ios":"levelo://app?vid=7e1e4949-6623-4e1c-b1a8-683d92992097"},"vehicle_type_id":"4","last_reported":1706072826,"current_range_meters":12400,"station_id":"ce4bh0h2rcd13ifvqd40","pricing_plan_id":"free"},{"bike_id":"9ccd64a4-071b-45a2-b409-77b7cd74ba22","system_id":"levelo_inurba_marseille","lat":43.30145,"lon":5.39864,"is_reserved":false,"is_disabled":false,"rental_uris":{"android":"levelo://app?vid=9ccd64a4-071b-45a2-b409-77b7cd74ba22","ios":"levelo://app?vid=9ccd64a4-071b-45a2-b409-77b7cd74ba22"},"vehicle_type_id":"4","last_reported":1706072826,"current_range_meters":31200,"station_id":"ce4bh0h2rcd13ifvqd40","pricing_plan_id":"free"},{"bike_id":"411a182f-2239-4725-8f1b-e2a6d5f271c2","system_id":"levelo_inurba_marseille","lat":43.301457,"lon":5.398668,"is_reserved":false,"is_disabled":false,"rental_uris":{"android":"levelo://app?vid=411a182f-2239-4725-8f1b-e2a6d5f271c2","ios":"levelo://app?vid=411a182f-2239-4725-8f1b-e2a6d5f271c2"},"vehicle_type_id":"4","last_reported":1706072826,"current_range_meters":30400,"station_id":"ce4bh0h2rcd13ifvqd40","pricing_plan_id":"free"},{"bike_id":"61d71c42-d60c-466b-92e3-a13dfb3d679f","system_id":"levelo_inurba_marseille","lat":43.301117,"lon":5.398795,"is_reserved":false,"is_disabled":false,"rental_uris":{"android":"levelo://app?vid=61d71c42-d60c-466b-92e3-a13dfb3d679f","ios":"levelo://app?vid=61d71c42-d60c-466b-92e3-a13dfb3d679f"},"vehicle_type_id":"4","last_reported":1706072826,"current_range_meters":30800,"station_id":"ce4bh0h2rcd13ifvqd40","pricing_plan_id":"free"},{"bike_id":"f596fba4-5346-4be6-9be1-d7524243594e","system_id":"levelo_inurba_marseille","lat":43.30138,"lon":5.39872,"is_reserved":false,"is_disabled":false,"rental_uris":{"android":"levelo://app?vid=f596fba4-5346-4be6-9be1-d7524243594e","ios":"levelo://app?vid=f596fba4-5346-4be6-9be1-d7524243594e"},"vehicle_type_id":"4","last_reported":1706072826,"current_range_meters":15200,"station_id":"ce4bh0h2rcd13ifvqd40","pricing_plan_id":"free"},{"bike_id":"58d8d4da-7932-4f7b-955e-4156c5c768dd","system_id":"levelo_inurba_marseille","lat":43.28727,"lon":5.36078,"is_reserved":false,"is_disabled":false,"rental_uris":{"android":"levelo://app?vid=58d8d4da-7932-4f7b-955e-4156c5c768dd","ios":"levelo://app?vid=58d8d4da-7932-4f7b-955e-4156c5c768dd"},"vehicle_type_id":"4","last_reported":1706072826,"current_range_meters":6400,"station_id":"cki0cbj6b192h4jlfktg","pricing_plan_id":"free"},{"bike_id":"4520e028-f36b-4d37-9155-270764a3eba5","system_id":"levelo_inurba_marseille","lat":43.28727,"lon":5.36078,"is_reserved":false,"is_disabled":false,"rental_uris":{"android":"levelo://app?vid=4520e028-f36b-4d37-9155-270764a3eba5","ios":"levelo://app?vid=4520e028-f36b-4d37-9155-270764a3eba5"},"vehicle_type_id":"4","last_reported":1706072826,"current_range_meters":31200,"station_id":"cki0cbj6b192h4jlfktg","pricing_plan_id":"free"},{"bike_id":"2ec9fdc9-5dc6-4af7-b21a-2efb99afcbe4","system_id":"levelo_inurba_marseille","lat":43.28727,"lon":5.36078,"is_reserved":false,"is_disabled":false,"rental_uris":{"android":"levelo://app?vid=2ec9fdc9-5dc6-4af7-b21a-2efb99afcbe4","ios":"levelo://app?vid=2ec9fdc9-5dc6-4af7-b21a-2efb99afcbe4"},"vehicle_type_id":"4","last_reported":1706072826,"current_range_meters":21200,"station_id":"cki0cbj6b192h4jlfktg","pricing_plan_id":"free"},{"bike_id":"0c8ea0d4-8699-45e8-9f5b-6d299875192f","system_id":"levelo_inurba_marseille","lat":43.28727,"lon":5.36078,"is_reserved":false,"is_disabled":false,"rental_uris":{"android":"levelo://app?vid=0c8ea0d4-8699-45e8-9f5b-6d299875192f","ios":"levelo://app?vid=0c8ea0d4-8699-45e8-9f5b-6d299875192f"},"vehicle_type_id":"4","last_reported":1706072826,"current_range_meters":32000,"station_id":"cki0cbj6b192h4jlfktg","pricing_plan_id":"free"},{"bike_id":"bce0a69d-ce07-4db1-9748-6ba57f86698a","system_id":"levelo_inurba_marseille","lat":43.287268,"lon":5.360817,"is_reserved":false,"is_disabled":false,"rental_uris":{"android":"levelo://app?vid=bce0a69d-ce07-4db1-9748-6ba57f86698a","ios":"levelo://app?vid=bce0a69d-ce07-4db1-9748-6ba57f86698a"},"vehicle_type_id":"4","last_reported":1706072826,"current_range_meters":15600,"station_id":"cki0cbj6b192h4jlfktg","pricing_plan_id":"free"},{"bike_id":"98278856-d083-43fc-a3dc-b34347b41bda","system_id":"levelo_inurba_marseille","lat":43.28727,"lon":5.36078,"is_reserved":false,"is_disabled":false,"rental_uris":{"android":"levelo://app?vid=98278856-d083-43fc-a3dc-b34347b41bda","ios":"levelo://app?vid=98278856-d083-43fc-a3dc-b34347b41bda"},"vehicle_type_id":"4","last_reported":1706072826,"current_range_meters":5600,"station_id":"cki0cbj6b192h4jlfktg","pricing_plan_id":"free"},{"bike_id":"d093fd52-8335-4932-ab34-38748d421a9f","system_id":"levelo_inurba_marseille","lat":43.287256,"lon":5.360814,"is_reserved":false,"is_disabled":false,"rental_uris":{"android":"levelo://app?vid=d093fd52-8335-4932-ab34-38748d421a9f","ios":"levelo://app?vid=d093fd52-8335-4932-ab34-38748d421a9f"},"vehicle_type_id":"4","last_reported":1706072826,"current_range_meters":20400,"station_id":"cki0cbj6b192h4jlfktg","pricing_plan_id":"free"},{"bike_id":"38344fa7-f60d-4904-88e1-73eaf3e53887","system_id":"levelo_inurba_marseille","lat":43.28727,"lon":5.36078,"is_reserved":false,"is_disabled":false,"rental_uris":{"android":"levelo://app?vid=38344fa7-f60d-4904-88e1-73eaf3e53887","ios":"levelo://app?vid=38344fa7-f60d-4904-88e1-73eaf3e53887"},"vehicle_type_id":"4","last_reported":1706072826,"current_range_meters":6800,"station_id":"cki0cbj6b192h4jlfktg","pricing_plan_id":"free"},{"bike_id":"399b7936-578d-4c3e-b995-2b0e8c6c7d9d","system_id":"levelo_inurba_marseille","lat":43.28727,"lon":5.36078,"is_reserved":false,"is_disabled":false,"rental_uris":{"android":"levelo://app?vid=399b7936-578d-4c3e-b995-2b0e8c6c7d9d","ios":"levelo://app?vid=399b7936-578d-4c3e-b995-2b0e8c6c7d9d"},"vehicle_type_id":"4","last_reported":1706072826,"current_range_meters":8400,"station_id":"cki0cbj6b192h4jlfktg","pricing_plan_id":"free"},{"bike_id":"c0826c06-002c-4390-9f82-cf174a3bed05","system_id":"levelo_inurba_marseille","lat":43.28727,"lon":5.36078,"is_reserved":false,"is_disabled":false,"rental_uris":{"android":"levelo://app?vid=c0826c06-002c-4390-9f82-cf174a3bed05","ios":"levelo://app?vid=c0826c06-002c-4390-9f82-cf174a3bed05"},"vehicle_type_id":"4","last_reported":1706072826,"current_range_meters":28400,"station_id":"cki0cbj6b192h4jlfktg","pricing_plan_id":"free"},{"bike_id":"a48676fd-948b-43b4-b177-04f1f92c89d0","system_id":"levelo_inurba_marseille","lat":43.28727,"lon":5.36078,"is_reserved":false,"is_disabled":false,"rental_uris":{"android":"levelo://app?vid=a48676fd-948b-43b4-b177-04f1f92c89d0","ios":"levelo://app?vid=a48676fd-948b-43b4-b177-04f1f92c89d0"},"vehicle_type_id":"4","last_reported":1706072826,"current_range_meters":26400,"station_id":"cki0cbj6b192h4jlfktg","pricing_plan_id":"free"},{"bike_id":"badd1cb2-1cf5-4513-b016-6b69513340c1","system_id":"levelo_inurba_marseille","lat":43.298681,"lon":5.397225,"is_reserved":false,"is_disabled":false,"rental_uris":{"android":"levelo://app?vid=badd1cb2-1cf5-4513-b016-6b69513340c1","ios":"levelo://app?vid=badd1cb2-1cf5-4513-b016-6b69513340c1"},"vehicle_type_id":"4","last_reported":1706072826,"current_range_meters":31200,"station_id":"ce4bh0h2rcd13ifvqd50","pricing_plan_id":"free"},{"bike_id":"51573c6e-d598-4584-be99-6187578a54ed","system_id":"levelo_inurba_marseille","lat":43.286591,"lon":5.363346,"is_reserved":false,"is_disabled":false,"rental_uris":{"android":"levelo://app?vid=51573c6e-d598-4584-be99-6187578a54ed","ios":"levelo://app?vid=51573c6e-d598-4584-be99-6187578a54ed"},"vehicle_type_id":"4","last_reported":1706072826,"current_range_meters":7600,"station_id":"ce4bhah2rcd13ifvqej0","pricing_plan_id":"free"},{"bike_id":"da8872cf-7463-43d3-bbc6-fe7c861651ca","system_id":"levelo_inurba_marseille","lat":43.298681,"lon":5.397225,"is_reserved":false,"is_disabled":false,"rental_uris":{"android":"levelo://app?vid=da8872cf-7463-43d3-bbc6-fe7c861651ca","ios":"levelo://app?vid=da8872cf-7463-43d3-bbc6-fe7c861651ca"},"vehicle_type_id":"4","last_reported":1706072826,"current_range_meters":30400,"station_id":"ce4bh0h2rcd13ifvqd50","pricing_plan_id":"free"},{"bike_id":"19ffc743-5767-458d-a1ec-a7c46f57abc1","system_id":"levelo_inurba_marseille","lat":43.286591,"lon":5.363346,"is_reserved":false,"is_disabled":false,"rental_uris":{"android":"levelo://app?vid=19ffc743-5767-458d-a1ec-a7c46f57abc1","ios":"levelo://app?vid=19ffc743-5767-458d-a1ec-a7c46f57abc1"},"vehicle_type_id":"4","last_reported":1706072826,"current_range_meters":14800,"station_id":"ce4bhah2rcd13ifvqej0","pricing_plan_id":"free"},{"bike_id":"9e0556e2-969a-442b-bf64-2431d657c4bb","system_id":"levelo_inurba_marseille","lat":43.298681,"lon":5.397225,"is_reserved":false,"is_disabled":false,"rental_uris":{"android":"levelo://app?vid=9e0556e2-969a-442b-bf64-2431d657c4bb","ios":"levelo://app?vid=9e0556e2-969a-442b-bf64-2431d657c4bb"},"vehicle_type_id":"4","last_reported":1706072826,"current_range_meters":30800,"station_id":"ce4bh0h2rcd13ifvqd50","pricing_plan_id":"free"},