{"last_updated":1731265660,"ttl":60,"version":"2.2","data":{"bikes":[{"bike_id":"df427601-5082-4776-baf1-bf25773b540b","system_id":"levelo_inurba_marseille","lat":43.27814,"lon":5.40714,"is_reserved":false,"is_disabled":false,"rental_uris":{"android":"levelo://app?vid=df427601-5082-4776-baf1-bf25773b540b","ios":"levelo://app?vid=df427601-5082-4776-baf1-bf25773b540b"},"vehicle_type_id":"4","last_reported":1731265660,"current_range_meters":37600,"station_id":"ce4bhnh2rcd13ifvqgtg","pricing_plan_id":"cebpf4jnsgd1na2vs0mg"},{"bike_id":"55f338da-564d-4339-bcb5-5d0a4b68c4e6","system_id":"levelo_inurba_marseille","lat":43.31782,"lon":5.38432,"is_reserved":false,"is_disabled":false,"rental_uris":{"android":"levelo://app?vid=55f338da-564d-4339-bcb5-5d0a4b68c4e6","ios":"levelo://app?vid=55f338da-564d-4339-bcb5-5d0a4b68c4e6"},"vehicle_type_id":"4","last_reported":1731265660,"current_range_meters":6800,"station_id":"","pricing_plan_id":"cebpf4jnsgd1na2vs0mg"},{"bike_id":"8dc7790d-cfd7-41c4-b0ac-f984da9a920f","system_id":"levelo_inurba_marseille","lat":43.29421,"lon":5.38627,"is_reserved":false,"is_disabled":false,"rental_uris":{"android":"levelo://app?vid=8dc7790d-cfd7-41c4-b0ac-f984da9a920f","ios":"levelo://app?vid=8dc7790d-cfd7-41c4-b0ac-f984da9a920f"},"vehicle_type_id":"4","last_reported":1731265660,"current_range_meters":6400,"station_id":"ce4bh2h2rcd13ifvqdh0","pricing_plan_id":"cebpf4jnsgd1na2vs0mg"},{"bike_id":"fdb5438c-948e-4cb2-9e7a-054139d36e3c","system_id":"levelo_inurba_marseille","lat":43.29032,"lon":5.38636,"is_reserved":false,"is_disabled":false,"rental_uris":{"android":"levelo://app?vid=fdb5438c-948e-4cb2-9e7a-054139d36e3c","ios":"levelo://app?vid=fdb5438c-948e-4cb2-9e7a-054139d36e3c"},"vehicle_type_id":"4","last_reported":1731265660,"current_range_meters":20800,"station_id":"ce4bh4p2rcd13ifvqe0g","pricing_plan_id":"cebpf4jnsgd1na2vs0mg"},{"bike_id":"f903ea29-30fe-46ae-8eeb-7a1975d030a7","system_id":"levelo_inurba_marseille","lat":43.31615,"lon":5.37683,"is_reserved":false,"is_disabled":false,"rental_uris":{"android":"levelo://app?vid=f903ea29-30fe-46ae-8eeb-7a1975d030a7","ios":"levelo://app?vid=f903ea29-30fe-46ae-8eeb-7a1975d030a7"},"vehicle_type_id":"4","last_reported":1731265660,"current_range_meters":23200,"station_id":"ce4bgth2rcd13ifvqch0","pricing_plan_id":"cebpf4jnsgd1na2vs0mg"},{"bike_id":"6fe6b32f-11af-4595-87a6-3b78335d8002","system_id":"levelo_inurba_marseille","lat":43.29313,"lon":5.37437,"is_reserved":false,"is_disabled":false,"rental_uris":{"android":"levelo://app?vid=6fe6b32f-11af-4595-87a6-3b78335d8002","ios":"levelo://app?vid=6fe6b32f-11af-4595-87a6-3b78335d8002"},"vehicle_type_id":"4","last_reported":1731265660,"current_range_meters":34000,"station_id":"ce4bgi12rcd13ifvqb70","pricing_plan_id":"cebpf4jnsgd1na2vs0mg"},{"bike_id":"5daf7e81-adca-4c69-ac49-7439dac41928","system_id":"levelo_inurba_marseille","lat":43.29564,"lon":5.42282,"is_reserved":false,"is_disabled":false,"rental_uris":{"android":"levelo://app?vid=5daf7e81-adca-4c69-ac49-7439dac41928","ios":"levelo://app?vid=5daf7e81-adca-4c69-ac49-7439dac41928"},"vehicle_type_id":"4","last_reported":1731265660,"current_range_meters":38800,"station_id":"ce4bhph2rcd13ifvqhdg","pricing_plan_id":"cebpf4jnsgd1na2vs0mg"},{"bike_id":"83df5554-02f7-42a9-8c5e-d00b9ca8b73e","system_id":"levelo_inurba_marseille","lat":43.29534,"lon":5.3854,"is_reserved":false,"is_disabled":false,"rental_uris":{"android":"levelo://app?vid=83df5554-02f7-42a9-8c5e-d00b9ca8b73e","ios":"levelo://app?vid=83df5554-02f7-42a9-8c5e-d00b9ca8b73e"},"vehicle_type_id":"4","last_reported":1731265660,"current_range_meters":36400,"station_id":"ce4bgih2rcd13ifvqba0","pricing_plan_id":"cebpf4jnsgd1na2vs0mg"},{"bike_id":"145c9848-b97b-4881-b867-7e71214884be","system_id":"levelo_inurba_marseille","lat":43.28046,"lon":5.36951,"is_reserved":false,"is_disabled":false,"rental_uris":{"android":"levelo://app?vid=145c9848-b97b-4881-b867-7e71214884be","ios":"levelo://app?vid=145c9848-b97b-4881-b867-7e71214884be"},"vehicle_type_id":"4","last_reported":1731265660,"current_range_meters":3200,"station_id":"ce4bha12rcd13ifvqef0","pricing_plan_id":"cebpf4jnsgd1na2vs0mg"},{"bike_id":"519d6c58-bdda-4814-9a9a-922714684e29","system_id":"levelo_inurba_marseille","lat":43.29964,"lon":5.385,"is_reserved":false,"is_disabled":false,"rental_uris":{"android":"levelo://app?vid=519d6c58-bdda-4814-9a9a-922714684e29","ios":"levelo://app?vid=519d6c58-bdda-4814-9a9a-922714684e29"},"vehicle_type_id":"4","last_reported":1731265660,"current_range_meters":4800,"station_id":"ce4bgj92rcd13ifvqbd0","pricing_plan_id":"cebpf4jnsgd1na2vs0mg"},{"bike_id":"2a3df18c-1462-4e14-abe8-e91f85f6f94b","system_id":"levelo_inurba_marseille","lat":43.25865,"lon":5.39895,"is_reserved":false,"is_disabled":false,"rental_uris":{"android":"levelo://app?vid=2a3df18c-1462-4e14-abe8-e91f85f6f94b","ios":"levelo://app?vid=2a3df18c-1462-4e14-abe8-e91f85f6f94b"},"vehicle_type_id":"4","last_reported":1731265660,"current_range_meters":9600,"station_id":"ce4bhl92rcd13ifvqghg","pricing_plan_id":"cebpf4jnsgd1na2vs0mg"},{"bike_id":"8a7a5723-2bd1-4f82-a027-46324f66556d","system_id":"levelo_inurba_marseille","lat":43.28922,"lon":5.38377,"is_reserved":false,"is_disabled":false,"rental_uris":{"android":"levelo://app?vid=8a7a5723-2bd1-4f82-a027-46324f66556d","ios":"levelo://app?vid=8a7a5723-2bd1-4f82-a027-46324f66556d"},"vehicle_type_id":"4","last_reported":1731265660,"current_range_meters":26800,"station_id":"ce4bh612rcd13ifvqe6g","pricing_plan_id":"cebpf4jnsgd1na2vs0mg"},{"bike_id":"f89d3613-8002-46d6-8a93-1bc029531b76","system_id":"levelo_inurba_marseille","lat":43.24807,"lon":5.37457,"is_reserved":false,"is_disabled":false,"rental_uris":{"android":"levelo://app?vid=f89d3613-8002-46d6-8a93-1bc029531b76","ios":"levelo://app?vid=f89d3613-8002-46d6-8a93-1bc029531b76"},"vehicle_type_id":"4","last_reported":1731265660,"current_range_meters":38800,"station_id":"ce4bhgh2rcd13ifvqfb0","pricing_plan_id":"cebpf4jnsgd1na2vs0mg"},{"bike_id":"0b89192f-97a0-4783-a2ea-55accc10ecd8","system_id":"levelo_inurba_marseille","lat":43.26066,"lon":5.39396,"is_reserved":false,"is_disabled":false,"rental_uris":{"android":"levelo://app?vid=0b89192f-97a0-4783-a2ea-55accc10ecd8","ios":"levelo://app?vid=0b89192f-97a0-4783-a2ea-55accc10ecd8"},"vehicle_type_id":"4","last_reported":1731265660,"current_range_meters":25600,"station_id":"ce4bhh92rcd13ifvqfj0","pricing_plan_id":"cebpf4jnsgd1na2vs0mg"},{"bike_id":"067bfac6-643c-45a7-acaf-0ab04bd1e51e","system_id":"levelo_inurba_marseille","lat":43.315324,"lon":5.380373,"is_reserved":false,"is_disabled":false,"rental_uris":{"android":"levelo://app?vid=067bfac6-643c-45a7-acaf-0ab04bd1e51e","ios":"levelo://app?vid=067bfac6-643c-45a7-acaf-0ab04bd1e51e"},"vehicle_type_id":"4","last_reported":1731265660,"current_range_meters":17200,"station_id":"ce4bgt92rcd13ifvqcg0","pricing_plan_id":"cebpf4jnsgd1na2vs0mg"},{"bike_id":"294704fb-8f95-4b35-8862-e42d43f15506","system_id":"levelo_inurba_marseille","lat":43.28719,"lon":5.3795,"is_reserved":false,"is_disabled":false,"rental_uris":{"android":"levelo://app?vid=294704fb-8f95-4b35-8862-e42d43f15506","ios":"levelo://app?vid=294704fb-8f95-4b35-8862-e42d43f15506"},"vehicle_type_id":"4","last_reported":1731265660,"current_range_meters":38800,"station_id":"ce4bh9p2rcd13ifvqec0","pricing_plan_id":"cebpf4jnsgd1na2vs0mg"},{"bike_id":"9919db7a-8b4f-4220-becb-f54e10b5b1b8","system_id":"levelo_inurba_marseille","lat":43.23058,"lon":5.35489,"is_reserved":false,"is_disabled":false,"rental_uris":{"android":"levelo://app?vid=9919db7a-8b4f-4220-becb-f54e10b5b1b8","ios":"levelo://app?vid=9919db7a-8b4f-4220-becb-f54e10b5b1b8"},"vehicle_type_id":"4","last_reported":1731265660,"current_range_meters":38800,"station_id":"cpo3342slgdg3j2ifvpg","pricing_plan_id":"cebpf4jnsgd1na2vs0mg"},{"bike_id":"c7cb2f21-73cd-4e84-90c1-167ec62f1347","system_id":"levelo_inurba_marseille","lat":43.29066,"lon":5.37154,"is_reserved":false,"is_disabled":false,"rental_uris":{"android":"levelo://app?vid=c7cb2f21-73cd-4e84-90c1-167ec62f1347","ios":"levelo://app?vid=c7cb2f21-73cd-4e84-90c1-167ec62f1347"},"vehicle_type_id":"4","last_reported":1731265660,"current_range_meters":4000,"station_id":"ce4bh5p2rcd13ifvqe4g","pricing_plan_id":"cebpf4jnsgd1na2vs0mg"},{"bike_id":"ebdd5514-8912-4bbf-bad0-44a84240c4d1","system_id":"levelo_inurba_marseille","lat":43.29534,"lon":5.38541,"is_reserved":false,"is_disabled":false,"rental_uris":{"android":"levelo://app?vid=ebdd5514-8912-4bbf-bad0-44a84240c4d1","ios":"levelo://app?vid=ebdd5514-8912-4bbf-bad0-44a84240c4d1"},"vehicle_type_id":"4","last_reported":1731265660,"current_range_meters":38800,"station_id":"ce4bgih2rcd13ifvqba0","pricing_plan_id":"cebpf4jnsgd1na2vs0mg"},{"bike_id":"3b87dcfb-1a59-4717-86a1-4f8b3263c521","system_id":"levelo_inurba_marseille","lat":43.30596,"lon":5.39353,"is_reserved":false,"is_disabled":false,"rental_uris":{"android":"levelo://app?vid=3b87dcfb-1a59-4717-86a1-4f8b3263c521","ios":"levelo://app?vid=3b87dcfb-1a59-4717-86a1-4f8b3263c521"},"vehicle_type_id":"4","last_reported":1731265660,"current_range_meters":15200,"station_id":"ce4bh0p2rcd13ifvqd80","pricing_plan_id":"cebpf4jnsgd1na2vs0mg"},{"bike_id":"0f7096b7-7e79-4d84-941d-273cc5588563","system_id":"levelo_inurba_marseille","lat":43.29416,"lon":5.38624,"is_reserved":false,"is_disabled":false,"rental_uris":{"android":"levelo://app?vid=0f7096b7-7e79-4d84-941d-273cc5588563","ios":"levelo://app?vid=0f7096b7-7e79-4d84-941d-273cc5588563"},"vehicle_type_id":"4","last_reported":1731265660,"current_range_meters":39200,"station_id":"ce4bh2h2rcd13ifvqdh0","pricing_plan_id":"cebpf4jnsgd1na2vs0mg"},{"bike_id":"d00a89cf-7850-41a3-a4e8-b8a440e30704","system_id":"levelo_inurba_marseille","lat":43.29685,"lon":5.37289,"is_reserved":false,"is_disabled":false,"rental_uris":{"android":"levelo://app?vid=d00a89cf-7850-41a3-a4e8-b8a440e30704","ios":"levelo://app?vid=d00a89cf-7850-41a3-a4e8-b8a440e30704"},"vehicle_type_id":"4","last_reported":1731265660,"current_range_meters":17600,"station_id":"ce4bgk12rcd13ifvqbj0","pricing_plan_id":"cebpf4jnsgd1na2vs0mg"},{"bike_id":"9abaa3b4-a806-4e10-b9d7-f10505e22c9e","system_id":"levelo_inurba_marseille","lat":43.29577,"lon":5.39968,"is_reserved":false,"is_disabled":false,"rental_uris":{"android":"levelo://app?vid=9abaa3b4-a806-4e10-b9d7-f10505e22c9e","ios":"levelo://app?vid=9abaa3b4-a806-4e10-b9d7-f10505e22c9e"},"vehicle_type_id":"4","last_reported":1731265660,"current_range_meters":12400,"station_id":"ce4bh312rcd13ifvqdj0","pricing_plan_id":"cebpf4jnsgd1na2vs0mg"},{"bike_id":"721ffa07-5205-4352-bf52-79247567bace","system_id":"levelo_inurba_marseille","lat":43.24819,"lon":5.37461,"is_reserved":false,"is_disabled":false,"rental_uris":{"android":"levelo://app?vid=721ffa07-5205-4352-bf52-79247567bace","ios":"levelo://app?vid=721ffa07-5205-4352-bf52-79247567bace"},"vehicle_type_id":"4","last_reported":1731265660,"current_range_meters":38800,"station_id":"ce4bhgh2rcd13ifvqfb0","pricing_plan_id":"cebpf4jnsgd1na2vs0mg"},{"bike_id":"0dc25498-f23d-41f5-9cf4-1c57e9c35485","system_id":"levelo_inurba_marseille","lat":43.30782,"lon":5.36846,"is_reserved":false,"is_disabled":false,"rental_uris":{"android":"levelo://app?vid=0dc25498-f23d-41f5-9cf4-1c57e9c35485","ios":"levelo://app?vid=0dc25498-f23d-41f5-9cf4-1c57e9c35485"},"vehicle_type_id":"4","last_reported":1731265660,"current_range_meters":8000,"station_id":"","pricing_plan_id":"cebpf4jnsgd1na2vs0mg"},{"bike_id":"53842b0b-662f-45de-89f4-2ac07b1eadcf","system_id":"levelo_inurba_marseille","lat":43.28113,"lon":5.37837,"is_reserved":false,"is_disabled":false,"rental_uris":{"android":"levelo://app?vid=53842b0b-662f-45de-89f4-2ac07b1eadcf","ios":"levelo://app?vid=53842b0b-662f-45de-89f4-2ac07b1eadcf"},"vehicle_type_id":"4","last_reported":1731265660,"current_range_meters":24000,"station_id":"ce4bha12rcd13ifvqee0","pricing_plan_id":"cebpf4jnsgd1na2vs0mg"},{"bike_id":"8a92e605-1330-4422-820c-79780ccbb786","system_id":"levelo_inurba_marseille","lat":43.31084,"lon":5.42433,"is_reserved":false,"is_disabled":false,"rental_uris":{"android":"levelo://app?vid=8a92e605-1330-4422-820c-79780ccbb786","ios":"levelo://app?vid=8a92e605-1330-4422-820c-79780ccbb786"},"vehicle_type_id":"4","last_reported":1731265660,"current_range_meters":21600,"station_id":"ce4bhp92rcd13ifvqhag","pricing_plan_id":"cebpf4jnsgd1na2vs0mg"},{"bike_id":"5aea10ec-cf24-4bb7-a7e2-f7dafe28fd4b","system_id":"levelo_inurba_marseille","lat":43.308071,"lon":5.381514,"is_reserved":false,"is_disabled":false,"rental_uris":{"android":"levelo://app?vid=5aea10ec-cf24-4bb7-a7e2-f7dafe28fd4b","ios":"levelo://app?vid=5aea10ec-cf24-4bb7-a7e2-f7dafe28fd4b"},"vehicle_type_id":"4","last_reported":1731265660,"current_range_meters":38800,"station_id":"ce4bgt12rcd13ifvqce0","pricing_plan_id":"cebpf4jnsgd1na2vs0mg"},{"bike_id":"38bc79dc-6877-4f1f-852f-dbe84e5000e8","system_id":"levelo_inurba_marseille","lat":43.290481,"lon":5.359237,"is_reserved":false,"is_disabled":false,"rental_uris":{"android":"levelo://app?vid=38bc79dc-6877-4f1f-852f-dbe84e5000e8","ios":"levelo://app?vid=38bc79dc-6877-4f1f-852f-dbe84e5000e8"},"vehicle_type_id":"4","last_reported":1731265660,"current_range_meters":12000,"station_id":"ce4bha92rcd13ifvqeg0","pricing_plan_id":"cebpf4jnsgd1na2vs0mg"},{"bike_id":"04861d96-79c1-4ad7-8230-9d45f26933ec","system_id":"levelo_inurba_marseille","lat":43.30967,"lon":5.37963,"is_reserved":false,"is_disabled":false,"rental_uris":{"android":"levelo://app?vid=04861d96-79c1-4ad7-8230-9d45f26933ec","ios":"levelo://app?vid=04861d96-79c1-4ad7-8230-9d45f26933ec"},"vehicle_type_id":"4","last_reported":1731265660,"current_range_meters":20000,"station_id":"","pricing_plan_id":"cebpf4jnsgd1na2vs0mg"},{"bike_id":"190f5e3e-f455-4e1a-a22c-00882eed6d99","system_id":"levelo_inurba_marseille","lat":43.27079,"lon":5.42275,"is_reserved":false,"is_disabled":false,"rental_uris":{"android":"levelo://app?vid=190f5e3e-f455-4e1a-a22c-00882eed6d99","ios":"levelo://app?vid=190f5e3e-f455-4e1a-a22c-00882eed6d99"},"vehicle_type_id":"4","last_reported":1731265660,"current_range_meters":17200,"station_id":"ce4bhk92rcd13ifvqgb0","pricing_plan_id":"cebpf4jnsgd1na2vs0mg"},{"bike_id":"c221efe7-efcb-49b8-a1b0-1dd8d171a453","system_id":"levelo_inurba_marseille","lat":43.33723,"lon":5.39194,"is_reserved":false,"is_disabled":false,"rental_uris":{"android":"levelo://app?vid=c221efe7-efcb-49b8-a1b0-1dd8d171a453","ios":"levelo://app?vid=c221efe7-efcb-49b8-a1b0-1dd8d171a453"},"vehicle_type_id":"4","last_reported":1731265660,"current_range_meters":38800,"station_id":"ce4bhr92rcd13ifvqhsg","pricing_plan_id":"cebpf4jnsgd1na2vs0mg"},{"bike_id":"69b05dc1-5376-472f-a35d-b50c76a10800","system_id":"levelo_inurba_marseille","lat":43.24808,"lon":5.37457,"is_reserved":false,"is_disabled":false,"rental_uris":{"android":"levelo://app?vid=69b05dc1-5376-472f-a35d-b50c76a10800","ios":"levelo://app?vid=69b05dc1-5376-472f-a35d-b50c76a10800"},"vehicle_type_id":"4","last_reported":1731265660,"current_range_meters":38800,"station_id":"ce4bhgh2rcd13ifvqfb0","pricing_plan_id":"cebpf4jnsgd1na2vs0mg"},{"bike_id":"7a412987-a6a4-45b4-b4ec-7609753dd753","system_id":"levelo_inurba_marseille","lat":43.2481,"lon":5.37461,"is_reserved":false,"is_disabled":false,"rental_uris":{"android":"levelo://app?vid=7a412987-a6a4-45b4-b4ec-7609753dd753","ios":"levelo://app?vid=7a412987-a6a4-45b4-b4ec-7609753dd753"},"vehicle_type_id":"4","last_reported":1731265660,"current_range_meters":39200,"station_id":"ce4bhgh2rcd13ifvqfb0","pricing_plan_id":"cebpf4jnsgd1na2vs0mg"},{"bike_id":"5eec47bc-5160-4422-b512-29c8954564bc","system_id":"levelo_inurba_marseille","lat":43.30585,"lon":5.39345,"is_reserved":false,"is_disabled":false,"rental_uris":{"android":"levelo://app?vid=5eec47bc-5160-4422-b512-29c8954564bc","ios":"levelo://app?vid=5eec47bc-5160-4422-b512-29c8954564bc"},"vehicle_type_id":"4","last_reported":1731265660,"current_range_meters":20400,"station_id":"ce4bh0p2rcd13ifvqd80","pricing_plan_id":"cebpf4jnsgd1na2vs0mg"},{"bike_id":"835bbb3e-620b-40eb-b47f-2007fd6402e0","system_id":"levelo_inurba_marseille","lat":43.29418,"lon":5.38621,"is_reserved":false,"is_disabled":false,"rental_uris":{"android":"levelo://app?vid=835bbb3e-620b-40eb-b47f-2007fd6402e0","ios":"levelo://app?vid=835bbb3e-620b-40eb-b47f-2007fd6402e0"},"vehicle_type_id":"4","last_reported":1731265660,"current_range_meters":31200,"station_id":"ce4bh2h2rcd13ifvqdh0","pricing_plan_id":"cebpf4jnsgd1na2vs0mg"},{"bike_id":"c80b935f-a8f5-45ce-9981-0b7ab777b0ea","system_id":"levelo_inurba_marseille","lat":43.32106,"lon":5.36776,"is_reserved":false,"is_disabled":false,"rental_uris":{"android":"levelo://app?vid=c80b935f-a8f5-45ce-9981-0b7ab777b0ea","ios":"levelo://app?vid=c80b935f-a8f5-45ce-9981-0b7ab777b0ea"},"vehicle_type_id":"4","last_reported":1731265660,"current_range_meters":30800,"station_id":"ce4bhrh2rcd13ifvqhug","pricing_plan_id":"cebpf4jnsgd1na2vs0mg"},{"bike_id":"42e7cd22-356c-4dcb-8242-c7355320a289","system_id":"levelo_inurba_marseille","lat":43.29374,"lon":5.37849,"is_reserved":false,"is_disabled":false,"rental_uris":{"android":"levelo://app?vid=42e7cd22-356c-4dcb-8242-c7355320a289","ios":"levelo://app?vid=42e7cd22-356c-4dcb-8242-c7355320a289"},"vehicle_type_id":"4","last_reported":1731265660,"current_range_meters":21600,"station_id":"ce4bgjh2rcd13ifvqbf0","pricing_plan_id":"cebpf4jnsgd1na2vs0mg"},{"bike_id":"eb110d3d-5675-4e9c-9f74-b11f8bcee948","system_id":"levelo_inurba_marseille","lat":43.30787,"lon":5.3766,"is_reserved":false,"is_disabled":false,"rental_uris":{"android":"levelo://app?vid=eb110d3d-5675-4e9c-9f74-b11f8bcee948","ios":"levelo://app?vid=eb110d3d-5675-4e9c-9f74-b11f8bcee948"},"vehicle_type_id":"4","last_reported":1731265660,"current_range_meters":26000,"station_id":"ce4bgv92rcd13ifvqcq0","pricing_plan_id":"cebpf4jnsgd1na2vs0mg"},{"bike_id":"ddf3aab2-4bf1-4be5-8d86-9a22f8f91d27","system_id":"levelo_inurba_marseille","lat":43.30586,"lon":5.39354,"is_reserved":false,"is_disabled":false,"rental_uris":{"android":"levelo://app?vid=ddf3aab2-4bf1-4be5-8d86-9a22f8f91d27","ios":"levelo://app?vid=ddf3aab2-4bf1-4be5-8d86-9a22f8f91d27"},"vehicle_type_id":"4","last_reported":1731265660,"current_range_meters":33600,"station_id":"ce4bh0p2rcd13ifvqd80","pricing_plan_id":"cebpf4jnsgd1na2vs0mg"},{"bike_id":"2972f759-c98e-4fe7-9758-85d215895273","system_id":"levelo_inurba_marseille","lat":43.23957,"lon":5.36627,"is_reserved":false,"is_disabled":false,"rental_uris":{"android":"levelo://app?vid=2972f759-c98e-4fe7-9758-85d215895273","ios":"levelo://app?vid=2972f759-c98e-4fe7-9758-85d215895273"},"vehicle_type_id":"4","last_reported":1731265660,"current_range_meters":35200,"station_id":"ce4bhi12rcd13ifvqfp0","pricing_plan_id":"cebpf4jnsgd1na2vs0mg"},{"bike_id":"e907ac82-ddc7-48b1-91ea-ed7e6e7ec307","system_id":"levelo_inurba_marseille","lat":43.2992,"lon":5.3748,"is_reserved":false,"is_disabled":false,"rental_uris":{"android":"levelo://app?vid=e907ac82-ddc7-48b1-91ea-ed7e6e7ec307","ios":"levelo://app?vid=e907ac82-ddc7-48b1-91ea-ed7e6e7ec307"},"vehicle_type_id":"4","last_reported":1731265660,"current_range_meters":31200,"station_id":"ce4bgjh2rcd13ifvqbg0","pricing_plan_id":"cebpf4jnsgd1na2vs0mg"},{"bike_id":"3d39d653-d82e-4af0-985c-58f52d4e35ce","system_id":"levelo_inurba_marseille","lat":43.31224,"lon":5.36858,"is_reserved":false,"is_disabled":false,"rental_uris":{"android":"levelo://app?vid=3d39d653-d82e-4af0-985c-58f52d4e35ce","ios":"levelo://app?vid=3d39d653-d82e-4af0-985c-58f52d4e35ce"},"vehicle_type_id":"4","last_reported":1731265660,"current_range_meters":2800,"station_id":"ce4bgl92rcd13ifvqbq0","pricing_plan_id":"cebpf4jnsgd1na2vs0mg"},{"bike_id":"03ed9185-b1ad-4c56-a3bf-b3481e084c51","system_id":"levelo_inurba_marseille","lat":43.26801,"lon":5.40269,"is_reserved":false,"is_disabled":false,"rental_uris":{"android":"levelo://app?vid=03ed9185-b1ad-4c56-a3bf-b3481e084c51","ios":"levelo://app?vid=03ed9185-b1ad-4c56-a3bf-b3481e084c51"},"vehicle_type_id":"4","last_reported":1731265660,"current_range_meters":30800,"station_id":"ce501612rcd8frsf0b60","pricing_plan_id":"cebpf4jnsgd1na2vs0mg"},{"bike_id":"9b076279-78e6-4a6f-971d-91280791a498","system_id":"levelo_inurba_marseille","lat":43.29546,"lon":5.38542,"is_reserved":false,"is_disabled":false,"rental_uris":{"android":"levelo://app?vid=9b076279-78e6-4a6f-971d-91280791a498","ios":"levelo://app?vid=9b076279-78e6-4a6f-971d-91280791a498"},"vehicle_type_id":"4","last_reported":1731265660,"current_range_meters":36400,"station_id":"ce4bgih2rcd13ifvqba0","pricing_plan_id":"cebpf4jnsgd1na2vs0mg"},{"bike_id":"b6e6429c-bd4e-410c-b675-c52c8c1491f0","system_id":"levelo_inurba_marseille","lat":43.28947,"lon":5.36404,"is_reserved":false,"is_disabled":false,"rental_uris":{"android":"levelo://app?vid=b6e6429c-bd4e-410c-b675-c52c8c1491f0","ios":"levelo://app?vid=b6e6429c-bd4e-410c-b675-c52c8c1491f0"},"vehicle_type_id":"4","last_reported":1731265660,"current_range_meters":38800,"station_id":"ce4bhc92rcd13ifvqetg","pricing_plan_id":"cebpf4jnsgd1na2vs0mg"},{"bike_id":"991afeee-97d4-48d5-bb07-1a2f8492654a","system_id":"levelo_inurba_marseille","lat":43.30089,"lon":5.39077,"is_reserved":false,"is_disabled":false,"rental_uris":{"android":"levelo://app?vid=991afeee-97d4-48d5-bb07-1a2f8492654a","ios":"levelo://app?vid=991afeee-97d4-48d5-bb07-1a2f8492654a"},"vehicle_type_id":"4","last_reported":1731265660,"current_range_meters":38000,"station_id":"ce4bh192rcd13ifvqdb0","pricing_plan_id":"cebpf4jnsgd1na2vs0mg"},{"bike_id":"a1b4ddc0-ea5f-4d7c-8feb-f7e0d8134cab","system_id":"levelo_inurba_marseille","lat":43.29167,"lon":5.37164,"is_reserved":false,"is_disabled":false,"rental_uris":{"android":"levelo://app?vid=a1b4ddc0-ea5f-4d7c-8feb-f7e0d8134cab","ios":"levelo://app?vid=a1b4ddc0-ea5f-4d7c-8feb-f7e0d8134cab"},"vehicle_type_id":"4","last_reported":1731265660,"current_range_meters":24400,"station_id":"ce4bha92rcd13ifvqeh0","pricing_plan_id":"cebpf4jnsgd1na2vs0mg"},{"bike_id":"71bc23c4-aa68-4c9a-a3f6-c63c0fbc9207","system_id":"levelo_inurba_marseille","lat":43.29575,"lon":5.39976,"is_reserved":false,"is_disabled":false,"rental_uris":{"android":"levelo://app?vid=71bc23c4-aa68-4c9a-a3f6-c63c0fbc9207","ios":"levelo://app?vid=71bc23c4-aa68-4c9a-a3f6-c63c0fbc9207"},"vehicle_type_id":"4","last_reported":1731265660,"current_range_meters":20000,"station_id":"ce4bh312rcd13ifvqdj0","pricing_plan_id":"cebpf4jnsgd1na2vs0mg"},{"bike_id":"7fd6daf9-4624-4535-9cc8-7e1e93272272","system_id":"levelo_inurba_marseille","lat":43.31123,"lon":5.37771,"is_reserved":false,"is_disabled":false,"rental_uris":{"android":"levelo://app?vid=7fd6daf9-4624-4535-9cc8-7e1e93272272","ios":"levelo://app?vid=7fd6daf9-4624-4535-9cc8-7e1e93272272"},"vehicle_type_id":"4","last_reported":1731265660,"current_range_meters":17200,"station_id":"ce4bgt92rcd13ifvqcg0","pricing_plan_id":"cebpf4jnsgd1na2vs0mg"},{"bike_id":"aee62191-c53b-4830-a699-af499ee636fd","system_id":"levelo_inurba_marseille","lat":43.31084,"lon":5.42427,"is_reserved":false,"is_disabled":false,"rental_uris":{"android":"levelo://app?vid=aee62191-c53b-4830-a699-af499ee636fd","ios":"levelo://app?vid=aee62191-c53b-4830-a699-af499ee636fd"},"vehicle_type_id":"4","last_reported":1731265660,"current_range_meters":21600,"station_id":"ce4bhp92rcd13ifvqhag","pricing_plan_id":"cebpf4jnsgd1na2vs0mg"},{"bike_id":"b9478b1d-79e3-44c9-ae60-496dd5151f62","system_id":"levelo_inurba_marseille","lat":43.29173,"lon":5.37147,"is_reserved":false,"is_disabled":false,"rental_uris":{"android":"levelo://app?vid=b9478b1d-79e3-44c9-ae60-496dd5151f62","ios":"levelo://app?vid=b9478b1d-79e3-44c9-ae60-496dd5151f62"},"vehicle_type_id":"4","last_reported":1731265660,"current_range_meters":30000,"station_id":"ce4bha92rcd13ifvqeh0","pricing_plan_id":"cebpf4jnsgd1na2vs0mg"},{"bike_id":"2f0fea86-2773-413d-90fa-09fcb3c1d9ff","system_id":"levelo_inurba_marseille","lat":43.24391,"lon":5.37058,"is_reserved":false,"is_disabled":false,"rental_uris":{"android":"levelo://app?vid=2f0fea86-2773-413d-90fa-09fcb3c1d9ff","ios":"levelo://app?vid=2f0fea86-2773-413d-90fa-09fcb3c1d9ff"},"vehicle_type_id":"4","last_reported":1731265660,"current_range_meters":17600,"station_id":"ce4bhhh2rcd13ifvqfk0","pricing_plan_id":"cebpf4jnsgd1na2vs0mg"},{"bike_id":"d4145fe4-07b9-42ba-b55e-156c8962c0f2","system_id":"levelo_inurba_marseille","lat":43.27075,"lon":5.4228,"is_reserved":false,"is_disabled":false,"rental_uris":{"android":"levelo://app?vid=d4145fe4-07b9-42ba-b55e-156c8962c0f2","ios":"levelo://app?vid=d4145fe4-07b9-42ba-b55e-156c8962c0f2"},"vehicle_type_id":"4","last_reported":1731265660,"current_range_meters":13600,"station_id":"ce4bhk92rcd13ifvqgb0","pricing_plan_id":"cebpf4jnsgd1na2vs0mg"},{"bike_id":"a8bc759e-cb4c-4e34-8dbd-0cd01cdebd96","system_id":"levelo_inurba_marseille","lat":43.2953,"lon":5.38539,"is_reserved":false,"is_disabled":false,"rental_uris":{"android":"levelo://app?vid=a8bc759e-cb4c-4e34-8dbd-0cd01cdebd96","ios":"levelo://app?vid=a8bc759e-cb4c-4e34-8dbd-0cd01cdebd96"},"vehicle_type_id":"4","last_reported":1731265660,"current_range_meters":38000,"station_id":"ce4bgih2rcd13ifvqba0","pricing_plan_id":"cebpf4jnsgd1na2vs0mg"},{"bike_id":"f32c9343-b753-4b4c-9313-033fb01441d1","system_id":"levelo_inurba_marseille","lat":43.29746,"lon":5.37798,"is_reserved":false,"is_disabled":false,"rental_uris":{"android":"levelo://app?vid=f32c9343-b753-4b4c-9313-033fb01441d1","ios":"levelo://app?vid=f32c9343-b753-4b4c-9313-033fb01441d1"},"vehicle_type_id":"4","last_reported":1731265660,"current_range_meters":19600,"station_id":"","pricing_plan_id":"cebpf4jnsgd1na2vs0mg"},{"bike_id":"f18e3bca-1241-49e2-a473-1fbefd7476f8","system_id":"levelo_inurba_marseille","lat":43.32306,"lon":5.38289,"is_reserved":false,"is_disabled":false,"rental_uris":{"android":"levelo://app?vid=f18e3bca-1241-49e2-a473-1fbefd7476f8","ios":"levelo://app?vid=f18e3bca-1241-49e2-a473-1fbefd7476f8"},"vehicle_type_id":"4","last_reported":1731265660,"current_range_meters":36400,"station_id":"ce4bhr12rcd13ifvqhqg","pricing_plan_id":"cebpf4jnsgd1na2vs0mg"},{"bike_id":"f2246dca-d2c0-41d2-b9cc-a732d20a2fdc","system_id":"levelo_inurba_marseille","lat":43.28484,"lon":5.38417,"is_reserved":false,"is_disabled":false,"rental_uris":{"android":"levelo://app?vid=f2246dca-d2c0-41d2-b9cc-a732d20a2fdc","ios":"levelo://app?vid=f2246dca-d2c0-41d2-b9cc-a732d20a2fdc"},"vehicle_type_id":"4","last_reported":1731265660,"current_range_meters":36400,"station_id":"ce4bh512rcd13ifvqe3g","pricing_plan_id":"cebpf4jnsgd1na2vs0mg"},{"bike_id":"0c20ce2f-8934-466f-b493-7b98aab45105","system_id":"levelo_inurba_marseille","lat":43.2607,"lon":5.39398,"is_reserved":false,"is_disabled":false,"rental_uris":{"android":"levelo://app?vid=0c20ce2f-8934-466f-b493-7b98aab45105","ios":"levelo://app?vid=0c20ce2f-8934-466f-b493-7b98aab45105"},"vehicle_type_id":"4","last_reported":1731265660,"current_range_meters":17600,"station_id":"ce4bhh92rcd13ifvqfj0","pricing_plan_id":"cebpf4jnsgd1na2vs0mg"},{"bike_id":"1e94fc70-b38b-42e8-8ded-224bc666b03e","system_id":"levelo_inurba_marseille","lat":43.24545,"lon":5.39523,"is_reserved":false,"is_disabled":false,"rental_uris":{"android":"levelo://app?vid=1e94fc70-b38b-42e8-8ded-224bc666b03e","ios":"levelo://app?vid=1e94fc70-b38b-42e8-8ded-224bc666b03e"},"vehicle_type_id":"4","last_reported":1731265660,"current_range_meters":12000,"station_id":"ce4bhlp2rcd13ifvqgjg","pricing_plan_id":"cebpf4jnsgd1na2vs0mg"},{"bike_id":"bd7a2d96-efd1-4686-8439-bb7a5bb8fccc","system_id":"levelo_inurba_marseille","lat":43.3013,"lon":5.39864,"is_reserved":false,"is_disabled":false,"rental_uris":{"android":"levelo://app?vid=bd7a2d96-efd1-4686-8439-bb7a5bb8fccc","ios":"levelo://app?vid=bd7a2d96-efd1-4686-8439-bb7a5bb8fccc"},"vehicle_type_id":"4","last_reported":1731265660,"current_range_meters":8000,"station_id":"ce4bh0h2rcd13ifvqd40","pricing_plan_id":"cebpf4jnsgd1na2vs0mg"},{"bike_id":"00740450-2f03-43f4-90bd-7527d724b0c0","system_id":"levelo_inurba_marseille","lat":43.29261,"lon":5.40904,"is_reserved":false,"is_disabled":false,"rental_uris":{"android":"levelo://app?vid=00740450-2f03-43f4-90bd-7527d724b0c0","ios":"levelo://app?vid=00740450-2f03-43f4-90bd-7527d724b0c0"},"vehicle_type_id":"4","last_reported":1731265660,"current_range_meters":9200,"station_id":"ce4bh192rcd13ifvqdc0","pricing_plan_id":"cebpf4jnsgd1na2vs0mg"},{"bike_id":"7fd15485-9f1a-4a77-b57d-f90acfb347bb","system_id":"levelo_inurba_marseille","lat":43.30299,"lon":5.39213,"is_reserved":false,"is_disabled":false,"rental_uris":{"android":"levelo://app?vid=7fd15485-9f1a-4a77-b57d-f90acfb347bb","ios":"levelo://app?vid=7fd15485-9f1a-4a77-b57d-f90acfb347bb"},"vehicle_type_id":"4","last_reported":1731265660,"current_range_meters":24000,"station_id":"ce4bgkh2rcd13ifvqbk0","pricing_plan_id":"cebpf4jnsgd1na2vs0mg"},{"bike_id":"fa7aaa74-19ba-4128-8175-055d38deb683","system_id":"levelo_inurba_marseille","lat":43.29035,"lon":5.37601,"is_reserved":false,"is_disabled":false,"rental_uris":{"android":"levelo://app?vid=fa7aaa74-19ba-4128-8175-055d38deb683","ios":"levelo://app?vid=fa7aaa74-19ba-4128-8175-055d38deb683"},"vehicle_type_id":"4","last_reported":1731265660,"current_range_meters":38400,"station_id":"ce4bgi12rcd13ifvqb70","pricing_plan_id":"cebpf4jnsgd1na2vs0mg"},{"bike_id":"22de4875-598d-4cb0-a70e-735b01ed393a","system_id":"levelo_inurba_marseille","lat":43.29572,"lon":5.39983,"is_reserved":false,"is_disabled":false,"rental_uris":{"android":"levelo://app?vid=22de4875-598d-4cb0-a70e-735b01ed393a","ios":"levelo://app?vid=22de4875-598d-4cb0-a70e-735b01ed393a"},"vehicle_type_id":"4","last_reported":1731265660,"current_range_meters":39200,"station_id":"ce4bh312rcd13ifvqdj0","pricing_plan_id":"cebpf4jnsgd1na2vs0mg"},{"bike_id":"85e2f4f3-6aa2-4c02-8cb0-3f10017cc61a","system_id":"levelo_inurba_marseille","lat":43.25093,"lon":5.39519,"is_reserved":false,"is_disabled":false,"rental_uris":{"android":"levelo://app?vid=85e2f4f3-6aa2-4c02-8cb0-3f10017cc61a","ios":"levelo://app?vid=85e2f4f3-6aa2-4c02-8cb0-3f10017cc61a"},"vehicle_type_id":"4","last_reported":1731265660,"current_range_meters":38800,"station_id":"ce4bhm12rcd13ifvqgkg","pricing_plan_id":"cebpf4jnsgd1na2vs0mg"},{"bike_id":"010f34fa-5fe4-441f-a433-65d10dd050db","system_id":"levelo_inurba_marseille","lat":43.29554,"lon":5.42279,"is_reserved":false,"is_disabled":false,"rental_uris":{"android":"levelo://app?vid=010f34fa-5fe4-441f-a433-65d10dd050db","ios":"levelo://app?vid=010f34fa-5fe4-441f-a433-65d10dd050db"},"vehicle_type_id":"4","last_reported":1731265660,"current_range_meters":8000,"station_id":"ce4bhph2rcd13ifvqhdg","pricing_plan_id":"cebpf4jnsgd1na2vs0mg"},{"bike_id":"0cac13ea-b1f5-4104-91ba-5cb786ccaadd","system_id":"levelo_inurba_marseille","lat":43.28853,"lon":5.39312,"is_reserved":false,"is_disabled":false,"rental_uris":{"android":"levelo://app?vid=0cac13ea-b1f5-4104-91ba-5cb786ccaadd","ios":"levelo://app?vid=0cac13ea-b1f5-4104-91ba-5cb786ccaadd"},"vehicle_type_id":"4","last_reported":1731265660,"current_range_meters":34000,"station_id":"ce4bh2p2rcd13ifvqdi0","pricing_plan_id":"cebpf4jnsgd1na2vs0mg"},{"bike_id":"02e5dafe-fcef-4405-9cf5-47651341713d","system_id":"levelo_inurba_marseille","lat":43.24171,"lon":5.36395,"is_reserved":false,"is_disabled":false,"rental_uris":{"android":"levelo://app?vid=02e5dafe-fcef-4405-9cf5-47651341713d","ios":"levelo://app?vid=02e5dafe-fcef-4405-9cf5-47651341713d"},"vehicle_type_id":"4","last_reported":1731265660,"current_range_meters":7200,"station_id":"cpo36qri1sfpv3e86is0","pricing_plan_id":"cebpf4jnsgd1na2vs0mg"},{"bike_id":"43f31890-4271-4ecd-926d-8baa26da02d5","system_id":"levelo_inurba_marseille","lat":43.30604,"lon":5.37229,"is_reserved":false,"is_disabled":false,"rental_uris":{"android":"levelo://app?vid=43f31890-4271-4ecd-926d-8baa26da02d5","ios":"levelo://app?vid=43f31890-4271-4ecd-926d-8baa26da02d5"},"vehicle_type_id":"4","last_reported":1731265660,"current_range_meters":6400,"station_id":"ce4bgqh2rcd13ifvqc4g","pricing_plan_id":"cebpf4jnsgd1na2vs0mg"},{"bike_id":"8b6f1de4-13a0-4491-8c30-277dcf4cf6e0","system_id":"levelo_inurba_marseille","lat":43.29525,"lon":5.39398,"is_reserved":false,"is_disabled":false,"rental_uris":{"android":"levelo://app?vid=8b6f1de4-13a0-4491-8c30-277dcf4cf6e0","ios":"levelo://app?vid=8b6f1de4-13a0-4491-8c30-277dcf4cf6e0"},"vehicle_type_id":"4","last_reported":1731265660,"current_range_meters":11600,"station_id":"ce4bgrh2rcd13ifvqc8g","pricing_plan_id":"cebpf4jnsgd1na2vs0mg"},{"bike_id":"8bac9053-3887-4a8c-beaf-c9a3ca84e1f9","system_id":"levelo_inurba_marseille","lat":43.29914,"lon":5.37444,"is_reserved":false,"is_disabled":false,"rental_uris":{"android":"levelo://app?vid=8bac9053-3887-4a8c-beaf-c9a3ca84e1f9","ios":"levelo://app?vid=8bac9053-3887-4a8c-beaf-c9a3ca84e1f9"},"vehicle_type_id":"4","last_reported":1731265660,"current_range_meters":34000,"station_id":"ce4bgjh2rcd13ifvqbg0","pricing_plan_id":"cebpf4jnsgd1na2vs0mg"},{"bike_id":"4e89b627-0501-4db3-9362-5908885da938","system_id":"levelo_inurba_marseille","lat":43.29264,"lon":5.38436,"is_reserved":false,"is_disabled":false,"rental_uris":{"android":"levelo://app?vid=4e89b627-0501-4db3-9362-5908885da938","ios":"levelo://app?vid=4e89b627-0501-4db3-9362-5908885da938"},"vehicle_type_id":"4","last_reported":1731265660,"current_range_meters":28400,"station_id":"ce4bh692rcd13ifvqea0","pricing_plan_id":"cebpf4jnsgd1na2vs0mg"},{"bike_id":"8f12e7c1-6470-4bf5-9ca2-5a704321330d","system_id":"levelo_inurba_marseille","lat":43.28944,"lon":5.36626,"is_reserved":false,"is_disabled":false,"rental_uris":{"android":"levelo://app?vid=8f12e7c1-6470-4bf5-9ca2-5a704321330d","ios":"levelo://app?vid=8f12e7c1-6470-4bf5-9ca2-5a704321330d"},"vehicle_type_id":"4","last_reported":1731265660,"current_range_meters":24400,"station_id":"ce4bhap2rcd13ifvqek0","pricing_plan_id":"cebpf4jnsgd1na2vs0mg"},{"bike_id":"61ebae1e-7e43-4156-bc77-b929042392dc","system_id":"levelo_inurba_marseille","lat":43.29172,"lon":5.37146,"is_reserved":false,"is_disabled":false,"rental_uris":{"android":"levelo://app?vid=61ebae1e-7e43-4156-bc77-b929042392dc","ios":"levelo://app?vid=61ebae1e-7e43-4156-bc77-b929042392dc"},"vehicle_type_id":"4","last_reported":1731265660,"current_range_meters":37600,"station_id":"ce4bha92rcd13ifvqeh0","pricing_plan_id":"cebpf4jnsgd1na2vs0mg"},{"bike_id":"2c3a9c56-0e0b-4ba6-a6f5-b80dc2ed6efa","system_id":"levelo_inurba_marseille","lat":43.24397,"lon":5.37064,"is_reserved":false,"is_disabled":false,"rental_uris":{"android":"levelo://app?vid=2c3a9c56-0e0b-4ba6-a6f5-b80dc2ed6efa","ios":"levelo://app?vid=2c3a9c56-0e0b-4ba6-a6f5-b80dc2ed6efa"},"vehicle_type_id":"4","last_reported":1731265660,"current_range_meters":26800,"station_id":"ce4bgn92rcd13ifvqbvg","pricing_plan_id":"cebpf4jnsgd1na2vs0mg"},{"bike_id":"ea1c39cc-6666-4ec8-8bcb-eb2ccb0663a6","system_id":"levelo_inurba_marseille","lat":43.29524,"lon":5.38529,"is_reserved":false,"is_disabled":false,"rental_uris":{"android":"levelo://app?vid=ea1c39cc-6666-4ec8-8bcb-eb2ccb0663a6","ios":"levelo://app?vid=ea1c39cc-6666-4ec8-8bcb-eb2ccb0663a6"},"vehicle_type_id":"4","last_reported":1731265660,"current_range_meters":35600,"station_id":"ce4bgih2rcd13ifvqba0","pricing_plan_id":"cebpf4jnsgd1na2vs0mg"},{"bike_id":"a0b1cda3-f142-4454-8ce1-f593f0125225","system_id":"levelo_inurba_marseille","lat":43.26682,"lon":5.38268,"is_reserved":false,"is_disabled":false,"rental_uris":{"android":"levelo://app?vid=a0b1cda3-f142-4454-8ce1-f593f0125225","ios":"levelo://app?vid=a0b1cda3-f142-4454-8ce1-f593f0125225"},"vehicle_type_id":"4","last_reported":1731265660,"current_range_meters":37600,"station_id":"ce4bhg92rcd13ifvqf90","pricing_plan_id":"cebpf4jnsgd1na2vs0mg"},{"bike_id":"f9d800f8-7af6-405c-bf38-3c4628804c51","system_id":"levelo_inurba_marseille","lat":43.28481,"lon":5.3842,"is_reserved":false,"is_disabled":false,"rental_uris":{"android":"levelo://app?vid=f9d800f8-7af6-405c-bf38-3c4628804c51","ios":"levelo://app?vid=f9d800f8-7af6-405c-bf38-3c4628804c51"},"vehicle_type_id":"4","last_reported":1731265660,"current_range_meters":38800,"station_id":"ce4bh512rcd13ifvqe3g","pricing_plan_id":"cebpf4jnsgd1na2vs0mg"},{"bike_id":"9d819a85-5bf9-4b16-9de0-790580170670","system_id":"levelo_inurba_marseille","lat":43.31328,"lon":5.39695,"is_reserved":false,"is_disabled":false,"rental_uris":{"android":"levelo://app?vid=9d819a85-5bf9-4b16-9de0-790580170670","ios":"levelo://app?vid=9d819a85-5bf9-4b16-9de0-790580170670"},"vehicle_type_id":"4","last_reported":1731265660,"current_range_meters":29600,"station_id":"ce4bgvp2rcd13ifvqcu0","pricing_plan_id":"cebpf4jnsgd1na2vs0mg"},{"bike_id":"0f36cf73-dfea-40e8-a2ba-1fd167e46f39","system_id":"levelo_inurba_marseille","lat":43.30306,"lon":5.39202,"is_reserved":false,"is_disabled":false,"rental_uris":{"android":"levelo://app?vid=0f36cf73-dfea-40e8-a2ba-1fd167e46f39","ios":"levelo://app?vid=0f36cf73-dfea-40e8-a2ba-1fd167e46f39"},"vehicle_type_id":"4","last_reported":1731265660,"current_range_meters":37600,"station_id":"ce4bgkh2rcd13ifvqbk0","pricing_plan_id":"cebpf4jnsgd1na2vs0mg"},{"bike_id":"ca6bc757-afb2-47ae-8348-d50290e625d2","system_id":"levelo_inurba_marseille","lat":43.24811,"lon":5.37462,"is_reserved":false,"is_disabled":false,"rental_uris":{"android":"levelo://app?vid=ca6bc757-afb2-47ae-8348-d50290e625d2","ios":"levelo://app?vid=ca6bc757-afb2-47ae-8348-d50290e625d2"},"vehicle_type_id":"4","last_reported":1731265660,"current_range_meters":34000,"station_id":"ce4bhgh2rcd13ifvqfb0","pricing_plan_id":"cebpf4jnsgd1na2vs0mg"},{"bike_id":"4cc3e001-4447-46d7-a90b-69fd2e7a56d1","system_id":"levelo_inurba_marseille","lat":43.28939,"lon":5.39636,"is_reserved":false,"is_disabled":false,"rental_uris":{"android":"levelo://app?vid=4cc3e001-4447-46d7-a90b-69fd2e7a56d1","ios":"levelo://app?vid=4cc3e001-4447-46d7-a90b-69fd2e7a56d1"},"vehicle_type_id":"4","last_reported":1731265660,"current_range_meters":38800,"station_id":"ce4bh3h2rcd13ifvqdn0","pricing_plan_id":"cebpf4jnsgd1na2vs0mg"},{"bike_id":"beb26317-6daf-4280-afee-f4f951d8c540","system_id":"levelo_inurba_marseille","lat":43.28376,"lon":5.38632,"is_reserved":false,"is_disabled":false,"rental_uris":{"android":"levelo://app?vid=beb26317-6daf-4280-afee-f4f951d8c540","ios":"levelo://app?vid=beb26317-6daf-4280-afee-f4f951d8c540"},"vehicle_type_id":"4","last_reported":1731265660,"current_range_meters":38800,"station_id":"ce4bh492rcd13ifvqdvg","pricing_plan_id":"cebpf4jnsgd1na2vs0mg"},{"bike_id":"ab502f87-bc6a-4105-ba3d-5d9d35ea7732","system_id":"levelo_inurba_marseille","lat":43.27948,"lon":5.41047,"is_reserved":false,"is_disabled":false,"rental_uris":{"android":"levelo://app?vid=ab502f87-bc6a-4105-ba3d-5d9d35ea7732","ios":"levelo://app?vid=ab502f87-bc6a-4105-ba3d-5d9d35ea7732"},"vehicle_type_id":"4","last_reported":1731265660,"current_range_meters":28000,"station_id":"ce4bhnp2rcd13ifvqh0g","pricing_plan_id":"cebpf4jnsgd1na2vs0mg"},{"bike_id":"06b411d0-eb16-4790-9366-158aecb295c8","system_id":"levelo_inurba_marseille","lat":43.28113,"lon":5.37858,"is_reserved":false,"is_disabled":false,"rental_uris":{"android":"levelo://app?vid=06b411d0-eb16-4790-9366-158aecb295c8","ios":"levelo://app?vid=06b411d0-eb16-4790-9366-158aecb295c8"},"vehicle_type_id":"4","last_reported":1731265660,"current_range_meters":19600,"station_id":"ce4bha12rcd13ifvqee0","pricing_plan_id":"cebpf4jnsgd1na2vs0mg"},{"bike_id":"0737732f-b930-477d-9167-c7c623ce625f","system_id":"levelo_inurba_marseille","lat":43.29535,"lon":5.37507,"is_reserved":false,"is_disabled":false,"rental_uris":{"android":"levelo://app?vid=0737732f-b930-477d-9167-c7c623ce625f","ios":"levelo://app?vid=0737732f-b930-477d-9167-c7c623ce625f"},"vehicle_type_id":"4","last_reported":1731265660,"current_range_meters":20400,"station_id":"ce4bgkp2rcd13ifvqbmg","pricing_plan_id":"cebpf4jnsgd1na2vs0mg"},{"bike_id":"f204905c-7b94-45eb-bd5e-9b72157ae1f2","system_id":"levelo_inurba_marseille","lat":43.23187,"lon":5.39982,"is_reserved":false,"is_disabled":false,"rental_uris":{"android":"levelo://app?vid=f204905c-7b94-45eb-bd5e-9b72157ae1f2","ios":"levelo://app?vid=f204905c-7b94-45eb-bd5e-9b72157ae1f2"},"vehicle_type_id":"4","last_reported":1731265660,"current_range_meters":37600,"station_id":"ce4bhn12rcd13ifvqgqg","pricing_plan_id":"cebpf4jnsgd1na2vs0mg"},{"bike_id":"92fd9f22-a7f6-4f9d-8035-563e20ca237b","system_id":"levelo_inurba_marseille","lat":43.29438,"lon":5.39753,"is_reserved":false,"is_disabled":false,"rental_uris":{"android":"levelo://app?vid=92fd9f22-a7f6-4f9d-8035-563e20ca237b","ios":"levelo://app?vid=92fd9f22-a7f6-4f9d-8035-563e20ca237b"},"vehicle_type_id":"4","last_reported":1731265660,"current_range_meters":16800,"station_id":"ce4bh3h2rcd13ifvqdo0","pricing_plan_id":"cebpf4jnsgd1na2vs0mg"},{"bike_id":"f5a009d5-2491-44a6-b0ea-b4ae68b23420","system_id":"levelo_inurba_marseille","lat":43.3176,"lon":5.39022,"is_reserved":false,"is_disabled":false,"rental_uris":{"android":"levelo://app?vid=f5a009d5-2491-44a6-b0ea-b4ae68b23420","ios":"levelo://app?vid=f5a009d5-2491-44a6-b0ea-b4ae68b23420"},"vehicle_type_id":"4","last_reported":1731265660,"current_range_meters":38800,"station_id":"ce4bhqp2rcd13ifvqhng","pricing_plan_id":"cebpf4jnsgd1na2vs0mg"},{"bike_id":"173d8a1d-342d-4551-846c-b7c17e83b9f6","system_id":"levelo_inurba_marseille","lat":43.30589,"lon":5.39359,"is_reserved":false,"is_disabled":false,"rental_uris":{"android":"levelo://app?vid=173d8a1d-342d-4551-846c-b7c17e83b9f6","ios":"levelo://app?vid=173d8a1d-342d-4551-846c-b7c17e83b9f6"},"vehicle_type_id":"4","last_reported":1731265660,"current_range_meters":22000,"station_id":"ce4bh0p2rcd13ifvqd80","pricing_plan_id":"cebpf4jnsgd1na2vs0mg"},{"bike_id":"aaa0d09b-cb58-4cea-86a7-0ec15c06a191","system_id":"levelo_inurba_marseille","lat":43.29878,"lon":5.38903,"is_reserved":false,"is_disabled":false,"rental_uris":{"android":"levelo://app?vid=aaa0d09b-cb58-4cea-86a7-0ec15c06a191","ios":"levelo://app?vid=aaa0d09b-cb58-4cea-86a7-0ec15c06a191"},"vehicle_type_id":"4","last_reported":1731265660,"current_range_meters":38800,"station_id":"ce4bh392rcd13ifvqdl0","pricing_plan_id":"cebpf4jnsgd1na2vs0mg"},{"bike_id":"def6d73a-678f-4265-9c92-bce52ffa3bb4","system_id":"levelo_inurba_marseille","lat":43.31233,"lon":5.36855,"is_reserved":false,"is_disabled":false,"rental_uris":{"android":"levelo://app?vid=def6d73a-678f-4265-9c92-bce52ffa3bb4","ios":"levelo://app?vid=def6d73a-678f-4265-9c92-bce52ffa3bb4"},"vehicle_type_id":"4","last_reported":1731265660,"current_range_meters":15200,"station_id":"ce4bgl92rcd13ifvqbq0","pricing_plan_id":"cebpf4jnsgd1na2vs0mg"},{"bike_id":"a6466120-ac73-46ce-ab8a-35466af0e5b7","system_id":"levelo_inurba_marseille","lat":43.29871,"lon":5.39737,"is_reserved":false,"is_disabled":false,"rental_uris":{"android":"levelo://app?vid=a6466120-ac73-46ce-ab8a-35466af0e5b7","ios":"levelo://app?vid=a6466120-ac73-46ce-ab8a-35466af0e5b7"},"vehicle_type_id":"4","last_reported":1731265660,"current_range_meters":14000,"station_id":"ce4bh0h2rcd13ifvqd50","pricing_plan_id":"cebpf4jnsgd1na2vs0mg"},{"bike_id":"181fa628-fd06-4339-88f4-5d411c857699","system_id":"levelo_inurba_marseille","lat":43.27073,"lon":5.42277,"is_reserved":false,"is_disabled":false,"rental_uris":{"android":"levelo://app?vid=181fa628-fd06-4339-88f4-5d411c857699","ios":"levelo://app?vid=181fa628-fd06-4339-88f4-5d411c857699"},"vehicle_type_id":"4","last_reported":1731265660,"current_range_meters":8000,"station_id":"ce4bhk92rcd13ifvqgb0","pricing_plan_id":"cebpf4jnsgd1na2vs0mg"},{"bike_id":"05460232-731d-4821-b381-b280e5302bfd","system_id":"levelo_inurba_marseille","lat":43.30351,"lon":5.4187,"is_reserved":false,"is_disabled":false,"rental_uris":{"android":"levelo://app?vid=05460232-731d-4821-b381-b280e5302bfd","ios":"levelo://app?vid=05460232-731d-4821-b381-b280e5302bfd"},"vehicle_type_id":"4","last_reported":1731265660,"current_range_meters":8000,"station_id":"ce4bhop2rcd13ifvqh7g","pricing_plan_id":"cebpf4jnsgd1na2vs0mg"},{"bike_id":"9a5eb101-92a2-4eeb-93bd-8d070d90c1ea","system_id":"levelo_inurba_marseille","lat":43.30433,"lon":5.42528,"is_reserved":false,"is_disabled":false,"rental_uris":{"android":"levelo://app?vid=9a5eb101-92a2-4eeb-93bd-8d070d90c1ea","ios":"levelo://app?vid=9a5eb101-92a2-4eeb-93bd-8d070d90c1ea"},"vehicle_type_id":"4","last_reported":1731265660,"current_range_meters":10000,"station_id":"","pricing_plan_id":"cebpf4jnsgd1na2vs0mg"},{"bike_id":"4de74ec0-48a2-4451-a65d-5ac6f613a308","system_id":"levelo_inurba_marseille","lat":43.24816,"lon":5.37464,"is_reserved":false,"is_disabled":false,"rental_uris":{"android":"levelo://app?vid=4de74ec0-48a2-4451-a65d-5ac6f613a308","ios":"levelo://app?vid=4de74ec0-48a2-4451-a65d-5ac6f613a308"},"vehicle_type_id":"4","last_reported":1731265660,"current_range_meters":38400,"station_id":"ce4bhgh2rcd13ifvqfb0","pricing_plan_id":"cebpf4jnsgd1na2vs0mg"},{"bike_id":"bdfe5bdf-6f65-411e-aadb-a91f8d4fe386","system_id":"levelo_inurba_marseille","lat":43.30338,"lon":5.38606,"is_reserved":false,"is_disabled":false,"rental_uris":{"android":"levelo://app?vid=bdfe5bdf-6f65-411e-aadb-a91f8d4fe386","ios":"levelo://app?vid=bdfe5bdf-6f65-411e-aadb-a91f8d4fe386"},"vehicle_type_id":"4","last_reported":1731265660,"current_range_meters":24400,"station_id":"ce4bgl92rcd13ifvqbq0","pricing_plan_id":"cebpf4jnsgd1na2vs0mg"},{"bike_id":"c79d7b97-f911-40b4-b55b-14268bcec1b4","system_id":"levelo_inurba_marseille","lat":43.30814,"lon":5.38127,"is_reserved":false,"is_disabled":false,"rental_uris":{"android":"levelo://app?vid=c79d7b97-f911-40b4-b55b-14268bcec1b4","ios":"levelo://app?vid=c79d7b97-f911-40b4-b55b-14268bcec1b4"},"vehicle_type_id":"4","last_reported":1731265660,"current_range_meters":39200,"station_id":"ce4bgt12rcd13ifvqce0","pricing_plan_id":"cebpf4jnsgd1na2vs0mg"},{"bike_id":"4c39aa19-0c48-4846-ae4a-17bcc31d5e1d","system_id":"levelo_inurba_marseille","lat":43.3237,"lon":5.38886,"is_reserved":false,"is_disabled":false,"rental_uris":{"android":"levelo://app?vid=4c39aa19-0c48-4846-ae4a-17bcc31d5e1d","ios":"levelo://app?vid=4c39aa19-0c48-4846-ae4a-17bcc31d5e1d"},"vehicle_type_id":"4","last_reported":1731265660,"current_range_meters":11200,"station_id":"ce4bhqp2rcd13ifvqhog","pricing_plan_id":"cebpf4jnsgd1na2vs0mg"},{"bike_id":"f033f109-3c17-4d62-a246-202520c86017","system_id":"levelo_inurba_marseille","lat":43.30646,"lon":5.40101,"is_reserved":false,"is_disabled":false,"rental_uris":{"android":"levelo://app?vid=f033f109-3c17-4d62-a246-202520c86017","ios":"levelo://app?vid=f033f109-3c17-4d62-a246-202520c86017"},"vehicle_type_id":"4","last_reported":1731265660,"current_range_meters":36000,"station_id":"ce4bh112rcd13ifvqda0","pricing_plan_id":"cebpf4jnsgd1na2vs0mg"},{"bike_id":"1e7fd650-28c5-42ee-9922-4070c0acdb85","system_id":"levelo_inurba_marseille","lat":43.27492,"lon":5.42454,"is_reserved":false,"is_disabled":false,"rental_uris":{"android":"levelo://app?vid=1e7fd650-28c5-42ee-9922-4070c0acdb85","ios":"levelo://app?vid=1e7fd650-28c5-42ee-9922-4070c0acdb85"},"vehicle_type_id":"4","last_reported":1731265660,"current_range_meters":38000,"station_id":"ce4bhn92rcd13ifvqgrg","pricing_plan_id":"cebpf4jnsgd1na2vs0mg"},{"bike_id":"90cea79f-8bc2-4282-afc5-84993260fcef","system_id":"levelo_inurba_marseille","lat":43.29909,"lon":5.38142,"is_reserved":false,"is_disabled":false,"rental_uris":{"android":"levelo://app?vid=90cea79f-8bc2-4282-afc5-84993260fcef","ios":"levelo://app?vid=90cea79f-8bc2-4282-afc5-84993260fcef"},"vehicle_type_id":"4","last_reported":1731265660,"current_range_meters":36400,"station_id":"ce4bgj12rcd13ifvqbc0","pricing_plan_id":"cebpf4jnsgd1na2vs0mg"},{"bike_id":"c86f9753-23bf-4b0b-99f7-a3303d896d97","system_id":"levelo_inurba_marseille","lat":43.23179,"lon":5.39992,"is_reserved":false,"is_disabled":false,"rental_uris":{"android":"levelo://app?vid=c86f9753-23bf-4b0b-99f7-a3303d896d97","ios":"levelo://app?vid=c86f9753-23bf-4b0b-99f7-a3303d896d97"},"vehicle_type_id":"4","last_reported":1731265660,"current_range_meters":8800,"station_id":"ce4bhn12rcd13ifvqgqg","pricing_plan_id":"cebpf4jnsgd1na2vs0mg"},{"bike_id":"5ab9d430-3d2b-4a66-870b-567fac89b27f","system_id":"levelo_inurba_marseille","lat":43.31321,"lon":5.39685,"is_reserved":false,"is_disabled":false,"rental_uris":{"android":"levelo://app?vid=5ab9d430-3d2b-4a66-870b-567fac89b27f","ios":"levelo://app?vid=5ab9d430-3d2b-4a66-870b-567fac89b27f"},"vehicle_type_id":"4","last_reported":1731265660,"current_range_meters":32800,"station_id":"ce4bgvp2rcd13ifvqcu0","pricing_plan_id":"cebpf4jnsgd1na2vs0mg"},{"bike_id":"8766c043-a931-475e-97d2-ccf114e5555b","system_id":"levelo_inurba_marseille","lat":43.28847,"lon":5.39315,"is_reserved":false,"is_disabled":false,"rental_uris":{"android":"levelo://app?vid=8766c043-a931-475e-97d2-ccf114e5555b","ios":"levelo://app?vid=8766c043-a931-475e-97d2-ccf114e5555b"},"vehicle_type_id":"4","last_reported":1731265660,"current_range_meters":38000,"station_id":"ce4bh2p2rcd13ifvqdi0","pricing_plan_id":"cebpf4jnsgd1na2vs0mg"},{"bike_id":"96753775-bbea-4f45-b9f3-0bf25ad305d8","system_id":"levelo_inurba_marseille","lat":43.25934,"lon":5.40902,"is_reserved":false,"is_disabled":false,"rental_uris":{"android":"levelo://app?vid=96753775-bbea-4f45-b9f3-0bf25ad305d8","ios":"levelo://app?vid=96753775-bbea-4f45-b9f3-0bf25ad305d8"},"vehicle_type_id":"4","last_reported":1731265660,"current_range_meters":10000,"station_id":"ce4bhm92rcd13ifvqglg","pricing_plan_id":"cebpf4jnsgd1na2vs0mg"},{"bike_id":"07704a86-dbed-425a-854d-11b1a4e3d84c","system_id":"levelo_inurba_marseille","lat":43.33749,"lon":5.37439,"is_reserved":false,"is_disabled":false,"rental_uris":{"android":"levelo://app?vid=07704a86-dbed-425a-854d-11b1a4e3d84c","ios":"levelo://app?vid=07704a86-dbed-425a-854d-11b1a4e3d84c"},"vehicle_type_id":"4","last_reported":1731265660,"current_range_meters":29600,"station_id":"","pricing_plan_id":"cebpf4jnsgd1na2vs0mg"},{"bike_id":"d16c336c-1169-477a-94ae-f89b71b73da8","system_id":"levelo_inurba_marseille","lat":43.30902,"lon":5.36844,"is_reserved":false,"is_disabled":false,"rental_uris":{"android":"levelo://app?vid=d16c336c-1169-477a-94ae-f89b71b73da8","ios":"levelo://app?vid=d16c336c-1169-477a-94ae-f89b71b73da8"},"vehicle_type_id":"4","last_reported":1731265660,"current_range_meters":38000,"station_id":"ce4bgn92rcd13ifvqbvg","pricing_plan_id":"cebpf4jnsgd1na2vs0mg"},{"bike_id":"8d1cefc9-d6aa-48fd-9993-1169f0424984","system_id":"levelo_inurba_marseille","lat":43.29196,"lon":5.39322,"is_reserved":false,"is_disabled":false,"rental_uris":{"android":"levelo://app?vid=8d1cefc9-d6aa-48fd-9993-1169f0424984","ios":"levelo://app?vid=8d1cefc9-d6aa-48fd-9993-1169f0424984"},"vehicle_type_id":"4","last_reported":1731265660,"current_range_meters":30800,"station_id":"ce4bh192rcd13ifvqdd0","pricing_plan_id":"cebpf4jnsgd1na2vs0mg"},{"bike_id":"0b74ce83-e6b1-4485-8ca6-3897f29a426e","system_id":"levelo_inurba_marseille","lat":43.23962,"lon":5.36625,"is_reserved":false,"is_disabled":false,"rental_uris":{"android":"levelo://app?vid=0b74ce83-e6b1-4485-8ca6-3897f29a426e","ios":"levelo://app?vid=0b74ce83-e6b1-4485-8ca6-3897f29a426e"},"vehicle_type_id":"4","last_reported":1731265660,"current_range_meters":8000,"station_id":"ce4bhi12rcd13ifvqfp0","pricing_plan_id":"cebpf4jnsgd1na2vs0mg"},{"bike_id":"40fe0513-a708-47e7-8279-80318f82bbbd","system_id":"levelo_inurba_marseille","lat":43.304786,"lon":5.39809,"is_reserved":false,"is_disabled":false,"rental_uris":{"android":"levelo://app?vid=40fe0513-a708-47e7-8279-80318f82bbbd","ios":"levelo://app?vid=40fe0513-a708-47e7-8279-80318f82bbbd"},"vehicle_type_id":"4","last_reported":1731265660,"current_range_meters":24000,"station_id":"ce4bh092rcd13ifvqd20","pricing_plan_id":"cebpf4jnsgd1na2vs0mg"},{"bike_id":"0bf1ed5b-3245-45c6-9e1b-989daa7e8d3b","system_id":"levelo_inurba_marseille","lat":43.27376,"lon":5.3626,"is_reserved":false,"is_disabled":false,"rental_uris":{"android":"levelo://app?vid=0bf1ed5b-3245-45c6-9e1b-989daa7e8d3b","ios":"levelo://app?vid=0bf1ed5b-3245-45c6-9e1b-989daa7e8d3b"},"vehicle_type_id":"4","last_reported":1731265660,"current_range_meters":6000,"station_id":"ce4bhbh2rcd13ifvqeo0","pricing_plan_id":"cebpf4jnsgd1na2vs0mg"},{"bike_id":"5e66f050-2aa6-4ce6-9371-57a50538215e","system_id":"levelo_inurba_marseille","lat":43.30904,"lon":5.36843,"is_reserved":false,"is_disabled":false,"rental_uris":{"android":"levelo://app?vid=5e66f050-2aa6-4ce6-9371-57a50538215e","ios":"levelo://app?vid=5e66f050-2aa6-4ce6-9371-57a50538215e"},"vehicle_type_id":"4","last_reported":1731265660,"current_range_meters":29600,"station_id":"ce4bgn92rcd13ifvqbvg","pricing_plan_id":"cebpf4jnsgd1na2vs0mg"},{"bike_id":"0174daa9-d8bd-4b17-98e1-f3eb272da1f9","system_id":"levelo_inurba_marseille","lat":43.284773,"lon":5.384235,"is_reserved":false,"is_disabled":false,"rental_uris":{"android":"levelo://app?vid=0174daa9-d8bd-4b17-98e1-f3eb272da1f9","ios":"levelo://app?vid=0174daa9-d8bd-4b17-98e1-f3eb272da1f9"},"vehicle_type_id":"4","last_reported":1731265660,"current_range_meters":16000,"station_id":"ce4bh512rcd13ifvqe3g","pricing_plan_id":"cebpf4jnsgd1na2vs0mg"},{"bike_id":"2a98ca2a-1586-4c7d-89d0-44b5c21dd7e0","system_id":"levelo_inurba_marseille","lat":43.28105,"lon":5.37843,"is_reserved":false,"is_disabled":false,"rental_uris":{"android":"levelo://app?vid=2a98ca2a-1586-4c7d-89d0-44b5c21dd7e0","ios":"levelo://app?vid=2a98ca2a-1586-4c7d-89d0-44b5c21dd7e0"},"vehicle_type_id":"4","last_reported":1731265660,"current_range_meters":28000,"station_id":"ce4bha12rcd13ifvqee0","pricing_plan_id":"cebpf4jnsgd1na2vs0mg"},{"bike_id":"5aed7472-4e88-4a6d-bcb7-8afa950d7ba4","system_id":"levelo_inurba_marseille","lat":43.2903,"lon":5.37948,"is_reserved":false,"is_disabled":false,"rental_uris":{"android":"levelo://app?vid=5aed7472-4e88-4a6d-bcb7-8afa950d7ba4","ios":"levelo://app?vid=5aed7472-4e88-4a6d-bcb7-8afa950d7ba4"},"vehicle_type_id":"4","last_reported":1731265660,"current_range_meters":2000,"station_id":"ce4bh5p2rcd13ifvqe4g","pricing_plan_id":"cebpf4jnsgd1na2vs0mg"},{"bike_id":"baac3be3-010c-4ab7-b814-2af962c842f8","system_id":"levelo_inurba_marseille","lat":43.28366,"lon":5.37523,"is_reserved":false,"is_disabled":false,"rental_uris":{"android":"levelo://app?vid=baac3be3-010c-4ab7-b814-2af962c842f8","ios":"levelo://app?vid=baac3be3-010c-4ab7-b814-2af962c842f8"},"vehicle_type_id":"4","last_reported":1731265660,"current_range_meters":25200,"station_id":"ce4bh412rcd13ifvqds0","pricing_plan_id":"cebpf4jnsgd1na2vs0mg"},{"bike_id":"c83aa4bc-1bc7-4d74-ba2b-f5100b85b71f","system_id":"levelo_inurba_marseille","lat":43.31362,"lon":5.38488,"is_reserved":false,"is_disabled":false,"rental_uris":{"android":"levelo://app?vid=c83aa4bc-1bc7-4d74-ba2b-f5100b85b71f","ios":"levelo://app?vid=c83aa4bc-1bc7-4d74-ba2b-f5100b85b71f"},"vehicle_type_id":"4","last_reported":1731265660,"current_range_meters":4000,"station_id":"ce4bgt92rcd13ifvqcf0","pricing_plan_id":"cebpf4jnsgd1na2vs0mg"},{"bike_id":"969227a2-98bf-4ab5-b6d3-e479d8b3607b","system_id":"levelo_inurba_marseille","lat":43.31537,"lon":5.38033,"is_reserved":false,"is_disabled":false,"rental_uris":{"android":"levelo://app?vid=969227a2-98bf-4ab5-b6d3-e479d8b3607b","ios":"levelo://app?vid=969227a2-98bf-4ab5-b6d3-e479d8b3607b"},"vehicle_type_id":"4","last_reported":1731265660,"current_range_meters":26000,"station_id":"ce4bhsp2rcd13ifvqi50","pricing_plan_id":"cebpf4jnsgd1na2vs0mg"},{"bike_id":"f5e9e76c-ad08-4e36-8178-447f69eceab5","system_id":"levelo_inurba_marseille","lat":43.241524,"lon":5.378858,"is_reserved":false,"is_disabled":false,"rental_uris":{"android":"levelo://app?vid=f5e9e76c-ad08-4e36-8178-447f69eceab5","ios":"levelo://app?vid=f5e9e76c-ad08-4e36-8178-447f69eceab5"},"vehicle_type_id":"4","last_reported":1731265660,"current_range_meters":13600,"station_id":"ce4bhnp2rcd13ifvqgvg","pricing_plan_id":"cebpf4jnsgd1na2vs0mg"},{"bike_id":"8e7319a1-7436-4ed3-8ddb-97962e086d56","system_id":"levelo_inurba_marseille","lat":43.27496,"lon":5.42456,"is_reserved":false,"is_disabled":false,"rental_uris":{"android":"levelo://app?vid=8e7319a1-7436-4ed3-8ddb-97962e086d56","ios":"levelo://app?vid=8e7319a1-7436-4ed3-8ddb-97962e086d56"},"vehicle_type_id":"4","last_reported":1731265660,"current_range_meters":27600,"station_id":"ce4bhn92rcd13ifvqgrg","pricing_plan_id":"cebpf4jnsgd1na2vs0mg"},{"bike_id":"7807d359-c1f5-45b8-95e2-7bb8331f615c","system_id":"levelo_inurba_marseille","lat":43.27373,"lon":5.36251,"is_reserved":false,"is_disabled":false,"rental_uris":{"android":"levelo://app?vid=7807d359-c1f5-45b8-95e2-7bb8331f615c","ios":"levelo://app?vid=7807d359-c1f5-45b8-95e2-7bb8331f615c"},"vehicle_type_id":"4","last_reported":1731265660,"current_range_meters":12400,"station_id":"ce4bhbh2rcd13ifvqeo0","pricing_plan_id":"cebpf4jnsgd1na2vs0mg"},{"bike_id":"6cde4c04-b0af-4388-b53d-81ed2ec25717","system_id":"levelo_inurba_marseille","lat":43.31773,"lon":5.39028,"is_reserved":false,"is_disabled":false,"rental_uris":{"android":"levelo://app?vid=6cde4c04-b0af-4388-b53d-81ed2ec25717","ios":"levelo://app?vid=6cde4c04-b0af-4388-b53d-81ed2ec25717"},"vehicle_type_id":"4","last_reported":1731265660,"current_range_meters":38800,"station_id":"ce4bhqp2rcd13ifvqhng","pricing_plan_id":"cebpf4jnsgd1na2vs0mg"},{"bike_id":"8bc1e43e-b37b-49c8-8367-5379902b4936","system_id":"levelo_inurba_marseille","lat":43.30918,"lon":5.40159,"is_reserved":false,"is_disabled":false,"rental_uris":{"android":"levelo://app?vid=8bc1e43e-b37b-49c8-8367-5379902b4936","ios":"levelo://app?vid=8bc1e43e-b37b-49c8-8367-5379902b4936"},"vehicle_type_id":"4","last_reported":1731265660,"current_range_meters":38800,"station_id":"ce4bgvp2rcd13ifvqct0","pricing_plan_id":"cebpf4jnsgd1na2vs0mg"},{"bike_id":"7c59c113-339d-4f9b-b12b-18190bdaf895","system_id":"levelo_inurba_marseille","lat":43.25088,"lon":5.39517,"is_reserved":false,"is_disabled":false,"rental_uris":{"android":"levelo://app?vid=7c59c113-339d-4f9b-b12b-18190bdaf895","ios":"levelo://app?vid=7c59c113-339d-4f9b-b12b-18190bdaf895"},"vehicle_type_id":"4","last_reported":1731265660,"current_range_meters":38800,"station_id":"ce4bhm12rcd13ifvqgkg","pricing_plan_id":"cebpf4jnsgd1na2vs0mg"},{"bike_id":"913bffb5-44cb-46ba-9be1-7fc7556fb449","system_id":"levelo_inurba_marseille","lat":43.29252,"lon":5.3844,"is_reserved":false,"is_disabled":false,"rental_uris":{"android":"levelo://app?vid=913bffb5-44cb-46ba-9be1-7fc7556fb449","ios":"levelo://app?vid=913bffb5-44cb-46ba-9be1-7fc7556fb449"},"vehicle_type_id":"4","last_reported":1731265660,"current_range_meters":6800,"station_id":"ce4bh692rcd13ifvqea0","pricing_plan_id":"cebpf4jnsgd1na2vs0mg"},{"bike_id":"4fa1528e-18e5-4186-969d-418c95383671","system_id":"levelo_inurba_marseille","lat":43.26057,"lon":5.39395,"is_reserved":false,"is_disabled":false,"rental_uris":{"android":"levelo://app?vid=4fa1528e-18e5-4186-969d-418c95383671","ios":"levelo://app?vid=4fa1528e-18e5-4186-969d-418c95383671"},"vehicle_type_id":"4","last_reported":1731265660,"current_range_meters":28800,"station_id":"ce4bhh92rcd13ifvqfj0","pricing_plan_id":"cebpf4jnsgd1na2vs0mg"},{"bike_id":"3d7d5d6d-c6a7-4c5e-94fd-d628aecdce64","system_id":"levelo_inurba_marseille","lat":43.3048,"lon":5.3663,"is_reserved":false,"is_disabled":false,"rental_uris":{"android":"levelo://app?vid=3d7d5d6d-c6a7-4c5e-94fd-d628aecdce64","ios":"levelo://app?vid=3d7d5d6d-c6a7-4c5e-94fd-d628aecdce64"},"vehicle_type_id":"4","last_reported":1731265660,"current_range_meters":16000,"station_id":"","pricing_plan_id":"cebpf4jnsgd1na2vs0mg"},{"bike_id":"2d1966bf-08bc-47e0-b62e-b65e98271956","system_id":"levelo_inurba_marseille","lat":43.291656,"lon":5.371645,"is_reserved":false,"is_disabled":false,"rental_uris":{"android":"levelo://app?vid=2d1966bf-08bc-47e0-b62e-b65e98271956","ios":"levelo://app?vid=2d1966bf-08bc-47e0-b62e-b65e98271956"},"vehicle_type_id":"4","last_reported":1731265660,"current_range_meters":9200,"station_id":"ce4bha92rcd13ifvqeh0","pricing_plan_id":"cebpf4jnsgd1na2vs0mg"},{"bike_id":"3c236245-c89f-47ba-9523-4f57bb7eb0c2","system_id":"levelo_inurba_marseille","lat":43.30086,"lon":5.39069,"is_reserved":false,"is_disabled":false,"rental_uris":{"android":"levelo://app?vid=3c236245-c89f-47ba-9523-4f57bb7eb0c2","ios":"levelo://app?vid=3c236245-c89f-47ba-9523-4f57bb7eb0c2"},"vehicle_type_id":"4","last_reported":1731265660,"current_range_meters":38000,"station_id":"ce4bh192rcd13ifvqdb0","pricing_plan_id":"cebpf4jnsgd1na2vs0mg"},{"bike_id":"bcead2eb-afdc-4a8c-b038-1141722e00a5","system_id":"levelo_inurba_marseille","lat":43.28611,"lon":5.37062,"is_reserved":false,"is_disabled":false,"rental_uris":{"android":"levelo://app?vid=bcead2eb-afdc-4a8c-b038-1141722e00a5","ios":"levelo://app?vid=bcead2eb-afdc-4a8c-b038-1141722e00a5"},"vehicle_type_id":"4","last_reported":1731265660,"current_range_meters":28000,"station_id":"ce4bht12rcd13ifvqi60","pricing_plan_id":"cebpf4jnsgd1na2vs0mg"},{"bike_id":"ae257482-5e31-4f4a-a04a-e57f03e6f16c","system_id":"levelo_inurba_marseille","lat":43.30904,"lon":5.36846,"is_reserved":false,"is_disabled":false,"rental_uris":{"android":"levelo://app?vid=ae257482-5e31-4f4a-a04a-e57f03e6f16c","ios":"levelo://app?vid=ae257482-5e31-4f4a-a04a-e57f03e6f16c"},"vehicle_type_id":"4","last_reported":1731265660,"current_range_meters":29600,"station_id":"ce4bgn92rcd13ifvqbvg","pricing_plan_id":"cebpf4jnsgd1na2vs0mg"},{"bike_id":"4bd615ea-f313-4849-9150-d82265fb6078","system_id":"levelo_inurba_marseille","lat":43.26506,"lon":5.3955,"is_reserved":false,"is_disabled":false,"rental_uris":{"android":"levelo://app?vid=4bd615ea-f313-4849-9150-d82265fb6078","ios":"levelo://app?vid=4bd615ea-f313-4849-9150-d82265fb6078"},"vehicle_type_id":"4","last_reported":1731265660,"current_range_meters":31200,"station_id":"ce4bhi12rcd13ifvqfq0","pricing_plan_id":"cebpf4jnsgd1na2vs0mg"},{"bike_id":"9dca3e4b-9ae6-4a55-a1cc-a89aaf51ddca","system_id":"levelo_inurba_marseille","lat":43.29322,"lon":5.37177,"is_reserved":false,"is_disabled":false,"rental_uris":{"android":"levelo://app?vid=9dca3e4b-9ae6-4a55-a1cc-a89aaf51ddca","ios":"levelo://app?vid=9dca3e4b-9ae6-4a55-a1cc-a89aaf51ddca"},"vehicle_type_id":"4","last_reported":1731265660,"current_range_meters":16800,"station_id":"","pricing_plan_id":"cebpf4jnsgd1na2vs0mg"},{"bike_id":"7b1f3804-3d71-4f18-b551-4e13ca10cf74","system_id":"levelo_inurba_marseille","lat":43.30591,"lon":5.39352,"is_reserved":false,"is_disabled":false,"rental_uris":{"android":"levelo://app?vid=7b1f3804-3d71-4f18-b551-4e13ca10cf74","ios":"levelo://app?vid=7b1f3804-3d71-4f18-b551-4e13ca10cf74"},"vehicle_type_id":"4","last_reported":1731265660,"current_range_meters":37600,"station_id":"ce4bh0p2rcd13ifvqd80","pricing_plan_id":"cebpf4jnsgd1na2vs0mg"},{"bike_id":"7cf3860b-3664-431a-845b-80663d782f36","system_id":"levelo_inurba_marseille","lat":43.26567,"lon":5.39009,"is_reserved":false,"is_disabled":false,"rental_uris":{"android":"levelo://app?vid=7cf3860b-3664-431a-845b-80663d782f36","ios":"levelo://app?vid=7cf3860b-3664-431a-845b-80663d782f36"},"vehicle_type_id":"4","last_reported":1731265660,"current_range_meters":3600,"station_id":"ce4bhe12rcd13ifvqf30","pricing_plan_id":"cebpf4jnsgd1na2vs0mg"},{"bike_id":"6da06f85-e08e-4d62-b03d-37391773fb47","system_id":"levelo_inurba_marseille","lat":43.32495,"lon":5.3657,"is_reserved":false,"is_disabled":false,"rental_uris":{"android":"levelo://app?vid=6da06f85-e08e-4d62-b03d-37391773fb47","ios":"levelo://app?vid=6da06f85-e08e-4d62-b03d-37391773fb47"},"vehicle_type_id":"4","last_reported":1731265660,"current_range_meters":38800,"station_id":"ce4bhs12rcd13ifvqhvg","pricing_plan_id":"cebpf4jnsgd1na2vs0mg"},{"bike_id":"76cb7de1-c6cf-46f4-817f-a13daaf098d0","system_id":"levelo_inurba_marseille","lat":43.31536,"lon":5.38024,"is_reserved":false,"is_disabled":false,"rental_uris":{"android":"levelo://app?vid=76cb7de1-c6cf-46f4-817f-a13daaf098d0","ios":"levelo://app?vid=76cb7de1-c6cf-46f4-817f-a13daaf098d0"},"vehicle_type_id":"4","last_reported":1731265660,"current_range_meters":5600,"station_id":"ce4bhsp2rcd13ifvqi50","pricing_plan_id":"cebpf4jnsgd1na2vs0mg"},{"bike_id":"91736fbb-2c78-498d-b60d-c3c3487d9cde","system_id":"levelo_inurba_marseille","lat":43.29412,"lon":5.38613,"is_reserved":false,"is_disabled":false,"rental_uris":{"android":"levelo://app?vid=91736fbb-2c78-498d-b60d-c3c3487d9cde","ios":"levelo://app?vid=91736fbb-2c78-498d-b60d-c3c3487d9cde"},"vehicle_type_id":"4","last_reported":1731265660,"current_range_meters":26000,"station_id":"ce4bh2h2rcd13ifvqdh0","pricing_plan_id":"cebpf4jnsgd1na2vs0mg"},{"bike_id":"535ecf15-3e4b-4f2d-8ca1-b31fcfa8c6ea","system_id":"levelo_inurba_marseille","lat":43.297111,"lon":5.366039,"is_reserved":false,"is_disabled":false,"rental_uris":{"android":"levelo://app?vid=535ecf15-3e4b-4f2d-8ca1-b31fcfa8c6ea","ios":"levelo://app?vid=535ecf15-3e4b-4f2d-8ca1-b31fcfa8c6ea"},"vehicle_type_id":"4","last_reported":1731265660,"current_range_meters":37600,"station_id":"ce4bgn12rcd13ifvqbt0","pricing_plan_id":"cebpf4jnsgd1na2vs0mg"},{"bike_id":"88075d61-0c46-4225-abe7-7a35acaa77e8","system_id":"levelo_inurba_marseille","lat":43.28675,"lon":5.36357,"is_reserved":false,"is_disabled":false,"rental_uris":{"android":"levelo://app?vid=88075d61-0c46-4225-abe7-7a35acaa77e8","ios":"levelo://app?vid=88075d61-0c46-4225-abe7-7a35acaa77e8"},"vehicle_type_id":"4","last_reported":1731265660,"current_range_meters":38800,"station_id":"ce4bhah2rcd13ifvqej0","pricing_plan_id":"cebpf4jnsgd1na2vs0mg"},{"bike_id":"82938c90-1529-488c-85a3-bb2dd8260474","system_id":"levelo_inurba_marseille","lat":43.27567,"lon":5.38421,"is_reserved":false,"is_disabled":false,"rental_uris":{"android":"levelo://app?vid=82938c90-1529-488c-85a3-bb2dd8260474","ios":"levelo://app?vid=82938c90-1529-488c-85a3-bb2dd8260474"},"vehicle_type_id":"4","last_reported":1731265660,"current_range_meters":18000,"station_id":"ce4bhh92rcd13ifvqfi0","pricing_plan_id":"cebpf4jnsgd1na2vs0mg"},{"bike_id":"8eb53925-6257-42c9-8a0f-e7fa0497d215","system_id":"levelo_inurba_marseille","lat":43.29559,"lon":5.42286,"is_reserved":false,"is_disabled":false,"rental_uris":{"android":"levelo://app?vid=8eb53925-6257-42c9-8a0f-e7fa0497d215","ios":"levelo://app?vid=8eb53925-6257-42c9-8a0f-e7fa0497d215"},"vehicle_type_id":"4","last_reported":1731265660,"current_range_meters":38800,"station_id":"ce4bhph2rcd13ifvqhdg","pricing_plan_id":"cebpf4jnsgd1na2vs0mg"},{"bike_id":"97561af8-0629-4226-8299-61cbcbd98f9d","system_id":"levelo_inurba_marseille","lat":43.29428,"lon":5.38625,"is_reserved":false,"is_disabled":false,"rental_uris":{"android":"levelo://app?vid=97561af8-0629-4226-8299-61cbcbd98f9d","ios":"levelo://app?vid=97561af8-0629-4226-8299-61cbcbd98f9d"},"vehicle_type_id":"4","last_reported":1731265660,"current_range_meters":10800,"station_id":"ce4bh2h2rcd13ifvqdh0","pricing_plan_id":"cebpf4jnsgd1na2vs0mg"},{"bike_id":"58456880-108f-4854-bd37-9a9d96f58604","system_id":"levelo_inurba_marseille","lat":43.29538,"lon":5.38534,"is_reserved":false,"is_disabled":false,"rental_uris":{"android":"levelo://app?vid=58456880-108f-4854-bd37-9a9d96f58604","ios":"levelo://app?vid=58456880-108f-4854-bd37-9a9d96f58604"},"vehicle_type_id":"4","last_reported":1731265660,"current_range_meters":38400,"station_id":"ce4bgih2rcd13ifvqba0","pricing_plan_id":"cebpf4jnsgd1na2vs0mg"},{"bike_id":"3d14d1dd-1efc-41e8-aeac-d6a6a9141662","system_id":"levelo_inurba_marseille","lat":43.29282,"lon":5.40122,"is_reserved":false,"is_disabled":false,"rental_uris":{"android":"levelo://app?vid=3d14d1dd-1efc-41e8-aeac-d6a6a9141662","ios":"levelo://app?vid=3d14d1dd-1efc-41e8-aeac-d6a6a9141662"},"vehicle_type_id":"4","last_reported":1731265660,"current_range_meters":36400,"station_id":"ce4bh312rcd13ifvqdk0","pricing_plan_id":"cebpf4jnsgd1na2vs0mg"},{"bike_id":"e439dd18-489b-417d-8271-2a0e899a398d","system_id":"levelo_inurba_marseille","lat":43.25493,"lon":5.37649,"is_reserved":false,"is_disabled":false,"rental_uris":{"android":"levelo://app?vid=e439dd18-489b-417d-8271-2a0e899a398d","ios":"levelo://app?vid=e439dd18-489b-417d-8271-2a0e899a398d"},"vehicle_type_id":"4","last_reported":1731265660,"current_range_meters":38800,"station_id":"ce4bhh12rcd13ifvqff0","pricing_plan_id":"cebpf4jnsgd1na2vs0mg"},{"bike_id":"15126981-6d35-42cb-954b-f5f1f52e3d20","system_id":"levelo_inurba_marseille","lat":43.3019,"lon":5.38947,"is_reserved":false,"is_disabled":false,"rental_uris":{"android":"levelo://app?vid=15126981-6d35-42cb-954b-f5f1f52e3d20","ios":"levelo://app?vid=15126981-6d35-42cb-954b-f5f1f52e3d20"},"vehicle_type_id":"4","last_reported":1731265660,"current_range_meters":34800,"station_id":"","pricing_plan_id":"cebpf4jnsgd1na2vs0mg"},{"bike_id":"c860c5ae-d933-4471-b44d-395402b56a25","system_id":"levelo_inurba_marseille","lat":43.27432,"lon":5.39413,"is_reserved":false,"is_disabled":false,"rental_uris":{"android":"levelo://app?vid=c860c5ae-d933-4471-b44d-395402b56a25","ios":"levelo://app?vid=c860c5ae-d933-4471-b44d-395402b56a25"},"vehicle_type_id":"4","last_reported":1731265660,"current_range_meters":7200,"station_id":"ce4bhdp2rcd13ifvqf20","pricing_plan_id":"cebpf4jnsgd1na2vs0mg"},{"bike_id":"170f9e2d-c67b-40fd-932d-5dcf242be3f1","system_id":"levelo_inurba_marseille","lat":43.29528,"lon":5.38537,"is_reserved":false,"is_disabled":false,"rental_uris":{"android":"levelo://app?vid=170f9e2d-c67b-40fd-932d-5dcf242be3f1","ios":"levelo://app?vid=170f9e2d-c67b-40fd-932d-5dcf242be3f1"},"vehicle_type_id":"4","last_reported":1731265660,"current_range_meters":10000,"station_id":"ce4bgih2rcd13ifvqba0","pricing_plan_id":"cebpf4jnsgd1na2vs0mg"},{"bike_id":"9ab3b81e-4cd0-44e1-aa28-4461d425e0c0","system_id":"levelo_inurba_marseille","lat":43.32662,"lon":5.4099,"is_reserved":false,"is_disabled":false,"rental_uris":{"android":"levelo://app?vid=9ab3b81e-4cd0-44e1-aa28-4461d425e0c0","ios":"levelo://app?vid=9ab3b81e-4cd0-44e1-aa28-4461d425e0c0"},"vehicle_type_id":"4","last_reported":1731265660,"current_range_meters":36800,"station_id":"ce4bhpp2rcd13ifvqhgg","pricing_plan_id":"cebpf4jnsgd1na2vs0mg"},{"bike_id":"30de2e8a-2067-4723-b10c-0ae5e73636b6","system_id":"levelo_inurba_marseille","lat":43.29535,"lon":5.3854,"is_reserved":false,"is_disabled":false,"rental_uris":{"android":"levelo://app?vid=30de2e8a-2067-4723-b10c-0ae5e73636b6","ios":"levelo://app?vid=30de2e8a-2067-4723-b10c-0ae5e73636b6"},"vehicle_type_id":"4","last_reported":1731265660,"current_range_meters":36800,"station_id":"ce4bgih2rcd13ifvqba0","pricing_plan_id":"cebpf4jnsgd1na2vs0mg"},{"bike_id":"b72ca6e7-47e9-42be-9a97-b74e22acdc0e","system_id":"levelo_inurba_marseille","lat":43.32105,"lon":5.36768,"is_reserved":false,"is_disabled":false,"rental_uris":{"android":"levelo://app?vid=b72ca6e7-47e9-42be-9a97-b74e22acdc0e","ios":"levelo://app?vid=b72ca6e7-47e9-42be-9a97-b74e22acdc0e"},"vehicle_type_id":"4","last_reported":1731265660,"current_range_meters":36800,"station_id":"ce4bhrh2rcd13ifvqhug","pricing_plan_id":"cebpf4jnsgd1na2vs0mg"},{"bike_id":"11ae4ac9-ae47-453c-97af-378ed42a1ca7","system_id":"levelo_inurba_marseille","lat":43.29046,"lon":5.39962,"is_reserved":false,"is_disabled":false,"rental_uris":{"android":"levelo://app?vid=11ae4ac9-ae47-453c-97af-378ed42a1ca7","ios":"levelo://app?vid=11ae4ac9-ae47-453c-97af-378ed42a1ca7"},"vehicle_type_id":"4","last_reported":1731265660,"current_range_meters":24400,"station_id":"ce4bh392rcd13ifvqdm0","pricing_plan_id":"cebpf4jnsgd1na2vs0mg"},{"bike_id":"e2f03b55-9e5f-4517-b2d4-1c6bca62356b","system_id":"levelo_inurba_marseille","lat":43.264636,"lon":5.380511,"is_reserved":false,"is_disabled":false,"rental_uris":{"android":"levelo://app?vid=e2f03b55-9e5f-4517-b2d4-1c6bca62356b","ios":"levelo://app?vid=e2f03b55-9e5f-4517-b2d4-1c6bca62356b"},"vehicle_type_id":"4","last_reported":1731265660,"current_range_meters":33200,"station_id":"","pricing_plan_id":"cebpf4jnsgd1na2vs0mg"},{"bike_id":"3cb06d37-d171-46f7-b418-e8d09a4f4667","system_id":"levelo_inurba_marseille","lat":43.29273,"lon":5.38446,"is_reserved":false,"is_disabled":false,"rental_uris":{"android":"levelo://app?vid=3cb06d37-d171-46f7-b418-e8d09a4f4667","ios":"levelo://app?vid=3cb06d37-d171-46f7-b418-e8d09a4f4667"},"vehicle_type_id":"4","last_reported":1731265660,"current_range_meters":6400,"station_id":"ce4bh692rcd13ifvqea0","pricing_plan_id":"cebpf4jnsgd1na2vs0mg"},{"bike_id":"c0adf7cc-ad53-4b30-988f-c0e3f3eb38b8","system_id":"levelo_inurba_marseille","lat":43.2811,"lon":5.3784,"is_reserved":false,"is_disabled":false,"rental_uris":{"android":"levelo://app?vid=c0adf7cc-ad53-4b30-988f-c0e3f3eb38b8","ios":"levelo://app?vid=c0adf7cc-ad53-4b30-988f-c0e3f3eb38b8"},"vehicle_type_id":"4","last_reported":1731265660,"current_range_meters":38400,"station_id":"ce4bha12rcd13ifvqee0","pricing_plan_id":"cebpf4jnsgd1na2vs0mg"},{"bike_id":"de2f56b3-bafe-46ef-97b3-11a4ba035f02","system_id":"levelo_inurba_marseille","lat":43.29266,"lon":5.38434,"is_reserved":false,"is_disabled":false,"rental_uris":{"android":"levelo://app?vid=de2f56b3-bafe-46ef-97b3-11a4ba035f02","ios":"levelo://app?vid=de2f56b3-bafe-46ef-97b3-11a4ba035f02"},"vehicle_type_id":"4","last_reported":1731265660,"current_range_meters":22000,"station_id":"ce4bh692rcd13ifvqea0","pricing_plan_id":"cebpf4jnsgd1na2vs0mg"},{"bike_id":"db2e6139-0551-4de2-8e50-fffa4eceeafd","system_id":"levelo_inurba_marseille","lat":43.29274,"lon":5.36841,"is_reserved":false,"is_disabled":false,"rental_uris":{"android":"levelo://app?vid=db2e6139-0551-4de2-8e50-fffa4eceeafd","ios":"levelo://app?vid=db2e6139-0551-4de2-8e50-fffa4eceeafd"},"vehicle_type_id":"4","last_reported":1731265660,"current_range_meters":27600,"station_id":"ce4bhbp2rcd13ifvqesg","pricing_plan_id":"cebpf4jnsgd1na2vs0mg"},{"bike_id":"a10b64f3-c810-4e9b-b154-7012d45ed85e","system_id":"levelo_inurba_marseille","lat":43.30815,"lon":5.3815,"is_reserved":false,"is_disabled":false,"rental_uris":{"android":"levelo://app?vid=a10b64f3-c810-4e9b-b154-7012d45ed85e","ios":"levelo://app?vid=a10b64f3-c810-4e9b-b154-7012d45ed85e"},"vehicle_type_id":"4","last_reported":1731265660,"current_range_meters":31200,"station_id":"ce4bgt12rcd13ifvqce0","pricing_plan_id":"cebpf4jnsgd1na2vs0mg"},{"bike_id":"617a1f20-32d0-4cf6-8c7e-b481724faa61","system_id":"levelo_inurba_marseille","lat":43.29617,"lon":5.37716,"is_reserved":false,"is_disabled":false,"rental_uris":{"android":"levelo://app?vid=617a1f20-32d0-4cf6-8c7e-b481724faa61","ios":"levelo://app?vid=617a1f20-32d0-4cf6-8c7e-b481724faa61"},"vehicle_type_id":"4","last_reported":1731265660,"current_range_meters":37600,"station_id":"ce4bgi92rcd13ifvqb90","pricing_plan_id":"cebpf4jnsgd1na2vs0mg"},{"bike_id":"52a71ef5-8ef7-4a13-9edb-b931936b8cfb","system_id":"levelo_inurba_marseille","lat":43.33731,"lon":5.39189,"is_reserved":false,"is_disabled":false,"rental_uris":{"android":"levelo://app?vid=52a71ef5-8ef7-4a13-9edb-b931936b8cfb","ios":"levelo://app?vid=52a71ef5-8ef7-4a13-9edb-b931936b8cfb"},"vehicle_type_id":"4","last_reported":1731265660,"current_range_meters":34800,"station_id":"ce4bhr92rcd13ifvqhsg","pricing_plan_id":"cebpf4jnsgd1na2vs0mg"},{"bike_id":"f23d7e81-bd37-43fe-a9a9-a09f7a4dfad6","system_id":"levelo_inurba_marseille","lat":43.300907,"lon":5.390787,"is_reserved":false,"is_disabled":false,"rental_uris":{"android":"levelo://app?vid=f23d7e81-bd37-43fe-a9a9-a09f7a4dfad6","ios":"levelo://app?vid=f23d7e81-bd37-43fe-a9a9-a09f7a4dfad6"},"vehicle_type_id":"4","last_reported":1731265660,"current_range_meters":17600,"station_id":"ce4bh192rcd13ifvqdb0","pricing_plan_id":"cebpf4jnsgd1na2vs0mg"},{"bike_id":"ad086397-534f-4a0c-bc69-75a241990385","system_id":"levelo_inurba_marseille","lat":43.29162,"lon":5.37156,"is_reserved":false,"is_disabled":false,"rental_uris":{"android":"levelo://app?vid=ad086397-534f-4a0c-bc69-75a241990385","ios":"levelo://app?vid=ad086397-534f-4a0c-bc69-75a241990385"},"vehicle_type_id":"4","last_reported":1731265660,"current_range_meters":27200,"station_id":"ce4bha92rcd13ifvqeh0","pricing_plan_id":"cebpf4jnsgd1na2vs0mg"},{"bike_id":"10356833-33b6-41fe-9ef0-40c7be270586","system_id":"levelo_inurba_marseille","lat":43.29528,"lon":5.38541,"is_reserved":false,"is_disabled":false,"rental_uris":{"android":"levelo://app?vid=10356833-33b6-41fe-9ef0-40c7be270586","ios":"levelo://app?vid=10356833-33b6-41fe-9ef0-40c7be270586"},"vehicle_type_id":"4","last_reported":1731265660,"current_range_meters":30400,"station_id":"ce4bgih2rcd13ifvqba0","pricing_plan_id":"cebpf4jnsgd1na2vs0mg"},{"bike_id":"f3feeedc-e466-4d8f-97bc-a9d7610705e3","system_id":"levelo_inurba_marseille","lat":43.29601,"lon":5.38101,"is_reserved":false,"is_disabled":false,"rental_uris":{"android":"levelo://app?vid=f3feeedc-e466-4d8f-97bc-a9d7610705e3","ios":"levelo://app?vid=f3feeedc-e466-4d8f-97bc-a9d7610705e3"},"vehicle_type_id":"4","last_reported":1731265660,"current_range_meters":3600,"station_id":"ce4bgl12rcd13ifvqbo0","pricing_plan_id":"cebpf4jnsgd1na2vs0mg"},{"bike_id":"cf678ceb-3446-4937-b2e7-921edbcce60b","system_id":"levelo_inurba_marseille","lat":43.32292,"lon":5.38266,"is_reserved":false,"is_disabled":false,"rental_uris":{"android":"levelo://app?vid=cf678ceb-3446-4937-b2e7-921edbcce60b","ios":"levelo://app?vid=cf678ceb-3446-4937-b2e7-921edbcce60b"},"vehicle_type_id":"4","last_reported":1731265660,"current_range_meters":34000,"station_id":"ce4bhr12rcd13ifvqhqg","pricing_plan_id":"cebpf4jnsgd1na2vs0mg"},{"bike_id":"2dcca584-6c89-4188-9dfa-2521a0bf4397","system_id":"levelo_inurba_marseille","lat":43.2738,"lon":5.3626,"is_reserved":false,"is_disabled":false,"rental_uris":{"android":"levelo://app?vid=2dcca584-6c89-4188-9dfa-2521a0bf4397","ios":"levelo://app?vid=2dcca584-6c89-4188-9dfa-2521a0bf4397"},"vehicle_type_id":"4","last_reported":1731265660,"current_range_meters":28000,"station_id":"ce4bhbh2rcd13ifvqeo0","pricing_plan_id":"cebpf4jnsgd1na2vs0mg"},{"bike_id":"b5492479-7221-42d9-80f4-a291387641ff","system_id":"levelo_inurba_marseille","lat":43.29026,"lon":5.38135,"is_reserved":false,"is_disabled":false,"rental_uris":{"android":"levelo://app?vid=b5492479-7221-42d9-80f4-a291387641ff","ios":"levelo://app?vid=b5492479-7221-42d9-80f4-a291387641ff"},"vehicle_type_id":"4","last_reported":1731265660,"current_range_meters":4000,"station_id":"ce4bh4p2rcd13ifvqe1g","pricing_plan_id":"cebpf4jnsgd1na2vs0mg"},{"bike_id":"11c45fd9-3e93-4785-983d-bba9dabc1443","system_id":"levelo_inurba_marseille","lat":43.28368,"lon":5.38625,"is_reserved":false,"is_disabled":false,"rental_uris":{"android":"levelo://app?vid=11c45fd9-3e93-4785-983d-bba9dabc1443","ios":"levelo://app?vid=11c45fd9-3e93-4785-983d-bba9dabc1443"},"vehicle_type_id":"4","last_reported":1731265660,"current_range_meters":13600,"station_id":"ce4bh492rcd13ifvqdvg","pricing_plan_id":"cebpf4jnsgd1na2vs0mg"},{"bike_id":"cec9e346-1006-4302-93e0-b77ae3bfc846","system_id":"levelo_inurba_marseille","lat":43.31078,"lon":5.38351,"is_reserved":false,"is_disabled":false,"rental_uris":{"android":"levelo://app?vid=cec9e346-1006-4302-93e0-b77ae3bfc846","ios":"levelo://app?vid=cec9e346-1006-4302-93e0-b77ae3bfc846"},"vehicle_type_id":"4","last_reported":1731265660,"current_range_meters":6000,"station_id":"ce4bgv92rcd13ifvqcr0","pricing_plan_id":"cebpf4jnsgd1na2vs0mg"},{"bike_id":"f0c09653-5fa9-48e7-865b-cc4f9a7b4b43","system_id":"levelo_inurba_marseille","lat":43.25826,"lon":5.39434,"is_reserved":false,"is_disabled":false,"rental_uris":{"android":"levelo://app?vid=f0c09653-5fa9-48e7-865b-cc4f9a7b4b43","ios":"levelo://app?vid=f0c09653-5fa9-48e7-865b-cc4f9a7b4b43"},"vehicle_type_id":"4","last_reported":1731265660,"current_range_meters":16800,"station_id":"ce4bhip2rcd13ifvqft0","pricing_plan_id":"cebpf4jnsgd1na2vs0mg"},{"bike_id":"d476e35b-2a11-4716-b42a-b7a307257e73","system_id":"levelo_inurba_marseille","lat":43.29139,"lon":5.38487,"is_reserved":false,"is_disabled":false,"rental_uris":{"android":"levelo://app?vid=d476e35b-2a11-4716-b42a-b7a307257e73","ios":"levelo://app?vid=d476e35b-2a11-4716-b42a-b7a307257e73"},"vehicle_type_id":"4","last_reported":1731265660,"current_range_meters":34000,"station_id":"ce4bh692rcd13ifvqea0","pricing_plan_id":"cebpf4jnsgd1na2vs0mg"},{"bike_id":"28db3d63-a10d-4c85-a672-0cdaf8b09cbf","system_id":"levelo_inurba_marseille","lat":43.30594,"lon":5.37217,"is_reserved":false,"is_disabled":false,"rental_uris":{"android":"levelo://app?vid=28db3d63-a10d-4c85-a672-0cdaf8b09cbf","ios":"levelo://app?vid=28db3d63-a10d-4c85-a672-0cdaf8b09cbf"},"vehicle_type_id":"4","last_reported":1731265660,"current_range_meters":38800,"station_id":"ce4bgqh2rcd13ifvqc4g","pricing_plan_id":"cebpf4jnsgd1na2vs0mg"},{"bike_id":"16edd5e5-0497-4831-bb6b-d18eb7e92293","system_id":"levelo_inurba_marseille","lat":43.24812,"lon":5.37457,"is_reserved":false,"is_disabled":false,"rental_uris":{"android":"levelo://app?vid=16edd5e5-0497-4831-bb6b-d18eb7e92293","ios":"levelo://app?vid=16edd5e5-0497-4831-bb6b-d18eb7e92293"},"vehicle_type_id":"4","last_reported":1731265660,"current_range_meters":28400,"station_id":"ce4bhgh2rcd13ifvqfb0","pricing_plan_id":"cebpf4jnsgd1na2vs0mg"},{"bike_id":"feb86f62-2c80-4064-8e38-33c5534046da","system_id":"levelo_inurba_marseille","lat":43.28195,"lon":5.39875,"is_reserved":false,"is_disabled":false,"rental_uris":{"android":"levelo://app?vid=feb86f62-2c80-4064-8e38-33c5534046da","ios":"levelo://app?vid=feb86f62-2c80-4064-8e38-33c5534046da"},"vehicle_type_id":"4","last_reported":1731265660,"current_range_meters":20400,"station_id":"","pricing_plan_id":"cebpf4jnsgd1na2vs0mg"},{"bike_id":"6079ea05-1be4-4b51-98f1-6008d13d6046","system_id":"levelo_inurba_marseille","lat":43.28489,"lon":5.38568,"is_reserved":false,"is_disabled":false,"rental_uris":{"android":"levelo://app?vid=6079ea05-1be4-4b51-98f1-6008d13d6046","ios":"levelo://app?vid=6079ea05-1be4-4b51-98f1-6008d13d6046"},"vehicle_type_id":"4","last_reported":1731265660,"current_range_meters":38800,"station_id":"ce4bh8p2rcd13ifvqeb0","pricing_plan_id":"cebpf4jnsgd1na2vs0mg"},{"bike_id":"a2e0dbd8-6bb6-4f58-81e6-a5bb2ebfdca4","system_id":"levelo_inurba_marseille","lat":43.23198,"lon":5.35559,"is_reserved":false,"is_disabled":false,"rental_uris":{"android":"levelo://app?vid=a2e0dbd8-6bb6-4f58-81e6-a5bb2ebfdca4","ios":"levelo://app?vid=a2e0dbd8-6bb6-4f58-81e6-a5bb2ebfdca4"},"vehicle_type_id":"4","last_reported":1731265660,"current_range_meters":38800,"station_id":"ce4bhu92rcd13ifvqi70","pricing_plan_id":"cebpf4jnsgd1na2vs0mg"},{"bike_id":"628cf893-ea0c-4452-aa25-9db7299d1c6d","system_id":"levelo_inurba_marseille","lat":43.26673,"lon":5.38255,"is_reserved":false,"is_disabled":false,"rental_uris":{"android":"levelo://app?vid=628cf893-ea0c-4452-aa25-9db7299d1c6d","ios":"levelo://app?vid=628cf893-ea0c-4452-aa25-9db7299d1c6d"},"vehicle_type_id":"4","last_reported":1731265660,"current_range_meters":31200,"station_id":"","pricing_plan_id":"cebpf4jnsgd1na2vs0mg"},{"bike_id":"483640a6-2aae-4d79-98c2-cb94c84df7be","system_id":"levelo_inurba_marseille","lat":43.28936,"lon":5.3639,"is_reserved":false,"is_disabled":false,"rental_uris":{"android":"levelo://app?vid=483640a6-2aae-4d79-98c2-cb94c84df7be","ios":"levelo://app?vid=483640a6-2aae-4d79-98c2-cb94c84df7be"},"vehicle_type_id":"4","last_reported":1731265660,"current_range_meters":38000,"station_id":"ce4bhc92rcd13ifvqetg","pricing_plan_id":"cebpf4jnsgd1na2vs0mg"},{"bike_id":"792a3234-7943-43e5-8b51-9fa2b9be4d1d","system_id":"levelo_inurba_marseille","lat":43.30602,"lon":5.37237,"is_reserved":false,"is_disabled":false,"rental_uris":{"android":"levelo://app?vid=792a3234-7943-43e5-8b51-9fa2b9be4d1d","ios":"levelo://app?vid=792a3234-7943-43e5-8b51-9fa2b9be4d1d"},"vehicle_type_id":"4","last_reported":1731265660,"current_range_meters":38800,"station_id":"ce4bgqh2rcd13ifvqc4g","pricing_plan_id":"cebpf4jnsgd1na2vs0mg"},{"bike_id":"40822e85-2ee2-4002-a4ec-1277fa6e2a47","system_id":"levelo_inurba_marseille","lat":43.28507,"lon":5.38573,"is_reserved":false,"is_disabled":false,"rental_uris":{"android":"levelo://app?vid=40822e85-2ee2-4002-a4ec-1277fa6e2a47","ios":"levelo://app?vid=40822e85-2ee2-4002-a4ec-1277fa6e2a47"},"vehicle_type_id":"4","last_reported":1731265660,"current_range_meters":24000,"station_id":"ce4bh8p2rcd13ifvqeb0","pricing_plan_id":"cebpf4jnsgd1na2vs0mg"},{"bike_id":"4cfabb26-d8be-4c68-822d-03831482ef93","system_id":"levelo_inurba_marseille","lat":43.24807,"lon":5.37456,"is_reserved":false,"is_disabled":false,"rental_uris":{"android":"levelo://app?vid=4cfabb26-d8be-4c68-822d-03831482ef93","ios":"levelo://app?vid=4cfabb26-d8be-4c68-822d-03831482ef93"},"vehicle_type_id":"4","last_reported":1731265660,"current_range_meters":38800,"station_id":"ce4bhgh2rcd13ifvqfb0","pricing_plan_id":"cebpf4jnsgd1na2vs0mg"},{"bike_id":"3ec2e900-60a0-4af9-bee7-e8dd442c7f6c","system_id":"levelo_inurba_marseille","lat":43.284576,"lon":5.358939,"is_reserved":false,"is_disabled":false,"rental_uris":{"android":"levelo://app?vid=3ec2e900-60a0-4af9-bee7-e8dd442c7f6c","ios":"levelo://app?vid=3ec2e900-60a0-4af9-bee7-e8dd442c7f6c"},"vehicle_type_id":"4","last_reported":1731265660,"current_range_meters":33200,"station_id":"ce4bhah2rcd13ifvqei0","pricing_plan_id":"cebpf4jnsgd1na2vs0mg"},{"bike_id":"5c91adf0-ee2c-4ae6-8882-91ad0f428980","system_id":"levelo_inurba_marseille","lat":43.30878,"lon":5.39634,"is_reserved":false,"is_disabled":false,"rental_uris":{"android":"levelo://app?vid=5c91adf0-ee2c-4ae6-8882-91ad0f428980","ios":"levelo://app?vid=5c91adf0-ee2c-4ae6-8882-91ad0f428980"},"vehicle_type_id":"4","last_reported":1731265660,"current_range_meters":25200,"station_id":"ce4bh012rcd13ifvqcv0","pricing_plan_id":"cebpf4jnsgd1na2vs0mg"},{"bike_id":"7ca74166-6ab5-495b-9696-584d02466e1d","system_id":"levelo_inurba_marseille","lat":43.33606,"lon":5.41038,"is_reserved":false,"is_disabled":false,"rental_uris":{"android":"levelo://app?vid=7ca74166-6ab5-495b-9696-584d02466e1d","ios":"levelo://app?vid=7ca74166-6ab5-495b-9696-584d02466e1d"},"vehicle_type_id":"4","last_reported":1731265660,"current_range_meters":9600,"station_id":"ce4bhqh2rcd13ifvqhmg","pricing_plan_id":"cebpf4jnsgd1na2vs0mg"},{"bike_id":"8acdc592-cfd9-403f-b8c7-01eaac0cc66e","system_id":"levelo_inurba_marseille","lat":43.29422,"lon":5.38624,"is_reserved":false,"is_disabled":false,"rental_uris":{"android":"levelo://app?vid=8acdc592-cfd9-403f-b8c7-01eaac0cc66e","ios":"levelo://app?vid=8acdc592-cfd9-403f-b8c7-01eaac0cc66e"},"vehicle_type_id":"4","last_reported":1731265660,"current_range_meters":2000,"station_id":"ce4bh2h2rcd13ifvqdh0","pricing_plan_id":"cebpf4jnsgd1na2vs0mg"},{"bike_id":"6cd76d7f-c22f-471e-9db9-af8a63aabf53","system_id":"levelo_inurba_marseille","lat":43.27074,"lon":5.42275,"is_reserved":false,"is_disabled":false,"rental_uris":{"android":"levelo://app?vid=6cd76d7f-c22f-471e-9db9-af8a63aabf53","ios":"levelo://app?vid=6cd76d7f-c22f-471e-9db9-af8a63aabf53"},"vehicle_type_id":"4","last_reported":1731265660,"current_range_meters":24400,"station_id":"ce4bhk92rcd13ifvqgb0","pricing_plan_id":"cebpf4jnsgd1na2vs0mg"},{"bike_id":"dc14e9f5-5034-46fc-ba4c-a60506ede142","system_id":"levelo_inurba_marseille","lat":43.31224,"lon":5.36859,"is_reserved":false,"is_disabled":false,"rental_uris":{"android":"levelo://app?vid=dc14e9f5-5034-46fc-ba4c-a60506ede142","ios":"levelo://app?vid=dc14e9f5-5034-46fc-ba4c-a60506ede142"},"vehicle_type_id":"4","last_reported":1731265660,"current_range_meters":3200,"station_id":"ce4bgl92rcd13ifvqbq0","pricing_plan_id":"cebpf4jnsgd1na2vs0mg"},{"bike_id":"b16943e1-6e4b-4767-8789-7da828786277","system_id":"levelo_inurba_marseille","lat":43.34188,"lon":5.38609,"is_reserved":false,"is_disabled":false,"rental_uris":{"android":"levelo://app?vid=b16943e1-6e4b-4767-8789-7da828786277","ios":"levelo://app?vid=b16943e1-6e4b-4767-8789-7da828786277"},"vehicle_type_id":"4","last_reported":1731265660,"current_range_meters":18000,"station_id":"","pricing_plan_id":"cebpf4jnsgd1na2vs0mg"},{"bike_id":"cddcfc8b-25a7-430a-9f6e-4a4467bb746e","system_id":"levelo_inurba_marseille","lat":43.30297,"lon":5.39219,"is_reserved":false,"is_disabled":false,"rental_uris":{"android":"levelo://app?vid=cddcfc8b-25a7-430a-9f6e-4a4467bb746e","ios":"levelo://app?vid=cddcfc8b-25a7-430a-9f6e-4a4467bb746e"},"vehicle_type_id":"4","last_reported":1731265660,"current_range_meters":31200,"station_id":"ce4bgkh2rcd13ifvqbk0","pricing_plan_id":"cebpf4jnsgd1na2vs0mg"},{"bike_id":"6c9f83bf-72df-4c5a-90bd-be9e94bdaf64","system_id":"levelo_inurba_marseille","lat":43.29261,"lon":5.40909,"is_reserved":false,"is_disabled":false,"rental_uris":{"android":"levelo://app?vid=6c9f83bf-72df-4c5a-90bd-be9e94bdaf64","ios":"levelo://app?vid=6c9f83bf-72df-4c5a-90bd-be9e94bdaf64"},"vehicle_type_id":"4","last_reported":1731265660,"current_range_meters":20400,"station_id":"ce4bh192rcd13ifvqdc0","pricing_plan_id":"cebpf4jnsgd1na2vs0mg"},{"bike_id":"0acccacb-5c5e-4293-af73-a3ca4b76801a","system_id":"levelo_inurba_marseille","lat":43.27953,"lon":5.41045,"is_reserved":false,"is_disabled":false,"rental_uris":{"android":"levelo://app?vid=0acccacb-5c5e-4293-af73-a3ca4b76801a","ios":"levelo://app?vid=0acccacb-5c5e-4293-af73-a3ca4b76801a"},"vehicle_type_id":"4","last_reported":1731265660,"current_range_meters":11600,"station_id":"ce4bhnp2rcd13ifvqh0g","pricing_plan_id":"cebpf4jnsgd1na2vs0mg"},{"bike_id":"e7d0aa3b-63b9-4bdc-a314-0ca326a13c45","system_id":"levelo_inurba_marseille","lat":43.32332,"lon":5.40624,"is_reserved":false,"is_disabled":false,"rental_uris":{"android":"levelo://app?vid=e7d0aa3b-63b9-4bdc-a314-0ca326a13c45","ios":"levelo://app?vid=e7d0aa3b-63b9-4bdc-a314-0ca326a13c45"},"vehicle_type_id":"4","last_reported":1731265660,"current_range_meters":14400,"station_id":"ce4bhq92rcd13ifvqhjg","pricing_plan_id":"cebpf4jnsgd1na2vs0mg"},{"bike_id":"83afddec-c1a0-4d5a-a9f3-d52e05581f98","system_id":"levelo_inurba_marseille","lat":43.294224,"lon":5.386171,"is_reserved":false,"is_disabled":false,"rental_uris":{"android":"levelo://app?vid=83afddec-c1a0-4d5a-a9f3-d52e05581f98","ios":"levelo://app?vid=83afddec-c1a0-4d5a-a9f3-d52e05581f98"},"vehicle_type_id":"4","last_reported":1731265660,"current_range_meters":38400,"station_id":"ce4bh2h2rcd13ifvqdh0","pricing_plan_id":"cebpf4jnsgd1na2vs0mg"},{"bike_id":"e9a650a1-2a05-4c1a-b95c-86b0bfcef2a8","system_id":"levelo_inurba_marseille","lat":43.29804,"lon":5.38111,"is_reserved":false,"is_disabled":false,"rental_uris":{"android":"levelo://app?vid=e9a650a1-2a05-4c1a-b95c-86b0bfcef2a8","ios":"levelo://app?vid=e9a650a1-2a05-4c1a-b95c-86b0bfcef2a8"},"vehicle_type_id":"4","last_reported":1731265660,"current_range_meters":22000,"station_id":"ce4bgip2rcd13ifvqbb0","pricing_plan_id":"cebpf4jnsgd1na2vs0mg"},{"bike_id":"2692ac72-219d-4833-a1b1-0c891e269c4c","system_id":"levelo_inurba_marseille","lat":43.28498,"lon":5.38548,"is_reserved":false,"is_disabled":false,"rental_uris":{"android":"levelo://app?vid=2692ac72-219d-4833-a1b1-0c891e269c4c","ios":"levelo://app?vid=2692ac72-219d-4833-a1b1-0c891e269c4c"},"vehicle_type_id":"4","last_reported":1731265660,"current_range_meters":36400,"station_id":"ce4bh8p2rcd13ifvqeb0","pricing_plan_id":"cebpf4jnsgd1na2vs0mg"},{"bike_id":"7356551e-e553-4289-a0bb-e35c5ad91189","system_id":"levelo_inurba_marseille","lat":43.299205,"lon":5.374687,"is_reserved":false,"is_disabled":false,"rental_uris":{"android":"levelo://app?vid=7356551e-e553-4289-a0bb-e35c5ad91189","ios":"levelo://app?vid=7356551e-e553-4289-a0bb-e35c5ad91189"},"vehicle_type_id":"4","last_reported":1731265660,"current_range_meters":6800,"station_id":"ce4bguh2rcd13ifvqckg","pricing_plan_id":"cebpf4jnsgd1na2vs0mg"},{"bike_id":"a347c9be-d588-4eb0-b9e9-73e02db827dd","system_id":"levelo_inurba_marseille","lat":43.28954,"lon":5.3646,"is_reserved":false,"is_disabled":false,"rental_uris":{"android":"levelo://app?vid=a347c9be-d588-4eb0-b9e9-73e02db827dd","ios":"levelo://app?vid=a347c9be-d588-4eb0-b9e9-73e02db827dd"},"vehicle_type_id":"4","last_reported":1731265660,"current_range_meters":32000,"station_id":"","pricing_plan_id":"cebpf4jnsgd1na2vs0mg"},{"bike_id":"97acac95-0956-4034-8594-0d70ef3141b8","system_id":"levelo_inurba_marseille","lat":43.28664,"lon":5.38674,"is_reserved":false,"is_disabled":false,"rental_uris":{"android":"levelo://app?vid=97acac95-0956-4034-8594-0d70ef3141b8","ios":"levelo://app?vid=97acac95-0956-4034-8594-0d70ef3141b8"},"vehicle_type_id":"4","last_reported":1731265660,"current_range_meters":30400,"station_id":"ce4bh492rcd13ifvqdug","pricing_plan_id":"cebpf4jnsgd1na2vs0mg"},{"bike_id":"f46cb0fb-5de8-4ab0-9dd0-83d99a22947a","system_id":"levelo_inurba_marseille","lat":43.29535,"lon":5.38539,"is_reserved":false,"is_disabled":false,"rental_uris":{"android":"levelo://app?vid=f46cb0fb-5de8-4ab0-9dd0-83d99a22947a","ios":"levelo://app?vid=f46cb0fb-5de8-4ab0-9dd0-83d99a22947a"},"vehicle_type_id":"4","last_reported":1731265660,"current_range_meters":38800,"station_id":"ce4bgih2rcd13ifvqba0","pricing_plan_id":"cebpf4jnsgd1na2vs0mg"},{"bike_id":"7e514a83-c0dd-47db-9deb-0c35bed0ce43","system_id":"levelo_inurba_marseille","lat":43.246395,"lon":5.388827,"is_reserved":false,"is_disabled":false,"rental_uris":{"android":"levelo://app?vid=7e514a83-c0dd-47db-9deb-0c35bed0ce43","ios":"levelo://app?vid=7e514a83-c0dd-47db-9deb-0c35bed0ce43"},"vehicle_type_id":"4","last_reported":1731265660,"current_range_meters":10800,"station_id":"","pricing_plan_id":"cebpf4jnsgd1na2vs0mg"},{"bike_id":"a5a29ac5-b855-41e7-9a78-00cbb0bc17e4","system_id":"levelo_inurba_marseille","lat":43.25524,"lon":5.37683,"is_reserved":false,"is_disabled":false,"rental_uris":{"android":"levelo://app?vid=a5a29ac5-b855-41e7-9a78-00cbb0bc17e4","ios":"levelo://app?vid=a5a29ac5-b855-41e7-9a78-00cbb0bc17e4"},"vehicle_type_id":"4","last_reported":1731265660,"current_range_meters":38800,"station_id":"ce4bhh12rcd13ifvqff0","pricing_plan_id":"cebpf4jnsgd1na2vs0mg"},{"bike_id":"5393b7e4-e045-48e2-a042-cc847301f466","system_id":"levelo_inurba_marseille","lat":43.25502,"lon":5.37647,"is_reserved":false,"is_disabled":false,"rental_uris":{"android":"levelo://app?vid=5393b7e4-e045-48e2-a042-cc847301f466","ios":"levelo://app?vid=5393b7e4-e045-48e2-a042-cc847301f466"},"vehicle_type_id":"4","last_reported":1731265660,"current_range_meters":38800,"station_id":"ce4bhh12rcd13ifvqff0","pricing_plan_id":"cebpf4jnsgd1na2vs0mg"},{"bike_id":"ef9b2b1f-a1f1-4628-b90e-04775d06d563","system_id":"levelo_inurba_marseille","lat":43.29787,"lon":5.37099,"is_reserved":false,"is_disabled":false,"rental_uris":{"android":"levelo://app?vid=ef9b2b1f-a1f1-4628-b90e-04775d06d563","ios":"levelo://app?vid=ef9b2b1f-a1f1-4628-b90e-04775d06d563"},"vehicle_type_id":"4","last_reported":1731265660,"current_range_meters":32400,"station_id":"ce4bgop2rcd13ifvqc1g","pricing_plan_id":"cebpf4jnsgd1na2vs0mg"},{"bike_id":"564bbe68-7aef-4f37-a0f9-d7d68c89e74b","system_id":"levelo_inurba_marseille","lat":43.269521,"lon":5.386338,"is_reserved":false,"is_disabled":false,"rental_uris":{"android":"levelo://app?vid=564bbe68-7aef-4f37-a0f9-d7d68c89e74b","ios":"levelo://app?vid=564bbe68-7aef-4f37-a0f9-d7d68c89e74b"},"vehicle_type_id":"4","last_reported":1731265660,"current_range_meters":20800,"station_id":"ce4bhh92rcd13ifvqfh0","pricing_plan_id":"cebpf4jnsgd1na2vs0mg"},{"bike_id":"ac44a4a7-0974-45db-a6e2-c790cfe8518f","system_id":"levelo_inurba_marseille","lat":43.29418,"lon":5.38622,"is_reserved":false,"is_disabled":false,"rental_uris":{"android":"levelo://app?vid=ac44a4a7-0974-45db-a6e2-c790cfe8518f","ios":"levelo://app?vid=ac44a4a7-0974-45db-a6e2-c790cfe8518f"},"vehicle_type_id":"4","last_reported":1731265660,"current_range_meters":9600,"station_id":"ce4bh2h2rcd13ifvqdh0","pricing_plan_id":"cebpf4jnsgd1na2vs0mg"},{"bike_id":"69f6e38b-9bc4-43ca-8076-a624bfea13f0","system_id":"levelo_inurba_marseille","lat":43.26499,"lon":5.39533,"is_reserved":false,"is_disabled":false,"rental_uris":{"android":"levelo://app?vid=69f6e38b-9bc4-43ca-8076-a624bfea13f0","ios":"levelo://app?vid=69f6e38b-9bc4-43ca-8076-a624bfea13f0"},"vehicle_type_id":"4","last_reported":1731265660,"current_range_meters":25200,"station_id":"ce4bhi12rcd13ifvqfq0","pricing_plan_id":"cebpf4jnsgd1na2vs0mg"},{"bike_id":"60a1cd2f-6044-4228-9bca-ed7d2a6a7596","system_id":"levelo_inurba_marseille","lat":43.28722,"lon":5.3795,"is_reserved":false,"is_disabled":false,"rental_uris":{"android":"levelo://app?vid=60a1cd2f-6044-4228-9bca-ed7d2a6a7596","ios":"levelo://app?vid=60a1cd2f-6044-4228-9bca-ed7d2a6a7596"},"vehicle_type_id":"4","last_reported":1731265660,"current_range_meters":38000,"station_id":"ce4bh9p2rcd13ifvqec0","pricing_plan_id":"cebpf4jnsgd1na2vs0mg"},{"bike_id":"7737e147-61f8-4bbf-98dc-c954b52fc73f","system_id":"levelo_inurba_marseille","lat":43.27811,"lon":5.40714,"is_reserved":false,"is_disabled":false,"rental_uris":{"android":"levelo://app?vid=7737e147-61f8-4bbf-98dc-c954b52fc73f","ios":"levelo://app?vid=7737e147-61f8-4bbf-98dc-c954b52fc73f"},"vehicle_type_id":"4","last_reported":1731265660,"current_range_meters":32000,"station_id":"ce4bhnh2rcd13ifvqgtg","pricing_plan_id":"cebpf4jnsgd1na2vs0mg"},{"bike_id":"95a29b49-7218-4ae2-8a20-f16d50246826","system_id":"levelo_inurba_marseille","lat":43.31713,"lon":5.43703,"is_reserved":false,"is_disabled":false,"rental_uris":{"android":"levelo://app?vid=95a29b49-7218-4ae2-8a20-f16d50246826","ios":"levelo://app?vid=95a29b49-7218-4ae2-8a20-f16d50246826"},"vehicle_type_id":"4","last_reported":1731265660,"current_range_meters":11200,"station_id":"ce4bhp92rcd13ifvqhcg","pricing_plan_id":"cebpf4jnsgd1na2vs0mg"},{"bike_id":"07d8bef7-a49f-412e-993b-b8654f9e8ba8","system_id":"levelo_inurba_marseille","lat":43.296913,"lon":5.37294,"is_reserved":false,"is_disabled":false,"rental_uris":{"android":"levelo://app?vid=07d8bef7-a49f-412e-993b-b8654f9e8ba8","ios":"levelo://app?vid=07d8bef7-a49f-412e-993b-b8654f9e8ba8"},"vehicle_type_id":"4","last_reported":1731265660,"current_range_meters":37600,"station_id":"ce4bgk12rcd13ifvqbj0","pricing_plan_id":"cebpf4jnsgd1na2vs0mg"},{"bike_id":"6cb8d351-b4b5-4dbe-8eea-6cb3323359d6","system_id":"levelo_inurba_marseille","lat":43.30878,"lon":5.39658,"is_reserved":false,"is_disabled":false,"rental_uris":{"android":"levelo://app?vid=6cb8d351-b4b5-4dbe-8eea-6cb3323359d6","ios":"levelo://app?vid=6cb8d351-b4b5-4dbe-8eea-6cb3323359d6"},"vehicle_type_id":"4","last_reported":1731265660,"current_range_meters":17200,"station_id":"ce4bh012rcd13ifvqcv0","pricing_plan_id":"cebpf4jnsgd1na2vs0mg"},{"bike_id":"cbff6360-08ca-4212-b829-cb4c705b1900","system_id":"levelo_inurba_marseille","lat":43.29099,"lon":5.381257,"is_reserved":false,"is_disabled":false,"rental_uris":{"android":"levelo://app?vid=cbff6360-08ca-4212-b829-cb4c705b1900","ios":"levelo://app?vid=cbff6360-08ca-4212-b829-cb4c705b1900"},"vehicle_type_id":"4","last_reported":1731265660,"current_range_meters":38000,"station_id":"ce4bh512rcd13ifvqe2g","pricing_plan_id":"cebpf4jnsgd1na2vs0mg"},{"bike_id":"dc6baf73-12a0-4f2c-b750-7a2909431c45","system_id":"levelo_inurba_marseille","lat":43.33614,"lon":5.41032,"is_reserved":false,"is_disabled":false,"rental_uris":{"android":"levelo://app?vid=dc6baf73-12a0-4f2c-b750-7a2909431c45","ios":"levelo://app?vid=dc6baf73-12a0-4f2c-b750-7a2909431c45"},"vehicle_type_id":"4","last_reported":1731265660,"current_range_meters":32400,"station_id":"ce4bhqh2rcd13ifvqhmg","pricing_plan_id":"cebpf4jnsgd1na2vs0mg"},{"bike_id":"feecf765-5892-4643-b18b-16c4c9587128","system_id":"levelo_inurba_marseille","lat":43.31073,"lon":5.3835,"is_reserved":false,"is_disabled":false,"rental_uris":{"android":"levelo://app?vid=feecf765-5892-4643-b18b-16c4c9587128","ios":"levelo://app?vid=feecf765-5892-4643-b18b-16c4c9587128"},"vehicle_type_id":"4","last_reported":1731265660,"current_range_meters":29600,"station_id":"ce4bgv92rcd13ifvqcr0","pricing_plan_id":"cebpf4jnsgd1na2vs0mg"},{"bike_id":"64651a74-d4a4-4d03-bb08-f62064c487a3","system_id":"levelo_inurba_marseille","lat":43.28937,"lon":5.36628,"is_reserved":false,"is_disabled":false,"rental_uris":{"android":"levelo://app?vid=64651a74-d4a4-4d03-bb08-f62064c487a3","ios":"levelo://app?vid=64651a74-d4a4-4d03-bb08-f62064c487a3"},"vehicle_type_id":"4","last_reported":1731265660,"current_range_meters":38800,"station_id":"ce4bhap2rcd13ifvqek0","pricing_plan_id":"cebpf4jnsgd1na2vs0mg"},