{"last_updated":1738944660,"ttl":60,"version":"2.2","data":{"bikes":[{"bike_id":"b8740638-8b15-4e39-9dd8-3d88c6eff33f","system_id":"levelo_inurba_marseille","lat":43.31234,"lon":5.36851,"is_reserved":false,"is_disabled":true,"rental_uris":{"android":"levelo://app?vid=b8740638-8b15-4e39-9dd8-3d88c6eff33f","ios":"levelo://app?vid=b8740638-8b15-4e39-9dd8-3d88c6eff33f"},"vehicle_type_id":"4","last_reported":1738944660,"current_range_meters":38800,"station_id":"ce4bgl92rcd13ifvqbq0","pricing_plan_id":"cebpf4jnsgd1na2vs0mg"},{"bike_id":"0ce15fb5-55df-49be-8917-ee84b7db6cd7","system_id":"levelo_inurba_marseille","lat":43.29533,"lon":5.38549,"is_reserved":false,"is_disabled":false,"rental_uris":{"android":"levelo://app?vid=0ce15fb5-55df-49be-8917-ee84b7db6cd7","ios":"levelo://app?vid=0ce15fb5-55df-49be-8917-ee84b7db6cd7"},"vehicle_type_id":"4","last_reported":1738944660,"current_range_meters":26000,"station_id":"ce4bgih2rcd13ifvqba0","pricing_plan_id":"cebpf4jnsgd1na2vs0mg"},{"bike_id":"ccdc6efe-ebdd-4ab0-9036-6ff3200f0168","system_id":"levelo_inurba_marseille","lat":43.2719,"lon":5.40993,"is_reserved":false,"is_disabled":true,"rental_uris":{"android":"levelo://app?vid=ccdc6efe-ebdd-4ab0-9036-6ff3200f0168","ios":"levelo://app?vid=ccdc6efe-ebdd-4ab0-9036-6ff3200f0168"},"vehicle_type_id":"4","last_reported":1738944660,"current_range_meters":30400,"station_id":"ce4bhl12rcd13ifvqgf0","pricing_plan_id":"cebpf4jnsgd1na2vs0mg"},{"bike_id":"bcee9fe5-7dde-49e3-b4db-acc806ad1459","system_id":"levelo_inurba_marseille","lat":43.29966,"lon":5.38496,"is_reserved":false,"is_disabled":false,"rental_uris":{"android":"levelo://app?vid=bcee9fe5-7dde-49e3-b4db-acc806ad1459","ios":"levelo://app?vid=bcee9fe5-7dde-49e3-b4db-acc806ad1459"},"vehicle_type_id":"4","last_reported":1738944660,"current_range_meters":35200,"station_id":"ce4bgj92rcd13ifvqbd0","pricing_plan_id":"cebpf4jnsgd1na2vs0mg"},{"bike_id":"f45947ef-2f50-4974-bb81-ea052b792fa6","system_id":"levelo_inurba_marseille","lat":43.31319,"lon":5.39693,"is_reserved":false,"is_disabled":false,"rental_uris":{"android":"levelo://app?vid=f45947ef-2f50-4974-bb81-ea052b792fa6","ios":"levelo://app?vid=f45947ef-2f50-4974-bb81-ea052b792fa6"},"vehicle_type_id":"4","last_reported":1738944660,"current_range_meters":24400,"station_id":"ce4bgvp2rcd13ifvqcu0","pricing_plan_id":"cebpf4jnsgd1na2vs0mg"},{"bike_id":"cfa7f1cc-5150-48ed-843c-f6960ddad1e1","system_id":"levelo_inurba_marseille","lat":43.26496,"lon":5.39544,"is_reserved":false,"is_disabled":true,"rental_uris":{"android":"levelo://app?vid=cfa7f1cc-5150-48ed-843c-f6960ddad1e1","ios":"levelo://app?vid=cfa7f1cc-5150-48ed-843c-f6960ddad1e1"},"vehicle_type_id":"4","last_reported":1738944660,"current_range_meters":19200,"station_id":"ce4bhi12rcd13ifvqfq0","pricing_plan_id":"cebpf4jnsgd1na2vs0mg"},{"bike_id":"0b370460-2bdc-4346-a1f4-7aeb9dd2a707","system_id":"levelo_inurba_marseille","lat":43.28632,"lon":5.39138,"is_reserved":false,"is_disabled":true,"rental_uris":{"android":"levelo://app?vid=0b370460-2bdc-4346-a1f4-7aeb9dd2a707","ios":"levelo://app?vid=0b370460-2bdc-4346-a1f4-7aeb9dd2a707"},"vehicle_type_id":"4","last_reported":1738944660,"current_range_meters":14400,"station_id":"","pricing_plan_id":"cebpf4jnsgd1na2vs0mg"},{"bike_id":"943ac723-5281-47cb-aec0-616933fe5d80","system_id":"levelo_inurba_marseille","lat":43.306,"lon":5.37214,"is_reserved":false,"is_disabled":false,"rental_uris":{"android":"levelo://app?vid=943ac723-5281-47cb-aec0-616933fe5d80","ios":"levelo://app?vid=943ac723-5281-47cb-aec0-616933fe5d80"},"vehicle_type_id":"4","last_reported":1738944660,"current_range_meters":39200,"station_id":"ce4bgqh2rcd13ifvqc4g","pricing_plan_id":"cebpf4jnsgd1na2vs0mg"},{"bike_id":"b0f04146-2d18-4f59-825c-5412357a29db","system_id":"levelo_inurba_marseille","lat":43.29854,"lon":5.36289,"is_reserved":false,"is_disabled":false,"rental_uris":{"android":"levelo://app?vid=b0f04146-2d18-4f59-825c-5412357a29db","ios":"levelo://app?vid=b0f04146-2d18-4f59-825c-5412357a29db"},"vehicle_type_id":"4","last_reported":1738944660,"current_range_meters":19600,"station_id":"ce4bgpp2rcd13ifvqc3g","pricing_plan_id":"cebpf4jnsgd1na2vs0mg"},{"bike_id":"ffdb6efc-7928-43a7-a4b4-0c9c4eb25b66","system_id":"levelo_inurba_marseille","lat":43.26931,"lon":5.40257,"is_reserved":false,"is_disabled":false,"rental_uris":{"android":"levelo://app?vid=ffdb6efc-7928-43a7-a4b4-0c9c4eb25b66","ios":"levelo://app?vid=ffdb6efc-7928-43a7-a4b4-0c9c4eb25b66"},"vehicle_type_id":"4","last_reported":1738944660,"current_range_meters":38800,"station_id":"cjm6bp8fraef2m0cb0m0","pricing_plan_id":"cebpf4jnsgd1na2vs0mg"},{"bike_id":"0e3e205c-def0-409b-93d1-6bd9975a7ce8","system_id":"levelo_inurba_marseille","lat":43.33775,"lon":5.37432,"is_reserved":false,"is_disabled":false,"rental_uris":{"android":"levelo://app?vid=0e3e205c-def0-409b-93d1-6bd9975a7ce8","ios":"levelo://app?vid=0e3e205c-def0-409b-93d1-6bd9975a7ce8"},"vehicle_type_id":"4","last_reported":1738944660,"current_range_meters":6000,"station_id":"","pricing_plan_id":"cebpf4jnsgd1na2vs0mg"},{"bike_id":"1a04bf90-1508-4077-924d-e62c674b15bc","system_id":"levelo_inurba_marseille","lat":43.26554,"lon":5.37328,"is_reserved":false,"is_disabled":false,"rental_uris":{"android":"levelo://app?vid=1a04bf90-1508-4077-924d-e62c674b15bc","ios":"levelo://app?vid=1a04bf90-1508-4077-924d-e62c674b15bc"},"vehicle_type_id":"4","last_reported":1738944660,"current_range_meters":7200,"station_id":"ce4bhg12rcd13ifvqf70","pricing_plan_id":"cebpf4jnsgd1na2vs0mg"},{"bike_id":"6a3bf5dc-6406-4053-977a-019d33b4193c","system_id":"levelo_inurba_marseille","lat":43.2841,"lon":5.37525,"is_reserved":false,"is_disabled":true,"rental_uris":{"android":"levelo://app?vid=6a3bf5dc-6406-4053-977a-019d33b4193c","ios":"levelo://app?vid=6a3bf5dc-6406-4053-977a-019d33b4193c"},"vehicle_type_id":"4","last_reported":1738944660,"current_range_meters":32000,"station_id":"ce4bh412rcd13ifvqds0","pricing_plan_id":"cebpf4jnsgd1na2vs0mg"},{"bike_id":"c2619a33-82d7-497e-ab67-fff1920b56c1","system_id":"levelo_inurba_marseille","lat":43.30154,"lon":5.38087,"is_reserved":false,"is_disabled":false,"rental_uris":{"android":"levelo://app?vid=c2619a33-82d7-497e-ab67-fff1920b56c1","ios":"levelo://app?vid=c2619a33-82d7-497e-ab67-fff1920b56c1"},"vehicle_type_id":"4","last_reported":1738944660,"current_range_meters":21600,"station_id":"ce4bgjp2rcd13ifvqbh0","pricing_plan_id":"cebpf4jnsgd1na2vs0mg"},{"bike_id":"4496416b-4259-4e73-b65b-c536e20d1a42","system_id":"levelo_inurba_marseille","lat":43.30534,"lon":5.36717,"is_reserved":false,"is_disabled":false,"rental_uris":{"android":"levelo://app?vid=4496416b-4259-4e73-b65b-c536e20d1a42","ios":"levelo://app?vid=4496416b-4259-4e73-b65b-c536e20d1a42"},"vehicle_type_id":"4","last_reported":1738944660,"current_range_meters":28400,"station_id":"ce4bgrp2rcd13ifvqc9g","pricing_plan_id":"cebpf4jnsgd1na2vs0mg"},{"bike_id":"1e742db7-3526-4b14-98c2-76345fb11593","system_id":"levelo_inurba_marseille","lat":43.29875,"lon":5.3974,"is_reserved":false,"is_disabled":false,"rental_uris":{"android":"levelo://app?vid=1e742db7-3526-4b14-98c2-76345fb11593","ios":"levelo://app?vid=1e742db7-3526-4b14-98c2-76345fb11593"},"vehicle_type_id":"4","last_reported":1738944660,"current_range_meters":5600,"station_id":"ce4bh0h2rcd13ifvqd50","pricing_plan_id":"cebpf4jnsgd1na2vs0mg"},{"bike_id":"06bd393d-f5d8-4be6-8764-159361d0b0da","system_id":"levelo_inurba_marseille","lat":43.31712,"lon":5.37762,"is_reserved":false,"is_disabled":false,"rental_uris":{"android":"levelo://app?vid=06bd393d-f5d8-4be6-8764-159361d0b0da","ios":"levelo://app?vid=06bd393d-f5d8-4be6-8764-159361d0b0da"},"vehicle_type_id":"4","last_reported":1738944660,"current_range_meters":25200,"station_id":"ce4bgth2rcd13ifvqch0","pricing_plan_id":"cebpf4jnsgd1na2vs0mg"},{"bike_id":"3528aa62-06b4-44de-92de-1aa1318d56b7","system_id":"levelo_inurba_marseille","lat":43.26211,"lon":5.37424,"is_reserved":false,"is_disabled":false,"rental_uris":{"android":"levelo://app?vid=3528aa62-06b4-44de-92de-1aa1318d56b7","ios":"levelo://app?vid=3528aa62-06b4-44de-92de-1aa1318d56b7"},"vehicle_type_id":"4","last_reported":1738944660,"current_range_meters":36800,"station_id":"ce4bhgp2rcd13ifvqfc0","pricing_plan_id":"cebpf4jnsgd1na2vs0mg"},{"bike_id":"9f71c690-10c1-4e29-9ded-683547045e09","system_id":"levelo_inurba_marseille","lat":43.25509,"lon":5.37646,"is_reserved":false,"is_disabled":false,"rental_uris":{"android":"levelo://app?vid=9f71c690-10c1-4e29-9ded-683547045e09","ios":"levelo://app?vid=9f71c690-10c1-4e29-9ded-683547045e09"},"vehicle_type_id":"4","last_reported":1738944660,"current_range_meters":32400,"station_id":"ce4bhh12rcd13ifvqff0","pricing_plan_id":"cebpf4jnsgd1na2vs0mg"},{"bike_id":"608b32fc-53be-40e2-9344-f18ccef6764a","system_id":"levelo_inurba_marseille","lat":43.24807,"lon":5.37459,"is_reserved":false,"is_disabled":false,"rental_uris":{"android":"levelo://app?vid=608b32fc-53be-40e2-9344-f18ccef6764a","ios":"levelo://app?vid=608b32fc-53be-40e2-9344-f18ccef6764a"},"vehicle_type_id":"4","last_reported":1738944660,"current_range_meters":28000,"station_id":"ce4bhgh2rcd13ifvqfb0","pricing_plan_id":"cebpf4jnsgd1na2vs0mg"},{"bike_id":"c2d970eb-05a6-459e-bb93-f860f248381d","system_id":"levelo_inurba_marseille","lat":43.32538,"lon":5.41429,"is_reserved":false,"is_disabled":false,"rental_uris":{"android":"levelo://app?vid=c2d970eb-05a6-459e-bb93-f860f248381d","ios":"levelo://app?vid=c2d970eb-05a6-459e-bb93-f860f248381d"},"vehicle_type_id":"4","last_reported":1738944660,"current_range_meters":10000,"station_id":"ce4bhq12rcd13ifvqhhg","pricing_plan_id":"cebpf4jnsgd1na2vs0mg"},{"bike_id":"1ee5d163-f818-4718-b8c7-808793aa0d5e","system_id":"levelo_inurba_marseille","lat":43.29164,"lon":5.3578,"is_reserved":false,"is_disabled":true,"rental_uris":{"android":"levelo://app?vid=1ee5d163-f818-4718-b8c7-808793aa0d5e","ios":"levelo://app?vid=1ee5d163-f818-4718-b8c7-808793aa0d5e"},"vehicle_type_id":"4","last_reported":1738944660,"current_range_meters":0,"station_id":"ce4bhb12rcd13ifvqel0","pricing_plan_id":"cebpf4jnsgd1na2vs0mg"},{"bike_id":"1960e03b-59ba-4348-bd99-f7dca286c2fa","system_id":"levelo_inurba_marseille","lat":43.28638,"lon":5.35083,"is_reserved":false,"is_disabled":false,"rental_uris":{"android":"levelo://app?vid=1960e03b-59ba-4348-bd99-f7dca286c2fa","ios":"levelo://app?vid=1960e03b-59ba-4348-bd99-f7dca286c2fa"},"vehicle_type_id":"4","last_reported":1738944660,"current_range_meters":38800,"station_id":"ce4bhch2rcd13ifvqeug","pricing_plan_id":"cebpf4jnsgd1na2vs0mg"},{"bike_id":"4969b5b1-6a17-4a0c-bd57-647324e9222f","system_id":"levelo_inurba_marseille","lat":43.25577,"lon":5.38238,"is_reserved":false,"is_disabled":true,"rental_uris":{"android":"levelo://app?vid=4969b5b1-6a17-4a0c-bd57-647324e9222f","ios":"levelo://app?vid=4969b5b1-6a17-4a0c-bd57-647324e9222f"},"vehicle_type_id":"4","last_reported":1738944660,"current_range_meters":800,"station_id":"ce4bhih2rcd13ifvqfs0","pricing_plan_id":"cebpf4jnsgd1na2vs0mg"},{"bike_id":"6eb290d5-bd65-4a1e-99b3-c4142f729da4","system_id":"levelo_inurba_marseille","lat":43.29851,"lon":5.36281,"is_reserved":false,"is_disabled":false,"rental_uris":{"android":"levelo://app?vid=6eb290d5-bd65-4a1e-99b3-c4142f729da4","ios":"levelo://app?vid=6eb290d5-bd65-4a1e-99b3-c4142f729da4"},"vehicle_type_id":"4","last_reported":1738944660,"current_range_meters":33600,"station_id":"ce4bgpp2rcd13ifvqc3g","pricing_plan_id":"cebpf4jnsgd1na2vs0mg"},{"bike_id":"984e66a9-958a-4ad4-8afe-42d9883f12f4","system_id":"levelo_inurba_marseille","lat":43.31724,"lon":5.37728,"is_reserved":false,"is_disabled":false,"rental_uris":{"android":"levelo://app?vid=984e66a9-958a-4ad4-8afe-42d9883f12f4","ios":"levelo://app?vid=984e66a9-958a-4ad4-8afe-42d9883f12f4"},"vehicle_type_id":"4","last_reported":1738944660,"current_range_meters":39200,"station_id":"ce4bgth2rcd13ifvqch0","pricing_plan_id":"cebpf4jnsgd1na2vs0mg"},{"bike_id":"098d220b-e449-43ea-8d6d-9fc78e0abad9","system_id":"levelo_inurba_marseille","lat":43.22946,"lon":5.35363,"is_reserved":false,"is_disabled":false,"rental_uris":{"android":"levelo://app?vid=098d220b-e449-43ea-8d6d-9fc78e0abad9","ios":"levelo://app?vid=098d220b-e449-43ea-8d6d-9fc78e0abad9"},"vehicle_type_id":"4","last_reported":1738944660,"current_range_meters":38800,"station_id":"cpo3532slgdg3j2ikp40","pricing_plan_id":"cebpf4jnsgd1na2vs0mg"},{"bike_id":"ac30b9ff-929e-4f91-9490-7f7860c98f54","system_id":"levelo_inurba_marseille","lat":43.29714,"lon":5.37699,"is_reserved":false,"is_disabled":false,"rental_uris":{"android":"levelo://app?vid=ac30b9ff-929e-4f91-9490-7f7860c98f54","ios":"levelo://app?vid=ac30b9ff-929e-4f91-9490-7f7860c98f54"},"vehicle_type_id":"4","last_reported":1738944660,"current_range_meters":19200,"station_id":"ce4bgkh2rcd13ifvqbl0","pricing_plan_id":"cebpf4jnsgd1na2vs0mg"},{"bike_id":"25265f47-6177-48e9-b4ee-d5d5e25bf867","system_id":"levelo_inurba_marseille","lat":43.25723,"lon":5.41105,"is_reserved":false,"is_disabled":false,"rental_uris":{"android":"levelo://app?vid=25265f47-6177-48e9-b4ee-d5d5e25bf867","ios":"levelo://app?vid=25265f47-6177-48e9-b4ee-d5d5e25bf867"},"vehicle_type_id":"4","last_reported":1738944660,"current_range_meters":17200,"station_id":"ce4bhkp2rcd13ifvqgd0","pricing_plan_id":"cebpf4jnsgd1na2vs0mg"},{"bike_id":"8134c42b-15c7-43df-91b1-9cea8c89299b","system_id":"levelo_inurba_marseille","lat":43.25873,"lon":5.39938,"is_reserved":false,"is_disabled":false,"rental_uris":{"android":"levelo://app?vid=8134c42b-15c7-43df-91b1-9cea8c89299b","ios":"levelo://app?vid=8134c42b-15c7-43df-91b1-9cea8c89299b"},"vehicle_type_id":"4","last_reported":1738944660,"current_range_meters":37600,"station_id":"ce4bhl92rcd13ifvqghg","pricing_plan_id":"cebpf4jnsgd1na2vs0mg"},{"bike_id":"109d8d07-d605-45c4-912d-3e7b38f9a9ae","system_id":"levelo_inurba_marseille","lat":43.24158,"lon":5.36386,"is_reserved":false,"is_disabled":false,"rental_uris":{"android":"levelo://app?vid=109d8d07-d605-45c4-912d-3e7b38f9a9ae","ios":"levelo://app?vid=109d8d07-d605-45c4-912d-3e7b38f9a9ae"},"vehicle_type_id":"4","last_reported":1738944660,"current_range_meters":18000,"station_id":"cpo36qri1sfpv3e86is0","pricing_plan_id":"cebpf4jnsgd1na2vs0mg"},{"bike_id":"79587b5b-98bf-494b-ad74-9f0e7e9a2c43","system_id":"levelo_inurba_marseille","lat":43.3029,"lon":5.37704,"is_reserved":false,"is_disabled":false,"rental_uris":{"android":"levelo://app?vid=79587b5b-98bf-494b-ad74-9f0e7e9a2c43","ios":"levelo://app?vid=79587b5b-98bf-494b-ad74-9f0e7e9a2c43"},"vehicle_type_id":"4","last_reported":1738944660,"current_range_meters":8800,"station_id":"ce4bguh2rcd13ifvqcj0","pricing_plan_id":"cebpf4jnsgd1na2vs0mg"},{"bike_id":"e0ac6ade-67fe-4cce-9c68-eef5b3ef9fe9","system_id":"levelo_inurba_marseille","lat":43.28071,"lon":5.39641,"is_reserved":false,"is_disabled":false,"rental_uris":{"android":"levelo://app?vid=e0ac6ade-67fe-4cce-9c68-eef5b3ef9fe9","ios":"levelo://app?vid=e0ac6ade-67fe-4cce-9c68-eef5b3ef9fe9"},"vehicle_type_id":"4","last_reported":1738944660,"current_range_meters":38400,"station_id":"ce4bho12rcd13ifvqh2g","pricing_plan_id":"cebpf4jnsgd1na2vs0mg"},{"bike_id":"2ebd233c-fd15-4f13-9700-c155c053523f","system_id":"levelo_inurba_marseille","lat":43.26017,"lon":5.40735,"is_reserved":false,"is_disabled":true,"rental_uris":{"android":"levelo://app?vid=2ebd233c-fd15-4f13-9700-c155c053523f","ios":"levelo://app?vid=2ebd233c-fd15-4f13-9700-c155c053523f"},"vehicle_type_id":"4","last_reported":1738944660,"current_range_meters":27600,"station_id":"","pricing_plan_id":"cebpf4jnsgd1na2vs0mg"},{"bike_id":"af40deb1-f640-4b70-95d2-0b44fe79a0b8","system_id":"levelo_inurba_marseille","lat":43.26933,"lon":5.40246,"is_reserved":false,"is_disabled":false,"rental_uris":{"android":"levelo://app?vid=af40deb1-f640-4b70-95d2-0b44fe79a0b8","ios":"levelo://app?vid=af40deb1-f640-4b70-95d2-0b44fe79a0b8"},"vehicle_type_id":"4","last_reported":1738944660,"current_range_meters":20400,"station_id":"cjm6bp8fraef2m0cb0m0","pricing_plan_id":"cebpf4jnsgd1na2vs0mg"},{"bike_id":"cc579f2e-84c1-4e7a-a655-9dee079d178c","system_id":"levelo_inurba_marseille","lat":43.30531,"lon":5.36545,"is_reserved":false,"is_disabled":false,"rental_uris":{"android":"levelo://app?vid=cc579f2e-84c1-4e7a-a655-9dee079d178c","ios":"levelo://app?vid=cc579f2e-84c1-4e7a-a655-9dee079d178c"},"vehicle_type_id":"4","last_reported":1738944660,"current_range_meters":24800,"station_id":"ce4bgs12rcd13ifvqcag","pricing_plan_id":"cebpf4jnsgd1na2vs0mg"},{"bike_id":"6850b23e-5e80-4fd6-856a-27e743c90765","system_id":"levelo_inurba_marseille","lat":43.29837,"lon":5.3625,"is_reserved":false,"is_disabled":false,"rental_uris":{"android":"levelo://app?vid=6850b23e-5e80-4fd6-856a-27e743c90765","ios":"levelo://app?vid=6850b23e-5e80-4fd6-856a-27e743c90765"},"vehicle_type_id":"4","last_reported":1738944660,"current_range_meters":36800,"station_id":"ce4bgpp2rcd13ifvqc3g","pricing_plan_id":"cebpf4jnsgd1na2vs0mg"},{"bike_id":"da42ddbd-b08b-41f4-b5ea-594da99eb78a","system_id":"levelo_inurba_marseille","lat":43.30461,"lon":5.39863,"is_reserved":false,"is_disabled":true,"rental_uris":{"android":"levelo://app?vid=da42ddbd-b08b-41f4-b5ea-594da99eb78a","ios":"levelo://app?vid=da42ddbd-b08b-41f4-b5ea-594da99eb78a"},"vehicle_type_id":"4","last_reported":1738944660,"current_range_meters":800,"station_id":"","pricing_plan_id":"cebpf4jnsgd1na2vs0mg"},{"bike_id":"1b068509-d731-4a9f-834b-80d35b08bfb2","system_id":"levelo_inurba_marseille","lat":43.28021,"lon":5.36951,"is_reserved":false,"is_disabled":false,"rental_uris":{"android":"levelo://app?vid=1b068509-d731-4a9f-834b-80d35b08bfb2","ios":"levelo://app?vid=1b068509-d731-4a9f-834b-80d35b08bfb2"},"vehicle_type_id":"4","last_reported":1738944660,"current_range_meters":30800,"station_id":"ce4bha12rcd13ifvqef0","pricing_plan_id":"cebpf4jnsgd1na2vs0mg"},{"bike_id":"d22588f6-fad1-499a-b286-a97cf6b7bb36","system_id":"levelo_inurba_marseille","lat":43.24663,"lon":5.38161,"is_reserved":false,"is_disabled":false,"rental_uris":{"android":"levelo://app?vid=d22588f6-fad1-499a-b286-a97cf6b7bb36","ios":"levelo://app?vid=d22588f6-fad1-499a-b286-a97cf6b7bb36"},"vehicle_type_id":"4","last_reported":1738944660,"current_range_meters":24800,"station_id":"ce4bhih2rcd13ifvqfr0","pricing_plan_id":"cebpf4jnsgd1na2vs0mg"},{"bike_id":"5fe6504e-ad75-425d-9615-97ccfc52c0cd","system_id":"levelo_inurba_marseille","lat":43.29785,"lon":5.37094,"is_reserved":false,"is_disabled":false,"rental_uris":{"android":"levelo://app?vid=5fe6504e-ad75-425d-9615-97ccfc52c0cd","ios":"levelo://app?vid=5fe6504e-ad75-425d-9615-97ccfc52c0cd"},"vehicle_type_id":"4","last_reported":1738944660,"current_range_meters":36800,"station_id":"ce4bgop2rcd13ifvqc1g","pricing_plan_id":"cebpf4jnsgd1na2vs0mg"},{"bike_id":"bc9a4b67-fd92-40f9-a908-42a03d95f8de","system_id":"levelo_inurba_marseille","lat":43.30327,"lon":5.40439,"is_reserved":false,"is_disabled":false,"rental_uris":{"android":"levelo://app?vid=bc9a4b67-fd92-40f9-a908-42a03d95f8de","ios":"levelo://app?vid=bc9a4b67-fd92-40f9-a908-42a03d95f8de"},"vehicle_type_id":"4","last_reported":1738944660,"current_range_meters":38400,"station_id":"ce4bh012rcd13ifvqd10","pricing_plan_id":"cebpf4jnsgd1na2vs0mg"},{"bike_id":"36cb4c7f-d448-4d49-b84c-9dffbab52a7a","system_id":"levelo_inurba_marseille","lat":43.27372,"lon":5.36257,"is_reserved":false,"is_disabled":false,"rental_uris":{"android":"levelo://app?vid=36cb4c7f-d448-4d49-b84c-9dffbab52a7a","ios":"levelo://app?vid=36cb4c7f-d448-4d49-b84c-9dffbab52a7a"},"vehicle_type_id":"4","last_reported":1738944660,"current_range_meters":17600,"station_id":"ce4bhbh2rcd13ifvqeo0","pricing_plan_id":"cebpf4jnsgd1na2vs0mg"},{"bike_id":"072ccb0d-2534-4848-822b-2ffe841e9c86","system_id":"levelo_inurba_marseille","lat":43.26792,"lon":5.39414,"is_reserved":false,"is_disabled":false,"rental_uris":{"android":"levelo://app?vid=072ccb0d-2534-4848-822b-2ffe841e9c86","ios":"levelo://app?vid=072ccb0d-2534-4848-822b-2ffe841e9c86"},"vehicle_type_id":"4","last_reported":1738944660,"current_range_meters":39200,"station_id":"ce4bhh12rcd13ifvqfg0","pricing_plan_id":"cebpf4jnsgd1na2vs0mg"},{"bike_id":"6986b042-d67b-490d-a174-01e67df97cbc","system_id":"levelo_inurba_marseille","lat":43.28419,"lon":5.34974,"is_reserved":false,"is_disabled":true,"rental_uris":{"android":"levelo://app?vid=6986b042-d67b-490d-a174-01e67df97cbc","ios":"levelo://app?vid=6986b042-d67b-490d-a174-01e67df97cbc"},"vehicle_type_id":"4","last_reported":1738944660,"current_range_meters":0,"station_id":"ce4bhbh2rcd13ifvqepg","pricing_plan_id":"cebpf4jnsgd1na2vs0mg"},{"bike_id":"89912e32-c5f0-448f-82d2-e236e4d6d653","system_id":"levelo_inurba_marseille","lat":43.27794,"lon":5.39876,"is_reserved":false,"is_disabled":true,"rental_uris":{"android":"levelo://app?vid=89912e32-c5f0-448f-82d2-e236e4d6d653","ios":"levelo://app?vid=89912e32-c5f0-448f-82d2-e236e4d6d653"},"vehicle_type_id":"4","last_reported":1738944660,"current_range_meters":4400,"station_id":"","pricing_plan_id":"cebpf4jnsgd1na2vs0mg"},{"bike_id":"002db939-6173-4d3f-867b-5d61ac7450c1","system_id":"levelo_inurba_marseille","lat":43.2694,"lon":5.40233,"is_reserved":false,"is_disabled":false,"rental_uris":{"android":"levelo://app?vid=002db939-6173-4d3f-867b-5d61ac7450c1","ios":"levelo://app?vid=002db939-6173-4d3f-867b-5d61ac7450c1"},"vehicle_type_id":"4","last_reported":1738944660,"current_range_meters":12800,"station_id":"cjm6bp8fraef2m0cb0m0","pricing_plan_id":"cebpf4jnsgd1na2vs0mg"},{"bike_id":"c942fc68-3621-4eea-9d7c-82f100882a36","system_id":"levelo_inurba_marseille","lat":43.30002,"lon":5.37354,"is_reserved":false,"is_disabled":false,"rental_uris":{"android":"levelo://app?vid=c942fc68-3621-4eea-9d7c-82f100882a36","ios":"levelo://app?vid=c942fc68-3621-4eea-9d7c-82f100882a36"},"vehicle_type_id":"4","last_reported":1738944660,"current_range_meters":7200,"station_id":"","pricing_plan_id":"cebpf4jnsgd1na2vs0mg"},{"bike_id":"0bf01347-6573-47e0-a521-b69a20d13beb","system_id":"levelo_inurba_marseille","lat":43.30799,"lon":5.43528,"is_reserved":false,"is_disabled":false,"rental_uris":{"android":"levelo://app?vid=0bf01347-6573-47e0-a521-b69a20d13beb","ios":"levelo://app?vid=0bf01347-6573-47e0-a521-b69a20d13beb"},"vehicle_type_id":"4","last_reported":1738944660,"current_range_meters":37600,"station_id":"ce4bhph2rcd13ifvqheg","pricing_plan_id":"cebpf4jnsgd1na2vs0mg"},{"bike_id":"23143502-ceee-44da-89f0-72f6c6ad3c2a","system_id":"levelo_inurba_marseille","lat":43.26687,"lon":5.38257,"is_reserved":false,"is_disabled":false,"rental_uris":{"android":"levelo://app?vid=23143502-ceee-44da-89f0-72f6c6ad3c2a","ios":"levelo://app?vid=23143502-ceee-44da-89f0-72f6c6ad3c2a"},"vehicle_type_id":"4","last_reported":1738944660,"current_range_meters":20400,"station_id":"ce4bhg92rcd13ifvqf90","pricing_plan_id":"cebpf4jnsgd1na2vs0mg"},{"bike_id":"fb5a704f-a51b-458c-a6e9-f5586a789b94","system_id":"levelo_inurba_marseille","lat":43.2417,"lon":5.36391,"is_reserved":false,"is_disabled":false,"rental_uris":{"android":"levelo://app?vid=fb5a704f-a51b-458c-a6e9-f5586a789b94","ios":"levelo://app?vid=fb5a704f-a51b-458c-a6e9-f5586a789b94"},"vehicle_type_id":"4","last_reported":1738944660,"current_range_meters":38800,"station_id":"cpo36qri1sfpv3e86is0","pricing_plan_id":"cebpf4jnsgd1na2vs0mg"},{"bike_id":"ea4598ff-d87b-4215-b588-622c0b88bdc0","system_id":"levelo_inurba_marseille","lat":43.2511,"lon":5.40321,"is_reserved":false,"is_disabled":false,"rental_uris":{"android":"levelo://app?vid=ea4598ff-d87b-4215-b588-622c0b88bdc0","ios":"levelo://app?vid=ea4598ff-d87b-4215-b588-622c0b88bdc0"},"vehicle_type_id":"4","last_reported":1738944660,"current_range_meters":22400,"station_id":"ce4bhlh2rcd13ifvqgig","pricing_plan_id":"cebpf4jnsgd1na2vs0mg"},{"bike_id":"8d797448-0a09-4463-9803-677908ee7f27","system_id":"levelo_inurba_marseille","lat":43.27944,"lon":5.41043,"is_reserved":false,"is_disabled":false,"rental_uris":{"android":"levelo://app?vid=8d797448-0a09-4463-9803-677908ee7f27","ios":"levelo://app?vid=8d797448-0a09-4463-9803-677908ee7f27"},"vehicle_type_id":"4","last_reported":1738944660,"current_range_meters":17200,"station_id":"ce4bhnp2rcd13ifvqh0g","pricing_plan_id":"cebpf4jnsgd1na2vs0mg"},{"bike_id":"b73937ba-05e4-41c7-8959-6f24613e2797","system_id":"levelo_inurba_marseille","lat":43.22943,"lon":5.35374,"is_reserved":false,"is_disabled":false,"rental_uris":{"android":"levelo://app?vid=b73937ba-05e4-41c7-8959-6f24613e2797","ios":"levelo://app?vid=b73937ba-05e4-41c7-8959-6f24613e2797"},"vehicle_type_id":"4","last_reported":1738944660,"current_range_meters":33200,"station_id":"cpo3532slgdg3j2ikp40","pricing_plan_id":"cebpf4jnsgd1na2vs0mg"},{"bike_id":"ec67e9a1-e173-48f6-bf45-816b49779499","system_id":"levelo_inurba_marseille","lat":43.30317,"lon":5.36888,"is_reserved":false,"is_disabled":false,"rental_uris":{"android":"levelo://app?vid=ec67e9a1-e173-48f6-bf45-816b49779499","ios":"levelo://app?vid=ec67e9a1-e173-48f6-bf45-816b49779499"},"vehicle_type_id":"4","last_reported":1738944660,"current_range_meters":16400,"station_id":"ce4bgqh2rcd13ifvqc5g","pricing_plan_id":"cebpf4jnsgd1na2vs0mg"},{"bike_id":"ab54e2d0-4c2c-486a-84c7-811ed9008ddc","system_id":"levelo_inurba_marseille","lat":43.278584,"lon":5.425412,"is_reserved":false,"is_disabled":true,"rental_uris":{"android":"levelo://app?vid=ab54e2d0-4c2c-486a-84c7-811ed9008ddc","ios":"levelo://app?vid=ab54e2d0-4c2c-486a-84c7-811ed9008ddc"},"vehicle_type_id":"4","last_reported":1738944660,"current_range_meters":0,"station_id":"","pricing_plan_id":"cebpf4jnsgd1na2vs0mg"},{"bike_id":"f1e9399a-c62d-4210-bc5f-f431eced8b39","system_id":"levelo_inurba_marseille","lat":43.32364,"lon":5.36761,"is_reserved":false,"is_disabled":false,"rental_uris":{"android":"levelo://app?vid=f1e9399a-c62d-4210-bc5f-f431eced8b39","ios":"levelo://app?vid=f1e9399a-c62d-4210-bc5f-f431eced8b39"},"vehicle_type_id":"4","last_reported":1738944660,"current_range_meters":38800,"station_id":"ce4bhsh2rcd13ifvqi2g","pricing_plan_id":"cebpf4jnsgd1na2vs0mg"},{"bike_id":"24af02a4-02a2-46b3-b8ad-03837a578fb7","system_id":"levelo_inurba_marseille","lat":43.30303,"lon":5.3921,"is_reserved":false,"is_disabled":false,"rental_uris":{"android":"levelo://app?vid=24af02a4-02a2-46b3-b8ad-03837a578fb7","ios":"levelo://app?vid=24af02a4-02a2-46b3-b8ad-03837a578fb7"},"vehicle_type_id":"4","last_reported":1738944660,"current_range_meters":33200,"station_id":"ce4bgkh2rcd13ifvqbk0","pricing_plan_id":"cebpf4jnsgd1na2vs0mg"},{"bike_id":"85423e3e-4144-454b-a03d-159c22f85bad","system_id":"levelo_inurba_marseille","lat":43.30165,"lon":5.37418,"is_reserved":false,"is_disabled":false,"rental_uris":{"android":"levelo://app?vid=85423e3e-4144-454b-a03d-159c22f85bad","ios":"levelo://app?vid=85423e3e-4144-454b-a03d-159c22f85bad"},"vehicle_type_id":"4","last_reported":1738944660,"current_range_meters":17600,"station_id":"ce4bgs92rcd13ifvqcc0","pricing_plan_id":"cebpf4jnsgd1na2vs0mg"},{"bike_id":"2eebc95d-8a24-45d3-afdc-38de874c660d","system_id":"levelo_inurba_marseille","lat":43.30812,"lon":5.37427,"is_reserved":false,"is_disabled":false,"rental_uris":{"android":"levelo://app?vid=2eebc95d-8a24-45d3-afdc-38de874c660d","ios":"levelo://app?vid=2eebc95d-8a24-45d3-afdc-38de874c660d"},"vehicle_type_id":"4","last_reported":1738944660,"current_range_meters":17200,"station_id":"","pricing_plan_id":"cebpf4jnsgd1na2vs0mg"},{"bike_id":"6835673f-f138-4499-8bdd-83c3f3bccf33","system_id":"levelo_inurba_marseille","lat":43.27992,"lon":5.40009,"is_reserved":false,"is_disabled":false,"rental_uris":{"android":"levelo://app?vid=6835673f-f138-4499-8bdd-83c3f3bccf33","ios":"levelo://app?vid=6835673f-f138-4499-8bdd-83c3f3bccf33"},"vehicle_type_id":"4","last_reported":1738944660,"current_range_meters":36800,"station_id":"ce4bho92rcd13ifvqh4g","pricing_plan_id":"cebpf4jnsgd1na2vs0mg"},{"bike_id":"bb1bab95-412e-41ba-879a-c483b6ec0924","system_id":"levelo_inurba_marseille","lat":43.27826,"lon":5.40696,"is_reserved":false,"is_disabled":false,"rental_uris":{"android":"levelo://app?vid=bb1bab95-412e-41ba-879a-c483b6ec0924","ios":"levelo://app?vid=bb1bab95-412e-41ba-879a-c483b6ec0924"},"vehicle_type_id":"4","last_reported":1738944660,"current_range_meters":17600,"station_id":"ce4bhnh2rcd13ifvqgtg","pricing_plan_id":"cebpf4jnsgd1na2vs0mg"},{"bike_id":"22e2ae1d-8b8d-4b67-b51a-612a07d817eb","system_id":"levelo_inurba_marseille","lat":43.31706,"lon":5.437,"is_reserved":false,"is_disabled":false,"rental_uris":{"android":"levelo://app?vid=22e2ae1d-8b8d-4b67-b51a-612a07d817eb","ios":"levelo://app?vid=22e2ae1d-8b8d-4b67-b51a-612a07d817eb"},"vehicle_type_id":"4","last_reported":1738944660,"current_range_meters":16400,"station_id":"","pricing_plan_id":"cebpf4jnsgd1na2vs0mg"},{"bike_id":"363f89dc-7a31-4716-bf7c-5e8b960f961f","system_id":"levelo_inurba_marseille","lat":43.31088,"lon":5.42427,"is_reserved":false,"is_disabled":false,"rental_uris":{"android":"levelo://app?vid=363f89dc-7a31-4716-bf7c-5e8b960f961f","ios":"levelo://app?vid=363f89dc-7a31-4716-bf7c-5e8b960f961f"},"vehicle_type_id":"4","last_reported":1738944660,"current_range_meters":38800,"station_id":"ce4bhp92rcd13ifvqhag","pricing_plan_id":"cebpf4jnsgd1na2vs0mg"},{"bike_id":"cf1ec810-f7ec-419a-8ceb-08d76d0efda3","system_id":"levelo_inurba_marseille","lat":43.26559,"lon":5.37281,"is_reserved":false,"is_disabled":false,"rental_uris":{"android":"levelo://app?vid=cf1ec810-f7ec-419a-8ceb-08d76d0efda3","ios":"levelo://app?vid=cf1ec810-f7ec-419a-8ceb-08d76d0efda3"},"vehicle_type_id":"4","last_reported":1738944660,"current_range_meters":23200,"station_id":"ce4bhg12rcd13ifvqf70","pricing_plan_id":"cebpf4jnsgd1na2vs0mg"},{"bike_id":"d3f02aa3-e748-4574-967e-21ed1b351547","system_id":"levelo_inurba_marseille","lat":43.30654,"lon":5.401,"is_reserved":false,"is_disabled":false,"rental_uris":{"android":"levelo://app?vid=d3f02aa3-e748-4574-967e-21ed1b351547","ios":"levelo://app?vid=d3f02aa3-e748-4574-967e-21ed1b351547"},"vehicle_type_id":"4","last_reported":1738944660,"current_range_meters":34000,"station_id":"ce4bh112rcd13ifvqda0","pricing_plan_id":"cebpf4jnsgd1na2vs0mg"},{"bike_id":"0432209c-c852-45fa-b0a4-ab9de0f14c66","system_id":"levelo_inurba_marseille","lat":43.29746,"lon":5.37692,"is_reserved":false,"is_disabled":false,"rental_uris":{"android":"levelo://app?vid=0432209c-c852-45fa-b0a4-ab9de0f14c66","ios":"levelo://app?vid=0432209c-c852-45fa-b0a4-ab9de0f14c66"},"vehicle_type_id":"4","last_reported":1738944660,"current_range_meters":28800,"station_id":"ce4bgkh2rcd13ifvqbl0","pricing_plan_id":"cebpf4jnsgd1na2vs0mg"},{"bike_id":"b8829ab2-1487-4b8c-ae59-08c14afad745","system_id":"levelo_inurba_marseille","lat":43.32367,"lon":5.38858,"is_reserved":false,"is_disabled":false,"rental_uris":{"android":"levelo://app?vid=b8829ab2-1487-4b8c-ae59-08c14afad745","ios":"levelo://app?vid=b8829ab2-1487-4b8c-ae59-08c14afad745"},"vehicle_type_id":"4","last_reported":1738944660,"current_range_meters":19200,"station_id":"ce4bhqp2rcd13ifvqhog","pricing_plan_id":"cebpf4jnsgd1na2vs0mg"},{"bike_id":"d65380ba-057e-48c7-ba20-2dd40a327322","system_id":"levelo_inurba_marseille","lat":43.25498,"lon":5.37656,"is_reserved":false,"is_disabled":false,"rental_uris":{"android":"levelo://app?vid=d65380ba-057e-48c7-ba20-2dd40a327322","ios":"levelo://app?vid=d65380ba-057e-48c7-ba20-2dd40a327322"},"vehicle_type_id":"4","last_reported":1738944660,"current_range_meters":8400,"station_id":"ce4bhh12rcd13ifvqff0","pricing_plan_id":"cebpf4jnsgd1na2vs0mg"},{"bike_id":"19fc521f-3d20-4e47-ae74-5a7916181c41","system_id":"levelo_inurba_marseille","lat":43.26194,"lon":5.37454,"is_reserved":false,"is_disabled":false,"rental_uris":{"android":"levelo://app?vid=19fc521f-3d20-4e47-ae74-5a7916181c41","ios":"levelo://app?vid=19fc521f-3d20-4e47-ae74-5a7916181c41"},"vehicle_type_id":"4","last_reported":1738944660,"current_range_meters":28800,"station_id":"ce4bhgp2rcd13ifvqfc0","pricing_plan_id":"cebpf4jnsgd1na2vs0mg"},{"bike_id":"99edfd39-ea2c-4152-9a67-579e3aa4a733","system_id":"levelo_inurba_marseille","lat":43.23975,"lon":5.36611,"is_reserved":false,"is_disabled":false,"rental_uris":{"android":"levelo://app?vid=99edfd39-ea2c-4152-9a67-579e3aa4a733","ios":"levelo://app?vid=99edfd39-ea2c-4152-9a67-579e3aa4a733"},"vehicle_type_id":"4","last_reported":1738944660,"current_range_meters":38000,"station_id":"ce4bhi12rcd13ifvqfp0","pricing_plan_id":"cebpf4jnsgd1na2vs0mg"},{"bike_id":"0ea221ea-31ac-4446-85b6-71a4c94a4dd9","system_id":"levelo_inurba_marseille","lat":43.29867,"lon":5.36271,"is_reserved":false,"is_disabled":false,"rental_uris":{"android":"levelo://app?vid=0ea221ea-31ac-4446-85b6-71a4c94a4dd9","ios":"levelo://app?vid=0ea221ea-31ac-4446-85b6-71a4c94a4dd9"},"vehicle_type_id":"4","last_reported":1738944660,"current_range_meters":38800,"station_id":"ce4bgpp2rcd13ifvqc3g","pricing_plan_id":"cebpf4jnsgd1na2vs0mg"},{"bike_id":"412348d0-e316-46bb-8138-df0a547a79ea","system_id":"levelo_inurba_marseille","lat":43.30879,"lon":5.3963,"is_reserved":false,"is_disabled":false,"rental_uris":{"android":"levelo://app?vid=412348d0-e316-46bb-8138-df0a547a79ea","ios":"levelo://app?vid=412348d0-e316-46bb-8138-df0a547a79ea"},"vehicle_type_id":"4","last_reported":1738944660,"current_range_meters":24000,"station_id":"ce4bh012rcd13ifvqcv0","pricing_plan_id":"cebpf4jnsgd1na2vs0mg"},{"bike_id":"b868f2b7-1cbe-4d4b-a299-a36eacce6773","system_id":"levelo_inurba_marseille","lat":43.29704,"lon":5.37694,"is_reserved":false,"is_disabled":false,"rental_uris":{"android":"levelo://app?vid=b868f2b7-1cbe-4d4b-a299-a36eacce6773","ios":"levelo://app?vid=b868f2b7-1cbe-4d4b-a299-a36eacce6773"},"vehicle_type_id":"4","last_reported":1738944660,"current_range_meters":15200,"station_id":"ce4bgkh2rcd13ifvqbl0","pricing_plan_id":"cebpf4jnsgd1na2vs0mg"},{"bike_id":"562c2644-0c52-4457-ba6a-4a2f3f6f7c86","system_id":"levelo_inurba_marseille","lat":43.27207,"lon":5.39181,"is_reserved":false,"is_disabled":false,"rental_uris":{"android":"levelo://app?vid=562c2644-0c52-4457-ba6a-4a2f3f6f7c86","ios":"levelo://app?vid=562c2644-0c52-4457-ba6a-4a2f3f6f7c86"},"vehicle_type_id":"4","last_reported":1738944660,"current_range_meters":26000,"station_id":"ce4bhhp2rcd13ifvqfm0","pricing_plan_id":"cebpf4jnsgd1na2vs0mg"},{"bike_id":"076a1d2d-0a53-4470-b46e-644cdd13615c","system_id":"levelo_inurba_marseille","lat":43.30568,"lon":5.36519,"is_reserved":false,"is_disabled":false,"rental_uris":{"android":"levelo://app?vid=076a1d2d-0a53-4470-b46e-644cdd13615c","ios":"levelo://app?vid=076a1d2d-0a53-4470-b46e-644cdd13615c"},"vehicle_type_id":"4","last_reported":1738944660,"current_range_meters":38800,"station_id":"ce4bgs12rcd13ifvqcag","pricing_plan_id":"cebpf4jnsgd1na2vs0mg"},{"bike_id":"1cfe21f7-6157-4ffb-a163-41af87f64a95","system_id":"levelo_inurba_marseille","lat":43.28453,"lon":5.35887,"is_reserved":false,"is_disabled":false,"rental_uris":{"android":"levelo://app?vid=1cfe21f7-6157-4ffb-a163-41af87f64a95","ios":"levelo://app?vid=1cfe21f7-6157-4ffb-a163-41af87f64a95"},"vehicle_type_id":"4","last_reported":1738944660,"current_range_meters":38800,"station_id":"ce4bhah2rcd13ifvqei0","pricing_plan_id":"cebpf4jnsgd1na2vs0mg"},{"bike_id":"3bfecead-d0d0-4299-af51-850ce5394c27","system_id":"levelo_inurba_marseille","lat":43.30879,"lon":5.39651,"is_reserved":false,"is_disabled":false,"rental_uris":{"android":"levelo://app?vid=3bfecead-d0d0-4299-af51-850ce5394c27","ios":"levelo://app?vid=3bfecead-d0d0-4299-af51-850ce5394c27"},"vehicle_type_id":"4","last_reported":1738944660,"current_range_meters":38000,"station_id":"ce4bh012rcd13ifvqcv0","pricing_plan_id":"cebpf4jnsgd1na2vs0mg"},{"bike_id":"aabe1f0b-89a1-4652-9d45-ac5bc92d0c24","system_id":"levelo_inurba_marseille","lat":43.30141,"lon":5.37413,"is_reserved":false,"is_disabled":false,"rental_uris":{"android":"levelo://app?vid=aabe1f0b-89a1-4652-9d45-ac5bc92d0c24","ios":"levelo://app?vid=aabe1f0b-89a1-4652-9d45-ac5bc92d0c24"},"vehicle_type_id":"4","last_reported":1738944660,"current_range_meters":38800,"station_id":"ce4bgs92rcd13ifvqcc0","pricing_plan_id":"cebpf4jnsgd1na2vs0mg"},{"bike_id":"c5afe4ed-432e-4c43-8e07-8a9cecbd1a94","system_id":"levelo_inurba_marseille","lat":43.29271,"lon":5.38447,"is_reserved":false,"is_disabled":false,"rental_uris":{"android":"levelo://app?vid=c5afe4ed-432e-4c43-8e07-8a9cecbd1a94","ios":"levelo://app?vid=c5afe4ed-432e-4c43-8e07-8a9cecbd1a94"},"vehicle_type_id":"4","last_reported":1738944660,"current_range_meters":38800,"station_id":"ce4bh692rcd13ifvqea0","pricing_plan_id":"cebpf4jnsgd1na2vs0mg"},{"bike_id":"061ad218-5e14-42ca-9e7e-ab9e18d283ef","system_id":"levelo_inurba_marseille","lat":43.2586,"lon":5.39905,"is_reserved":false,"is_disabled":false,"rental_uris":{"android":"levelo://app?vid=061ad218-5e14-42ca-9e7e-ab9e18d283ef","ios":"levelo://app?vid=061ad218-5e14-42ca-9e7e-ab9e18d283ef"},"vehicle_type_id":"4","last_reported":1738944660,"current_range_meters":22800,"station_id":"ce4bhl92rcd13ifvqghg","pricing_plan_id":"cebpf4jnsgd1na2vs0mg"},{"bike_id":"c2847876-8060-42ca-9f49-1c107f1833bf","system_id":"levelo_inurba_marseille","lat":43.27427,"lon":5.39421,"is_reserved":false,"is_disabled":false,"rental_uris":{"android":"levelo://app?vid=c2847876-8060-42ca-9f49-1c107f1833bf","ios":"levelo://app?vid=c2847876-8060-42ca-9f49-1c107f1833bf"},"vehicle_type_id":"4","last_reported":1738944660,"current_range_meters":24800,"station_id":"ce4bhdp2rcd13ifvqf20","pricing_plan_id":"cebpf4jnsgd1na2vs0mg"},{"bike_id":"201ecfc8-9896-48c6-91ea-b68110b20dcc","system_id":"levelo_inurba_marseille","lat":43.27832,"lon":5.39199,"is_reserved":false,"is_disabled":true,"rental_uris":{"android":"levelo://app?vid=201ecfc8-9896-48c6-91ea-b68110b20dcc","ios":"levelo://app?vid=201ecfc8-9896-48c6-91ea-b68110b20dcc"},"vehicle_type_id":"4","last_reported":1738944660,"current_range_meters":1200,"station_id":"ce4bhjp2rcd13ifvqga0","pricing_plan_id":"cebpf4jnsgd1na2vs0mg"},{"bike_id":"f67b7531-6c63-4f46-a9d4-4fdf588facb0","system_id":"levelo_inurba_marseille","lat":43.27876,"lon":5.40615,"is_reserved":false,"is_disabled":true,"rental_uris":{"android":"levelo://app?vid=f67b7531-6c63-4f46-a9d4-4fdf588facb0","ios":"levelo://app?vid=f67b7531-6c63-4f46-a9d4-4fdf588facb0"},"vehicle_type_id":"4","last_reported":1738944660,"current_range_meters":0,"station_id":"","pricing_plan_id":"cebpf4jnsgd1na2vs0mg"},{"bike_id":"1cfe115c-cb2a-45ae-9c2f-e4c8cedbb914","system_id":"levelo_inurba_marseille","lat":43.264954,"lon":5.395403,"is_reserved":false,"is_disabled":false,"rental_uris":{"android":"levelo://app?vid=1cfe115c-cb2a-45ae-9c2f-e4c8cedbb914","ios":"levelo://app?vid=1cfe115c-cb2a-45ae-9c2f-e4c8cedbb914"},"vehicle_type_id":"4","last_reported":1738944660,"current_range_meters":35600,"station_id":"ce4bhi12rcd13ifvqfq0","pricing_plan_id":"cebpf4jnsgd1na2vs0mg"},{"bike_id":"ccc0d99a-4f06-4847-88ea-bfbf26a9a708","system_id":"levelo_inurba_marseille","lat":43.27377,"lon":5.36259,"is_reserved":false,"is_disabled":false,"rental_uris":{"android":"levelo://app?vid=ccc0d99a-4f06-4847-88ea-bfbf26a9a708","ios":"levelo://app?vid=ccc0d99a-4f06-4847-88ea-bfbf26a9a708"},"vehicle_type_id":"4","last_reported":1738944660,"current_range_meters":38800,"station_id":"ce4bhbh2rcd13ifvqeo0","pricing_plan_id":"cebpf4jnsgd1na2vs0mg"},{"bike_id":"1047ff1d-49b3-4860-859b-cb306bbb0b1e","system_id":"levelo_inurba_marseille","lat":43.25718,"lon":5.41793,"is_reserved":false,"is_disabled":false,"rental_uris":{"android":"levelo://app?vid=1047ff1d-49b3-4860-859b-cb306bbb0b1e","ios":"levelo://app?vid=1047ff1d-49b3-4860-859b-cb306bbb0b1e"},"vehicle_type_id":"4","last_reported":1738944660,"current_range_meters":7200,"station_id":"","pricing_plan_id":"cebpf4jnsgd1na2vs0mg"},{"bike_id":"a1ff6a73-36b2-4a61-a88f-8f0cc16371c7","system_id":"levelo_inurba_marseille","lat":43.26247,"lon":5.40441,"is_reserved":false,"is_disabled":false,"rental_uris":{"android":"levelo://app?vid=a1ff6a73-36b2-4a61-a88f-8f0cc16371c7","ios":"levelo://app?vid=a1ff6a73-36b2-4a61-a88f-8f0cc16371c7"},"vehicle_type_id":"4","last_reported":1738944660,"current_range_meters":36800,"station_id":"ce4bhmh2rcd13ifvqgmg","pricing_plan_id":"cebpf4jnsgd1na2vs0mg"},{"bike_id":"5a2d5dfd-03ec-4fe4-9110-6cf9df6cb751","system_id":"levelo_inurba_marseille","lat":43.28715,"lon":5.37942,"is_reserved":false,"is_disabled":true,"rental_uris":{"android":"levelo://app?vid=5a2d5dfd-03ec-4fe4-9110-6cf9df6cb751","ios":"levelo://app?vid=5a2d5dfd-03ec-4fe4-9110-6cf9df6cb751"},"vehicle_type_id":"4","last_reported":1738944660,"current_range_meters":26800,"station_id":"ce4bh9p2rcd13ifvqec0","pricing_plan_id":"cebpf4jnsgd1na2vs0mg"},{"bike_id":"d3049334-ff4b-45b8-b9ca-d1bdee0c3c9c","system_id":"levelo_inurba_marseille","lat":43.27907,"lon":5.38009,"is_reserved":false,"is_disabled":false,"rental_uris":{"android":"levelo://app?vid=d3049334-ff4b-45b8-b9ca-d1bdee0c3c9c","ios":"levelo://app?vid=d3049334-ff4b-45b8-b9ca-d1bdee0c3c9c"},"vehicle_type_id":"4","last_reported":1738944660,"current_range_meters":37600,"station_id":"ce4bhf92rcd13ifvqf50","pricing_plan_id":"cebpf4jnsgd1na2vs0mg"},{"bike_id":"114998f0-dfb0-494f-8117-273cb0fabd56","system_id":"levelo_inurba_marseille","lat":43.23181,"lon":5.39984,"is_reserved":false,"is_disabled":false,"rental_uris":{"android":"levelo://app?vid=114998f0-dfb0-494f-8117-273cb0fabd56","ios":"levelo://app?vid=114998f0-dfb0-494f-8117-273cb0fabd56"},"vehicle_type_id":"4","last_reported":1738944660,"current_range_meters":38800,"station_id":"ce4bhn12rcd13ifvqgqg","pricing_plan_id":"cebpf4jnsgd1na2vs0mg"},{"bike_id":"55c531ba-cb99-413a-81f9-84f3b3d5979e","system_id":"levelo_inurba_marseille","lat":43.22927,"lon":5.35377,"is_reserved":false,"is_disabled":false,"rental_uris":{"android":"levelo://app?vid=55c531ba-cb99-413a-81f9-84f3b3d5979e","ios":"levelo://app?vid=55c531ba-cb99-413a-81f9-84f3b3d5979e"},"vehicle_type_id":"4","last_reported":1738944660,"current_range_meters":24800,"station_id":"cpo3532slgdg3j2ikp40","pricing_plan_id":"cebpf4jnsgd1na2vs0mg"},{"bike_id":"e3246cc0-45bf-46c6-a805-f71ab9f8b6e0","system_id":"levelo_inurba_marseille","lat":43.29689,"lon":5.3731,"is_reserved":false,"is_disabled":false,"rental_uris":{"android":"levelo://app?vid=e3246cc0-45bf-46c6-a805-f71ab9f8b6e0","ios":"levelo://app?vid=e3246cc0-45bf-46c6-a805-f71ab9f8b6e0"},"vehicle_type_id":"4","last_reported":1738944660,"current_range_meters":39200,"station_id":"ce4bgk12rcd13ifvqbj0","pricing_plan_id":"cebpf4jnsgd1na2vs0mg"},{"bike_id":"6a3ebbcf-ee39-47ea-b689-f3b066371aa9","system_id":"levelo_inurba_marseille","lat":43.30139,"lon":5.39876,"is_reserved":false,"is_disabled":false,"rental_uris":{"android":"levelo://app?vid=6a3ebbcf-ee39-47ea-b689-f3b066371aa9","ios":"levelo://app?vid=6a3ebbcf-ee39-47ea-b689-f3b066371aa9"},"vehicle_type_id":"4","last_reported":1738944660,"current_range_meters":17200,"station_id":"","pricing_plan_id":"cebpf4jnsgd1na2vs0mg"},{"bike_id":"131ce1ea-4f99-4dbc-b092-c40b0d920b1c","system_id":"levelo_inurba_marseille","lat":43.28278,"lon":5.35076,"is_reserved":false,"is_disabled":false,"rental_uris":{"android":"levelo://app?vid=131ce1ea-4f99-4dbc-b092-c40b0d920b1c","ios":"levelo://app?vid=131ce1ea-4f99-4dbc-b092-c40b0d920b1c"},"vehicle_type_id":"4","last_reported":1738944660,"current_range_meters":38400,"station_id":"ce4bhbp2rcd13ifvqerg","pricing_plan_id":"cebpf4jnsgd1na2vs0mg"},{"bike_id":"42b00d6b-70d0-4750-bdd2-377deb18497e","system_id":"levelo_inurba_marseille","lat":43.22945,"lon":5.35398,"is_reserved":false,"is_disabled":false,"rental_uris":{"android":"levelo://app?vid=42b00d6b-70d0-4750-bdd2-377deb18497e","ios":"levelo://app?vid=42b00d6b-70d0-4750-bdd2-377deb18497e"},"vehicle_type_id":"4","last_reported":1738944660,"current_range_meters":27600,"station_id":"cpo3532slgdg3j2ikp40","pricing_plan_id":"cebpf4jnsgd1na2vs0mg"},{"bike_id":"aabb1cdc-f06b-4055-9f74-754a33430498","system_id":"levelo_inurba_marseille","lat":43.30921,"lon":5.40148,"is_reserved":false,"is_disabled":false,"rental_uris":{"android":"levelo://app?vid=aabb1cdc-f06b-4055-9f74-754a33430498","ios":"levelo://app?vid=aabb1cdc-f06b-4055-9f74-754a33430498"},"vehicle_type_id":"4","last_reported":1738944660,"current_range_meters":36000,"station_id":"ce4bgvp2rcd13ifvqct0","pricing_plan_id":"cebpf4jnsgd1na2vs0mg"},{"bike_id":"6a626ed7-d544-477c-bb32-c19923501a4d","system_id":"levelo_inurba_marseille","lat":43.28155,"lon":5.4265,"is_reserved":false,"is_disabled":false,"rental_uris":{"android":"levelo://app?vid=6a626ed7-d544-477c-bb32-c19923501a4d","ios":"levelo://app?vid=6a626ed7-d544-477c-bb32-c19923501a4d"},"vehicle_type_id":"4","last_reported":1738944660,"current_range_meters":24400,"station_id":"ce4bhnh2rcd13ifvqgug","pricing_plan_id":"cebpf4jnsgd1na2vs0mg"},{"bike_id":"6af89bff-216d-4e96-85e5-d13c12605932","system_id":"levelo_inurba_marseille","lat":43.28853,"lon":5.39316,"is_reserved":false,"is_disabled":false,"rental_uris":{"android":"levelo://app?vid=6af89bff-216d-4e96-85e5-d13c12605932","ios":"levelo://app?vid=6af89bff-216d-4e96-85e5-d13c12605932"},"vehicle_type_id":"4","last_reported":1738944660,"current_range_meters":22400,"station_id":"ce4bh2p2rcd13ifvqdi0","pricing_plan_id":"cebpf4jnsgd1na2vs0mg"},{"bike_id":"f1bbac45-5b32-4b97-b4ef-d7ee065546b1","system_id":"levelo_inurba_marseille","lat":43.26031,"lon":5.3754,"is_reserved":false,"is_disabled":false,"rental_uris":{"android":"levelo://app?vid=f1bbac45-5b32-4b97-b4ef-d7ee065546b1","ios":"levelo://app?vid=f1bbac45-5b32-4b97-b4ef-d7ee065546b1"},"vehicle_type_id":"4","last_reported":1738944660,"current_range_meters":37600,"station_id":"ce4bhgh2rcd13ifvqfa0","pricing_plan_id":"cebpf4jnsgd1na2vs0mg"},{"bike_id":"cf15dcfc-f75b-49ba-9753-34ae5d8d8655","system_id":"levelo_inurba_marseille","lat":43.2705,"lon":5.40266,"is_reserved":false,"is_disabled":false,"rental_uris":{"android":"levelo://app?vid=cf15dcfc-f75b-49ba-9753-34ae5d8d8655","ios":"levelo://app?vid=cf15dcfc-f75b-49ba-9753-34ae5d8d8655"},"vehicle_type_id":"4","last_reported":1738944660,"current_range_meters":24400,"station_id":"ce4bhk92rcd13ifvqgc0","pricing_plan_id":"cebpf4jnsgd1na2vs0mg"},{"bike_id":"57e029b0-7efc-495b-af6e-0584b5d61ebf","system_id":"levelo_inurba_marseille","lat":43.25868,"lon":5.39898,"is_reserved":false,"is_disabled":false,"rental_uris":{"android":"levelo://app?vid=57e029b0-7efc-495b-af6e-0584b5d61ebf","ios":"levelo://app?vid=57e029b0-7efc-495b-af6e-0584b5d61ebf"},"vehicle_type_id":"4","last_reported":1738944660,"current_range_meters":20800,"station_id":"ce4bhl92rcd13ifvqghg","pricing_plan_id":"cebpf4jnsgd1na2vs0mg"},{"bike_id":"da0f4188-cc8c-4992-92ab-7244b7942a38","system_id":"levelo_inurba_marseille","lat":43.29303,"lon":5.37436,"is_reserved":false,"is_disabled":false,"rental_uris":{"android":"levelo://app?vid=da0f4188-cc8c-4992-92ab-7244b7942a38","ios":"levelo://app?vid=da0f4188-cc8c-4992-92ab-7244b7942a38"},"vehicle_type_id":"4","last_reported":1738944660,"current_range_meters":35600,"station_id":"ce4bgi12rcd13ifvqb70","pricing_plan_id":"cebpf4jnsgd1na2vs0mg"},{"bike_id":"2fc109ec-e0d3-4cdb-997c-66b0cf3a8c52","system_id":"levelo_inurba_marseille","lat":43.27216,"lon":5.39186,"is_reserved":false,"is_disabled":false,"rental_uris":{"android":"levelo://app?vid=2fc109ec-e0d3-4cdb-997c-66b0cf3a8c52","ios":"levelo://app?vid=2fc109ec-e0d3-4cdb-997c-66b0cf3a8c52"},"vehicle_type_id":"4","last_reported":1738944660,"current_range_meters":35200,"station_id":"ce4bhhp2rcd13ifvqfm0","pricing_plan_id":"cebpf4jnsgd1na2vs0mg"},{"bike_id":"c6fc4b4a-5347-4905-8d96-67ea4d004656","system_id":"levelo_inurba_marseille","lat":43.2321,"lon":5.35546,"is_reserved":false,"is_disabled":false,"rental_uris":{"android":"levelo://app?vid=c6fc4b4a-5347-4905-8d96-67ea4d004656","ios":"levelo://app?vid=c6fc4b4a-5347-4905-8d96-67ea4d004656"},"vehicle_type_id":"4","last_reported":1738944660,"current_range_meters":10000,"station_id":"ce4bhu92rcd13ifvqi70","pricing_plan_id":"cebpf4jnsgd1na2vs0mg"},{"bike_id":"1da8b17b-ad28-4780-a711-431647c244ed","system_id":"levelo_inurba_marseille","lat":43.23961,"lon":5.36614,"is_reserved":false,"is_disabled":false,"rental_uris":{"android":"levelo://app?vid=1da8b17b-ad28-4780-a711-431647c244ed","ios":"levelo://app?vid=1da8b17b-ad28-4780-a711-431647c244ed"},"vehicle_type_id":"4","last_reported":1738944660,"current_range_meters":28000,"station_id":"ce4bhi12rcd13ifvqfp0","pricing_plan_id":"cebpf4jnsgd1na2vs0mg"},{"bike_id":"b1db3003-a515-433c-b006-a61b3558f325","system_id":"levelo_inurba_marseille","lat":43.30219,"lon":5.39453,"is_reserved":false,"is_disabled":true,"rental_uris":{"android":"levelo://app?vid=b1db3003-a515-433c-b006-a61b3558f325","ios":"levelo://app?vid=b1db3003-a515-433c-b006-a61b3558f325"},"vehicle_type_id":"4","last_reported":1738944660,"current_range_meters":38800,"station_id":"ce4bh0p2rcd13ifvqd70","pricing_plan_id":"cebpf4jnsgd1na2vs0mg"},{"bike_id":"a7f17c20-778e-45bc-a01a-8ae901055221","system_id":"levelo_inurba_marseille","lat":43.29885,"lon":5.39753,"is_reserved":false,"is_disabled":false,"rental_uris":{"android":"levelo://app?vid=a7f17c20-778e-45bc-a01a-8ae901055221","ios":"levelo://app?vid=a7f17c20-778e-45bc-a01a-8ae901055221"},"vehicle_type_id":"4","last_reported":1738944660,"current_range_meters":27600,"station_id":"ce4bh0h2rcd13ifvqd50","pricing_plan_id":"cebpf4jnsgd1na2vs0mg"},{"bike_id":"d32646a2-a245-4773-a94b-5f319b6425fa","system_id":"levelo_inurba_marseille","lat":43.29887,"lon":5.38149,"is_reserved":false,"is_disabled":false,"rental_uris":{"android":"levelo://app?vid=d32646a2-a245-4773-a94b-5f319b6425fa","ios":"levelo://app?vid=d32646a2-a245-4773-a94b-5f319b6425fa"},"vehicle_type_id":"4","last_reported":1738944660,"current_range_meters":26800,"station_id":"ce4bgj12rcd13ifvqbc0","pricing_plan_id":"cebpf4jnsgd1na2vs0mg"},{"bike_id":"141cd7c8-93d6-4912-b30a-3ef044eb5ff7","system_id":"levelo_inurba_marseille","lat":43.29307,"lon":5.37469,"is_reserved":false,"is_disabled":false,"rental_uris":{"android":"levelo://app?vid=141cd7c8-93d6-4912-b30a-3ef044eb5ff7","ios":"levelo://app?vid=141cd7c8-93d6-4912-b30a-3ef044eb5ff7"},"vehicle_type_id":"4","last_reported":1738944660,"current_range_meters":28800,"station_id":"ce4bgi12rcd13ifvqb70","pricing_plan_id":"cebpf4jnsgd1na2vs0mg"},{"bike_id":"e408d721-1719-4f3b-bfb2-ee76b97560c7","system_id":"levelo_inurba_marseille","lat":43.24653,"lon":5.38882,"is_reserved":false,"is_disabled":false,"rental_uris":{"android":"levelo://app?vid=e408d721-1719-4f3b-bfb2-ee76b97560c7","ios":"levelo://app?vid=e408d721-1719-4f3b-bfb2-ee76b97560c7"},"vehicle_type_id":"4","last_reported":1738944660,"current_range_meters":38800,"station_id":"ce4bhg12rcd13ifvqf60","pricing_plan_id":"cebpf4jnsgd1na2vs0mg"},{"bike_id":"4ce0983f-2b7d-40d5-81f8-bfab26a50cb7","system_id":"levelo_inurba_marseille","lat":43.3031,"lon":5.36887,"is_reserved":false,"is_disabled":false,"rental_uris":{"android":"levelo://app?vid=4ce0983f-2b7d-40d5-81f8-bfab26a50cb7","ios":"levelo://app?vid=4ce0983f-2b7d-40d5-81f8-bfab26a50cb7"},"vehicle_type_id":"4","last_reported":1738944660,"current_range_meters":20800,"station_id":"ce4bgqh2rcd13ifvqc5g","pricing_plan_id":"cebpf4jnsgd1na2vs0mg"},{"bike_id":"b535402c-25ad-4274-bf8f-573a8931886f","system_id":"levelo_inurba_marseille","lat":43.33032,"lon":5.39038,"is_reserved":false,"is_disabled":false,"rental_uris":{"android":"levelo://app?vid=b535402c-25ad-4274-bf8f-573a8931886f","ios":"levelo://app?vid=b535402c-25ad-4274-bf8f-573a8931886f"},"vehicle_type_id":"4","last_reported":1738944660,"current_range_meters":39200,"station_id":"ce4bhr92rcd13ifvqhrg","pricing_plan_id":"cebpf4jnsgd1na2vs0mg"},{"bike_id":"481cf27f-9954-4b97-9f0b-63676b43b84e","system_id":"levelo_inurba_marseille","lat":43.29897,"lon":5.43672,"is_reserved":false,"is_disabled":false,"rental_uris":{"android":"levelo://app?vid=481cf27f-9954-4b97-9f0b-63676b43b84e","ios":"levelo://app?vid=481cf27f-9954-4b97-9f0b-63676b43b84e"},"vehicle_type_id":"4","last_reported":1738944660,"current_range_meters":21600,"station_id":"ce4bhpp2rcd13ifvqhfg","pricing_plan_id":"cebpf4jnsgd1na2vs0mg"},{"bike_id":"bc9d25ae-730f-4594-aaf7-bf3298e0e3e4","system_id":"levelo_inurba_marseille","lat":43.27846,"lon":5.39205,"is_reserved":false,"is_disabled":false,"rental_uris":{"android":"levelo://app?vid=bc9d25ae-730f-4594-aaf7-bf3298e0e3e4","ios":"levelo://app?vid=bc9d25ae-730f-4594-aaf7-bf3298e0e3e4"},"vehicle_type_id":"4","last_reported":1738944660,"current_range_meters":38800,"station_id":"ce4bhjp2rcd13ifvqga0","pricing_plan_id":"cebpf4jnsgd1na2vs0mg"},{"bike_id":"71427da2-8c4d-4b45-9f69-5ad61223ea8e","system_id":"levelo_inurba_marseille","lat":43.29301,"lon":5.37172,"is_reserved":false,"is_disabled":false,"rental_uris":{"android":"levelo://app?vid=71427da2-8c4d-4b45-9f69-5ad61223ea8e","ios":"levelo://app?vid=71427da2-8c4d-4b45-9f69-5ad61223ea8e"},"vehicle_type_id":"4","last_reported":1738944660,"current_range_meters":38400,"station_id":"ce4bgh92rcd13ifvqb40","pricing_plan_id":"cebpf4jnsgd1na2vs0mg"},{"bike_id":"9aa643bf-6168-4808-9afe-dc40ac6c7a7c","system_id":"levelo_inurba_marseille","lat":43.29922,"lon":5.37467,"is_reserved":false,"is_disabled":false,"rental_uris":{"android":"levelo://app?vid=9aa643bf-6168-4808-9afe-dc40ac6c7a7c","ios":"levelo://app?vid=9aa643bf-6168-4808-9afe-dc40ac6c7a7c"},"vehicle_type_id":"4","last_reported":1738944660,"current_range_meters":38800,"station_id":"ce4bgjh2rcd13ifvqbg0","pricing_plan_id":"cebpf4jnsgd1na2vs0mg"},{"bike_id":"d335b8c5-dd1e-458f-80c2-4f63a19623b3","system_id":"levelo_inurba_marseille","lat":43.30903,"lon":5.36875,"is_reserved":false,"is_disabled":false,"rental_uris":{"android":"levelo://app?vid=d335b8c5-dd1e-458f-80c2-4f63a19623b3","ios":"levelo://app?vid=d335b8c5-dd1e-458f-80c2-4f63a19623b3"},"vehicle_type_id":"4","last_reported":1738944660,"current_range_meters":38400,"station_id":"ce4bgn92rcd13ifvqbvg","pricing_plan_id":"cebpf4jnsgd1na2vs0mg"},{"bike_id":"0197f52a-7fe4-448e-93cf-8bdd2aecb08b","system_id":"levelo_inurba_marseille","lat":43.27619,"lon":5.36106,"is_reserved":false,"is_disabled":false,"rental_uris":{"android":"levelo://app?vid=0197f52a-7fe4-448e-93cf-8bdd2aecb08b","ios":"levelo://app?vid=0197f52a-7fe4-448e-93cf-8bdd2aecb08b"},"vehicle_type_id":"4","last_reported":1738944660,"current_range_meters":19600,"station_id":"ce4bgj92rcd13ifvqbe0","pricing_plan_id":"cebpf4jnsgd1na2vs0mg"},{"bike_id":"a91c5270-c4b1-443a-b905-f09967a56981","system_id":"levelo_inurba_marseille","lat":43.26561,"lon":5.37288,"is_reserved":false,"is_disabled":false,"rental_uris":{"android":"levelo://app?vid=a91c5270-c4b1-443a-b905-f09967a56981","ios":"levelo://app?vid=a91c5270-c4b1-443a-b905-f09967a56981"},"vehicle_type_id":"4","last_reported":1738944660,"current_range_meters":14400,"station_id":"ce4bhg12rcd13ifvqf70","pricing_plan_id":"cebpf4jnsgd1na2vs0mg"},{"bike_id":"9563d2a6-bf60-4758-bc3e-9491576f38e3","system_id":"levelo_inurba_marseille","lat":43.31641,"lon":5.38962,"is_reserved":false,"is_disabled":false,"rental_uris":{"android":"levelo://app?vid=9563d2a6-bf60-4758-bc3e-9491576f38e3","ios":"levelo://app?vid=9563d2a6-bf60-4758-bc3e-9491576f38e3"},"vehicle_type_id":"4","last_reported":1738944660,"current_range_meters":36400,"station_id":"","pricing_plan_id":"cebpf4jnsgd1na2vs0mg"},{"bike_id":"6a17dd80-d31b-4a39-915c-05dbce10b4fd","system_id":"levelo_inurba_marseille","lat":43.29257,"lon":5.38438,"is_reserved":false,"is_disabled":false,"rental_uris":{"android":"levelo://app?vid=6a17dd80-d31b-4a39-915c-05dbce10b4fd","ios":"levelo://app?vid=6a17dd80-d31b-4a39-915c-05dbce10b4fd"},"vehicle_type_id":"4","last_reported":1738944660,"current_range_meters":27600,"station_id":"ce4bh692rcd13ifvqea0","pricing_plan_id":"cebpf4jnsgd1na2vs0mg"},{"bike_id":"0bc38e38-92c3-4ed1-b28d-79cb5f04f246","system_id":"levelo_inurba_marseille","lat":43.26682,"lon":5.38268,"is_reserved":false,"is_disabled":false,"rental_uris":{"android":"levelo://app?vid=0bc38e38-92c3-4ed1-b28d-79cb5f04f246","ios":"levelo://app?vid=0bc38e38-92c3-4ed1-b28d-79cb5f04f246"},"vehicle_type_id":"4","last_reported":1738944660,"current_range_meters":38800,"station_id":"ce4bhg92rcd13ifvqf90","pricing_plan_id":"cebpf4jnsgd1na2vs0mg"},{"bike_id":"cbf36858-68f2-47f8-b58b-07ec04118b03","system_id":"levelo_inurba_marseille","lat":43.30138,"lon":5.37423,"is_reserved":false,"is_disabled":false,"rental_uris":{"android":"levelo://app?vid=cbf36858-68f2-47f8-b58b-07ec04118b03","ios":"levelo://app?vid=cbf36858-68f2-47f8-b58b-07ec04118b03"},"vehicle_type_id":"4","last_reported":1738944660,"current_range_meters":30000,"station_id":"ce4bgs92rcd13ifvqcc0","pricing_plan_id":"cebpf4jnsgd1na2vs0mg"},{"bike_id":"a3b75526-e9b3-4d81-a078-50b030c7e9ce","system_id":"levelo_inurba_marseille","lat":43.25579,"lon":5.38254,"is_reserved":false,"is_disabled":false,"rental_uris":{"android":"levelo://app?vid=a3b75526-e9b3-4d81-a078-50b030c7e9ce","ios":"levelo://app?vid=a3b75526-e9b3-4d81-a078-50b030c7e9ce"},"vehicle_type_id":"4","last_reported":1738944660,"current_range_meters":38800,"station_id":"ce4bhih2rcd13ifvqfs0","pricing_plan_id":"cebpf4jnsgd1na2vs0mg"},{"bike_id":"48e4415f-4bfa-4dd7-b8c6-72b96454ae71","system_id":"levelo_inurba_marseille","lat":43.26799,"lon":5.40262,"is_reserved":false,"is_disabled":false,"rental_uris":{"android":"levelo://app?vid=48e4415f-4bfa-4dd7-b8c6-72b96454ae71","ios":"levelo://app?vid=48e4415f-4bfa-4dd7-b8c6-72b96454ae71"},"vehicle_type_id":"4","last_reported":1738944660,"current_range_meters":38800,"station_id":"ce501612rcd8frsf0b60","pricing_plan_id":"cebpf4jnsgd1na2vs0mg"},{"bike_id":"d55f6823-3781-4183-b012-fb4af38e6693","system_id":"levelo_inurba_marseille","lat":43.31129,"lon":5.37778,"is_reserved":false,"is_disabled":false,"rental_uris":{"android":"levelo://app?vid=d55f6823-3781-4183-b012-fb4af38e6693","ios":"levelo://app?vid=d55f6823-3781-4183-b012-fb4af38e6693"},"vehicle_type_id":"4","last_reported":1738944660,"current_range_meters":36400,"station_id":"ce4bgt92rcd13ifvqcg0","pricing_plan_id":"cebpf4jnsgd1na2vs0mg"},{"bike_id":"893f0569-d410-46e6-aa8e-f37620528bd1","system_id":"levelo_inurba_marseille","lat":43.2512,"lon":5.40315,"is_reserved":false,"is_disabled":false,"rental_uris":{"android":"levelo://app?vid=893f0569-d410-46e6-aa8e-f37620528bd1","ios":"levelo://app?vid=893f0569-d410-46e6-aa8e-f37620528bd1"},"vehicle_type_id":"4","last_reported":1738944660,"current_range_meters":37600,"station_id":"ce4bhlh2rcd13ifvqgig","pricing_plan_id":"cebpf4jnsgd1na2vs0mg"},{"bike_id":"64e1c73b-fcff-487f-95d8-4a19ebe32bf9","system_id":"levelo_inurba_marseille","lat":43.32341,"lon":5.40621,"is_reserved":false,"is_disabled":false,"rental_uris":{"android":"levelo://app?vid=64e1c73b-fcff-487f-95d8-4a19ebe32bf9","ios":"levelo://app?vid=64e1c73b-fcff-487f-95d8-4a19ebe32bf9"},"vehicle_type_id":"4","last_reported":1738944660,"current_range_meters":28800,"station_id":"ce4bhq92rcd13ifvqhjg","pricing_plan_id":"cebpf4jnsgd1na2vs0mg"},{"bike_id":"0e457a1f-76f3-427f-ae6e-5314a6b1df1b","system_id":"levelo_inurba_marseille","lat":43.32332,"lon":5.40612,"is_reserved":false,"is_disabled":false,"rental_uris":{"android":"levelo://app?vid=0e457a1f-76f3-427f-ae6e-5314a6b1df1b","ios":"levelo://app?vid=0e457a1f-76f3-427f-ae6e-5314a6b1df1b"},"vehicle_type_id":"4","last_reported":1738944660,"current_range_meters":38000,"station_id":"ce4bhq92rcd13ifvqhjg","pricing_plan_id":"cebpf4jnsgd1na2vs0mg"},{"bike_id":"e8cbc2aa-f568-4e90-a185-c7fc15dc5c37","system_id":"levelo_inurba_marseille","lat":43.29555,"lon":5.42294,"is_reserved":false,"is_disabled":false,"rental_uris":{"android":"levelo://app?vid=e8cbc2aa-f568-4e90-a185-c7fc15dc5c37","ios":"levelo://app?vid=e8cbc2aa-f568-4e90-a185-c7fc15dc5c37"},"vehicle_type_id":"4","last_reported":1738944660,"current_range_meters":6000,"station_id":"ce4bhph2rcd13ifvqhdg","pricing_plan_id":"cebpf4jnsgd1na2vs0mg"},{"bike_id":"ed2947c7-416b-4f25-b15f-def172dbc755","system_id":"levelo_inurba_marseille","lat":43.30595,"lon":5.36572,"is_reserved":false,"is_disabled":false,"rental_uris":{"android":"levelo://app?vid=ed2947c7-416b-4f25-b15f-def172dbc755","ios":"levelo://app?vid=ed2947c7-416b-4f25-b15f-def172dbc755"},"vehicle_type_id":"4","last_reported":1738944660,"current_range_meters":36000,"station_id":"ce4bgs12rcd13ifvqcag","pricing_plan_id":"cebpf4jnsgd1na2vs0mg"},{"bike_id":"23068eec-0c6b-4bf7-8fc1-626d027b0f7e","system_id":"levelo_inurba_marseille","lat":43.28853,"lon":5.3932,"is_reserved":false,"is_disabled":false,"rental_uris":{"android":"levelo://app?vid=23068eec-0c6b-4bf7-8fc1-626d027b0f7e","ios":"levelo://app?vid=23068eec-0c6b-4bf7-8fc1-626d027b0f7e"},"vehicle_type_id":"4","last_reported":1738944660,"current_range_meters":27600,"station_id":"ce4bh2p2rcd13ifvqdi0","pricing_plan_id":"cebpf4jnsgd1na2vs0mg"},{"bike_id":"350a5600-fe62-4be8-8f40-8fea97d838a4","system_id":"levelo_inurba_marseille","lat":43.32366,"lon":5.38881,"is_reserved":false,"is_disabled":false,"rental_uris":{"android":"levelo://app?vid=350a5600-fe62-4be8-8f40-8fea97d838a4","ios":"levelo://app?vid=350a5600-fe62-4be8-8f40-8fea97d838a4"},"vehicle_type_id":"4","last_reported":1738944660,"current_range_meters":36400,"station_id":"ce4bhqp2rcd13ifvqhog","pricing_plan_id":"cebpf4jnsgd1na2vs0mg"},{"bike_id":"bdc5d626-e490-4879-a167-c63f77c8a1da","system_id":"levelo_inurba_marseille","lat":43.28657,"lon":5.36348,"is_reserved":false,"is_disabled":false,"rental_uris":{"android":"levelo://app?vid=bdc5d626-e490-4879-a167-c63f77c8a1da","ios":"levelo://app?vid=bdc5d626-e490-4879-a167-c63f77c8a1da"},"vehicle_type_id":"4","last_reported":1738944660,"current_range_meters":28000,"station_id":"ce4bhah2rcd13ifvqej0","pricing_plan_id":"cebpf4jnsgd1na2vs0mg"},{"bike_id":"1a74ddeb-9531-4dce-868c-47e02444219e","system_id":"levelo_inurba_marseille","lat":43.28103,"lon":5.37832,"is_reserved":false,"is_disabled":false,"rental_uris":{"android":"levelo://app?vid=1a74ddeb-9531-4dce-868c-47e02444219e","ios":"levelo://app?vid=1a74ddeb-9531-4dce-868c-47e02444219e"},"vehicle_type_id":"4","last_reported":1738944660,"current_range_meters":20400,"station_id":"ce4bha12rcd13ifvqee0","pricing_plan_id":"cebpf4jnsgd1na2vs0mg"},{"bike_id":"775e7c57-7e2a-41a4-bb53-8e81069898dc","system_id":"levelo_inurba_marseille","lat":43.255735,"lon":5.382442,"is_reserved":false,"is_disabled":false,"rental_uris":{"android":"levelo://app?vid=775e7c57-7e2a-41a4-bb53-8e81069898dc","ios":"levelo://app?vid=775e7c57-7e2a-41a4-bb53-8e81069898dc"},"vehicle_type_id":"4","last_reported":1738944660,"current_range_meters":38800,"station_id":"ce4bhih2rcd13ifvqfs0","pricing_plan_id":"cebpf4jnsgd1na2vs0mg"},{"bike_id":"38eca512-cf3f-4ab1-940f-0a1fad865e3d","system_id":"levelo_inurba_marseille","lat":43.31384,"lon":5.38509,"is_reserved":false,"is_disabled":false,"rental_uris":{"android":"levelo://app?vid=38eca512-cf3f-4ab1-940f-0a1fad865e3d","ios":"levelo://app?vid=38eca512-cf3f-4ab1-940f-0a1fad865e3d"},"vehicle_type_id":"4","last_reported":1738944660,"current_range_meters":38000,"station_id":"ce4bgt92rcd13ifvqcf0","pricing_plan_id":"cebpf4jnsgd1na2vs0mg"},{"bike_id":"3dcf2f82-de41-4c93-9ba7-a95f9ab5d6ad","system_id":"levelo_inurba_marseille","lat":43.30653,"lon":5.40102,"is_reserved":false,"is_disabled":false,"rental_uris":{"android":"levelo://app?vid=3dcf2f82-de41-4c93-9ba7-a95f9ab5d6ad","ios":"levelo://app?vid=3dcf2f82-de41-4c93-9ba7-a95f9ab5d6ad"},"vehicle_type_id":"4","last_reported":1738944660,"current_range_meters":24000,"station_id":"ce4bh112rcd13ifvqda0","pricing_plan_id":"cebpf4jnsgd1na2vs0mg"},{"bike_id":"972dbeeb-3a96-4741-88de-d79eb1cc010a","system_id":"levelo_inurba_marseille","lat":43.296112,"lon":5.377169,"is_reserved":false,"is_disabled":false,"rental_uris":{"android":"levelo://app?vid=972dbeeb-3a96-4741-88de-d79eb1cc010a","ios":"levelo://app?vid=972dbeeb-3a96-4741-88de-d79eb1cc010a"},"vehicle_type_id":"4","last_reported":1738944660,"current_range_meters":36000,"station_id":"ce4bgi92rcd13ifvqb90","pricing_plan_id":"cebpf4jnsgd1na2vs0mg"},{"bike_id":"c5789181-d252-4c46-b75d-908f3a6a38fe","system_id":"levelo_inurba_marseille","lat":43.33721,"lon":5.39198,"is_reserved":false,"is_disabled":false,"rental_uris":{"android":"levelo://app?vid=c5789181-d252-4c46-b75d-908f3a6a38fe","ios":"levelo://app?vid=c5789181-d252-4c46-b75d-908f3a6a38fe"},"vehicle_type_id":"4","last_reported":1738944660,"current_range_meters":39200,"station_id":"ce4bhr92rcd13ifvqhsg","pricing_plan_id":"cebpf4jnsgd1na2vs0mg"},{"bike_id":"54176d77-619c-41bd-a805-33e4e05edcc8","system_id":"levelo_inurba_marseille","lat":43.30603,"lon":5.37232,"is_reserved":false,"is_disabled":false,"rental_uris":{"android":"levelo://app?vid=54176d77-619c-41bd-a805-33e4e05edcc8","ios":"levelo://app?vid=54176d77-619c-41bd-a805-33e4e05edcc8"},"vehicle_type_id":"4","last_reported":1738944660,"current_range_meters":34800,"station_id":"ce4bgqh2rcd13ifvqc4g","pricing_plan_id":"cebpf4jnsgd1na2vs0mg"},{"bike_id":"6f13b3af-90b7-4cc6-a98f-2673e2073fd1","system_id":"levelo_inurba_marseille","lat":43.28568,"lon":5.39487,"is_reserved":false,"is_disabled":false,"rental_uris":{"android":"levelo://app?vid=6f13b3af-90b7-4cc6-a98f-2673e2073fd1","ios":"levelo://app?vid=6f13b3af-90b7-4cc6-a98f-2673e2073fd1"},"vehicle_type_id":"4","last_reported":1738944660,"current_range_meters":30400,"station_id":"ce4bh292rcd13ifvqdg0","pricing_plan_id":"cebpf4jnsgd1na2vs0mg"},{"bike_id":"b8a288ef-4349-437d-a22a-753084f41b03","system_id":"levelo_inurba_marseille","lat":43.31753,"lon":5.39015,"is_reserved":false,"is_disabled":false,"rental_uris":{"android":"levelo://app?vid=b8a288ef-4349-437d-a22a-753084f41b03","ios":"levelo://app?vid=b8a288ef-4349-437d-a22a-753084f41b03"},"vehicle_type_id":"4","last_reported":1738944660,"current_range_meters":38800,"station_id":"ce4bhqp2rcd13ifvqhng","pricing_plan_id":"cebpf4jnsgd1na2vs0mg"},{"bike_id":"4b346763-af4b-47bb-8f20-016bb4fee202","system_id":"levelo_inurba_marseille","lat":43.27813,"lon":5.40625,"is_reserved":false,"is_disabled":false,"rental_uris":{"android":"levelo://app?vid=4b346763-af4b-47bb-8f20-016bb4fee202","ios":"levelo://app?vid=4b346763-af4b-47bb-8f20-016bb4fee202"},"vehicle_type_id":"4","last_reported":1738944660,"current_range_meters":38800,"station_id":"ce4bhnh2rcd13ifvqgtg","pricing_plan_id":"cebpf4jnsgd1na2vs0mg"},{"bike_id":"45268913-6378-40ac-a827-a5a99084f726","system_id":"levelo_inurba_marseille","lat":43.31327,"lon":5.39698,"is_reserved":false,"is_disabled":false,"rental_uris":{"android":"levelo://app?vid=45268913-6378-40ac-a827-a5a99084f726","ios":"levelo://app?vid=45268913-6378-40ac-a827-a5a99084f726"},"vehicle_type_id":"4","last_reported":1738944660,"current_range_meters":37600,"station_id":"ce4bgvp2rcd13ifvqcu0","pricing_plan_id":"cebpf4jnsgd1na2vs0mg"},{"bike_id":"09ac8f53-d808-4706-8781-22fa6f0148da","system_id":"levelo_inurba_marseille","lat":43.30138,"lon":5.37415,"is_reserved":false,"is_disabled":false,"rental_uris":{"android":"levelo://app?vid=09ac8f53-d808-4706-8781-22fa6f0148da","ios":"levelo://app?vid=09ac8f53-d808-4706-8781-22fa6f0148da"},"vehicle_type_id":"4","last_reported":1738944660,"current_range_meters":38800,"station_id":"ce4bgs92rcd13ifvqcc0","pricing_plan_id":"cebpf4jnsgd1na2vs0mg"},{"bike_id":"a9414d38-ce8a-4f56-b162-a74e958718bf","system_id":"levelo_inurba_marseille","lat":43.32481,"lon":5.36578,"is_reserved":false,"is_disabled":false,"rental_uris":{"android":"levelo://app?vid=a9414d38-ce8a-4f56-b162-a74e958718bf","ios":"levelo://app?vid=a9414d38-ce8a-4f56-b162-a74e958718bf"},"vehicle_type_id":"4","last_reported":1738944660,"current_range_meters":18000,"station_id":"ce4bhs12rcd13ifvqhvg","pricing_plan_id":"cebpf4jnsgd1na2vs0mg"},{"bike_id":"9df291fb-1aaa-46e9-b45f-323e94d6df84","system_id":"levelo_inurba_marseille","lat":43.29628,"lon":5.37155,"is_reserved":false,"is_disabled":false,"rental_uris":{"android":"levelo://app?vid=9df291fb-1aaa-46e9-b45f-323e94d6df84","ios":"levelo://app?vid=9df291fb-1aaa-46e9-b45f-323e94d6df84"},"vehicle_type_id":"4","last_reported":1738944660,"current_range_meters":36800,"station_id":"ce4bgnh2rcd13ifvqc0g","pricing_plan_id":"cebpf4jnsgd1na2vs0mg"},{"bike_id":"33f37d6b-08fe-4642-b4da-79d2133e4243","system_id":"levelo_inurba_marseille","lat":43.27314,"lon":5.42311,"is_reserved":false,"is_disabled":true,"rental_uris":{"android":"levelo://app?vid=33f37d6b-08fe-4642-b4da-79d2133e4243","ios":"levelo://app?vid=33f37d6b-08fe-4642-b4da-79d2133e4243"},"vehicle_type_id":"4","last_reported":1738944660,"current_range_meters":0,"station_id":"","pricing_plan_id":"cebpf4jnsgd1na2vs0mg"},{"bike_id":"5091929c-de45-458d-9469-52f642cabb7f","system_id":"levelo_inurba_marseille","lat":43.25503,"lon":5.37645,"is_reserved":false,"is_disabled":false,"rental_uris":{"android":"levelo://app?vid=5091929c-de45-458d-9469-52f642cabb7f","ios":"levelo://app?vid=5091929c-de45-458d-9469-52f642cabb7f"},"vehicle_type_id":"4","last_reported":1738944660,"current_range_meters":36800,"station_id":"ce4bhh12rcd13ifvqff0","pricing_plan_id":"cebpf4jnsgd1na2vs0mg"},{"bike_id":"b8acb16b-05ef-488e-afeb-b60a9f377c20","system_id":"levelo_inurba_marseille","lat":43.30593,"lon":5.39356,"is_reserved":false,"is_disabled":false,"rental_uris":{"android":"levelo://app?vid=b8acb16b-05ef-488e-afeb-b60a9f377c20","ios":"levelo://app?vid=b8acb16b-05ef-488e-afeb-b60a9f377c20"},"vehicle_type_id":"4","last_reported":1738944660,"current_range_meters":31200,"station_id":"ce4bh0p2rcd13ifvqd80","pricing_plan_id":"cebpf4jnsgd1na2vs0mg"},{"bike_id":"b177d2a7-ede8-4e67-ae03-6df901cce49b","system_id":"levelo_inurba_marseille","lat":43.27182,"lon":5.41006,"is_reserved":false,"is_disabled":false,"rental_uris":{"android":"levelo://app?vid=b177d2a7-ede8-4e67-ae03-6df901cce49b","ios":"levelo://app?vid=b177d2a7-ede8-4e67-ae03-6df901cce49b"},"vehicle_type_id":"4","last_reported":1738944660,"current_range_meters":31200,"station_id":"ce4bhl12rcd13ifvqgf0","pricing_plan_id":"cebpf4jnsgd1na2vs0mg"},{"bike_id":"d94da8e2-a1f1-46e4-bb51-ac3d4a761980","system_id":"levelo_inurba_marseille","lat":43.25835,"lon":5.39419,"is_reserved":false,"is_disabled":true,"rental_uris":{"android":"levelo://app?vid=d94da8e2-a1f1-46e4-bb51-ac3d4a761980","ios":"levelo://app?vid=d94da8e2-a1f1-46e4-bb51-ac3d4a761980"},"vehicle_type_id":"4","last_reported":1738944660,"current_range_meters":0,"station_id":"ce4bhip2rcd13ifvqft0","pricing_plan_id":"cebpf4jnsgd1na2vs0mg"},{"bike_id":"b0545d96-ea0f-4adb-8113-387538b89a6f","system_id":"levelo_inurba_marseille","lat":43.27908,"lon":5.38019,"is_reserved":false,"is_disabled":false,"rental_uris":{"android":"levelo://app?vid=b0545d96-ea0f-4adb-8113-387538b89a6f","ios":"levelo://app?vid=b0545d96-ea0f-4adb-8113-387538b89a6f"},"vehicle_type_id":"4","last_reported":1738944660,"current_range_meters":38400,"station_id":"ce4bhf92rcd13ifvqf50","pricing_plan_id":"cebpf4jnsgd1na2vs0mg"},{"bike_id":"7f8c63f0-ae26-41a9-951c-614dbedf8833","system_id":"levelo_inurba_marseille","lat":43.2969,"lon":5.37294,"is_reserved":false,"is_disabled":false,"rental_uris":{"android":"levelo://app?vid=7f8c63f0-ae26-41a9-951c-614dbedf8833","ios":"levelo://app?vid=7f8c63f0-ae26-41a9-951c-614dbedf8833"},"vehicle_type_id":"4","last_reported":1738944660,"current_range_meters":38800,"station_id":"ce4bho92rcd13ifvqh3g","pricing_plan_id":"cebpf4jnsgd1na2vs0mg"},{"bike_id":"5281f1a6-5ed7-40e1-aa2b-3eaa5e195a0e","system_id":"levelo_inurba_marseille","lat":43.29633,"lon":5.40602,"is_reserved":false,"is_disabled":false,"rental_uris":{"android":"levelo://app?vid=5281f1a6-5ed7-40e1-aa2b-3eaa5e195a0e","ios":"levelo://app?vid=5281f1a6-5ed7-40e1-aa2b-3eaa5e195a0e"},"vehicle_type_id":"4","last_reported":1738944660,"current_range_meters":8400,"station_id":"ce4bh0h2rcd13ifvqd60","pricing_plan_id":"cebpf4jnsgd1na2vs0mg"},{"bike_id":"adea3fe0-0d5f-493f-bc7a-8db19cd779cc","system_id":"levelo_inurba_marseille","lat":43.26188,"lon":5.37908,"is_reserved":false,"is_disabled":false,"rental_uris":{"android":"levelo://app?vid=adea3fe0-0d5f-493f-bc7a-8db19cd779cc","ios":"levelo://app?vid=adea3fe0-0d5f-493f-bc7a-8db19cd779cc"},"vehicle_type_id":"4","last_reported":1738944660,"current_range_meters":36000,"station_id":"ce4bhjp2rcd13ifvqg90","pricing_plan_id":"cebpf4jnsgd1na2vs0mg"},{"bike_id":"532a41ce-25b7-455a-9776-0d764a4faaf4","system_id":"levelo_inurba_marseille","lat":43.29916,"lon":5.3747,"is_reserved":false,"is_disabled":false,"rental_uris":{"android":"levelo://app?vid=532a41ce-25b7-455a-9776-0d764a4faaf4","ios":"levelo://app?vid=532a41ce-25b7-455a-9776-0d764a4faaf4"},"vehicle_type_id":"4","last_reported":1738944660,"current_range_meters":35200,"station_id":"ce4bgjh2rcd13ifvqbg0","pricing_plan_id":"cebpf4jnsgd1na2vs0mg"},{"bike_id":"5dc9f8b1-e43e-4139-9ccb-a188b00cd4df","system_id":"levelo_inurba_marseille","lat":43.25001,"lon":5.38912,"is_reserved":false,"is_disabled":false,"rental_uris":{"android":"levelo://app?vid=5dc9f8b1-e43e-4139-9ccb-a188b00cd4df","ios":"levelo://app?vid=5dc9f8b1-e43e-4139-9ccb-a188b00cd4df"},"vehicle_type_id":"4","last_reported":1738944660,"current_range_meters":38800,"station_id":"ce4bhgp2rcd13ifvqfd0","pricing_plan_id":"cebpf4jnsgd1na2vs0mg"},{"bike_id":"a23bfd47-8d9a-4479-835d-fa53b4e633ec","system_id":"levelo_inurba_marseille","lat":43.24075,"lon":5.37747,"is_reserved":false,"is_disabled":false,"rental_uris":{"android":"levelo://app?vid=a23bfd47-8d9a-4479-835d-fa53b4e633ec","ios":"levelo://app?vid=a23bfd47-8d9a-4479-835d-fa53b4e633ec"},"vehicle_type_id":"4","last_reported":1738944660,"current_range_meters":10000,"station_id":"ce4bhnp2rcd13ifvqgvg","pricing_plan_id":"cebpf4jnsgd1na2vs0mg"},{"bike_id":"bd28907d-99da-40f4-b877-4d86b8f861b6","system_id":"levelo_inurba_marseille","lat":43.29419,"lon":5.3862,"is_reserved":false,"is_disabled":false,"rental_uris":{"android":"levelo://app?vid=bd28907d-99da-40f4-b877-4d86b8f861b6","ios":"levelo://app?vid=bd28907d-99da-40f4-b877-4d86b8f861b6"},"vehicle_type_id":"4","last_reported":1738944660,"current_range_meters":11600,"station_id":"ce4bh2h2rcd13ifvqdh0","pricing_plan_id":"cebpf4jnsgd1na2vs0mg"},{"bike_id":"651a1db1-78e0-4e98-a624-87a4f2539c6a","system_id":"levelo_inurba_marseille","lat":43.2846,"lon":5.38413,"is_reserved":false,"is_disabled":false,"rental_uris":{"android":"levelo://app?vid=651a1db1-78e0-4e98-a624-87a4f2539c6a","ios":"levelo://app?vid=651a1db1-78e0-4e98-a624-87a4f2539c6a"},"vehicle_type_id":"4","last_reported":1738944660,"current_range_meters":28800,"station_id":"ce4bh512rcd13ifvqe3g","pricing_plan_id":"cebpf4jnsgd1na2vs0mg"},{"bike_id":"1342e398-dc7e-4337-9de0-ca59171b2c1b","system_id":"levelo_inurba_marseille","lat":43.30257,"lon":5.40071,"is_reserved":false,"is_disabled":false,"rental_uris":{"android":"levelo://app?vid=1342e398-dc7e-4337-9de0-ca59171b2c1b","ios":"levelo://app?vid=1342e398-dc7e-4337-9de0-ca59171b2c1b"},"vehicle_type_id":"4","last_reported":1738944660,"current_range_meters":12800,"station_id":"ce4bgvh2rcd13ifvqcs0","pricing_plan_id":"cebpf4jnsgd1na2vs0mg"},{"bike_id":"fd741a2c-6090-4746-8e0c-a3bcf67c55a8","system_id":"levelo_inurba_marseille","lat":43.23155,"lon":5.43693,"is_reserved":false,"is_disabled":true,"rental_uris":{"android":"levelo://app?vid=fd741a2c-6090-4746-8e0c-a3bcf67c55a8","ios":"levelo://app?vid=fd741a2c-6090-4746-8e0c-a3bcf67c55a8"},"vehicle_type_id":"4","last_reported":1738944660,"current_range_meters":0,"station_id":"ce4bhmp2rcd13ifvqgog","pricing_plan_id":"cebpf4jnsgd1na2vs0mg"},{"bike_id":"f2df57fd-48fb-42b4-9b53-5e639c9b06ad","system_id":"levelo_inurba_marseille","lat":43.32377,"lon":5.38879,"is_reserved":false,"is_disabled":false,"rental_uris":{"android":"levelo://app?vid=f2df57fd-48fb-42b4-9b53-5e639c9b06ad","ios":"levelo://app?vid=f2df57fd-48fb-42b4-9b53-5e639c9b06ad"},"vehicle_type_id":"4","last_reported":1738944660,"current_range_meters":37600,"station_id":"ce4bhqp2rcd13ifvqhog","pricing_plan_id":"cebpf4jnsgd1na2vs0mg"},{"bike_id":"22f3315f-ed84-4886-912e-e6c83a6fc1cf","system_id":"levelo_inurba_marseille","lat":43.30093,"lon":5.39095,"is_reserved":false,"is_disabled":false,"rental_uris":{"android":"levelo://app?vid=22f3315f-ed84-4886-912e-e6c83a6fc1cf","ios":"levelo://app?vid=22f3315f-ed84-4886-912e-e6c83a6fc1cf"},"vehicle_type_id":"4","last_reported":1738944660,"current_range_meters":35600,"station_id":"ce4bh192rcd13ifvqdb0","pricing_plan_id":"cebpf4jnsgd1na2vs0mg"},{"bike_id":"0db2bfd7-2ca1-4f77-9597-ebb3b2c72fef","system_id":"levelo_inurba_marseille","lat":43.273728,"lon":5.362625,"is_reserved":false,"is_disabled":false,"rental_uris":{"android":"levelo://app?vid=0db2bfd7-2ca1-4f77-9597-ebb3b2c72fef","ios":"levelo://app?vid=0db2bfd7-2ca1-4f77-9597-ebb3b2c72fef"},"vehicle_type_id":"4","last_reported":1738944660,"current_range_meters":22000,"station_id":"ce4bhbh2rcd13ifvqeo0","pricing_plan_id":"cebpf4jnsgd1na2vs0mg"},{"bike_id":"59db9156-837c-4bef-bdf0-6cb05d00fb23","system_id":"levelo_inurba_marseille","lat":43.24168,"lon":5.36396,"is_reserved":false,"is_disabled":false,"rental_uris":{"android":"levelo://app?vid=59db9156-837c-4bef-bdf0-6cb05d00fb23","ios":"levelo://app?vid=59db9156-837c-4bef-bdf0-6cb05d00fb23"},"vehicle_type_id":"4","last_reported":1738944660,"current_range_meters":30800,"station_id":"cpo36qri1sfpv3e86is0","pricing_plan_id":"cebpf4jnsgd1na2vs0mg"},{"bike_id":"19c91191-64ee-4803-94d7-14a4a66340df","system_id":"levelo_inurba_marseille","lat":43.31721,"lon":5.42402,"is_reserved":false,"is_disabled":true,"rental_uris":{"android":"levelo://app?vid=19c91191-64ee-4803-94d7-14a4a66340df","ios":"levelo://app?vid=19c91191-64ee-4803-94d7-14a4a66340df"},"vehicle_type_id":"4","last_reported":1738944660,"current_range_meters":0,"station_id":"ce4bhp92rcd13ifvqhbg","pricing_plan_id":"cebpf4jnsgd1na2vs0mg"},{"bike_id":"253b4999-41c5-4f79-8ef7-b17022cf04e3","system_id":"levelo_inurba_marseille","lat":43.33024,"lon":5.3904,"is_reserved":false,"is_disabled":false,"rental_uris":{"android":"levelo://app?vid=253b4999-41c5-4f79-8ef7-b17022cf04e3","ios":"levelo://app?vid=253b4999-41c5-4f79-8ef7-b17022cf04e3"},"vehicle_type_id":"4","last_reported":1738944660,"current_range_meters":37600,"station_id":"ce4bhr92rcd13ifvqhrg","pricing_plan_id":"cebpf4jnsgd1na2vs0mg"},{"bike_id":"bee40947-4d81-44c7-ab89-9c2629d87e72","system_id":"levelo_inurba_marseille","lat":43.28104,"lon":5.37854,"is_reserved":false,"is_disabled":false,"rental_uris":{"android":"levelo://app?vid=bee40947-4d81-44c7-ab89-9c2629d87e72","ios":"levelo://app?vid=bee40947-4d81-44c7-ab89-9c2629d87e72"},"vehicle_type_id":"4","last_reported":1738944660,"current_range_meters":16800,"station_id":"ce4bha12rcd13ifvqee0","pricing_plan_id":"cebpf4jnsgd1na2vs0mg"},{"bike_id":"b75dcdbd-2e40-4830-bed0-e4f0c6a4ba6b","system_id":"levelo_inurba_marseille","lat":43.29752,"lon":5.37687,"is_reserved":false,"is_disabled":false,"rental_uris":{"android":"levelo://app?vid=b75dcdbd-2e40-4830-bed0-e4f0c6a4ba6b","ios":"levelo://app?vid=b75dcdbd-2e40-4830-bed0-e4f0c6a4ba6b"},"vehicle_type_id":"4","last_reported":1738944660,"current_range_meters":25200,"station_id":"","pricing_plan_id":"cebpf4jnsgd1na2vs0mg"},{"bike_id":"3a2b3804-62f4-429e-aa33-087373b56394","system_id":"levelo_inurba_marseille","lat":43.26494,"lon":5.39543,"is_reserved":false,"is_disabled":false,"rental_uris":{"android":"levelo://app?vid=3a2b3804-62f4-429e-aa33-087373b56394","ios":"levelo://app?vid=3a2b3804-62f4-429e-aa33-087373b56394"},"vehicle_type_id":"4","last_reported":1738944660,"current_range_meters":18000,"station_id":"ce4bhi12rcd13ifvqfq0","pricing_plan_id":"cebpf4jnsgd1na2vs0mg"},{"bike_id":"c2254ed0-0838-424f-99f8-8eb5410c1ec3","system_id":"levelo_inurba_marseille","lat":43.24185,"lon":5.3638,"is_reserved":false,"is_disabled":false,"rental_uris":{"android":"levelo://app?vid=c2254ed0-0838-424f-99f8-8eb5410c1ec3","ios":"levelo://app?vid=c2254ed0-0838-424f-99f8-8eb5410c1ec3"},"vehicle_type_id":"4","last_reported":1738944660,"current_range_meters":29600,"station_id":"cpo36qri1sfpv3e86is0","pricing_plan_id":"cebpf4jnsgd1na2vs0mg"},{"bike_id":"63502e7d-71b3-44d6-b82d-6352b6e3809f","system_id":"levelo_inurba_marseille","lat":43.25839,"lon":5.39427,"is_reserved":false,"is_disabled":false,"rental_uris":{"android":"levelo://app?vid=63502e7d-71b3-44d6-b82d-6352b6e3809f","ios":"levelo://app?vid=63502e7d-71b3-44d6-b82d-6352b6e3809f"},"vehicle_type_id":"4","last_reported":1738944660,"current_range_meters":36800,"station_id":"ce4bhip2rcd13ifvqft0","pricing_plan_id":"cebpf4jnsgd1na2vs0mg"},{"bike_id":"27f562a9-dc88-4fe5-a3f5-ebda8399863b","system_id":"levelo_inurba_marseille","lat":43.29517,"lon":5.37515,"is_reserved":false,"is_disabled":false,"rental_uris":{"android":"levelo://app?vid=27f562a9-dc88-4fe5-a3f5-ebda8399863b","ios":"levelo://app?vid=27f562a9-dc88-4fe5-a3f5-ebda8399863b"},"vehicle_type_id":"4","last_reported":1738944660,"current_range_meters":33600,"station_id":"ce4bgkp2rcd13ifvqbmg","pricing_plan_id":"cebpf4jnsgd1na2vs0mg"},{"bike_id":"1cbb5379-fc9f-498f-a646-44ed327571a5","system_id":"levelo_inurba_marseille","lat":43.26552,"lon":5.37285,"is_reserved":false,"is_disabled":false,"rental_uris":{"android":"levelo://app?vid=1cbb5379-fc9f-498f-a646-44ed327571a5","ios":"levelo://app?vid=1cbb5379-fc9f-498f-a646-44ed327571a5"},"vehicle_type_id":"4","last_reported":1738944660,"current_range_meters":30800,"station_id":"ce4bhg12rcd13ifvqf70","pricing_plan_id":"cebpf4jnsgd1na2vs0mg"},{"bike_id":"5d1dacf3-3fa1-40ba-8373-ce163dd2d283","system_id":"levelo_inurba_marseille","lat":43.26191,"lon":5.37919,"is_reserved":false,"is_disabled":false,"rental_uris":{"android":"levelo://app?vid=5d1dacf3-3fa1-40ba-8373-ce163dd2d283","ios":"levelo://app?vid=5d1dacf3-3fa1-40ba-8373-ce163dd2d283"},"vehicle_type_id":"4","last_reported":1738944660,"current_range_meters":38800,"station_id":"ce4bhjp2rcd13ifvqg90","pricing_plan_id":"cebpf4jnsgd1na2vs0mg"},{"bike_id":"b33c943a-bed2-4769-8147-60e54416d90f","system_id":"levelo_inurba_marseille","lat":43.2901,"lon":5.35614,"is_reserved":false,"is_disabled":false,"rental_uris":{"android":"levelo://app?vid=b33c943a-bed2-4769-8147-60e54416d90f","ios":"levelo://app?vid=b33c943a-bed2-4769-8147-60e54416d90f"},"vehicle_type_id":"4","last_reported":1738944660,"current_range_meters":9600,"station_id":"ce4bhb92rcd13ifvqen0","pricing_plan_id":"cebpf4jnsgd1na2vs0mg"},{"bike_id":"6ff781d1-2621-44d1-b299-83b571f09432","system_id":"levelo_inurba_marseille","lat":43.323765,"lon":5.388843,"is_reserved":false,"is_disabled":false,"rental_uris":{"android":"levelo://app?vid=6ff781d1-2621-44d1-b299-83b571f09432","ios":"levelo://app?vid=6ff781d1-2621-44d1-b299-83b571f09432"},"vehicle_type_id":"4","last_reported":1738944660,"current_range_meters":20800,"station_id":"ce4bhqp2rcd13ifvqhog","pricing_plan_id":"cebpf4jnsgd1na2vs0mg"},{"bike_id":"a2e733be-b3e3-470d-b20e-7d85b62390d1","system_id":"levelo_inurba_marseille","lat":43.30104,"lon":5.39068,"is_reserved":false,"is_disabled":false,"rental_uris":{"android":"levelo://app?vid=a2e733be-b3e3-470d-b20e-7d85b62390d1","ios":"levelo://app?vid=a2e733be-b3e3-470d-b20e-7d85b62390d1"},"vehicle_type_id":"4","last_reported":1738944660,"current_range_meters":25200,"station_id":"ce4bh192rcd13ifvqdb0","pricing_plan_id":"cebpf4jnsgd1na2vs0mg"},{"bike_id":"394fb33f-d9d4-4f64-9580-174995fc4b80","system_id":"levelo_inurba_marseille","lat":43.30561,"lon":5.36504,"is_reserved":false,"is_disabled":false,"rental_uris":{"android":"levelo://app?vid=394fb33f-d9d4-4f64-9580-174995fc4b80","ios":"levelo://app?vid=394fb33f-d9d4-4f64-9580-174995fc4b80"},"vehicle_type_id":"4","last_reported":1738944660,"current_range_meters":38800,"station_id":"ce4bgs12rcd13ifvqcag","pricing_plan_id":"cebpf4jnsgd1na2vs0mg"},{"bike_id":"22ff0790-f71c-44f6-8570-3753952d1547","system_id":"levelo_inurba_marseille","lat":43.25492,"lon":5.37648,"is_reserved":false,"is_disabled":false,"rental_uris":{"android":"levelo://app?vid=22ff0790-f71c-44f6-8570-3753952d1547","ios":"levelo://app?vid=22ff0790-f71c-44f6-8570-3753952d1547"},"vehicle_type_id":"4","last_reported":1738944660,"current_range_meters":24800,"station_id":"ce4bhh12rcd13ifvqff0","pricing_plan_id":"cebpf4jnsgd1na2vs0mg"},{"bike_id":"8bec6f5e-e450-4c2b-8557-aced9db82d7a","system_id":"levelo_inurba_marseille","lat":43.25724,"lon":5.41098,"is_reserved":false,"is_disabled":false,"rental_uris":{"android":"levelo://app?vid=8bec6f5e-e450-4c2b-8557-aced9db82d7a","ios":"levelo://app?vid=8bec6f5e-e450-4c2b-8557-aced9db82d7a"},"vehicle_type_id":"4","last_reported":1738944660,"current_range_meters":38800,"station_id":"ce4bhkp2rcd13ifvqgd0","pricing_plan_id":"cebpf4jnsgd1na2vs0mg"},{"bike_id":"013966e3-238f-4f27-83d7-59548e859f1f","system_id":"levelo_inurba_marseille","lat":43.296,"lon":5.36746,"is_reserved":false,"is_disabled":false,"rental_uris":{"android":"levelo://app?vid=013966e3-238f-4f27-83d7-59548e859f1f","ios":"levelo://app?vid=013966e3-238f-4f27-83d7-59548e859f1f"},"vehicle_type_id":"4","last_reported":1738944660,"current_range_meters":39200,"station_id":"ce4bgph2rcd13ifvqc2g","pricing_plan_id":"cebpf4jnsgd1na2vs0mg"},{"bike_id":"3a771c6f-5023-4e33-ba7d-645f71f4a232","system_id":"levelo_inurba_marseille","lat":43.2926,"lon":5.38438,"is_reserved":false,"is_disabled":false,"rental_uris":{"android":"levelo://app?vid=3a771c6f-5023-4e33-ba7d-645f71f4a232","ios":"levelo://app?vid=3a771c6f-5023-4e33-ba7d-645f71f4a232"},"vehicle_type_id":"4","last_reported":1738944660,"current_range_meters":16400,"station_id":"ce4bh692rcd13ifvqea0","pricing_plan_id":"cebpf4jnsgd1na2vs0mg"},{"bike_id":"22c39663-ee12-495c-9379-fc96f2d1ef5a","system_id":"levelo_inurba_marseille","lat":43.30147,"lon":5.37409,"is_reserved":false,"is_disabled":false,"rental_uris":{"android":"levelo://app?vid=22c39663-ee12-495c-9379-fc96f2d1ef5a","ios":"levelo://app?vid=22c39663-ee12-495c-9379-fc96f2d1ef5a"},"vehicle_type_id":"4","last_reported":1738944660,"current_range_meters":31200,"station_id":"ce4bgs92rcd13ifvqcc0","pricing_plan_id":"cebpf4jnsgd1na2vs0mg"},{"bike_id":"957f8b7e-d828-49bc-a82c-23988c526e55","system_id":"levelo_inurba_marseille","lat":43.28943,"lon":5.36628,"is_reserved":false,"is_disabled":true,"rental_uris":{"android":"levelo://app?vid=957f8b7e-d828-49bc-a82c-23988c526e55","ios":"levelo://app?vid=957f8b7e-d828-49bc-a82c-23988c526e55"},"vehicle_type_id":"4","last_reported":1738944660,"current_range_meters":38800,"station_id":"ce4bhap2rcd13ifvqek0","pricing_plan_id":"cebpf4jnsgd1na2vs0mg"},{"bike_id":"66e8b1cf-d187-4606-abf7-51501b017ee5","system_id":"levelo_inurba_marseille","lat":43.29312,"lon":5.38245,"is_reserved":false,"is_disabled":false,"rental_uris":{"android":"levelo://app?vid=66e8b1cf-d187-4606-abf7-51501b017ee5","ios":"levelo://app?vid=66e8b1cf-d187-4606-abf7-51501b017ee5"},"vehicle_type_id":"4","last_reported":1738944660,"current_range_meters":28800,"station_id":"ce4bgjh2rcd13ifvqbf0","pricing_plan_id":"cebpf4jnsgd1na2vs0mg"},{"bike_id":"d6cb899f-378c-4870-b32c-a6bb9a0953a9","system_id":"levelo_inurba_marseille","lat":43.29852,"lon":5.36288,"is_reserved":false,"is_disabled":false,"rental_uris":{"android":"levelo://app?vid=d6cb899f-378c-4870-b32c-a6bb9a0953a9","ios":"levelo://app?vid=d6cb899f-378c-4870-b32c-a6bb9a0953a9"},"vehicle_type_id":"4","last_reported":1738944660,"current_range_meters":30400,"station_id":"ce4bgpp2rcd13ifvqc3g","pricing_plan_id":"cebpf4jnsgd1na2vs0mg"},{"bike_id":"4102fc6c-e365-41e0-9416-211e5673c09f","system_id":"levelo_inurba_marseille","lat":43.287114,"lon":5.373813,"is_reserved":false,"is_disabled":false,"rental_uris":{"android":"levelo://app?vid=4102fc6c-e365-41e0-9416-211e5673c09f","ios":"levelo://app?vid=4102fc6c-e365-41e0-9416-211e5673c09f"},"vehicle_type_id":"4","last_reported":1738944660,"current_range_meters":17200,"station_id":"ce4bh3p2rcd13ifvqdq0","pricing_plan_id":"cebpf4jnsgd1na2vs0mg"},{"bike_id":"826ab98d-0da8-4d31-b2a6-6ec434732aa9","system_id":"levelo_inurba_marseille","lat":43.28921,"lon":5.38408,"is_reserved":false,"is_disabled":true,"rental_uris":{"android":"levelo://app?vid=826ab98d-0da8-4d31-b2a6-6ec434732aa9","ios":"levelo://app?vid=826ab98d-0da8-4d31-b2a6-6ec434732aa9"},"vehicle_type_id":"4","last_reported":1738944660,"current_range_meters":17200,"station_id":"ce4bh612rcd13ifvqe6g","pricing_plan_id":"cebpf4jnsgd1na2vs0mg"},{"bike_id":"56bf235c-eeec-4730-9232-4b11d16ac7d2","system_id":"levelo_inurba_marseille","lat":43.29615,"lon":5.37726,"is_reserved":false,"is_disabled":false,"rental_uris":{"android":"levelo://app?vid=56bf235c-eeec-4730-9232-4b11d16ac7d2","ios":"levelo://app?vid=56bf235c-eeec-4730-9232-4b11d16ac7d2"},"vehicle_type_id":"4","last_reported":1738944660,"current_range_meters":30000,"station_id":"ce4bgi92rcd13ifvqb90","pricing_plan_id":"cebpf4jnsgd1na2vs0mg"},{"bike_id":"91cdde90-1ae9-47b5-bc0b-7abb0db30ad8","system_id":"levelo_inurba_marseille","lat":43.29521,"lon":5.39409,"is_reserved":false,"is_disabled":false,"rental_uris":{"android":"levelo://app?vid=91cdde90-1ae9-47b5-bc0b-7abb0db30ad8","ios":"levelo://app?vid=91cdde90-1ae9-47b5-bc0b-7abb0db30ad8"},"vehicle_type_id":"4","last_reported":1738944660,"current_range_meters":39200,"station_id":"ce4bh292rcd13ifvqdf0","pricing_plan_id":"cebpf4jnsgd1na2vs0mg"},{"bike_id":"f09cae63-03eb-4af0-ab94-94aefa642c0e","system_id":"levelo_inurba_marseille","lat":43.28999,"lon":5.35615,"is_reserved":false,"is_disabled":false,"rental_uris":{"android":"levelo://app?vid=f09cae63-03eb-4af0-ab94-94aefa642c0e","ios":"levelo://app?vid=f09cae63-03eb-4af0-ab94-94aefa642c0e"},"vehicle_type_id":"4","last_reported":1738944660,"current_range_meters":38000,"station_id":"ce4bhb92rcd13ifvqen0","pricing_plan_id":"cebpf4jnsgd1na2vs0mg"},{"bike_id":"bec99846-c6d9-4983-8a05-58ed5efc4a7e","system_id":"levelo_inurba_marseille","lat":43.3054,"lon":5.36657,"is_reserved":false,"is_disabled":false,"rental_uris":{"android":"levelo://app?vid=bec99846-c6d9-4983-8a05-58ed5efc4a7e","ios":"levelo://app?vid=bec99846-c6d9-4983-8a05-58ed5efc4a7e"},"vehicle_type_id":"4","last_reported":1738944660,"current_range_meters":39200,"station_id":"ce4bgrp2rcd13ifvqc9g","pricing_plan_id":"cebpf4jnsgd1na2vs0mg"},{"bike_id":"e82fa571-a0a5-482d-a191-562866bf1df5","system_id":"levelo_inurba_marseille","lat":43.27371,"lon":5.36264,"is_reserved":false,"is_disabled":false,"rental_uris":{"android":"levelo://app?vid=e82fa571-a0a5-482d-a191-562866bf1df5","ios":"levelo://app?vid=e82fa571-a0a5-482d-a191-562866bf1df5"},"vehicle_type_id":"4","last_reported":1738944660,"current_range_meters":38000,"station_id":"ce4bhbh2rcd13ifvqeo0","pricing_plan_id":"cebpf4jnsgd1na2vs0mg"},{"bike_id":"54821b8f-03ba-4360-abc1-91db00db4644","system_id":"levelo_inurba_marseille","lat":43.255,"lon":5.37646,"is_reserved":false,"is_disabled":false,"rental_uris":{"android":"levelo://app?vid=54821b8f-03ba-4360-abc1-91db00db4644","ios":"levelo://app?vid=54821b8f-03ba-4360-abc1-91db00db4644"},"vehicle_type_id":"4","last_reported":1738944660,"current_range_meters":38400,"station_id":"ce4bhh12rcd13ifvqff0","pricing_plan_id":"cebpf4jnsgd1na2vs0mg"},{"bike_id":"a6e1b439-04e4-421f-a5a6-259ce9531499","system_id":"levelo_inurba_marseille","lat":43.270673,"lon":5.402593,"is_reserved":false,"is_disabled":false,"rental_uris":{"android":"levelo://app?vid=a6e1b439-04e4-421f-a5a6-259ce9531499","ios":"levelo://app?vid=a6e1b439-04e4-421f-a5a6-259ce9531499"},"vehicle_type_id":"4","last_reported":1738944660,"current_range_meters":34800,"station_id":"ce4bhk92rcd13ifvqgc0","pricing_plan_id":"cebpf4jnsgd1na2vs0mg"},{"bike_id":"3d9e8870-3e96-498e-8528-7cac12a72a04","system_id":"levelo_inurba_marseille","lat":43.2658,"lon":5.37276,"is_reserved":false,"is_disabled":false,"rental_uris":{"android":"levelo://app?vid=3d9e8870-3e96-498e-8528-7cac12a72a04","ios":"levelo://app?vid=3d9e8870-3e96-498e-8528-7cac12a72a04"},"vehicle_type_id":"4","last_reported":1738944660,"current_range_meters":12000,"station_id":"ce4bhg12rcd13ifvqf70","pricing_plan_id":"cebpf4jnsgd1na2vs0mg"},{"bike_id":"1dba89a1-d260-49d1-8650-00e7250d754c","system_id":"levelo_inurba_marseille","lat":43.30658,"lon":5.40084,"is_reserved":false,"is_disabled":false,"rental_uris":{"android":"levelo://app?vid=1dba89a1-d260-49d1-8650-00e7250d754c","ios":"levelo://app?vid=1dba89a1-d260-49d1-8650-00e7250d754c"},"vehicle_type_id":"4","last_reported":1738944660,"current_range_meters":36800,"station_id":"ce4bh112rcd13ifvqda0","pricing_plan_id":"cebpf4jnsgd1na2vs0mg"},{"bike_id":"606ae2c7-6b3a-4bc7-a8c8-6e5690e31a6a","system_id":"levelo_inurba_marseille","lat":43.283443,"lon":5.381071,"is_reserved":false,"is_disabled":false,"rental_uris":{"android":"levelo://app?vid=606ae2c7-6b3a-4bc7-a8c8-6e5690e31a6a","ios":"levelo://app?vid=606ae2c7-6b3a-4bc7-a8c8-6e5690e31a6a"},"vehicle_type_id":"4","last_reported":1738944660,"current_range_meters":29600,"station_id":"ce4bh412rcd13ifvqdr0","pricing_plan_id":"cebpf4jnsgd1na2vs0mg"},{"bike_id":"2b81af3c-387b-426d-aec4-b8105fa9a8d1","system_id":"levelo_inurba_marseille","lat":43.2951,"lon":5.39403,"is_reserved":false,"is_disabled":true,"rental_uris":{"android":"levelo://app?vid=2b81af3c-387b-426d-aec4-b8105fa9a8d1","ios":"levelo://app?vid=2b81af3c-387b-426d-aec4-b8105fa9a8d1"},"vehicle_type_id":"4","last_reported":1738944660,"current_range_meters":37600,"station_id":"ce4bh292rcd13ifvqdf0","pricing_plan_id":"cebpf4jnsgd1na2vs0mg"},{"bike_id":"d39a2685-ff1f-4a95-b7fe-802902b67914","system_id":"levelo_inurba_marseille","lat":43.32128,"lon":5.36759,"is_reserved":false,"is_disabled":false,"rental_uris":{"android":"levelo://app?vid=d39a2685-ff1f-4a95-b7fe-802902b67914","ios":"levelo://app?vid=d39a2685-ff1f-4a95-b7fe-802902b67914"},"vehicle_type_id":"4","last_reported":1738944660,"current_range_meters":24400,"station_id":"ce4bhrh2rcd13ifvqhug","pricing_plan_id":"cebpf4jnsgd1na2vs0mg"},{"bike_id":"543d8763-bc39-4d19-b4de-d83833e1353b","system_id":"levelo_inurba_marseille","lat":43.2622,"lon":5.40447,"is_reserved":false,"is_disabled":false,"rental_uris":{"android":"levelo://app?vid=543d8763-bc39-4d19-b4de-d83833e1353b","ios":"levelo://app?vid=543d8763-bc39-4d19-b4de-d83833e1353b"},"vehicle_type_id":"4","last_reported":1738944660,"current_range_meters":11600,"station_id":"ce4bhmh2rcd13ifvqgmg","pricing_plan_id":"cebpf4jnsgd1na2vs0mg"},{"bike_id":"65b93af7-02d1-426c-8b10-b3c3784727fa","system_id":"levelo_inurba_marseille","lat":43.30305,"lon":5.39211,"is_reserved":false,"is_disabled":true,"rental_uris":{"android":"levelo://app?vid=65b93af7-02d1-426c-8b10-b3c3784727fa","ios":"levelo://app?vid=65b93af7-02d1-426c-8b10-b3c3784727fa"},"vehicle_type_id":"4","last_reported":1738944660,"current_range_meters":0,"station_id":"ce4bgkh2rcd13ifvqbk0","pricing_plan_id":"cebpf4jnsgd1na2vs0mg"},{"bike_id":"8eecc113-9b29-4d7f-9f10-17488720aa4b","system_id":"levelo_inurba_marseille","lat":43.28724,"lon":5.36081,"is_reserved":false,"is_disabled":false,"rental_uris":{"android":"levelo://app?vid=8eecc113-9b29-4d7f-9f10-17488720aa4b","ios":"levelo://app?vid=8eecc113-9b29-4d7f-9f10-17488720aa4b"},"vehicle_type_id":"4","last_reported":1738944660,"current_range_meters":26800,"station_id":"cki0cbj6b192h4jlfktg","pricing_plan_id":"cebpf4jnsgd1na2vs0mg"},{"bike_id":"f0dc3722-7aa4-4d5e-b939-2df8fa14b26b","system_id":"levelo_inurba_marseille","lat":43.29973,"lon":5.3849,"is_reserved":false,"is_disabled":false,"rental_uris":{"android":"levelo://app?vid=f0dc3722-7aa4-4d5e-b939-2df8fa14b26b","ios":"levelo://app?vid=f0dc3722-7aa4-4d5e-b939-2df8fa14b26b"},"vehicle_type_id":"4","last_reported":1738944660,"current_range_meters":36000,"station_id":"ce4bgj92rcd13ifvqbd0","pricing_plan_id":"cebpf4jnsgd1na2vs0mg"},{"bike_id":"6d51e93d-dbaa-4f16-99c4-8492278e95a6","system_id":"levelo_inurba_marseille","lat":43.33754,"lon":5.3914,"is_reserved":false,"is_disabled":false,"rental_uris":{"android":"levelo://app?vid=6d51e93d-dbaa-4f16-99c4-8492278e95a6","ios":"levelo://app?vid=6d51e93d-dbaa-4f16-99c4-8492278e95a6"},"vehicle_type_id":"4","last_reported":1738944660,"current_range_meters":28000,"station_id":"ce4bhr92rcd13ifvqhsg","pricing_plan_id":"cebpf4jnsgd1na2vs0mg"},{"bike_id":"0702c3c5-fcc9-40e5-999c-2b4e45e1a590","system_id":"levelo_inurba_marseille","lat":43.298845,"lon":5.397485,"is_reserved":false,"is_disabled":false,"rental_uris":{"android":"levelo://app?vid=0702c3c5-fcc9-40e5-999c-2b4e45e1a590","ios":"levelo://app?vid=0702c3c5-fcc9-40e5-999c-2b4e45e1a590"},"vehicle_type_id":"4","last_reported":1738944660,"current_range_meters":39200,"station_id":"ce4bh0h2rcd13ifvqd50","pricing_plan_id":"cebpf4jnsgd1na2vs0mg"},{"bike_id":"7ffc0f4b-2320-4cbd-b643-523dab446d45","system_id":"levelo_inurba_marseille","lat":43.24997,"lon":5.38937,"is_reserved":false,"is_disabled":false,"rental_uris":{"android":"levelo://app?vid=7ffc0f4b-2320-4cbd-b643-523dab446d45","ios":"levelo://app?vid=7ffc0f4b-2320-4cbd-b643-523dab446d45"},"vehicle_type_id":"4","last_reported":1738944660,"current_range_meters":35600,"station_id":"ce4bhgp2rcd13ifvqfd0","pricing_plan_id":"cebpf4jnsgd1na2vs0mg"},{"bike_id":"237c707a-ce6f-4be9-842c-4ca5925af3aa","system_id":"levelo_inurba_marseille","lat":43.29565,"lon":5.37497,"is_reserved":false,"is_disabled":false,"rental_uris":{"android":"levelo://app?vid=237c707a-ce6f-4be9-842c-4ca5925af3aa","ios":"levelo://app?vid=237c707a-ce6f-4be9-842c-4ca5925af3aa"},"vehicle_type_id":"4","last_reported":1738944660,"current_range_meters":31200,"station_id":"ce4bgh92rcd13ifvqb50","pricing_plan_id":"cebpf4jnsgd1na2vs0mg"},{"bike_id":"744ad122-792b-4d49-9eca-699f6243da88","system_id":"levelo_inurba_marseille","lat":43.25824,"lon":5.39436,"is_reserved":false,"is_disabled":false,"rental_uris":{"android":"levelo://app?vid=744ad122-792b-4d49-9eca-699f6243da88","ios":"levelo://app?vid=744ad122-792b-4d49-9eca-699f6243da88"},"vehicle_type_id":"4","last_reported":1738944660,"current_range_meters":30000,"station_id":"ce4bhip2rcd13ifvqft0","pricing_plan_id":"cebpf4jnsgd1na2vs0mg"},{"bike_id":"67225dc4-1ce4-4b55-a106-8b38380114e2","system_id":"levelo_inurba_marseille","lat":43.2668,"lon":5.38264,"is_reserved":false,"is_disabled":false,"rental_uris":{"android":"levelo://app?vid=67225dc4-1ce4-4b55-a106-8b38380114e2","ios":"levelo://app?vid=67225dc4-1ce4-4b55-a106-8b38380114e2"},"vehicle_type_id":"4","last_reported":1738944660,"current_range_meters":25200,"station_id":"ce4bhg92rcd13ifvqf90","pricing_plan_id":"cebpf4jnsgd1na2vs0mg"},{"bike_id":"337f10b6-fa3c-4b7a-ba68-d42b9849dd7b","system_id":"levelo_inurba_marseille","lat":43.29778,"lon":5.38193,"is_reserved":false,"is_disabled":true,"rental_uris":{"android":"levelo://app?vid=337f10b6-fa3c-4b7a-ba68-d42b9849dd7b","ios":"levelo://app?vid=337f10b6-fa3c-4b7a-ba68-d42b9849dd7b"},"vehicle_type_id":"4","last_reported":1738944660,"current_range_meters":10800,"station_id":"ce4bgip2rcd13ifvqbb0","pricing_plan_id":"cebpf4jnsgd1na2vs0mg"},{"bike_id":"6ee94d17-3be5-4fa5-b5e7-2036d2884b0f","system_id":"levelo_inurba_marseille","lat":43.29438,"lon":5.39745,"is_reserved":false,"is_disabled":false,"rental_uris":{"android":"levelo://app?vid=6ee94d17-3be5-4fa5-b5e7-2036d2884b0f","ios":"levelo://app?vid=6ee94d17-3be5-4fa5-b5e7-2036d2884b0f"},"vehicle_type_id":"4","last_reported":1738944660,"current_range_meters":13600,"station_id":"ce4bh3h2rcd13ifvqdo0","pricing_plan_id":"cebpf4jnsgd1na2vs0mg"},{"bike_id":"ae6e867f-ea24-455e-b0c4-bb456385ca29","system_id":"levelo_inurba_marseille","lat":43.272,"lon":5.39181,"is_reserved":false,"is_disabled":true,"rental_uris":{"android":"levelo://app?vid=ae6e867f-ea24-455e-b0c4-bb456385ca29","ios":"levelo://app?vid=ae6e867f-ea24-455e-b0c4-bb456385ca29"},"vehicle_type_id":"4","last_reported":1738944660,"current_range_meters":1200,"station_id":"ce4bhhp2rcd13ifvqfm0","pricing_plan_id":"cebpf4jnsgd1na2vs0mg"},{"bike_id":"78169cd8-e25e-4ad0-a456-203638a9077d","system_id":"levelo_inurba_marseille","lat":43.28,"lon":5.39999,"is_reserved":false,"is_disabled":false,"rental_uris":{"android":"levelo://app?vid=78169cd8-e25e-4ad0-a456-203638a9077d","ios":"levelo://app?vid=78169cd8-e25e-4ad0-a456-203638a9077d"},"vehicle_type_id":"4","last_reported":1738944660,"current_range_meters":10800,"station_id":"ce4bho92rcd13ifvqh4g","pricing_plan_id":"cebpf4jnsgd1na2vs0mg"},