{"last_updated":1707761260,"ttl":30,"version":"2.2","data":{"bikes":[{"bike_id":"a62367d4-fa80-4945-bf92-ab11a9d4b511","system_id":"levelo_inurba_marseille","lat":43.309076,"lon":5.368465,"is_reserved":false,"is_disabled":false,"rental_uris":{"android":"levelo://app?vid=a62367d4-fa80-4945-bf92-ab11a9d4b511","ios":"levelo://app?vid=a62367d4-fa80-4945-bf92-ab11a9d4b511"},"vehicle_type_id":"4","last_reported":1707761260,"current_range_meters":6400,"station_id":"ce4bgn92rcd13ifvqbvg","pricing_plan_id":"free"},{"bike_id":"1f8f060c-b497-4313-a965-991bcbb4b5fc","system_id":"levelo_inurba_marseille","lat":43.30906,"lon":5.37166,"is_reserved":false,"is_disabled":false,"rental_uris":{"android":"levelo://app?vid=1f8f060c-b497-4313-a965-991bcbb4b5fc","ios":"levelo://app?vid=1f8f060c-b497-4313-a965-991bcbb4b5fc"},"vehicle_type_id":"4","last_reported":1707761260,"current_range_meters":22000,"station_id":"ce4bguh2rcd13ifvqckg","pricing_plan_id":"free"},{"bike_id":"1ffda9db-9865-4c59-a755-f758ac111e8d","system_id":"levelo_inurba_marseille","lat":43.231562,"lon":5.436933,"is_reserved":false,"is_disabled":false,"rental_uris":{"android":"levelo://app?vid=1ffda9db-9865-4c59-a755-f758ac111e8d","ios":"levelo://app?vid=1ffda9db-9865-4c59-a755-f758ac111e8d"},"vehicle_type_id":"4","last_reported":1707761260,"current_range_meters":1600,"station_id":"ce4bhmp2rcd13ifvqgog","pricing_plan_id":"free"},{"bike_id":"62854c12-f036-4af9-9dd3-3e88a47a3ea0","system_id":"levelo_inurba_marseille","lat":43.305714,"lon":5.365633,"is_reserved":false,"is_disabled":false,"rental_uris":{"android":"levelo://app?vid=62854c12-f036-4af9-9dd3-3e88a47a3ea0","ios":"levelo://app?vid=62854c12-f036-4af9-9dd3-3e88a47a3ea0"},"vehicle_type_id":"4","last_reported":1707761260,"current_range_meters":8000,"station_id":"ce4bgs12rcd13ifvqcag","pricing_plan_id":"free"},{"bike_id":"9eb02513-166b-46d0-beeb-f43d66dce48b","system_id":"levelo_inurba_marseille","lat":43.305368,"lon":5.367343,"is_reserved":false,"is_disabled":false,"rental_uris":{"android":"levelo://app?vid=9eb02513-166b-46d0-beeb-f43d66dce48b","ios":"levelo://app?vid=9eb02513-166b-46d0-beeb-f43d66dce48b"},"vehicle_type_id":"4","last_reported":1707761260,"current_range_meters":0,"station_id":"ce4bgrp2rcd13ifvqc9g","pricing_plan_id":"free"},{"bike_id":"90f1ebe3-c8c3-46c3-a412-9bf385431716","system_id":"levelo_inurba_marseille","lat":43.305714,"lon":5.365633,"is_reserved":false,"is_disabled":false,"rental_uris":{"android":"levelo://app?vid=90f1ebe3-c8c3-46c3-a412-9bf385431716","ios":"levelo://app?vid=90f1ebe3-c8c3-46c3-a412-9bf385431716"},"vehicle_type_id":"4","last_reported":1707761260,"current_range_meters":6000,"station_id":"ce4bgs12rcd13ifvqcag","pricing_plan_id":"free"},{"bike_id":"c3a5ef66-1e07-4656-8d31-e13222f4f090","system_id":"levelo_inurba_marseille","lat":43.30529,"lon":5.36708,"is_reserved":false,"is_disabled":false,"rental_uris":{"android":"levelo://app?vid=c3a5ef66-1e07-4656-8d31-e13222f4f090","ios":"levelo://app?vid=c3a5ef66-1e07-4656-8d31-e13222f4f090"},"vehicle_type_id":"4","last_reported":1707761260,"current_range_meters":0,"station_id":"ce4bgrp2rcd13ifvqc9g","pricing_plan_id":"free"},{"bike_id":"687ed221-75c7-4040-86ea-04ba8528eb49","system_id":"levelo_inurba_marseille","lat":43.305989,"lon":5.37225,"is_reserved":false,"is_disabled":false,"rental_uris":{"android":"levelo://app?vid=687ed221-75c7-4040-86ea-04ba8528eb49","ios":"levelo://app?vid=687ed221-75c7-4040-86ea-04ba8528eb49"},"vehicle_type_id":"4","last_reported":1707761260,"current_range_meters":18400,"station_id":"ce4bgqh2rcd13ifvqc4g","pricing_plan_id":"free"},{"bike_id":"d5ddcd18-eb10-4425-87f3-010e45968d75","system_id":"levelo_inurba_marseille","lat":43.305989,"lon":5.37225,"is_reserved":false,"is_disabled":false,"rental_uris":{"android":"levelo://app?vid=d5ddcd18-eb10-4425-87f3-010e45968d75","ios":"levelo://app?vid=d5ddcd18-eb10-4425-87f3-010e45968d75"},"vehicle_type_id":"4","last_reported":1707761260,"current_range_meters":7600,"station_id":"ce4bgqh2rcd13ifvqc4g","pricing_plan_id":"free"},{"bike_id":"06941c52-d2df-4f60-89cb-7ad2bba5ff66","system_id":"levelo_inurba_marseille","lat":43.305989,"lon":5.37225,"is_reserved":false,"is_disabled":false,"rental_uris":{"android":"levelo://app?vid=06941c52-d2df-4f60-89cb-7ad2bba5ff66","ios":"levelo://app?vid=06941c52-d2df-4f60-89cb-7ad2bba5ff66"},"vehicle_type_id":"4","last_reported":1707761260,"current_range_meters":6000,"station_id":"ce4bgqh2rcd13ifvqc4g","pricing_plan_id":"free"},{"bike_id":"04fc5646-a233-4c97-9e9d-000bf6e08b4b","system_id":"levelo_inurba_marseille","lat":43.31115,"lon":5.37764,"is_reserved":false,"is_disabled":false,"rental_uris":{"android":"levelo://app?vid=04fc5646-a233-4c97-9e9d-000bf6e08b4b","ios":"levelo://app?vid=04fc5646-a233-4c97-9e9d-000bf6e08b4b"},"vehicle_type_id":"4","last_reported":1707761260,"current_range_meters":2800,"station_id":"ce4bgt92rcd13ifvqcg0","pricing_plan_id":"free"},{"bike_id":"493cdf56-3ba0-41e6-8228-4f063229a6f6","system_id":"levelo_inurba_marseille","lat":43.311125,"lon":5.377624,"is_reserved":false,"is_disabled":false,"rental_uris":{"android":"levelo://app?vid=493cdf56-3ba0-41e6-8228-4f063229a6f6","ios":"levelo://app?vid=493cdf56-3ba0-41e6-8228-4f063229a6f6"},"vehicle_type_id":"4","last_reported":1707761260,"current_range_meters":1600,"station_id":"ce4bgt92rcd13ifvqcg0","pricing_plan_id":"free"},{"bike_id":"063bf703-cfed-4ebf-b871-935a10b7e149","system_id":"levelo_inurba_marseille","lat":43.31069,"lon":5.37816,"is_reserved":false,"is_disabled":false,"rental_uris":{"android":"levelo://app?vid=063bf703-cfed-4ebf-b871-935a10b7e149","ios":"levelo://app?vid=063bf703-cfed-4ebf-b871-935a10b7e149"},"vehicle_type_id":"4","last_reported":1707761260,"current_range_meters":19200,"station_id":"","pricing_plan_id":"free"},{"bike_id":"b79e4acf-8c85-4282-b936-9f7ea069d502","system_id":"levelo_inurba_marseille","lat":43.30791,"lon":5.37653,"is_reserved":false,"is_disabled":false,"rental_uris":{"android":"levelo://app?vid=b79e4acf-8c85-4282-b936-9f7ea069d502","ios":"levelo://app?vid=b79e4acf-8c85-4282-b936-9f7ea069d502"},"vehicle_type_id":"4","last_reported":1707761260,"current_range_meters":0,"station_id":"ce4bgv92rcd13ifvqcq0","pricing_plan_id":"free"},{"bike_id":"78c00163-2d37-4085-a6a4-26f2c06f8616","system_id":"levelo_inurba_marseille","lat":43.307945,"lon":5.376487,"is_reserved":false,"is_disabled":false,"rental_uris":{"android":"levelo://app?vid=78c00163-2d37-4085-a6a4-26f2c06f8616","ios":"levelo://app?vid=78c00163-2d37-4085-a6a4-26f2c06f8616"},"vehicle_type_id":"4","last_reported":1707761260,"current_range_meters":18400,"station_id":"ce4bgv92rcd13ifvqcq0","pricing_plan_id":"free"},{"bike_id":"9bf6125c-f02b-4a09-ba8b-2d3ea0ee63bf","system_id":"levelo_inurba_marseille","lat":43.307945,"lon":5.376487,"is_reserved":false,"is_disabled":false,"rental_uris":{"android":"levelo://app?vid=9bf6125c-f02b-4a09-ba8b-2d3ea0ee63bf","ios":"levelo://app?vid=9bf6125c-f02b-4a09-ba8b-2d3ea0ee63bf"},"vehicle_type_id":"4","last_reported":1707761260,"current_range_meters":8800,"station_id":"ce4bgv92rcd13ifvqcq0","pricing_plan_id":"free"},{"bike_id":"ca2b98e2-5a19-4fa8-85ab-2a0ed7883eb8","system_id":"levelo_inurba_marseille","lat":43.317075,"lon":5.377367,"is_reserved":false,"is_disabled":false,"rental_uris":{"android":"levelo://app?vid=ca2b98e2-5a19-4fa8-85ab-2a0ed7883eb8","ios":"levelo://app?vid=ca2b98e2-5a19-4fa8-85ab-2a0ed7883eb8"},"vehicle_type_id":"4","last_reported":1707761260,"current_range_meters":2800,"station_id":"ce4bgth2rcd13ifvqch0","pricing_plan_id":"free"},{"bike_id":"0cac2b7a-3a29-4444-a928-a60f01802aaf","system_id":"levelo_inurba_marseille","lat":43.317075,"lon":5.377367,"is_reserved":false,"is_disabled":false,"rental_uris":{"android":"levelo://app?vid=0cac2b7a-3a29-4444-a928-a60f01802aaf","ios":"levelo://app?vid=0cac2b7a-3a29-4444-a928-a60f01802aaf"},"vehicle_type_id":"4","last_reported":1707761260,"current_range_meters":6000,"station_id":"ce4bgth2rcd13ifvqch0","pricing_plan_id":"free"},{"bike_id":"9a525516-b250-4705-b9fd-52b1016ae2b8","system_id":"levelo_inurba_marseille","lat":43.317075,"lon":5.377367,"is_reserved":false,"is_disabled":false,"rental_uris":{"android":"levelo://app?vid=9a525516-b250-4705-b9fd-52b1016ae2b8","ios":"levelo://app?vid=9a525516-b250-4705-b9fd-52b1016ae2b8"},"vehicle_type_id":"4","last_reported":1707761260,"current_range_meters":8400,"station_id":"ce4bgth2rcd13ifvqch0","pricing_plan_id":"free"},{"bike_id":"1d35b594-82dc-4c63-8c2a-5a6f605778b7","system_id":"levelo_inurba_marseille","lat":43.317075,"lon":5.377367,"is_reserved":false,"is_disabled":false,"rental_uris":{"android":"levelo://app?vid=1d35b594-82dc-4c63-8c2a-5a6f605778b7","ios":"levelo://app?vid=1d35b594-82dc-4c63-8c2a-5a6f605778b7"},"vehicle_type_id":"4","last_reported":1707761260,"current_range_meters":22800,"station_id":"ce4bgth2rcd13ifvqch0","pricing_plan_id":"free"},{"bike_id":"3ef00240-31df-4be9-bfe9-27658bdcd6d5","system_id":"levelo_inurba_marseille","lat":43.317075,"lon":5.377367,"is_reserved":false,"is_disabled":false,"rental_uris":{"android":"levelo://app?vid=3ef00240-31df-4be9-bfe9-27658bdcd6d5","ios":"levelo://app?vid=3ef00240-31df-4be9-bfe9-27658bdcd6d5"},"vehicle_type_id":"4","last_reported":1707761260,"current_range_meters":19600,"station_id":"ce4bgth2rcd13ifvqch0","pricing_plan_id":"free"},{"bike_id":"6c7eb289-c43e-402b-a39b-aeff7faf73e6","system_id":"levelo_inurba_marseille","lat":43.321752,"lon":5.368568,"is_reserved":false,"is_disabled":false,"rental_uris":{"android":"levelo://app?vid=6c7eb289-c43e-402b-a39b-aeff7faf73e6","ios":"levelo://app?vid=6c7eb289-c43e-402b-a39b-aeff7faf73e6"},"vehicle_type_id":"4","last_reported":1707761260,"current_range_meters":1600,"station_id":"","pricing_plan_id":"free"},{"bike_id":"bb491b83-1680-403b-8fc3-f5c7bc2cff60","system_id":"levelo_inurba_marseille","lat":43.315293,"lon":5.380349,"is_reserved":false,"is_disabled":false,"rental_uris":{"android":"levelo://app?vid=bb491b83-1680-403b-8fc3-f5c7bc2cff60","ios":"levelo://app?vid=bb491b83-1680-403b-8fc3-f5c7bc2cff60"},"vehicle_type_id":"4","last_reported":1707761260,"current_range_meters":16000,"station_id":"ce4bhsp2rcd13ifvqi50","pricing_plan_id":"free"},{"bike_id":"54ed32f1-fb83-4b4b-984f-6e7263190313","system_id":"levelo_inurba_marseille","lat":43.315293,"lon":5.380349,"is_reserved":false,"is_disabled":false,"rental_uris":{"android":"levelo://app?vid=54ed32f1-fb83-4b4b-984f-6e7263190313","ios":"levelo://app?vid=54ed32f1-fb83-4b4b-984f-6e7263190313"},"vehicle_type_id":"4","last_reported":1707761260,"current_range_meters":24400,"station_id":"ce4bhsp2rcd13ifvqi50","pricing_plan_id":"free"},{"bike_id":"dca02982-a8ca-4f8f-99aa-c4c50c3dc6cf","system_id":"levelo_inurba_marseille","lat":43.32273,"lon":5.36961,"is_reserved":false,"is_disabled":false,"rental_uris":{"android":"levelo://app?vid=dca02982-a8ca-4f8f-99aa-c4c50c3dc6cf","ios":"levelo://app?vid=dca02982-a8ca-4f8f-99aa-c4c50c3dc6cf"},"vehicle_type_id":"4","last_reported":1707761260,"current_range_meters":14000,"station_id":"","pricing_plan_id":"free"},{"bike_id":"c03f6c55-0e40-47fd-bcc4-a7adbe06e265","system_id":"levelo_inurba_marseille","lat":43.301939,"lon":5.366286,"is_reserved":false,"is_disabled":false,"rental_uris":{"android":"levelo://app?vid=c03f6c55-0e40-47fd-bcc4-a7adbe06e265","ios":"levelo://app?vid=c03f6c55-0e40-47fd-bcc4-a7adbe06e265"},"vehicle_type_id":"4","last_reported":1707761260,"current_range_meters":9600,"station_id":"ce4bgrh2rcd13ifvqc8g","pricing_plan_id":"free"},{"bike_id":"b0513d30-b272-4d33-8a70-83e642ac99fe","system_id":"levelo_inurba_marseille","lat":43.304606,"lon":5.379026,"is_reserved":false,"is_disabled":false,"rental_uris":{"android":"levelo://app?vid=b0513d30-b272-4d33-8a70-83e642ac99fe","ios":"levelo://app?vid=b0513d30-b272-4d33-8a70-83e642ac99fe"},"vehicle_type_id":"4","last_reported":1707761260,"current_range_meters":5200,"station_id":"ce4bgup2rcd13ifvqcn0","pricing_plan_id":"free"},{"bike_id":"6b38eece-4a6f-4f60-88b9-8304bed5b34a","system_id":"levelo_inurba_marseille","lat":43.304606,"lon":5.379026,"is_reserved":false,"is_disabled":false,"rental_uris":{"android":"levelo://app?vid=6b38eece-4a6f-4f60-88b9-8304bed5b34a","ios":"levelo://app?vid=6b38eece-4a6f-4f60-88b9-8304bed5b34a"},"vehicle_type_id":"4","last_reported":1707761260,"current_range_meters":11600,"station_id":"ce4bgup2rcd13ifvqcn0","pricing_plan_id":"free"},{"bike_id":"a53ad1db-e16f-4f11-a274-e9fa97561c6a","system_id":"levelo_inurba_marseille","lat":43.304606,"lon":5.379026,"is_reserved":false,"is_disabled":false,"rental_uris":{"android":"levelo://app?vid=a53ad1db-e16f-4f11-a274-e9fa97561c6a","ios":"levelo://app?vid=a53ad1db-e16f-4f11-a274-e9fa97561c6a"},"vehicle_type_id":"4","last_reported":1707761260,"current_range_meters":1200,"station_id":"ce4bgup2rcd13ifvqcn0","pricing_plan_id":"free"},{"bike_id":"0e1b309b-1fc6-4572-ba9e-03fd6da5e573","system_id":"levelo_inurba_marseille","lat":43.324771,"lon":5.36557,"is_reserved":false,"is_disabled":false,"rental_uris":{"android":"levelo://app?vid=0e1b309b-1fc6-4572-ba9e-03fd6da5e573","ios":"levelo://app?vid=0e1b309b-1fc6-4572-ba9e-03fd6da5e573"},"vehicle_type_id":"4","last_reported":1707761260,"current_range_meters":1200,"station_id":"ce4bhs12rcd13ifvqhvg","pricing_plan_id":"free"},{"bike_id":"cd19cbd2-fdc9-4ad6-b545-da608836247c","system_id":"levelo_inurba_marseille","lat":43.324771,"lon":5.36557,"is_reserved":false,"is_disabled":false,"rental_uris":{"android":"levelo://app?vid=cd19cbd2-fdc9-4ad6-b545-da608836247c","ios":"levelo://app?vid=cd19cbd2-fdc9-4ad6-b545-da608836247c"},"vehicle_type_id":"4","last_reported":1707761260,"current_range_meters":3200,"station_id":"ce4bhs12rcd13ifvqhvg","pricing_plan_id":"free"},{"bike_id":"a34a2f83-cbcd-4c60-acc0-2f59774cd82e","system_id":"levelo_inurba_marseille","lat":43.324771,"lon":5.36557,"is_reserved":false,"is_disabled":false,"rental_uris":{"android":"levelo://app?vid=a34a2f83-cbcd-4c60-acc0-2f59774cd82e","ios":"levelo://app?vid=a34a2f83-cbcd-4c60-acc0-2f59774cd82e"},"vehicle_type_id":"4","last_reported":1707761260,"current_range_meters":5200,"station_id":"ce4bhs12rcd13ifvqhvg","pricing_plan_id":"free"},{"bike_id":"fd5b19b7-13cb-4f46-add9-52b8dceabe63","system_id":"levelo_inurba_marseille","lat":43.310804,"lon":5.38359,"is_reserved":false,"is_disabled":false,"rental_uris":{"android":"levelo://app?vid=fd5b19b7-13cb-4f46-add9-52b8dceabe63","ios":"levelo://app?vid=fd5b19b7-13cb-4f46-add9-52b8dceabe63"},"vehicle_type_id":"4","last_reported":1707761260,"current_range_meters":10400,"station_id":"ce4bgv92rcd13ifvqcr0","pricing_plan_id":"free"},{"bike_id":"d5936a56-3f9e-4802-9d89-84da19e47e48","system_id":"levelo_inurba_marseille","lat":43.30143,"lon":5.37413,"is_reserved":false,"is_disabled":false,"rental_uris":{"android":"levelo://app?vid=d5936a56-3f9e-4802-9d89-84da19e47e48","ios":"levelo://app?vid=d5936a56-3f9e-4802-9d89-84da19e47e48"},"vehicle_type_id":"4","last_reported":1707761260,"current_range_meters":0,"station_id":"ce4bgs92rcd13ifvqcc0","pricing_plan_id":"free"},{"bike_id":"2c22e086-344d-466d-9a29-400a3159186e","system_id":"levelo_inurba_marseille","lat":43.31999,"lon":5.38153,"is_reserved":false,"is_disabled":false,"rental_uris":{"android":"levelo://app?vid=2c22e086-344d-466d-9a29-400a3159186e","ios":"levelo://app?vid=2c22e086-344d-466d-9a29-400a3159186e"},"vehicle_type_id":"4","last_reported":1707761260,"current_range_meters":12000,"station_id":"ce4bhr12rcd13ifvqhpg","pricing_plan_id":"free"},{"bike_id":"3a289d4c-7894-45d8-8ecc-abb42cc9aae8","system_id":"levelo_inurba_marseille","lat":43.31992,"lon":5.3817,"is_reserved":false,"is_disabled":false,"rental_uris":{"android":"levelo://app?vid=3a289d4c-7894-45d8-8ecc-abb42cc9aae8","ios":"levelo://app?vid=3a289d4c-7894-45d8-8ecc-abb42cc9aae8"},"vehicle_type_id":"4","last_reported":1707761260,"current_range_meters":21600,"station_id":"ce4bhr12rcd13ifvqhpg","pricing_plan_id":"free"},{"bike_id":"68ea133a-6c8c-4500-8dbf-a6144f869869","system_id":"levelo_inurba_marseille","lat":43.32002,"lon":5.38168,"is_reserved":false,"is_disabled":false,"rental_uris":{"android":"levelo://app?vid=68ea133a-6c8c-4500-8dbf-a6144f869869","ios":"levelo://app?vid=68ea133a-6c8c-4500-8dbf-a6144f869869"},"vehicle_type_id":"4","last_reported":1707761260,"current_range_meters":0,"station_id":"ce4bhr12rcd13ifvqhpg","pricing_plan_id":"free"},{"bike_id":"eef421ab-b8b4-44b0-8692-6f744b0dfa34","system_id":"levelo_inurba_marseille","lat":43.32,"lon":5.38173,"is_reserved":false,"is_disabled":false,"rental_uris":{"android":"levelo://app?vid=eef421ab-b8b4-44b0-8692-6f744b0dfa34","ios":"levelo://app?vid=eef421ab-b8b4-44b0-8692-6f744b0dfa34"},"vehicle_type_id":"4","last_reported":1707761260,"current_range_meters":17600,"station_id":"ce4bhr12rcd13ifvqhpg","pricing_plan_id":"free"},{"bike_id":"9392ded8-2c59-4515-9ebd-1d459524ab76","system_id":"levelo_inurba_marseille","lat":43.313571,"lon":5.384829,"is_reserved":false,"is_disabled":false,"rental_uris":{"android":"levelo://app?vid=9392ded8-2c59-4515-9ebd-1d459524ab76","ios":"levelo://app?vid=9392ded8-2c59-4515-9ebd-1d459524ab76"},"vehicle_type_id":"4","last_reported":1707761260,"current_range_meters":29600,"station_id":"ce4bgt92rcd13ifvqcf0","pricing_plan_id":"free"},{"bike_id":"6bf961df-ba72-4cbf-be9a-65deb07f6f91","system_id":"levelo_inurba_marseille","lat":43.299724,"lon":5.371829,"is_reserved":false,"is_disabled":false,"rental_uris":{"android":"levelo://app?vid=6bf961df-ba72-4cbf-be9a-65deb07f6f91","ios":"levelo://app?vid=6bf961df-ba72-4cbf-be9a-65deb07f6f91"},"vehicle_type_id":"4","last_reported":1707761260,"current_range_meters":12400,"station_id":"ce4bgr92rcd13ifvqc7g","pricing_plan_id":"free"},{"bike_id":"c4504707-3d8c-4a70-bfb2-e3fb1d02d6c4","system_id":"levelo_inurba_marseille","lat":43.299222,"lon":5.365554,"is_reserved":false,"is_disabled":false,"rental_uris":{"android":"levelo://app?vid=c4504707-3d8c-4a70-bfb2-e3fb1d02d6c4","ios":"levelo://app?vid=c4504707-3d8c-4a70-bfb2-e3fb1d02d6c4"},"vehicle_type_id":"4","last_reported":1707761260,"current_range_meters":15600,"station_id":"ce4bgm92rcd13ifvqbr0","pricing_plan_id":"free"},{"bike_id":"cc361ddc-ce1d-4dbe-bbd0-1980bd16ea75","system_id":"levelo_inurba_marseille","lat":43.299222,"lon":5.365554,"is_reserved":false,"is_disabled":false,"rental_uris":{"android":"levelo://app?vid=cc361ddc-ce1d-4dbe-bbd0-1980bd16ea75","ios":"levelo://app?vid=cc361ddc-ce1d-4dbe-bbd0-1980bd16ea75"},"vehicle_type_id":"4","last_reported":1707761260,"current_range_meters":6000,"station_id":"ce4bgm92rcd13ifvqbr0","pricing_plan_id":"free"},{"bike_id":"9d909f1f-8fc0-4634-ac31-9140446388d8","system_id":"levelo_inurba_marseille","lat":43.299724,"lon":5.371829,"is_reserved":false,"is_disabled":false,"rental_uris":{"android":"levelo://app?vid=9d909f1f-8fc0-4634-ac31-9140446388d8","ios":"levelo://app?vid=9d909f1f-8fc0-4634-ac31-9140446388d8"},"vehicle_type_id":"4","last_reported":1707761260,"current_range_meters":17600,"station_id":"ce4bgr92rcd13ifvqc7g","pricing_plan_id":"free"},{"bike_id":"1e15e70e-4188-473c-895a-ba5d46a256d9","system_id":"levelo_inurba_marseille","lat":43.2986,"lon":5.36282,"is_reserved":false,"is_disabled":false,"rental_uris":{"android":"levelo://app?vid=1e15e70e-4188-473c-895a-ba5d46a256d9","ios":"levelo://app?vid=1e15e70e-4188-473c-895a-ba5d46a256d9"},"vehicle_type_id":"4","last_reported":1707761260,"current_range_meters":13600,"station_id":"ce4bgpp2rcd13ifvqc3g","pricing_plan_id":"free"},{"bike_id":"1e65f469-019c-4714-a330-ed9f0d796f84","system_id":"levelo_inurba_marseille","lat":43.31155,"lon":5.38687,"is_reserved":false,"is_disabled":false,"rental_uris":{"android":"levelo://app?vid=1e65f469-019c-4714-a330-ed9f0d796f84","ios":"levelo://app?vid=1e65f469-019c-4714-a330-ed9f0d796f84"},"vehicle_type_id":"4","last_reported":1707761260,"current_range_meters":19200,"station_id":"ce4bgv12rcd13ifvqcp0","pricing_plan_id":"free"},{"bike_id":"057c834a-3b23-465d-81b8-226cb64e41b3","system_id":"levelo_inurba_marseille","lat":43.298433,"lon":5.362774,"is_reserved":false,"is_disabled":false,"rental_uris":{"android":"levelo://app?vid=057c834a-3b23-465d-81b8-226cb64e41b3","ios":"levelo://app?vid=057c834a-3b23-465d-81b8-226cb64e41b3"},"vehicle_type_id":"4","last_reported":1707761260,"current_range_meters":18000,"station_id":"ce4bgpp2rcd13ifvqc3g","pricing_plan_id":"free"},{"bike_id":"ddcab133-7be7-43ae-88b0-9f13a2545790","system_id":"levelo_inurba_marseille","lat":43.298433,"lon":5.362774,"is_reserved":false,"is_disabled":false,"rental_uris":{"android":"levelo://app?vid=ddcab133-7be7-43ae-88b0-9f13a2545790","ios":"levelo://app?vid=ddcab133-7be7-43ae-88b0-9f13a2545790"},"vehicle_type_id":"4","last_reported":1707761260,"current_range_meters":3200,"station_id":"ce4bgpp2rcd13ifvqc3g","pricing_plan_id":"free"},{"bike_id":"fda2245d-9260-4e29-abec-679822e2fc99","system_id":"levelo_inurba_marseille","lat":43.298433,"lon":5.362774,"is_reserved":false,"is_disabled":false,"rental_uris":{"android":"levelo://app?vid=fda2245d-9260-4e29-abec-679822e2fc99","ios":"levelo://app?vid=fda2245d-9260-4e29-abec-679822e2fc99"},"vehicle_type_id":"4","last_reported":1707761260,"current_range_meters":22400,"station_id":"ce4bgpp2rcd13ifvqc3g","pricing_plan_id":"free"},{"bike_id":"8e3b0d90-04bd-45c4-a2d4-4476fcff9675","system_id":"levelo_inurba_marseille","lat":43.298433,"lon":5.362774,"is_reserved":false,"is_disabled":false,"rental_uris":{"android":"levelo://app?vid=8e3b0d90-04bd-45c4-a2d4-4476fcff9675","ios":"levelo://app?vid=8e3b0d90-04bd-45c4-a2d4-4476fcff9675"},"vehicle_type_id":"4","last_reported":1707761260,"current_range_meters":18000,"station_id":"ce4bgpp2rcd13ifvqc3g","pricing_plan_id":"free"},{"bike_id":"9247af2c-4e86-4e74-ae18-1d5316e05ffd","system_id":"levelo_inurba_marseille","lat":43.298433,"lon":5.362774,"is_reserved":false,"is_disabled":false,"rental_uris":{"android":"levelo://app?vid=9247af2c-4e86-4e74-ae18-1d5316e05ffd","ios":"levelo://app?vid=9247af2c-4e86-4e74-ae18-1d5316e05ffd"},"vehicle_type_id":"4","last_reported":1707761260,"current_range_meters":10400,"station_id":"ce4bgpp2rcd13ifvqc3g","pricing_plan_id":"free"},{"bike_id":"7e56e9e4-7336-4103-8304-4b3610a29f19","system_id":"levelo_inurba_marseille","lat":43.298433,"lon":5.362774,"is_reserved":false,"is_disabled":false,"rental_uris":{"android":"levelo://app?vid=7e56e9e4-7336-4103-8304-4b3610a29f19","ios":"levelo://app?vid=7e56e9e4-7336-4103-8304-4b3610a29f19"},"vehicle_type_id":"4","last_reported":1707761260,"current_range_meters":12000,"station_id":"ce4bgpp2rcd13ifvqc3g","pricing_plan_id":"free"},{"bike_id":"df926621-1439-451b-9bc3-0b28d12d29e6","system_id":"levelo_inurba_marseille","lat":43.298433,"lon":5.362774,"is_reserved":false,"is_disabled":false,"rental_uris":{"android":"levelo://app?vid=df926621-1439-451b-9bc3-0b28d12d29e6","ios":"levelo://app?vid=df926621-1439-451b-9bc3-0b28d12d29e6"},"vehicle_type_id":"4","last_reported":1707761260,"current_range_meters":18000,"station_id":"ce4bgpp2rcd13ifvqc3g","pricing_plan_id":"free"},{"bike_id":"9e5b928a-2da0-4907-a638-c2bb7f8f823c","system_id":"levelo_inurba_marseille","lat":43.298433,"lon":5.362774,"is_reserved":false,"is_disabled":false,"rental_uris":{"android":"levelo://app?vid=9e5b928a-2da0-4907-a638-c2bb7f8f823c","ios":"levelo://app?vid=9e5b928a-2da0-4907-a638-c2bb7f8f823c"},"vehicle_type_id":"4","last_reported":1707761260,"current_range_meters":24400,"station_id":"ce4bgpp2rcd13ifvqc3g","pricing_plan_id":"free"},{"bike_id":"31f411cb-b013-41ee-aa3f-f5fbe312101e","system_id":"levelo_inurba_marseille","lat":43.298433,"lon":5.362774,"is_reserved":false,"is_disabled":false,"rental_uris":{"android":"levelo://app?vid=31f411cb-b013-41ee-aa3f-f5fbe312101e","ios":"levelo://app?vid=31f411cb-b013-41ee-aa3f-f5fbe312101e"},"vehicle_type_id":"4","last_reported":1707761260,"current_range_meters":6400,"station_id":"ce4bgpp2rcd13ifvqc3g","pricing_plan_id":"free"},{"bike_id":"676edd8a-8865-4867-aa6e-550767eb0024","system_id":"levelo_inurba_marseille","lat":43.298433,"lon":5.362774,"is_reserved":false,"is_disabled":false,"rental_uris":{"android":"levelo://app?vid=676edd8a-8865-4867-aa6e-550767eb0024","ios":"levelo://app?vid=676edd8a-8865-4867-aa6e-550767eb0024"},"vehicle_type_id":"4","last_reported":1707761260,"current_range_meters":27600,"station_id":"ce4bgpp2rcd13ifvqc3g","pricing_plan_id":"free"},{"bike_id":"ea5fb971-c97b-4a01-a3b5-274758b08e8c","system_id":"levelo_inurba_marseille","lat":43.298433,"lon":5.362774,"is_reserved":false,"is_disabled":false,"rental_uris":{"android":"levelo://app?vid=ea5fb971-c97b-4a01-a3b5-274758b08e8c","ios":"levelo://app?vid=ea5fb971-c97b-4a01-a3b5-274758b08e8c"},"vehicle_type_id":"4","last_reported":1707761260,"current_range_meters":17600,"station_id":"ce4bgpp2rcd13ifvqc3g","pricing_plan_id":"free"},{"bike_id":"08e204be-3f83-4527-824e-f22d5c1a5265","system_id":"levelo_inurba_marseille","lat":43.298433,"lon":5.362774,"is_reserved":false,"is_disabled":false,"rental_uris":{"android":"levelo://app?vid=08e204be-3f83-4527-824e-f22d5c1a5265","ios":"levelo://app?vid=08e204be-3f83-4527-824e-f22d5c1a5265"},"vehicle_type_id":"4","last_reported":1707761260,"current_range_meters":23200,"station_id":"ce4bgpp2rcd13ifvqc3g","pricing_plan_id":"free"},{"bike_id":"11a8382c-f5bc-46b9-83ca-f4572351bc1f","system_id":"levelo_inurba_marseille","lat":43.298433,"lon":5.362774,"is_reserved":false,"is_disabled":false,"rental_uris":{"android":"levelo://app?vid=11a8382c-f5bc-46b9-83ca-f4572351bc1f","ios":"levelo://app?vid=11a8382c-f5bc-46b9-83ca-f4572351bc1f"},"vehicle_type_id":"4","last_reported":1707761260,"current_range_meters":13200,"station_id":"ce4bgpp2rcd13ifvqc3g","pricing_plan_id":"free"},{"bike_id":"bdbe5120-644f-45de-80ed-36ed1f4c1194","system_id":"levelo_inurba_marseille","lat":43.298433,"lon":5.362774,"is_reserved":false,"is_disabled":false,"rental_uris":{"android":"levelo://app?vid=bdbe5120-644f-45de-80ed-36ed1f4c1194","ios":"levelo://app?vid=bdbe5120-644f-45de-80ed-36ed1f4c1194"},"vehicle_type_id":"4","last_reported":1707761260,"current_range_meters":14400,"station_id":"ce4bgpp2rcd13ifvqc3g","pricing_plan_id":"free"},{"bike_id":"b296dbe0-a8ce-4430-b128-464bfc32d8d0","system_id":"levelo_inurba_marseille","lat":43.298433,"lon":5.362774,"is_reserved":false,"is_disabled":false,"rental_uris":{"android":"levelo://app?vid=b296dbe0-a8ce-4430-b128-464bfc32d8d0","ios":"levelo://app?vid=b296dbe0-a8ce-4430-b128-464bfc32d8d0"},"vehicle_type_id":"4","last_reported":1707761260,"current_range_meters":17200,"station_id":"ce4bgpp2rcd13ifvqc3g","pricing_plan_id":"free"},{"bike_id":"b1f81452-75a7-4d41-a362-a8a7698168aa","system_id":"levelo_inurba_marseille","lat":43.298433,"lon":5.362774,"is_reserved":false,"is_disabled":false,"rental_uris":{"android":"levelo://app?vid=b1f81452-75a7-4d41-a362-a8a7698168aa","ios":"levelo://app?vid=b1f81452-75a7-4d41-a362-a8a7698168aa"},"vehicle_type_id":"4","last_reported":1707761260,"current_range_meters":21200,"station_id":"ce4bgpp2rcd13ifvqc3g","pricing_plan_id":"free"},{"bike_id":"58e8b243-155b-48d7-967f-0dee17133cb5","system_id":"levelo_inurba_marseille","lat":43.311818,"lon":5.387158,"is_reserved":false,"is_disabled":false,"rental_uris":{"android":"levelo://app?vid=58e8b243-155b-48d7-967f-0dee17133cb5","ios":"levelo://app?vid=58e8b243-155b-48d7-967f-0dee17133cb5"},"vehicle_type_id":"4","last_reported":1707761260,"current_range_meters":16800,"station_id":"ce4bgv12rcd13ifvqcp0","pricing_plan_id":"free"},{"bike_id":"4afd7916-17db-49c2-99ea-9888508654c5","system_id":"levelo_inurba_marseille","lat":43.299243,"lon":5.37481,"is_reserved":false,"is_disabled":false,"rental_uris":{"android":"levelo://app?vid=4afd7916-17db-49c2-99ea-9888508654c5","ios":"levelo://app?vid=4afd7916-17db-49c2-99ea-9888508654c5"},"vehicle_type_id":"4","last_reported":1707761260,"current_range_meters":22000,"station_id":"ce4bgjh2rcd13ifvqbg0","pricing_plan_id":"free"},{"bike_id":"40035bce-dbad-44b3-bc41-8dddd7b04af1","system_id":"levelo_inurba_marseille","lat":43.311722,"lon":5.387247,"is_reserved":false,"is_disabled":false,"rental_uris":{"android":"levelo://app?vid=40035bce-dbad-44b3-bc41-8dddd7b04af1","ios":"levelo://app?vid=40035bce-dbad-44b3-bc41-8dddd7b04af1"},"vehicle_type_id":"4","last_reported":1707761260,"current_range_meters":31200,"station_id":"ce4bgv12rcd13ifvqcp0","pricing_plan_id":"free"},{"bike_id":"5e6fe3e2-51f7-43c7-954c-9f7bfd7b9b02","system_id":"levelo_inurba_marseille","lat":43.311796,"lon":5.387186,"is_reserved":false,"is_disabled":false,"rental_uris":{"android":"levelo://app?vid=5e6fe3e2-51f7-43c7-954c-9f7bfd7b9b02","ios":"levelo://app?vid=5e6fe3e2-51f7-43c7-954c-9f7bfd7b9b02"},"vehicle_type_id":"4","last_reported":1707761260,"current_range_meters":0,"station_id":"ce4bgv12rcd13ifvqcp0","pricing_plan_id":"free"},{"bike_id":"4a7d5a0d-fbb7-4df8-a1a6-d6b4621e418f","system_id":"levelo_inurba_marseille","lat":43.297774,"lon":5.370875,"is_reserved":false,"is_disabled":false,"rental_uris":{"android":"levelo://app?vid=4a7d5a0d-fbb7-4df8-a1a6-d6b4621e418f","ios":"levelo://app?vid=4a7d5a0d-fbb7-4df8-a1a6-d6b4621e418f"},"vehicle_type_id":"4","last_reported":1707761260,"current_range_meters":0,"station_id":"ce4bgop2rcd13ifvqc1g","pricing_plan_id":"free"},{"bike_id":"51ddbd39-4d15-40e0-839d-138a92feec63","system_id":"levelo_inurba_marseille","lat":43.297794,"lon":5.370888,"is_reserved":false,"is_disabled":false,"rental_uris":{"android":"levelo://app?vid=51ddbd39-4d15-40e0-839d-138a92feec63","ios":"levelo://app?vid=51ddbd39-4d15-40e0-839d-138a92feec63"},"vehicle_type_id":"4","last_reported":1707761260,"current_range_meters":22400,"station_id":"ce4bgop2rcd13ifvqc1g","pricing_plan_id":"free"},{"bike_id":"527b6507-a86f-47b7-9c36-9aeccc7f6780","system_id":"levelo_inurba_marseille","lat":43.322881,"lon":5.382591,"is_reserved":false,"is_disabled":false,"rental_uris":{"android":"levelo://app?vid=527b6507-a86f-47b7-9c36-9aeccc7f6780","ios":"levelo://app?vid=527b6507-a86f-47b7-9c36-9aeccc7f6780"},"vehicle_type_id":"4","last_reported":1707761260,"current_range_meters":28000,"station_id":"ce4bhr12rcd13ifvqhqg","pricing_plan_id":"free"},{"bike_id":"e5750477-e3f2-40a2-b1f6-91d5216398f6","system_id":"levelo_inurba_marseille","lat":43.32289,"lon":5.38258,"is_reserved":false,"is_disabled":false,"rental_uris":{"android":"levelo://app?vid=e5750477-e3f2-40a2-b1f6-91d5216398f6","ios":"levelo://app?vid=e5750477-e3f2-40a2-b1f6-91d5216398f6"},"vehicle_type_id":"4","last_reported":1707761260,"current_range_meters":23600,"station_id":"ce4bhr12rcd13ifvqhqg","pricing_plan_id":"free"},{"bike_id":"d16915ab-365b-49c0-8e2e-1059f74f084d","system_id":"levelo_inurba_marseille","lat":43.32287,"lon":5.38265,"is_reserved":false,"is_disabled":false,"rental_uris":{"android":"levelo://app?vid=d16915ab-365b-49c0-8e2e-1059f74f084d","ios":"levelo://app?vid=d16915ab-365b-49c0-8e2e-1059f74f084d"},"vehicle_type_id":"4","last_reported":1707761260,"current_range_meters":23200,"station_id":"ce4bhr12rcd13ifvqhqg","pricing_plan_id":"free"},{"bike_id":"33170a3c-d249-42cf-a23e-db8cbeecfd39","system_id":"levelo_inurba_marseille","lat":43.32284,"lon":5.38272,"is_reserved":false,"is_disabled":false,"rental_uris":{"android":"levelo://app?vid=33170a3c-d249-42cf-a23e-db8cbeecfd39","ios":"levelo://app?vid=33170a3c-d249-42cf-a23e-db8cbeecfd39"},"vehicle_type_id":"4","last_reported":1707761260,"current_range_meters":10000,"station_id":"ce4bhr12rcd13ifvqhqg","pricing_plan_id":"free"},{"bike_id":"beb3e36f-3f99-4dfc-841c-74803ce2e6c8","system_id":"levelo_inurba_marseille","lat":43.32291,"lon":5.38264,"is_reserved":false,"is_disabled":false,"rental_uris":{"android":"levelo://app?vid=beb3e36f-3f99-4dfc-841c-74803ce2e6c8","ios":"levelo://app?vid=beb3e36f-3f99-4dfc-841c-74803ce2e6c8"},"vehicle_type_id":"4","last_reported":1707761260,"current_range_meters":0,"station_id":"ce4bhr12rcd13ifvqhqg","pricing_plan_id":"free"},{"bike_id":"c780842c-e95f-47ff-a149-ed36c8a413db","system_id":"levelo_inurba_marseille","lat":43.32282,"lon":5.38278,"is_reserved":false,"is_disabled":false,"rental_uris":{"android":"levelo://app?vid=c780842c-e95f-47ff-a149-ed36c8a413db","ios":"levelo://app?vid=c780842c-e95f-47ff-a149-ed36c8a413db"},"vehicle_type_id":"4","last_reported":1707761260,"current_range_meters":30800,"station_id":"ce4bhr12rcd13ifvqhqg","pricing_plan_id":"free"},{"bike_id":"7c59bca1-a347-4cb9-b145-64f6481277fc","system_id":"levelo_inurba_marseille","lat":43.322912,"lon":5.382675,"is_reserved":false,"is_disabled":false,"rental_uris":{"android":"levelo://app?vid=7c59bca1-a347-4cb9-b145-64f6481277fc","ios":"levelo://app?vid=7c59bca1-a347-4cb9-b145-64f6481277fc"},"vehicle_type_id":"4","last_reported":1707761260,"current_range_meters":30800,"station_id":"ce4bhr12rcd13ifvqhqg","pricing_plan_id":"free"},{"bike_id":"c3332315-777e-4af8-b68a-18a46d9c4f28","system_id":"levelo_inurba_marseille","lat":43.322872,"lon":5.382756,"is_reserved":false,"is_disabled":false,"rental_uris":{"android":"levelo://app?vid=c3332315-777e-4af8-b68a-18a46d9c4f28","ios":"levelo://app?vid=c3332315-777e-4af8-b68a-18a46d9c4f28"},"vehicle_type_id":"4","last_reported":1707761260,"current_range_meters":28400,"station_id":"ce4bhr12rcd13ifvqhqg","pricing_plan_id":"free"},{"bike_id":"2503d63f-9409-4626-bcfa-fa2e70777687","system_id":"levelo_inurba_marseille","lat":43.322872,"lon":5.382756,"is_reserved":false,"is_disabled":false,"rental_uris":{"android":"levelo://app?vid=2503d63f-9409-4626-bcfa-fa2e70777687","ios":"levelo://app?vid=2503d63f-9409-4626-bcfa-fa2e70777687"},"vehicle_type_id":"4","last_reported":1707761260,"current_range_meters":24000,"station_id":"ce4bhr12rcd13ifvqhqg","pricing_plan_id":"free"},{"bike_id":"9d4f4af9-654a-4fd3-bf5e-6e84dbb3dbae","system_id":"levelo_inurba_marseille","lat":43.32823,"lon":5.36692,"is_reserved":false,"is_disabled":false,"rental_uris":{"android":"levelo://app?vid=9d4f4af9-654a-4fd3-bf5e-6e84dbb3dbae","ios":"levelo://app?vid=9d4f4af9-654a-4fd3-bf5e-6e84dbb3dbae"},"vehicle_type_id":"4","last_reported":1707761260,"current_range_meters":9200,"station_id":"ce4bhs92rcd13ifvqi0g","pricing_plan_id":"free"},{"bike_id":"a44933ef-03a0-4282-9ff6-bcc91878fda0","system_id":"levelo_inurba_marseille","lat":43.32823,"lon":5.366829,"is_reserved":false,"is_disabled":false,"rental_uris":{"android":"levelo://app?vid=a44933ef-03a0-4282-9ff6-bcc91878fda0","ios":"levelo://app?vid=a44933ef-03a0-4282-9ff6-bcc91878fda0"},"vehicle_type_id":"4","last_reported":1707761260,"current_range_meters":7200,"station_id":"ce4bhs92rcd13ifvqi0g","pricing_plan_id":"free"},{"bike_id":"de562f14-ffaa-41a8-9815-6c8ff06728a2","system_id":"levelo_inurba_marseille","lat":43.32826,"lon":5.36682,"is_reserved":false,"is_disabled":false,"rental_uris":{"android":"levelo://app?vid=de562f14-ffaa-41a8-9815-6c8ff06728a2","ios":"levelo://app?vid=de562f14-ffaa-41a8-9815-6c8ff06728a2"},"vehicle_type_id":"4","last_reported":1707761260,"current_range_meters":18000,"station_id":"ce4bhs92rcd13ifvqi0g","pricing_plan_id":"free"},{"bike_id":"d22a27f5-091b-42fa-941c-6e99819fca0e","system_id":"levelo_inurba_marseille","lat":43.328261,"lon":5.366837,"is_reserved":false,"is_disabled":false,"rental_uris":{"android":"levelo://app?vid=d22a27f5-091b-42fa-941c-6e99819fca0e","ios":"levelo://app?vid=d22a27f5-091b-42fa-941c-6e99819fca0e"},"vehicle_type_id":"4","last_reported":1707761260,"current_range_meters":18000,"station_id":"ce4bhs92rcd13ifvqi0g","pricing_plan_id":"free"},{"bike_id":"0cf06903-45ed-4c06-866c-98b66b380890","system_id":"levelo_inurba_marseille","lat":43.32827,"lon":5.36679,"is_reserved":false,"is_disabled":false,"rental_uris":{"android":"levelo://app?vid=0cf06903-45ed-4c06-866c-98b66b380890","ios":"levelo://app?vid=0cf06903-45ed-4c06-866c-98b66b380890"},"vehicle_type_id":"4","last_reported":1707761260,"current_range_meters":20800,"station_id":"ce4bhs92rcd13ifvqi0g","pricing_plan_id":"free"},{"bike_id":"03730dd5-0a88-4239-8528-528347df93a2","system_id":"levelo_inurba_marseille","lat":43.328371,"lon":5.366909,"is_reserved":false,"is_disabled":false,"rental_uris":{"android":"levelo://app?vid=03730dd5-0a88-4239-8528-528347df93a2","ios":"levelo://app?vid=03730dd5-0a88-4239-8528-528347df93a2"},"vehicle_type_id":"4","last_reported":1707761260,"current_range_meters":6800,"station_id":"ce4bhs92rcd13ifvqi0g","pricing_plan_id":"free"},{"bike_id":"d7fb2c06-e97d-437a-9eb9-d8da8314c700","system_id":"levelo_inurba_marseille","lat":43.32828,"lon":5.36678,"is_reserved":false,"is_disabled":false,"rental_uris":{"android":"levelo://app?vid=d7fb2c06-e97d-437a-9eb9-d8da8314c700","ios":"levelo://app?vid=d7fb2c06-e97d-437a-9eb9-d8da8314c700"},"vehicle_type_id":"4","last_reported":1707761260,"current_range_meters":2400,"station_id":"ce4bhs92rcd13ifvqi0g","pricing_plan_id":"free"},{"bike_id":"6a3c4286-d135-47b6-b7e6-099bebcaa564","system_id":"levelo_inurba_marseille","lat":43.328371,"lon":5.366912,"is_reserved":false,"is_disabled":false,"rental_uris":{"android":"levelo://app?vid=6a3c4286-d135-47b6-b7e6-099bebcaa564","ios":"levelo://app?vid=6a3c4286-d135-47b6-b7e6-099bebcaa564"},"vehicle_type_id":"4","last_reported":1707761260,"current_range_meters":29600,"station_id":"ce4bhs92rcd13ifvqi0g","pricing_plan_id":"free"},{"bike_id":"b17262ff-d7fc-4ef8-92b0-4128905d7cdd","system_id":"levelo_inurba_marseille","lat":43.32829,"lon":5.366908,"is_reserved":false,"is_disabled":false,"rental_uris":{"android":"levelo://app?vid=b17262ff-d7fc-4ef8-92b0-4128905d7cdd","ios":"levelo://app?vid=b17262ff-d7fc-4ef8-92b0-4128905d7cdd"},"vehicle_type_id":"4","last_reported":1707761260,"current_range_meters":25600,"station_id":"ce4bhs92rcd13ifvqi0g","pricing_plan_id":"free"},{"bike_id":"cc4e0fd6-d1d5-4220-802a-0600345a85b5","system_id":"levelo_inurba_marseille","lat":43.328371,"lon":5.366912,"is_reserved":false,"is_disabled":false,"rental_uris":{"android":"levelo://app?vid=cc4e0fd6-d1d5-4220-802a-0600345a85b5","ios":"levelo://app?vid=cc4e0fd6-d1d5-4220-802a-0600345a85b5"},"vehicle_type_id":"4","last_reported":1707761260,"current_range_meters":22400,"station_id":"ce4bhs92rcd13ifvqi0g","pricing_plan_id":"free"},{"bike_id":"f9328847-93f3-477c-b3c4-058f938086b7","system_id":"levelo_inurba_marseille","lat":43.328317,"lon":5.366917,"is_reserved":false,"is_disabled":false,"rental_uris":{"android":"levelo://app?vid=f9328847-93f3-477c-b3c4-058f938086b7","ios":"levelo://app?vid=f9328847-93f3-477c-b3c4-058f938086b7"},"vehicle_type_id":"4","last_reported":1707761260,"current_range_meters":15200,"station_id":"ce4bhs92rcd13ifvqi0g","pricing_plan_id":"free"},{"bike_id":"1f8bcc96-199c-401e-a00d-ac34b60c808b","system_id":"levelo_inurba_marseille","lat":43.328371,"lon":5.366912,"is_reserved":false,"is_disabled":false,"rental_uris":{"android":"levelo://app?vid=1f8bcc96-199c-401e-a00d-ac34b60c808b","ios":"levelo://app?vid=1f8bcc96-199c-401e-a00d-ac34b60c808b"},"vehicle_type_id":"4","last_reported":1707761260,"current_range_meters":4400,"station_id":"ce4bhs92rcd13ifvqi0g","pricing_plan_id":"free"},{"bike_id":"a22b4351-89df-44ce-a9c5-b5aa3919be44","system_id":"levelo_inurba_marseille","lat":43.328321,"lon":5.366866,"is_reserved":false,"is_disabled":false,"rental_uris":{"android":"levelo://app?vid=a22b4351-89df-44ce-a9c5-b5aa3919be44","ios":"levelo://app?vid=a22b4351-89df-44ce-a9c5-b5aa3919be44"},"vehicle_type_id":"4","last_reported":1707761260,"current_range_meters":24000,"station_id":"ce4bhs92rcd13ifvqi0g","pricing_plan_id":"free"},{"bike_id":"6999e336-b5dd-44ca-9b7f-232462b76e41","system_id":"levelo_inurba_marseille","lat":43.328371,"lon":5.366909,"is_reserved":false,"is_disabled":false,"rental_uris":{"android":"levelo://app?vid=6999e336-b5dd-44ca-9b7f-232462b76e41","ios":"levelo://app?vid=6999e336-b5dd-44ca-9b7f-232462b76e41"},"vehicle_type_id":"4","last_reported":1707761260,"current_range_meters":5600,"station_id":"ce4bhs92rcd13ifvqi0g","pricing_plan_id":"free"},{"bike_id":"6efdf75a-59db-4683-9096-a599d89573b4","system_id":"levelo_inurba_marseille","lat":43.328371,"lon":5.366912,"is_reserved":false,"is_disabled":false,"rental_uris":{"android":"levelo://app?vid=6efdf75a-59db-4683-9096-a599d89573b4","ios":"levelo://app?vid=6efdf75a-59db-4683-9096-a599d89573b4"},"vehicle_type_id":"4","last_reported":1707761260,"current_range_meters":24800,"station_id":"ce4bhs92rcd13ifvqi0g","pricing_plan_id":"free"},{"bike_id":"9f2ae0bd-3169-4a49-a743-1f928b2ea94c","system_id":"levelo_inurba_marseille","lat":43.328371,"lon":5.366909,"is_reserved":false,"is_disabled":false,"rental_uris":{"android":"levelo://app?vid=9f2ae0bd-3169-4a49-a743-1f928b2ea94c","ios":"levelo://app?vid=9f2ae0bd-3169-4a49-a743-1f928b2ea94c"},"vehicle_type_id":"4","last_reported":1707761260,"current_range_meters":7600,"station_id":"ce4bhs92rcd13ifvqi0g","pricing_plan_id":"free"},{"bike_id":"e84ff4d2-8c0e-476b-b55a-37d3bdd50b55","system_id":"levelo_inurba_marseille","lat":43.29617,"lon":5.36786,"is_reserved":false,"is_disabled":false,"rental_uris":{"android":"levelo://app?vid=e84ff4d2-8c0e-476b-b55a-37d3bdd50b55","ios":"levelo://app?vid=e84ff4d2-8c0e-476b-b55a-37d3bdd50b55"},"vehicle_type_id":"4","last_reported":1707761260,"current_range_meters":10000,"station_id":"","pricing_plan_id":"free"},{"bike_id":"af1231cf-c963-4042-858d-c8d53ef6597e","system_id":"levelo_inurba_marseille","lat":43.296131,"lon":5.370773,"is_reserved":false,"is_disabled":false,"rental_uris":{"android":"levelo://app?vid=af1231cf-c963-4042-858d-c8d53ef6597e","ios":"levelo://app?vid=af1231cf-c963-4042-858d-c8d53ef6597e"},"vehicle_type_id":"4","last_reported":1707761260,"current_range_meters":10400,"station_id":"ce4bgnh2rcd13ifvqc0g","pricing_plan_id":"free"},{"bike_id":"1733ae47-ed4f-471c-b55f-371dd9105e8f","system_id":"levelo_inurba_marseille","lat":43.296935,"lon":5.376544,"is_reserved":false,"is_disabled":false,"rental_uris":{"android":"levelo://app?vid=1733ae47-ed4f-471c-b55f-371dd9105e8f","ios":"levelo://app?vid=1733ae47-ed4f-471c-b55f-371dd9105e8f"},"vehicle_type_id":"4","last_reported":1707761260,"current_range_meters":12800,"station_id":"ce4bgkh2rcd13ifvqbl0","pricing_plan_id":"free"},{"bike_id":"462ccff1-681e-4f09-b9fa-62f99ed2c712","system_id":"levelo_inurba_marseille","lat":43.296935,"lon":5.376544,"is_reserved":false,"is_disabled":false,"rental_uris":{"android":"levelo://app?vid=462ccff1-681e-4f09-b9fa-62f99ed2c712","ios":"levelo://app?vid=462ccff1-681e-4f09-b9fa-62f99ed2c712"},"vehicle_type_id":"4","last_reported":1707761260,"current_range_meters":13600,"station_id":"ce4bgkh2rcd13ifvqbl0","pricing_plan_id":"free"},{"bike_id":"09008396-4df0-421d-b3bd-c071bc61ca03","system_id":"levelo_inurba_marseille","lat":43.31758,"lon":5.39014,"is_reserved":false,"is_disabled":false,"rental_uris":{"android":"levelo://app?vid=09008396-4df0-421d-b3bd-c071bc61ca03","ios":"levelo://app?vid=09008396-4df0-421d-b3bd-c071bc61ca03"},"vehicle_type_id":"4","last_reported":1707761260,"current_range_meters":21600,"station_id":"ce4bhqp2rcd13ifvqhng","pricing_plan_id":"free"},{"bike_id":"aa7ed743-14fc-4e75-9589-9297e316f81b","system_id":"levelo_inurba_marseille","lat":43.31754,"lon":5.39016,"is_reserved":false,"is_disabled":false,"rental_uris":{"android":"levelo://app?vid=aa7ed743-14fc-4e75-9589-9297e316f81b","ios":"levelo://app?vid=aa7ed743-14fc-4e75-9589-9297e316f81b"},"vehicle_type_id":"4","last_reported":1707761260,"current_range_meters":22800,"station_id":"ce4bhqp2rcd13ifvqhng","pricing_plan_id":"free"},{"bike_id":"e4fb8bdb-2f12-40c5-8bb7-c44304f6c093","system_id":"levelo_inurba_marseille","lat":43.31757,"lon":5.39017,"is_reserved":false,"is_disabled":false,"rental_uris":{"android":"levelo://app?vid=e4fb8bdb-2f12-40c5-8bb7-c44304f6c093","ios":"levelo://app?vid=e4fb8bdb-2f12-40c5-8bb7-c44304f6c093"},"vehicle_type_id":"4","last_reported":1707761260,"current_range_meters":22800,"station_id":"ce4bhqp2rcd13ifvqhng","pricing_plan_id":"free"},{"bike_id":"7f7fc01e-1952-4bab-afa7-dcf3990c799a","system_id":"levelo_inurba_marseille","lat":43.317557,"lon":5.390173,"is_reserved":false,"is_disabled":false,"rental_uris":{"android":"levelo://app?vid=7f7fc01e-1952-4bab-afa7-dcf3990c799a","ios":"levelo://app?vid=7f7fc01e-1952-4bab-afa7-dcf3990c799a"},"vehicle_type_id":"4","last_reported":1707761260,"current_range_meters":31200,"station_id":"ce4bhqp2rcd13ifvqhng","pricing_plan_id":"free"},{"bike_id":"6117291f-19d4-409c-be16-ea2c0d5a38af","system_id":"levelo_inurba_marseille","lat":43.317566,"lon":5.390188,"is_reserved":false,"is_disabled":false,"rental_uris":{"android":"levelo://app?vid=6117291f-19d4-409c-be16-ea2c0d5a38af","ios":"levelo://app?vid=6117291f-19d4-409c-be16-ea2c0d5a38af"},"vehicle_type_id":"4","last_reported":1707761260,"current_range_meters":9200,"station_id":"ce4bhqp2rcd13ifvqhng","pricing_plan_id":"free"},{"bike_id":"c64f5bfa-78fa-4ca6-972c-8b8de57dcc38","system_id":"levelo_inurba_marseille","lat":43.317557,"lon":5.390173,"is_reserved":false,"is_disabled":false,"rental_uris":{"android":"levelo://app?vid=c64f5bfa-78fa-4ca6-972c-8b8de57dcc38","ios":"levelo://app?vid=c64f5bfa-78fa-4ca6-972c-8b8de57dcc38"},"vehicle_type_id":"4","last_reported":1707761260,"current_range_meters":10800,"station_id":"ce4bhqp2rcd13ifvqhng","pricing_plan_id":"free"},{"bike_id":"d316055b-b4e1-4300-a152-12db6201596f","system_id":"levelo_inurba_marseille","lat":43.317565,"lon":5.390198,"is_reserved":false,"is_disabled":false,"rental_uris":{"android":"levelo://app?vid=d316055b-b4e1-4300-a152-12db6201596f","ios":"levelo://app?vid=d316055b-b4e1-4300-a152-12db6201596f"},"vehicle_type_id":"4","last_reported":1707761260,"current_range_meters":31200,"station_id":"ce4bhqp2rcd13ifvqhng","pricing_plan_id":"free"},{"bike_id":"6c13b8a6-6de2-4cb8-90a3-ca30e8c1dab5","system_id":"levelo_inurba_marseille","lat":43.31756,"lon":5.3902,"is_reserved":false,"is_disabled":false,"rental_uris":{"android":"levelo://app?vid=6c13b8a6-6de2-4cb8-90a3-ca30e8c1dab5","ios":"levelo://app?vid=6c13b8a6-6de2-4cb8-90a3-ca30e8c1dab5"},"vehicle_type_id":"4","last_reported":1707761260,"current_range_meters":16800,"station_id":"ce4bhqp2rcd13ifvqhng","pricing_plan_id":"free"},{"bike_id":"be9cf9ac-82a5-4313-9a19-c2aa38642a56","system_id":"levelo_inurba_marseille","lat":43.31749,"lon":5.39023,"is_reserved":false,"is_disabled":false,"rental_uris":{"android":"levelo://app?vid=be9cf9ac-82a5-4313-9a19-c2aa38642a56","ios":"levelo://app?vid=be9cf9ac-82a5-4313-9a19-c2aa38642a56"},"vehicle_type_id":"4","last_reported":1707761260,"current_range_meters":19600,"station_id":"ce4bhqp2rcd13ifvqhng","pricing_plan_id":"free"},{"bike_id":"7fae9283-e290-4d5c-9e35-b82003e5131a","system_id":"levelo_inurba_marseille","lat":43.31753,"lon":5.39022,"is_reserved":false,"is_disabled":false,"rental_uris":{"android":"levelo://app?vid=7fae9283-e290-4d5c-9e35-b82003e5131a","ios":"levelo://app?vid=7fae9283-e290-4d5c-9e35-b82003e5131a"},"vehicle_type_id":"4","last_reported":1707761260,"current_range_meters":14000,"station_id":"ce4bhqp2rcd13ifvqhng","pricing_plan_id":"free"},{"bike_id":"6fea3049-e166-4c62-ae45-118f599bb1bd","system_id":"levelo_inurba_marseille","lat":43.317557,"lon":5.390173,"is_reserved":false,"is_disabled":false,"rental_uris":{"android":"levelo://app?vid=6fea3049-e166-4c62-ae45-118f599bb1bd","ios":"levelo://app?vid=6fea3049-e166-4c62-ae45-118f599bb1bd"},"vehicle_type_id":"4","last_reported":1707761260,"current_range_meters":30000,"station_id":"ce4bhqp2rcd13ifvqhng","pricing_plan_id":"free"},{"bike_id":"db336c6e-a9e4-4755-9985-80bc119245c3","system_id":"levelo_inurba_marseille","lat":43.317557,"lon":5.390173,"is_reserved":false,"is_disabled":false,"rental_uris":{"android":"levelo://app?vid=db336c6e-a9e4-4755-9985-80bc119245c3","ios":"levelo://app?vid=db336c6e-a9e4-4755-9985-80bc119245c3"},"vehicle_type_id":"4","last_reported":1707761260,"current_range_meters":30000,"station_id":"ce4bhqp2rcd13ifvqhng","pricing_plan_id":"free"},{"bike_id":"ff96a7d3-adf4-41f2-b7f4-c9989e2211ad","system_id":"levelo_inurba_marseille","lat":43.317557,"lon":5.390173,"is_reserved":false,"is_disabled":false,"rental_uris":{"android":"levelo://app?vid=ff96a7d3-adf4-41f2-b7f4-c9989e2211ad","ios":"levelo://app?vid=ff96a7d3-adf4-41f2-b7f4-c9989e2211ad"},"vehicle_type_id":"4","last_reported":1707761260,"current_range_meters":19600,"station_id":"ce4bhqp2rcd13ifvqhng","pricing_plan_id":"free"},{"bike_id":"f718d9c2-6fb8-4585-9684-c2b2826090ae","system_id":"levelo_inurba_marseille","lat":43.31757,"lon":5.390225,"is_reserved":false,"is_disabled":false,"rental_uris":{"android":"levelo://app?vid=f718d9c2-6fb8-4585-9684-c2b2826090ae","ios":"levelo://app?vid=f718d9c2-6fb8-4585-9684-c2b2826090ae"},"vehicle_type_id":"4","last_reported":1707761260,"current_range_meters":31200,"station_id":"ce4bhqp2rcd13ifvqhng","pricing_plan_id":"free"},{"bike_id":"c29f8f52-e332-436d-a51c-f1629c25b243","system_id":"levelo_inurba_marseille","lat":43.317557,"lon":5.390173,"is_reserved":false,"is_disabled":false,"rental_uris":{"android":"levelo://app?vid=c29f8f52-e332-436d-a51c-f1629c25b243","ios":"levelo://app?vid=c29f8f52-e332-436d-a51c-f1629c25b243"},"vehicle_type_id":"4","last_reported":1707761260,"current_range_meters":13600,"station_id":"ce4bhqp2rcd13ifvqhng","pricing_plan_id":"free"},{"bike_id":"f42d86a3-26a3-4740-a076-acda4a783789","system_id":"levelo_inurba_marseille","lat":43.317557,"lon":5.390173,"is_reserved":false,"is_disabled":false,"rental_uris":{"android":"levelo://app?vid=f42d86a3-26a3-4740-a076-acda4a783789","ios":"levelo://app?vid=f42d86a3-26a3-4740-a076-acda4a783789"},"vehicle_type_id":"4","last_reported":1707761260,"current_range_meters":17200,"station_id":"ce4bhqp2rcd13ifvqhng","pricing_plan_id":"free"},{"bike_id":"b37ca851-6209-4e2d-93b7-37f7e370b08c","system_id":"levelo_inurba_marseille","lat":43.298037,"lon":5.381066,"is_reserved":false,"is_disabled":false,"rental_uris":{"android":"levelo://app?vid=b37ca851-6209-4e2d-93b7-37f7e370b08c","ios":"levelo://app?vid=b37ca851-6209-4e2d-93b7-37f7e370b08c"},"vehicle_type_id":"4","last_reported":1707761260,"current_range_meters":14800,"station_id":"ce4bgip2rcd13ifvqbb0","pricing_plan_id":"free"},{"bike_id":"1ee9b409-1f21-4be9-a8b1-e257adb271cd","system_id":"levelo_inurba_marseille","lat":43.295748,"lon":5.37522,"is_reserved":false,"is_disabled":false,"rental_uris":{"android":"levelo://app?vid=1ee9b409-1f21-4be9-a8b1-e257adb271cd","ios":"levelo://app?vid=1ee9b409-1f21-4be9-a8b1-e257adb271cd"},"vehicle_type_id":"4","last_reported":1707761260,"current_range_meters":22400,"station_id":"ce4bgh92rcd13ifvqb50","pricing_plan_id":"free"},{"bike_id":"d03854b1-428b-4e46-95a3-0cfe61a11a06","system_id":"levelo_inurba_marseille","lat":43.304274,"lon":5.388873,"is_reserved":false,"is_disabled":false,"rental_uris":{"android":"levelo://app?vid=d03854b1-428b-4e46-95a3-0cfe61a11a06","ios":"levelo://app?vid=d03854b1-428b-4e46-95a3-0cfe61a11a06"},"vehicle_type_id":"4","last_reported":1707761260,"current_range_meters":18000,"station_id":"ce4bgk12rcd13ifvqbi0","pricing_plan_id":"free"},{"bike_id":"0e72c5f8-6b01-47d9-8d85-64894a7bd807","system_id":"levelo_inurba_marseille","lat":43.304274,"lon":5.388873,"is_reserved":false,"is_disabled":false,"rental_uris":{"android":"levelo://app?vid=0e72c5f8-6b01-47d9-8d85-64894a7bd807","ios":"levelo://app?vid=0e72c5f8-6b01-47d9-8d85-64894a7bd807"},"vehicle_type_id":"4","last_reported":1707761260,"current_range_meters":26400,"station_id":"ce4bgk12rcd13ifvqbi0","pricing_plan_id":"free"},{"bike_id":"21f7b34b-c66e-4e69-a710-ba7c95014ff3","system_id":"levelo_inurba_marseille","lat":43.29791,"lon":5.38103,"is_reserved":false,"is_disabled":false,"rental_uris":{"android":"levelo://app?vid=21f7b34b-c66e-4e69-a710-ba7c95014ff3","ios":"levelo://app?vid=21f7b34b-c66e-4e69-a710-ba7c95014ff3"},"vehicle_type_id":"4","last_reported":1707761260,"current_range_meters":26000,"station_id":"ce4bgip2rcd13ifvqbb0","pricing_plan_id":"free"},{"bike_id":"3bc2fd44-519a-47bb-a2aa-ffcbbffcd931","system_id":"levelo_inurba_marseille","lat":43.298037,"lon":5.381066,"is_reserved":false,"is_disabled":false,"rental_uris":{"android":"levelo://app?vid=3bc2fd44-519a-47bb-a2aa-ffcbbffcd931","ios":"levelo://app?vid=3bc2fd44-519a-47bb-a2aa-ffcbbffcd931"},"vehicle_type_id":"4","last_reported":1707761260,"current_range_meters":17600,"station_id":"ce4bgip2rcd13ifvqbb0","pricing_plan_id":"free"},{"bike_id":"836fc76c-8252-4fe5-9f8e-93b870c80ee7","system_id":"levelo_inurba_marseille","lat":43.304278,"lon":5.388868,"is_reserved":false,"is_disabled":false,"rental_uris":{"android":"levelo://app?vid=836fc76c-8252-4fe5-9f8e-93b870c80ee7","ios":"levelo://app?vid=836fc76c-8252-4fe5-9f8e-93b870c80ee7"},"vehicle_type_id":"4","last_reported":1707761260,"current_range_meters":17200,"station_id":"ce4bgk12rcd13ifvqbi0","pricing_plan_id":"free"},{"bike_id":"b3b8be97-b37b-45a7-85db-c5a033403ae1","system_id":"levelo_inurba_marseille","lat":43.296277,"lon":5.377108,"is_reserved":false,"is_disabled":false,"rental_uris":{"android":"levelo://app?vid=b3b8be97-b37b-45a7-85db-c5a033403ae1","ios":"levelo://app?vid=b3b8be97-b37b-45a7-85db-c5a033403ae1"},"vehicle_type_id":"4","last_reported":1707761260,"current_range_meters":16400,"station_id":"ce4bgi92rcd13ifvqb90","pricing_plan_id":"free"},{"bike_id":"c86a420c-f5ed-4fc1-bbe7-ca13ca49db7d","system_id":"levelo_inurba_marseille","lat":43.296277,"lon":5.377108,"is_reserved":false,"is_disabled":false,"rental_uris":{"android":"levelo://app?vid=c86a420c-f5ed-4fc1-bbe7-ca13ca49db7d","ios":"levelo://app?vid=c86a420c-f5ed-4fc1-bbe7-ca13ca49db7d"},"vehicle_type_id":"4","last_reported":1707761260,"current_range_meters":0,"station_id":"ce4bgi92rcd13ifvqb90","pricing_plan_id":"free"},{"bike_id":"f1c4eaf0-7230-4648-bd29-e3a0c962bc54","system_id":"levelo_inurba_marseille","lat":43.29975,"lon":5.38489,"is_reserved":false,"is_disabled":false,"rental_uris":{"android":"levelo://app?vid=f1c4eaf0-7230-4648-bd29-e3a0c962bc54","ios":"levelo://app?vid=f1c4eaf0-7230-4648-bd29-e3a0c962bc54"},"vehicle_type_id":"4","last_reported":1707761260,"current_range_meters":0,"station_id":"ce4bgj92rcd13ifvqbd0","pricing_plan_id":"free"},{"bike_id":"8f38bd46-887d-4b44-bd1d-f1ffc37db09c","system_id":"levelo_inurba_marseille","lat":43.299707,"lon":5.384859,"is_reserved":false,"is_disabled":false,"rental_uris":{"android":"levelo://app?vid=8f38bd46-887d-4b44-bd1d-f1ffc37db09c","ios":"levelo://app?vid=8f38bd46-887d-4b44-bd1d-f1ffc37db09c"},"vehicle_type_id":"4","last_reported":1707761260,"current_range_meters":4400,"station_id":"ce4bgj92rcd13ifvqbd0","pricing_plan_id":"free"},{"bike_id":"3b3a0487-20ba-4080-87ee-3aa06fcfe163","system_id":"levelo_inurba_marseille","lat":43.29526,"lon":5.3751,"is_reserved":false,"is_disabled":false,"rental_uris":{"android":"levelo://app?vid=3b3a0487-20ba-4080-87ee-3aa06fcfe163","ios":"levelo://app?vid=3b3a0487-20ba-4080-87ee-3aa06fcfe163"},"vehicle_type_id":"4","last_reported":1707761260,"current_range_meters":22000,"station_id":"ce4bgkp2rcd13ifvqbmg","pricing_plan_id":"free"},{"bike_id":"a71bef53-4381-4268-86bf-b169322cb6db","system_id":"levelo_inurba_marseille","lat":43.299707,"lon":5.384859,"is_reserved":false,"is_disabled":false,"rental_uris":{"android":"levelo://app?vid=a71bef53-4381-4268-86bf-b169322cb6db","ios":"levelo://app?vid=a71bef53-4381-4268-86bf-b169322cb6db"},"vehicle_type_id":"4","last_reported":1707761260,"current_range_meters":11600,"station_id":"ce4bgj92rcd13ifvqbd0","pricing_plan_id":"free"},{"bike_id":"de6d736c-b4f3-4291-8be4-d52fc44b25dc","system_id":"levelo_inurba_marseille","lat":43.299724,"lon":5.384848,"is_reserved":false,"is_disabled":false,"rental_uris":{"android":"levelo://app?vid=de6d736c-b4f3-4291-8be4-d52fc44b25dc","ios":"levelo://app?vid=de6d736c-b4f3-4291-8be4-d52fc44b25dc"},"vehicle_type_id":"4","last_reported":1707761260,"current_range_meters":2000,"station_id":"ce4bgj92rcd13ifvqbd0","pricing_plan_id":"free"},{"bike_id":"466caf64-fddf-4e10-b75c-ff34a18cff87","system_id":"levelo_inurba_marseille","lat":43.299717,"lon":5.384845,"is_reserved":false,"is_disabled":false,"rental_uris":{"android":"levelo://app?vid=466caf64-fddf-4e10-b75c-ff34a18cff87","ios":"levelo://app?vid=466caf64-fddf-4e10-b75c-ff34a18cff87"},"vehicle_type_id":"4","last_reported":1707761260,"current_range_meters":13200,"station_id":"ce4bgj92rcd13ifvqbd0","pricing_plan_id":"free"},{"bike_id":"bad606e4-5fca-4531-abdb-d2eb7ac301f2","system_id":"levelo_inurba_marseille","lat":43.299724,"lon":5.384848,"is_reserved":false,"is_disabled":false,"rental_uris":{"android":"levelo://app?vid=bad606e4-5fca-4531-abdb-d2eb7ac301f2","ios":"levelo://app?vid=bad606e4-5fca-4531-abdb-d2eb7ac301f2"},"vehicle_type_id":"4","last_reported":1707761260,"current_range_meters":2000,"station_id":"ce4bgj92rcd13ifvqbd0","pricing_plan_id":"free"},{"bike_id":"c8857219-d0ba-426a-8f31-2f32245cc118","system_id":"levelo_inurba_marseille","lat":43.295279,"lon":5.375048,"is_reserved":false,"is_disabled":false,"rental_uris":{"android":"levelo://app?vid=c8857219-d0ba-426a-8f31-2f32245cc118","ios":"levelo://app?vid=c8857219-d0ba-426a-8f31-2f32245cc118"},"vehicle_type_id":"4","last_reported":1707761260,"current_range_meters":14800,"station_id":"ce4bgkp2rcd13ifvqbmg","pricing_plan_id":"free"},{"bike_id":"3765937f-6ba0-47fe-9fd8-84d5de1e9321","system_id":"levelo_inurba_marseille","lat":43.32368,"lon":5.38881,"is_reserved":false,"is_disabled":false,"rental_uris":{"android":"levelo://app?vid=3765937f-6ba0-47fe-9fd8-84d5de1e9321","ios":"levelo://app?vid=3765937f-6ba0-47fe-9fd8-84d5de1e9321"},"vehicle_type_id":"4","last_reported":1707761260,"current_range_meters":13600,"station_id":"ce4bhqp2rcd13ifvqhog","pricing_plan_id":"free"},{"bike_id":"4eaf5f86-657f-4344-bba5-1a9dbe22b6e7","system_id":"levelo_inurba_marseille","lat":43.32367,"lon":5.388836,"is_reserved":false,"is_disabled":false,"rental_uris":{"android":"levelo://app?vid=4eaf5f86-657f-4344-bba5-1a9dbe22b6e7","ios":"levelo://app?vid=4eaf5f86-657f-4344-bba5-1a9dbe22b6e7"},"vehicle_type_id":"4","last_reported":1707761260,"current_range_meters":18000,"station_id":"ce4bhqp2rcd13ifvqhog","pricing_plan_id":"free"},{"bike_id":"3a32260d-96a3-4b93-9fb4-5455d590c1b8","system_id":"levelo_inurba_marseille","lat":43.32367,"lon":5.388836,"is_reserved":false,"is_disabled":false,"rental_uris":{"android":"levelo://app?vid=3a32260d-96a3-4b93-9fb4-5455d590c1b8","ios":"levelo://app?vid=3a32260d-96a3-4b93-9fb4-5455d590c1b8"},"vehicle_type_id":"4","last_reported":1707761260,"current_range_meters":30400,"station_id":"ce4bhqp2rcd13ifvqhog","pricing_plan_id":"free"},{"bike_id":"2abbc391-6687-4e67-812a-13de6fa9cf21","system_id":"levelo_inurba_marseille","lat":43.29602,"lon":5.381084,"is_reserved":false,"is_disabled":false,"rental_uris":{"android":"levelo://app?vid=2abbc391-6687-4e67-812a-13de6fa9cf21","ios":"levelo://app?vid=2abbc391-6687-4e67-812a-13de6fa9cf21"},"vehicle_type_id":"4","last_reported":1707761260,"current_range_meters":7200,"station_id":"ce4bgl12rcd13ifvqbo0","pricing_plan_id":"free"},{"bike_id":"6c4cbea8-b3a6-4598-a6b1-5f91696ca854","system_id":"levelo_inurba_marseille","lat":43.29605,"lon":5.380884,"is_reserved":false,"is_disabled":false,"rental_uris":{"android":"levelo://app?vid=6c4cbea8-b3a6-4598-a6b1-5f91696ca854","ios":"levelo://app?vid=6c4cbea8-b3a6-4598-a6b1-5f91696ca854"},"vehicle_type_id":"4","last_reported":1707761260,"current_range_meters":13600,"station_id":"ce4bgl12rcd13ifvqbo0","pricing_plan_id":"free"},{"bike_id":"5d102d5c-ccaa-4698-968d-c9233b16c23c","system_id":"levelo_inurba_marseille","lat":43.29602,"lon":5.381084,"is_reserved":false,"is_disabled":false,"rental_uris":{"android":"levelo://app?vid=5d102d5c-ccaa-4698-968d-c9233b16c23c","ios":"levelo://app?vid=5d102d5c-ccaa-4698-968d-c9233b16c23c"},"vehicle_type_id":"4","last_reported":1707761260,"current_range_meters":4400,"station_id":"ce4bgl12rcd13ifvqbo0","pricing_plan_id":"free"},{"bike_id":"03947402-db21-48e6-ac00-c6e7d041a433","system_id":"levelo_inurba_marseille","lat":43.293259,"lon":5.371586,"is_reserved":false,"is_disabled":false,"rental_uris":{"android":"levelo://app?vid=03947402-db21-48e6-ac00-c6e7d041a433","ios":"levelo://app?vid=03947402-db21-48e6-ac00-c6e7d041a433"},"vehicle_type_id":"4","last_reported":1707761260,"current_range_meters":2800,"station_id":"ce4bgh92rcd13ifvqb40","pricing_plan_id":"free"},{"bike_id":"d407df02-d3c3-4565-b047-1d0b5db518b9","system_id":"levelo_inurba_marseille","lat":43.29597,"lon":5.38106,"is_reserved":false,"is_disabled":false,"rental_uris":{"android":"levelo://app?vid=d407df02-d3c3-4565-b047-1d0b5db518b9","ios":"levelo://app?vid=d407df02-d3c3-4565-b047-1d0b5db518b9"},"vehicle_type_id":"4","last_reported":1707761260,"current_range_meters":21200,"station_id":"ce4bgl12rcd13ifvqbo0","pricing_plan_id":"free"},{"bike_id":"a620ed4b-2b6d-4282-a9a3-c8b8402785ab","system_id":"levelo_inurba_marseille","lat":43.292749,"lon":5.368402,"is_reserved":false,"is_disabled":false,"rental_uris":{"android":"levelo://app?vid=a620ed4b-2b6d-4282-a9a3-c8b8402785ab","ios":"levelo://app?vid=a620ed4b-2b6d-4282-a9a3-c8b8402785ab"},"vehicle_type_id":"4","last_reported":1707761260,"current_range_meters":22400,"station_id":"ce4bhbp2rcd13ifvqesg","pricing_plan_id":"free"},{"bike_id":"ee6d55ff-5699-4162-9a09-f1d23c385c79","system_id":"levelo_inurba_marseille","lat":43.305928,"lon":5.393568,"is_reserved":false,"is_disabled":false,"rental_uris":{"android":"levelo://app?vid=ee6d55ff-5699-4162-9a09-f1d23c385c79","ios":"levelo://app?vid=ee6d55ff-5699-4162-9a09-f1d23c385c79"},"vehicle_type_id":"4","last_reported":1707761260,"current_range_meters":15200,"station_id":"ce4bh0p2rcd13ifvqd80","pricing_plan_id":"free"},{"bike_id":"9d1da161-6be2-4855-8e3a-d6d108d753f2","system_id":"levelo_inurba_marseille","lat":43.305994,"lon":5.393687,"is_reserved":false,"is_disabled":false,"rental_uris":{"android":"levelo://app?vid=9d1da161-6be2-4855-8e3a-d6d108d753f2","ios":"levelo://app?vid=9d1da161-6be2-4855-8e3a-d6d108d753f2"},"vehicle_type_id":"4","last_reported":1707761260,"current_range_meters":16400,"station_id":"ce4bh0p2rcd13ifvqd80","pricing_plan_id":"free"},{"bike_id":"7199bc24-e9e3-41c9-aea9-d697a9bd6328","system_id":"levelo_inurba_marseille","lat":43.305994,"lon":5.393687,"is_reserved":false,"is_disabled":false,"rental_uris":{"android":"levelo://app?vid=7199bc24-e9e3-41c9-aea9-d697a9bd6328","ios":"levelo://app?vid=7199bc24-e9e3-41c9-aea9-d697a9bd6328"},"vehicle_type_id":"4","last_reported":1707761260,"current_range_meters":8000,"station_id":"ce4bh0p2rcd13ifvqd80","pricing_plan_id":"free"},{"bike_id":"10a1fb80-4602-41f8-9129-c2f4c7977afe","system_id":"levelo_inurba_marseille","lat":43.2936,"lon":5.37835,"is_reserved":false,"is_disabled":false,"rental_uris":{"android":"levelo://app?vid=10a1fb80-4602-41f8-9129-c2f4c7977afe","ios":"levelo://app?vid=10a1fb80-4602-41f8-9129-c2f4c7977afe"},"vehicle_type_id":"4","last_reported":1707761260,"current_range_meters":26000,"station_id":"ce4bgjh2rcd13ifvqbf0","pricing_plan_id":"free"},{"bike_id":"b32bce29-7fbf-4f37-9c1b-4ef264427495","system_id":"levelo_inurba_marseille","lat":43.2936,"lon":5.37835,"is_reserved":false,"is_disabled":false,"rental_uris":{"android":"levelo://app?vid=b32bce29-7fbf-4f37-9c1b-4ef264427495","ios":"levelo://app?vid=b32bce29-7fbf-4f37-9c1b-4ef264427495"},"vehicle_type_id":"4","last_reported":1707761260,"current_range_meters":4000,"station_id":"ce4bgjh2rcd13ifvqbf0","pricing_plan_id":"free"},{"bike_id":"104cf483-e360-412b-b2d8-63e1e8ba8ea4","system_id":"levelo_inurba_marseille","lat":43.300852,"lon":5.390859,"is_reserved":false,"is_disabled":false,"rental_uris":{"android":"levelo://app?vid=104cf483-e360-412b-b2d8-63e1e8ba8ea4","ios":"levelo://app?vid=104cf483-e360-412b-b2d8-63e1e8ba8ea4"},"vehicle_type_id":"4","last_reported":1707761260,"current_range_meters":2800,"station_id":"ce4bh192rcd13ifvqdb0","pricing_plan_id":"free"},{"bike_id":"c68da2ef-deac-4d88-ad80-00be35efe305","system_id":"levelo_inurba_marseille","lat":43.292311,"lon":5.360731,"is_reserved":false,"is_disabled":false,"rental_uris":{"android":"levelo://app?vid=c68da2ef-deac-4d88-ad80-00be35efe305","ios":"levelo://app?vid=c68da2ef-deac-4d88-ad80-00be35efe305"},"vehicle_type_id":"4","last_reported":1707761260,"current_range_meters":21200,"station_id":"ce4bhbh2rcd13ifvqeqg","pricing_plan_id":"free"},{"bike_id":"1f67299f-a063-4b58-acde-3482f0f23a1c","system_id":"levelo_inurba_marseille","lat":43.300852,"lon":5.390859,"is_reserved":false,"is_disabled":false,"rental_uris":{"android":"levelo://app?vid=1f67299f-a063-4b58-acde-3482f0f23a1c","ios":"levelo://app?vid=1f67299f-a063-4b58-acde-3482f0f23a1c"},"vehicle_type_id":"4","last_reported":1707761260,"current_range_meters":10000,"station_id":"ce4bh192rcd13ifvqdb0","pricing_plan_id":"free"},{"bike_id":"5d0fe6dc-fbfd-4708-933c-24dc8435eae1","system_id":"levelo_inurba_marseille","lat":43.300852,"lon":5.390859,"is_reserved":false,"is_disabled":false,"rental_uris":{"android":"levelo://app?vid=5d0fe6dc-fbfd-4708-933c-24dc8435eae1","ios":"levelo://app?vid=5d0fe6dc-fbfd-4708-933c-24dc8435eae1"},"vehicle_type_id":"4","last_reported":1707761260,"current_range_meters":28400,"station_id":"ce4bh192rcd13ifvqdb0","pricing_plan_id":"free"},{"bike_id":"4c5ae574-93c9-4213-8270-d10101c35a33","system_id":"levelo_inurba_marseille","lat":43.298764,"lon":5.388973,"is_reserved":false,"is_disabled":false,"rental_uris":{"android":"levelo://app?vid=4c5ae574-93c9-4213-8270-d10101c35a33","ios":"levelo://app?vid=4c5ae574-93c9-4213-8270-d10101c35a33"},"vehicle_type_id":"4","last_reported":1707761260,"current_range_meters":23600,"station_id":"ce4bh392rcd13ifvqdl0","pricing_plan_id":"free"},{"bike_id":"9660c73a-d1a6-458a-8f30-a2de7d234411","system_id":"levelo_inurba_marseille","lat":43.298764,"lon":5.388973,"is_reserved":false,"is_disabled":false,"rental_uris":{"android":"levelo://app?vid=9660c73a-d1a6-458a-8f30-a2de7d234411","ios":"levelo://app?vid=9660c73a-d1a6-458a-8f30-a2de7d234411"},"vehicle_type_id":"4","last_reported":1707761260,"current_range_meters":4400,"station_id":"ce4bh392rcd13ifvqdl0","pricing_plan_id":"free"},{"bike_id":"f4718744-67bd-4be7-b226-758585c39e20","system_id":"levelo_inurba_marseille","lat":43.292005,"lon":5.357875,"is_reserved":false,"is_disabled":false,"rental_uris":{"android":"levelo://app?vid=f4718744-67bd-4be7-b226-758585c39e20","ios":"levelo://app?vid=f4718744-67bd-4be7-b226-758585c39e20"},"vehicle_type_id":"4","last_reported":1707761260,"current_range_meters":31200,"station_id":"ce4bhb12rcd13ifvqel0","pricing_plan_id":"free"},{"bike_id":"6a51261c-748e-4dcd-b4c7-5087af5ea828","system_id":"levelo_inurba_marseille","lat":43.309047,"lon":5.396551,"is_reserved":false,"is_disabled":false,"rental_uris":{"android":"levelo://app?vid=6a51261c-748e-4dcd-b4c7-5087af5ea828","ios":"levelo://app?vid=6a51261c-748e-4dcd-b4c7-5087af5ea828"},"vehicle_type_id":"4","last_reported":1707761260,"current_range_meters":6400,"station_id":"ce4bh012rcd13ifvqcv0","pricing_plan_id":"free"},{"bike_id":"ab1b2f57-71b7-4eca-b078-360976608ab0","system_id":"levelo_inurba_marseille","lat":43.313291,"lon":5.396838,"is_reserved":false,"is_disabled":false,"rental_uris":{"android":"levelo://app?vid=ab1b2f57-71b7-4eca-b078-360976608ab0","ios":"levelo://app?vid=ab1b2f57-71b7-4eca-b078-360976608ab0"},"vehicle_type_id":"4","last_reported":1707761260,"current_range_meters":20400,"station_id":"ce4bgvp2rcd13ifvqcu0","pricing_plan_id":"free"},{"bike_id":"695d7f5d-5035-491b-a83f-d52ae9b66bb3","system_id":"levelo_inurba_marseille","lat":43.313291,"lon":5.396838,"is_reserved":false,"is_disabled":false,"rental_uris":{"android":"levelo://app?vid=695d7f5d-5035-491b-a83f-d52ae9b66bb3","ios":"levelo://app?vid=695d7f5d-5035-491b-a83f-d52ae9b66bb3"},"vehicle_type_id":"4","last_reported":1707761260,"current_range_meters":14000,"station_id":"ce4bgvp2rcd13ifvqcu0","pricing_plan_id":"free"},{"bike_id":"6c96b1b3-2a30-45ff-a5ab-a0f1e90aa5bc","system_id":"levelo_inurba_marseille","lat":43.313291,"lon":5.396838,"is_reserved":false,"is_disabled":false,"rental_uris":{"android":"levelo://app?vid=6c96b1b3-2a30-45ff-a5ab-a0f1e90aa5bc","ios":"levelo://app?vid=6c96b1b3-2a30-45ff-a5ab-a0f1e90aa5bc"},"vehicle_type_id":"4","last_reported":1707761260,"current_range_meters":24000,"station_id":"ce4bgvp2rcd13ifvqcu0","pricing_plan_id":"free"},{"bike_id":"eac31640-4e3c-4b6c-80ad-0161990b25b0","system_id":"levelo_inurba_marseille","lat":43.309038,"lon":5.396546,"is_reserved":false,"is_disabled":false,"rental_uris":{"android":"levelo://app?vid=eac31640-4e3c-4b6c-80ad-0161990b25b0","ios":"levelo://app?vid=eac31640-4e3c-4b6c-80ad-0161990b25b0"},"vehicle_type_id":"4","last_reported":1707761260,"current_range_meters":17200,"station_id":"ce4bh012rcd13ifvqcv0","pricing_plan_id":"free"},{"bike_id":"0b2a19dc-5309-46d2-ab49-2bebe156720e","system_id":"levelo_inurba_marseille","lat":43.313291,"lon":5.396838,"is_reserved":false,"is_disabled":false,"rental_uris":{"android":"levelo://app?vid=0b2a19dc-5309-46d2-ab49-2bebe156720e","ios":"levelo://app?vid=0b2a19dc-5309-46d2-ab49-2bebe156720e"},"vehicle_type_id":"4","last_reported":1707761260,"current_range_meters":21600,"station_id":"ce4bgvp2rcd13ifvqcu0","pricing_plan_id":"free"},{"bike_id":"69eac4d5-29f7-41e7-b731-4c69025eea22","system_id":"levelo_inurba_marseille","lat":43.292005,"lon":5.357875,"is_reserved":false,"is_disabled":false,"rental_uris":{"android":"levelo://app?vid=69eac4d5-29f7-41e7-b731-4c69025eea22","ios":"levelo://app?vid=69eac4d5-29f7-41e7-b731-4c69025eea22"},"vehicle_type_id":"4","last_reported":1707761260,"current_range_meters":6000,"station_id":"ce4bhb12rcd13ifvqel0","pricing_plan_id":"free"},{"bike_id":"6142f972-25ea-4b0f-b992-f3d648c3cf6d","system_id":"levelo_inurba_marseille","lat":43.309047,"lon":5.396551,"is_reserved":false,"is_disabled":false,"rental_uris":{"android":"levelo://app?vid=6142f972-25ea-4b0f-b992-f3d648c3cf6d","ios":"levelo://app?vid=6142f972-25ea-4b0f-b992-f3d648c3cf6d"},"vehicle_type_id":"4","last_reported":1707761260,"current_range_meters":9600,"station_id":"ce4bh012rcd13ifvqcv0","pricing_plan_id":"free"},{"bike_id":"0c593295-8805-4b16-a0a1-49ce17ad2dd6","system_id":"levelo_inurba_marseille","lat":43.309038,"lon":5.396546,"is_reserved":false,"is_disabled":false,"rental_uris":{"android":"levelo://app?vid=0c593295-8805-4b16-a0a1-49ce17ad2dd6","ios":"levelo://app?vid=0c593295-8805-4b16-a0a1-49ce17ad2dd6"},"vehicle_type_id":"4","last_reported":1707761260,"current_range_meters":23600,"station_id":"ce4bh012rcd13ifvqcv0","pricing_plan_id":"free"},{"bike_id":"3bbacd6b-accb-4927-98f2-c93f949ddc8c","system_id":"levelo_inurba_marseille","lat":43.309038,"lon":5.396546,"is_reserved":false,"is_disabled":false,"rental_uris":{"android":"levelo://app?vid=3bbacd6b-accb-4927-98f2-c93f949ddc8c","ios":"levelo://app?vid=3bbacd6b-accb-4927-98f2-c93f949ddc8c"},"vehicle_type_id":"4","last_reported":1707761260,"current_range_meters":0,"station_id":"ce4bh012rcd13ifvqcv0","pricing_plan_id":"free"},{"bike_id":"385a7fb4-0f79-4252-956d-0660e2b186b1","system_id":"levelo_inurba_marseille","lat":43.29529,"lon":5.385581,"is_reserved":false,"is_disabled":false,"rental_uris":{"android":"levelo://app?vid=385a7fb4-0f79-4252-956d-0660e2b186b1","ios":"levelo://app?vid=385a7fb4-0f79-4252-956d-0660e2b186b1"},"vehicle_type_id":"4","last_reported":1707761260,"current_range_meters":3200,"station_id":"ce4bgih2rcd13ifvqba0","pricing_plan_id":"free"},{"bike_id":"ceb9451e-2b2c-4497-a9f4-315aa2455dcd","system_id":"levelo_inurba_marseille","lat":43.29529,"lon":5.385581,"is_reserved":false,"is_disabled":false,"rental_uris":{"android":"levelo://app?vid=ceb9451e-2b2c-4497-a9f4-315aa2455dcd","ios":"levelo://app?vid=ceb9451e-2b2c-4497-a9f4-315aa2455dcd"},"vehicle_type_id":"4","last_reported":1707761260,"current_range_meters":16000,"station_id":"ce4bgih2rcd13ifvqba0","pricing_plan_id":"free"},{"bike_id":"28f3ef64-8902-48d5-9527-c694a3143716","system_id":"levelo_inurba_marseille","lat":43.29529,"lon":5.385581,"is_reserved":false,"is_disabled":false,"rental_uris":{"android":"levelo://app?vid=28f3ef64-8902-48d5-9527-c694a3143716","ios":"levelo://app?vid=28f3ef64-8902-48d5-9527-c694a3143716"},"vehicle_type_id":"4","last_reported":1707761260,"current_range_meters":13600,"station_id":"ce4bgih2rcd13ifvqba0","pricing_plan_id":"free"},{"bike_id":"c3031dbb-85f4-438d-94a8-d9750b304f05","system_id":"levelo_inurba_marseille","lat":43.29529,"lon":5.385581,"is_reserved":false,"is_disabled":false,"rental_uris":{"android":"levelo://app?vid=c3031dbb-85f4-438d-94a8-d9750b304f05","ios":"levelo://app?vid=c3031dbb-85f4-438d-94a8-d9750b304f05"},"vehicle_type_id":"4","last_reported":1707761260,"current_range_meters":6800,"station_id":"ce4bgih2rcd13ifvqba0","pricing_plan_id":"free"},{"bike_id":"b09a468f-323a-4657-9ff7-cf0c268ed236","system_id":"levelo_inurba_marseille","lat":43.29529,"lon":5.385581,"is_reserved":false,"is_disabled":false,"rental_uris":{"android":"levelo://app?vid=b09a468f-323a-4657-9ff7-cf0c268ed236","ios":"levelo://app?vid=b09a468f-323a-4657-9ff7-cf0c268ed236"},"vehicle_type_id":"4","last_reported":1707761260,"current_range_meters":4400,"station_id":"ce4bgih2rcd13ifvqba0","pricing_plan_id":"free"},{"bike_id":"46b28c06-c48f-422d-ac0c-f0a898f140d4","system_id":"levelo_inurba_marseille","lat":43.293259,"lon":5.371586,"is_reserved":false,"is_disabled":false,"rental_uris":{"android":"levelo://app?vid=46b28c06-c48f-422d-ac0c-f0a898f140d4","ios":"levelo://app?vid=46b28c06-c48f-422d-ac0c-f0a898f140d4"},"vehicle_type_id":"4","last_reported":1707761260,"current_range_meters":30800,"station_id":"ce4bgh92rcd13ifvqb40","pricing_plan_id":"free"},{"bike_id":"7bd24f1b-db95-4bb6-9ac3-3c73d6eb2fa8","system_id":"levelo_inurba_marseille","lat":43.290631,"lon":5.359244,"is_reserved":false,"is_disabled":false,"rental_uris":{"android":"levelo://app?vid=7bd24f1b-db95-4bb6-9ac3-3c73d6eb2fa8","ios":"levelo://app?vid=7bd24f1b-db95-4bb6-9ac3-3c73d6eb2fa8"},"vehicle_type_id":"4","last_reported":1707761260,"current_range_meters":8400,"station_id":"ce4bha92rcd13ifvqeg0","pricing_plan_id":"free"},{"bike_id":"10c64b8e-9107-4073-bf8a-ed4785a8eeca","system_id":"levelo_inurba_marseille","lat":43.292005,"lon":5.357875,"is_reserved":false,"is_disabled":false,"rental_uris":{"android":"levelo://app?vid=10c64b8e-9107-4073-bf8a-ed4785a8eeca","ios":"levelo://app?vid=10c64b8e-9107-4073-bf8a-ed4785a8eeca"},"vehicle_type_id":"4","last_reported":1707761260,"current_range_meters":26400,"station_id":"ce4bhb12rcd13ifvqel0","pricing_plan_id":"free"},{"bike_id":"570ee625-c706-4bbc-b606-cca5141ab1d4","system_id":"levelo_inurba_marseille","lat":43.302008,"lon":5.394694,"is_reserved":false,"is_disabled":false,"rental_uris":{"android":"levelo://app?vid=570ee625-c706-4bbc-b606-cca5141ab1d4","ios":"levelo://app?vid=570ee625-c706-4bbc-b606-cca5141ab1d4"},"vehicle_type_id":"4","last_reported":1707761260,"current_range_meters":1600,"station_id":"ce4bh0p2rcd13ifvqd70","pricing_plan_id":"free"},{"bike_id":"b1d5bdb1-4b70-470e-9a09-18a4b0156c5f","system_id":"levelo_inurba_marseille","lat":43.290624,"lon":5.359245,"is_reserved":false,"is_disabled":false,"rental_uris":{"android":"levelo://app?vid=b1d5bdb1-4b70-470e-9a09-18a4b0156c5f","ios":"levelo://app?vid=b1d5bdb1-4b70-470e-9a09-18a4b0156c5f"},"vehicle_type_id":"4","last_reported":1707761260,"current_range_meters":2000,"station_id":"ce4bha92rcd13ifvqeg0","pricing_plan_id":"free"},{"bike_id":"a603c5ca-e8a0-4288-b6db-0c4780a44ad5","system_id":"levelo_inurba_marseille","lat":43.290624,"lon":5.359245,"is_reserved":false,"is_disabled":false,"rental_uris":{"android":"levelo://app?vid=a603c5ca-e8a0-4288-b6db-0c4780a44ad5","ios":"levelo://app?vid=a603c5ca-e8a0-4288-b6db-0c4780a44ad5"},"vehicle_type_id":"4","last_reported":1707761260,"current_range_meters":22800,"station_id":"ce4bha92rcd13ifvqeg0","pricing_plan_id":"free"},{"bike_id":"353a1cc5-6b1e-4926-9070-6d0293c025e9","system_id":"levelo_inurba_marseille","lat":43.290624,"lon":5.359245,"is_reserved":false,"is_disabled":false,"rental_uris":{"android":"levelo://app?vid=353a1cc5-6b1e-4926-9070-6d0293c025e9","ios":"levelo://app?vid=353a1cc5-6b1e-4926-9070-6d0293c025e9"},"vehicle_type_id":"4","last_reported":1707761260,"current_range_meters":20400,"station_id":"ce4bha92rcd13ifvqeg0","pricing_plan_id":"free"},{"bike_id":"fbf66efa-30e0-4830-a7e7-3ed5b0ddf2e0","system_id":"levelo_inurba_marseille","lat":43.29418,"lon":5.38613,"is_reserved":false,"is_disabled":false,"rental_uris":{"android":"levelo://app?vid=fbf66efa-30e0-4830-a7e7-3ed5b0ddf2e0","ios":"levelo://app?vid=fbf66efa-30e0-4830-a7e7-3ed5b0ddf2e0"},"vehicle_type_id":"4","last_reported":1707761260,"current_range_meters":4400,"station_id":"ce4bh2h2rcd13ifvqdh0","pricing_plan_id":"free"},{"bike_id":"7d3a68d5-ed21-4163-8caa-72cb58ecae1d","system_id":"levelo_inurba_marseille","lat":43.29424,"lon":5.38629,"is_reserved":false,"is_disabled":false,"rental_uris":{"android":"levelo://app?vid=7d3a68d5-ed21-4163-8caa-72cb58ecae1d","ios":"levelo://app?vid=7d3a68d5-ed21-4163-8caa-72cb58ecae1d"},"vehicle_type_id":"4","last_reported":1707761260,"current_range_meters":20800,"station_id":"ce4bh2h2rcd13ifvqdh0","pricing_plan_id":"free"},{"bike_id":"ffdb05c5-73ca-4f66-a8f7-600123b71cb9","system_id":"levelo_inurba_marseille","lat":43.2942,"lon":5.38623,"is_reserved":false,"is_disabled":false,"rental_uris":{"android":"levelo://app?vid=ffdb05c5-73ca-4f66-a8f7-600123b71cb9","ios":"levelo://app?vid=ffdb05c5-73ca-4f66-a8f7-600123b71cb9"},"vehicle_type_id":"4","last_reported":1707761260,"current_range_meters":10400,"station_id":"ce4bh2h2rcd13ifvqdh0","pricing_plan_id":"free"},{"bike_id":"413efded-2cf5-4a72-b4f8-f0a79ac03506","system_id":"levelo_inurba_marseille","lat":43.290327,"lon":5.375711,"is_reserved":false,"is_disabled":false,"rental_uris":{"android":"levelo://app?vid=413efded-2cf5-4a72-b4f8-f0a79ac03506","ios":"levelo://app?vid=413efded-2cf5-4a72-b4f8-f0a79ac03506"},"vehicle_type_id":"4","last_reported":1707761260,"current_range_meters":15200,"station_id":"ce4bh692rcd13ifvqe90","pricing_plan_id":"free"},{"bike_id":"b5d7fd72-6714-4efc-a261-8ebaea6305ba","system_id":"levelo_inurba_marseille","lat":43.29419,"lon":5.38624,"is_reserved":false,"is_disabled":false,"rental_uris":{"android":"levelo://app?vid=b5d7fd72-6714-4efc-a261-8ebaea6305ba","ios":"levelo://app?vid=b5d7fd72-6714-4efc-a261-8ebaea6305ba"},"vehicle_type_id":"4","last_reported":1707761260,"current_range_meters":28800,"station_id":"ce4bh2h2rcd13ifvqdh0","pricing_plan_id":"free"},{"bike_id":"1585f5a4-f61e-4d6b-970f-ba8ae4ec4bee","system_id":"levelo_inurba_marseille","lat":43.29416,"lon":5.38621,"is_reserved":false,"is_disabled":false,"rental_uris":{"android":"levelo://app?vid=1585f5a4-f61e-4d6b-970f-ba8ae4ec4bee","ios":"levelo://app?vid=1585f5a4-f61e-4d6b-970f-ba8ae4ec4bee"},"vehicle_type_id":"4","last_reported":1707761260,"current_range_meters":0,"station_id":"ce4bh2h2rcd13ifvqdh0","pricing_plan_id":"free"},{"bike_id":"29db84ac-fc96-47f8-8512-6ca4184bee1e","system_id":"levelo_inurba_marseille","lat":43.29415,"lon":5.38624,"is_reserved":false,"is_disabled":false,"rental_uris":{"android":"levelo://app?vid=29db84ac-fc96-47f8-8512-6ca4184bee1e","ios":"levelo://app?vid=29db84ac-fc96-47f8-8512-6ca4184bee1e"},"vehicle_type_id":"4","last_reported":1707761260,"current_range_meters":16800,"station_id":"ce4bh2h2rcd13ifvqdh0","pricing_plan_id":"free"},{"bike_id":"81caefe7-ab86-44b7-bf28-dcd8c832db24","system_id":"levelo_inurba_marseille","lat":43.294153,"lon":5.386305,"is_reserved":false,"is_disabled":false,"rental_uris":{"android":"levelo://app?vid=81caefe7-ab86-44b7-bf28-dcd8c832db24","ios":"levelo://app?vid=81caefe7-ab86-44b7-bf28-dcd8c832db24"},"vehicle_type_id":"4","last_reported":1707761260,"current_range_meters":22000,"station_id":"ce4bh2h2rcd13ifvqdh0","pricing_plan_id":"free"},{"bike_id":"5d1172a1-e966-40e3-b31c-f3ee4100e7bd","system_id":"levelo_inurba_marseille","lat":43.29416,"lon":5.38627,"is_reserved":false,"is_disabled":false,"rental_uris":{"android":"levelo://app?vid=5d1172a1-e966-40e3-b31c-f3ee4100e7bd","ios":"levelo://app?vid=5d1172a1-e966-40e3-b31c-f3ee4100e7bd"},"vehicle_type_id":"4","last_reported":1707761260,"current_range_meters":0,"station_id":"ce4bh2h2rcd13ifvqdh0","pricing_plan_id":"free"},{"bike_id":"35406035-fe98-455e-b7d6-e507dbe2c3d7","system_id":"levelo_inurba_marseille","lat":43.289184,"lon":5.366408,"is_reserved":false,"is_disabled":false,"rental_uris":{"android":"levelo://app?vid=35406035-fe98-455e-b7d6-e507dbe2c3d7","ios":"levelo://app?vid=35406035-fe98-455e-b7d6-e507dbe2c3d7"},"vehicle_type_id":"4","last_reported":1707761260,"current_range_meters":10400,"station_id":"ce4bhap2rcd13ifvqek0","pricing_plan_id":"free"},{"bike_id":"bcb9ad1d-0dcc-45fe-85c5-e337290310f2","system_id":"levelo_inurba_marseille","lat":43.289184,"lon":5.366408,"is_reserved":false,"is_disabled":false,"rental_uris":{"android":"levelo://app?vid=bcb9ad1d-0dcc-45fe-85c5-e337290310f2","ios":"levelo://app?vid=bcb9ad1d-0dcc-45fe-85c5-e337290310f2"},"vehicle_type_id":"4","last_reported":1707761260,"current_range_meters":31600,"station_id":"ce4bhap2rcd13ifvqek0","pricing_plan_id":"free"},{"bike_id":"29f8e4cb-24ce-4a5b-a6ca-9983793f9c8d","system_id":"levelo_inurba_marseille","lat":43.289468,"lon":5.363719,"is_reserved":false,"is_disabled":false,"rental_uris":{"android":"levelo://app?vid=29f8e4cb-24ce-4a5b-a6ca-9983793f9c8d","ios":"levelo://app?vid=29f8e4cb-24ce-4a5b-a6ca-9983793f9c8d"},"vehicle_type_id":"4","last_reported":1707761260,"current_range_meters":22400,"station_id":"ce4bhc92rcd13ifvqetg","pricing_plan_id":"free"},{"bike_id":"a3d1ac02-a8a0-42ef-a034-cf99528af008","system_id":"levelo_inurba_marseille","lat":43.289468,"lon":5.363719,"is_reserved":false,"is_disabled":false,"rental_uris":{"android":"levelo://app?vid=a3d1ac02-a8a0-42ef-a034-cf99528af008","ios":"levelo://app?vid=a3d1ac02-a8a0-42ef-a034-cf99528af008"},"vehicle_type_id":"4","last_reported":1707761260,"current_range_meters":23600,"station_id":"ce4bhc92rcd13ifvqetg","pricing_plan_id":"free"},{"bike_id":"7fa59985-a757-40e1-b6ff-a309cbb326f0","system_id":"levelo_inurba_marseille","lat":43.289184,"lon":5.366408,"is_reserved":false,"is_disabled":false,"rental_uris":{"android":"levelo://app?vid=7fa59985-a757-40e1-b6ff-a309cbb326f0","ios":"levelo://app?vid=7fa59985-a757-40e1-b6ff-a309cbb326f0"},"vehicle_type_id":"4","last_reported":1707761260,"current_range_meters":20800,"station_id":"ce4bhap2rcd13ifvqek0","pricing_plan_id":"free"},{"bike_id":"d6817cab-ffc3-4741-819c-221b8bf35a31","system_id":"levelo_inurba_marseille","lat":43.289184,"lon":5.366408,"is_reserved":false,"is_disabled":false,"rental_uris":{"android":"levelo://app?vid=d6817cab-ffc3-4741-819c-221b8bf35a31","ios":"levelo://app?vid=d6817cab-ffc3-4741-819c-221b8bf35a31"},"vehicle_type_id":"4","last_reported":1707761260,"current_range_meters":31600,"station_id":"ce4bhap2rcd13ifvqek0","pricing_plan_id":"free"},{"bike_id":"eb897c32-912b-424b-86fb-6f8f6bd3f554","system_id":"levelo_inurba_marseille","lat":43.289184,"lon":5.366408,"is_reserved":false,"is_disabled":false,"rental_uris":{"android":"levelo://app?vid=eb897c32-912b-424b-86fb-6f8f6bd3f554","ios":"levelo://app?vid=eb897c32-912b-424b-86fb-6f8f6bd3f554"},"vehicle_type_id":"4","last_reported":1707761260,"current_range_meters":13200,"station_id":"ce4bhap2rcd13ifvqek0","pricing_plan_id":"free"},{"bike_id":"02a5acd7-5948-443d-8939-4531069fd7c9","system_id":"levelo_inurba_marseille","lat":43.289468,"lon":5.363719,"is_reserved":false,"is_disabled":false,"rental_uris":{"android":"levelo://app?vid=02a5acd7-5948-443d-8939-4531069fd7c9","ios":"levelo://app?vid=02a5acd7-5948-443d-8939-4531069fd7c9"},"vehicle_type_id":"4","last_reported":1707761260,"current_range_meters":26800,"station_id":"ce4bhc92rcd13ifvqetg","pricing_plan_id":"free"},{"bike_id":"5fb14a71-3cc6-4c24-905d-fdbd5e19c398","system_id":"levelo_inurba_marseille","lat":43.29265,"lon":5.38454,"is_reserved":false,"is_disabled":false,"rental_uris":{"android":"levelo://app?vid=5fb14a71-3cc6-4c24-905d-fdbd5e19c398","ios":"levelo://app?vid=5fb14a71-3cc6-4c24-905d-fdbd5e19c398"},"vehicle_type_id":"4","last_reported":1707761260,"current_range_meters":22800,"station_id":"","pricing_plan_id":"free"},{"bike_id":"692546cf-8b22-4ecc-92a2-a7bf9edbceca","system_id":"levelo_inurba_marseille","lat":43.292644,"lon":5.384257,"is_reserved":false,"is_disabled":false,"rental_uris":{"android":"levelo://app?vid=692546cf-8b22-4ecc-92a2-a7bf9edbceca","ios":"levelo://app?vid=692546cf-8b22-4ecc-92a2-a7bf9edbceca"},"vehicle_type_id":"4","last_reported":1707761260,"current_range_meters":13600,"station_id":"ce4bh692rcd13ifvqea0","pricing_plan_id":"free"},{"bike_id":"24486547-6d17-466a-a558-e75e2f854a25","system_id":"levelo_inurba_marseille","lat":43.292644,"lon":5.384257,"is_reserved":false,"is_disabled":false,"rental_uris":{"android":"levelo://app?vid=24486547-6d17-466a-a558-e75e2f854a25","ios":"levelo://app?vid=24486547-6d17-466a-a558-e75e2f854a25"},"vehicle_type_id":"4","last_reported":1707761260,"current_range_meters":11200,"station_id":"ce4bh692rcd13ifvqea0","pricing_plan_id":"free"},{"bike_id":"39e28ed9-2849-4a0a-9d5c-f510e9400d2a","system_id":"levelo_inurba_marseille","lat":43.292644,"lon":5.384257,"is_reserved":false,"is_disabled":false,"rental_uris":{"android":"levelo://app?vid=39e28ed9-2849-4a0a-9d5c-f510e9400d2a","ios":"levelo://app?vid=39e28ed9-2849-4a0a-9d5c-f510e9400d2a"},"vehicle_type_id":"4","last_reported":1707761260,"current_range_meters":10800,"station_id":"ce4bh692rcd13ifvqea0","pricing_plan_id":"free"},{"bike_id":"3439cc38-084c-4bff-815b-377c5d4fdfe2","system_id":"levelo_inurba_marseille","lat":43.29007,"lon":5.35613,"is_reserved":false,"is_disabled":false,"rental_uris":{"android":"levelo://app?vid=3439cc38-084c-4bff-815b-377c5d4fdfe2","ios":"levelo://app?vid=3439cc38-084c-4bff-815b-377c5d4fdfe2"},"vehicle_type_id":"4","last_reported":1707761260,"current_range_meters":15600,"station_id":"ce4bhb92rcd13ifvqen0","pricing_plan_id":"free"},{"bike_id":"562b027d-ac07-4cd3-bda8-658dd76d04b1","system_id":"levelo_inurba_marseille","lat":43.29005,"lon":5.35608,"is_reserved":false,"is_disabled":false,"rental_uris":{"android":"levelo://app?vid=562b027d-ac07-4cd3-bda8-658dd76d04b1","ios":"levelo://app?vid=562b027d-ac07-4cd3-bda8-658dd76d04b1"},"vehicle_type_id":"4","last_reported":1707761260,"current_range_meters":26000,"station_id":"ce4bhb92rcd13ifvqen0","pricing_plan_id":"free"},{"bike_id":"d2d4de53-8cc9-41f6-9ae6-28c239d59eb4","system_id":"levelo_inurba_marseille","lat":43.290104,"lon":5.356111,"is_reserved":false,"is_disabled":false,"rental_uris":{"android":"levelo://app?vid=d2d4de53-8cc9-41f6-9ae6-28c239d59eb4","ios":"levelo://app?vid=d2d4de53-8cc9-41f6-9ae6-28c239d59eb4"},"vehicle_type_id":"4","last_reported":1707761260,"current_range_meters":27200,"station_id":"ce4bhb92rcd13ifvqen0","pricing_plan_id":"free"},{"bike_id":"d207d1d9-e26e-430e-8278-f7f6fc1744d4","system_id":"levelo_inurba_marseille","lat":43.290103,"lon":5.356114,"is_reserved":false,"is_disabled":false,"rental_uris":{"android":"levelo://app?vid=d207d1d9-e26e-430e-8278-f7f6fc1744d4","ios":"levelo://app?vid=d207d1d9-e26e-430e-8278-f7f6fc1744d4"},"vehicle_type_id":"4","last_reported":1707761260,"current_range_meters":13600,"station_id":"ce4bhb92rcd13ifvqen0","pricing_plan_id":"free"},{"bike_id":"5b32f72e-ec56-46a8-96f5-c60f0d1eadcb","system_id":"levelo_inurba_marseille","lat":43.283502,"lon":5.386471,"is_reserved":false,"is_disabled":false,"rental_uris":{"android":"levelo://app?vid=5b32f72e-ec56-46a8-96f5-c60f0d1eadcb","ios":"levelo://app?vid=5b32f72e-ec56-46a8-96f5-c60f0d1eadcb"},"vehicle_type_id":"4","last_reported":1707761260,"current_range_meters":4000,"station_id":"ce4bh492rcd13ifvqdvg","pricing_plan_id":"free"},{"bike_id":"9fe2514d-3361-404d-b1e4-fcea90a2bcd7","system_id":"levelo_inurba_marseille","lat":43.290995,"lon":5.381361,"is_reserved":false,"is_disabled":false,"rental_uris":{"android":"levelo://app?vid=9fe2514d-3361-404d-b1e4-fcea90a2bcd7","ios":"levelo://app?vid=9fe2514d-3361-404d-b1e4-fcea90a2bcd7"},"vehicle_type_id":"4","last_reported":1707761260,"current_range_meters":25200,"station_id":"ce4bh512rcd13ifvqe2g","pricing_plan_id":"free"},{"bike_id":"fec51104-8c04-4ec0-b340-ce09e709a2ff","system_id":"levelo_inurba_marseille","lat":43.2909,"lon":5.38146,"is_reserved":false,"is_disabled":false,"rental_uris":{"android":"levelo://app?vid=fec51104-8c04-4ec0-b340-ce09e709a2ff","ios":"levelo://app?vid=fec51104-8c04-4ec0-b340-ce09e709a2ff"},"vehicle_type_id":"4","last_reported":1707761260,"current_range_meters":21200,"station_id":"ce4bh512rcd13ifvqe2g","pricing_plan_id":"free"},{"bike_id":"da649127-f194-4194-8079-c75a1ae1e7c1","system_id":"levelo_inurba_marseille","lat":43.297815,"lon":5.393548,"is_reserved":false,"is_disabled":false,"rental_uris":{"android":"levelo://app?vid=da649127-f194-4194-8079-c75a1ae1e7c1","ios":"levelo://app?vid=da649127-f194-4194-8079-c75a1ae1e7c1"},"vehicle_type_id":"4","last_reported":1707761260,"current_range_meters":25200,"station_id":"chh1huq6cuj3fo74tm60","pricing_plan_id":"free"},{"bike_id":"a992897d-7c2d-4225-be4d-83259c9bde78","system_id":"levelo_inurba_marseille","lat":43.297815,"lon":5.393548,"is_reserved":false,"is_disabled":false,"rental_uris":{"android":"levelo://app?vid=a992897d-7c2d-4225-be4d-83259c9bde78","ios":"levelo://app?vid=a992897d-7c2d-4225-be4d-83259c9bde78"},"vehicle_type_id":"4","last_reported":1707761260,"current_range_meters":20800,"station_id":"chh1huq6cuj3fo74tm60","pricing_plan_id":"free"},{"bike_id":"ba7895df-fdf0-43d4-b40a-e7e64d29137d","system_id":"levelo_inurba_marseille","lat":43.33015,"lon":5.39042,"is_reserved":false,"is_disabled":false,"rental_uris":{"android":"levelo://app?vid=ba7895df-fdf0-43d4-b40a-e7e64d29137d","ios":"levelo://app?vid=ba7895df-fdf0-43d4-b40a-e7e64d29137d"},"vehicle_type_id":"4","last_reported":1707761260,"current_range_meters":20000,"station_id":"ce4bhr92rcd13ifvqhrg","pricing_plan_id":"free"},{"bike_id":"885d22c6-50bb-4b62-9e03-bc76c977b16d","system_id":"levelo_inurba_marseille","lat":43.330442,"lon":5.389148,"is_reserved":false,"is_disabled":false,"rental_uris":{"android":"levelo://app?vid=885d22c6-50bb-4b62-9e03-bc76c977b16d","ios":"levelo://app?vid=885d22c6-50bb-4b62-9e03-bc76c977b16d"},"vehicle_type_id":"4","last_reported":1707761260,"current_range_meters":1200,"station_id":"ce4bhr92rcd13ifvqhrg","pricing_plan_id":"free"},{"bike_id":"42b52408-b529-43e5-a763-d48fee8ffe26","system_id":"levelo_inurba_marseille","lat":43.29786,"lon":5.39352,"is_reserved":false,"is_disabled":false,"rental_uris":{"android":"levelo://app?vid=42b52408-b529-43e5-a763-d48fee8ffe26","ios":"levelo://app?vid=42b52408-b529-43e5-a763-d48fee8ffe26"},"vehicle_type_id":"4","last_reported":1707761260,"current_range_meters":12400,"station_id":"chh1huq6cuj3fo74tm60","pricing_plan_id":"free"},{"bike_id":"01bebf28-5a6a-4d59-9d68-d00516640067","system_id":"levelo_inurba_marseille","lat":43.297815,"lon":5.393548,"is_reserved":false,"is_disabled":false,"rental_uris":{"android":"levelo://app?vid=01bebf28-5a6a-4d59-9d68-d00516640067","ios":"levelo://app?vid=01bebf28-5a6a-4d59-9d68-d00516640067"},"vehicle_type_id":"4","last_reported":1707761260,"current_range_meters":4800,"station_id":"chh1huq6cuj3fo74tm60","pricing_plan_id":"free"},{"bike_id":"1fe6c101-572a-41e9-bbdc-b9a1d6c3c6c5","system_id":"levelo_inurba_marseille","lat":43.295169,"lon":5.390426,"is_reserved":false,"is_disabled":false,"rental_uris":{"android":"levelo://app?vid=1fe6c101-572a-41e9-bbdc-b9a1d6c3c6c5","ios":"levelo://app?vid=1fe6c101-572a-41e9-bbdc-b9a1d6c3c6c5"},"vehicle_type_id":"4","last_reported":1707761260,"current_range_meters":10400,"station_id":"ce4bh3p2rcd13ifvqdp0","pricing_plan_id":"free"},{"bike_id":"03dfe2c2-0096-449c-bdb8-91c0e76ad904","system_id":"levelo_inurba_marseille","lat":43.330442,"lon":5.389148,"is_reserved":false,"is_disabled":false,"rental_uris":{"android":"levelo://app?vid=03dfe2c2-0096-449c-bdb8-91c0e76ad904","ios":"levelo://app?vid=03dfe2c2-0096-449c-bdb8-91c0e76ad904"},"vehicle_type_id":"4","last_reported":1707761260,"current_range_meters":26000,"station_id":"ce4bhr92rcd13ifvqhrg","pricing_plan_id":"free"},{"bike_id":"5808e810-d387-4fbf-9289-14ca727d9b15","system_id":"levelo_inurba_marseille","lat":43.33026,"lon":5.39035,"is_reserved":false,"is_disabled":false,"rental_uris":{"android":"levelo://app?vid=5808e810-d387-4fbf-9289-14ca727d9b15","ios":"levelo://app?vid=5808e810-d387-4fbf-9289-14ca727d9b15"},"vehicle_type_id":"4","last_reported":1707761260,"current_range_meters":5600,"station_id":"ce4bhr92rcd13ifvqhrg","pricing_plan_id":"free"},{"bike_id":"b1705133-2472-4866-ad29-16d1875b9bb1","system_id":"levelo_inurba_marseille","lat":43.297815,"lon":5.393548,"is_reserved":false,"is_disabled":false,"rental_uris":{"android":"levelo://app?vid=b1705133-2472-4866-ad29-16d1875b9bb1","ios":"levelo://app?vid=b1705133-2472-4866-ad29-16d1875b9bb1"},"vehicle_type_id":"4","last_reported":1707761260,"current_range_meters":25200,"station_id":"chh1huq6cuj3fo74tm60","pricing_plan_id":"free"},{"bike_id":"ee1d06f2-edcb-44d3-8e2e-df8be3cfa85f","system_id":"levelo_inurba_marseille","lat":43.330442,"lon":5.389148,"is_reserved":false,"is_disabled":false,"rental_uris":{"android":"levelo://app?vid=ee1d06f2-edcb-44d3-8e2e-df8be3cfa85f","ios":"levelo://app?vid=ee1d06f2-edcb-44d3-8e2e-df8be3cfa85f"},"vehicle_type_id":"4","last_reported":1707761260,"current_range_meters":30800,"station_id":"ce4bhr92rcd13ifvqhrg","pricing_plan_id":"free"},{"bike_id":"fb59313b-33b2-4dd7-864d-5eb20fc48a98","system_id":"levelo_inurba_marseille","lat":43.3302,"lon":5.39045,"is_reserved":false,"is_disabled":false,"rental_uris":{"android":"levelo://app?vid=fb59313b-33b2-4dd7-864d-5eb20fc48a98","ios":"levelo://app?vid=fb59313b-33b2-4dd7-864d-5eb20fc48a98"},"vehicle_type_id":"4","last_reported":1707761260,"current_range_meters":10400,"station_id":"ce4bhr92rcd13ifvqhrg","pricing_plan_id":"free"},{"bike_id":"6143b246-3fa0-4c50-967f-81b19f2106fa","system_id":"levelo_inurba_marseille","lat":43.330442,"lon":5.389148,"is_reserved":false,"is_disabled":false,"rental_uris":{"android":"levelo://app?vid=6143b246-3fa0-4c50-967f-81b19f2106fa","ios":"levelo://app?vid=6143b246-3fa0-4c50-967f-81b19f2106fa"},"vehicle_type_id":"4","last_reported":1707761260,"current_range_meters":30800,"station_id":"ce4bhr92rcd13ifvqhrg","pricing_plan_id":"free"},{"bike_id":"22252934-0b69-4c38-8c74-cff61eb3be93","system_id":"levelo_inurba_marseille","lat":43.330442,"lon":5.389148,"is_reserved":false,"is_disabled":false,"rental_uris":{"android":"levelo://app?vid=22252934-0b69-4c38-8c74-cff61eb3be93","ios":"levelo://app?vid=22252934-0b69-4c38-8c74-cff61eb3be93"},"vehicle_type_id":"4","last_reported":1707761260,"current_range_meters":18400,"station_id":"ce4bhr92rcd13ifvqhrg","pricing_plan_id":"free"},{"bike_id":"89f2ac45-7ea3-442c-a8f4-2c9024b6da95","system_id":"levelo_inurba_marseille","lat":43.33022,"lon":5.39043,"is_reserved":false,"is_disabled":false,"rental_uris":{"android":"levelo://app?vid=89f2ac45-7ea3-442c-a8f4-2c9024b6da95","ios":"levelo://app?vid=89f2ac45-7ea3-442c-a8f4-2c9024b6da95"},"vehicle_type_id":"4","last_reported":1707761260,"current_range_meters":23200,"station_id":"ce4bhr92rcd13ifvqhrg","pricing_plan_id":"free"},{"bike_id":"84c612fa-d1d7-4abf-9a85-0f2fae371c35","system_id":"levelo_inurba_marseille","lat":43.330442,"lon":5.389148,"is_reserved":false,"is_disabled":false,"rental_uris":{"android":"levelo://app?vid=84c612fa-d1d7-4abf-9a85-0f2fae371c35","ios":"levelo://app?vid=84c612fa-d1d7-4abf-9a85-0f2fae371c35"},"vehicle_type_id":"4","last_reported":1707761260,"current_range_meters":30000,"station_id":"ce4bhr92rcd13ifvqhrg","pricing_plan_id":"free"},{"bike_id":"48576542-91f0-4bfa-9a8b-79195c60b528","system_id":"levelo_inurba_marseille","lat":43.33023,"lon":5.39042,"is_reserved":false,"is_disabled":false,"rental_uris":{"android":"levelo://app?vid=48576542-91f0-4bfa-9a8b-79195c60b528","ios":"levelo://app?vid=48576542-91f0-4bfa-9a8b-79195c60b528"},"vehicle_type_id":"4","last_reported":1707761260,"current_range_meters":20000,"station_id":"ce4bhr92rcd13ifvqhrg","pricing_plan_id":"free"},{"bike_id":"ca21e58c-40c8-4549-92f0-c57d86be085e","system_id":"levelo_inurba_marseille","lat":43.33019,"lon":5.39048,"is_reserved":false,"is_disabled":false,"rental_uris":{"android":"levelo://app?vid=ca21e58c-40c8-4549-92f0-c57d86be085e","ios":"levelo://app?vid=ca21e58c-40c8-4549-92f0-c57d86be085e"},"vehicle_type_id":"4","last_reported":1707761260,"current_range_meters":9200,"station_id":"ce4bhr92rcd13ifvqhrg","pricing_plan_id":"free"},{"bike_id":"99b47d45-6ddd-4182-82c7-9f61bf8afc0e","system_id":"levelo_inurba_marseille","lat":43.29788,"lon":5.393622,"is_reserved":false,"is_disabled":false,"rental_uris":{"android":"levelo://app?vid=99b47d45-6ddd-4182-82c7-9f61bf8afc0e","ios":"levelo://app?vid=99b47d45-6ddd-4182-82c7-9f61bf8afc0e"},"vehicle_type_id":"4","last_reported":1707761260,"current_range_meters":15200,"station_id":"chh1huq6cuj3fo74tm60","pricing_plan_id":"free"},{"bike_id":"af602cc9-8fce-4b81-9eea-85339194e55b","system_id":"levelo_inurba_marseille","lat":43.330442,"lon":5.389148,"is_reserved":false,"is_disabled":false,"rental_uris":{"android":"levelo://app?vid=af602cc9-8fce-4b81-9eea-85339194e55b","ios":"levelo://app?vid=af602cc9-8fce-4b81-9eea-85339194e55b"},"vehicle_type_id":"4","last_reported":1707761260,"current_range_meters":16800,"station_id":"ce4bhr92rcd13ifvqhrg","pricing_plan_id":"free"},{"bike_id":"b4c77a84-9e62-4a6d-b8d6-bb89dc72d115","system_id":"levelo_inurba_marseille","lat":43.330442,"lon":5.389148,"is_reserved":false,"is_disabled":false,"rental_uris":{"android":"levelo://app?vid=b4c77a84-9e62-4a6d-b8d6-bb89dc72d115","ios":"levelo://app?vid=b4c77a84-9e62-4a6d-b8d6-bb89dc72d115"},"vehicle_type_id":"4","last_reported":1707761260,"current_range_meters":5200,"station_id":"ce4bhr92rcd13ifvqhrg","pricing_plan_id":"free"},{"bike_id":"217918e5-99c2-48ce-b0b5-464a09bc2838","system_id":"levelo_inurba_marseille","lat":43.295169,"lon":5.390426,"is_reserved":false,"is_disabled":false,"rental_uris":{"android":"levelo://app?vid=217918e5-99c2-48ce-b0b5-464a09bc2838","ios":"levelo://app?vid=217918e5-99c2-48ce-b0b5-464a09bc2838"},"vehicle_type_id":"4","last_reported":1707761260,"current_range_meters":14000,"station_id":"ce4bh3p2rcd13ifvqdp0","pricing_plan_id":"free"},{"bike_id":"0bb73f05-5a6b-4f46-8db9-cff4df97225c","system_id":"levelo_inurba_marseille","lat":43.330442,"lon":5.389148,"is_reserved":false,"is_disabled":false,"rental_uris":{"android":"levelo://app?vid=0bb73f05-5a6b-4f46-8db9-cff4df97225c","ios":"levelo://app?vid=0bb73f05-5a6b-4f46-8db9-cff4df97225c"},"vehicle_type_id":"4","last_reported":1707761260,"current_range_meters":7200,"station_id":"ce4bhr92rcd13ifvqhrg","pricing_plan_id":"free"},{"bike_id":"e92320c6-2076-4aee-8416-475298b6461d","system_id":"levelo_inurba_marseille","lat":43.33024,"lon":5.39046,"is_reserved":false,"is_disabled":false,"rental_uris":{"android":"levelo://app?vid=e92320c6-2076-4aee-8416-475298b6461d","ios":"levelo://app?vid=e92320c6-2076-4aee-8416-475298b6461d"},"vehicle_type_id":"4","last_reported":1707761260,"current_range_meters":12000,"station_id":"ce4bhr92rcd13ifvqhrg","pricing_plan_id":"free"},{"bike_id":"80aa5881-5ada-4c18-892b-f8abfa3d0e58","system_id":"levelo_inurba_marseille","lat":43.28856,"lon":5.358371,"is_reserved":false,"is_disabled":false,"rental_uris":{"android":"levelo://app?vid=80aa5881-5ada-4c18-892b-f8abfa3d0e58","ios":"levelo://app?vid=80aa5881-5ada-4c18-892b-f8abfa3d0e58"},"vehicle_type_id":"4","last_reported":1707761260,"current_range_meters":15600,"station_id":"ce4bhb12rcd13ifvqem0","pricing_plan_id":"free"},{"bike_id":"bebd185d-ac3a-4e04-8fdb-6cf51847fb59","system_id":"levelo_inurba_marseille","lat":43.28856,"lon":5.358371,"is_reserved":false,"is_disabled":false,"rental_uris":{"android":"levelo://app?vid=bebd185d-ac3a-4e04-8fdb-6cf51847fb59","ios":"levelo://app?vid=bebd185d-ac3a-4e04-8fdb-6cf51847fb59"},"vehicle_type_id":"4","last_reported":1707761260,"current_range_meters":16800,"station_id":"ce4bhb12rcd13ifvqem0","pricing_plan_id":"free"},