{"last_updated":1707854859,"ttl":30,"version":"2.2","data":{"bikes":[{"bike_id":"185aa876-6a48-47e3-ab2a-fa98b693e035","system_id":"levelo_inurba_marseille","lat":43.312239,"lon":5.368562,"is_reserved":false,"is_disabled":false,"rental_uris":{"android":"levelo://app?vid=185aa876-6a48-47e3-ab2a-fa98b693e035","ios":"levelo://app?vid=185aa876-6a48-47e3-ab2a-fa98b693e035"},"vehicle_type_id":"4","last_reported":1707854859,"current_range_meters":9600,"station_id":"ce4bgl92rcd13ifvqbq0","pricing_plan_id":"cebpf4jnsgd1na2vs0mg"},{"bike_id":"941e1a41-0ea2-4c41-840f-58a9f8026d49","system_id":"levelo_inurba_marseille","lat":43.312487,"lon":5.36848,"is_reserved":false,"is_disabled":false,"rental_uris":{"android":"levelo://app?vid=941e1a41-0ea2-4c41-840f-58a9f8026d49","ios":"levelo://app?vid=941e1a41-0ea2-4c41-840f-58a9f8026d49"},"vehicle_type_id":"4","last_reported":1707854859,"current_range_meters":13600,"station_id":"ce4bgl92rcd13ifvqbq0","pricing_plan_id":"cebpf4jnsgd1na2vs0mg"},{"bike_id":"8c32f359-1937-4325-9d9b-bc79b904e316","system_id":"levelo_inurba_marseille","lat":43.312239,"lon":5.368562,"is_reserved":false,"is_disabled":false,"rental_uris":{"android":"levelo://app?vid=8c32f359-1937-4325-9d9b-bc79b904e316","ios":"levelo://app?vid=8c32f359-1937-4325-9d9b-bc79b904e316"},"vehicle_type_id":"4","last_reported":1707854859,"current_range_meters":16400,"station_id":"ce4bgl92rcd13ifvqbq0","pricing_plan_id":"cebpf4jnsgd1na2vs0mg"},{"bike_id":"f0359e06-7e10-43db-84c6-f556d5dc2275","system_id":"levelo_inurba_marseille","lat":43.31483,"lon":5.37308,"is_reserved":false,"is_disabled":false,"rental_uris":{"android":"levelo://app?vid=f0359e06-7e10-43db-84c6-f556d5dc2275","ios":"levelo://app?vid=f0359e06-7e10-43db-84c6-f556d5dc2275"},"vehicle_type_id":"4","last_reported":1707854859,"current_range_meters":1600,"station_id":"ce4bgt12rcd13ifvqcd0","pricing_plan_id":"cebpf4jnsgd1na2vs0mg"},{"bike_id":"422a3c95-9a41-4bbf-8e1a-b0614a22d453","system_id":"levelo_inurba_marseille","lat":43.314811,"lon":5.373104,"is_reserved":false,"is_disabled":false,"rental_uris":{"android":"levelo://app?vid=422a3c95-9a41-4bbf-8e1a-b0614a22d453","ios":"levelo://app?vid=422a3c95-9a41-4bbf-8e1a-b0614a22d453"},"vehicle_type_id":"4","last_reported":1707854859,"current_range_meters":8800,"station_id":"ce4bgt12rcd13ifvqcd0","pricing_plan_id":"cebpf4jnsgd1na2vs0mg"},{"bike_id":"707c8807-4daa-4f05-a53d-f82d53a6ed62","system_id":"levelo_inurba_marseille","lat":43.314811,"lon":5.373103,"is_reserved":false,"is_disabled":false,"rental_uris":{"android":"levelo://app?vid=707c8807-4daa-4f05-a53d-f82d53a6ed62","ios":"levelo://app?vid=707c8807-4daa-4f05-a53d-f82d53a6ed62"},"vehicle_type_id":"4","last_reported":1707854859,"current_range_meters":28800,"station_id":"ce4bgt12rcd13ifvqcd0","pricing_plan_id":"cebpf4jnsgd1na2vs0mg"},{"bike_id":"a22d17f7-64c3-4c4d-899a-eaa982839bdd","system_id":"levelo_inurba_marseille","lat":43.314811,"lon":5.373104,"is_reserved":false,"is_disabled":false,"rental_uris":{"android":"levelo://app?vid=a22d17f7-64c3-4c4d-899a-eaa982839bdd","ios":"levelo://app?vid=a22d17f7-64c3-4c4d-899a-eaa982839bdd"},"vehicle_type_id":"4","last_reported":1707854859,"current_range_meters":16000,"station_id":"ce4bgt12rcd13ifvqcd0","pricing_plan_id":"cebpf4jnsgd1na2vs0mg"},{"bike_id":"05733462-d21d-4ea8-bf9c-d0170e633153","system_id":"levelo_inurba_marseille","lat":43.309039,"lon":5.371797,"is_reserved":false,"is_disabled":false,"rental_uris":{"android":"levelo://app?vid=05733462-d21d-4ea8-bf9c-d0170e633153","ios":"levelo://app?vid=05733462-d21d-4ea8-bf9c-d0170e633153"},"vehicle_type_id":"4","last_reported":1707854859,"current_range_meters":22800,"station_id":"ce4bguh2rcd13ifvqckg","pricing_plan_id":"cebpf4jnsgd1na2vs0mg"},{"bike_id":"24141e23-0c7c-406f-a237-4918c06e395e","system_id":"levelo_inurba_marseille","lat":43.30537,"lon":5.367345,"is_reserved":false,"is_disabled":false,"rental_uris":{"android":"levelo://app?vid=24141e23-0c7c-406f-a237-4918c06e395e","ios":"levelo://app?vid=24141e23-0c7c-406f-a237-4918c06e395e"},"vehicle_type_id":"4","last_reported":1707854859,"current_range_meters":13600,"station_id":"ce4bgrp2rcd13ifvqc9g","pricing_plan_id":"cebpf4jnsgd1na2vs0mg"},{"bike_id":"58301f8f-c061-4b44-a2a2-59f0dc09f221","system_id":"levelo_inurba_marseille","lat":43.305989,"lon":5.37225,"is_reserved":false,"is_disabled":false,"rental_uris":{"android":"levelo://app?vid=58301f8f-c061-4b44-a2a2-59f0dc09f221","ios":"levelo://app?vid=58301f8f-c061-4b44-a2a2-59f0dc09f221"},"vehicle_type_id":"4","last_reported":1707854859,"current_range_meters":18800,"station_id":"ce4bgqh2rcd13ifvqc4g","pricing_plan_id":"cebpf4jnsgd1na2vs0mg"},{"bike_id":"e80936a4-6a80-4f94-a87b-7568c70407d7","system_id":"levelo_inurba_marseille","lat":43.305989,"lon":5.37225,"is_reserved":false,"is_disabled":false,"rental_uris":{"android":"levelo://app?vid=e80936a4-6a80-4f94-a87b-7568c70407d7","ios":"levelo://app?vid=e80936a4-6a80-4f94-a87b-7568c70407d7"},"vehicle_type_id":"4","last_reported":1707854859,"current_range_meters":22000,"station_id":"ce4bgqh2rcd13ifvqc4g","pricing_plan_id":"cebpf4jnsgd1na2vs0mg"},{"bike_id":"870b0ab9-47bd-4437-95d8-969c3246093b","system_id":"levelo_inurba_marseille","lat":43.305989,"lon":5.37225,"is_reserved":false,"is_disabled":false,"rental_uris":{"android":"levelo://app?vid=870b0ab9-47bd-4437-95d8-969c3246093b","ios":"levelo://app?vid=870b0ab9-47bd-4437-95d8-969c3246093b"},"vehicle_type_id":"4","last_reported":1707854859,"current_range_meters":3600,"station_id":"ce4bgqh2rcd13ifvqc4g","pricing_plan_id":"cebpf4jnsgd1na2vs0mg"},{"bike_id":"bdaa1503-6912-4967-b689-8d7b943af830","system_id":"levelo_inurba_marseille","lat":43.31132,"lon":5.37774,"is_reserved":false,"is_disabled":false,"rental_uris":{"android":"levelo://app?vid=bdaa1503-6912-4967-b689-8d7b943af830","ios":"levelo://app?vid=bdaa1503-6912-4967-b689-8d7b943af830"},"vehicle_type_id":"4","last_reported":1707854859,"current_range_meters":0,"station_id":"","pricing_plan_id":"cebpf4jnsgd1na2vs0mg"},{"bike_id":"d61ed51f-6aaf-4d9b-8f4d-492bfa534f3f","system_id":"levelo_inurba_marseille","lat":43.307945,"lon":5.376487,"is_reserved":false,"is_disabled":false,"rental_uris":{"android":"levelo://app?vid=d61ed51f-6aaf-4d9b-8f4d-492bfa534f3f","ios":"levelo://app?vid=d61ed51f-6aaf-4d9b-8f4d-492bfa534f3f"},"vehicle_type_id":"4","last_reported":1707854859,"current_range_meters":6400,"station_id":"ce4bgv92rcd13ifvqcq0","pricing_plan_id":"cebpf4jnsgd1na2vs0mg"},{"bike_id":"6c369859-bf26-4f50-b734-ddd82cf10574","system_id":"levelo_inurba_marseille","lat":43.317075,"lon":5.377367,"is_reserved":false,"is_disabled":false,"rental_uris":{"android":"levelo://app?vid=6c369859-bf26-4f50-b734-ddd82cf10574","ios":"levelo://app?vid=6c369859-bf26-4f50-b734-ddd82cf10574"},"vehicle_type_id":"4","last_reported":1707854859,"current_range_meters":20800,"station_id":"ce4bgth2rcd13ifvqch0","pricing_plan_id":"cebpf4jnsgd1na2vs0mg"},{"bike_id":"ea3a8a2f-e4df-4d97-b27b-3337c1f44d64","system_id":"levelo_inurba_marseille","lat":43.317075,"lon":5.377367,"is_reserved":false,"is_disabled":false,"rental_uris":{"android":"levelo://app?vid=ea3a8a2f-e4df-4d97-b27b-3337c1f44d64","ios":"levelo://app?vid=ea3a8a2f-e4df-4d97-b27b-3337c1f44d64"},"vehicle_type_id":"4","last_reported":1707854859,"current_range_meters":30000,"station_id":"ce4bgth2rcd13ifvqch0","pricing_plan_id":"cebpf4jnsgd1na2vs0mg"},{"bike_id":"0225ae1b-515d-4755-8585-1aed4e8d05af","system_id":"levelo_inurba_marseille","lat":43.31713,"lon":5.3775,"is_reserved":false,"is_disabled":false,"rental_uris":{"android":"levelo://app?vid=0225ae1b-515d-4755-8585-1aed4e8d05af","ios":"levelo://app?vid=0225ae1b-515d-4755-8585-1aed4e8d05af"},"vehicle_type_id":"4","last_reported":1707854859,"current_range_meters":400,"station_id":"ce4bgth2rcd13ifvqch0","pricing_plan_id":"cebpf4jnsgd1na2vs0mg"},{"bike_id":"8f097647-e4f8-4567-ac07-01d9327b196b","system_id":"levelo_inurba_marseille","lat":43.303046,"lon":5.368981,"is_reserved":false,"is_disabled":false,"rental_uris":{"android":"levelo://app?vid=8f097647-e4f8-4567-ac07-01d9327b196b","ios":"levelo://app?vid=8f097647-e4f8-4567-ac07-01d9327b196b"},"vehicle_type_id":"4","last_reported":1707854859,"current_range_meters":1600,"station_id":"ce4bgqh2rcd13ifvqc5g","pricing_plan_id":"cebpf4jnsgd1na2vs0mg"},{"bike_id":"25fcbcf9-b205-48ab-aae7-a0909019fcf7","system_id":"levelo_inurba_marseille","lat":43.30304,"lon":5.368987,"is_reserved":false,"is_disabled":false,"rental_uris":{"android":"levelo://app?vid=25fcbcf9-b205-48ab-aae7-a0909019fcf7","ios":"levelo://app?vid=25fcbcf9-b205-48ab-aae7-a0909019fcf7"},"vehicle_type_id":"4","last_reported":1707854859,"current_range_meters":9200,"station_id":"ce4bgqh2rcd13ifvqc5g","pricing_plan_id":"cebpf4jnsgd1na2vs0mg"},{"bike_id":"99b25015-5bc0-4096-9668-a27a161256eb","system_id":"levelo_inurba_marseille","lat":43.32273,"lon":5.36961,"is_reserved":false,"is_disabled":false,"rental_uris":{"android":"levelo://app?vid=99b25015-5bc0-4096-9668-a27a161256eb","ios":"levelo://app?vid=99b25015-5bc0-4096-9668-a27a161256eb"},"vehicle_type_id":"4","last_reported":1707854859,"current_range_meters":10000,"station_id":"","pricing_plan_id":"cebpf4jnsgd1na2vs0mg"},{"bike_id":"9837374c-3dde-4b97-8ea7-61be83a641cc","system_id":"levelo_inurba_marseille","lat":43.301939,"lon":5.366286,"is_reserved":false,"is_disabled":false,"rental_uris":{"android":"levelo://app?vid=9837374c-3dde-4b97-8ea7-61be83a641cc","ios":"levelo://app?vid=9837374c-3dde-4b97-8ea7-61be83a641cc"},"vehicle_type_id":"4","last_reported":1707854859,"current_range_meters":27200,"station_id":"ce4bgrh2rcd13ifvqc8g","pricing_plan_id":"cebpf4jnsgd1na2vs0mg"},{"bike_id":"c4bdf199-5e6d-4389-8cb8-e37e2c848480","system_id":"levelo_inurba_marseille","lat":43.301939,"lon":5.366286,"is_reserved":false,"is_disabled":false,"rental_uris":{"android":"levelo://app?vid=c4bdf199-5e6d-4389-8cb8-e37e2c848480","ios":"levelo://app?vid=c4bdf199-5e6d-4389-8cb8-e37e2c848480"},"vehicle_type_id":"4","last_reported":1707854859,"current_range_meters":11200,"station_id":"ce4bgrh2rcd13ifvqc8g","pricing_plan_id":"cebpf4jnsgd1na2vs0mg"},{"bike_id":"a91fd5a4-4a56-47d1-8675-dc774d9fdaeb","system_id":"levelo_inurba_marseille","lat":43.308012,"lon":5.381511,"is_reserved":false,"is_disabled":false,"rental_uris":{"android":"levelo://app?vid=a91fd5a4-4a56-47d1-8675-dc774d9fdaeb","ios":"levelo://app?vid=a91fd5a4-4a56-47d1-8675-dc774d9fdaeb"},"vehicle_type_id":"4","last_reported":1707854859,"current_range_meters":18800,"station_id":"ce4bgt12rcd13ifvqce0","pricing_plan_id":"cebpf4jnsgd1na2vs0mg"},{"bike_id":"34fc1f60-2015-49c0-9c5f-4b8a4ea20596","system_id":"levelo_inurba_marseille","lat":43.304606,"lon":5.379026,"is_reserved":false,"is_disabled":false,"rental_uris":{"android":"levelo://app?vid=34fc1f60-2015-49c0-9c5f-4b8a4ea20596","ios":"levelo://app?vid=34fc1f60-2015-49c0-9c5f-4b8a4ea20596"},"vehicle_type_id":"4","last_reported":1707854859,"current_range_meters":0,"station_id":"ce4bgup2rcd13ifvqcn0","pricing_plan_id":"cebpf4jnsgd1na2vs0mg"},{"bike_id":"565f9df3-8834-492a-82ea-11e6e32cb8ea","system_id":"levelo_inurba_marseille","lat":43.324771,"lon":5.36557,"is_reserved":false,"is_disabled":false,"rental_uris":{"android":"levelo://app?vid=565f9df3-8834-492a-82ea-11e6e32cb8ea","ios":"levelo://app?vid=565f9df3-8834-492a-82ea-11e6e32cb8ea"},"vehicle_type_id":"4","last_reported":1707854859,"current_range_meters":19600,"station_id":"ce4bhs12rcd13ifvqhvg","pricing_plan_id":"cebpf4jnsgd1na2vs0mg"},{"bike_id":"a5150c7a-e2e5-4922-972d-4b2fc2e80862","system_id":"levelo_inurba_marseille","lat":43.324771,"lon":5.36557,"is_reserved":false,"is_disabled":false,"rental_uris":{"android":"levelo://app?vid=a5150c7a-e2e5-4922-972d-4b2fc2e80862","ios":"levelo://app?vid=a5150c7a-e2e5-4922-972d-4b2fc2e80862"},"vehicle_type_id":"4","last_reported":1707854859,"current_range_meters":16000,"station_id":"ce4bhs12rcd13ifvqhvg","pricing_plan_id":"cebpf4jnsgd1na2vs0mg"},{"bike_id":"3c3b17ec-aa6b-4a35-9f14-1d304594707e","system_id":"levelo_inurba_marseille","lat":43.324771,"lon":5.36557,"is_reserved":false,"is_disabled":false,"rental_uris":{"android":"levelo://app?vid=3c3b17ec-aa6b-4a35-9f14-1d304594707e","ios":"levelo://app?vid=3c3b17ec-aa6b-4a35-9f14-1d304594707e"},"vehicle_type_id":"4","last_reported":1707854859,"current_range_meters":800,"station_id":"ce4bhs12rcd13ifvqhvg","pricing_plan_id":"cebpf4jnsgd1na2vs0mg"},{"bike_id":"bfd78388-62bb-45aa-8792-4a786470862a","system_id":"levelo_inurba_marseille","lat":43.310804,"lon":5.38359,"is_reserved":false,"is_disabled":false,"rental_uris":{"android":"levelo://app?vid=bfd78388-62bb-45aa-8792-4a786470862a","ios":"levelo://app?vid=bfd78388-62bb-45aa-8792-4a786470862a"},"vehicle_type_id":"4","last_reported":1707854859,"current_range_meters":0,"station_id":"ce4bgv92rcd13ifvqcr0","pricing_plan_id":"cebpf4jnsgd1na2vs0mg"},{"bike_id":"5ff63279-e321-4404-b9e3-2001fce72c9e","system_id":"levelo_inurba_marseille","lat":43.310804,"lon":5.38359,"is_reserved":false,"is_disabled":false,"rental_uris":{"android":"levelo://app?vid=5ff63279-e321-4404-b9e3-2001fce72c9e","ios":"levelo://app?vid=5ff63279-e321-4404-b9e3-2001fce72c9e"},"vehicle_type_id":"4","last_reported":1707854859,"current_range_meters":2400,"station_id":"ce4bgv92rcd13ifvqcr0","pricing_plan_id":"cebpf4jnsgd1na2vs0mg"},{"bike_id":"4dfacadf-7ff6-40cb-b688-8cd93334986a","system_id":"levelo_inurba_marseille","lat":43.310804,"lon":5.38359,"is_reserved":false,"is_disabled":false,"rental_uris":{"android":"levelo://app?vid=4dfacadf-7ff6-40cb-b688-8cd93334986a","ios":"levelo://app?vid=4dfacadf-7ff6-40cb-b688-8cd93334986a"},"vehicle_type_id":"4","last_reported":1707854859,"current_range_meters":0,"station_id":"ce4bgv92rcd13ifvqcr0","pricing_plan_id":"cebpf4jnsgd1na2vs0mg"},{"bike_id":"237d60d5-e9da-4c8d-9843-6915d4445eeb","system_id":"levelo_inurba_marseille","lat":43.302784,"lon":5.377158,"is_reserved":false,"is_disabled":false,"rental_uris":{"android":"levelo://app?vid=237d60d5-e9da-4c8d-9843-6915d4445eeb","ios":"levelo://app?vid=237d60d5-e9da-4c8d-9843-6915d4445eeb"},"vehicle_type_id":"4","last_reported":1707854859,"current_range_meters":19200,"station_id":"ce4bguh2rcd13ifvqcj0","pricing_plan_id":"cebpf4jnsgd1na2vs0mg"},{"bike_id":"e9866d83-4cfa-4ab0-a579-ae7e5f8e6a27","system_id":"levelo_inurba_marseille","lat":43.301429,"lon":5.37413,"is_reserved":false,"is_disabled":false,"rental_uris":{"android":"levelo://app?vid=e9866d83-4cfa-4ab0-a579-ae7e5f8e6a27","ios":"levelo://app?vid=e9866d83-4cfa-4ab0-a579-ae7e5f8e6a27"},"vehicle_type_id":"4","last_reported":1707854859,"current_range_meters":1600,"station_id":"ce4bgs92rcd13ifvqcc0","pricing_plan_id":"cebpf4jnsgd1na2vs0mg"},{"bike_id":"d60a56b1-8df5-46c7-9c58-03251d97f7ca","system_id":"levelo_inurba_marseille","lat":43.319935,"lon":5.381699,"is_reserved":false,"is_disabled":false,"rental_uris":{"android":"levelo://app?vid=d60a56b1-8df5-46c7-9c58-03251d97f7ca","ios":"levelo://app?vid=d60a56b1-8df5-46c7-9c58-03251d97f7ca"},"vehicle_type_id":"4","last_reported":1707854859,"current_range_meters":0,"station_id":"ce4bhr12rcd13ifvqhpg","pricing_plan_id":"cebpf4jnsgd1na2vs0mg"},{"bike_id":"904717e0-567f-402b-b8fb-82da03c63213","system_id":"levelo_inurba_marseille","lat":43.319935,"lon":5.381699,"is_reserved":false,"is_disabled":false,"rental_uris":{"android":"levelo://app?vid=904717e0-567f-402b-b8fb-82da03c63213","ios":"levelo://app?vid=904717e0-567f-402b-b8fb-82da03c63213"},"vehicle_type_id":"4","last_reported":1707854859,"current_range_meters":6800,"station_id":"ce4bhr12rcd13ifvqhpg","pricing_plan_id":"cebpf4jnsgd1na2vs0mg"},{"bike_id":"9fbc3664-6855-4721-960a-9f9f9da0da99","system_id":"levelo_inurba_marseille","lat":43.319935,"lon":5.381699,"is_reserved":false,"is_disabled":false,"rental_uris":{"android":"levelo://app?vid=9fbc3664-6855-4721-960a-9f9f9da0da99","ios":"levelo://app?vid=9fbc3664-6855-4721-960a-9f9f9da0da99"},"vehicle_type_id":"4","last_reported":1707854859,"current_range_meters":18400,"station_id":"ce4bhr12rcd13ifvqhpg","pricing_plan_id":"cebpf4jnsgd1na2vs0mg"},{"bike_id":"0ec568e8-ea29-47b6-adf7-566d6e2149d4","system_id":"levelo_inurba_marseille","lat":43.319935,"lon":5.381699,"is_reserved":false,"is_disabled":false,"rental_uris":{"android":"levelo://app?vid=0ec568e8-ea29-47b6-adf7-566d6e2149d4","ios":"levelo://app?vid=0ec568e8-ea29-47b6-adf7-566d6e2149d4"},"vehicle_type_id":"4","last_reported":1707854859,"current_range_meters":15600,"station_id":"ce4bhr12rcd13ifvqhpg","pricing_plan_id":"cebpf4jnsgd1na2vs0mg"},{"bike_id":"c37622e8-813d-4691-b64b-e5180e6ff89f","system_id":"levelo_inurba_marseille","lat":43.319935,"lon":5.381699,"is_reserved":false,"is_disabled":false,"rental_uris":{"android":"levelo://app?vid=c37622e8-813d-4691-b64b-e5180e6ff89f","ios":"levelo://app?vid=c37622e8-813d-4691-b64b-e5180e6ff89f"},"vehicle_type_id":"4","last_reported":1707854859,"current_range_meters":5200,"station_id":"ce4bhr12rcd13ifvqhpg","pricing_plan_id":"cebpf4jnsgd1na2vs0mg"},{"bike_id":"1ddcb4a9-2c2c-4499-8df2-9b141368eee9","system_id":"levelo_inurba_marseille","lat":43.319935,"lon":5.381699,"is_reserved":false,"is_disabled":false,"rental_uris":{"android":"levelo://app?vid=1ddcb4a9-2c2c-4499-8df2-9b141368eee9","ios":"levelo://app?vid=1ddcb4a9-2c2c-4499-8df2-9b141368eee9"},"vehicle_type_id":"4","last_reported":1707854859,"current_range_meters":26800,"station_id":"ce4bhr12rcd13ifvqhpg","pricing_plan_id":"cebpf4jnsgd1na2vs0mg"},{"bike_id":"cb7e0ecf-58bc-44b1-9d70-3a13dec6bce3","system_id":"levelo_inurba_marseille","lat":43.313571,"lon":5.384829,"is_reserved":false,"is_disabled":false,"rental_uris":{"android":"levelo://app?vid=cb7e0ecf-58bc-44b1-9d70-3a13dec6bce3","ios":"levelo://app?vid=cb7e0ecf-58bc-44b1-9d70-3a13dec6bce3"},"vehicle_type_id":"4","last_reported":1707854859,"current_range_meters":0,"station_id":"ce4bgt92rcd13ifvqcf0","pricing_plan_id":"cebpf4jnsgd1na2vs0mg"},{"bike_id":"3584f118-4d20-44ed-be03-6e7c7afdc922","system_id":"levelo_inurba_marseille","lat":43.313571,"lon":5.384829,"is_reserved":false,"is_disabled":false,"rental_uris":{"android":"levelo://app?vid=3584f118-4d20-44ed-be03-6e7c7afdc922","ios":"levelo://app?vid=3584f118-4d20-44ed-be03-6e7c7afdc922"},"vehicle_type_id":"4","last_reported":1707854859,"current_range_meters":29600,"station_id":"ce4bgt92rcd13ifvqcf0","pricing_plan_id":"cebpf4jnsgd1na2vs0mg"},{"bike_id":"f06c325c-ca09-4e77-8b37-5b027ef0241e","system_id":"levelo_inurba_marseille","lat":43.313571,"lon":5.384829,"is_reserved":false,"is_disabled":false,"rental_uris":{"android":"levelo://app?vid=f06c325c-ca09-4e77-8b37-5b027ef0241e","ios":"levelo://app?vid=f06c325c-ca09-4e77-8b37-5b027ef0241e"},"vehicle_type_id":"4","last_reported":1707854859,"current_range_meters":18400,"station_id":"ce4bgt92rcd13ifvqcf0","pricing_plan_id":"cebpf4jnsgd1na2vs0mg"},{"bike_id":"9cd4e1dd-faa8-45df-9f5f-e3dca6bf4f02","system_id":"levelo_inurba_marseille","lat":43.313608,"lon":5.38496,"is_reserved":false,"is_disabled":false,"rental_uris":{"android":"levelo://app?vid=9cd4e1dd-faa8-45df-9f5f-e3dca6bf4f02","ios":"levelo://app?vid=9cd4e1dd-faa8-45df-9f5f-e3dca6bf4f02"},"vehicle_type_id":"4","last_reported":1707854859,"current_range_meters":0,"station_id":"ce4bgt92rcd13ifvqcf0","pricing_plan_id":"cebpf4jnsgd1na2vs0mg"},{"bike_id":"f84e40fc-494e-4a12-9c18-19f2eaaab545","system_id":"levelo_inurba_marseille","lat":43.31368,"lon":5.38497,"is_reserved":false,"is_disabled":false,"rental_uris":{"android":"levelo://app?vid=f84e40fc-494e-4a12-9c18-19f2eaaab545","ios":"levelo://app?vid=f84e40fc-494e-4a12-9c18-19f2eaaab545"},"vehicle_type_id":"4","last_reported":1707854859,"current_range_meters":5600,"station_id":"ce4bgt92rcd13ifvqcf0","pricing_plan_id":"cebpf4jnsgd1na2vs0mg"},{"bike_id":"32ab5c19-1225-4254-b071-d8925a93e7a1","system_id":"levelo_inurba_marseille","lat":43.299724,"lon":5.371829,"is_reserved":false,"is_disabled":false,"rental_uris":{"android":"levelo://app?vid=32ab5c19-1225-4254-b071-d8925a93e7a1","ios":"levelo://app?vid=32ab5c19-1225-4254-b071-d8925a93e7a1"},"vehicle_type_id":"4","last_reported":1707854859,"current_range_meters":0,"station_id":"ce4bgr92rcd13ifvqc7g","pricing_plan_id":"cebpf4jnsgd1na2vs0mg"},{"bike_id":"7cefed0c-bc67-45e9-ae5c-9ee7aab22854","system_id":"levelo_inurba_marseille","lat":43.299724,"lon":5.371829,"is_reserved":false,"is_disabled":false,"rental_uris":{"android":"levelo://app?vid=7cefed0c-bc67-45e9-ae5c-9ee7aab22854","ios":"levelo://app?vid=7cefed0c-bc67-45e9-ae5c-9ee7aab22854"},"vehicle_type_id":"4","last_reported":1707854859,"current_range_meters":21200,"station_id":"ce4bgr92rcd13ifvqc7g","pricing_plan_id":"cebpf4jnsgd1na2vs0mg"},{"bike_id":"854302f4-3b2d-4c02-8592-c63ce05a18b8","system_id":"levelo_inurba_marseille","lat":43.299724,"lon":5.371829,"is_reserved":false,"is_disabled":false,"rental_uris":{"android":"levelo://app?vid=854302f4-3b2d-4c02-8592-c63ce05a18b8","ios":"levelo://app?vid=854302f4-3b2d-4c02-8592-c63ce05a18b8"},"vehicle_type_id":"4","last_reported":1707854859,"current_range_meters":22400,"station_id":"ce4bgr92rcd13ifvqc7g","pricing_plan_id":"cebpf4jnsgd1na2vs0mg"},{"bike_id":"3b6fd47c-f860-4967-b147-3526322b443e","system_id":"levelo_inurba_marseille","lat":43.311545,"lon":5.386735,"is_reserved":false,"is_disabled":false,"rental_uris":{"android":"levelo://app?vid=3b6fd47c-f860-4967-b147-3526322b443e","ios":"levelo://app?vid=3b6fd47c-f860-4967-b147-3526322b443e"},"vehicle_type_id":"4","last_reported":1707854859,"current_range_meters":14800,"station_id":"ce4bgv12rcd13ifvqcp0","pricing_plan_id":"cebpf4jnsgd1na2vs0mg"},{"bike_id":"2655ae48-80a6-44f0-9f57-87b1c4795861","system_id":"levelo_inurba_marseille","lat":43.299243,"lon":5.37481,"is_reserved":false,"is_disabled":false,"rental_uris":{"android":"levelo://app?vid=2655ae48-80a6-44f0-9f57-87b1c4795861","ios":"levelo://app?vid=2655ae48-80a6-44f0-9f57-87b1c4795861"},"vehicle_type_id":"4","last_reported":1707854859,"current_range_meters":17600,"station_id":"ce4bgjh2rcd13ifvqbg0","pricing_plan_id":"cebpf4jnsgd1na2vs0mg"},{"bike_id":"ea4b49be-746f-433a-8178-b855e8f1e64e","system_id":"levelo_inurba_marseille","lat":43.299243,"lon":5.37481,"is_reserved":false,"is_disabled":false,"rental_uris":{"android":"levelo://app?vid=ea4b49be-746f-433a-8178-b855e8f1e64e","ios":"levelo://app?vid=ea4b49be-746f-433a-8178-b855e8f1e64e"},"vehicle_type_id":"4","last_reported":1707854859,"current_range_meters":16800,"station_id":"ce4bgjh2rcd13ifvqbg0","pricing_plan_id":"cebpf4jnsgd1na2vs0mg"},{"bike_id":"708594cf-b633-4cb0-baa3-a106d1c292d7","system_id":"levelo_inurba_marseille","lat":43.299243,"lon":5.374807,"is_reserved":false,"is_disabled":false,"rental_uris":{"android":"levelo://app?vid=708594cf-b633-4cb0-baa3-a106d1c292d7","ios":"levelo://app?vid=708594cf-b633-4cb0-baa3-a106d1c292d7"},"vehicle_type_id":"4","last_reported":1707854859,"current_range_meters":9600,"station_id":"ce4bgjh2rcd13ifvqbg0","pricing_plan_id":"cebpf4jnsgd1na2vs0mg"},{"bike_id":"a8b5180e-f39f-407d-b5d0-52b35fd20ac4","system_id":"levelo_inurba_marseille","lat":43.311722,"lon":5.387247,"is_reserved":false,"is_disabled":false,"rental_uris":{"android":"levelo://app?vid=a8b5180e-f39f-407d-b5d0-52b35fd20ac4","ios":"levelo://app?vid=a8b5180e-f39f-407d-b5d0-52b35fd20ac4"},"vehicle_type_id":"4","last_reported":1707854859,"current_range_meters":31200,"station_id":"ce4bgv12rcd13ifvqcp0","pricing_plan_id":"cebpf4jnsgd1na2vs0mg"},{"bike_id":"88c1afde-4863-4c74-a203-6c82ce46597f","system_id":"levelo_inurba_marseille","lat":43.322872,"lon":5.382756,"is_reserved":false,"is_disabled":false,"rental_uris":{"android":"levelo://app?vid=88c1afde-4863-4c74-a203-6c82ce46597f","ios":"levelo://app?vid=88c1afde-4863-4c74-a203-6c82ce46597f"},"vehicle_type_id":"4","last_reported":1707854859,"current_range_meters":30000,"station_id":"ce4bhr12rcd13ifvqhqg","pricing_plan_id":"cebpf4jnsgd1na2vs0mg"},{"bike_id":"f9a328d6-c6dc-4cba-aea7-5d42634a1c6c","system_id":"levelo_inurba_marseille","lat":43.322872,"lon":5.382756,"is_reserved":false,"is_disabled":false,"rental_uris":{"android":"levelo://app?vid=f9a328d6-c6dc-4cba-aea7-5d42634a1c6c","ios":"levelo://app?vid=f9a328d6-c6dc-4cba-aea7-5d42634a1c6c"},"vehicle_type_id":"4","last_reported":1707854859,"current_range_meters":26000,"station_id":"ce4bhr12rcd13ifvqhqg","pricing_plan_id":"cebpf4jnsgd1na2vs0mg"},{"bike_id":"d74bd2a1-22ad-4021-869f-09a8873f8a42","system_id":"levelo_inurba_marseille","lat":43.322872,"lon":5.382756,"is_reserved":false,"is_disabled":false,"rental_uris":{"android":"levelo://app?vid=d74bd2a1-22ad-4021-869f-09a8873f8a42","ios":"levelo://app?vid=d74bd2a1-22ad-4021-869f-09a8873f8a42"},"vehicle_type_id":"4","last_reported":1707854859,"current_range_meters":28000,"station_id":"ce4bhr12rcd13ifvqhqg","pricing_plan_id":"cebpf4jnsgd1na2vs0mg"},{"bike_id":"aed9e4ad-9c1a-4a51-8095-58a12f0b44f4","system_id":"levelo_inurba_marseille","lat":43.322872,"lon":5.382756,"is_reserved":false,"is_disabled":false,"rental_uris":{"android":"levelo://app?vid=aed9e4ad-9c1a-4a51-8095-58a12f0b44f4","ios":"levelo://app?vid=aed9e4ad-9c1a-4a51-8095-58a12f0b44f4"},"vehicle_type_id":"4","last_reported":1707854859,"current_range_meters":30800,"station_id":"ce4bhr12rcd13ifvqhqg","pricing_plan_id":"cebpf4jnsgd1na2vs0mg"},{"bike_id":"6229d0b0-b965-496c-b4a1-c0fb6c28b332","system_id":"levelo_inurba_marseille","lat":43.2976,"lon":5.37093,"is_reserved":false,"is_disabled":false,"rental_uris":{"android":"levelo://app?vid=6229d0b0-b965-496c-b4a1-c0fb6c28b332","ios":"levelo://app?vid=6229d0b0-b965-496c-b4a1-c0fb6c28b332"},"vehicle_type_id":"4","last_reported":1707854859,"current_range_meters":0,"station_id":"ce4bgop2rcd13ifvqc1g","pricing_plan_id":"cebpf4jnsgd1na2vs0mg"},{"bike_id":"b1ae39ac-e250-4a6a-9a12-58352f8b9818","system_id":"levelo_inurba_marseille","lat":43.32821,"lon":5.366892,"is_reserved":false,"is_disabled":false,"rental_uris":{"android":"levelo://app?vid=b1ae39ac-e250-4a6a-9a12-58352f8b9818","ios":"levelo://app?vid=b1ae39ac-e250-4a6a-9a12-58352f8b9818"},"vehicle_type_id":"4","last_reported":1707854859,"current_range_meters":9600,"station_id":"ce4bhs92rcd13ifvqi0g","pricing_plan_id":"cebpf4jnsgd1na2vs0mg"},{"bike_id":"24cbb04a-c763-4b6c-91c7-7ce4ce9a6969","system_id":"levelo_inurba_marseille","lat":43.32822,"lon":5.36686,"is_reserved":false,"is_disabled":false,"rental_uris":{"android":"levelo://app?vid=24cbb04a-c763-4b6c-91c7-7ce4ce9a6969","ios":"levelo://app?vid=24cbb04a-c763-4b6c-91c7-7ce4ce9a6969"},"vehicle_type_id":"4","last_reported":1707854859,"current_range_meters":20800,"station_id":"ce4bhs92rcd13ifvqi0g","pricing_plan_id":"cebpf4jnsgd1na2vs0mg"},{"bike_id":"ec21c626-faeb-41e5-9192-4d2bef3ee4d3","system_id":"levelo_inurba_marseille","lat":43.32822,"lon":5.36682,"is_reserved":false,"is_disabled":false,"rental_uris":{"android":"levelo://app?vid=ec21c626-faeb-41e5-9192-4d2bef3ee4d3","ios":"levelo://app?vid=ec21c626-faeb-41e5-9192-4d2bef3ee4d3"},"vehicle_type_id":"4","last_reported":1707854859,"current_range_meters":13600,"station_id":"ce4bhs92rcd13ifvqi0g","pricing_plan_id":"cebpf4jnsgd1na2vs0mg"},{"bike_id":"2deee51f-fb5a-4bcb-a500-c4d35805e5a8","system_id":"levelo_inurba_marseille","lat":43.32823,"lon":5.36688,"is_reserved":false,"is_disabled":false,"rental_uris":{"android":"levelo://app?vid=2deee51f-fb5a-4bcb-a500-c4d35805e5a8","ios":"levelo://app?vid=2deee51f-fb5a-4bcb-a500-c4d35805e5a8"},"vehicle_type_id":"4","last_reported":1707854859,"current_range_meters":24000,"station_id":"ce4bhs92rcd13ifvqi0g","pricing_plan_id":"cebpf4jnsgd1na2vs0mg"},{"bike_id":"b69dafd6-5e51-4079-932c-30e4c80d8b2d","system_id":"levelo_inurba_marseille","lat":43.32824,"lon":5.36685,"is_reserved":false,"is_disabled":false,"rental_uris":{"android":"levelo://app?vid=b69dafd6-5e51-4079-932c-30e4c80d8b2d","ios":"levelo://app?vid=b69dafd6-5e51-4079-932c-30e4c80d8b2d"},"vehicle_type_id":"4","last_reported":1707854859,"current_range_meters":11600,"station_id":"ce4bhs92rcd13ifvqi0g","pricing_plan_id":"cebpf4jnsgd1na2vs0mg"},{"bike_id":"28b5e1aa-89c7-418e-b035-a545752e89f1","system_id":"levelo_inurba_marseille","lat":43.32824,"lon":5.36683,"is_reserved":false,"is_disabled":false,"rental_uris":{"android":"levelo://app?vid=28b5e1aa-89c7-418e-b035-a545752e89f1","ios":"levelo://app?vid=28b5e1aa-89c7-418e-b035-a545752e89f1"},"vehicle_type_id":"4","last_reported":1707854859,"current_range_meters":4800,"station_id":"ce4bhs92rcd13ifvqi0g","pricing_plan_id":"cebpf4jnsgd1na2vs0mg"},{"bike_id":"07a2b44b-47c4-46fe-b8d8-d7ad3b775366","system_id":"levelo_inurba_marseille","lat":43.32826,"lon":5.36681,"is_reserved":false,"is_disabled":false,"rental_uris":{"android":"levelo://app?vid=07a2b44b-47c4-46fe-b8d8-d7ad3b775366","ios":"levelo://app?vid=07a2b44b-47c4-46fe-b8d8-d7ad3b775366"},"vehicle_type_id":"4","last_reported":1707854859,"current_range_meters":30400,"station_id":"ce4bhs92rcd13ifvqi0g","pricing_plan_id":"cebpf4jnsgd1na2vs0mg"},{"bike_id":"8c90430b-95b2-4431-8551-469294caf146","system_id":"levelo_inurba_marseille","lat":43.328268,"lon":5.366908,"is_reserved":false,"is_disabled":false,"rental_uris":{"android":"levelo://app?vid=8c90430b-95b2-4431-8551-469294caf146","ios":"levelo://app?vid=8c90430b-95b2-4431-8551-469294caf146"},"vehicle_type_id":"4","last_reported":1707854859,"current_range_meters":17200,"station_id":"ce4bhs92rcd13ifvqi0g","pricing_plan_id":"cebpf4jnsgd1na2vs0mg"},{"bike_id":"92d433a5-a7b5-4c09-a587-fcb1586970ce","system_id":"levelo_inurba_marseille","lat":43.32827,"lon":5.36689,"is_reserved":false,"is_disabled":false,"rental_uris":{"android":"levelo://app?vid=92d433a5-a7b5-4c09-a587-fcb1586970ce","ios":"levelo://app?vid=92d433a5-a7b5-4c09-a587-fcb1586970ce"},"vehicle_type_id":"4","last_reported":1707854859,"current_range_meters":25200,"station_id":"ce4bhs92rcd13ifvqi0g","pricing_plan_id":"cebpf4jnsgd1na2vs0mg"},{"bike_id":"b354d40e-f748-45df-b8a4-085ee0f39b31","system_id":"levelo_inurba_marseille","lat":43.32827,"lon":5.36682,"is_reserved":false,"is_disabled":false,"rental_uris":{"android":"levelo://app?vid=b354d40e-f748-45df-b8a4-085ee0f39b31","ios":"levelo://app?vid=b354d40e-f748-45df-b8a4-085ee0f39b31"},"vehicle_type_id":"4","last_reported":1707854859,"current_range_meters":28400,"station_id":"ce4bhs92rcd13ifvqi0g","pricing_plan_id":"cebpf4jnsgd1na2vs0mg"},{"bike_id":"de05c7b1-885e-455d-9a4f-56e96683d901","system_id":"levelo_inurba_marseille","lat":43.32828,"lon":5.36694,"is_reserved":false,"is_disabled":false,"rental_uris":{"android":"levelo://app?vid=de05c7b1-885e-455d-9a4f-56e96683d901","ios":"levelo://app?vid=de05c7b1-885e-455d-9a4f-56e96683d901"},"vehicle_type_id":"4","last_reported":1707854859,"current_range_meters":0,"station_id":"ce4bhs92rcd13ifvqi0g","pricing_plan_id":"cebpf4jnsgd1na2vs0mg"},{"bike_id":"eec18b1c-bcf1-4268-8859-b234d772b467","system_id":"levelo_inurba_marseille","lat":43.32828,"lon":5.3668,"is_reserved":false,"is_disabled":false,"rental_uris":{"android":"levelo://app?vid=eec18b1c-bcf1-4268-8859-b234d772b467","ios":"levelo://app?vid=eec18b1c-bcf1-4268-8859-b234d772b467"},"vehicle_type_id":"4","last_reported":1707854859,"current_range_meters":16000,"station_id":"ce4bhs92rcd13ifvqi0g","pricing_plan_id":"cebpf4jnsgd1na2vs0mg"},{"bike_id":"8d4d4aba-3495-4235-ada7-809a0bcb5c57","system_id":"levelo_inurba_marseille","lat":43.328296,"lon":5.366774,"is_reserved":false,"is_disabled":false,"rental_uris":{"android":"levelo://app?vid=8d4d4aba-3495-4235-ada7-809a0bcb5c57","ios":"levelo://app?vid=8d4d4aba-3495-4235-ada7-809a0bcb5c57"},"vehicle_type_id":"4","last_reported":1707854859,"current_range_meters":27200,"station_id":"ce4bhs92rcd13ifvqi0g","pricing_plan_id":"cebpf4jnsgd1na2vs0mg"},{"bike_id":"3c8017d6-621c-4c14-ad01-fbce9c52c386","system_id":"levelo_inurba_marseille","lat":43.3283,"lon":5.36695,"is_reserved":false,"is_disabled":false,"rental_uris":{"android":"levelo://app?vid=3c8017d6-621c-4c14-ad01-fbce9c52c386","ios":"levelo://app?vid=3c8017d6-621c-4c14-ad01-fbce9c52c386"},"vehicle_type_id":"4","last_reported":1707854859,"current_range_meters":0,"station_id":"ce4bhs92rcd13ifvqi0g","pricing_plan_id":"cebpf4jnsgd1na2vs0mg"},{"bike_id":"6df14f4e-5762-4688-823c-207c1d70636e","system_id":"levelo_inurba_marseille","lat":43.3283,"lon":5.3668,"is_reserved":false,"is_disabled":false,"rental_uris":{"android":"levelo://app?vid=6df14f4e-5762-4688-823c-207c1d70636e","ios":"levelo://app?vid=6df14f4e-5762-4688-823c-207c1d70636e"},"vehicle_type_id":"4","last_reported":1707854859,"current_range_meters":8800,"station_id":"ce4bhs92rcd13ifvqi0g","pricing_plan_id":"cebpf4jnsgd1na2vs0mg"},{"bike_id":"ca9eb2bd-76f0-467a-b34d-3f09418a4a5b","system_id":"levelo_inurba_marseille","lat":43.297163,"lon":5.365866,"is_reserved":false,"is_disabled":false,"rental_uris":{"android":"levelo://app?vid=ca9eb2bd-76f0-467a-b34d-3f09418a4a5b","ios":"levelo://app?vid=ca9eb2bd-76f0-467a-b34d-3f09418a4a5b"},"vehicle_type_id":"4","last_reported":1707854859,"current_range_meters":30800,"station_id":"ce4bgn12rcd13ifvqbt0","pricing_plan_id":"cebpf4jnsgd1na2vs0mg"},{"bike_id":"f41ceea4-9289-4d6b-990c-9f2656a72f3b","system_id":"levelo_inurba_marseille","lat":43.32831,"lon":5.3668,"is_reserved":false,"is_disabled":false,"rental_uris":{"android":"levelo://app?vid=f41ceea4-9289-4d6b-990c-9f2656a72f3b","ios":"levelo://app?vid=f41ceea4-9289-4d6b-990c-9f2656a72f3b"},"vehicle_type_id":"4","last_reported":1707854859,"current_range_meters":7200,"station_id":"ce4bhs92rcd13ifvqi0g","pricing_plan_id":"cebpf4jnsgd1na2vs0mg"},{"bike_id":"00c486e2-5b6f-4240-9c00-f34f4cd392e2","system_id":"levelo_inurba_marseille","lat":43.32831,"lon":5.36677,"is_reserved":false,"is_disabled":false,"rental_uris":{"android":"levelo://app?vid=00c486e2-5b6f-4240-9c00-f34f4cd392e2","ios":"levelo://app?vid=00c486e2-5b6f-4240-9c00-f34f4cd392e2"},"vehicle_type_id":"4","last_reported":1707854859,"current_range_meters":21200,"station_id":"ce4bhs92rcd13ifvqi0g","pricing_plan_id":"cebpf4jnsgd1na2vs0mg"},{"bike_id":"7c47e388-9433-4092-857a-2e1a28e7faaa","system_id":"levelo_inurba_marseille","lat":43.32831,"lon":5.36673,"is_reserved":false,"is_disabled":false,"rental_uris":{"android":"levelo://app?vid=7c47e388-9433-4092-857a-2e1a28e7faaa","ios":"levelo://app?vid=7c47e388-9433-4092-857a-2e1a28e7faaa"},"vehicle_type_id":"4","last_reported":1707854859,"current_range_meters":30800,"station_id":"ce4bhs92rcd13ifvqi0g","pricing_plan_id":"cebpf4jnsgd1na2vs0mg"},{"bike_id":"c9b88aad-86c2-4a51-9436-08e8586a0048","system_id":"levelo_inurba_marseille","lat":43.328318,"lon":5.366846,"is_reserved":false,"is_disabled":false,"rental_uris":{"android":"levelo://app?vid=c9b88aad-86c2-4a51-9436-08e8586a0048","ios":"levelo://app?vid=c9b88aad-86c2-4a51-9436-08e8586a0048"},"vehicle_type_id":"4","last_reported":1707854859,"current_range_meters":23600,"station_id":"ce4bhs92rcd13ifvqi0g","pricing_plan_id":"cebpf4jnsgd1na2vs0mg"},{"bike_id":"41cabaa6-fb04-4591-b0e8-079b09bfd970","system_id":"levelo_inurba_marseille","lat":43.32832,"lon":5.36693,"is_reserved":false,"is_disabled":false,"rental_uris":{"android":"levelo://app?vid=41cabaa6-fb04-4591-b0e8-079b09bfd970","ios":"levelo://app?vid=41cabaa6-fb04-4591-b0e8-079b09bfd970"},"vehicle_type_id":"4","last_reported":1707854859,"current_range_meters":0,"station_id":"ce4bhs92rcd13ifvqi0g","pricing_plan_id":"cebpf4jnsgd1na2vs0mg"},{"bike_id":"e53477e0-6f81-44d0-bf92-8c0c4ae8ef5b","system_id":"levelo_inurba_marseille","lat":43.32832,"lon":5.36686,"is_reserved":false,"is_disabled":false,"rental_uris":{"android":"levelo://app?vid=e53477e0-6f81-44d0-bf92-8c0c4ae8ef5b","ios":"levelo://app?vid=e53477e0-6f81-44d0-bf92-8c0c4ae8ef5b"},"vehicle_type_id":"4","last_reported":1707854859,"current_range_meters":24000,"station_id":"ce4bhs92rcd13ifvqi0g","pricing_plan_id":"cebpf4jnsgd1na2vs0mg"},{"bike_id":"8b36ce43-3bc7-4f8a-bb1e-1f87c12ac26a","system_id":"levelo_inurba_marseille","lat":43.328344,"lon":5.366854,"is_reserved":false,"is_disabled":false,"rental_uris":{"android":"levelo://app?vid=8b36ce43-3bc7-4f8a-bb1e-1f87c12ac26a","ios":"levelo://app?vid=8b36ce43-3bc7-4f8a-bb1e-1f87c12ac26a"},"vehicle_type_id":"4","last_reported":1707854859,"current_range_meters":13600,"station_id":"ce4bhs92rcd13ifvqi0g","pricing_plan_id":"cebpf4jnsgd1na2vs0mg"},{"bike_id":"f13968be-ff01-484e-90e7-f7595d28950b","system_id":"levelo_inurba_marseille","lat":43.297145,"lon":5.366035,"is_reserved":false,"is_disabled":false,"rental_uris":{"android":"levelo://app?vid=f13968be-ff01-484e-90e7-f7595d28950b","ios":"levelo://app?vid=f13968be-ff01-484e-90e7-f7595d28950b"},"vehicle_type_id":"4","last_reported":1707854859,"current_range_meters":0,"station_id":"ce4bgn12rcd13ifvqbt0","pricing_plan_id":"cebpf4jnsgd1na2vs0mg"},{"bike_id":"38c9b4a3-3930-4aa1-aad5-ceff1d6b05fe","system_id":"levelo_inurba_marseille","lat":43.32835,"lon":5.36688,"is_reserved":false,"is_disabled":false,"rental_uris":{"android":"levelo://app?vid=38c9b4a3-3930-4aa1-aad5-ceff1d6b05fe","ios":"levelo://app?vid=38c9b4a3-3930-4aa1-aad5-ceff1d6b05fe"},"vehicle_type_id":"4","last_reported":1707854859,"current_range_meters":13600,"station_id":"ce4bhs92rcd13ifvqi0g","pricing_plan_id":"cebpf4jnsgd1na2vs0mg"},{"bike_id":"f0bdb3aa-446a-4950-8c71-da0f696bdf73","system_id":"levelo_inurba_marseille","lat":43.297163,"lon":5.365866,"is_reserved":false,"is_disabled":false,"rental_uris":{"android":"levelo://app?vid=f0bdb3aa-446a-4950-8c71-da0f696bdf73","ios":"levelo://app?vid=f0bdb3aa-446a-4950-8c71-da0f696bdf73"},"vehicle_type_id":"4","last_reported":1707854859,"current_range_meters":16800,"station_id":"ce4bgn12rcd13ifvqbt0","pricing_plan_id":"cebpf4jnsgd1na2vs0mg"},{"bike_id":"f4bc5f5b-9db1-4cc7-91ef-45246b43f923","system_id":"levelo_inurba_marseille","lat":43.297163,"lon":5.365866,"is_reserved":false,"is_disabled":false,"rental_uris":{"android":"levelo://app?vid=f4bc5f5b-9db1-4cc7-91ef-45246b43f923","ios":"levelo://app?vid=f4bc5f5b-9db1-4cc7-91ef-45246b43f923"},"vehicle_type_id":"4","last_reported":1707854859,"current_range_meters":10400,"station_id":"ce4bgn12rcd13ifvqbt0","pricing_plan_id":"cebpf4jnsgd1na2vs0mg"},{"bike_id":"0435d52c-b7e7-462c-acda-8d7fa0c88b94","system_id":"levelo_inurba_marseille","lat":43.297057,"lon":5.366063,"is_reserved":false,"is_disabled":false,"rental_uris":{"android":"levelo://app?vid=0435d52c-b7e7-462c-acda-8d7fa0c88b94","ios":"levelo://app?vid=0435d52c-b7e7-462c-acda-8d7fa0c88b94"},"vehicle_type_id":"4","last_reported":1707854859,"current_range_meters":17600,"station_id":"ce4bgn12rcd13ifvqbt0","pricing_plan_id":"cebpf4jnsgd1na2vs0mg"},{"bike_id":"c1cf6b3f-2bbd-4cb1-b8c2-b93d2ebfe323","system_id":"levelo_inurba_marseille","lat":43.297163,"lon":5.365866,"is_reserved":false,"is_disabled":false,"rental_uris":{"android":"levelo://app?vid=c1cf6b3f-2bbd-4cb1-b8c2-b93d2ebfe323","ios":"levelo://app?vid=c1cf6b3f-2bbd-4cb1-b8c2-b93d2ebfe323"},"vehicle_type_id":"4","last_reported":1707854859,"current_range_meters":6000,"station_id":"ce4bgn12rcd13ifvqbt0","pricing_plan_id":"cebpf4jnsgd1na2vs0mg"},{"bike_id":"b3224c42-1ebd-4e2c-8c55-ff559ab369aa","system_id":"levelo_inurba_marseille","lat":43.297163,"lon":5.365866,"is_reserved":false,"is_disabled":false,"rental_uris":{"android":"levelo://app?vid=b3224c42-1ebd-4e2c-8c55-ff559ab369aa","ios":"levelo://app?vid=b3224c42-1ebd-4e2c-8c55-ff559ab369aa"},"vehicle_type_id":"4","last_reported":1707854859,"current_range_meters":11200,"station_id":"ce4bgn12rcd13ifvqbt0","pricing_plan_id":"cebpf4jnsgd1na2vs0mg"},{"bike_id":"c4b5125b-06d0-4865-b239-c248f4688648","system_id":"levelo_inurba_marseille","lat":43.29841,"lon":5.3773,"is_reserved":false,"is_disabled":false,"rental_uris":{"android":"levelo://app?vid=c4b5125b-06d0-4865-b239-c248f4688648","ios":"levelo://app?vid=c4b5125b-06d0-4865-b239-c248f4688648"},"vehicle_type_id":"4","last_reported":1707854859,"current_range_meters":6800,"station_id":"","pricing_plan_id":"cebpf4jnsgd1na2vs0mg"},{"bike_id":"8c5f1e27-1508-4878-afb8-78079d9b7dfb","system_id":"levelo_inurba_marseille","lat":43.29738,"lon":5.3752,"is_reserved":false,"is_disabled":false,"rental_uris":{"android":"levelo://app?vid=8c5f1e27-1508-4878-afb8-78079d9b7dfb","ios":"levelo://app?vid=8c5f1e27-1508-4878-afb8-78079d9b7dfb"},"vehicle_type_id":"4","last_reported":1707854859,"current_range_meters":1200,"station_id":"","pricing_plan_id":"cebpf4jnsgd1na2vs0mg"},{"bike_id":"a1a12834-fb5c-40f5-9864-185f538aff9c","system_id":"levelo_inurba_marseille","lat":43.299028,"lon":5.381509,"is_reserved":false,"is_disabled":false,"rental_uris":{"android":"levelo://app?vid=a1a12834-fb5c-40f5-9864-185f538aff9c","ios":"levelo://app?vid=a1a12834-fb5c-40f5-9864-185f538aff9c"},"vehicle_type_id":"4","last_reported":1707854859,"current_range_meters":2000,"station_id":"ce4bgj12rcd13ifvqbc0","pricing_plan_id":"cebpf4jnsgd1na2vs0mg"},{"bike_id":"f902c375-b225-4ad1-976c-fff3baa4b7ed","system_id":"levelo_inurba_marseille","lat":43.309589,"lon":5.390258,"is_reserved":false,"is_disabled":false,"rental_uris":{"android":"levelo://app?vid=f902c375-b225-4ad1-976c-fff3baa4b7ed","ios":"levelo://app?vid=f902c375-b225-4ad1-976c-fff3baa4b7ed"},"vehicle_type_id":"4","last_reported":1707854859,"current_range_meters":22800,"station_id":"ce4bgup2rcd13ifvqco0","pricing_plan_id":"cebpf4jnsgd1na2vs0mg"},{"bike_id":"13db1a0a-84c8-4ba0-87f6-9800285e27fa","system_id":"levelo_inurba_marseille","lat":43.317557,"lon":5.390173,"is_reserved":false,"is_disabled":false,"rental_uris":{"android":"levelo://app?vid=13db1a0a-84c8-4ba0-87f6-9800285e27fa","ios":"levelo://app?vid=13db1a0a-84c8-4ba0-87f6-9800285e27fa"},"vehicle_type_id":"4","last_reported":1707854859,"current_range_meters":23200,"station_id":"ce4bhqp2rcd13ifvqhng","pricing_plan_id":"cebpf4jnsgd1na2vs0mg"},{"bike_id":"095b561f-b67d-4dfc-8b7b-24904c0d74fe","system_id":"levelo_inurba_marseille","lat":43.31755,"lon":5.39011,"is_reserved":false,"is_disabled":false,"rental_uris":{"android":"levelo://app?vid=095b561f-b67d-4dfc-8b7b-24904c0d74fe","ios":"levelo://app?vid=095b561f-b67d-4dfc-8b7b-24904c0d74fe"},"vehicle_type_id":"4","last_reported":1707854859,"current_range_meters":22400,"station_id":"ce4bhqp2rcd13ifvqhng","pricing_plan_id":"cebpf4jnsgd1na2vs0mg"},{"bike_id":"a49498e4-76a2-4a02-ae1f-68c796c15f59","system_id":"levelo_inurba_marseille","lat":43.31753,"lon":5.39015,"is_reserved":false,"is_disabled":false,"rental_uris":{"android":"levelo://app?vid=a49498e4-76a2-4a02-ae1f-68c796c15f59","ios":"levelo://app?vid=a49498e4-76a2-4a02-ae1f-68c796c15f59"},"vehicle_type_id":"4","last_reported":1707854859,"current_range_meters":1200,"station_id":"ce4bhqp2rcd13ifvqhng","pricing_plan_id":"cebpf4jnsgd1na2vs0mg"},{"bike_id":"0d568f49-9e25-417a-91e9-babe78949eca","system_id":"levelo_inurba_marseille","lat":43.317557,"lon":5.390173,"is_reserved":false,"is_disabled":false,"rental_uris":{"android":"levelo://app?vid=0d568f49-9e25-417a-91e9-babe78949eca","ios":"levelo://app?vid=0d568f49-9e25-417a-91e9-babe78949eca"},"vehicle_type_id":"4","last_reported":1707854859,"current_range_meters":30800,"station_id":"ce4bhqp2rcd13ifvqhng","pricing_plan_id":"cebpf4jnsgd1na2vs0mg"},{"bike_id":"39c94f4e-94d9-4b12-aff8-cdb6b284c034","system_id":"levelo_inurba_marseille","lat":43.317557,"lon":5.390173,"is_reserved":false,"is_disabled":false,"rental_uris":{"android":"levelo://app?vid=39c94f4e-94d9-4b12-aff8-cdb6b284c034","ios":"levelo://app?vid=39c94f4e-94d9-4b12-aff8-cdb6b284c034"},"vehicle_type_id":"4","last_reported":1707854859,"current_range_meters":21600,"station_id":"ce4bhqp2rcd13ifvqhng","pricing_plan_id":"cebpf4jnsgd1na2vs0mg"},{"bike_id":"46fddee0-8afd-4938-8611-aae2e5c099d9","system_id":"levelo_inurba_marseille","lat":43.317557,"lon":5.390173,"is_reserved":false,"is_disabled":false,"rental_uris":{"android":"levelo://app?vid=46fddee0-8afd-4938-8611-aae2e5c099d9","ios":"levelo://app?vid=46fddee0-8afd-4938-8611-aae2e5c099d9"},"vehicle_type_id":"4","last_reported":1707854859,"current_range_meters":29200,"station_id":"ce4bhqp2rcd13ifvqhng","pricing_plan_id":"cebpf4jnsgd1na2vs0mg"},{"bike_id":"9310559c-22d3-4744-8b16-cacb48dba489","system_id":"levelo_inurba_marseille","lat":43.317557,"lon":5.390173,"is_reserved":false,"is_disabled":false,"rental_uris":{"android":"levelo://app?vid=9310559c-22d3-4744-8b16-cacb48dba489","ios":"levelo://app?vid=9310559c-22d3-4744-8b16-cacb48dba489"},"vehicle_type_id":"4","last_reported":1707854859,"current_range_meters":31600,"station_id":"ce4bhqp2rcd13ifvqhng","pricing_plan_id":"cebpf4jnsgd1na2vs0mg"},{"bike_id":"1283398e-1c0e-4cca-9df7-0413f541a207","system_id":"levelo_inurba_marseille","lat":43.317557,"lon":5.390173,"is_reserved":false,"is_disabled":false,"rental_uris":{"android":"levelo://app?vid=1283398e-1c0e-4cca-9df7-0413f541a207","ios":"levelo://app?vid=1283398e-1c0e-4cca-9df7-0413f541a207"},"vehicle_type_id":"4","last_reported":1707854859,"current_range_meters":19200,"station_id":"ce4bhqp2rcd13ifvqhng","pricing_plan_id":"cebpf4jnsgd1na2vs0mg"},{"bike_id":"6bbdbcf9-8545-4c1a-866f-b1aacd2086cc","system_id":"levelo_inurba_marseille","lat":43.317557,"lon":5.390173,"is_reserved":false,"is_disabled":false,"rental_uris":{"android":"levelo://app?vid=6bbdbcf9-8545-4c1a-866f-b1aacd2086cc","ios":"levelo://app?vid=6bbdbcf9-8545-4c1a-866f-b1aacd2086cc"},"vehicle_type_id":"4","last_reported":1707854859,"current_range_meters":21600,"station_id":"ce4bhqp2rcd13ifvqhng","pricing_plan_id":"cebpf4jnsgd1na2vs0mg"},{"bike_id":"a66fec16-5c26-4073-bc2a-b4cafe2573db","system_id":"levelo_inurba_marseille","lat":43.2975,"lon":5.37929,"is_reserved":false,"is_disabled":false,"rental_uris":{"android":"levelo://app?vid=a66fec16-5c26-4073-bc2a-b4cafe2573db","ios":"levelo://app?vid=a66fec16-5c26-4073-bc2a-b4cafe2573db"},"vehicle_type_id":"4","last_reported":1707854859,"current_range_meters":3600,"station_id":"","pricing_plan_id":"cebpf4jnsgd1na2vs0mg"},{"bike_id":"87dca717-0ccb-4731-8b48-48db74325e38","system_id":"levelo_inurba_marseille","lat":43.29797,"lon":5.38084,"is_reserved":false,"is_disabled":false,"rental_uris":{"android":"levelo://app?vid=87dca717-0ccb-4731-8b48-48db74325e38","ios":"levelo://app?vid=87dca717-0ccb-4731-8b48-48db74325e38"},"vehicle_type_id":"4","last_reported":1707854859,"current_range_meters":31200,"station_id":"ce4bgip2rcd13ifvqbb0","pricing_plan_id":"cebpf4jnsgd1na2vs0mg"},{"bike_id":"cfbbf573-b4f8-4883-baf0-ceacbdeda221","system_id":"levelo_inurba_marseille","lat":43.29798,"lon":5.38093,"is_reserved":false,"is_disabled":false,"rental_uris":{"android":"levelo://app?vid=cfbbf573-b4f8-4883-baf0-ceacbdeda221","ios":"levelo://app?vid=cfbbf573-b4f8-4883-baf0-ceacbdeda221"},"vehicle_type_id":"4","last_reported":1707854859,"current_range_meters":13600,"station_id":"ce4bgip2rcd13ifvqbb0","pricing_plan_id":"cebpf4jnsgd1na2vs0mg"},{"bike_id":"becb4e44-bf81-462f-9fb2-a3edbc92f6de","system_id":"levelo_inurba_marseille","lat":43.29579,"lon":5.37514,"is_reserved":false,"is_disabled":false,"rental_uris":{"android":"levelo://app?vid=becb4e44-bf81-462f-9fb2-a3edbc92f6de","ios":"levelo://app?vid=becb4e44-bf81-462f-9fb2-a3edbc92f6de"},"vehicle_type_id":"4","last_reported":1707854859,"current_range_meters":0,"station_id":"ce4bgh92rcd13ifvqb50","pricing_plan_id":"cebpf4jnsgd1na2vs0mg"},{"bike_id":"d0c7f4f6-d411-4aa0-a796-04cee7c77609","system_id":"levelo_inurba_marseille","lat":43.30439,"lon":5.38887,"is_reserved":false,"is_disabled":false,"rental_uris":{"android":"levelo://app?vid=d0c7f4f6-d411-4aa0-a796-04cee7c77609","ios":"levelo://app?vid=d0c7f4f6-d411-4aa0-a796-04cee7c77609"},"vehicle_type_id":"4","last_reported":1707854859,"current_range_meters":17600,"station_id":"ce4bgk12rcd13ifvqbi0","pricing_plan_id":"cebpf4jnsgd1na2vs0mg"},{"bike_id":"648d6e7b-9a06-437a-aee6-63816bb138cb","system_id":"levelo_inurba_marseille","lat":43.304278,"lon":5.388868,"is_reserved":false,"is_disabled":false,"rental_uris":{"android":"levelo://app?vid=648d6e7b-9a06-437a-aee6-63816bb138cb","ios":"levelo://app?vid=648d6e7b-9a06-437a-aee6-63816bb138cb"},"vehicle_type_id":"4","last_reported":1707854859,"current_range_meters":12800,"station_id":"ce4bgk12rcd13ifvqbi0","pricing_plan_id":"cebpf4jnsgd1na2vs0mg"},{"bike_id":"b946e06c-b1ec-4efa-b7eb-75e5a966e20a","system_id":"levelo_inurba_marseille","lat":43.29567,"lon":5.37502,"is_reserved":false,"is_disabled":false,"rental_uris":{"android":"levelo://app?vid=b946e06c-b1ec-4efa-b7eb-75e5a966e20a","ios":"levelo://app?vid=b946e06c-b1ec-4efa-b7eb-75e5a966e20a"},"vehicle_type_id":"4","last_reported":1707854859,"current_range_meters":0,"station_id":"ce4bgh92rcd13ifvqb50","pricing_plan_id":"cebpf4jnsgd1na2vs0mg"},{"bike_id":"a16da45b-41cc-478c-8540-ff84e3a3bb46","system_id":"levelo_inurba_marseille","lat":43.298037,"lon":5.381066,"is_reserved":false,"is_disabled":false,"rental_uris":{"android":"levelo://app?vid=a16da45b-41cc-478c-8540-ff84e3a3bb46","ios":"levelo://app?vid=a16da45b-41cc-478c-8540-ff84e3a3bb46"},"vehicle_type_id":"4","last_reported":1707854859,"current_range_meters":0,"station_id":"ce4bgip2rcd13ifvqbb0","pricing_plan_id":"cebpf4jnsgd1na2vs0mg"},{"bike_id":"b1e8ccbf-c188-4947-bc25-f8729ea27cea","system_id":"levelo_inurba_marseille","lat":43.304274,"lon":5.388873,"is_reserved":false,"is_disabled":false,"rental_uris":{"android":"levelo://app?vid=b1e8ccbf-c188-4947-bc25-f8729ea27cea","ios":"levelo://app?vid=b1e8ccbf-c188-4947-bc25-f8729ea27cea"},"vehicle_type_id":"4","last_reported":1707854859,"current_range_meters":11600,"station_id":"ce4bgk12rcd13ifvqbi0","pricing_plan_id":"cebpf4jnsgd1na2vs0mg"},{"bike_id":"fb40a290-c4a5-448c-bced-c10a9fae6fb4","system_id":"levelo_inurba_marseille","lat":43.304563,"lon":5.389159,"is_reserved":false,"is_disabled":false,"rental_uris":{"android":"levelo://app?vid=fb40a290-c4a5-448c-bced-c10a9fae6fb4","ios":"levelo://app?vid=fb40a290-c4a5-448c-bced-c10a9fae6fb4"},"vehicle_type_id":"4","last_reported":1707854859,"current_range_meters":0,"station_id":"ce4bgk12rcd13ifvqbi0","pricing_plan_id":"cebpf4jnsgd1na2vs0mg"},{"bike_id":"5bfcd11b-5728-4d0c-bfd7-b7b1204b8306","system_id":"levelo_inurba_marseille","lat":43.296129,"lon":5.377103,"is_reserved":false,"is_disabled":false,"rental_uris":{"android":"levelo://app?vid=5bfcd11b-5728-4d0c-bfd7-b7b1204b8306","ios":"levelo://app?vid=5bfcd11b-5728-4d0c-bfd7-b7b1204b8306"},"vehicle_type_id":"4","last_reported":1707854859,"current_range_meters":7200,"station_id":"ce4bgi92rcd13ifvqb90","pricing_plan_id":"cebpf4jnsgd1na2vs0mg"},{"bike_id":"88dcc8fa-eda2-406e-8daa-4a86ad32696c","system_id":"levelo_inurba_marseille","lat":43.296143,"lon":5.37725,"is_reserved":false,"is_disabled":false,"rental_uris":{"android":"levelo://app?vid=88dcc8fa-eda2-406e-8daa-4a86ad32696c","ios":"levelo://app?vid=88dcc8fa-eda2-406e-8daa-4a86ad32696c"},"vehicle_type_id":"4","last_reported":1707854859,"current_range_meters":22400,"station_id":"ce4bgi92rcd13ifvqb90","pricing_plan_id":"cebpf4jnsgd1na2vs0mg"},{"bike_id":"705da99b-eb32-4593-9ce5-3afb7f6b914a","system_id":"levelo_inurba_marseille","lat":43.29604,"lon":5.37719,"is_reserved":false,"is_disabled":false,"rental_uris":{"android":"levelo://app?vid=705da99b-eb32-4593-9ce5-3afb7f6b914a","ios":"levelo://app?vid=705da99b-eb32-4593-9ce5-3afb7f6b914a"},"vehicle_type_id":"4","last_reported":1707854859,"current_range_meters":0,"station_id":"ce4bgi92rcd13ifvqb90","pricing_plan_id":"cebpf4jnsgd1na2vs0mg"},{"bike_id":"2e6000ed-f085-45da-a7be-7ee3f13507f7","system_id":"levelo_inurba_marseille","lat":43.295279,"lon":5.375048,"is_reserved":false,"is_disabled":false,"rental_uris":{"android":"levelo://app?vid=2e6000ed-f085-45da-a7be-7ee3f13507f7","ios":"levelo://app?vid=2e6000ed-f085-45da-a7be-7ee3f13507f7"},"vehicle_type_id":"4","last_reported":1707854859,"current_range_meters":2800,"station_id":"ce4bgkp2rcd13ifvqbmg","pricing_plan_id":"cebpf4jnsgd1na2vs0mg"},{"bike_id":"f4241b33-222d-4698-afdb-93bcfa5a5ffe","system_id":"levelo_inurba_marseille","lat":43.295279,"lon":5.375048,"is_reserved":false,"is_disabled":false,"rental_uris":{"android":"levelo://app?vid=f4241b33-222d-4698-afdb-93bcfa5a5ffe","ios":"levelo://app?vid=f4241b33-222d-4698-afdb-93bcfa5a5ffe"},"vehicle_type_id":"4","last_reported":1707854859,"current_range_meters":28000,"station_id":"ce4bgkp2rcd13ifvqbmg","pricing_plan_id":"cebpf4jnsgd1na2vs0mg"},{"bike_id":"dda016c9-25a8-4e98-89c2-61cf41b68115","system_id":"levelo_inurba_marseille","lat":43.3237,"lon":5.38878,"is_reserved":false,"is_disabled":false,"rental_uris":{"android":"levelo://app?vid=dda016c9-25a8-4e98-89c2-61cf41b68115","ios":"levelo://app?vid=dda016c9-25a8-4e98-89c2-61cf41b68115"},"vehicle_type_id":"4","last_reported":1707854859,"current_range_meters":14800,"station_id":"ce4bhqp2rcd13ifvqhog","pricing_plan_id":"cebpf4jnsgd1na2vs0mg"},{"bike_id":"717fae1b-74a7-49b2-b4c9-1f50976a1b71","system_id":"levelo_inurba_marseille","lat":43.32367,"lon":5.388836,"is_reserved":false,"is_disabled":false,"rental_uris":{"android":"levelo://app?vid=717fae1b-74a7-49b2-b4c9-1f50976a1b71","ios":"levelo://app?vid=717fae1b-74a7-49b2-b4c9-1f50976a1b71"},"vehicle_type_id":"4","last_reported":1707854859,"current_range_meters":21200,"station_id":"ce4bhqp2rcd13ifvqhog","pricing_plan_id":"cebpf4jnsgd1na2vs0mg"},{"bike_id":"5d8b3fba-147e-4ac8-adcf-37e2745b4edf","system_id":"levelo_inurba_marseille","lat":43.32367,"lon":5.388836,"is_reserved":false,"is_disabled":false,"rental_uris":{"android":"levelo://app?vid=5d8b3fba-147e-4ac8-adcf-37e2745b4edf","ios":"levelo://app?vid=5d8b3fba-147e-4ac8-adcf-37e2745b4edf"},"vehicle_type_id":"4","last_reported":1707854859,"current_range_meters":16000,"station_id":"ce4bhqp2rcd13ifvqhog","pricing_plan_id":"cebpf4jnsgd1na2vs0mg"},{"bike_id":"c814b3c0-3206-4333-9010-f90f4bcf60b7","system_id":"levelo_inurba_marseille","lat":43.32367,"lon":5.38889,"is_reserved":false,"is_disabled":false,"rental_uris":{"android":"levelo://app?vid=c814b3c0-3206-4333-9010-f90f4bcf60b7","ios":"levelo://app?vid=c814b3c0-3206-4333-9010-f90f4bcf60b7"},"vehicle_type_id":"4","last_reported":1707854859,"current_range_meters":26000,"station_id":"ce4bhqp2rcd13ifvqhog","pricing_plan_id":"cebpf4jnsgd1na2vs0mg"},{"bike_id":"167f4392-5a0b-412f-b675-e86e5288c565","system_id":"levelo_inurba_marseille","lat":43.29602,"lon":5.381084,"is_reserved":false,"is_disabled":false,"rental_uris":{"android":"levelo://app?vid=167f4392-5a0b-412f-b675-e86e5288c565","ios":"levelo://app?vid=167f4392-5a0b-412f-b675-e86e5288c565"},"vehicle_type_id":"4","last_reported":1707854859,"current_range_meters":4400,"station_id":"ce4bgl12rcd13ifvqbo0","pricing_plan_id":"cebpf4jnsgd1na2vs0mg"},{"bike_id":"45773e81-db28-42ad-bc0e-3c34e70d2d2b","system_id":"levelo_inurba_marseille","lat":43.29601,"lon":5.381084,"is_reserved":false,"is_disabled":false,"rental_uris":{"android":"levelo://app?vid=45773e81-db28-42ad-bc0e-3c34e70d2d2b","ios":"levelo://app?vid=45773e81-db28-42ad-bc0e-3c34e70d2d2b"},"vehicle_type_id":"4","last_reported":1707854859,"current_range_meters":27200,"station_id":"ce4bgl12rcd13ifvqbo0","pricing_plan_id":"cebpf4jnsgd1na2vs0mg"},{"bike_id":"6737bbf8-b8d5-423a-9664-da6a3f97ac7f","system_id":"levelo_inurba_marseille","lat":43.29602,"lon":5.381084,"is_reserved":false,"is_disabled":false,"rental_uris":{"android":"levelo://app?vid=6737bbf8-b8d5-423a-9664-da6a3f97ac7f","ios":"levelo://app?vid=6737bbf8-b8d5-423a-9664-da6a3f97ac7f"},"vehicle_type_id":"4","last_reported":1707854859,"current_range_meters":18400,"station_id":"ce4bgl12rcd13ifvqbo0","pricing_plan_id":"cebpf4jnsgd1na2vs0mg"},{"bike_id":"413e9b16-f6d6-4281-9921-6ff1dbcea212","system_id":"levelo_inurba_marseille","lat":43.29602,"lon":5.381084,"is_reserved":false,"is_disabled":false,"rental_uris":{"android":"levelo://app?vid=413e9b16-f6d6-4281-9921-6ff1dbcea212","ios":"levelo://app?vid=413e9b16-f6d6-4281-9921-6ff1dbcea212"},"vehicle_type_id":"4","last_reported":1707854859,"current_range_meters":31200,"station_id":"ce4bgl12rcd13ifvqbo0","pricing_plan_id":"cebpf4jnsgd1na2vs0mg"},{"bike_id":"cbf92c30-251e-4849-b6a2-dc7d8c0d5dec","system_id":"levelo_inurba_marseille","lat":43.29601,"lon":5.381084,"is_reserved":false,"is_disabled":false,"rental_uris":{"android":"levelo://app?vid=cbf92c30-251e-4849-b6a2-dc7d8c0d5dec","ios":"levelo://app?vid=cbf92c30-251e-4849-b6a2-dc7d8c0d5dec"},"vehicle_type_id":"4","last_reported":1707854859,"current_range_meters":3600,"station_id":"ce4bgl12rcd13ifvqbo0","pricing_plan_id":"cebpf4jnsgd1na2vs0mg"},{"bike_id":"d6b36867-62f4-4e8e-bf3e-e7fc58c70079","system_id":"levelo_inurba_marseille","lat":43.2931,"lon":5.37178,"is_reserved":false,"is_disabled":false,"rental_uris":{"android":"levelo://app?vid=d6b36867-62f4-4e8e-bf3e-e7fc58c70079","ios":"levelo://app?vid=d6b36867-62f4-4e8e-bf3e-e7fc58c70079"},"vehicle_type_id":"4","last_reported":1707854859,"current_range_meters":2400,"station_id":"ce4bgh92rcd13ifvqb40","pricing_plan_id":"cebpf4jnsgd1na2vs0mg"},{"bike_id":"cb4629c6-5921-4316-bf1e-8908bd00249c","system_id":"levelo_inurba_marseille","lat":43.293062,"lon":5.371772,"is_reserved":false,"is_disabled":false,"rental_uris":{"android":"levelo://app?vid=cb4629c6-5921-4316-bf1e-8908bd00249c","ios":"levelo://app?vid=cb4629c6-5921-4316-bf1e-8908bd00249c"},"vehicle_type_id":"4","last_reported":1707854859,"current_range_meters":2400,"station_id":"ce4bgh92rcd13ifvqb40","pricing_plan_id":"cebpf4jnsgd1na2vs0mg"},{"bike_id":"ab3742d6-bfbf-4a19-b030-e4f618aa6ed7","system_id":"levelo_inurba_marseille","lat":43.303002,"lon":5.392142,"is_reserved":false,"is_disabled":false,"rental_uris":{"android":"levelo://app?vid=ab3742d6-bfbf-4a19-b030-e4f618aa6ed7","ios":"levelo://app?vid=ab3742d6-bfbf-4a19-b030-e4f618aa6ed7"},"vehicle_type_id":"4","last_reported":1707854859,"current_range_meters":21600,"station_id":"ce4bgkh2rcd13ifvqbk0","pricing_plan_id":"cebpf4jnsgd1na2vs0mg"},{"bike_id":"dafed823-2a13-4e36-9011-3a3ea52ad392","system_id":"levelo_inurba_marseille","lat":43.293009,"lon":5.374584,"is_reserved":false,"is_disabled":false,"rental_uris":{"android":"levelo://app?vid=dafed823-2a13-4e36-9011-3a3ea52ad392","ios":"levelo://app?vid=dafed823-2a13-4e36-9011-3a3ea52ad392"},"vehicle_type_id":"4","last_reported":1707854859,"current_range_meters":0,"station_id":"ce4bgi12rcd13ifvqb70","pricing_plan_id":"cebpf4jnsgd1na2vs0mg"},{"bike_id":"93f66e2b-d781-4a8d-ae9e-854843841ad0","system_id":"levelo_inurba_marseille","lat":43.293009,"lon":5.374584,"is_reserved":false,"is_disabled":false,"rental_uris":{"android":"levelo://app?vid=93f66e2b-d781-4a8d-ae9e-854843841ad0","ios":"levelo://app?vid=93f66e2b-d781-4a8d-ae9e-854843841ad0"},"vehicle_type_id":"4","last_reported":1707854859,"current_range_meters":0,"station_id":"ce4bgi12rcd13ifvqb70","pricing_plan_id":"cebpf4jnsgd1na2vs0mg"},{"bike_id":"398bdc21-5b3d-464d-82f6-a3a6ad6d42db","system_id":"levelo_inurba_marseille","lat":43.29296,"lon":5.3745,"is_reserved":false,"is_disabled":false,"rental_uris":{"android":"levelo://app?vid=398bdc21-5b3d-464d-82f6-a3a6ad6d42db","ios":"levelo://app?vid=398bdc21-5b3d-464d-82f6-a3a6ad6d42db"},"vehicle_type_id":"4","last_reported":1707854859,"current_range_meters":0,"station_id":"ce4bgi12rcd13ifvqb70","pricing_plan_id":"cebpf4jnsgd1na2vs0mg"},{"bike_id":"92d5fc08-6b5c-41a9-875a-02634adc37aa","system_id":"levelo_inurba_marseille","lat":43.305994,"lon":5.393687,"is_reserved":false,"is_disabled":false,"rental_uris":{"android":"levelo://app?vid=92d5fc08-6b5c-41a9-875a-02634adc37aa","ios":"levelo://app?vid=92d5fc08-6b5c-41a9-875a-02634adc37aa"},"vehicle_type_id":"4","last_reported":1707854859,"current_range_meters":31200,"station_id":"ce4bh0p2rcd13ifvqd80","pricing_plan_id":"cebpf4jnsgd1na2vs0mg"},{"bike_id":"6dd66214-c896-402d-9b87-add061b95e25","system_id":"levelo_inurba_marseille","lat":43.293009,"lon":5.374584,"is_reserved":false,"is_disabled":false,"rental_uris":{"android":"levelo://app?vid=6dd66214-c896-402d-9b87-add061b95e25","ios":"levelo://app?vid=6dd66214-c896-402d-9b87-add061b95e25"},"vehicle_type_id":"4","last_reported":1707854859,"current_range_meters":22400,"station_id":"ce4bgi12rcd13ifvqb70","pricing_plan_id":"cebpf4jnsgd1na2vs0mg"},{"bike_id":"6b1b40eb-7df6-4e5f-b6b9-8345877823d9","system_id":"levelo_inurba_marseille","lat":43.305986,"lon":5.393646,"is_reserved":false,"is_disabled":false,"rental_uris":{"android":"levelo://app?vid=6b1b40eb-7df6-4e5f-b6b9-8345877823d9","ios":"levelo://app?vid=6b1b40eb-7df6-4e5f-b6b9-8345877823d9"},"vehicle_type_id":"4","last_reported":1707854859,"current_range_meters":4000,"station_id":"","pricing_plan_id":"cebpf4jnsgd1na2vs0mg"},{"bike_id":"803fc02d-4b2c-4cdd-901c-6234c348e6ff","system_id":"levelo_inurba_marseille","lat":43.302992,"lon":5.392136,"is_reserved":false,"is_disabled":false,"rental_uris":{"android":"levelo://app?vid=803fc02d-4b2c-4cdd-901c-6234c348e6ff","ios":"levelo://app?vid=803fc02d-4b2c-4cdd-901c-6234c348e6ff"},"vehicle_type_id":"4","last_reported":1707854859,"current_range_meters":5600,"station_id":"ce4bgkh2rcd13ifvqbk0","pricing_plan_id":"cebpf4jnsgd1na2vs0mg"},{"bike_id":"44af555d-6925-48bc-93a4-4c4fd150e3b5","system_id":"levelo_inurba_marseille","lat":43.300852,"lon":5.390859,"is_reserved":false,"is_disabled":false,"rental_uris":{"android":"levelo://app?vid=44af555d-6925-48bc-93a4-4c4fd150e3b5","ios":"levelo://app?vid=44af555d-6925-48bc-93a4-4c4fd150e3b5"},"vehicle_type_id":"4","last_reported":1707854859,"current_range_meters":3200,"station_id":"ce4bh192rcd13ifvqdb0","pricing_plan_id":"cebpf4jnsgd1na2vs0mg"},{"bike_id":"308fdf24-b628-413f-ac53-db9a2b29ab51","system_id":"levelo_inurba_marseille","lat":43.292883,"lon":5.374713,"is_reserved":false,"is_disabled":false,"rental_uris":{"android":"levelo://app?vid=308fdf24-b628-413f-ac53-db9a2b29ab51","ios":"levelo://app?vid=308fdf24-b628-413f-ac53-db9a2b29ab51"},"vehicle_type_id":"4","last_reported":1707854859,"current_range_meters":0,"station_id":"ce4bgi12rcd13ifvqb70","pricing_plan_id":"cebpf4jnsgd1na2vs0mg"},{"bike_id":"3e506839-5d34-4ffe-b632-80c675521151","system_id":"levelo_inurba_marseille","lat":43.302992,"lon":5.392136,"is_reserved":false,"is_disabled":false,"rental_uris":{"android":"levelo://app?vid=3e506839-5d34-4ffe-b632-80c675521151","ios":"levelo://app?vid=3e506839-5d34-4ffe-b632-80c675521151"},"vehicle_type_id":"4","last_reported":1707854859,"current_range_meters":17200,"station_id":"ce4bgkh2rcd13ifvqbk0","pricing_plan_id":"cebpf4jnsgd1na2vs0mg"},{"bike_id":"fda04180-27c1-4685-b10a-9f1eff944fe1","system_id":"levelo_inurba_marseille","lat":43.2936,"lon":5.37835,"is_reserved":false,"is_disabled":false,"rental_uris":{"android":"levelo://app?vid=fda04180-27c1-4685-b10a-9f1eff944fe1","ios":"levelo://app?vid=fda04180-27c1-4685-b10a-9f1eff944fe1"},"vehicle_type_id":"4","last_reported":1707854859,"current_range_meters":10800,"station_id":"ce4bgjh2rcd13ifvqbf0","pricing_plan_id":"cebpf4jnsgd1na2vs0mg"},{"bike_id":"8b67d7fa-5e2a-419a-9b88-7f954b0b05c9","system_id":"levelo_inurba_marseille","lat":43.2936,"lon":5.37835,"is_reserved":false,"is_disabled":false,"rental_uris":{"android":"levelo://app?vid=8b67d7fa-5e2a-419a-9b88-7f954b0b05c9","ios":"levelo://app?vid=8b67d7fa-5e2a-419a-9b88-7f954b0b05c9"},"vehicle_type_id":"4","last_reported":1707854859,"current_range_meters":14000,"station_id":"ce4bgjh2rcd13ifvqbf0","pricing_plan_id":"cebpf4jnsgd1na2vs0mg"},{"bike_id":"849de62d-6f56-4b22-8697-b88ce3f82b68","system_id":"levelo_inurba_marseille","lat":43.302992,"lon":5.392136,"is_reserved":false,"is_disabled":false,"rental_uris":{"android":"levelo://app?vid=849de62d-6f56-4b22-8697-b88ce3f82b68","ios":"levelo://app?vid=849de62d-6f56-4b22-8697-b88ce3f82b68"},"vehicle_type_id":"4","last_reported":1707854859,"current_range_meters":10000,"station_id":"ce4bgkh2rcd13ifvqbk0","pricing_plan_id":"cebpf4jnsgd1na2vs0mg"},{"bike_id":"6d00e0fc-6b11-45a2-b864-03dd79f275ad","system_id":"levelo_inurba_marseille","lat":43.305994,"lon":5.393687,"is_reserved":false,"is_disabled":false,"rental_uris":{"android":"levelo://app?vid=6d00e0fc-6b11-45a2-b864-03dd79f275ad","ios":"levelo://app?vid=6d00e0fc-6b11-45a2-b864-03dd79f275ad"},"vehicle_type_id":"4","last_reported":1707854859,"current_range_meters":2800,"station_id":"ce4bh0p2rcd13ifvqd80","pricing_plan_id":"cebpf4jnsgd1na2vs0mg"},{"bike_id":"8dad0ecc-22ce-451e-a8e0-293231d01d02","system_id":"levelo_inurba_marseille","lat":43.2936,"lon":5.37835,"is_reserved":false,"is_disabled":false,"rental_uris":{"android":"levelo://app?vid=8dad0ecc-22ce-451e-a8e0-293231d01d02","ios":"levelo://app?vid=8dad0ecc-22ce-451e-a8e0-293231d01d02"},"vehicle_type_id":"4","last_reported":1707854859,"current_range_meters":11600,"station_id":"ce4bgjh2rcd13ifvqbf0","pricing_plan_id":"cebpf4jnsgd1na2vs0mg"},{"bike_id":"d1fcc9fe-c662-411d-837a-61f6d215acd7","system_id":"levelo_inurba_marseille","lat":43.302992,"lon":5.392136,"is_reserved":false,"is_disabled":false,"rental_uris":{"android":"levelo://app?vid=d1fcc9fe-c662-411d-837a-61f6d215acd7","ios":"levelo://app?vid=d1fcc9fe-c662-411d-837a-61f6d215acd7"},"vehicle_type_id":"4","last_reported":1707854859,"current_range_meters":9200,"station_id":"ce4bgkh2rcd13ifvqbk0","pricing_plan_id":"cebpf4jnsgd1na2vs0mg"},{"bike_id":"528e171b-2846-49be-85d1-25495c8eeadb","system_id":"levelo_inurba_marseille","lat":43.300852,"lon":5.390859,"is_reserved":false,"is_disabled":false,"rental_uris":{"android":"levelo://app?vid=528e171b-2846-49be-85d1-25495c8eeadb","ios":"levelo://app?vid=528e171b-2846-49be-85d1-25495c8eeadb"},"vehicle_type_id":"4","last_reported":1707854859,"current_range_meters":3200,"station_id":"ce4bh192rcd13ifvqdb0","pricing_plan_id":"cebpf4jnsgd1na2vs0mg"},{"bike_id":"07dec9a0-4985-4455-8004-0265ea62c875","system_id":"levelo_inurba_marseille","lat":43.30085,"lon":5.390856,"is_reserved":false,"is_disabled":false,"rental_uris":{"android":"levelo://app?vid=07dec9a0-4985-4455-8004-0265ea62c875","ios":"levelo://app?vid=07dec9a0-4985-4455-8004-0265ea62c875"},"vehicle_type_id":"4","last_reported":1707854859,"current_range_meters":10400,"station_id":"ce4bh192rcd13ifvqdb0","pricing_plan_id":"cebpf4jnsgd1na2vs0mg"},{"bike_id":"b2ccfeb5-cc5f-46ae-87fa-03431038b48c","system_id":"levelo_inurba_marseille","lat":43.2936,"lon":5.37835,"is_reserved":false,"is_disabled":false,"rental_uris":{"android":"levelo://app?vid=b2ccfeb5-cc5f-46ae-87fa-03431038b48c","ios":"levelo://app?vid=b2ccfeb5-cc5f-46ae-87fa-03431038b48c"},"vehicle_type_id":"4","last_reported":1707854859,"current_range_meters":800,"station_id":"ce4bgjh2rcd13ifvqbf0","pricing_plan_id":"cebpf4jnsgd1na2vs0mg"},{"bike_id":"372d89c2-66e3-4e2a-896d-dba4e185d653","system_id":"levelo_inurba_marseille","lat":43.292213,"lon":5.36053,"is_reserved":false,"is_disabled":false,"rental_uris":{"android":"levelo://app?vid=372d89c2-66e3-4e2a-896d-dba4e185d653","ios":"levelo://app?vid=372d89c2-66e3-4e2a-896d-dba4e185d653"},"vehicle_type_id":"4","last_reported":1707854859,"current_range_meters":20800,"station_id":"ce4bhbh2rcd13ifvqeqg","pricing_plan_id":"cebpf4jnsgd1na2vs0mg"},{"bike_id":"ff760cc2-b458-4560-a902-ee8fb30f8443","system_id":"levelo_inurba_marseille","lat":43.292206,"lon":5.360548,"is_reserved":false,"is_disabled":false,"rental_uris":{"android":"levelo://app?vid=ff760cc2-b458-4560-a902-ee8fb30f8443","ios":"levelo://app?vid=ff760cc2-b458-4560-a902-ee8fb30f8443"},"vehicle_type_id":"4","last_reported":1707854859,"current_range_meters":22000,"station_id":"ce4bhbh2rcd13ifvqeqg","pricing_plan_id":"cebpf4jnsgd1na2vs0mg"},{"bike_id":"59ba627c-45f6-4744-8aba-4451f210e680","system_id":"levelo_inurba_marseille","lat":43.298764,"lon":5.388973,"is_reserved":false,"is_disabled":false,"rental_uris":{"android":"levelo://app?vid=59ba627c-45f6-4744-8aba-4451f210e680","ios":"levelo://app?vid=59ba627c-45f6-4744-8aba-4451f210e680"},"vehicle_type_id":"4","last_reported":1707854859,"current_range_meters":8800,"station_id":"ce4bh392rcd13ifvqdl0","pricing_plan_id":"cebpf4jnsgd1na2vs0mg"},{"bike_id":"fed4fd65-f52e-45a2-9b5f-d5b8e38a9987","system_id":"levelo_inurba_marseille","lat":43.298764,"lon":5.388973,"is_reserved":false,"is_disabled":false,"rental_uris":{"android":"levelo://app?vid=fed4fd65-f52e-45a2-9b5f-d5b8e38a9987","ios":"levelo://app?vid=fed4fd65-f52e-45a2-9b5f-d5b8e38a9987"},"vehicle_type_id":"4","last_reported":1707854859,"current_range_meters":28400,"station_id":"ce4bh392rcd13ifvqdl0","pricing_plan_id":"cebpf4jnsgd1na2vs0mg"},{"bike_id":"c5c87f3c-b43e-4f59-86a7-de43be91eaaf","system_id":"levelo_inurba_marseille","lat":43.291675,"lon":5.371583,"is_reserved":false,"is_disabled":false,"rental_uris":{"android":"levelo://app?vid=c5c87f3c-b43e-4f59-86a7-de43be91eaaf","ios":"levelo://app?vid=c5c87f3c-b43e-4f59-86a7-de43be91eaaf"},"vehicle_type_id":"4","last_reported":1707854859,"current_range_meters":17200,"station_id":"ce4bha92rcd13ifvqeh0","pricing_plan_id":"cebpf4jnsgd1na2vs0mg"},{"bike_id":"49b6b8e3-7804-4f70-8b44-6667a37e802e","system_id":"levelo_inurba_marseille","lat":43.298764,"lon":5.388973,"is_reserved":false,"is_disabled":false,"rental_uris":{"android":"levelo://app?vid=49b6b8e3-7804-4f70-8b44-6667a37e802e","ios":"levelo://app?vid=49b6b8e3-7804-4f70-8b44-6667a37e802e"},"vehicle_type_id":"4","last_reported":1707854859,"current_range_meters":28800,"station_id":"ce4bh392rcd13ifvqdl0","pricing_plan_id":"cebpf4jnsgd1na2vs0mg"},{"bike_id":"c7015f69-db71-4905-9fbb-fda4a0e26bd9","system_id":"levelo_inurba_marseille","lat":43.298764,"lon":5.388973,"is_reserved":false,"is_disabled":false,"rental_uris":{"android":"levelo://app?vid=c7015f69-db71-4905-9fbb-fda4a0e26bd9","ios":"levelo://app?vid=c7015f69-db71-4905-9fbb-fda4a0e26bd9"},"vehicle_type_id":"4","last_reported":1707854859,"current_range_meters":8000,"station_id":"ce4bh392rcd13ifvqdl0","pricing_plan_id":"cebpf4jnsgd1na2vs0mg"},{"bike_id":"c8cce3e3-b075-4976-bd9f-13f28abf6511","system_id":"levelo_inurba_marseille","lat":43.291994,"lon":5.357886,"is_reserved":false,"is_disabled":false,"rental_uris":{"android":"levelo://app?vid=c8cce3e3-b075-4976-bd9f-13f28abf6511","ios":"levelo://app?vid=c8cce3e3-b075-4976-bd9f-13f28abf6511"},"vehicle_type_id":"4","last_reported":1707854859,"current_range_meters":18000,"station_id":"ce4bhb12rcd13ifvqel0","pricing_plan_id":"cebpf4jnsgd1na2vs0mg"},{"bike_id":"d6cd38b4-678b-4b08-94a2-c080fcf3634e","system_id":"levelo_inurba_marseille","lat":43.291946,"lon":5.358056,"is_reserved":false,"is_disabled":false,"rental_uris":{"android":"levelo://app?vid=d6cd38b4-678b-4b08-94a2-c080fcf3634e","ios":"levelo://app?vid=d6cd38b4-678b-4b08-94a2-c080fcf3634e"},"vehicle_type_id":"4","last_reported":1707854859,"current_range_meters":30000,"station_id":"ce4bhb12rcd13ifvqel0","pricing_plan_id":"cebpf4jnsgd1na2vs0mg"},{"bike_id":"34bdd3cb-8d52-405a-919b-595224270b84","system_id":"levelo_inurba_marseille","lat":43.30887,"lon":5.39646,"is_reserved":false,"is_disabled":false,"rental_uris":{"android":"levelo://app?vid=34bdd3cb-8d52-405a-919b-595224270b84","ios":"levelo://app?vid=34bdd3cb-8d52-405a-919b-595224270b84"},"vehicle_type_id":"4","last_reported":1707854859,"current_range_meters":800,"station_id":"ce4bh012rcd13ifvqcv0","pricing_plan_id":"cebpf4jnsgd1na2vs0mg"},{"bike_id":"57ea175d-3917-4e25-92b9-efc357cbebac","system_id":"levelo_inurba_marseille","lat":43.313291,"lon":5.396838,"is_reserved":false,"is_disabled":false,"rental_uris":{"android":"levelo://app?vid=57ea175d-3917-4e25-92b9-efc357cbebac","ios":"levelo://app?vid=57ea175d-3917-4e25-92b9-efc357cbebac"},"vehicle_type_id":"4","last_reported":1707854859,"current_range_meters":16400,"station_id":"ce4bgvp2rcd13ifvqcu0","pricing_plan_id":"cebpf4jnsgd1na2vs0mg"},{"bike_id":"40d2783a-dc92-4ed3-81e4-d0b8ba9563bb","system_id":"levelo_inurba_marseille","lat":43.309047,"lon":5.396551,"is_reserved":false,"is_disabled":false,"rental_uris":{"android":"levelo://app?vid=40d2783a-dc92-4ed3-81e4-d0b8ba9563bb","ios":"levelo://app?vid=40d2783a-dc92-4ed3-81e4-d0b8ba9563bb"},"vehicle_type_id":"4","last_reported":1707854859,"current_range_meters":10800,"station_id":"ce4bh012rcd13ifvqcv0","pricing_plan_id":"cebpf4jnsgd1na2vs0mg"},{"bike_id":"6d82c28e-08be-4fff-9f10-462678c078fe","system_id":"levelo_inurba_marseille","lat":43.313291,"lon":5.396838,"is_reserved":false,"is_disabled":false,"rental_uris":{"android":"levelo://app?vid=6d82c28e-08be-4fff-9f10-462678c078fe","ios":"levelo://app?vid=6d82c28e-08be-4fff-9f10-462678c078fe"},"vehicle_type_id":"4","last_reported":1707854859,"current_range_meters":13200,"station_id":"ce4bgvp2rcd13ifvqcu0","pricing_plan_id":"cebpf4jnsgd1na2vs0mg"},{"bike_id":"9c229404-84ad-4b13-a885-0acc2e42a3f0","system_id":"levelo_inurba_marseille","lat":43.313291,"lon":5.396838,"is_reserved":false,"is_disabled":false,"rental_uris":{"android":"levelo://app?vid=9c229404-84ad-4b13-a885-0acc2e42a3f0","ios":"levelo://app?vid=9c229404-84ad-4b13-a885-0acc2e42a3f0"},"vehicle_type_id":"4","last_reported":1707854859,"current_range_meters":30000,"station_id":"ce4bgvp2rcd13ifvqcu0","pricing_plan_id":"cebpf4jnsgd1na2vs0mg"},{"bike_id":"10bd03dc-dfd9-4330-8f46-14dd5a10d503","system_id":"levelo_inurba_marseille","lat":43.29529,"lon":5.385581,"is_reserved":false,"is_disabled":false,"rental_uris":{"android":"levelo://app?vid=10bd03dc-dfd9-4330-8f46-14dd5a10d503","ios":"levelo://app?vid=10bd03dc-dfd9-4330-8f46-14dd5a10d503"},"vehicle_type_id":"4","last_reported":1707854859,"current_range_meters":18000,"station_id":"ce4bgih2rcd13ifvqba0","pricing_plan_id":"cebpf4jnsgd1na2vs0mg"},{"bike_id":"61bddf63-0bc1-4efd-a5d5-f8d40970a19d","system_id":"levelo_inurba_marseille","lat":43.309047,"lon":5.396551,"is_reserved":false,"is_disabled":false,"rental_uris":{"android":"levelo://app?vid=61bddf63-0bc1-4efd-a5d5-f8d40970a19d","ios":"levelo://app?vid=61bddf63-0bc1-4efd-a5d5-f8d40970a19d"},"vehicle_type_id":"4","last_reported":1707854859,"current_range_meters":7600,"station_id":"ce4bh012rcd13ifvqcv0","pricing_plan_id":"cebpf4jnsgd1na2vs0mg"},{"bike_id":"96d5d210-2897-4318-9246-8eb6af5975cc","system_id":"levelo_inurba_marseille","lat":43.313291,"lon":5.396838,"is_reserved":false,"is_disabled":false,"rental_uris":{"android":"levelo://app?vid=96d5d210-2897-4318-9246-8eb6af5975cc","ios":"levelo://app?vid=96d5d210-2897-4318-9246-8eb6af5975cc"},"vehicle_type_id":"4","last_reported":1707854859,"current_range_meters":31600,"station_id":"ce4bgvp2rcd13ifvqcu0","pricing_plan_id":"cebpf4jnsgd1na2vs0mg"},{"bike_id":"8305270b-7760-4ab9-b17b-e9b8b803f04c","system_id":"levelo_inurba_marseille","lat":43.313291,"lon":5.396838,"is_reserved":false,"is_disabled":false,"rental_uris":{"android":"levelo://app?vid=8305270b-7760-4ab9-b17b-e9b8b803f04c","ios":"levelo://app?vid=8305270b-7760-4ab9-b17b-e9b8b803f04c"},"vehicle_type_id":"4","last_reported":1707854859,"current_range_meters":28400,"station_id":"ce4bgvp2rcd13ifvqcu0","pricing_plan_id":"cebpf4jnsgd1na2vs0mg"},{"bike_id":"2075e603-a853-4864-8be9-d2ccfb00dd28","system_id":"levelo_inurba_marseille","lat":43.309038,"lon":5.396546,"is_reserved":false,"is_disabled":false,"rental_uris":{"android":"levelo://app?vid=2075e603-a853-4864-8be9-d2ccfb00dd28","ios":"levelo://app?vid=2075e603-a853-4864-8be9-d2ccfb00dd28"},"vehicle_type_id":"4","last_reported":1707854859,"current_range_meters":12400,"station_id":"ce4bh012rcd13ifvqcv0","pricing_plan_id":"cebpf4jnsgd1na2vs0mg"},{"bike_id":"cf13d62b-e9ac-4319-bf84-78c512fda1b9","system_id":"levelo_inurba_marseille","lat":43.309038,"lon":5.396546,"is_reserved":false,"is_disabled":false,"rental_uris":{"android":"levelo://app?vid=cf13d62b-e9ac-4319-bf84-78c512fda1b9","ios":"levelo://app?vid=cf13d62b-e9ac-4319-bf84-78c512fda1b9"},"vehicle_type_id":"4","last_reported":1707854859,"current_range_meters":27600,"station_id":"ce4bh012rcd13ifvqcv0","pricing_plan_id":"cebpf4jnsgd1na2vs0mg"},{"bike_id":"263f02e9-f2bd-49c1-9d6b-c5ab824c90f8","system_id":"levelo_inurba_marseille","lat":43.309047,"lon":5.396551,"is_reserved":false,"is_disabled":false,"rental_uris":{"android":"levelo://app?vid=263f02e9-f2bd-49c1-9d6b-c5ab824c90f8","ios":"levelo://app?vid=263f02e9-f2bd-49c1-9d6b-c5ab824c90f8"},"vehicle_type_id":"4","last_reported":1707854859,"current_range_meters":12400,"station_id":"ce4bh012rcd13ifvqcv0","pricing_plan_id":"cebpf4jnsgd1na2vs0mg"},{"bike_id":"2ab70626-37b0-4925-8049-7655e376acdc","system_id":"levelo_inurba_marseille","lat":43.309047,"lon":5.396551,"is_reserved":false,"is_disabled":false,"rental_uris":{"android":"levelo://app?vid=2ab70626-37b0-4925-8049-7655e376acdc","ios":"levelo://app?vid=2ab70626-37b0-4925-8049-7655e376acdc"},"vehicle_type_id":"4","last_reported":1707854859,"current_range_meters":28000,"station_id":"ce4bh012rcd13ifvqcv0","pricing_plan_id":"cebpf4jnsgd1na2vs0mg"},{"bike_id":"4a0b65b3-b31b-4db2-9e42-b5350cfb6a84","system_id":"levelo_inurba_marseille","lat":43.31321,"lon":5.39706,"is_reserved":false,"is_disabled":false,"rental_uris":{"android":"levelo://app?vid=4a0b65b3-b31b-4db2-9e42-b5350cfb6a84","ios":"levelo://app?vid=4a0b65b3-b31b-4db2-9e42-b5350cfb6a84"},"vehicle_type_id":"4","last_reported":1707854859,"current_range_meters":0,"station_id":"ce4bgvp2rcd13ifvqcu0","pricing_plan_id":"cebpf4jnsgd1na2vs0mg"},{"bike_id":"7d6fcf7a-276f-40f4-84ac-f439a1e91ebe","system_id":"levelo_inurba_marseille","lat":43.309038,"lon":5.396546,"is_reserved":false,"is_disabled":false,"rental_uris":{"android":"levelo://app?vid=7d6fcf7a-276f-40f4-84ac-f439a1e91ebe","ios":"levelo://app?vid=7d6fcf7a-276f-40f4-84ac-f439a1e91ebe"},"vehicle_type_id":"4","last_reported":1707854859,"current_range_meters":18000,"station_id":"ce4bh012rcd13ifvqcv0","pricing_plan_id":"cebpf4jnsgd1na2vs0mg"},{"bike_id":"e69126a3-73b9-45df-be8e-f92019ca2158","system_id":"levelo_inurba_marseille","lat":43.309047,"lon":5.396551,"is_reserved":false,"is_disabled":false,"rental_uris":{"android":"levelo://app?vid=e69126a3-73b9-45df-be8e-f92019ca2158","ios":"levelo://app?vid=e69126a3-73b9-45df-be8e-f92019ca2158"},"vehicle_type_id":"4","last_reported":1707854859,"current_range_meters":5200,"station_id":"ce4bh012rcd13ifvqcv0","pricing_plan_id":"cebpf4jnsgd1na2vs0mg"},{"bike_id":"9e14daf6-23c4-4cbe-b531-54d1be734b48","system_id":"levelo_inurba_marseille","lat":43.29536,"lon":5.3854,"is_reserved":false,"is_disabled":false,"rental_uris":{"android":"levelo://app?vid=9e14daf6-23c4-4cbe-b531-54d1be734b48","ios":"levelo://app?vid=9e14daf6-23c4-4cbe-b531-54d1be734b48"},"vehicle_type_id":"4","last_reported":1707854859,"current_range_meters":7600,"station_id":"ce4bgih2rcd13ifvqba0","pricing_plan_id":"cebpf4jnsgd1na2vs0mg"},{"bike_id":"1ac10612-40ce-4c5a-a4a4-e21b3d0ea078","system_id":"levelo_inurba_marseille","lat":43.29537,"lon":5.38543,"is_reserved":false,"is_disabled":false,"rental_uris":{"android":"levelo://app?vid=1ac10612-40ce-4c5a-a4a4-e21b3d0ea078","ios":"levelo://app?vid=1ac10612-40ce-4c5a-a4a4-e21b3d0ea078"},"vehicle_type_id":"4","last_reported":1707854859,"current_range_meters":30400,"station_id":"ce4bgih2rcd13ifvqba0","pricing_plan_id":"cebpf4jnsgd1na2vs0mg"},{"bike_id":"d7fdad8f-564f-4939-aa96-dc8e57cdf7f6","system_id":"levelo_inurba_marseille","lat":43.2953,"lon":5.38538,"is_reserved":false,"is_disabled":false,"rental_uris":{"android":"levelo://app?vid=d7fdad8f-564f-4939-aa96-dc8e57cdf7f6","ios":"levelo://app?vid=d7fdad8f-564f-4939-aa96-dc8e57cdf7f6"},"vehicle_type_id":"4","last_reported":1707854859,"current_range_meters":17600,"station_id":"ce4bgih2rcd13ifvqba0","pricing_plan_id":"cebpf4jnsgd1na2vs0mg"},{"bike_id":"c52c1913-574a-45a4-8215-97446171cbfd","system_id":"levelo_inurba_marseille","lat":43.29533,"lon":5.38547,"is_reserved":false,"is_disabled":false,"rental_uris":{"android":"levelo://app?vid=c52c1913-574a-45a4-8215-97446171cbfd","ios":"levelo://app?vid=c52c1913-574a-45a4-8215-97446171cbfd"},"vehicle_type_id":"4","last_reported":1707854859,"current_range_meters":19600,"station_id":"ce4bgih2rcd13ifvqba0","pricing_plan_id":"cebpf4jnsgd1na2vs0mg"},{"bike_id":"da6c444e-2b64-4c7b-89b9-3fbe90795e5d","system_id":"levelo_inurba_marseille","lat":43.29533,"lon":5.38548,"is_reserved":false,"is_disabled":false,"rental_uris":{"android":"levelo://app?vid=da6c444e-2b64-4c7b-89b9-3fbe90795e5d","ios":"levelo://app?vid=da6c444e-2b64-4c7b-89b9-3fbe90795e5d"},"vehicle_type_id":"4","last_reported":1707854859,"current_range_meters":8800,"station_id":"ce4bgih2rcd13ifvqba0","pricing_plan_id":"cebpf4jnsgd1na2vs0mg"},{"bike_id":"6a2d2a68-e995-49c8-b210-eaf28f42f9cb","system_id":"levelo_inurba_marseille","lat":43.29532,"lon":5.3855,"is_reserved":false,"is_disabled":false,"rental_uris":{"android":"levelo://app?vid=6a2d2a68-e995-49c8-b210-eaf28f42f9cb","ios":"levelo://app?vid=6a2d2a68-e995-49c8-b210-eaf28f42f9cb"},"vehicle_type_id":"4","last_reported":1707854859,"current_range_meters":8000,"station_id":"ce4bgih2rcd13ifvqba0","pricing_plan_id":"cebpf4jnsgd1na2vs0mg"},{"bike_id":"f1671836-5047-46d1-9ea4-02df32cbdedf","system_id":"levelo_inurba_marseille","lat":43.29529,"lon":5.385581,"is_reserved":false,"is_disabled":false,"rental_uris":{"android":"levelo://app?vid=f1671836-5047-46d1-9ea4-02df32cbdedf","ios":"levelo://app?vid=f1671836-5047-46d1-9ea4-02df32cbdedf"},"vehicle_type_id":"4","last_reported":1707854859,"current_range_meters":10000,"station_id":"ce4bgih2rcd13ifvqba0","pricing_plan_id":"cebpf4jnsgd1na2vs0mg"},{"bike_id":"8c6ac577-a85f-47be-ba04-00235beedb61","system_id":"levelo_inurba_marseille","lat":43.29526,"lon":5.38546,"is_reserved":false,"is_disabled":false,"rental_uris":{"android":"levelo://app?vid=8c6ac577-a85f-47be-ba04-00235beedb61","ios":"levelo://app?vid=8c6ac577-a85f-47be-ba04-00235beedb61"},"vehicle_type_id":"4","last_reported":1707854859,"current_range_meters":23600,"station_id":"ce4bgih2rcd13ifvqba0","pricing_plan_id":"cebpf4jnsgd1na2vs0mg"},{"bike_id":"fd6be89c-483e-4209-a911-e8f15bd87e70","system_id":"levelo_inurba_marseille","lat":43.29524,"lon":5.38546,"is_reserved":false,"is_disabled":false,"rental_uris":{"android":"levelo://app?vid=fd6be89c-483e-4209-a911-e8f15bd87e70","ios":"levelo://app?vid=fd6be89c-483e-4209-a911-e8f15bd87e70"},"vehicle_type_id":"4","last_reported":1707854859,"current_range_meters":12000,"station_id":"ce4bgih2rcd13ifvqba0","pricing_plan_id":"cebpf4jnsgd1na2vs0mg"},{"bike_id":"e52978b1-b5b5-4bee-b203-82282179c309","system_id":"levelo_inurba_marseille","lat":43.29525,"lon":5.385509,"is_reserved":false,"is_disabled":false,"rental_uris":{"android":"levelo://app?vid=e52978b1-b5b5-4bee-b203-82282179c309","ios":"levelo://app?vid=e52978b1-b5b5-4bee-b203-82282179c309"},"vehicle_type_id":"4","last_reported":1707854859,"current_range_meters":2800,"station_id":"ce4bgih2rcd13ifvqba0","pricing_plan_id":"cebpf4jnsgd1na2vs0mg"},{"bike_id":"cdfebdbd-2e53-4212-9eb5-0ccec165cf5d","system_id":"levelo_inurba_marseille","lat":43.29523,"lon":5.38551,"is_reserved":false,"is_disabled":false,"rental_uris":{"android":"levelo://app?vid=cdfebdbd-2e53-4212-9eb5-0ccec165cf5d","ios":"levelo://app?vid=cdfebdbd-2e53-4212-9eb5-0ccec165cf5d"},"vehicle_type_id":"4","last_reported":1707854859,"current_range_meters":22000,"station_id":"ce4bgih2rcd13ifvqba0","pricing_plan_id":"cebpf4jnsgd1na2vs0mg"},{"bike_id":"77767ce4-8344-4a18-bc17-b6e20b55409d","system_id":"levelo_inurba_marseille","lat":43.290779,"lon":5.371482,"is_reserved":false,"is_disabled":false,"rental_uris":{"android":"levelo://app?vid=77767ce4-8344-4a18-bc17-b6e20b55409d","ios":"levelo://app?vid=77767ce4-8344-4a18-bc17-b6e20b55409d"},"vehicle_type_id":"4","last_reported":1707854859,"current_range_meters":22800,"station_id":"ce4bh5p2rcd13ifvqe4g","pricing_plan_id":"cebpf4jnsgd1na2vs0mg"},{"bike_id":"13a29e70-a59d-4806-af5a-7685914f3f2d","system_id":"levelo_inurba_marseille","lat":43.290624,"lon":5.359245,"is_reserved":false,"is_disabled":false,"rental_uris":{"android":"levelo://app?vid=13a29e70-a59d-4806-af5a-7685914f3f2d","ios":"levelo://app?vid=13a29e70-a59d-4806-af5a-7685914f3f2d"},"vehicle_type_id":"4","last_reported":1707854859,"current_range_meters":4400,"station_id":"ce4bha92rcd13ifvqeg0","pricing_plan_id":"cebpf4jnsgd1na2vs0mg"},{"bike_id":"e565b7ec-ccfa-4dad-9072-1432eadbda73","system_id":"levelo_inurba_marseille","lat":43.302008,"lon":5.394694,"is_reserved":false,"is_disabled":false,"rental_uris":{"android":"levelo://app?vid=e565b7ec-ccfa-4dad-9072-1432eadbda73","ios":"levelo://app?vid=e565b7ec-ccfa-4dad-9072-1432eadbda73"},"vehicle_type_id":"4","last_reported":1707854859,"current_range_meters":30800,"station_id":"ce4bh0p2rcd13ifvqd70","pricing_plan_id":"cebpf4jnsgd1na2vs0mg"},{"bike_id":"3b864378-769f-47e6-94ef-d547b77eb5b0","system_id":"levelo_inurba_marseille","lat":43.289184,"lon":5.366408,"is_reserved":false,"is_disabled":false,"rental_uris":{"android":"levelo://app?vid=3b864378-769f-47e6-94ef-d547b77eb5b0","ios":"levelo://app?vid=3b864378-769f-47e6-94ef-d547b77eb5b0"},"vehicle_type_id":"4","last_reported":1707854859,"current_range_meters":10800,"station_id":"ce4bhap2rcd13ifvqek0","pricing_plan_id":"cebpf4jnsgd1na2vs0mg"},{"bike_id":"46e3d354-edef-462a-819f-7f8a063aeaf4","system_id":"levelo_inurba_marseille","lat":43.290624,"lon":5.359245,"is_reserved":false,"is_disabled":false,"rental_uris":{"android":"levelo://app?vid=46e3d354-edef-462a-819f-7f8a063aeaf4","ios":"levelo://app?vid=46e3d354-edef-462a-819f-7f8a063aeaf4"},"vehicle_type_id":"4","last_reported":1707854859,"current_range_meters":25200,"station_id":"ce4bha92rcd13ifvqeg0","pricing_plan_id":"cebpf4jnsgd1na2vs0mg"},{"bike_id":"18bd592a-c942-4d0e-b4da-950369ab2aef","system_id":"levelo_inurba_marseille","lat":43.290631,"lon":5.359244,"is_reserved":false,"is_disabled":false,"rental_uris":{"android":"levelo://app?vid=18bd592a-c942-4d0e-b4da-950369ab2aef","ios":"levelo://app?vid=18bd592a-c942-4d0e-b4da-950369ab2aef"},"vehicle_type_id":"4","last_reported":1707854859,"current_range_meters":30400,"station_id":"ce4bha92rcd13ifvqeg0","pricing_plan_id":"cebpf4jnsgd1na2vs0mg"},{"bike_id":"c23ce342-4001-4eb0-8809-23a4816b0dd7","system_id":"levelo_inurba_marseille","lat":43.290624,"lon":5.359245,"is_reserved":false,"is_disabled":false,"rental_uris":{"android":"levelo://app?vid=c23ce342-4001-4eb0-8809-23a4816b0dd7","ios":"levelo://app?vid=c23ce342-4001-4eb0-8809-23a4816b0dd7"},"vehicle_type_id":"4","last_reported":1707854859,"current_range_meters":12800,"station_id":"ce4bha92rcd13ifvqeg0","pricing_plan_id":"cebpf4jnsgd1na2vs0mg"},{"bike_id":"bb5b13e7-136a-4177-a497-54b122b46511","system_id":"levelo_inurba_marseille","lat":43.290347,"lon":5.359126,"is_reserved":false,"is_disabled":false,"rental_uris":{"android":"levelo://app?vid=bb5b13e7-136a-4177-a497-54b122b46511","ios":"levelo://app?vid=bb5b13e7-136a-4177-a497-54b122b46511"},"vehicle_type_id":"4","last_reported":1707854859,"current_range_meters":0,"station_id":"ce4bha92rcd13ifvqeg0","pricing_plan_id":"cebpf4jnsgd1na2vs0mg"},{"bike_id":"3a5826f4-538f-404d-8b5f-d3827baeda30","system_id":"levelo_inurba_marseille","lat":43.294153,"lon":5.386305,"is_reserved":false,"is_disabled":false,"rental_uris":{"android":"levelo://app?vid=3a5826f4-538f-404d-8b5f-d3827baeda30","ios":"levelo://app?vid=3a5826f4-538f-404d-8b5f-d3827baeda30"},"vehicle_type_id":"4","last_reported":1707854859,"current_range_meters":24800,"station_id":"ce4bh2h2rcd13ifvqdh0","pricing_plan_id":"cebpf4jnsgd1na2vs0mg"},{"bike_id":"1545af12-6829-44fb-ac0b-6c9dd2c1ee62","system_id":"levelo_inurba_marseille","lat":43.294153,"lon":5.386305,"is_reserved":false,"is_disabled":false,"rental_uris":{"android":"levelo://app?vid=1545af12-6829-44fb-ac0b-6c9dd2c1ee62","ios":"levelo://app?vid=1545af12-6829-44fb-ac0b-6c9dd2c1ee62"},"vehicle_type_id":"4","last_reported":1707854859,"current_range_meters":11600,"station_id":"ce4bh2h2rcd13ifvqdh0","pricing_plan_id":"cebpf4jnsgd1na2vs0mg"},{"bike_id":"6ec5f881-c9ab-4001-be7e-b5785a23cd5d","system_id":"levelo_inurba_marseille","lat":43.294153,"lon":5.386305,"is_reserved":false,"is_disabled":false,"rental_uris":{"android":"levelo://app?vid=6ec5f881-c9ab-4001-be7e-b5785a23cd5d","ios":"levelo://app?vid=6ec5f881-c9ab-4001-be7e-b5785a23cd5d"},"vehicle_type_id":"4","last_reported":1707854859,"current_range_meters":31200,"station_id":"ce4bh2h2rcd13ifvqdh0","pricing_plan_id":"cebpf4jnsgd1na2vs0mg"},{"bike_id":"1ea52bd4-2749-4546-94cf-e4c564ee61d3","system_id":"levelo_inurba_marseille","lat":43.294153,"lon":5.386305,"is_reserved":false,"is_disabled":false,"rental_uris":{"android":"levelo://app?vid=1ea52bd4-2749-4546-94cf-e4c564ee61d3","ios":"levelo://app?vid=1ea52bd4-2749-4546-94cf-e4c564ee61d3"},"vehicle_type_id":"4","last_reported":1707854859,"current_range_meters":3600,"station_id":"ce4bh2h2rcd13ifvqdh0","pricing_plan_id":"cebpf4jnsgd1na2vs0mg"},{"bike_id":"fba8ea91-4ecc-4f93-a974-476b87311b90","system_id":"levelo_inurba_marseille","lat":43.294153,"lon":5.386305,"is_reserved":false,"is_disabled":false,"rental_uris":{"android":"levelo://app?vid=fba8ea91-4ecc-4f93-a974-476b87311b90","ios":"levelo://app?vid=fba8ea91-4ecc-4f93-a974-476b87311b90"},"vehicle_type_id":"4","last_reported":1707854859,"current_range_meters":12800,"station_id":"ce4bh2h2rcd13ifvqdh0","pricing_plan_id":"cebpf4jnsgd1na2vs0mg"},{"bike_id":"6e7f0d17-6d7f-476f-905a-66158a069e9b","system_id":"levelo_inurba_marseille","lat":43.294153,"lon":5.386305,"is_reserved":false,"is_disabled":false,"rental_uris":{"android":"levelo://app?vid=6e7f0d17-6d7f-476f-905a-66158a069e9b","ios":"levelo://app?vid=6e7f0d17-6d7f-476f-905a-66158a069e9b"},"vehicle_type_id":"4","last_reported":1707854859,"current_range_meters":2000,"station_id":"ce4bh2h2rcd13ifvqdh0","pricing_plan_id":"cebpf4jnsgd1na2vs0mg"},{"bike_id":"610bba5d-73f3-49b7-be36-b7ffa0915ad2","system_id":"levelo_inurba_marseille","lat":43.29423,"lon":5.3863,"is_reserved":false,"is_disabled":false,"rental_uris":{"android":"levelo://app?vid=610bba5d-73f3-49b7-be36-b7ffa0915ad2","ios":"levelo://app?vid=610bba5d-73f3-49b7-be36-b7ffa0915ad2"},"vehicle_type_id":"4","last_reported":1707854859,"current_range_meters":22000,"station_id":"ce4bh2h2rcd13ifvqdh0","pricing_plan_id":"cebpf4jnsgd1na2vs0mg"},{"bike_id":"762084af-523f-41b1-adc0-8b854d2fd7af","system_id":"levelo_inurba_marseille","lat":43.29426,"lon":5.38636,"is_reserved":false,"is_disabled":false,"rental_uris":{"android":"levelo://app?vid=762084af-523f-41b1-adc0-8b854d2fd7af","ios":"levelo://app?vid=762084af-523f-41b1-adc0-8b854d2fd7af"},"vehicle_type_id":"4","last_reported":1707854859,"current_range_meters":13200,"station_id":"ce4bh2h2rcd13ifvqdh0","pricing_plan_id":"cebpf4jnsgd1na2vs0mg"},{"bike_id":"6a7bb7ff-b6d0-44f4-8cc9-f294cfb2913c","system_id":"levelo_inurba_marseille","lat":43.294153,"lon":5.386305,"is_reserved":false,"is_disabled":false,"rental_uris":{"android":"levelo://app?vid=6a7bb7ff-b6d0-44f4-8cc9-f294cfb2913c","ios":"levelo://app?vid=6a7bb7ff-b6d0-44f4-8cc9-f294cfb2913c"},"vehicle_type_id":"4","last_reported":1707854859,"current_range_meters":31200,"station_id":"ce4bh2h2rcd13ifvqdh0","pricing_plan_id":"cebpf4jnsgd1na2vs0mg"},{"bike_id":"4493b867-ac6f-4c78-8518-ac28c73c96c6","system_id":"levelo_inurba_marseille","lat":43.294153,"lon":5.386305,"is_reserved":false,"is_disabled":false,"rental_uris":{"android":"levelo://app?vid=4493b867-ac6f-4c78-8518-ac28c73c96c6","ios":"levelo://app?vid=4493b867-ac6f-4c78-8518-ac28c73c96c6"},"vehicle_type_id":"4","last_reported":1707854859,"current_range_meters":4400,"station_id":"ce4bh2h2rcd13ifvqdh0","pricing_plan_id":"cebpf4jnsgd1na2vs0mg"},{"bike_id":"ed6850eb-9008-46c3-8262-b42ee3ac89d7","system_id":"levelo_inurba_marseille","lat":43.29424,"lon":5.38634,"is_reserved":false,"is_disabled":false,"rental_uris":{"android":"levelo://app?vid=ed6850eb-9008-46c3-8262-b42ee3ac89d7","ios":"levelo://app?vid=ed6850eb-9008-46c3-8262-b42ee3ac89d7"},"vehicle_type_id":"4","last_reported":1707854859,"current_range_meters":30000,"station_id":"ce4bh2h2rcd13ifvqdh0","pricing_plan_id":"cebpf4jnsgd1na2vs0mg"},{"bike_id":"8a0960c4-2dc4-4e6d-b86a-280a45d40387","system_id":"levelo_inurba_marseille","lat":43.29421,"lon":5.38631,"is_reserved":false,"is_disabled":false,"rental_uris":{"android":"levelo://app?vid=8a0960c4-2dc4-4e6d-b86a-280a45d40387","ios":"levelo://app?vid=8a0960c4-2dc4-4e6d-b86a-280a45d40387"},"vehicle_type_id":"4","last_reported":1707854859,"current_range_meters":22800,"station_id":"ce4bh2h2rcd13ifvqdh0","pricing_plan_id":"cebpf4jnsgd1na2vs0mg"},{"bike_id":"e9ee4a0c-f5d4-4a0a-96c7-6a6e1c4d075b","system_id":"levelo_inurba_marseille","lat":43.2942,"lon":5.3863,"is_reserved":false,"is_disabled":false,"rental_uris":{"android":"levelo://app?vid=e9ee4a0c-f5d4-4a0a-96c7-6a6e1c4d075b","ios":"levelo://app?vid=e9ee4a0c-f5d4-4a0a-96c7-6a6e1c4d075b"},"vehicle_type_id":"4","last_reported":1707854859,"current_range_meters":0,"station_id":"ce4bh2h2rcd13ifvqdh0","pricing_plan_id":"cebpf4jnsgd1na2vs0mg"},{"bike_id":"bcd36c31-3d05-4c86-ae56-1c25f23893ea","system_id":"levelo_inurba_marseille","lat":43.29421,"lon":5.38632,"is_reserved":false,"is_disabled":false,"rental_uris":{"android":"levelo://app?vid=bcd36c31-3d05-4c86-ae56-1c25f23893ea","ios":"levelo://app?vid=bcd36c31-3d05-4c86-ae56-1c25f23893ea"},"vehicle_type_id":"4","last_reported":1707854859,"current_range_meters":19200,"station_id":"ce4bh2h2rcd13ifvqdh0","pricing_plan_id":"cebpf4jnsgd1na2vs0mg"},{"bike_id":"1affff20-befd-4be3-9834-ca28c05e941f","system_id":"levelo_inurba_marseille","lat":43.294203,"lon":5.386311,"is_reserved":false,"is_disabled":false,"rental_uris":{"android":"levelo://app?vid=1affff20-befd-4be3-9834-ca28c05e941f","ios":"levelo://app?vid=1affff20-befd-4be3-9834-ca28c05e941f"},"vehicle_type_id":"4","last_reported":1707854859,"current_range_meters":4400,"station_id":"ce4bh2h2rcd13ifvqdh0","pricing_plan_id":"cebpf4jnsgd1na2vs0mg"},{"bike_id":"6e84631a-5b19-4748-aa3b-8c050ad154e0","system_id":"levelo_inurba_marseille","lat":43.294153,"lon":5.386305,"is_reserved":false,"is_disabled":false,"rental_uris":{"android":"levelo://app?vid=6e84631a-5b19-4748-aa3b-8c050ad154e0","ios":"levelo://app?vid=6e84631a-5b19-4748-aa3b-8c050ad154e0"},"vehicle_type_id":"4","last_reported":1707854859,"current_range_meters":30400,"station_id":"ce4bh2h2rcd13ifvqdh0","pricing_plan_id":"cebpf4jnsgd1na2vs0mg"},{"bike_id":"b909b1b6-a138-4643-bf68-82243373c20c","system_id":"levelo_inurba_marseille","lat":43.28943,"lon":5.36636,"is_reserved":false,"is_disabled":false,"rental_uris":{"android":"levelo://app?vid=b909b1b6-a138-4643-bf68-82243373c20c","ios":"levelo://app?vid=b909b1b6-a138-4643-bf68-82243373c20c"},"vehicle_type_id":"4","last_reported":1707854859,"current_range_meters":1200,"station_id":"ce4bhap2rcd13ifvqek0","pricing_plan_id":"cebpf4jnsgd1na2vs0mg"},{"bike_id":"9e014697-da36-4b75-95c5-89a83751e91a","system_id":"levelo_inurba_marseille","lat":43.29419,"lon":5.38634,"is_reserved":false,"is_disabled":false,"rental_uris":{"android":"levelo://app?vid=9e014697-da36-4b75-95c5-89a83751e91a","ios":"levelo://app?vid=9e014697-da36-4b75-95c5-89a83751e91a"},"vehicle_type_id":"4","last_reported":1707854859,"current_range_meters":1600,"station_id":"ce4bh2h2rcd13ifvqdh0","pricing_plan_id":"cebpf4jnsgd1na2vs0mg"},{"bike_id":"555bb9a8-6837-4be2-802b-001bc9bc2a0e","system_id":"levelo_inurba_marseille","lat":43.29418,"lon":5.38633,"is_reserved":false,"is_disabled":false,"rental_uris":{"android":"levelo://app?vid=555bb9a8-6837-4be2-802b-001bc9bc2a0e","ios":"levelo://app?vid=555bb9a8-6837-4be2-802b-001bc9bc2a0e"},"vehicle_type_id":"4","last_reported":1707854859,"current_range_meters":22400,"station_id":"ce4bh2h2rcd13ifvqdh0","pricing_plan_id":"cebpf4jnsgd1na2vs0mg"},{"bike_id":"8a8c88aa-f46d-4801-a241-5d24553bb37b","system_id":"levelo_inurba_marseille","lat":43.29418,"lon":5.38633,"is_reserved":false,"is_disabled":false,"rental_uris":{"android":"levelo://app?vid=8a8c88aa-f46d-4801-a241-5d24553bb37b","ios":"levelo://app?vid=8a8c88aa-f46d-4801-a241-5d24553bb37b"},"vehicle_type_id":"4","last_reported":1707854859,"current_range_meters":0,"station_id":"ce4bh2h2rcd13ifvqdh0","pricing_plan_id":"cebpf4jnsgd1na2vs0mg"},{"bike_id":"f94b49d7-ea61-418e-ae24-970838828cc8","system_id":"levelo_inurba_marseille","lat":43.29414,"lon":5.3863,"is_reserved":false,"is_disabled":false,"rental_uris":{"android":"levelo://app?vid=f94b49d7-ea61-418e-ae24-970838828cc8","ios":"levelo://app?vid=f94b49d7-ea61-418e-ae24-970838828cc8"},"vehicle_type_id":"4","last_reported":1707854859,"current_range_meters":26400,"station_id":"ce4bh2h2rcd13ifvqdh0","pricing_plan_id":"cebpf4jnsgd1na2vs0mg"},{"bike_id":"a5434ef5-1558-4100-b59a-989f74f629ef","system_id":"levelo_inurba_marseille","lat":43.289184,"lon":5.366408,"is_reserved":false,"is_disabled":false,"rental_uris":{"android":"levelo://app?vid=a5434ef5-1558-4100-b59a-989f74f629ef","ios":"levelo://app?vid=a5434ef5-1558-4100-b59a-989f74f629ef"},"vehicle_type_id":"4","last_reported":1707854859,"current_range_meters":6400,"station_id":"ce4bhap2rcd13ifvqek0","pricing_plan_id":"cebpf4jnsgd1na2vs0mg"},{"bike_id":"20746777-1feb-4f91-9cb1-b415be51e486","system_id":"levelo_inurba_marseille","lat":43.289184,"lon":5.366408,"is_reserved":false,"is_disabled":false,"rental_uris":{"android":"levelo://app?vid=20746777-1feb-4f91-9cb1-b415be51e486","ios":"levelo://app?vid=20746777-1feb-4f91-9cb1-b415be51e486"},"vehicle_type_id":"4","last_reported":1707854859,"current_range_meters":23200,"station_id":"ce4bhap2rcd13ifvqek0","pricing_plan_id":"cebpf4jnsgd1na2vs0mg"},{"bike_id":"55f9b471-6b82-4372-b67c-1dafb71948b5","system_id":"levelo_inurba_marseille","lat":43.290319,"lon":5.375732,"is_reserved":false,"is_disabled":false,"rental_uris":{"android":"levelo://app?vid=55f9b471-6b82-4372-b67c-1dafb71948b5","ios":"levelo://app?vid=55f9b471-6b82-4372-b67c-1dafb71948b5"},"vehicle_type_id":"4","last_reported":1707854859,"current_range_meters":17600,"station_id":"ce4bh692rcd13ifvqe90","pricing_plan_id":"cebpf4jnsgd1na2vs0mg"},{"bike_id":"462cd33d-20a7-4953-84a1-e24988761b12","system_id":"levelo_inurba_marseille","lat":43.289184,"lon":5.366408,"is_reserved":false,"is_disabled":false,"rental_uris":{"android":"levelo://app?vid=462cd33d-20a7-4953-84a1-e24988761b12","ios":"levelo://app?vid=462cd33d-20a7-4953-84a1-e24988761b12"},"vehicle_type_id":"4","last_reported":1707854859,"current_range_meters":26000,"station_id":"ce4bhap2rcd13ifvqek0","pricing_plan_id":"cebpf4jnsgd1na2vs0mg"},{"bike_id":"b1dd5cab-1cdb-4364-b08b-6c1c40e248e0","system_id":"levelo_inurba_marseille","lat":43.289184,"lon":5.366408,"is_reserved":false,"is_disabled":false,"rental_uris":{"android":"levelo://app?vid=b1dd5cab-1cdb-4364-b08b-6c1c40e248e0","ios":"levelo://app?vid=b1dd5cab-1cdb-4364-b08b-6c1c40e248e0"},"vehicle_type_id":"4","last_reported":1707854859,"current_range_meters":7200,"station_id":"ce4bhap2rcd13ifvqek0","pricing_plan_id":"cebpf4jnsgd1na2vs0mg"},{"bike_id":"508a6d5c-c369-404e-8999-b97fea44d260","system_id":"levelo_inurba_marseille","lat":43.29409,"lon":5.38632,"is_reserved":false,"is_disabled":false,"rental_uris":{"android":"levelo://app?vid=508a6d5c-c369-404e-8999-b97fea44d260","ios":"levelo://app?vid=508a6d5c-c369-404e-8999-b97fea44d260"},"vehicle_type_id":"4","last_reported":1707854859,"current_range_meters":21600,"station_id":"","pricing_plan_id":"cebpf4jnsgd1na2vs0mg"},{"bike_id":"26e33ff2-93df-44e3-9318-6b472bdb4f5d","system_id":"levelo_inurba_marseille","lat":43.289348,"lon":5.36636,"is_reserved":false,"is_disabled":false,"rental_uris":{"android":"levelo://app?vid=26e33ff2-93df-44e3-9318-6b472bdb4f5d","ios":"levelo://app?vid=26e33ff2-93df-44e3-9318-6b472bdb4f5d"},"vehicle_type_id":"4","last_reported":1707854859,"current_range_meters":0,"station_id":"ce4bhap2rcd13ifvqek0","pricing_plan_id":"cebpf4jnsgd1na2vs0mg"},{"bike_id":"2151f951-4a32-4b6e-a309-90c1221064f0","system_id":"levelo_inurba_marseille","lat":43.289468,"lon":5.363719,"is_reserved":false,"is_disabled":false,"rental_uris":{"android":"levelo://app?vid=2151f951-4a32-4b6e-a309-90c1221064f0","ios":"levelo://app?vid=2151f951-4a32-4b6e-a309-90c1221064f0"},"vehicle_type_id":"4","last_reported":1707854859,"current_range_meters":1200,"station_id":"ce4bhc92rcd13ifvqetg","pricing_plan_id":"cebpf4jnsgd1na2vs0mg"},{"bike_id":"90ffa4ca-6109-4942-afc7-d5a2411225e3","system_id":"levelo_inurba_marseille","lat":43.289468,"lon":5.363719,"is_reserved":false,"is_disabled":false,"rental_uris":{"android":"levelo://app?vid=90ffa4ca-6109-4942-afc7-d5a2411225e3","ios":"levelo://app?vid=90ffa4ca-6109-4942-afc7-d5a2411225e3"},