{"last_updated":1752941543,"ttl":60,"version":"2.2","data":{"bikes":[{"bike_id":"53b742a7-31ae-4272-9bba-7740339e2a2f","system_id":"levelo_inurba_marseille","lat":43.33747,"lon":5.37463,"is_reserved":false,"is_disabled":false,"rental_uris":{"android":"levelo://app?vid=53b742a7-31ae-4272-9bba-7740339e2a2f","ios":"levelo://app?vid=53b742a7-31ae-4272-9bba-7740339e2a2f"},"vehicle_type_id":"1","last_reported":1752941543,"current_range_meters":14800,"station_id":"","pricing_plan_id":"cebpf4jnsgd1na2vs0mg"},{"bike_id":"29b8eff9-3b4b-4afe-8f90-f73f18c97f00","system_id":"levelo_inurba_marseille","lat":43.29258,"lon":5.38446,"is_reserved":false,"is_disabled":false,"rental_uris":{"android":"levelo://app?vid=29b8eff9-3b4b-4afe-8f90-f73f18c97f00","ios":"levelo://app?vid=29b8eff9-3b4b-4afe-8f90-f73f18c97f00"},"vehicle_type_id":"4","last_reported":1752941543,"current_range_meters":2800,"station_id":"ce4bh692rcd13ifvqea0","pricing_plan_id":"cebpf4jnsgd1na2vs0mg"},{"bike_id":"c679e9d2-8b63-45f1-9c5c-768f7ef0a5a1","system_id":"levelo_inurba_marseille","lat":43.31232,"lon":5.36883,"is_reserved":false,"is_disabled":false,"rental_uris":{"android":"levelo://app?vid=c679e9d2-8b63-45f1-9c5c-768f7ef0a5a1","ios":"levelo://app?vid=c679e9d2-8b63-45f1-9c5c-768f7ef0a5a1"},"vehicle_type_id":"4","last_reported":1752941543,"current_range_meters":2800,"station_id":"ce4bgl92rcd13ifvqbq0","pricing_plan_id":"cebpf4jnsgd1na2vs0mg"},{"bike_id":"f48322bf-d5e8-4498-bd18-0e520bb189b8","system_id":"levelo_inurba_marseille","lat":43.217478,"lon":5.346057,"is_reserved":false,"is_disabled":false,"rental_uris":{"android":"levelo://app?vid=f48322bf-d5e8-4498-bd18-0e520bb189b8","ios":"levelo://app?vid=f48322bf-d5e8-4498-bd18-0e520bb189b8"},"vehicle_type_id":"4","last_reported":1752941543,"current_range_meters":2800,"station_id":"st_cvj6r9ubvosntc0bgbag","pricing_plan_id":"cebpf4jnsgd1na2vs0mg"},{"bike_id":"7cb3fd3b-d283-4e0a-849e-0a0a72f92379","system_id":"levelo_inurba_marseille","lat":43.32362,"lon":5.36759,"is_reserved":false,"is_disabled":false,"rental_uris":{"android":"levelo://app?vid=7cb3fd3b-d283-4e0a-849e-0a0a72f92379","ios":"levelo://app?vid=7cb3fd3b-d283-4e0a-849e-0a0a72f92379"},"vehicle_type_id":"4","last_reported":1752941543,"current_range_meters":2800,"station_id":"ce4bhsh2rcd13ifvqi2g","pricing_plan_id":"cebpf4jnsgd1na2vs0mg"},{"bike_id":"ebd57400-41c5-439a-9556-479bb438a0b5","system_id":"levelo_inurba_marseille","lat":43.23194,"lon":5.35554,"is_reserved":false,"is_disabled":false,"rental_uris":{"android":"levelo://app?vid=ebd57400-41c5-439a-9556-479bb438a0b5","ios":"levelo://app?vid=ebd57400-41c5-439a-9556-479bb438a0b5"},"vehicle_type_id":"4","last_reported":1752941543,"current_range_meters":3200,"station_id":"ce4bhu92rcd13ifvqi70","pricing_plan_id":"cebpf4jnsgd1na2vs0mg"},{"bike_id":"4298709f-d90a-45df-8a57-9ba59538e3fc","system_id":"levelo_inurba_marseille","lat":43.28164,"lon":5.40759,"is_reserved":false,"is_disabled":false,"rental_uris":{"android":"levelo://app?vid=4298709f-d90a-45df-8a57-9ba59538e3fc","ios":"levelo://app?vid=4298709f-d90a-45df-8a57-9ba59538e3fc"},"vehicle_type_id":"4","last_reported":1752941543,"current_range_meters":3200,"station_id":"","pricing_plan_id":"cebpf4jnsgd1na2vs0mg"},{"bike_id":"3444bdc6-514a-4ba6-9650-f9073305e33d","system_id":"levelo_inurba_marseille","lat":43.29682,"lon":5.3698,"is_reserved":false,"is_disabled":false,"rental_uris":{"android":"levelo://app?vid=3444bdc6-514a-4ba6-9650-f9073305e33d","ios":"levelo://app?vid=3444bdc6-514a-4ba6-9650-f9073305e33d"},"vehicle_type_id":"4","last_reported":1752941543,"current_range_meters":3600,"station_id":"","pricing_plan_id":"cebpf4jnsgd1na2vs0mg"},{"bike_id":"63420132-f811-4586-9c12-1acac22f65b1","system_id":"levelo_inurba_marseille","lat":43.21749,"lon":5.34601,"is_reserved":false,"is_disabled":false,"rental_uris":{"android":"levelo://app?vid=63420132-f811-4586-9c12-1acac22f65b1","ios":"levelo://app?vid=63420132-f811-4586-9c12-1acac22f65b1"},"vehicle_type_id":"4","last_reported":1752941543,"current_range_meters":3600,"station_id":"st_cvj6r9ubvosntc0bgbag","pricing_plan_id":"cebpf4jnsgd1na2vs0mg"},{"bike_id":"e9644953-4d48-4362-bf31-3f7dd5fc08c7","system_id":"levelo_inurba_marseille","lat":43.28715,"lon":5.36097,"is_reserved":false,"is_disabled":false,"rental_uris":{"android":"levelo://app?vid=e9644953-4d48-4362-bf31-3f7dd5fc08c7","ios":"levelo://app?vid=e9644953-4d48-4362-bf31-3f7dd5fc08c7"},"vehicle_type_id":"4","last_reported":1752941543,"current_range_meters":4000,"station_id":"cki0cbj6b192h4jlfktg","pricing_plan_id":"cebpf4jnsgd1na2vs0mg"},{"bike_id":"c257680c-693c-4ba3-a004-956cb9dccc02","system_id":"levelo_inurba_marseille","lat":43.29789,"lon":5.39338,"is_reserved":false,"is_disabled":false,"rental_uris":{"android":"levelo://app?vid=c257680c-693c-4ba3-a004-956cb9dccc02","ios":"levelo://app?vid=c257680c-693c-4ba3-a004-956cb9dccc02"},"vehicle_type_id":"4","last_reported":1752941543,"current_range_meters":4000,"station_id":"chh1huq6cuj3fo74tm60","pricing_plan_id":"cebpf4jnsgd1na2vs0mg"},{"bike_id":"b5cc15b8-6dc1-4225-bf9d-f6f30fb32dbd","system_id":"levelo_inurba_marseille","lat":43.28625,"lon":5.35088,"is_reserved":false,"is_disabled":false,"rental_uris":{"android":"levelo://app?vid=b5cc15b8-6dc1-4225-bf9d-f6f30fb32dbd","ios":"levelo://app?vid=b5cc15b8-6dc1-4225-bf9d-f6f30fb32dbd"},"vehicle_type_id":"4","last_reported":1752941543,"current_range_meters":4000,"station_id":"ce4bhch2rcd13ifvqeug","pricing_plan_id":"cebpf4jnsgd1na2vs0mg"},{"bike_id":"030847ad-88a0-4e9c-98dd-49d7037caab7","system_id":"levelo_inurba_marseille","lat":43.28261,"lon":5.35067,"is_reserved":false,"is_disabled":false,"rental_uris":{"android":"levelo://app?vid=030847ad-88a0-4e9c-98dd-49d7037caab7","ios":"levelo://app?vid=030847ad-88a0-4e9c-98dd-49d7037caab7"},"vehicle_type_id":"4","last_reported":1752941543,"current_range_meters":4400,"station_id":"ce4bhbp2rcd13ifvqerg","pricing_plan_id":"cebpf4jnsgd1na2vs0mg"},{"bike_id":"25b9ac24-7cc3-4d33-b661-3edcc4104c31","system_id":"levelo_inurba_marseille","lat":43.282662,"lon":5.350579,"is_reserved":false,"is_disabled":false,"rental_uris":{"android":"levelo://app?vid=25b9ac24-7cc3-4d33-b661-3edcc4104c31","ios":"levelo://app?vid=25b9ac24-7cc3-4d33-b661-3edcc4104c31"},"vehicle_type_id":"4","last_reported":1752941543,"current_range_meters":4400,"station_id":"ce4bhbp2rcd13ifvqerg","pricing_plan_id":"cebpf4jnsgd1na2vs0mg"},{"bike_id":"ecff1cbf-f110-4be1-b094-17031a23d822","system_id":"levelo_inurba_marseille","lat":43.29079,"lon":5.3717,"is_reserved":false,"is_disabled":false,"rental_uris":{"android":"levelo://app?vid=ecff1cbf-f110-4be1-b094-17031a23d822","ios":"levelo://app?vid=ecff1cbf-f110-4be1-b094-17031a23d822"},"vehicle_type_id":"4","last_reported":1752941543,"current_range_meters":4000,"station_id":"ce4bh5p2rcd13ifvqe4g","pricing_plan_id":"cebpf4jnsgd1na2vs0mg"},{"bike_id":"57bf6570-ff1a-4d36-a914-38a00de3af53","system_id":"levelo_inurba_marseille","lat":43.23958,"lon":5.36644,"is_reserved":false,"is_disabled":true,"rental_uris":{"android":"levelo://app?vid=57bf6570-ff1a-4d36-a914-38a00de3af53","ios":"levelo://app?vid=57bf6570-ff1a-4d36-a914-38a00de3af53"},"vehicle_type_id":"4","last_reported":1752941543,"current_range_meters":4800,"station_id":"ce4bhi12rcd13ifvqfp0","pricing_plan_id":"cebpf4jnsgd1na2vs0mg"},{"bike_id":"54a60e6e-8298-4ab4-aa6e-89be1d3aaf86","system_id":"levelo_inurba_marseille","lat":43.30141,"lon":5.38782,"is_reserved":false,"is_disabled":false,"rental_uris":{"android":"levelo://app?vid=54a60e6e-8298-4ab4-aa6e-89be1d3aaf86","ios":"levelo://app?vid=54a60e6e-8298-4ab4-aa6e-89be1d3aaf86"},"vehicle_type_id":"4","last_reported":1752941543,"current_range_meters":4800,"station_id":"ce4bghh2rcd13ifvqb60","pricing_plan_id":"cebpf4jnsgd1na2vs0mg"},{"bike_id":"efbaa886-d60a-4a98-a48d-08b654c898aa","system_id":"levelo_inurba_marseille","lat":43.2978,"lon":5.37105,"is_reserved":false,"is_disabled":false,"rental_uris":{"android":"levelo://app?vid=efbaa886-d60a-4a98-a48d-08b654c898aa","ios":"levelo://app?vid=efbaa886-d60a-4a98-a48d-08b654c898aa"},"vehicle_type_id":"4","last_reported":1752941543,"current_range_meters":4400,"station_id":"ce4bgop2rcd13ifvqc1g","pricing_plan_id":"cebpf4jnsgd1na2vs0mg"},{"bike_id":"5c02f255-62d8-4ce4-9abd-17acd8edaa22","system_id":"levelo_inurba_marseille","lat":43.28961,"lon":5.38382,"is_reserved":false,"is_disabled":false,"rental_uris":{"android":"levelo://app?vid=5c02f255-62d8-4ce4-9abd-17acd8edaa22","ios":"levelo://app?vid=5c02f255-62d8-4ce4-9abd-17acd8edaa22"},"vehicle_type_id":"4","last_reported":1752941543,"current_range_meters":3200,"station_id":"ce4bh612rcd13ifvqe6g","pricing_plan_id":"cebpf4jnsgd1na2vs0mg"},{"bike_id":"dcb1c5c8-9986-477b-9c70-946ceef6b048","system_id":"levelo_inurba_marseille","lat":43.27673,"lon":5.388821,"is_reserved":false,"is_disabled":false,"rental_uris":{"android":"levelo://app?vid=dcb1c5c8-9986-477b-9c70-946ceef6b048","ios":"levelo://app?vid=dcb1c5c8-9986-477b-9c70-946ceef6b048"},"vehicle_type_id":"4","last_reported":1752941543,"current_range_meters":4800,"station_id":"ce4bhi12rcd13ifvqfo0","pricing_plan_id":"cebpf4jnsgd1na2vs0mg"},{"bike_id":"0092af1c-4988-4425-90b4-3f2d3fff2a87","system_id":"levelo_inurba_marseille","lat":43.27376,"lon":5.36261,"is_reserved":false,"is_disabled":false,"rental_uris":{"android":"levelo://app?vid=0092af1c-4988-4425-90b4-3f2d3fff2a87","ios":"levelo://app?vid=0092af1c-4988-4425-90b4-3f2d3fff2a87"},"vehicle_type_id":"4","last_reported":1752941543,"current_range_meters":5600,"station_id":"ce4bhbh2rcd13ifvqeo0","pricing_plan_id":"cebpf4jnsgd1na2vs0mg"},{"bike_id":"5d1829b5-5b61-4a7b-a08e-a3aa36d64644","system_id":"levelo_inurba_marseille","lat":43.29229,"lon":5.36071,"is_reserved":false,"is_disabled":false,"rental_uris":{"android":"levelo://app?vid=5d1829b5-5b61-4a7b-a08e-a3aa36d64644","ios":"levelo://app?vid=5d1829b5-5b61-4a7b-a08e-a3aa36d64644"},"vehicle_type_id":"4","last_reported":1752941543,"current_range_meters":6000,"station_id":"ce4bhbh2rcd13ifvqeqg","pricing_plan_id":"cebpf4jnsgd1na2vs0mg"},{"bike_id":"750e8ba2-60f7-4f33-9e2b-40c230330cc3","system_id":"levelo_inurba_marseille","lat":43.24651,"lon":5.38892,"is_reserved":false,"is_disabled":false,"rental_uris":{"android":"levelo://app?vid=750e8ba2-60f7-4f33-9e2b-40c230330cc3","ios":"levelo://app?vid=750e8ba2-60f7-4f33-9e2b-40c230330cc3"},"vehicle_type_id":"4","last_reported":1752941543,"current_range_meters":6000,"station_id":"ce4bhg12rcd13ifvqf60","pricing_plan_id":"cebpf4jnsgd1na2vs0mg"},{"bike_id":"da891840-0cec-4ccc-961c-48903736c6fa","system_id":"levelo_inurba_marseille","lat":43.31139,"lon":5.37692,"is_reserved":false,"is_disabled":false,"rental_uris":{"android":"levelo://app?vid=da891840-0cec-4ccc-961c-48903736c6fa","ios":"levelo://app?vid=da891840-0cec-4ccc-961c-48903736c6fa"},"vehicle_type_id":"4","last_reported":1752941543,"current_range_meters":6000,"station_id":"","pricing_plan_id":"cebpf4jnsgd1na2vs0mg"},{"bike_id":"2e13ce15-c98e-4ca7-aae2-b21ca793229f","system_id":"levelo_inurba_marseille","lat":43.29712,"lon":5.36612,"is_reserved":false,"is_disabled":false,"rental_uris":{"android":"levelo://app?vid=2e13ce15-c98e-4ca7-aae2-b21ca793229f","ios":"levelo://app?vid=2e13ce15-c98e-4ca7-aae2-b21ca793229f"},"vehicle_type_id":"4","last_reported":1752941543,"current_range_meters":5600,"station_id":"ce4bgn12rcd13ifvqbt0","pricing_plan_id":"cebpf4jnsgd1na2vs0mg"},{"bike_id":"e555b545-304c-4dce-8496-1643c0f2600e","system_id":"levelo_inurba_marseille","lat":43.337444,"lon":5.374475,"is_reserved":false,"is_disabled":false,"rental_uris":{"android":"levelo://app?vid=e555b545-304c-4dce-8496-1643c0f2600e","ios":"levelo://app?vid=e555b545-304c-4dce-8496-1643c0f2600e"},"vehicle_type_id":"4","last_reported":1752941543,"current_range_meters":6000,"station_id":"","pricing_plan_id":"cebpf4jnsgd1na2vs0mg"},{"bike_id":"9bdcfb5e-ac16-41d0-a4c2-388bc36976bb","system_id":"levelo_inurba_marseille","lat":43.29553,"lon":5.42285,"is_reserved":false,"is_disabled":false,"rental_uris":{"android":"levelo://app?vid=9bdcfb5e-ac16-41d0-a4c2-388bc36976bb","ios":"levelo://app?vid=9bdcfb5e-ac16-41d0-a4c2-388bc36976bb"},"vehicle_type_id":"4","last_reported":1752941543,"current_range_meters":6400,"station_id":"ce4bhph2rcd13ifvqhdg","pricing_plan_id":"cebpf4jnsgd1na2vs0mg"},{"bike_id":"b3c20171-789b-4f2e-a78c-f182493a896f","system_id":"levelo_inurba_marseille","lat":43.28152,"lon":5.42633,"is_reserved":false,"is_disabled":true,"rental_uris":{"android":"levelo://app?vid=b3c20171-789b-4f2e-a78c-f182493a896f","ios":"levelo://app?vid=b3c20171-789b-4f2e-a78c-f182493a896f"},"vehicle_type_id":"4","last_reported":1752941543,"current_range_meters":6400,"station_id":"ce4bhnh2rcd13ifvqgug","pricing_plan_id":"cebpf4jnsgd1na2vs0mg"},{"bike_id":"902e312c-c749-4887-9912-6140928fcbfa","system_id":"levelo_inurba_marseille","lat":43.23197,"lon":5.35553,"is_reserved":false,"is_disabled":false,"rental_uris":{"android":"levelo://app?vid=902e312c-c749-4887-9912-6140928fcbfa","ios":"levelo://app?vid=902e312c-c749-4887-9912-6140928fcbfa"},"vehicle_type_id":"4","last_reported":1752941543,"current_range_meters":6400,"station_id":"ce4bhu92rcd13ifvqi70","pricing_plan_id":"cebpf4jnsgd1na2vs0mg"},{"bike_id":"4108938b-6cb1-49cf-9b34-f5aba76f8c8e","system_id":"levelo_inurba_marseille","lat":43.25862,"lon":5.39905,"is_reserved":false,"is_disabled":true,"rental_uris":{"android":"levelo://app?vid=4108938b-6cb1-49cf-9b34-f5aba76f8c8e","ios":"levelo://app?vid=4108938b-6cb1-49cf-9b34-f5aba76f8c8e"},"vehicle_type_id":"4","last_reported":1752941543,"current_range_meters":6400,"station_id":"ce4bhl92rcd13ifvqghg","pricing_plan_id":"cebpf4jnsgd1na2vs0mg"},{"bike_id":"e45d5dac-aeb7-4b2b-8342-ef6114a0923d","system_id":"levelo_inurba_marseille","lat":43.295331,"lon":5.385365,"is_reserved":false,"is_disabled":false,"rental_uris":{"android":"levelo://app?vid=e45d5dac-aeb7-4b2b-8342-ef6114a0923d","ios":"levelo://app?vid=e45d5dac-aeb7-4b2b-8342-ef6114a0923d"},"vehicle_type_id":"4","last_reported":1752941543,"current_range_meters":6000,"station_id":"ce4bgih2rcd13ifvqba0","pricing_plan_id":"cebpf4jnsgd1na2vs0mg"},{"bike_id":"b39eb8b8-dca0-421a-9ffc-fc753c7ef029","system_id":"levelo_inurba_marseille","lat":43.2119,"lon":5.35074,"is_reserved":false,"is_disabled":false,"rental_uris":{"android":"levelo://app?vid=b39eb8b8-dca0-421a-9ffc-fc753c7ef029","ios":"levelo://app?vid=b39eb8b8-dca0-421a-9ffc-fc753c7ef029"},"vehicle_type_id":"4","last_reported":1752941543,"current_range_meters":6800,"station_id":"st_cvj6sg6p6f1abm77japg","pricing_plan_id":"cebpf4jnsgd1na2vs0mg"},{"bike_id":"2d95b47d-d06f-40a4-bb6e-c13e954e3c8f","system_id":"levelo_inurba_marseille","lat":43.277179,"lon":5.414279,"is_reserved":false,"is_disabled":false,"rental_uris":{"android":"levelo://app?vid=2d95b47d-d06f-40a4-bb6e-c13e954e3c8f","ios":"levelo://app?vid=2d95b47d-d06f-40a4-bb6e-c13e954e3c8f"},"vehicle_type_id":"4","last_reported":1752941543,"current_range_meters":6800,"station_id":"","pricing_plan_id":"cebpf4jnsgd1na2vs0mg"},{"bike_id":"1a0a1beb-7497-446c-b5e5-ddfc4e967ced","system_id":"levelo_inurba_marseille","lat":43.29772,"lon":5.37103,"is_reserved":false,"is_disabled":false,"rental_uris":{"android":"levelo://app?vid=1a0a1beb-7497-446c-b5e5-ddfc4e967ced","ios":"levelo://app?vid=1a0a1beb-7497-446c-b5e5-ddfc4e967ced"},"vehicle_type_id":"4","last_reported":1752941543,"current_range_meters":6800,"station_id":"ce4bgop2rcd13ifvqc1g","pricing_plan_id":"cebpf4jnsgd1na2vs0mg"},{"bike_id":"720f4964-51e1-46d2-bd25-c3c156ced3d7","system_id":"levelo_inurba_marseille","lat":43.29516,"lon":5.37516,"is_reserved":false,"is_disabled":false,"rental_uris":{"android":"levelo://app?vid=720f4964-51e1-46d2-bd25-c3c156ced3d7","ios":"levelo://app?vid=720f4964-51e1-46d2-bd25-c3c156ced3d7"},"vehicle_type_id":"4","last_reported":1752941543,"current_range_meters":6400,"station_id":"ce4bgkp2rcd13ifvqbmg","pricing_plan_id":"cebpf4jnsgd1na2vs0mg"},{"bike_id":"a168d389-ea1d-4756-ad9b-cf73a31ab442","system_id":"levelo_inurba_marseille","lat":43.28597,"lon":5.38393,"is_reserved":false,"is_disabled":true,"rental_uris":{"android":"levelo://app?vid=a168d389-ea1d-4756-ad9b-cf73a31ab442","ios":"levelo://app?vid=a168d389-ea1d-4756-ad9b-cf73a31ab442"},"vehicle_type_id":"4","last_reported":1752941543,"current_range_meters":6800,"station_id":"","pricing_plan_id":"cebpf4jnsgd1na2vs0mg"},{"bike_id":"62d003ab-405c-40ae-aab3-da07a09d3c94","system_id":"levelo_inurba_marseille","lat":43.28617,"lon":5.35106,"is_reserved":false,"is_disabled":false,"rental_uris":{"android":"levelo://app?vid=62d003ab-405c-40ae-aab3-da07a09d3c94","ios":"levelo://app?vid=62d003ab-405c-40ae-aab3-da07a09d3c94"},"vehicle_type_id":"4","last_reported":1752941543,"current_range_meters":6800,"station_id":"ce4bhch2rcd13ifvqeug","pricing_plan_id":"cebpf4jnsgd1na2vs0mg"},{"bike_id":"abd4af80-3fa2-47f3-a9b7-90f5140ca1f7","system_id":"levelo_inurba_marseille","lat":43.30888,"lon":5.39652,"is_reserved":false,"is_disabled":false,"rental_uris":{"android":"levelo://app?vid=abd4af80-3fa2-47f3-a9b7-90f5140ca1f7","ios":"levelo://app?vid=abd4af80-3fa2-47f3-a9b7-90f5140ca1f7"},"vehicle_type_id":"4","last_reported":1752941543,"current_range_meters":7200,"station_id":"ce4bh012rcd13ifvqcv0","pricing_plan_id":"cebpf4jnsgd1na2vs0mg"},{"bike_id":"a43e1086-9b85-48ac-8dcf-f96d6638bcb6","system_id":"levelo_inurba_marseille","lat":43.30536,"lon":5.36561,"is_reserved":false,"is_disabled":false,"rental_uris":{"android":"levelo://app?vid=a43e1086-9b85-48ac-8dcf-f96d6638bcb6","ios":"levelo://app?vid=a43e1086-9b85-48ac-8dcf-f96d6638bcb6"},"vehicle_type_id":"4","last_reported":1752941543,"current_range_meters":7200,"station_id":"ce4bgs12rcd13ifvqcag","pricing_plan_id":"cebpf4jnsgd1na2vs0mg"},{"bike_id":"72acce2b-2249-45a2-be91-c8268f8a11e8","system_id":"levelo_inurba_marseille","lat":43.225067,"lon":5.347838,"is_reserved":false,"is_disabled":false,"rental_uris":{"android":"levelo://app?vid=72acce2b-2249-45a2-be91-c8268f8a11e8","ios":"levelo://app?vid=72acce2b-2249-45a2-be91-c8268f8a11e8"},"vehicle_type_id":"4","last_reported":1752941543,"current_range_meters":8000,"station_id":"st_cvj5dfep6f1abm77gieg","pricing_plan_id":"cebpf4jnsgd1na2vs0mg"},{"bike_id":"8df94db5-162f-49d7-b3bc-5eca5cf0ffd7","system_id":"levelo_inurba_marseille","lat":43.304291,"lon":5.388896,"is_reserved":false,"is_disabled":false,"rental_uris":{"android":"levelo://app?vid=8df94db5-162f-49d7-b3bc-5eca5cf0ffd7","ios":"levelo://app?vid=8df94db5-162f-49d7-b3bc-5eca5cf0ffd7"},"vehicle_type_id":"4","last_reported":1752941543,"current_range_meters":8000,"station_id":"ce4bgk12rcd13ifvqbi0","pricing_plan_id":"cebpf4jnsgd1na2vs0mg"},{"bike_id":"85968da0-03d4-43c5-85bf-b4490927f45a","system_id":"levelo_inurba_marseille","lat":43.29969,"lon":5.38493,"is_reserved":false,"is_disabled":false,"rental_uris":{"android":"levelo://app?vid=85968da0-03d4-43c5-85bf-b4490927f45a","ios":"levelo://app?vid=85968da0-03d4-43c5-85bf-b4490927f45a"},"vehicle_type_id":"4","last_reported":1752941543,"current_range_meters":8000,"station_id":"ce4bgj92rcd13ifvqbd0","pricing_plan_id":"cebpf4jnsgd1na2vs0mg"},{"bike_id":"0da4e39c-f6b0-42ad-b232-1ffda32bcbfb","system_id":"levelo_inurba_marseille","lat":43.22505,"lon":5.34782,"is_reserved":false,"is_disabled":false,"rental_uris":{"android":"levelo://app?vid=0da4e39c-f6b0-42ad-b232-1ffda32bcbfb","ios":"levelo://app?vid=0da4e39c-f6b0-42ad-b232-1ffda32bcbfb"},"vehicle_type_id":"4","last_reported":1752941543,"current_range_meters":8000,"station_id":"st_cvj5dfep6f1abm77gieg","pricing_plan_id":"cebpf4jnsgd1na2vs0mg"},{"bike_id":"38a4426a-da50-4d75-a7e8-8996278bc322","system_id":"levelo_inurba_marseille","lat":43.29167,"lon":5.37169,"is_reserved":false,"is_disabled":false,"rental_uris":{"android":"levelo://app?vid=38a4426a-da50-4d75-a7e8-8996278bc322","ios":"levelo://app?vid=38a4426a-da50-4d75-a7e8-8996278bc322"},"vehicle_type_id":"4","last_reported":1752941543,"current_range_meters":8000,"station_id":"ce4bha92rcd13ifvqeh0","pricing_plan_id":"cebpf4jnsgd1na2vs0mg"},{"bike_id":"1def8edc-5f0f-44d8-a520-1a6f0be2b25a","system_id":"levelo_inurba_marseille","lat":43.25578,"lon":5.38222,"is_reserved":false,"is_disabled":false,"rental_uris":{"android":"levelo://app?vid=1def8edc-5f0f-44d8-a520-1a6f0be2b25a","ios":"levelo://app?vid=1def8edc-5f0f-44d8-a520-1a6f0be2b25a"},"vehicle_type_id":"4","last_reported":1752941543,"current_range_meters":8000,"station_id":"ce4bhih2rcd13ifvqfs0","pricing_plan_id":"cebpf4jnsgd1na2vs0mg"},{"bike_id":"1baee359-9449-4926-af54-7b5e1d21635f","system_id":"levelo_inurba_marseille","lat":43.250807,"lon":5.395276,"is_reserved":false,"is_disabled":false,"rental_uris":{"android":"levelo://app?vid=1baee359-9449-4926-af54-7b5e1d21635f","ios":"levelo://app?vid=1baee359-9449-4926-af54-7b5e1d21635f"},"vehicle_type_id":"4","last_reported":1752941543,"current_range_meters":8000,"station_id":"ce4bhm12rcd13ifvqgkg","pricing_plan_id":"cebpf4jnsgd1na2vs0mg"},{"bike_id":"ce7bd25b-5213-4881-a28b-f582e6a1d712","system_id":"levelo_inurba_marseille","lat":43.313555,"lon":5.367246,"is_reserved":false,"is_disabled":true,"rental_uris":{"android":"levelo://app?vid=ce7bd25b-5213-4881-a28b-f582e6a1d712","ios":"levelo://app?vid=ce7bd25b-5213-4881-a28b-f582e6a1d712"},"vehicle_type_id":"4","last_reported":1752941543,"current_range_meters":8000,"station_id":"ce4bgr92rcd13ifvqc6g","pricing_plan_id":"cebpf4jnsgd1na2vs0mg"},{"bike_id":"ae17aecc-123d-47da-a666-1a3b1752e1d3","system_id":"levelo_inurba_marseille","lat":43.26791,"lon":5.39409,"is_reserved":false,"is_disabled":false,"rental_uris":{"android":"levelo://app?vid=ae17aecc-123d-47da-a666-1a3b1752e1d3","ios":"levelo://app?vid=ae17aecc-123d-47da-a666-1a3b1752e1d3"},"vehicle_type_id":"4","last_reported":1752941543,"current_range_meters":7200,"station_id":"ce4bhh12rcd13ifvqfg0","pricing_plan_id":"cebpf4jnsgd1na2vs0mg"},{"bike_id":"fdb2fa3e-da6d-4598-87a3-86656035c600","system_id":"levelo_inurba_marseille","lat":43.28424,"lon":5.34981,"is_reserved":false,"is_disabled":false,"rental_uris":{"android":"levelo://app?vid=fdb2fa3e-da6d-4598-87a3-86656035c600","ios":"levelo://app?vid=fdb2fa3e-da6d-4598-87a3-86656035c600"},"vehicle_type_id":"4","last_reported":1752941543,"current_range_meters":8400,"station_id":"ce4bhbh2rcd13ifvqepg","pricing_plan_id":"cebpf4jnsgd1na2vs0mg"},{"bike_id":"7ba80774-b11e-4526-b36d-edd358abb392","system_id":"levelo_inurba_marseille","lat":43.22503,"lon":5.34783,"is_reserved":false,"is_disabled":false,"rental_uris":{"android":"levelo://app?vid=7ba80774-b11e-4526-b36d-edd358abb392","ios":"levelo://app?vid=7ba80774-b11e-4526-b36d-edd358abb392"},"vehicle_type_id":"4","last_reported":1752941543,"current_range_meters":8400,"station_id":"st_cvj5dfep6f1abm77gieg","pricing_plan_id":"cebpf4jnsgd1na2vs0mg"},{"bike_id":"25a62c95-34c2-4c24-87df-cbb1901f44e3","system_id":"levelo_inurba_marseille","lat":43.27835,"lon":5.39213,"is_reserved":false,"is_disabled":false,"rental_uris":{"android":"levelo://app?vid=25a62c95-34c2-4c24-87df-cbb1901f44e3","ios":"levelo://app?vid=25a62c95-34c2-4c24-87df-cbb1901f44e3"},"vehicle_type_id":"4","last_reported":1752941543,"current_range_meters":8400,"station_id":"ce4bhjp2rcd13ifvqga0","pricing_plan_id":"cebpf4jnsgd1na2vs0mg"},{"bike_id":"ac46b74a-6f46-4e58-ac3d-093d5c54d7b4","system_id":"levelo_inurba_marseille","lat":43.29529,"lon":5.38547,"is_reserved":false,"is_disabled":false,"rental_uris":{"android":"levelo://app?vid=ac46b74a-6f46-4e58-ac3d-093d5c54d7b4","ios":"levelo://app?vid=ac46b74a-6f46-4e58-ac3d-093d5c54d7b4"},"vehicle_type_id":"4","last_reported":1752941543,"current_range_meters":8400,"station_id":"ce4bgih2rcd13ifvqba0","pricing_plan_id":"cebpf4jnsgd1na2vs0mg"},{"bike_id":"c6db0f6a-96fe-4e1d-8ded-c2ef38c9bab4","system_id":"levelo_inurba_marseille","lat":43.305688,"lon":5.418387,"is_reserved":false,"is_disabled":true,"rental_uris":{"android":"levelo://app?vid=c6db0f6a-96fe-4e1d-8ded-c2ef38c9bab4","ios":"levelo://app?vid=c6db0f6a-96fe-4e1d-8ded-c2ef38c9bab4"},"vehicle_type_id":"4","last_reported":1752941543,"current_range_meters":8800,"station_id":"ce4bht12rcd13ifvqi60","pricing_plan_id":"cebpf4jnsgd1na2vs0mg"},{"bike_id":"361ae1b8-e9fb-4e32-bd16-bb230e946d98","system_id":"levelo_inurba_marseille","lat":43.27209,"lon":5.39176,"is_reserved":false,"is_disabled":false,"rental_uris":{"android":"levelo://app?vid=361ae1b8-e9fb-4e32-bd16-bb230e946d98","ios":"levelo://app?vid=361ae1b8-e9fb-4e32-bd16-bb230e946d98"},"vehicle_type_id":"4","last_reported":1752941543,"current_range_meters":8400,"station_id":"ce4bhhp2rcd13ifvqfm0","pricing_plan_id":"cebpf4jnsgd1na2vs0mg"},{"bike_id":"ac141403-2eff-454e-8bd1-3d400d40ed2b","system_id":"levelo_inurba_marseille","lat":43.33112,"lon":5.4002,"is_reserved":false,"is_disabled":false,"rental_uris":{"android":"levelo://app?vid=ac141403-2eff-454e-8bd1-3d400d40ed2b","ios":"levelo://app?vid=ac141403-2eff-454e-8bd1-3d400d40ed2b"},"vehicle_type_id":"4","last_reported":1752941543,"current_range_meters":8800,"station_id":"","pricing_plan_id":"cebpf4jnsgd1na2vs0mg"},{"bike_id":"e59d6c74-b0c9-4948-b102-3ac2241460dc","system_id":"levelo_inurba_marseille","lat":43.28941,"lon":5.36411,"is_reserved":false,"is_disabled":false,"rental_uris":{"android":"levelo://app?vid=e59d6c74-b0c9-4948-b102-3ac2241460dc","ios":"levelo://app?vid=e59d6c74-b0c9-4948-b102-3ac2241460dc"},"vehicle_type_id":"4","last_reported":1752941543,"current_range_meters":8800,"station_id":"ce4bhc92rcd13ifvqetg","pricing_plan_id":"cebpf4jnsgd1na2vs0mg"},{"bike_id":"0e42a7ec-0d0d-4b91-a100-e1bcd751f991","system_id":"levelo_inurba_marseille","lat":43.29912,"lon":5.43708,"is_reserved":false,"is_disabled":false,"rental_uris":{"android":"levelo://app?vid=0e42a7ec-0d0d-4b91-a100-e1bcd751f991","ios":"levelo://app?vid=0e42a7ec-0d0d-4b91-a100-e1bcd751f991"},"vehicle_type_id":"4","last_reported":1752941543,"current_range_meters":8800,"station_id":"","pricing_plan_id":"cebpf4jnsgd1na2vs0mg"},{"bike_id":"4c373ca4-8003-40ef-9149-626bbcde9eaa","system_id":"levelo_inurba_marseille","lat":43.29535,"lon":5.38541,"is_reserved":false,"is_disabled":false,"rental_uris":{"android":"levelo://app?vid=4c373ca4-8003-40ef-9149-626bbcde9eaa","ios":"levelo://app?vid=4c373ca4-8003-40ef-9149-626bbcde9eaa"},"vehicle_type_id":"4","last_reported":1752941543,"current_range_meters":9600,"station_id":"ce4bgih2rcd13ifvqba0","pricing_plan_id":"cebpf4jnsgd1na2vs0mg"},{"bike_id":"9223d84d-7333-403f-888b-00d9d7c35bbc","system_id":"levelo_inurba_marseille","lat":43.2842,"lon":5.34978,"is_reserved":false,"is_disabled":false,"rental_uris":{"android":"levelo://app?vid=9223d84d-7333-403f-888b-00d9d7c35bbc","ios":"levelo://app?vid=9223d84d-7333-403f-888b-00d9d7c35bbc"},"vehicle_type_id":"4","last_reported":1752941543,"current_range_meters":8800,"station_id":"ce4bhbh2rcd13ifvqepg","pricing_plan_id":"cebpf4jnsgd1na2vs0mg"},{"bike_id":"87cd54d8-ed89-48be-a427-a39d646f1efe","system_id":"levelo_inurba_marseille","lat":43.26945,"lon":5.4025,"is_reserved":false,"is_disabled":false,"rental_uris":{"android":"levelo://app?vid=87cd54d8-ed89-48be-a427-a39d646f1efe","ios":"levelo://app?vid=87cd54d8-ed89-48be-a427-a39d646f1efe"},"vehicle_type_id":"4","last_reported":1752941543,"current_range_meters":8800,"station_id":"cjm6bp8fraef2m0cb0m0","pricing_plan_id":"cebpf4jnsgd1na2vs0mg"},{"bike_id":"b278fd8a-4a55-40a4-be23-e7308baa8de4","system_id":"levelo_inurba_marseille","lat":43.29273,"lon":5.36845,"is_reserved":false,"is_disabled":false,"rental_uris":{"android":"levelo://app?vid=b278fd8a-4a55-40a4-be23-e7308baa8de4","ios":"levelo://app?vid=b278fd8a-4a55-40a4-be23-e7308baa8de4"},"vehicle_type_id":"4","last_reported":1752941543,"current_range_meters":9200,"station_id":"ce4bhbp2rcd13ifvqesg","pricing_plan_id":"cebpf4jnsgd1na2vs0mg"},{"bike_id":"60c96464-aa51-4b9a-a5b4-23c25ac23c0e","system_id":"levelo_inurba_marseille","lat":43.26947,"lon":5.38622,"is_reserved":false,"is_disabled":false,"rental_uris":{"android":"levelo://app?vid=60c96464-aa51-4b9a-a5b4-23c25ac23c0e","ios":"levelo://app?vid=60c96464-aa51-4b9a-a5b4-23c25ac23c0e"},"vehicle_type_id":"4","last_reported":1752941543,"current_range_meters":9200,"station_id":"ce4bhh92rcd13ifvqfh0","pricing_plan_id":"cebpf4jnsgd1na2vs0mg"},{"bike_id":"92fd8825-f9c5-45d6-b4e9-7b87be6705dd","system_id":"levelo_inurba_marseille","lat":43.30136,"lon":5.37421,"is_reserved":false,"is_disabled":false,"rental_uris":{"android":"levelo://app?vid=92fd8825-f9c5-45d6-b4e9-7b87be6705dd","ios":"levelo://app?vid=92fd8825-f9c5-45d6-b4e9-7b87be6705dd"},"vehicle_type_id":"4","last_reported":1752941543,"current_range_meters":9200,"station_id":"ce4bgs92rcd13ifvqcc0","pricing_plan_id":"cebpf4jnsgd1na2vs0mg"},{"bike_id":"b40f6095-d19f-4d23-80db-f74d90f808e9","system_id":"levelo_inurba_marseille","lat":43.2847,"lon":5.35885,"is_reserved":false,"is_disabled":false,"rental_uris":{"android":"levelo://app?vid=b40f6095-d19f-4d23-80db-f74d90f808e9","ios":"levelo://app?vid=b40f6095-d19f-4d23-80db-f74d90f808e9"},"vehicle_type_id":"4","last_reported":1752941543,"current_range_meters":9200,"station_id":"ce4bhah2rcd13ifvqei0","pricing_plan_id":"cebpf4jnsgd1na2vs0mg"},{"bike_id":"92eb71dc-2db9-4c1b-980c-cbabf32a581c","system_id":"levelo_inurba_marseille","lat":43.31178,"lon":5.3872,"is_reserved":false,"is_disabled":false,"rental_uris":{"android":"levelo://app?vid=92eb71dc-2db9-4c1b-980c-cbabf32a581c","ios":"levelo://app?vid=92eb71dc-2db9-4c1b-980c-cbabf32a581c"},"vehicle_type_id":"4","last_reported":1752941543,"current_range_meters":9200,"station_id":"ce4bgv12rcd13ifvqcp0","pricing_plan_id":"cebpf4jnsgd1na2vs0mg"},{"bike_id":"07aeb5da-15b1-4b73-9d17-70e8acd75061","system_id":"levelo_inurba_marseille","lat":43.22509,"lon":5.34782,"is_reserved":false,"is_disabled":false,"rental_uris":{"android":"levelo://app?vid=07aeb5da-15b1-4b73-9d17-70e8acd75061","ios":"levelo://app?vid=07aeb5da-15b1-4b73-9d17-70e8acd75061"},"vehicle_type_id":"4","last_reported":1752941543,"current_range_meters":9200,"station_id":"st_cvj5dfep6f1abm77gieg","pricing_plan_id":"cebpf4jnsgd1na2vs0mg"},{"bike_id":"7150d82d-0aae-4240-81f3-e459b8173dde","system_id":"levelo_inurba_marseille","lat":43.28421,"lon":5.34985,"is_reserved":false,"is_disabled":false,"rental_uris":{"android":"levelo://app?vid=7150d82d-0aae-4240-81f3-e459b8173dde","ios":"levelo://app?vid=7150d82d-0aae-4240-81f3-e459b8173dde"},"vehicle_type_id":"4","last_reported":1752941543,"current_range_meters":9600,"station_id":"ce4bhbh2rcd13ifvqepg","pricing_plan_id":"cebpf4jnsgd1na2vs0mg"},{"bike_id":"b5c52e60-c28e-43be-9c81-605e18b4fe3c","system_id":"levelo_inurba_marseille","lat":43.32001,"lon":5.41569,"is_reserved":false,"is_disabled":false,"rental_uris":{"android":"levelo://app?vid=b5c52e60-c28e-43be-9c81-605e18b4fe3c","ios":"levelo://app?vid=b5c52e60-c28e-43be-9c81-605e18b4fe3c"},"vehicle_type_id":"4","last_reported":1752941543,"current_range_meters":9600,"station_id":"ce4bhq92rcd13ifvqhkg","pricing_plan_id":"cebpf4jnsgd1na2vs0mg"},{"bike_id":"57a30f0b-84eb-4b98-8989-8d3c02b43bf0","system_id":"levelo_inurba_marseille","lat":43.28642,"lon":5.37024,"is_reserved":false,"is_disabled":false,"rental_uris":{"android":"levelo://app?vid=57a30f0b-84eb-4b98-8989-8d3c02b43bf0","ios":"levelo://app?vid=57a30f0b-84eb-4b98-8989-8d3c02b43bf0"},"vehicle_type_id":"4","last_reported":1752941543,"current_range_meters":9600,"station_id":"","pricing_plan_id":"cebpf4jnsgd1na2vs0mg"},{"bike_id":"cfb52d04-9134-4c86-8269-771716b20f27","system_id":"levelo_inurba_marseille","lat":43.211926,"lon":5.350743,"is_reserved":false,"is_disabled":false,"rental_uris":{"android":"levelo://app?vid=cfb52d04-9134-4c86-8269-771716b20f27","ios":"levelo://app?vid=cfb52d04-9134-4c86-8269-771716b20f27"},"vehicle_type_id":"4","last_reported":1752941543,"current_range_meters":9600,"station_id":"st_cvj6sg6p6f1abm77japg","pricing_plan_id":"cebpf4jnsgd1na2vs0mg"},{"bike_id":"ef9cd530-ef0d-4996-9fb7-18170342713b","system_id":"levelo_inurba_marseille","lat":43.28275,"lon":5.35068,"is_reserved":false,"is_disabled":false,"rental_uris":{"android":"levelo://app?vid=ef9cd530-ef0d-4996-9fb7-18170342713b","ios":"levelo://app?vid=ef9cd530-ef0d-4996-9fb7-18170342713b"},"vehicle_type_id":"4","last_reported":1752941543,"current_range_meters":9600,"station_id":"ce4bhbp2rcd13ifvqerg","pricing_plan_id":"cebpf4jnsgd1na2vs0mg"},{"bike_id":"775fbc7e-e713-41fa-b284-88996401c404","system_id":"levelo_inurba_marseille","lat":43.28608,"lon":5.35109,"is_reserved":false,"is_disabled":false,"rental_uris":{"android":"levelo://app?vid=775fbc7e-e713-41fa-b284-88996401c404","ios":"levelo://app?vid=775fbc7e-e713-41fa-b284-88996401c404"},"vehicle_type_id":"4","last_reported":1752941543,"current_range_meters":10000,"station_id":"ce4bhch2rcd13ifvqeug","pricing_plan_id":"cebpf4jnsgd1na2vs0mg"},{"bike_id":"119ed186-566e-4ae9-84db-ad23e77fe912","system_id":"levelo_inurba_marseille","lat":43.28261,"lon":5.35077,"is_reserved":false,"is_disabled":false,"rental_uris":{"android":"levelo://app?vid=119ed186-566e-4ae9-84db-ad23e77fe912","ios":"levelo://app?vid=119ed186-566e-4ae9-84db-ad23e77fe912"},"vehicle_type_id":"4","last_reported":1752941543,"current_range_meters":10000,"station_id":"ce4bhbp2rcd13ifvqerg","pricing_plan_id":"cebpf4jnsgd1na2vs0mg"},{"bike_id":"6f18ab1b-0c74-47b1-bed8-837677176207","system_id":"levelo_inurba_marseille","lat":43.3205,"lon":5.40946,"is_reserved":false,"is_disabled":false,"rental_uris":{"android":"levelo://app?vid=6f18ab1b-0c74-47b1-bed8-837677176207","ios":"levelo://app?vid=6f18ab1b-0c74-47b1-bed8-837677176207"},"vehicle_type_id":"4","last_reported":1752941543,"current_range_meters":10000,"station_id":"","pricing_plan_id":"cebpf4jnsgd1na2vs0mg"},{"bike_id":"c5414713-74a4-444d-9877-6dbeea5a71ba","system_id":"levelo_inurba_marseille","lat":43.28615,"lon":5.35103,"is_reserved":false,"is_disabled":false,"rental_uris":{"android":"levelo://app?vid=c5414713-74a4-444d-9877-6dbeea5a71ba","ios":"levelo://app?vid=c5414713-74a4-444d-9877-6dbeea5a71ba"},"vehicle_type_id":"4","last_reported":1752941543,"current_range_meters":10000,"station_id":"ce4bhch2rcd13ifvqeug","pricing_plan_id":"cebpf4jnsgd1na2vs0mg"},{"bike_id":"50a36931-63e6-4819-9058-f86f9fcd0ab3","system_id":"levelo_inurba_marseille","lat":43.32536,"lon":5.414739,"is_reserved":false,"is_disabled":false,"rental_uris":{"android":"levelo://app?vid=50a36931-63e6-4819-9058-f86f9fcd0ab3","ios":"levelo://app?vid=50a36931-63e6-4819-9058-f86f9fcd0ab3"},"vehicle_type_id":"4","last_reported":1752941543,"current_range_meters":10800,"station_id":"ce4bhq12rcd13ifvqhhg","pricing_plan_id":"cebpf4jnsgd1na2vs0mg"},{"bike_id":"3dbe5912-b178-4d6a-b0a5-780c833ee7fa","system_id":"levelo_inurba_marseille","lat":43.290639,"lon":5.355827,"is_reserved":false,"is_disabled":false,"rental_uris":{"android":"levelo://app?vid=3dbe5912-b178-4d6a-b0a5-780c833ee7fa","ios":"levelo://app?vid=3dbe5912-b178-4d6a-b0a5-780c833ee7fa"},"vehicle_type_id":"4","last_reported":1752941543,"current_range_meters":10800,"station_id":"","pricing_plan_id":"cebpf4jnsgd1na2vs0mg"},{"bike_id":"93f32558-d0c8-48ab-ba27-e1a1ccba7659","system_id":"levelo_inurba_marseille","lat":43.28628,"lon":5.35101,"is_reserved":false,"is_disabled":false,"rental_uris":{"android":"levelo://app?vid=93f32558-d0c8-48ab-ba27-e1a1ccba7659","ios":"levelo://app?vid=93f32558-d0c8-48ab-ba27-e1a1ccba7659"},"vehicle_type_id":"4","last_reported":1752941543,"current_range_meters":10800,"station_id":"ce4bhch2rcd13ifvqeug","pricing_plan_id":"cebpf4jnsgd1na2vs0mg"},{"bike_id":"f0dbba60-7fa2-4835-8cf4-423440f8b95a","system_id":"levelo_inurba_marseille","lat":43.21765,"lon":5.34607,"is_reserved":false,"is_disabled":false,"rental_uris":{"android":"levelo://app?vid=f0dbba60-7fa2-4835-8cf4-423440f8b95a","ios":"levelo://app?vid=f0dbba60-7fa2-4835-8cf4-423440f8b95a"},"vehicle_type_id":"4","last_reported":1752941543,"current_range_meters":10800,"station_id":"","pricing_plan_id":"cebpf4jnsgd1na2vs0mg"},{"bike_id":"8c194039-3f83-4474-bb07-0cafff885cc3","system_id":"levelo_inurba_marseille","lat":43.33786,"lon":5.37426,"is_reserved":false,"is_disabled":false,"rental_uris":{"android":"levelo://app?vid=8c194039-3f83-4474-bb07-0cafff885cc3","ios":"levelo://app?vid=8c194039-3f83-4474-bb07-0cafff885cc3"},"vehicle_type_id":"4","last_reported":1752941543,"current_range_meters":10800,"station_id":"","pricing_plan_id":"cebpf4jnsgd1na2vs0mg"},{"bike_id":"af75cdeb-c4dc-4ea9-b05e-1bfe7bef18e4","system_id":"levelo_inurba_marseille","lat":43.26946,"lon":5.38626,"is_reserved":false,"is_disabled":false,"rental_uris":{"android":"levelo://app?vid=af75cdeb-c4dc-4ea9-b05e-1bfe7bef18e4","ios":"levelo://app?vid=af75cdeb-c4dc-4ea9-b05e-1bfe7bef18e4"},"vehicle_type_id":"4","last_reported":1752941543,"current_range_meters":11200,"station_id":"ce4bhh92rcd13ifvqfh0","pricing_plan_id":"cebpf4jnsgd1na2vs0mg"},{"bike_id":"8ef91a6c-3f69-4b79-ab84-ce08361be2a5","system_id":"levelo_inurba_marseille","lat":43.27389,"lon":5.36248,"is_reserved":false,"is_disabled":false,"rental_uris":{"android":"levelo://app?vid=8ef91a6c-3f69-4b79-ab84-ce08361be2a5","ios":"levelo://app?vid=8ef91a6c-3f69-4b79-ab84-ce08361be2a5"},"vehicle_type_id":"4","last_reported":1752941543,"current_range_meters":11200,"station_id":"ce4bhbh2rcd13ifvqeo0","pricing_plan_id":"cebpf4jnsgd1na2vs0mg"},{"bike_id":"b4c40497-6aa4-4874-87c3-cf544cbffa36","system_id":"levelo_inurba_marseille","lat":43.28282,"lon":5.35076,"is_reserved":false,"is_disabled":false,"rental_uris":{"android":"levelo://app?vid=b4c40497-6aa4-4874-87c3-cf544cbffa36","ios":"levelo://app?vid=b4c40497-6aa4-4874-87c3-cf544cbffa36"},"vehicle_type_id":"4","last_reported":1752941543,"current_range_meters":11200,"station_id":"ce4bhbp2rcd13ifvqerg","pricing_plan_id":"cebpf4jnsgd1na2vs0mg"},{"bike_id":"b545278d-1ee4-4ad7-bc9f-6f9cf3676dfd","system_id":"levelo_inurba_marseille","lat":43.28421,"lon":5.34988,"is_reserved":false,"is_disabled":false,"rental_uris":{"android":"levelo://app?vid=b545278d-1ee4-4ad7-bc9f-6f9cf3676dfd","ios":"levelo://app?vid=b545278d-1ee4-4ad7-bc9f-6f9cf3676dfd"},"vehicle_type_id":"4","last_reported":1752941543,"current_range_meters":11200,"station_id":"ce4bhbh2rcd13ifvqepg","pricing_plan_id":"cebpf4jnsgd1na2vs0mg"},{"bike_id":"0e33dda2-d47d-4261-9e87-d963691659fc","system_id":"levelo_inurba_marseille","lat":43.28844,"lon":5.35836,"is_reserved":false,"is_disabled":true,"rental_uris":{"android":"levelo://app?vid=0e33dda2-d47d-4261-9e87-d963691659fc","ios":"levelo://app?vid=0e33dda2-d47d-4261-9e87-d963691659fc"},"vehicle_type_id":"4","last_reported":1752941543,"current_range_meters":11200,"station_id":"ce4bhb12rcd13ifvqem0","pricing_plan_id":"cebpf4jnsgd1na2vs0mg"},{"bike_id":"dd5c27a5-05d8-40e8-9509-edf2d3299e4a","system_id":"levelo_inurba_marseille","lat":43.240742,"lon":5.377536,"is_reserved":false,"is_disabled":true,"rental_uris":{"android":"levelo://app?vid=dd5c27a5-05d8-40e8-9509-edf2d3299e4a","ios":"levelo://app?vid=dd5c27a5-05d8-40e8-9509-edf2d3299e4a"},"vehicle_type_id":"4","last_reported":1752941543,"current_range_meters":11600,"station_id":"ce4bhnp2rcd13ifvqgvg","pricing_plan_id":"cebpf4jnsgd1na2vs0mg"},{"bike_id":"c4738a90-1dbf-40d2-ac31-b0235e4e839c","system_id":"levelo_inurba_marseille","lat":43.29532,"lon":5.38542,"is_reserved":false,"is_disabled":false,"rental_uris":{"android":"levelo://app?vid=c4738a90-1dbf-40d2-ac31-b0235e4e839c","ios":"levelo://app?vid=c4738a90-1dbf-40d2-ac31-b0235e4e839c"},"vehicle_type_id":"4","last_reported":1752941543,"current_range_meters":11600,"station_id":"ce4bgih2rcd13ifvqba0","pricing_plan_id":"cebpf4jnsgd1na2vs0mg"},{"bike_id":"9d77ed5f-b25c-4724-8218-25d9010942f2","system_id":"levelo_inurba_marseille","lat":43.28419,"lon":5.34992,"is_reserved":false,"is_disabled":false,"rental_uris":{"android":"levelo://app?vid=9d77ed5f-b25c-4724-8218-25d9010942f2","ios":"levelo://app?vid=9d77ed5f-b25c-4724-8218-25d9010942f2"},"vehicle_type_id":"4","last_reported":1752941543,"current_range_meters":11600,"station_id":"ce4bhbh2rcd13ifvqepg","pricing_plan_id":"cebpf4jnsgd1na2vs0mg"},{"bike_id":"09a99cc9-81c2-4c00-890e-b8a9af05bd19","system_id":"levelo_inurba_marseille","lat":43.24171,"lon":5.36401,"is_reserved":false,"is_disabled":false,"rental_uris":{"android":"levelo://app?vid=09a99cc9-81c2-4c00-890e-b8a9af05bd19","ios":"levelo://app?vid=09a99cc9-81c2-4c00-890e-b8a9af05bd19"},"vehicle_type_id":"4","last_reported":1752941543,"current_range_meters":11600,"station_id":"cpo36qri1sfpv3e86is0","pricing_plan_id":"cebpf4jnsgd1na2vs0mg"},{"bike_id":"0916292f-c60f-4ec2-a3c5-bb862cec8507","system_id":"levelo_inurba_marseille","lat":43.23191,"lon":5.35562,"is_reserved":false,"is_disabled":false,"rental_uris":{"android":"levelo://app?vid=0916292f-c60f-4ec2-a3c5-bb862cec8507","ios":"levelo://app?vid=0916292f-c60f-4ec2-a3c5-bb862cec8507"},"vehicle_type_id":"4","last_reported":1752941543,"current_range_meters":11600,"station_id":"ce4bhu92rcd13ifvqi70","pricing_plan_id":"cebpf4jnsgd1na2vs0mg"},{"bike_id":"92d9d5e7-65c4-4759-91ef-d1e3854ae267","system_id":"levelo_inurba_marseille","lat":43.31995,"lon":5.38152,"is_reserved":false,"is_disabled":false,"rental_uris":{"android":"levelo://app?vid=92d9d5e7-65c4-4759-91ef-d1e3854ae267","ios":"levelo://app?vid=92d9d5e7-65c4-4759-91ef-d1e3854ae267"},"vehicle_type_id":"4","last_reported":1752941543,"current_range_meters":11200,"station_id":"ce4bhr12rcd13ifvqhpg","pricing_plan_id":"cebpf4jnsgd1na2vs0mg"},{"bike_id":"b1252802-f176-40ed-9d29-315b1dee4448","system_id":"levelo_inurba_marseille","lat":43.25819,"lon":5.39438,"is_reserved":false,"is_disabled":false,"rental_uris":{"android":"levelo://app?vid=b1252802-f176-40ed-9d29-315b1dee4448","ios":"levelo://app?vid=b1252802-f176-40ed-9d29-315b1dee4448"},"vehicle_type_id":"4","last_reported":1752941543,"current_range_meters":11600,"station_id":"ce4bhip2rcd13ifvqft0","pricing_plan_id":"cebpf4jnsgd1na2vs0mg"},{"bike_id":"ec24e56d-5a6e-4267-b1f2-c196aaddc297","system_id":"levelo_inurba_marseille","lat":43.26205,"lon":5.37447,"is_reserved":false,"is_disabled":false,"rental_uris":{"android":"levelo://app?vid=ec24e56d-5a6e-4267-b1f2-c196aaddc297","ios":"levelo://app?vid=ec24e56d-5a6e-4267-b1f2-c196aaddc297"},"vehicle_type_id":"4","last_reported":1752941543,"current_range_meters":11600,"station_id":"ce4bhgp2rcd13ifvqfc0","pricing_plan_id":"cebpf4jnsgd1na2vs0mg"},{"bike_id":"875e79b8-828f-41e0-8e09-6cdd5634f137","system_id":"levelo_inurba_marseille","lat":43.28407,"lon":5.35022,"is_reserved":false,"is_disabled":false,"rental_uris":{"android":"levelo://app?vid=875e79b8-828f-41e0-8e09-6cdd5634f137","ios":"levelo://app?vid=875e79b8-828f-41e0-8e09-6cdd5634f137"},"vehicle_type_id":"4","last_reported":1752941543,"current_range_meters":12000,"station_id":"ce4bhbh2rcd13ifvqepg","pricing_plan_id":"cebpf4jnsgd1na2vs0mg"},{"bike_id":"5ed36269-e3ef-4526-8fb3-4f0e9801b5f7","system_id":"levelo_inurba_marseille","lat":43.28939,"lon":5.36644,"is_reserved":false,"is_disabled":false,"rental_uris":{"android":"levelo://app?vid=5ed36269-e3ef-4526-8fb3-4f0e9801b5f7","ios":"levelo://app?vid=5ed36269-e3ef-4526-8fb3-4f0e9801b5f7"},"vehicle_type_id":"4","last_reported":1752941543,"current_range_meters":12000,"station_id":"ce4bhap2rcd13ifvqek0","pricing_plan_id":"cebpf4jnsgd1na2vs0mg"},{"bike_id":"96579d04-b9e9-484c-9b9a-af500e5e8552","system_id":"levelo_inurba_marseille","lat":43.32674,"lon":5.3639,"is_reserved":false,"is_disabled":false,"rental_uris":{"android":"levelo://app?vid=96579d04-b9e9-484c-9b9a-af500e5e8552","ios":"levelo://app?vid=96579d04-b9e9-484c-9b9a-af500e5e8552"},"vehicle_type_id":"4","last_reported":1752941543,"current_range_meters":12000,"station_id":"","pricing_plan_id":"cebpf4jnsgd1na2vs0mg"},{"bike_id":"e010d240-e69c-4804-a9fe-7423d926ea08","system_id":"levelo_inurba_marseille","lat":43.30461,"lon":5.379,"is_reserved":false,"is_disabled":false,"rental_uris":{"android":"levelo://app?vid=e010d240-e69c-4804-a9fe-7423d926ea08","ios":"levelo://app?vid=e010d240-e69c-4804-a9fe-7423d926ea08"},"vehicle_type_id":"4","last_reported":1752941543,"current_range_meters":12000,"station_id":"ce4bgup2rcd13ifvqcn0","pricing_plan_id":"cebpf4jnsgd1na2vs0mg"},{"bike_id":"1b854a4b-240d-4845-bddd-d442bbfa0897","system_id":"levelo_inurba_marseille","lat":43.23197,"lon":5.3555,"is_reserved":false,"is_disabled":false,"rental_uris":{"android":"levelo://app?vid=1b854a4b-240d-4845-bddd-d442bbfa0897","ios":"levelo://app?vid=1b854a4b-240d-4845-bddd-d442bbfa0897"},"vehicle_type_id":"4","last_reported":1752941543,"current_range_meters":12400,"station_id":"ce4bhu92rcd13ifvqi70","pricing_plan_id":"cebpf4jnsgd1na2vs0mg"},{"bike_id":"59cb9f42-a927-4089-a7d9-4171459e6c64","system_id":"levelo_inurba_marseille","lat":43.274468,"lon":5.39385,"is_reserved":false,"is_disabled":false,"rental_uris":{"android":"levelo://app?vid=59cb9f42-a927-4089-a7d9-4171459e6c64","ios":"levelo://app?vid=59cb9f42-a927-4089-a7d9-4171459e6c64"},"vehicle_type_id":"4","last_reported":1752941543,"current_range_meters":12000,"station_id":"ce4bhdp2rcd13ifvqf20","pricing_plan_id":"cebpf4jnsgd1na2vs0mg"},{"bike_id":"ade3f6b3-fa52-421f-aebe-1b39c1e3e93a","system_id":"levelo_inurba_marseille","lat":43.2988,"lon":5.38913,"is_reserved":false,"is_disabled":false,"rental_uris":{"android":"levelo://app?vid=ade3f6b3-fa52-421f-aebe-1b39c1e3e93a","ios":"levelo://app?vid=ade3f6b3-fa52-421f-aebe-1b39c1e3e93a"},"vehicle_type_id":"4","last_reported":1752941543,"current_range_meters":12000,"station_id":"ce4bh392rcd13ifvqdl0","pricing_plan_id":"cebpf4jnsgd1na2vs0mg"},{"bike_id":"d9749d8f-7121-4a45-ac25-8f48b28876d4","system_id":"levelo_inurba_marseille","lat":43.28088,"lon":5.35205,"is_reserved":false,"is_disabled":false,"rental_uris":{"android":"levelo://app?vid=d9749d8f-7121-4a45-ac25-8f48b28876d4","ios":"levelo://app?vid=d9749d8f-7121-4a45-ac25-8f48b28876d4"},"vehicle_type_id":"4","last_reported":1752941543,"current_range_meters":12400,"station_id":"","pricing_plan_id":"cebpf4jnsgd1na2vs0mg"},{"bike_id":"d7149a46-fb39-4935-aa6a-50600ec45c29","system_id":"levelo_inurba_marseille","lat":43.217487,"lon":5.346077,"is_reserved":false,"is_disabled":true,"rental_uris":{"android":"levelo://app?vid=d7149a46-fb39-4935-aa6a-50600ec45c29","ios":"levelo://app?vid=d7149a46-fb39-4935-aa6a-50600ec45c29"},"vehicle_type_id":"4","last_reported":1752941543,"current_range_meters":12400,"station_id":"st_cvj6r9ubvosntc0bgbag","pricing_plan_id":"cebpf4jnsgd1na2vs0mg"},{"bike_id":"3605d35d-f5f1-4b8c-9045-b89ed08529ba","system_id":"levelo_inurba_marseille","lat":43.28286,"lon":5.35067,"is_reserved":false,"is_disabled":false,"rental_uris":{"android":"levelo://app?vid=3605d35d-f5f1-4b8c-9045-b89ed08529ba","ios":"levelo://app?vid=3605d35d-f5f1-4b8c-9045-b89ed08529ba"},"vehicle_type_id":"4","last_reported":1752941543,"current_range_meters":12400,"station_id":"ce4bhbp2rcd13ifvqerg","pricing_plan_id":"cebpf4jnsgd1na2vs0mg"},{"bike_id":"0ae4d6c1-fe19-4d40-90c0-2a3b36699f19","system_id":"levelo_inurba_marseille","lat":43.32675,"lon":5.404773,"is_reserved":false,"is_disabled":false,"rental_uris":{"android":"levelo://app?vid=0ae4d6c1-fe19-4d40-90c0-2a3b36699f19","ios":"levelo://app?vid=0ae4d6c1-fe19-4d40-90c0-2a3b36699f19"},"vehicle_type_id":"4","last_reported":1752941543,"current_range_meters":13600,"station_id":"","pricing_plan_id":"cebpf4jnsgd1na2vs0mg"},{"bike_id":"64449e96-f3d2-4c35-9cb4-78b443f29b7a","system_id":"levelo_inurba_marseille","lat":43.28619,"lon":5.35095,"is_reserved":false,"is_disabled":false,"rental_uris":{"android":"levelo://app?vid=64449e96-f3d2-4c35-9cb4-78b443f29b7a","ios":"levelo://app?vid=64449e96-f3d2-4c35-9cb4-78b443f29b7a"},"vehicle_type_id":"4","last_reported":1752941543,"current_range_meters":12800,"station_id":"ce4bhch2rcd13ifvqeug","pricing_plan_id":"cebpf4jnsgd1na2vs0mg"},{"bike_id":"94c07cb2-0943-4d24-99f2-97bdab47aa3f","system_id":"levelo_inurba_marseille","lat":43.337444,"lon":5.374475,"is_reserved":false,"is_disabled":false,"rental_uris":{"android":"levelo://app?vid=94c07cb2-0943-4d24-99f2-97bdab47aa3f","ios":"levelo://app?vid=94c07cb2-0943-4d24-99f2-97bdab47aa3f"},"vehicle_type_id":"4","last_reported":1752941543,"current_range_meters":12800,"station_id":"","pricing_plan_id":"cebpf4jnsgd1na2vs0mg"},{"bike_id":"d1675cc2-8800-46b3-8968-2965f8e11594","system_id":"levelo_inurba_marseille","lat":43.22952,"lon":5.35362,"is_reserved":false,"is_disabled":false,"rental_uris":{"android":"levelo://app?vid=d1675cc2-8800-46b3-8968-2965f8e11594","ios":"levelo://app?vid=d1675cc2-8800-46b3-8968-2965f8e11594"},"vehicle_type_id":"4","last_reported":1752941543,"current_range_meters":13600,"station_id":"cpo3532slgdg3j2ikp40","pricing_plan_id":"cebpf4jnsgd1na2vs0mg"},{"bike_id":"8350003f-2999-433d-9ad9-923cf70c187e","system_id":"levelo_inurba_marseille","lat":43.29868,"lon":5.39734,"is_reserved":false,"is_disabled":false,"rental_uris":{"android":"levelo://app?vid=8350003f-2999-433d-9ad9-923cf70c187e","ios":"levelo://app?vid=8350003f-2999-433d-9ad9-923cf70c187e"},"vehicle_type_id":"4","last_reported":1752941543,"current_range_meters":13600,"station_id":"","pricing_plan_id":"cebpf4jnsgd1na2vs0mg"},{"bike_id":"b970126c-c1c3-439a-8880-44ad88bd90cf","system_id":"levelo_inurba_marseille","lat":43.32089,"lon":5.36746,"is_reserved":false,"is_disabled":false,"rental_uris":{"android":"levelo://app?vid=b970126c-c1c3-439a-8880-44ad88bd90cf","ios":"levelo://app?vid=b970126c-c1c3-439a-8880-44ad88bd90cf"},"vehicle_type_id":"4","last_reported":1752941543,"current_range_meters":13600,"station_id":"ce4bhrh2rcd13ifvqhug","pricing_plan_id":"cebpf4jnsgd1na2vs0mg"},{"bike_id":"7360b2c1-827d-4a45-ba07-948ef7d2fc35","system_id":"levelo_inurba_marseille","lat":43.229295,"lon":5.353761,"is_reserved":false,"is_disabled":false,"rental_uris":{"android":"levelo://app?vid=7360b2c1-827d-4a45-ba07-948ef7d2fc35","ios":"levelo://app?vid=7360b2c1-827d-4a45-ba07-948ef7d2fc35"},"vehicle_type_id":"4","last_reported":1752941543,"current_range_meters":13600,"station_id":"","pricing_plan_id":"cebpf4jnsgd1na2vs0mg"},{"bike_id":"9fa57174-8ae4-4bb7-8598-3c00c2d4268c","system_id":"levelo_inurba_marseille","lat":43.23149,"lon":5.43722,"is_reserved":false,"is_disabled":false,"rental_uris":{"android":"levelo://app?vid=9fa57174-8ae4-4bb7-8598-3c00c2d4268c","ios":"levelo://app?vid=9fa57174-8ae4-4bb7-8598-3c00c2d4268c"},"vehicle_type_id":"4","last_reported":1752941543,"current_range_meters":14000,"station_id":"ce4bhmp2rcd13ifvqgog","pricing_plan_id":"cebpf4jnsgd1na2vs0mg"},{"bike_id":"9eee562f-c74b-4c1a-8fa0-1792764207de","system_id":"levelo_inurba_marseille","lat":43.25488,"lon":5.37653,"is_reserved":false,"is_disabled":false,"rental_uris":{"android":"levelo://app?vid=9eee562f-c74b-4c1a-8fa0-1792764207de","ios":"levelo://app?vid=9eee562f-c74b-4c1a-8fa0-1792764207de"},"vehicle_type_id":"4","last_reported":1752941543,"current_range_meters":14000,"station_id":"ce4bhh12rcd13ifvqff0","pricing_plan_id":"cebpf4jnsgd1na2vs0mg"},{"bike_id":"977026fc-c1b4-4def-be0a-4e99c39bea4f","system_id":"levelo_inurba_marseille","lat":43.28276,"lon":5.35077,"is_reserved":false,"is_disabled":false,"rental_uris":{"android":"levelo://app?vid=977026fc-c1b4-4def-be0a-4e99c39bea4f","ios":"levelo://app?vid=977026fc-c1b4-4def-be0a-4e99c39bea4f"},"vehicle_type_id":"4","last_reported":1752941543,"current_range_meters":14000,"station_id":"ce4bhbp2rcd13ifvqerg","pricing_plan_id":"cebpf4jnsgd1na2vs0mg"},{"bike_id":"83a00534-ad07-4e9f-b6a8-fb2ab7da13f1","system_id":"levelo_inurba_marseille","lat":43.27378,"lon":5.36259,"is_reserved":false,"is_disabled":false,"rental_uris":{"android":"levelo://app?vid=83a00534-ad07-4e9f-b6a8-fb2ab7da13f1","ios":"levelo://app?vid=83a00534-ad07-4e9f-b6a8-fb2ab7da13f1"},"vehicle_type_id":"4","last_reported":1752941543,"current_range_meters":14000,"station_id":"ce4bhbh2rcd13ifvqeo0","pricing_plan_id":"cebpf4jnsgd1na2vs0mg"},{"bike_id":"69174324-2b6a-4eaf-b188-60080a25b908","system_id":"levelo_inurba_marseille","lat":43.32364,"lon":5.36756,"is_reserved":false,"is_disabled":false,"rental_uris":{"android":"levelo://app?vid=69174324-2b6a-4eaf-b188-60080a25b908","ios":"levelo://app?vid=69174324-2b6a-4eaf-b188-60080a25b908"},"vehicle_type_id":"4","last_reported":1752941543,"current_range_meters":14000,"station_id":"ce4bhsh2rcd13ifvqi2g","pricing_plan_id":"cebpf4jnsgd1na2vs0mg"},{"bike_id":"d1e9c72e-7489-4052-b944-813b64bc55b4","system_id":"levelo_inurba_marseille","lat":43.31594,"lon":5.38946,"is_reserved":false,"is_disabled":false,"rental_uris":{"android":"levelo://app?vid=d1e9c72e-7489-4052-b944-813b64bc55b4","ios":"levelo://app?vid=d1e9c72e-7489-4052-b944-813b64bc55b4"},"vehicle_type_id":"4","last_reported":1752941543,"current_range_meters":14000,"station_id":"","pricing_plan_id":"cebpf4jnsgd1na2vs0mg"},{"bike_id":"2973ca06-cc13-4503-a298-6601debf7df6","system_id":"levelo_inurba_marseille","lat":43.231767,"lon":5.399842,"is_reserved":false,"is_disabled":false,"rental_uris":{"android":"levelo://app?vid=2973ca06-cc13-4503-a298-6601debf7df6","ios":"levelo://app?vid=2973ca06-cc13-4503-a298-6601debf7df6"},"vehicle_type_id":"4","last_reported":1752941543,"current_range_meters":13600,"station_id":"ce4bhn12rcd13ifvqgqg","pricing_plan_id":"cebpf4jnsgd1na2vs0mg"},{"bike_id":"ae565035-2a05-4423-8131-e2e1c44076d6","system_id":"levelo_inurba_marseille","lat":43.25496,"lon":5.37649,"is_reserved":false,"is_disabled":false,"rental_uris":{"android":"levelo://app?vid=ae565035-2a05-4423-8131-e2e1c44076d6","ios":"levelo://app?vid=ae565035-2a05-4423-8131-e2e1c44076d6"},"vehicle_type_id":"4","last_reported":1752941543,"current_range_meters":14400,"station_id":"ce4bhh12rcd13ifvqff0","pricing_plan_id":"cebpf4jnsgd1na2vs0mg"},{"bike_id":"b32d1a93-0beb-427d-955f-7686e06dec9b","system_id":"levelo_inurba_marseille","lat":43.23179,"lon":5.3557,"is_reserved":false,"is_disabled":false,"rental_uris":{"android":"levelo://app?vid=b32d1a93-0beb-427d-955f-7686e06dec9b","ios":"levelo://app?vid=b32d1a93-0beb-427d-955f-7686e06dec9b"},"vehicle_type_id":"4","last_reported":1752941543,"current_range_meters":14400,"station_id":"ce4bhu92rcd13ifvqi70","pricing_plan_id":"cebpf4jnsgd1na2vs0mg"},{"bike_id":"0703cdf4-27d3-4d2e-9975-ac47ba1f254c","system_id":"levelo_inurba_marseille","lat":43.302453,"lon":5.369521,"is_reserved":false,"is_disabled":false,"rental_uris":{"android":"levelo://app?vid=0703cdf4-27d3-4d2e-9975-ac47ba1f254c","ios":"levelo://app?vid=0703cdf4-27d3-4d2e-9975-ac47ba1f254c"},"vehicle_type_id":"4","last_reported":1752941543,"current_range_meters":14400,"station_id":"","pricing_plan_id":"cebpf4jnsgd1na2vs0mg"},{"bike_id":"5d34c39f-fadb-4060-9480-4dbc7dabb608","system_id":"levelo_inurba_marseille","lat":43.28937,"lon":5.38398,"is_reserved":false,"is_disabled":false,"rental_uris":{"android":"levelo://app?vid=5d34c39f-fadb-4060-9480-4dbc7dabb608","ios":"levelo://app?vid=5d34c39f-fadb-4060-9480-4dbc7dabb608"},"vehicle_type_id":"4","last_reported":1752941543,"current_range_meters":14400,"station_id":"ce4bh612rcd13ifvqe6g","pricing_plan_id":"cebpf4jnsgd1na2vs0mg"},{"bike_id":"fc6b25a3-506b-4c18-b7ea-c56c67a95aa9","system_id":"levelo_inurba_marseille","lat":43.28429,"lon":5.34992,"is_reserved":false,"is_disabled":false,"rental_uris":{"android":"levelo://app?vid=fc6b25a3-506b-4c18-b7ea-c56c67a95aa9","ios":"levelo://app?vid=fc6b25a3-506b-4c18-b7ea-c56c67a95aa9"},"vehicle_type_id":"4","last_reported":1752941543,"current_range_meters":14400,"station_id":"ce4bhbh2rcd13ifvqepg","pricing_plan_id":"cebpf4jnsgd1na2vs0mg"},{"bike_id":"b5bd6ea1-027c-4780-970c-f13c3e8db62a","system_id":"levelo_inurba_marseille","lat":43.295717,"lon":5.37506,"is_reserved":false,"is_disabled":false,"rental_uris":{"android":"levelo://app?vid=b5bd6ea1-027c-4780-970c-f13c3e8db62a","ios":"levelo://app?vid=b5bd6ea1-027c-4780-970c-f13c3e8db62a"},"vehicle_type_id":"4","last_reported":1752941543,"current_range_meters":14800,"station_id":"ce4bgh92rcd13ifvqb50","pricing_plan_id":"cebpf4jnsgd1na2vs0mg"},{"bike_id":"547c2c8a-7c2e-4a36-951a-8d790357dd0c","system_id":"levelo_inurba_marseille","lat":43.30357,"lon":5.41875,"is_reserved":false,"is_disabled":false,"rental_uris":{"android":"levelo://app?vid=547c2c8a-7c2e-4a36-951a-8d790357dd0c","ios":"levelo://app?vid=547c2c8a-7c2e-4a36-951a-8d790357dd0c"},"vehicle_type_id":"4","last_reported":1752941543,"current_range_meters":14400,"station_id":"ce4bhop2rcd13ifvqh7g","pricing_plan_id":"cebpf4jnsgd1na2vs0mg"},{"bike_id":"f1809c6d-a698-4f48-95f7-3baa320675f9","system_id":"levelo_inurba_marseille","lat":43.28627,"lon":5.35096,"is_reserved":false,"is_disabled":false,"rental_uris":{"android":"levelo://app?vid=f1809c6d-a698-4f48-95f7-3baa320675f9","ios":"levelo://app?vid=f1809c6d-a698-4f48-95f7-3baa320675f9"},"vehicle_type_id":"4","last_reported":1752941543,"current_range_meters":14800,"station_id":"ce4bhch2rcd13ifvqeug","pricing_plan_id":"cebpf4jnsgd1na2vs0mg"},{"bike_id":"f330f9df-2f2e-49d7-8d48-f85f7822218d","system_id":"levelo_inurba_marseille","lat":43.28264,"lon":5.35094,"is_reserved":false,"is_disabled":false,"rental_uris":{"android":"levelo://app?vid=f330f9df-2f2e-49d7-8d48-f85f7822218d","ios":"levelo://app?vid=f330f9df-2f2e-49d7-8d48-f85f7822218d"},"vehicle_type_id":"4","last_reported":1752941543,"current_range_meters":14800,"station_id":"ce4bhbp2rcd13ifvqerg","pricing_plan_id":"cebpf4jnsgd1na2vs0mg"},{"bike_id":"fdbeb289-adb3-4e25-b0dd-c635efbe92b2","system_id":"levelo_inurba_marseille","lat":43.31684,"lon":5.40474,"is_reserved":false,"is_disabled":false,"rental_uris":{"android":"levelo://app?vid=fdbeb289-adb3-4e25-b0dd-c635efbe92b2","ios":"levelo://app?vid=fdbeb289-adb3-4e25-b0dd-c635efbe92b2"},"vehicle_type_id":"4","last_reported":1752941543,"current_range_meters":14800,"station_id":"ce4bh012rcd13ifvqd00","pricing_plan_id":"cebpf4jnsgd1na2vs0mg"},{"bike_id":"52d34b60-ddca-4509-9261-bfce6657806b","system_id":"levelo_inurba_marseille","lat":43.293595,"lon":5.378567,"is_reserved":false,"is_disabled":false,"rental_uris":{"android":"levelo://app?vid=52d34b60-ddca-4509-9261-bfce6657806b","ios":"levelo://app?vid=52d34b60-ddca-4509-9261-bfce6657806b"},"vehicle_type_id":"4","last_reported":1752941543,"current_range_meters":14400,"station_id":"ce4bgjh2rcd13ifvqbf0","pricing_plan_id":"cebpf4jnsgd1na2vs0mg"},{"bike_id":"a66f5142-5977-412f-938f-a04ab87d5118","system_id":"levelo_inurba_marseille","lat":43.293,"lon":5.37463,"is_reserved":false,"is_disabled":false,"rental_uris":{"android":"levelo://app?vid=a66f5142-5977-412f-938f-a04ab87d5118","ios":"levelo://app?vid=a66f5142-5977-412f-938f-a04ab87d5118"},"vehicle_type_id":"4","last_reported":1752941543,"current_range_meters":14800,"station_id":"ce4bgi12rcd13ifvqb70","pricing_plan_id":"cebpf4jnsgd1na2vs0mg"},{"bike_id":"c9ffd04b-c3a5-49bc-9896-054acbb108c7","system_id":"levelo_inurba_marseille","lat":43.22501,"lon":5.34784,"is_reserved":false,"is_disabled":false,"rental_uris":{"android":"levelo://app?vid=c9ffd04b-c3a5-49bc-9896-054acbb108c7","ios":"levelo://app?vid=c9ffd04b-c3a5-49bc-9896-054acbb108c7"},"vehicle_type_id":"4","last_reported":1752941543,"current_range_meters":14800,"station_id":"st_cvj5dfep6f1abm77gieg","pricing_plan_id":"cebpf4jnsgd1na2vs0mg"},{"bike_id":"a54008a8-d6df-4141-9c71-b657434298fc","system_id":"levelo_inurba_marseille","lat":43.31708,"lon":5.40469,"is_reserved":false,"is_disabled":false,"rental_uris":{"android":"levelo://app?vid=a54008a8-d6df-4141-9c71-b657434298fc","ios":"levelo://app?vid=a54008a8-d6df-4141-9c71-b657434298fc"},"vehicle_type_id":"4","last_reported":1752941543,"current_range_meters":15200,"station_id":"ce4bh012rcd13ifvqd00","pricing_plan_id":"cebpf4jnsgd1na2vs0mg"},{"bike_id":"646bd144-4ffa-49b8-a08d-6b47ca08200f","system_id":"levelo_inurba_marseille","lat":43.25489,"lon":5.37648,"is_reserved":false,"is_disabled":true,"rental_uris":{"android":"levelo://app?vid=646bd144-4ffa-49b8-a08d-6b47ca08200f","ios":"levelo://app?vid=646bd144-4ffa-49b8-a08d-6b47ca08200f"},"vehicle_type_id":"4","last_reported":1752941543,"current_range_meters":15200,"station_id":"ce4bhh12rcd13ifvqff0","pricing_plan_id":"cebpf4jnsgd1na2vs0mg"},{"bike_id":"072d9626-be18-4556-a3f5-056b23bb503d","system_id":"levelo_inurba_marseille","lat":43.28658,"lon":5.36345,"is_reserved":false,"is_disabled":false,"rental_uris":{"android":"levelo://app?vid=072d9626-be18-4556-a3f5-056b23bb503d","ios":"levelo://app?vid=072d9626-be18-4556-a3f5-056b23bb503d"},"vehicle_type_id":"4","last_reported":1752941543,"current_range_meters":15200,"station_id":"ce4bhah2rcd13ifvqej0","pricing_plan_id":"cebpf4jnsgd1na2vs0mg"},{"bike_id":"444fd8c6-08a0-4371-b458-c6ecf7e55ec4","system_id":"levelo_inurba_marseille","lat":43.28418,"lon":5.34979,"is_reserved":false,"is_disabled":false,"rental_uris":{"android":"levelo://app?vid=444fd8c6-08a0-4371-b458-c6ecf7e55ec4","ios":"levelo://app?vid=444fd8c6-08a0-4371-b458-c6ecf7e55ec4"},"vehicle_type_id":"4","last_reported":1752941543,"current_range_meters":15200,"station_id":"","pricing_plan_id":"cebpf4jnsgd1na2vs0mg"},{"bike_id":"603820f9-76b2-471d-a1fc-f566022def88","system_id":"levelo_inurba_marseille","lat":43.28274,"lon":5.35075,"is_reserved":false,"is_disabled":false,"rental_uris":{"android":"levelo://app?vid=603820f9-76b2-471d-a1fc-f566022def88","ios":"levelo://app?vid=603820f9-76b2-471d-a1fc-f566022def88"},"vehicle_type_id":"4","last_reported":1752941543,"current_range_meters":15200,"station_id":"ce4bhbp2rcd13ifvqerg","pricing_plan_id":"cebpf4jnsgd1na2vs0mg"},{"bike_id":"1c522f02-0b79-4f13-8656-a28cc4186541","system_id":"levelo_inurba_marseille","lat":43.21753,"lon":5.34601,"is_reserved":false,"is_disabled":false,"rental_uris":{"android":"levelo://app?vid=1c522f02-0b79-4f13-8656-a28cc4186541","ios":"levelo://app?vid=1c522f02-0b79-4f13-8656-a28cc4186541"},"vehicle_type_id":"4","last_reported":1752941543,"current_range_meters":15200,"station_id":"","pricing_plan_id":"cebpf4jnsgd1na2vs0mg"},{"bike_id":"c04f4d0e-09c8-4656-9c87-195fcc2f8942","system_id":"levelo_inurba_marseille","lat":43.28438,"lon":5.34995,"is_reserved":false,"is_disabled":false,"rental_uris":{"android":"levelo://app?vid=c04f4d0e-09c8-4656-9c87-195fcc2f8942","ios":"levelo://app?vid=c04f4d0e-09c8-4656-9c87-195fcc2f8942"},"vehicle_type_id":"4","last_reported":1752941543,"current_range_meters":16000,"station_id":"ce4bhbh2rcd13ifvqepg","pricing_plan_id":"cebpf4jnsgd1na2vs0mg"},{"bike_id":"d421927e-7ddd-40a0-904f-5b4ff0266a72","system_id":"levelo_inurba_marseille","lat":43.31929,"lon":5.40169,"is_reserved":false,"is_disabled":false,"rental_uris":{"android":"levelo://app?vid=d421927e-7ddd-40a0-904f-5b4ff0266a72","ios":"levelo://app?vid=d421927e-7ddd-40a0-904f-5b4ff0266a72"},"vehicle_type_id":"4","last_reported":1752941543,"current_range_meters":16000,"station_id":"","pricing_plan_id":"cebpf4jnsgd1na2vs0mg"},{"bike_id":"0fd02cf6-67fb-4589-807f-241dd50b7e1a","system_id":"levelo_inurba_marseille","lat":43.299004,"lon":5.436688,"is_reserved":false,"is_disabled":true,"rental_uris":{"android":"levelo://app?vid=0fd02cf6-67fb-4589-807f-241dd50b7e1a","ios":"levelo://app?vid=0fd02cf6-67fb-4589-807f-241dd50b7e1a"},"vehicle_type_id":"4","last_reported":1752941543,"current_range_meters":16000,"station_id":"ce4bhpp2rcd13ifvqhfg","pricing_plan_id":"cebpf4jnsgd1na2vs0mg"},{"bike_id":"45dea0eb-918d-49f1-8341-001e35c226f0","system_id":"levelo_inurba_marseille","lat":43.21187,"lon":5.350761,"is_reserved":false,"is_disabled":false,"rental_uris":{"android":"levelo://app?vid=45dea0eb-918d-49f1-8341-001e35c226f0","ios":"levelo://app?vid=45dea0eb-918d-49f1-8341-001e35c226f0"},"vehicle_type_id":"4","last_reported":1752941543,"current_range_meters":16000,"station_id":"st_cvj6sg6p6f1abm77japg","pricing_plan_id":"cebpf4jnsgd1na2vs0mg"},{"bike_id":"cf9f7b6f-b252-45aa-bd41-e7b8a5947e88","system_id":"levelo_inurba_marseille","lat":43.26947,"lon":5.40255,"is_reserved":false,"is_disabled":true,"rental_uris":{"android":"levelo://app?vid=cf9f7b6f-b252-45aa-bd41-e7b8a5947e88","ios":"levelo://app?vid=cf9f7b6f-b252-45aa-bd41-e7b8a5947e88"},"vehicle_type_id":"4","last_reported":1752941543,"current_range_meters":16000,"station_id":"cjm6bp8fraef2m0cb0m0","pricing_plan_id":"cebpf4jnsgd1na2vs0mg"},{"bike_id":"a6de290b-5c15-427b-bc37-8301607e1735","system_id":"levelo_inurba_marseille","lat":43.337444,"lon":5.374475,"is_reserved":false,"is_disabled":false,"rental_uris":{"android":"levelo://app?vid=a6de290b-5c15-427b-bc37-8301607e1735","ios":"levelo://app?vid=a6de290b-5c15-427b-bc37-8301607e1735"},"vehicle_type_id":"4","last_reported":1752941543,"current_range_meters":16000,"station_id":"","pricing_plan_id":"cebpf4jnsgd1na2vs0mg"},{"bike_id":"74e93ff0-0fe3-46c1-8291-4ed06dfeed28","system_id":"levelo_inurba_marseille","lat":43.28621,"lon":5.35111,"is_reserved":false,"is_disabled":false,"rental_uris":{"android":"levelo://app?vid=74e93ff0-0fe3-46c1-8291-4ed06dfeed28","ios":"levelo://app?vid=74e93ff0-0fe3-46c1-8291-4ed06dfeed28"},"vehicle_type_id":"4","last_reported":1752941543,"current_range_meters":16000,"station_id":"ce4bhch2rcd13ifvqeug","pricing_plan_id":"cebpf4jnsgd1na2vs0mg"},{"bike_id":"d97db06b-5182-48a3-a2e2-7858eedc87d9","system_id":"levelo_inurba_marseille","lat":43.30143,"lon":5.3742,"is_reserved":false,"is_disabled":false,"rental_uris":{"android":"levelo://app?vid=d97db06b-5182-48a3-a2e2-7858eedc87d9","ios":"levelo://app?vid=d97db06b-5182-48a3-a2e2-7858eedc87d9"},"vehicle_type_id":"4","last_reported":1752941543,"current_range_meters":15200,"station_id":"ce4bgs92rcd13ifvqcc0","pricing_plan_id":"cebpf4jnsgd1na2vs0mg"},{"bike_id":"e122d88a-9b60-4e16-a29e-60ef32a8dad5","system_id":"levelo_inurba_marseille","lat":43.21198,"lon":5.35103,"is_reserved":false,"is_disabled":false,"rental_uris":{"android":"levelo://app?vid=e122d88a-9b60-4e16-a29e-60ef32a8dad5","ios":"levelo://app?vid=e122d88a-9b60-4e16-a29e-60ef32a8dad5"},"vehicle_type_id":"4","last_reported":1752941543,"current_range_meters":16000,"station_id":"st_cvj6sg6p6f1abm77japg","pricing_plan_id":"cebpf4jnsgd1na2vs0mg"},{"bike_id":"ceb67ffd-ebec-4638-9f19-b50131ec6658","system_id":"levelo_inurba_marseille","lat":43.23964,"lon":5.36633,"is_reserved":false,"is_disabled":false,"rental_uris":{"android":"levelo://app?vid=ceb67ffd-ebec-4638-9f19-b50131ec6658","ios":"levelo://app?vid=ceb67ffd-ebec-4638-9f19-b50131ec6658"},"vehicle_type_id":"4","last_reported":1752941543,"current_range_meters":16000,"station_id":"ce4bhi12rcd13ifvqfp0","pricing_plan_id":"cebpf4jnsgd1na2vs0mg"},{"bike_id":"6a193f41-f336-48d3-a5d0-a6fca3bf067e","system_id":"levelo_inurba_marseille","lat":43.24674,"lon":5.3813,"is_reserved":false,"is_disabled":false,"rental_uris":{"android":"levelo://app?vid=6a193f41-f336-48d3-a5d0-a6fca3bf067e","ios":"levelo://app?vid=6a193f41-f336-48d3-a5d0-a6fca3bf067e"},"vehicle_type_id":"4","last_reported":1752941543,"current_range_meters":16000,"station_id":"ce4bhih2rcd13ifvqfr0","pricing_plan_id":"cebpf4jnsgd1na2vs0mg"},{"bike_id":"44e89ad7-16a2-4910-805f-061f2aee5ab7","system_id":"levelo_inurba_marseille","lat":43.23187,"lon":5.35572,"is_reserved":false,"is_disabled":false,"rental_uris":{"android":"levelo://app?vid=44e89ad7-16a2-4910-805f-061f2aee5ab7","ios":"levelo://app?vid=44e89ad7-16a2-4910-805f-061f2aee5ab7"},"vehicle_type_id":"4","last_reported":1752941543,"current_range_meters":16000,"station_id":"ce4bhu92rcd13ifvqi70","pricing_plan_id":"cebpf4jnsgd1na2vs0mg"},{"bike_id":"7592d3b0-727d-4107-ba81-a2966cdc2b34","system_id":"levelo_inurba_marseille","lat":43.26222,"lon":5.40447,"is_reserved":false,"is_disabled":false,"rental_uris":{"android":"levelo://app?vid=7592d3b0-727d-4107-ba81-a2966cdc2b34","ios":"levelo://app?vid=7592d3b0-727d-4107-ba81-a2966cdc2b34"},"vehicle_type_id":"4","last_reported":1752941543,"current_range_meters":16400,"station_id":"ce4bhmh2rcd13ifvqgmg","pricing_plan_id":"cebpf4jnsgd1na2vs0mg"},{"bike_id":"7d91d34c-95ba-419a-8d0b-21d2aeaa83ad","system_id":"levelo_inurba_marseille","lat":43.25504,"lon":5.37643,"is_reserved":false,"is_disabled":true,"rental_uris":{"android":"levelo://app?vid=7d91d34c-95ba-419a-8d0b-21d2aeaa83ad","ios":"levelo://app?vid=7d91d34c-95ba-419a-8d0b-21d2aeaa83ad"},"vehicle_type_id":"4","last_reported":1752941543,"current_range_meters":16000,"station_id":"ce4bhh12rcd13ifvqff0","pricing_plan_id":"cebpf4jnsgd1na2vs0mg"},{"bike_id":"aa36f004-b5d3-4813-a701-2dda3dc28dfe","system_id":"levelo_inurba_marseille","lat":43.28268,"lon":5.35071,"is_reserved":false,"is_disabled":false,"rental_uris":{"android":"levelo://app?vid=aa36f004-b5d3-4813-a701-2dda3dc28dfe","ios":"levelo://app?vid=aa36f004-b5d3-4813-a701-2dda3dc28dfe"},"vehicle_type_id":"4","last_reported":1752941543,"current_range_meters":16400,"station_id":"ce4bhbp2rcd13ifvqerg","pricing_plan_id":"cebpf4jnsgd1na2vs0mg"},{"bike_id":"05585b48-a668-4314-aca5-99c060156177","system_id":"levelo_inurba_marseille","lat":43.28252,"lon":5.35081,"is_reserved":false,"is_disabled":false,"rental_uris":{"android":"levelo://app?vid=05585b48-a668-4314-aca5-99c060156177","ios":"levelo://app?vid=05585b48-a668-4314-aca5-99c060156177"},"vehicle_type_id":"4","last_reported":1752941543,"current_range_meters":16400,"station_id":"ce4bhbp2rcd13ifvqerg","pricing_plan_id":"cebpf4jnsgd1na2vs0mg"},{"bike_id":"f64d4495-c6c3-4047-b421-2e9c29951567","system_id":"levelo_inurba_marseille","lat":43.22515,"lon":5.3479,"is_reserved":false,"is_disabled":false,"rental_uris":{"android":"levelo://app?vid=f64d4495-c6c3-4047-b421-2e9c29951567","ios":"levelo://app?vid=f64d4495-c6c3-4047-b421-2e9c29951567"},"vehicle_type_id":"4","last_reported":1752941543,"current_range_meters":16400,"station_id":"st_cvj5dfep6f1abm77gieg","pricing_plan_id":"cebpf4jnsgd1na2vs0mg"},{"bike_id":"9c88e2f8-1f5d-4c11-af7b-4be5121520ef","system_id":"levelo_inurba_marseille","lat":43.28257,"lon":5.35073,"is_reserved":false,"is_disabled":false,"rental_uris":{"android":"levelo://app?vid=9c88e2f8-1f5d-4c11-af7b-4be5121520ef","ios":"levelo://app?vid=9c88e2f8-1f5d-4c11-af7b-4be5121520ef"},"vehicle_type_id":"4","last_reported":1752941543,"current_range_meters":16400,"station_id":"ce4bhbp2rcd13ifvqerg","pricing_plan_id":"cebpf4jnsgd1na2vs0mg"},{"bike_id":"4a2af6fb-f040-4dff-9ff5-d70c4f952e83","system_id":"levelo_inurba_marseille","lat":43.315134,"lon":5.373171,"is_reserved":false,"is_disabled":false,"rental_uris":{"android":"levelo://app?vid=4a2af6fb-f040-4dff-9ff5-d70c4f952e83","ios":"levelo://app?vid=4a2af6fb-f040-4dff-9ff5-d70c4f952e83"},"vehicle_type_id":"4","last_reported":1752941543,"current_range_meters":16400,"station_id":"ce4bgt12rcd13ifvqcd0","pricing_plan_id":"cebpf4jnsgd1na2vs0mg"},{"bike_id":"5cfba425-9675-4f12-b163-bb22dbf81ac4","system_id":"levelo_inurba_marseille","lat":43.217468,"lon":5.346025,"is_reserved":false,"is_disabled":false,"rental_uris":{"android":"levelo://app?vid=5cfba425-9675-4f12-b163-bb22dbf81ac4","ios":"levelo://app?vid=5cfba425-9675-4f12-b163-bb22dbf81ac4"},"vehicle_type_id":"4","last_reported":1752941543,"current_range_meters":16400,"station_id":"st_cvj6r9ubvosntc0bgbag","pricing_plan_id":"cebpf4jnsgd1na2vs0mg"},{"bike_id":"6f120e02-0867-4040-a62a-34c38406fbd8","system_id":"levelo_inurba_marseille","lat":43.21763,"lon":5.34584,"is_reserved":false,"is_disabled":false,"rental_uris":{"android":"levelo://app?vid=6f120e02-0867-4040-a62a-34c38406fbd8","ios":"levelo://app?vid=6f120e02-0867-4040-a62a-34c38406fbd8"},"vehicle_type_id":"4","last_reported":1752941543,"current_range_meters":16400,"station_id":"st_cvj6r9ubvosntc0bgbag","pricing_plan_id":"cebpf4jnsgd1na2vs0mg"},{"bike_id":"83036b03-adb1-418f-ad9f-83b2e4ca32f2","system_id":"levelo_inurba_marseille","lat":43.24168,"lon":5.36389,"is_reserved":false,"is_disabled":false,"rental_uris":{"android":"levelo://app?vid=83036b03-adb1-418f-ad9f-83b2e4ca32f2","ios":"levelo://app?vid=83036b03-adb1-418f-ad9f-83b2e4ca32f2"},"vehicle_type_id":"4","last_reported":1752941543,"current_range_meters":16400,"station_id":"cpo36qri1sfpv3e86is0","pricing_plan_id":"cebpf4jnsgd1na2vs0mg"},{"bike_id":"f4a58f62-b828-4cda-b4f9-1493df6c9b02","system_id":"levelo_inurba_marseille","lat":43.212194,"lon":5.350694,"is_reserved":false,"is_disabled":false,"rental_uris":{"android":"levelo://app?vid=f4a58f62-b828-4cda-b4f9-1493df6c9b02","ios":"levelo://app?vid=f4a58f62-b828-4cda-b4f9-1493df6c9b02"},"vehicle_type_id":"4","last_reported":1752941543,"current_range_meters":16400,"station_id":"st_cvj6sg6p6f1abm77japg","pricing_plan_id":"cebpf4jnsgd1na2vs0mg"},{"bike_id":"23d1e1ca-e960-4a56-b589-2c6b92c824bb","system_id":"levelo_inurba_marseille","lat":43.33107,"lon":5.39244,"is_reserved":false,"is_disabled":false,"rental_uris":{"android":"levelo://app?vid=23d1e1ca-e960-4a56-b589-2c6b92c824bb","ios":"levelo://app?vid=23d1e1ca-e960-4a56-b589-2c6b92c824bb"},"vehicle_type_id":"4","last_reported":1752941543,"current_range_meters":16400,"station_id":"","pricing_plan_id":"cebpf4jnsgd1na2vs0mg"},{"bike_id":"5a570911-22d0-41b1-a776-0fe138c4bdc4","system_id":"levelo_inurba_marseille","lat":43.21192,"lon":5.35077,"is_reserved":false,"is_disabled":false,"rental_uris":{"android":"levelo://app?vid=5a570911-22d0-41b1-a776-0fe138c4bdc4","ios":"levelo://app?vid=5a570911-22d0-41b1-a776-0fe138c4bdc4"},"vehicle_type_id":"4","last_reported":1752941543,"current_range_meters":16400,"station_id":"st_cvj6sg6p6f1abm77japg","pricing_plan_id":"cebpf4jnsgd1na2vs0mg"},{"bike_id":"37914269-1ad7-46c0-9f88-6e27e2bd4d47","system_id":"levelo_inurba_marseille","lat":43.230598,"lon":5.354952,"is_reserved":false,"is_disabled":false,"rental_uris":{"android":"levelo://app?vid=37914269-1ad7-46c0-9f88-6e27e2bd4d47","ios":"levelo://app?vid=37914269-1ad7-46c0-9f88-6e27e2bd4d47"},"vehicle_type_id":"4","last_reported":1752941543,"current_range_meters":16800,"station_id":"cpo3342slgdg3j2ifvpg","pricing_plan_id":"cebpf4jnsgd1na2vs0mg"},{"bike_id":"2d3e5adb-6ba8-4df7-be40-e52a630e3667","system_id":"levelo_inurba_marseille","lat":43.240785,"lon":5.377495,"is_reserved":false,"is_disabled":false,"rental_uris":{"android":"levelo://app?vid=2d3e5adb-6ba8-4df7-be40-e52a630e3667","ios":"levelo://app?vid=2d3e5adb-6ba8-4df7-be40-e52a630e3667"},"vehicle_type_id":"4","last_reported":1752941543,"current_range_meters":16800,"station_id":"ce4bhnp2rcd13ifvqgvg","pricing_plan_id":"cebpf4jnsgd1na2vs0mg"},{"bike_id":"be2fb6b8-f9f1-4e24-8d7a-ce43be2126d1","system_id":"levelo_inurba_marseille","lat":43.21755,"lon":5.34602,"is_reserved":false,"is_disabled":false,"rental_uris":{"android":"levelo://app?vid=be2fb6b8-f9f1-4e24-8d7a-ce43be2126d1","ios":"levelo://app?vid=be2fb6b8-f9f1-4e24-8d7a-ce43be2126d1"},"vehicle_type_id":"4","last_reported":1752941543,"current_range_meters":16800,"station_id":"st_cvj6r9ubvosntc0bgbag","pricing_plan_id":"cebpf4jnsgd1na2vs0mg"},{"bike_id":"0ac9b427-819d-4139-8162-77866abdf07d","system_id":"levelo_inurba_marseille","lat":43.24656,"lon":5.38885,"is_reserved":false,"is_disabled":false,"rental_uris":{"android":"levelo://app?vid=0ac9b427-819d-4139-8162-77866abdf07d","ios":"levelo://app?vid=0ac9b427-819d-4139-8162-77866abdf07d"},"vehicle_type_id":"4","last_reported":1752941543,"current_range_meters":16800,"station_id":"ce4bhg12rcd13ifvqf60","pricing_plan_id":"cebpf4jnsgd1na2vs0mg"},{"bike_id":"f734d1ab-e95f-49df-a640-db407264fdd1","system_id":"levelo_inurba_marseille","lat":43.295637,"lon":5.37509,"is_reserved":false,"is_disabled":false,"rental_uris":{"android":"levelo://app?vid=f734d1ab-e95f-49df-a640-db407264fdd1","ios":"levelo://app?vid=f734d1ab-e95f-49df-a640-db407264fdd1"},"vehicle_type_id":"4","last_reported":1752941543,"current_range_meters":16800,"station_id":"ce4bgh92rcd13ifvqb50","pricing_plan_id":"cebpf4jnsgd1na2vs0mg"},{"bike_id":"77e5d396-9f38-43c2-ae33-ac1f85df337d","system_id":"levelo_inurba_marseille","lat":43.29562,"lon":5.42267,"is_reserved":false,"is_disabled":false,"rental_uris":{"android":"levelo://app?vid=77e5d396-9f38-43c2-ae33-ac1f85df337d","ios":"levelo://app?vid=77e5d396-9f38-43c2-ae33-ac1f85df337d"},"vehicle_type_id":"4","last_reported":1752941543,"current_range_meters":16800,"station_id":"ce4bhph2rcd13ifvqhdg","pricing_plan_id":"cebpf4jnsgd1na2vs0mg"},{"bike_id":"a0bb25b8-2a4f-4f6e-8d37-997d0e548712","system_id":"levelo_inurba_marseille","lat":43.297822,"lon":5.370705,"is_reserved":false,"is_disabled":false,"rental_uris":{"android":"levelo://app?vid=a0bb25b8-2a4f-4f6e-8d37-997d0e548712","ios":"levelo://app?vid=a0bb25b8-2a4f-4f6e-8d37-997d0e548712"},"vehicle_type_id":"4","last_reported":1752941543,"current_range_meters":16400,"station_id":"ce4bgop2rcd13ifvqc1g","pricing_plan_id":"cebpf4jnsgd1na2vs0mg"},{"bike_id":"7fbd5c81-11da-46c5-b68d-7156a4f60615","system_id":"levelo_inurba_marseille","lat":43.29517,"lon":5.37517,"is_reserved":false,"is_disabled":false,"rental_uris":{"android":"levelo://app?vid=7fbd5c81-11da-46c5-b68d-7156a4f60615","ios":"levelo://app?vid=7fbd5c81-11da-46c5-b68d-7156a4f60615"},"vehicle_type_id":"4","last_reported":1752941543,"current_range_meters":16800,"station_id":"ce4bgkp2rcd13ifvqbmg","pricing_plan_id":"cebpf4jnsgd1na2vs0mg"},{"bike_id":"b1ba071f-c9d7-4730-aeaf-bdd0611c46b8","system_id":"levelo_inurba_marseille","lat":43.26055,"lon":5.37538,"is_reserved":false,"is_disabled":false,"rental_uris":{"android":"levelo://app?vid=b1ba071f-c9d7-4730-aeaf-bdd0611c46b8","ios":"levelo://app?vid=b1ba071f-c9d7-4730-aeaf-bdd0611c46b8"},"vehicle_type_id":"4","last_reported":1752941543,"current_range_meters":16800,"station_id":"ce4bhgh2rcd13ifvqfa0","pricing_plan_id":"cebpf4jnsgd1na2vs0mg"},{"bike_id":"55a6d2fa-7404-47a3-ab4d-4557b88d17ed","system_id":"levelo_inurba_marseille","lat":43.29272,"lon":5.37634,"is_reserved":false,"is_disabled":false,"rental_uris":{"android":"levelo://app?vid=55a6d2fa-7404-47a3-ab4d-4557b88d17ed","ios":"levelo://app?vid=55a6d2fa-7404-47a3-ab4d-4557b88d17ed"},"vehicle_type_id":"4","last_reported":1752941543,"current_range_meters":17200,"station_id":"ce4bgi12rcd13ifvqb80","pricing_plan_id":"cebpf4jnsgd1na2vs0mg"},{"bike_id":"8cf19945-c2d2-42a4-8511-f1116fad8815","system_id":"levelo_inurba_marseille","lat":43.26558,"lon":5.37293,"is_reserved":false,"is_disabled":false,"rental_uris":{"android":"levelo://app?vid=8cf19945-c2d2-42a4-8511-f1116fad8815","ios":"levelo://app?vid=8cf19945-c2d2-42a4-8511-f1116fad8815"},"vehicle_type_id":"4","last_reported":1752941543,"current_range_meters":17200,"station_id":"ce4bhg12rcd13ifvqf70","pricing_plan_id":"cebpf4jnsgd1na2vs0mg"},{"bike_id":"5c2bfbf5-3faa-4ff4-8c96-c3260c81d7b7","system_id":"levelo_inurba_marseille","lat":43.29532,"lon":5.38542,"is_reserved":false,"is_disabled":false,"rental_uris":{"android":"levelo://app?vid=5c2bfbf5-3faa-4ff4-8c96-c3260c81d7b7","ios":"levelo://app?vid=5c2bfbf5-3faa-4ff4-8c96-c3260c81d7b7"},"vehicle_type_id":"4","last_reported":1752941543,"current_range_meters":18800,"station_id":"ce4bgih2rcd13ifvqba0","pricing_plan_id":"cebpf4jnsgd1na2vs0mg"},{"bike_id":"c0ff4141-339b-40d5-bf28-c8bf93d29e47","system_id":"levelo_inurba_marseille","lat":43.22927,"lon":5.35373,"is_reserved":false,"is_disabled":false,"rental_uris":{"android":"levelo://app?vid=c0ff4141-339b-40d5-bf28-c8bf93d29e47","ios":"levelo://app?vid=c0ff4141-339b-40d5-bf28-c8bf93d29e47"},"vehicle_type_id":"4","last_reported":1752941543,"current_range_meters":17200,"station_id":"cpo3532slgdg3j2ikp40","pricing_plan_id":"cebpf4jnsgd1na2vs0mg"},{"bike_id":"170cc381-74d8-409f-b06a-adb393f36e9a","system_id":"levelo_inurba_marseille","lat":43.29915,"lon":5.37462,"is_reserved":false,"is_disabled":false,"rental_uris":{"android":"levelo://app?vid=170cc381-74d8-409f-b06a-adb393f36e9a","ios":"levelo://app?vid=170cc381-74d8-409f-b06a-adb393f36e9a"},"vehicle_type_id":"4","last_reported":1752941543,"current_range_meters":17200,"station_id":"ce4bgjh2rcd13ifvqbg0","pricing_plan_id":"cebpf4jnsgd1na2vs0mg"},{"bike_id":"0623aaf7-c769-45d3-abbf-bae39b725fbc","system_id":"levelo_inurba_marseille","lat":43.25588,"lon":5.38227,"is_reserved":false,"is_disabled":false,"rental_uris":{"android":"levelo://app?vid=0623aaf7-c769-45d3-abbf-bae39b725fbc","ios":"levelo://app?vid=0623aaf7-c769-45d3-abbf-bae39b725fbc"},"vehicle_type_id":"4","last_reported":1752941543,"current_range_meters":17200,"station_id":"ce4bhih2rcd13ifvqfs0","pricing_plan_id":"cebpf4jnsgd1na2vs0mg"},{"bike_id":"a4849453-fc76-4eef-856a-587b0feaf6dc","system_id":"levelo_inurba_marseille","lat":43.28437,"lon":5.34995,"is_reserved":false,"is_disabled":false,"rental_uris":{"android":"levelo://app?vid=a4849453-fc76-4eef-856a-587b0feaf6dc","ios":"levelo://app?vid=a4849453-fc76-4eef-856a-587b0feaf6dc"},"vehicle_type_id":"4","last_reported":1752941543,"current_range_meters":17200,"station_id":"ce4bhbh2rcd13ifvqepg","pricing_plan_id":"cebpf4jnsgd1na2vs0mg"},{"bike_id":"64caf522-1921-404b-a9eb-ac9f82993ae0","system_id":"levelo_inurba_marseille","lat":43.21763,"lon":5.34598,"is_reserved":false,"is_disabled":false,"rental_uris":{"android":"levelo://app?vid=64caf522-1921-404b-a9eb-ac9f82993ae0","ios":"levelo://app?vid=64caf522-1921-404b-a9eb-ac9f82993ae0"},"vehicle_type_id":"4","last_reported":1752941543,"current_range_meters":17200,"station_id":"st_cvj6r9ubvosntc0bgbag","pricing_plan_id":"cebpf4jnsgd1na2vs0mg"},{"bike_id":"50817c71-c433-41db-8588-f3f5b56e9306","system_id":"levelo_inurba_marseille","lat":43.22516,"lon":5.34777,"is_reserved":false,"is_disabled":false,"rental_uris":{"android":"levelo://app?vid=50817c71-c433-41db-8588-f3f5b56e9306","ios":"levelo://app?vid=50817c71-c433-41db-8588-f3f5b56e9306"},"vehicle_type_id":"4","last_reported":1752941543,"current_range_meters":17200,"station_id":"st_cvj5dfep6f1abm77gieg","pricing_plan_id":"cebpf4jnsgd1na2vs0mg"},{"bike_id":"09e5cefd-07c3-4f70-a0d6-53d1c652df2d","system_id":"levelo_inurba_marseille","lat":43.30261,"lon":5.40069,"is_reserved":false,"is_disabled":false,"rental_uris":{"android":"levelo://app?vid=09e5cefd-07c3-4f70-a0d6-53d1c652df2d","ios":"levelo://app?vid=09e5cefd-07c3-4f70-a0d6-53d1c652df2d"},"vehicle_type_id":"4","last_reported":1752941543,"current_range_meters":17200,"station_id":"ce4bgvh2rcd13ifvqcs0","pricing_plan_id":"cebpf4jnsgd1na2vs0mg"},{"bike_id":"4a5be14d-6f29-457f-aa2c-1711bdfcb255","system_id":"levelo_inurba_marseille","lat":43.29802,"lon":5.38085,"is_reserved":false,"is_disabled":false,"rental_uris":{"android":"levelo://app?vid=4a5be14d-6f29-457f-aa2c-1711bdfcb255","ios":"levelo://app?vid=4a5be14d-6f29-457f-aa2c-1711bdfcb255"},"vehicle_type_id":"4","last_reported":1752941543,"current_range_meters":16800,"station_id":"ce4bgip2rcd13ifvqbb0","pricing_plan_id":"cebpf4jnsgd1na2vs0mg"},{"bike_id":"5f6f85e8-9511-4b36-b81f-3e279bc3575b","system_id":"levelo_inurba_marseille","lat":43.305949,"lon":5.393692,"is_reserved":false,"is_disabled":false,"rental_uris":{"android":"levelo://app?vid=5f6f85e8-9511-4b36-b81f-3e279bc3575b","ios":"levelo://app?vid=5f6f85e8-9511-4b36-b81f-3e279bc3575b"},"vehicle_type_id":"4","last_reported":1752941543,"current_range_meters":18800,"station_id":"ce4bh0p2rcd13ifvqd80","pricing_plan_id":"cebpf4jnsgd1na2vs0mg"},{"bike_id":"95b5bcfa-54af-48c0-bd18-8f73f959ce2b","system_id":"levelo_inurba_marseille","lat":43.31935,"lon":5.37313,"is_reserved":false,"is_disabled":false,"rental_uris":{"android":"levelo://app?vid=95b5bcfa-54af-48c0-bd18-8f73f959ce2b","ios":"levelo://app?vid=95b5bcfa-54af-48c0-bd18-8f73f959ce2b"},"vehicle_type_id":"4","last_reported":1752941543,"current_range_meters":17200,"station_id":"","pricing_plan_id":"cebpf4jnsgd1na2vs0mg"},{"bike_id":"4756c3e0-fc87-4647-b159-7725acd8ef8b","system_id":"levelo_inurba_marseille","lat":43.21741,"lon":5.34603,"is_reserved":false,"is_disabled":false,"rental_uris":{"android":"levelo://app?vid=4756c3e0-fc87-4647-b159-7725acd8ef8b","ios":"levelo://app?vid=4756c3e0-fc87-4647-b159-7725acd8ef8b"},"vehicle_type_id":"4","last_reported":1752941543,"current_range_meters":17600,"station_id":"st_cvj6r9ubvosntc0bgbag","pricing_plan_id":"cebpf4jnsgd1na2vs0mg"},{"bike_id":"6fb131dd-8bae-4bc0-b0c0-17992306572f","system_id":"levelo_inurba_marseille","lat":43.29562,"lon":5.42304,"is_reserved":false,"is_disabled":false,"rental_uris":{"android":"levelo://app?vid=6fb131dd-8bae-4bc0-b0c0-17992306572f","ios":"levelo://app?vid=6fb131dd-8bae-4bc0-b0c0-17992306572f"},"vehicle_type_id":"4","last_reported":1752941543,"current_range_meters":17600,"station_id":"ce4bhph2rcd13ifvqhdg","pricing_plan_id":"cebpf4jnsgd1na2vs0mg"},{"bike_id":"cb32d093-ee3c-4e55-b5d8-f421974c5321","system_id":"levelo_inurba_marseille","lat":43.23961,"lon":5.36629,"is_reserved":false,"is_disabled":false,"rental_uris":{"android":"levelo://app?vid=cb32d093-ee3c-4e55-b5d8-f421974c5321","ios":"levelo://app?vid=cb32d093-ee3c-4e55-b5d8-f421974c5321"},"vehicle_type_id":"4","last_reported":1752941543,"current_range_meters":17600,"station_id":"ce4bhi12rcd13ifvqfp0","pricing_plan_id":"cebpf4jnsgd1na2vs0mg"},{"bike_id":"c9e13ae8-81d2-45a5-adef-f1b61a66153b","system_id":"levelo_inurba_marseille","lat":43.23931,"lon":5.36687,"is_reserved":false,"is_disabled":false,"rental_uris":{"android":"levelo://app?vid=c9e13ae8-81d2-45a5-adef-f1b61a66153b","ios":"levelo://app?vid=c9e13ae8-81d2-45a5-adef-f1b61a66153b"},"vehicle_type_id":"4","last_reported":1752941543,"current_range_meters":17600,"station_id":"ce4bhi12rcd13ifvqfp0","pricing_plan_id":"cebpf4jnsgd1na2vs0mg"},{"bike_id":"2ba13de8-2053-45a6-bcbf-51b7a4e83469","system_id":"levelo_inurba_marseille","lat":43.23775,"lon":5.3617,"is_reserved":false,"is_disabled":false,"rental_uris":{"android":"levelo://app?vid=2ba13de8-2053-45a6-bcbf-51b7a4e83469","ios":"levelo://app?vid=2ba13de8-2053-45a6-bcbf-51b7a4e83469"},"vehicle_type_id":"4","last_reported":1752941543,"current_range_meters":17600,"station_id":"","pricing_plan_id":"cebpf4jnsgd1na2vs0mg"},{"bike_id":"01e4a67a-eaeb-41d2-9672-e29a7634b230","system_id":"levelo_inurba_marseille","lat":43.2861,"lon":5.35106,"is_reserved":false,"is_disabled":false,"rental_uris":{"android":"levelo://app?vid=01e4a67a-eaeb-41d2-9672-e29a7634b230","ios":"levelo://app?vid=01e4a67a-eaeb-41d2-9672-e29a7634b230"},"vehicle_type_id":"4","last_reported":1752941543,"current_range_meters":17600,"station_id":"ce4bhch2rcd13ifvqeug","pricing_plan_id":"cebpf4jnsgd1na2vs0mg"},{"bike_id":"12c0af7f-d992-4f6f-be1c-802d340c13c5","system_id":"levelo_inurba_marseille","lat":43.29591,"lon":5.37503,"is_reserved":false,"is_disabled":true,"rental_uris":{"android":"levelo://app?vid=12c0af7f-d992-4f6f-be1c-802d340c13c5","ios":"levelo://app?vid=12c0af7f-d992-4f6f-be1c-802d340c13c5"},"vehicle_type_id":"4","last_reported":1752941543,"current_range_meters":17600,"station_id":"ce4bgh92rcd13ifvqb50","pricing_plan_id":"cebpf4jnsgd1na2vs0mg"},{"bike_id":"3a20ce58-b62e-473d-b855-6a41ff1f6132","system_id":"levelo_inurba_marseille","lat":43.25494,"lon":5.37647,"is_reserved":false,"is_disabled":false,"rental_uris":{"android":"levelo://app?vid=3a20ce58-b62e-473d-b855-6a41ff1f6132","ios":"levelo://app?vid=3a20ce58-b62e-473d-b855-6a41ff1f6132"},"vehicle_type_id":"4","last_reported":1752941543,"current_range_meters":17600,"station_id":"ce4bhh12rcd13ifvqff0","pricing_plan_id":"cebpf4jnsgd1na2vs0mg"},{"bike_id":"8eecb308-4ad0-4b20-8e2b-f6aac4784ac9","system_id":"levelo_inurba_marseille","lat":43.27905,"lon":5.35333,"is_reserved":false,"is_disabled":false,"rental_uris":{"android":"levelo://app?vid=8eecb308-4ad0-4b20-8e2b-f6aac4784ac9","ios":"levelo://app?vid=8eecb308-4ad0-4b20-8e2b-f6aac4784ac9"},"vehicle_type_id":"4","last_reported":1752941543,"current_range_meters":17600,"station_id":"","pricing_plan_id":"cebpf4jnsgd1na2vs0mg"},{"bike_id":"eca2d9a6-9946-4ff6-a3f3-9bce5243c578","system_id":"levelo_inurba_marseille","lat":43.24158,"lon":5.36409,"is_reserved":false,"is_disabled":false,"rental_uris":{"android":"levelo://app?vid=eca2d9a6-9946-4ff6-a3f3-9bce5243c578","ios":"levelo://app?vid=eca2d9a6-9946-4ff6-a3f3-9bce5243c578"},"vehicle_type_id":"4","last_reported":1752941543,"current_range_meters":18000,"station_id":"cpo36qri1sfpv3e86is0","pricing_plan_id":"cebpf4jnsgd1na2vs0mg"},{"bike_id":"f99ff1e4-4111-475a-aa3e-cb902d081040","system_id":"levelo_inurba_marseille","lat":43.24791,"lon":5.3747,"is_reserved":false,"is_disabled":false,"rental_uris":{"android":"levelo://app?vid=f99ff1e4-4111-475a-aa3e-cb902d081040","ios":"levelo://app?vid=f99ff1e4-4111-475a-aa3e-cb902d081040"},"vehicle_type_id":"4","last_reported":1752941543,"current_range_meters":18000,"station_id":"ce4bhgh2rcd13ifvqfb0","pricing_plan_id":"cebpf4jnsgd1na2vs0mg"},{"bike_id":"e4e6db7f-6842-4f2c-9bda-e73f51413a84","system_id":"levelo_inurba_marseille","lat":43.28631,"lon":5.35095,"is_reserved":false,"is_disabled":false,"rental_uris":{"android":"levelo://app?vid=e4e6db7f-6842-4f2c-9bda-e73f51413a84","ios":"levelo://app?vid=e4e6db7f-6842-4f2c-9bda-e73f51413a84"},"vehicle_type_id":"4","last_reported":1752941543,"current_range_meters":18000,"station_id":"ce4bhch2rcd13ifvqeug","pricing_plan_id":"cebpf4jnsgd1na2vs0mg"},{"bike_id":"0f674905-7e77-47d7-8c7e-e7de694ae3c3","system_id":"levelo_inurba_marseille","lat":43.28618,"lon":5.35107,"is_reserved":false,"is_disabled":false,"rental_uris":{"android":"levelo://app?vid=0f674905-7e77-47d7-8c7e-e7de694ae3c3","ios":"levelo://app?vid=0f674905-7e77-47d7-8c7e-e7de694ae3c3"},"vehicle_type_id":"4","last_reported":1752941543,"current_range_meters":18000,"station_id":"ce4bhch2rcd13ifvqeug","pricing_plan_id":"cebpf4jnsgd1na2vs0mg"},{"bike_id":"6ef7bf14-b1e9-44cb-bb59-0c16477d6fc9","system_id":"levelo_inurba_marseille","lat":43.2826,"lon":5.35065,"is_reserved":false,"is_disabled":false,"rental_uris":{"android":"levelo://app?vid=6ef7bf14-b1e9-44cb-bb59-0c16477d6fc9","ios":"levelo://app?vid=6ef7bf14-b1e9-44cb-bb59-0c16477d6fc9"},"vehicle_type_id":"4","last_reported":1752941543,"current_range_meters":18000,"station_id":"ce4bhbp2rcd13ifvqerg","pricing_plan_id":"cebpf4jnsgd1na2vs0mg"},{"bike_id":"87e6a2f2-e7ef-4dba-aeba-5588e1270124","system_id":"levelo_inurba_marseille","lat":43.22931,"lon":5.3539,"is_reserved":false,"is_disabled":false,"rental_uris":{"android":"levelo://app?vid=87e6a2f2-e7ef-4dba-aeba-5588e1270124","ios":"levelo://app?vid=87e6a2f2-e7ef-4dba-aeba-5588e1270124"},"vehicle_type_id":"4","last_reported":1752941543,"current_range_meters":18000,"station_id":"cpo3532slgdg3j2ikp40","pricing_plan_id":"cebpf4jnsgd1na2vs0mg"},{"bike_id":"057022ab-27cd-469c-8c8d-c822eac466d5","system_id":"levelo_inurba_marseille","lat":43.28622,"lon":5.35112,"is_reserved":false,"is_disabled":false,"rental_uris":{"android":"levelo://app?vid=057022ab-27cd-469c-8c8d-c822eac466d5","ios":"levelo://app?vid=057022ab-27cd-469c-8c8d-c822eac466d5"},"vehicle_type_id":"4","last_reported":1752941543,"current_range_meters":18000,"station_id":"ce4bhch2rcd13ifvqeug","pricing_plan_id":"cebpf4jnsgd1na2vs0mg"},{"bike_id":"707af16a-3189-4d92-b010-ef53c9012e98","system_id":"levelo_inurba_marseille","lat":43.21748,"lon":5.34592,"is_reserved":false,"is_disabled":false,"rental_uris":{"android":"levelo://app?vid=707af16a-3189-4d92-b010-ef53c9012e98","ios":"levelo://app?vid=707af16a-3189-4d92-b010-ef53c9012e98"},"vehicle_type_id":"4","last_reported":1752941543,"current_range_meters":18000,"station_id":"","pricing_plan_id":"cebpf4jnsgd1na2vs0mg"},{"bike_id":"ebe822d6-926c-493e-876e-50227250e76c","system_id":"levelo_inurba_marseille","lat":43.30543,"lon":5.36521,"is_reserved":false,"is_disabled":false,"rental_uris":{"android":"levelo://app?vid=ebe822d6-926c-493e-876e-50227250e76c","ios":"levelo://app?vid=ebe822d6-926c-493e-876e-50227250e76c"},"vehicle_type_id":"4","last_reported":1752941543,"current_range_meters":18000,"station_id":"ce4bgs12rcd13ifvqcag","pricing_plan_id":"cebpf4jnsgd1na2vs0mg"},{"bike_id":"1e6b4bb8-11c1-4647-8f99-3dbca91b4438","system_id":"levelo_inurba_marseille","lat":43.2861,"lon":5.35091,"is_reserved":false,"is_disabled":false,"rental_uris":{"android":"levelo://app?vid=1e6b4bb8-11c1-4647-8f99-3dbca91b4438","ios":"levelo://app?vid=1e6b4bb8-11c1-4647-8f99-3dbca91b4438"},"vehicle_type_id":"4","last_reported":1752941543,"current_range_meters":18000,"station_id":"ce4bhch2rcd13ifvqeug","pricing_plan_id":"cebpf4jnsgd1na2vs0mg"},{"bike_id":"39abf049-3891-4481-9c25-7fb7a413c85a","system_id":"levelo_inurba_marseille","lat":43.25496,"lon":5.37642,"is_reserved":false,"is_disabled":false,"rental_uris":{"android":"levelo://app?vid=39abf049-3891-4481-9c25-7fb7a413c85a","ios":"levelo://app?vid=39abf049-3891-4481-9c25-7fb7a413c85a"},"vehicle_type_id":"4","last_reported":1752941543,"current_range_meters":18000,"station_id":"ce4bhh12rcd13ifvqff0","pricing_plan_id":"cebpf4jnsgd1na2vs0mg"},{"bike_id":"58cbf85f-edbd-45f5-9d4b-352dbfcd1518","system_id":"levelo_inurba_marseille","lat":43.27171,"lon":5.40991,"is_reserved":false,"is_disabled":false,"rental_uris":{"android":"levelo://app?vid=58cbf85f-edbd-45f5-9d4b-352dbfcd1518","ios":"levelo://app?vid=58cbf85f-edbd-45f5-9d4b-352dbfcd1518"},"vehicle_type_id":"4","last_reported":1752941543,"current_range_meters":18000,"station_id":"ce4bhl12rcd13ifvqgf0","pricing_plan_id":"cebpf4jnsgd1na2vs0mg"},{"bike_id":"31a3e0d3-9340-4ba1-bee1-7596c0335d90","system_id":"levelo_inurba_marseille","lat":43.296563,"lon":5.379437,"is_reserved":false,"is_disabled":false,"rental_uris":{"android":"levelo://app?vid=31a3e0d3-9340-4ba1-bee1-7596c0335d90","ios":"levelo://app?vid=31a3e0d3-9340-4ba1-bee1-7596c0335d90"},"vehicle_type_id":"4","last_reported":1752941543,"current_range_meters":18000,"station_id":"","pricing_plan_id":"cebpf4jnsgd1na2vs0mg"},{"bike_id":"764c2037-223e-40ad-ae8c-9e91b6fe88bd","system_id":"levelo_inurba_marseille","lat":43.24552,"lon":5.39524,"is_reserved":false,"is_disabled":false,"rental_uris":{"android":"levelo://app?vid=764c2037-223e-40ad-ae8c-9e91b6fe88bd","ios":"levelo://app?vid=764c2037-223e-40ad-ae8c-9e91b6fe88bd"},"vehicle_type_id":"4","last_reported":1752941543,"current_range_meters":18000,"station_id":"ce4bhlp2rcd13ifvqgjg","pricing_plan_id":"cebpf4jnsgd1na2vs0mg"},{"bike_id":"8308bf7f-c42a-4e2d-9c82-f894204f3fc8","system_id":"levelo_inurba_marseille","lat":43.27172,"lon":5.40991,"is_reserved":false,"is_disabled":false,"rental_uris":{"android":"levelo://app?vid=8308bf7f-c42a-4e2d-9c82-f894204f3fc8","ios":"levelo://app?vid=8308bf7f-c42a-4e2d-9c82-f894204f3fc8"},"vehicle_type_id":"4","last_reported":1752941543,"current_range_meters":18000,"station_id":"ce4bhl12rcd13ifvqgf0","pricing_plan_id":"cebpf4jnsgd1na2vs0mg"},{"bike_id":"157990d3-b9c3-4f5c-8a17-d78382994a2f","system_id":"levelo_inurba_marseille","lat":43.26209,"lon":5.37933,"is_reserved":false,"is_disabled":false,"rental_uris":{"android":"levelo://app?vid=157990d3-b9c3-4f5c-8a17-d78382994a2f","ios":"levelo://app?vid=157990d3-b9c3-4f5c-8a17-d78382994a2f"},"vehicle_type_id":"4","last_reported":1752941543,"current_range_meters":18000,"station_id":"ce4bhjp2rcd13ifvqg90","pricing_plan_id":"cebpf4jnsgd1na2vs0mg"},{"bike_id":"e85a5b9b-e671-47fc-9a86-594d5f2d6058","system_id":"levelo_inurba_marseille","lat":43.23199,"lon":5.35549,"is_reserved":false,"is_disabled":false,"rental_uris":{"android":"levelo://app?vid=e85a5b9b-e671-47fc-9a86-594d5f2d6058","ios":"levelo://app?vid=e85a5b9b-e671-47fc-9a86-594d5f2d6058"},"vehicle_type_id":"4","last_reported":1752941543,"current_range_meters":18800,"station_id":"ce4bhu92rcd13ifvqi70","pricing_plan_id":"cebpf4jnsgd1na2vs0mg"},{"bike_id":"80cd86df-9ee9-4f8c-b879-0d019e00e156","system_id":"levelo_inurba_marseille","lat":43.28274,"lon":5.3508,"is_reserved":false,"is_disabled":false,"rental_uris":{"android":"levelo://app?vid=80cd86df-9ee9-4f8c-b879-0d019e00e156","ios":"levelo://app?vid=80cd86df-9ee9-4f8c-b879-0d019e00e156"},"vehicle_type_id":"4","last_reported":1752941543,"current_range_meters":18800,"station_id":"ce4bhbp2rcd13ifvqerg","pricing_plan_id":"cebpf4jnsgd1na2vs0mg"},{"bike_id":"4381bde2-8054-4743-beeb-716501f2fff2","system_id":"levelo_inurba_marseille","lat":43.27059,"lon":5.40266,"is_reserved":false,"is_disabled":false,"rental_uris":{"android":"levelo://app?vid=4381bde2-8054-4743-beeb-716501f2fff2","ios":"levelo://app?vid=4381bde2-8054-4743-beeb-716501f2fff2"},"vehicle_type_id":"4","last_reported":1752941543,"current_range_meters":18800,"station_id":"ce4bhk92rcd13ifvqgc0","pricing_plan_id":"cebpf4jnsgd1na2vs0mg"},{"bike_id":"d3aca52a-4e64-461a-8fd1-e9a035bafbdf","system_id":"levelo_inurba_marseille","lat":43.257213,"lon":5.411019,"is_reserved":false,"is_disabled":false,"rental_uris":{"android":"levelo://app?vid=d3aca52a-4e64-461a-8fd1-e9a035bafbdf","ios":"levelo://app?vid=d3aca52a-4e64-461a-8fd1-e9a035bafbdf"},"vehicle_type_id":"4","last_reported":1752941543,"current_range_meters":18800,"station_id":"","pricing_plan_id":"cebpf4jnsgd1na2vs0mg"},{"bike_id":"7cb87117-19f1-4d48-84b2-bec6ac38464c","system_id":"levelo_inurba_marseille","lat":43.29559,"lon":5.422706,"is_reserved":false,"is_disabled":false,"rental_uris":{"android":"levelo://app?vid=7cb87117-19f1-4d48-84b2-bec6ac38464c","ios":"levelo://app?vid=7cb87117-19f1-4d48-84b2-bec6ac38464c"},"vehicle_type_id":"4","last_reported":1752941543,"current_range_meters":18800,"station_id":"ce4bhph2rcd13ifvqhdg","pricing_plan_id":"cebpf4jnsgd1na2vs0mg"},{"bike_id":"7832960e-d16c-4a47-abb7-3d76fe7b03a7","system_id":"levelo_inurba_marseille","lat":43.2917,"lon":5.37167,"is_reserved":false,"is_disabled":false,"rental_uris":{"android":"levelo://app?vid=7832960e-d16c-4a47-abb7-3d76fe7b03a7","ios":"levelo://app?vid=7832960e-d16c-4a47-abb7-3d76fe7b03a7"},"vehicle_type_id":"4","last_reported":1752941543,"current_range_meters":18800,"station_id":"ce4bha92rcd13ifvqeh0","pricing_plan_id":"cebpf4jnsgd1na2vs0mg"},{"bike_id":"8cd0d573-40aa-467a-8504-5e15d7c16214","system_id":"levelo_inurba_marseille","lat":43.28615,"lon":5.35112,"is_reserved":false,"is_disabled":false,"rental_uris":{"android":"levelo://app?vid=8cd0d573-40aa-467a-8504-5e15d7c16214","ios":"levelo://app?vid=8cd0d573-40aa-467a-8504-5e15d7c16214"},"vehicle_type_id":"4","last_reported":1752941543,"current_range_meters":18800,"station_id":"ce4bhch2rcd13ifvqeug","pricing_plan_id":"cebpf4jnsgd1na2vs0mg"},{"bike_id":"aaa60820-80fd-4afd-9d4a-de02de98b358","system_id":"levelo_inurba_marseille","lat":43.21182,"lon":5.35065,"is_reserved":false,"is_disabled":false,"rental_uris":{"android":"levelo://app?vid=aaa60820-80fd-4afd-9d4a-de02de98b358","ios":"levelo://app?vid=aaa60820-80fd-4afd-9d4a-de02de98b358"},"vehicle_type_id":"4","last_reported":1752941543,"current_range_meters":18800,"station_id":"","pricing_plan_id":"cebpf4jnsgd1na2vs0mg"},{"bike_id":"cf6bf575-dd3c-41ff-83c4-9651cdd3d380","system_id":"levelo_inurba_marseille","lat":43.27178,"lon":5.40991,"is_reserved":false,"is_disabled":false,"rental_uris":{"android":"levelo://app?vid=cf6bf575-dd3c-41ff-83c4-9651cdd3d380","ios":"levelo://app?vid=cf6bf575-dd3c-41ff-83c4-9651cdd3d380"},"vehicle_type_id":"4","last_reported":1752941543,"current_range_meters":18000,"station_id":"ce4bhl12rcd13ifvqgf0","pricing_plan_id":"cebpf4jnsgd1na2vs0mg"},{"bike_id":"c9ebf0aa-c454-43da-b5c1-86c1d2e7d09d","system_id":"levelo_inurba_marseille","lat":43.28423,"lon":5.34993,"is_reserved":false,"is_disabled":false,"rental_uris":{"android":"levelo://app?vid=c9ebf0aa-c454-43da-b5c1-86c1d2e7d09d","ios":"levelo://app?vid=c9ebf0aa-c454-43da-b5c1-86c1d2e7d09d"},"vehicle_type_id":"4","last_reported":1752941543,"current_range_meters":19200,"station_id":"ce4bhbh2rcd13ifvqepg","pricing_plan_id":"cebpf4jnsgd1na2vs0mg"},{"bike_id":"d677bb7e-88a0-4b1c-abed-b2b88854c35c","system_id":"levelo_inurba_marseille","lat":43.292853,"lon":5.390347,"is_reserved":false,"is_disabled":false,"rental_uris":{"android":"levelo://app?vid=d677bb7e-88a0-4b1c-abed-b2b88854c35c","ios":"levelo://app?vid=d677bb7e-88a0-4b1c-abed-b2b88854c35c"},"vehicle_type_id":"4","last_reported":1752941543,"current_range_meters":18800,"station_id":"ce4bh192rcd13ifvqdd0","pricing_plan_id":"cebpf4jnsgd1na2vs0mg"},{"bike_id":"7db8f066-ab1d-4c41-8265-165c87e7372b","system_id":"levelo_inurba_marseille","lat":43.31698,"lon":5.40481,"is_reserved":false,"is_disabled":false,"rental_uris":{"android":"levelo://app?vid=7db8f066-ab1d-4c41-8265-165c87e7372b","ios":"levelo://app?vid=7db8f066-ab1d-4c41-8265-165c87e7372b"},"vehicle_type_id":"4","last_reported":1752941543,"current_range_meters":19200,"station_id":"ce4bh012rcd13ifvqd00","pricing_plan_id":"cebpf4jnsgd1na2vs0mg"},