{"last_updated":1687644392,"ttl":30,"version":"2.2","data":{"bikes":[{"bike_id":"1de6e099-4eed-4876-8aaf-6c2a22bda292","system_id":"levelo_inurba_marseille","lat":43.3135,"lon":5.36721,"is_reserved":false,"is_disabled":false,"rental_uris":{"android":"levelo://app?vid=1de6e099-4eed-4876-8aaf-6c2a22bda292","ios":"levelo://app?vid=1de6e099-4eed-4876-8aaf-6c2a22bda292"},"vehicle_type_id":"4","last_reported":1687644392,"current_range_meters":26400,"station_id":"ce4bgr92rcd13ifvqc6g","pricing_plan_id":"free"},{"bike_id":"d6834400-9588-4e58-bda9-5e0f21a5c83b","system_id":"levelo_inurba_marseille","lat":43.312239,"lon":5.368562,"is_reserved":false,"is_disabled":false,"rental_uris":{"android":"levelo://app?vid=d6834400-9588-4e58-bda9-5e0f21a5c83b","ios":"levelo://app?vid=d6834400-9588-4e58-bda9-5e0f21a5c83b"},"vehicle_type_id":"4","last_reported":1687644392,"current_range_meters":23600,"station_id":"ce4bgl92rcd13ifvqbq0","pricing_plan_id":"free"},{"bike_id":"574b0a1c-fec8-48b0-8d9f-4fee07673be3","system_id":"levelo_inurba_marseille","lat":43.31237,"lon":5.36922,"is_reserved":false,"is_disabled":false,"rental_uris":{"android":"levelo://app?vid=574b0a1c-fec8-48b0-8d9f-4fee07673be3","ios":"levelo://app?vid=574b0a1c-fec8-48b0-8d9f-4fee07673be3"},"vehicle_type_id":"4","last_reported":1687644392,"current_range_meters":22400,"station_id":"","pricing_plan_id":"free"},{"bike_id":"e3ce33a3-522e-478e-9d63-7068bf7d0637","system_id":"levelo_inurba_marseille","lat":43.30914,"lon":5.36851,"is_reserved":false,"is_disabled":false,"rental_uris":{"android":"levelo://app?vid=e3ce33a3-522e-478e-9d63-7068bf7d0637","ios":"levelo://app?vid=e3ce33a3-522e-478e-9d63-7068bf7d0637"},"vehicle_type_id":"4","last_reported":1687644392,"current_range_meters":0,"station_id":"ce4bgn92rcd13ifvqbvg","pricing_plan_id":"free"},{"bike_id":"271c57de-2534-4d88-b375-171451177464","system_id":"levelo_inurba_marseille","lat":43.309076,"lon":5.368465,"is_reserved":false,"is_disabled":false,"rental_uris":{"android":"levelo://app?vid=271c57de-2534-4d88-b375-171451177464","ios":"levelo://app?vid=271c57de-2534-4d88-b375-171451177464"},"vehicle_type_id":"4","last_reported":1687644392,"current_range_meters":31200,"station_id":"ce4bgn92rcd13ifvqbvg","pricing_plan_id":"free"},{"bike_id":"5b612a69-0622-452c-92a3-9befe81d7d75","system_id":"levelo_inurba_marseille","lat":43.314811,"lon":5.373103,"is_reserved":false,"is_disabled":false,"rental_uris":{"android":"levelo://app?vid=5b612a69-0622-452c-92a3-9befe81d7d75","ios":"levelo://app?vid=5b612a69-0622-452c-92a3-9befe81d7d75"},"vehicle_type_id":"4","last_reported":1687644392,"current_range_meters":9600,"station_id":"ce4bgt12rcd13ifvqcd0","pricing_plan_id":"free"},{"bike_id":"ac86194d-a1de-44de-877a-1bfa9007f708","system_id":"levelo_inurba_marseille","lat":43.314811,"lon":5.373103,"is_reserved":false,"is_disabled":false,"rental_uris":{"android":"levelo://app?vid=ac86194d-a1de-44de-877a-1bfa9007f708","ios":"levelo://app?vid=ac86194d-a1de-44de-877a-1bfa9007f708"},"vehicle_type_id":"4","last_reported":1687644392,"current_range_meters":18400,"station_id":"ce4bgt12rcd13ifvqcd0","pricing_plan_id":"free"},{"bike_id":"902b789d-b106-4de7-b657-6b15812ea2f6","system_id":"levelo_inurba_marseille","lat":43.314811,"lon":5.373103,"is_reserved":false,"is_disabled":false,"rental_uris":{"android":"levelo://app?vid=902b789d-b106-4de7-b657-6b15812ea2f6","ios":"levelo://app?vid=902b789d-b106-4de7-b657-6b15812ea2f6"},"vehicle_type_id":"4","last_reported":1687644392,"current_range_meters":6400,"station_id":"ce4bgt12rcd13ifvqcd0","pricing_plan_id":"free"},{"bike_id":"5955af01-91d3-4d9c-ac2e-785804e5646a","system_id":"levelo_inurba_marseille","lat":43.314811,"lon":5.373104,"is_reserved":false,"is_disabled":false,"rental_uris":{"android":"levelo://app?vid=5955af01-91d3-4d9c-ac2e-785804e5646a","ios":"levelo://app?vid=5955af01-91d3-4d9c-ac2e-785804e5646a"},"vehicle_type_id":"4","last_reported":1687644392,"current_range_meters":31600,"station_id":"ce4bgt12rcd13ifvqcd0","pricing_plan_id":"free"},{"bike_id":"2f421275-0ef1-46b3-93dd-4ea5e1322325","system_id":"levelo_inurba_marseille","lat":43.314811,"lon":5.373104,"is_reserved":false,"is_disabled":false,"rental_uris":{"android":"levelo://app?vid=2f421275-0ef1-46b3-93dd-4ea5e1322325","ios":"levelo://app?vid=2f421275-0ef1-46b3-93dd-4ea5e1322325"},"vehicle_type_id":"4","last_reported":1687644392,"current_range_meters":4800,"station_id":"ce4bgt12rcd13ifvqcd0","pricing_plan_id":"free"},{"bike_id":"20472967-918d-4e14-ae99-820993018c1f","system_id":"levelo_inurba_marseille","lat":43.308606,"lon":5.372099,"is_reserved":false,"is_disabled":false,"rental_uris":{"android":"levelo://app?vid=20472967-918d-4e14-ae99-820993018c1f","ios":"levelo://app?vid=20472967-918d-4e14-ae99-820993018c1f"},"vehicle_type_id":"4","last_reported":1687644392,"current_range_meters":31200,"station_id":"ce4bguh2rcd13ifvqckg","pricing_plan_id":"free"},{"bike_id":"06c44a41-a7b5-4e03-8e93-6ffff76395a8","system_id":"levelo_inurba_marseille","lat":43.308606,"lon":5.372099,"is_reserved":false,"is_disabled":false,"rental_uris":{"android":"levelo://app?vid=06c44a41-a7b5-4e03-8e93-6ffff76395a8","ios":"levelo://app?vid=06c44a41-a7b5-4e03-8e93-6ffff76395a8"},"vehicle_type_id":"4","last_reported":1687644392,"current_range_meters":800,"station_id":"ce4bguh2rcd13ifvqckg","pricing_plan_id":"free"},{"bike_id":"99782be9-cc2c-4925-9fdf-1c30586c970f","system_id":"levelo_inurba_marseille","lat":43.308614,"lon":5.372098,"is_reserved":false,"is_disabled":false,"rental_uris":{"android":"levelo://app?vid=99782be9-cc2c-4925-9fdf-1c30586c970f","ios":"levelo://app?vid=99782be9-cc2c-4925-9fdf-1c30586c970f"},"vehicle_type_id":"4","last_reported":1687644392,"current_range_meters":28400,"station_id":"ce4bguh2rcd13ifvqckg","pricing_plan_id":"free"},{"bike_id":"705f58d0-98f0-41d5-9326-58fa9ce9588c","system_id":"levelo_inurba_marseille","lat":43.308614,"lon":5.372098,"is_reserved":false,"is_disabled":false,"rental_uris":{"android":"levelo://app?vid=705f58d0-98f0-41d5-9326-58fa9ce9588c","ios":"levelo://app?vid=705f58d0-98f0-41d5-9326-58fa9ce9588c"},"vehicle_type_id":"4","last_reported":1687644392,"current_range_meters":17600,"station_id":"ce4bguh2rcd13ifvqckg","pricing_plan_id":"free"},{"bike_id":"f9ea4a74-2463-47dd-a09d-c2ae785819ce","system_id":"levelo_inurba_marseille","lat":43.308614,"lon":5.372098,"is_reserved":false,"is_disabled":false,"rental_uris":{"android":"levelo://app?vid=f9ea4a74-2463-47dd-a09d-c2ae785819ce","ios":"levelo://app?vid=f9ea4a74-2463-47dd-a09d-c2ae785819ce"},"vehicle_type_id":"4","last_reported":1687644392,"current_range_meters":0,"station_id":"ce4bguh2rcd13ifvqckg","pricing_plan_id":"free"},{"bike_id":"58ef1792-8666-497f-8890-af12dc32fb71","system_id":"levelo_inurba_marseille","lat":43.308606,"lon":5.372099,"is_reserved":false,"is_disabled":false,"rental_uris":{"android":"levelo://app?vid=58ef1792-8666-497f-8890-af12dc32fb71","ios":"levelo://app?vid=58ef1792-8666-497f-8890-af12dc32fb71"},"vehicle_type_id":"4","last_reported":1687644392,"current_range_meters":27600,"station_id":"ce4bguh2rcd13ifvqckg","pricing_plan_id":"free"},{"bike_id":"235d306e-f431-4c47-b7ab-6688b88e0942","system_id":"levelo_inurba_marseille","lat":43.308606,"lon":5.372099,"is_reserved":false,"is_disabled":false,"rental_uris":{"android":"levelo://app?vid=235d306e-f431-4c47-b7ab-6688b88e0942","ios":"levelo://app?vid=235d306e-f431-4c47-b7ab-6688b88e0942"},"vehicle_type_id":"4","last_reported":1687644392,"current_range_meters":2400,"station_id":"ce4bguh2rcd13ifvqckg","pricing_plan_id":"free"},{"bike_id":"2e4c91c5-a706-4852-9a1f-35e17ebce4d7","system_id":"levelo_inurba_marseille","lat":43.308833,"lon":5.371916,"is_reserved":false,"is_disabled":false,"rental_uris":{"android":"levelo://app?vid=2e4c91c5-a706-4852-9a1f-35e17ebce4d7","ios":"levelo://app?vid=2e4c91c5-a706-4852-9a1f-35e17ebce4d7"},"vehicle_type_id":"4","last_reported":1687644392,"current_range_meters":29600,"station_id":"","pricing_plan_id":"free"},{"bike_id":"9ca2bc95-3668-4c08-9bd4-813bf3cb928a","system_id":"levelo_inurba_marseille","lat":43.308606,"lon":5.372099,"is_reserved":false,"is_disabled":false,"rental_uris":{"android":"levelo://app?vid=9ca2bc95-3668-4c08-9bd4-813bf3cb928a","ios":"levelo://app?vid=9ca2bc95-3668-4c08-9bd4-813bf3cb928a"},"vehicle_type_id":"4","last_reported":1687644392,"current_range_meters":19200,"station_id":"ce4bguh2rcd13ifvqckg","pricing_plan_id":"free"},{"bike_id":"f1786358-6fe3-4ac5-ac0e-eede332250aa","system_id":"levelo_inurba_marseille","lat":43.308614,"lon":5.372098,"is_reserved":false,"is_disabled":false,"rental_uris":{"android":"levelo://app?vid=f1786358-6fe3-4ac5-ac0e-eede332250aa","ios":"levelo://app?vid=f1786358-6fe3-4ac5-ac0e-eede332250aa"},"vehicle_type_id":"4","last_reported":1687644392,"current_range_meters":0,"station_id":"ce4bguh2rcd13ifvqckg","pricing_plan_id":"free"},{"bike_id":"06c4c07c-6aae-4a51-9dc3-77fbbdd30d30","system_id":"levelo_inurba_marseille","lat":43.308614,"lon":5.372098,"is_reserved":false,"is_disabled":false,"rental_uris":{"android":"levelo://app?vid=06c4c07c-6aae-4a51-9dc3-77fbbdd30d30","ios":"levelo://app?vid=06c4c07c-6aae-4a51-9dc3-77fbbdd30d30"},"vehicle_type_id":"4","last_reported":1687644392,"current_range_meters":8400,"station_id":"ce4bguh2rcd13ifvqckg","pricing_plan_id":"free"},{"bike_id":"d86d8831-792c-43c9-9ec2-1b416ee4c79f","system_id":"levelo_inurba_marseille","lat":43.30538,"lon":5.36697,"is_reserved":false,"is_disabled":false,"rental_uris":{"android":"levelo://app?vid=d86d8831-792c-43c9-9ec2-1b416ee4c79f","ios":"levelo://app?vid=d86d8831-792c-43c9-9ec2-1b416ee4c79f"},"vehicle_type_id":"4","last_reported":1687644392,"current_range_meters":14000,"station_id":"","pricing_plan_id":"free"},{"bike_id":"9c510b15-fd2b-4440-ace3-922aa4f59c30","system_id":"levelo_inurba_marseille","lat":43.309076,"lon":5.368465,"is_reserved":false,"is_disabled":false,"rental_uris":{"android":"levelo://app?vid=9c510b15-fd2b-4440-ace3-922aa4f59c30","ios":"levelo://app?vid=9c510b15-fd2b-4440-ace3-922aa4f59c30"},"vehicle_type_id":"4","last_reported":1687644392,"current_range_meters":800,"station_id":"ce4bgn92rcd13ifvqbvg","pricing_plan_id":"free"},{"bike_id":"1c07b8bb-5f82-410c-9d7e-dee6dfda4273","system_id":"levelo_inurba_marseille","lat":43.30532,"lon":5.36695,"is_reserved":false,"is_disabled":false,"rental_uris":{"android":"levelo://app?vid=1c07b8bb-5f82-410c-9d7e-dee6dfda4273","ios":"levelo://app?vid=1c07b8bb-5f82-410c-9d7e-dee6dfda4273"},"vehicle_type_id":"4","last_reported":1687644392,"current_range_meters":12400,"station_id":"","pricing_plan_id":"free"},{"bike_id":"37973b2f-c39a-4004-98b4-a177629b8625","system_id":"levelo_inurba_marseille","lat":43.305706,"lon":5.365654,"is_reserved":false,"is_disabled":false,"rental_uris":{"android":"levelo://app?vid=37973b2f-c39a-4004-98b4-a177629b8625","ios":"levelo://app?vid=37973b2f-c39a-4004-98b4-a177629b8625"},"vehicle_type_id":"4","last_reported":1687644392,"current_range_meters":0,"station_id":"ce4bgs12rcd13ifvqcag","pricing_plan_id":"free"},{"bike_id":"fde63c9f-4c3d-41a1-951f-696e68712504","system_id":"levelo_inurba_marseille","lat":43.305706,"lon":5.365654,"is_reserved":false,"is_disabled":false,"rental_uris":{"android":"levelo://app?vid=fde63c9f-4c3d-41a1-951f-696e68712504","ios":"levelo://app?vid=fde63c9f-4c3d-41a1-951f-696e68712504"},"vehicle_type_id":"4","last_reported":1687644392,"current_range_meters":6000,"station_id":"ce4bgs12rcd13ifvqcag","pricing_plan_id":"free"},{"bike_id":"020d828f-4388-4ebc-b46e-7add03a3610c","system_id":"levelo_inurba_marseille","lat":43.30605,"lon":5.37222,"is_reserved":false,"is_disabled":false,"rental_uris":{"android":"levelo://app?vid=020d828f-4388-4ebc-b46e-7add03a3610c","ios":"levelo://app?vid=020d828f-4388-4ebc-b46e-7add03a3610c"},"vehicle_type_id":"4","last_reported":1687644392,"current_range_meters":8400,"station_id":"ce4bgqh2rcd13ifvqc4g","pricing_plan_id":"free"},{"bike_id":"f5da0ac1-a67b-4e5d-8530-d5d665fbda4b","system_id":"levelo_inurba_marseille","lat":43.306,"lon":5.37217,"is_reserved":false,"is_disabled":false,"rental_uris":{"android":"levelo://app?vid=f5da0ac1-a67b-4e5d-8530-d5d665fbda4b","ios":"levelo://app?vid=f5da0ac1-a67b-4e5d-8530-d5d665fbda4b"},"vehicle_type_id":"4","last_reported":1687644392,"current_range_meters":26000,"station_id":"ce4bgqh2rcd13ifvqc4g","pricing_plan_id":"free"},{"bike_id":"9196b979-bd03-4fcb-ae7a-363912da6c68","system_id":"levelo_inurba_marseille","lat":43.305989,"lon":5.37225,"is_reserved":false,"is_disabled":false,"rental_uris":{"android":"levelo://app?vid=9196b979-bd03-4fcb-ae7a-363912da6c68","ios":"levelo://app?vid=9196b979-bd03-4fcb-ae7a-363912da6c68"},"vehicle_type_id":"4","last_reported":1687644392,"current_range_meters":4000,"station_id":"ce4bgqh2rcd13ifvqc4g","pricing_plan_id":"free"},{"bike_id":"b63ac2d3-00db-40e5-8168-d0644891c981","system_id":"levelo_inurba_marseille","lat":43.30585,"lon":5.3722,"is_reserved":false,"is_disabled":false,"rental_uris":{"android":"levelo://app?vid=b63ac2d3-00db-40e5-8168-d0644891c981","ios":"levelo://app?vid=b63ac2d3-00db-40e5-8168-d0644891c981"},"vehicle_type_id":"4","last_reported":1687644392,"current_range_meters":800,"station_id":"ce4bgqh2rcd13ifvqc4g","pricing_plan_id":"free"},{"bike_id":"5a2f30d7-bd10-417e-bff1-e05e50fd7cc1","system_id":"levelo_inurba_marseille","lat":43.311125,"lon":5.377624,"is_reserved":false,"is_disabled":false,"rental_uris":{"android":"levelo://app?vid=5a2f30d7-bd10-417e-bff1-e05e50fd7cc1","ios":"levelo://app?vid=5a2f30d7-bd10-417e-bff1-e05e50fd7cc1"},"vehicle_type_id":"4","last_reported":1687644392,"current_range_meters":31200,"station_id":"ce4bgt92rcd13ifvqcg0","pricing_plan_id":"free"},{"bike_id":"765b2147-a5b9-41f7-aefe-b772d62a38af","system_id":"levelo_inurba_marseille","lat":43.311125,"lon":5.377624,"is_reserved":false,"is_disabled":false,"rental_uris":{"android":"levelo://app?vid=765b2147-a5b9-41f7-aefe-b772d62a38af","ios":"levelo://app?vid=765b2147-a5b9-41f7-aefe-b772d62a38af"},"vehicle_type_id":"4","last_reported":1687644392,"current_range_meters":7200,"station_id":"ce4bgt92rcd13ifvqcg0","pricing_plan_id":"free"},{"bike_id":"83f271f0-7fc5-4acf-8601-7ab558118c92","system_id":"levelo_inurba_marseille","lat":43.311125,"lon":5.377624,"is_reserved":false,"is_disabled":false,"rental_uris":{"android":"levelo://app?vid=83f271f0-7fc5-4acf-8601-7ab558118c92","ios":"levelo://app?vid=83f271f0-7fc5-4acf-8601-7ab558118c92"},"vehicle_type_id":"4","last_reported":1687644392,"current_range_meters":26800,"station_id":"ce4bgt92rcd13ifvqcg0","pricing_plan_id":"free"},{"bike_id":"2226f952-b772-449d-9f19-4bc1bbba9dcc","system_id":"levelo_inurba_marseille","lat":43.303046,"lon":5.368981,"is_reserved":false,"is_disabled":false,"rental_uris":{"android":"levelo://app?vid=2226f952-b772-449d-9f19-4bc1bbba9dcc","ios":"levelo://app?vid=2226f952-b772-449d-9f19-4bc1bbba9dcc"},"vehicle_type_id":"4","last_reported":1687644392,"current_range_meters":800,"station_id":"ce4bgqh2rcd13ifvqc5g","pricing_plan_id":"free"},{"bike_id":"d7ffc4b1-880a-4843-8547-5b2981eecf35","system_id":"levelo_inurba_marseille","lat":43.303046,"lon":5.368981,"is_reserved":false,"is_disabled":false,"rental_uris":{"android":"levelo://app?vid=d7ffc4b1-880a-4843-8547-5b2981eecf35","ios":"levelo://app?vid=d7ffc4b1-880a-4843-8547-5b2981eecf35"},"vehicle_type_id":"4","last_reported":1687644392,"current_range_meters":17600,"station_id":"ce4bgqh2rcd13ifvqc5g","pricing_plan_id":"free"},{"bike_id":"7f4a6064-f0ec-4aea-ba19-07b0fa9ecc11","system_id":"levelo_inurba_marseille","lat":43.30188,"lon":5.36605,"is_reserved":false,"is_disabled":false,"rental_uris":{"android":"levelo://app?vid=7f4a6064-f0ec-4aea-ba19-07b0fa9ecc11","ios":"levelo://app?vid=7f4a6064-f0ec-4aea-ba19-07b0fa9ecc11"},"vehicle_type_id":"4","last_reported":1687644392,"current_range_meters":17600,"station_id":"ce4bgrh2rcd13ifvqc8g","pricing_plan_id":"free"},{"bike_id":"cb7f1c35-bfd8-4ff3-bc48-8d0b7aa9c013","system_id":"levelo_inurba_marseille","lat":43.30144,"lon":5.36586,"is_reserved":false,"is_disabled":false,"rental_uris":{"android":"levelo://app?vid=cb7f1c35-bfd8-4ff3-bc48-8d0b7aa9c013","ios":"levelo://app?vid=cb7f1c35-bfd8-4ff3-bc48-8d0b7aa9c013"},"vehicle_type_id":"4","last_reported":1687644392,"current_range_meters":9600,"station_id":"","pricing_plan_id":"free"},{"bike_id":"1313d1b5-7dae-46ca-be1d-b71099f4991a","system_id":"levelo_inurba_marseille","lat":43.30476,"lon":5.37905,"is_reserved":false,"is_disabled":false,"rental_uris":{"android":"levelo://app?vid=1313d1b5-7dae-46ca-be1d-b71099f4991a","ios":"levelo://app?vid=1313d1b5-7dae-46ca-be1d-b71099f4991a"},"vehicle_type_id":"4","last_reported":1687644392,"current_range_meters":26800,"station_id":"ce4bgup2rcd13ifvqcn0","pricing_plan_id":"free"},{"bike_id":"a2dd2b21-6681-4f5c-837d-35bc9b5b6189","system_id":"levelo_inurba_marseille","lat":43.302784,"lon":5.377158,"is_reserved":false,"is_disabled":false,"rental_uris":{"android":"levelo://app?vid=a2dd2b21-6681-4f5c-837d-35bc9b5b6189","ios":"levelo://app?vid=a2dd2b21-6681-4f5c-837d-35bc9b5b6189"},"vehicle_type_id":"4","last_reported":1687644392,"current_range_meters":24800,"station_id":"ce4bguh2rcd13ifvqcj0","pricing_plan_id":"free"},{"bike_id":"c4ca8670-fe3d-42c4-853e-ac139d8a44cd","system_id":"levelo_inurba_marseille","lat":43.302784,"lon":5.377158,"is_reserved":false,"is_disabled":false,"rental_uris":{"android":"levelo://app?vid=c4ca8670-fe3d-42c4-853e-ac139d8a44cd","ios":"levelo://app?vid=c4ca8670-fe3d-42c4-853e-ac139d8a44cd"},"vehicle_type_id":"4","last_reported":1687644392,"current_range_meters":22000,"station_id":"ce4bguh2rcd13ifvqcj0","pricing_plan_id":"free"},{"bike_id":"95d6513d-e9c4-4107-b1d2-e5493d99d863","system_id":"levelo_inurba_marseille","lat":43.30143,"lon":5.37412,"is_reserved":false,"is_disabled":false,"rental_uris":{"android":"levelo://app?vid=95d6513d-e9c4-4107-b1d2-e5493d99d863","ios":"levelo://app?vid=95d6513d-e9c4-4107-b1d2-e5493d99d863"},"vehicle_type_id":"4","last_reported":1687644392,"current_range_meters":6000,"station_id":"ce4bgs92rcd13ifvqcc0","pricing_plan_id":"free"},{"bike_id":"0bafb61d-af8d-48de-9787-f6cc4a670f47","system_id":"levelo_inurba_marseille","lat":43.3014,"lon":5.37415,"is_reserved":false,"is_disabled":false,"rental_uris":{"android":"levelo://app?vid=0bafb61d-af8d-48de-9787-f6cc4a670f47","ios":"levelo://app?vid=0bafb61d-af8d-48de-9787-f6cc4a670f47"},"vehicle_type_id":"4","last_reported":1687644392,"current_range_meters":12400,"station_id":"ce4bgs92rcd13ifvqcc0","pricing_plan_id":"free"},{"bike_id":"d596ce4d-e28b-432e-8733-6546c39a7d7b","system_id":"levelo_inurba_marseille","lat":43.30138,"lon":5.37414,"is_reserved":false,"is_disabled":false,"rental_uris":{"android":"levelo://app?vid=d596ce4d-e28b-432e-8733-6546c39a7d7b","ios":"levelo://app?vid=d596ce4d-e28b-432e-8733-6546c39a7d7b"},"vehicle_type_id":"4","last_reported":1687644392,"current_range_meters":31200,"station_id":"ce4bgs92rcd13ifvqcc0","pricing_plan_id":"free"},{"bike_id":"d85a543f-e661-4ddd-b051-947e66ca7495","system_id":"levelo_inurba_marseille","lat":43.302784,"lon":5.377158,"is_reserved":false,"is_disabled":false,"rental_uris":{"android":"levelo://app?vid=d85a543f-e661-4ddd-b051-947e66ca7495","ios":"levelo://app?vid=d85a543f-e661-4ddd-b051-947e66ca7495"},"vehicle_type_id":"4","last_reported":1687644392,"current_range_meters":12800,"station_id":"ce4bguh2rcd13ifvqcj0","pricing_plan_id":"free"},{"bike_id":"0f8b79bb-1041-4174-84fe-b0d9f795c079","system_id":"levelo_inurba_marseille","lat":43.302784,"lon":5.377158,"is_reserved":false,"is_disabled":false,"rental_uris":{"android":"levelo://app?vid=0f8b79bb-1041-4174-84fe-b0d9f795c079","ios":"levelo://app?vid=0f8b79bb-1041-4174-84fe-b0d9f795c079"},"vehicle_type_id":"4","last_reported":1687644392,"current_range_meters":9200,"station_id":"ce4bguh2rcd13ifvqcj0","pricing_plan_id":"free"},{"bike_id":"9fb2af00-a3bb-4d59-9a9c-bf6fb58d47f0","system_id":"levelo_inurba_marseille","lat":43.31985,"lon":5.38142,"is_reserved":false,"is_disabled":false,"rental_uris":{"android":"levelo://app?vid=9fb2af00-a3bb-4d59-9a9c-bf6fb58d47f0","ios":"levelo://app?vid=9fb2af00-a3bb-4d59-9a9c-bf6fb58d47f0"},"vehicle_type_id":"4","last_reported":1687644392,"current_range_meters":31200,"station_id":"ce4bhr12rcd13ifvqhpg","pricing_plan_id":"free"},{"bike_id":"e5564a1b-7eaa-42d7-9eac-0b69cc97b61e","system_id":"levelo_inurba_marseille","lat":43.31988,"lon":5.38143,"is_reserved":false,"is_disabled":false,"rental_uris":{"android":"levelo://app?vid=e5564a1b-7eaa-42d7-9eac-0b69cc97b61e","ios":"levelo://app?vid=e5564a1b-7eaa-42d7-9eac-0b69cc97b61e"},"vehicle_type_id":"4","last_reported":1687644392,"current_range_meters":18000,"station_id":"ce4bhr12rcd13ifvqhpg","pricing_plan_id":"free"},{"bike_id":"7e9a47a8-5d6c-4e19-9cd5-24ee65ebc02d","system_id":"levelo_inurba_marseille","lat":43.31994,"lon":5.38148,"is_reserved":false,"is_disabled":false,"rental_uris":{"android":"levelo://app?vid=7e9a47a8-5d6c-4e19-9cd5-24ee65ebc02d","ios":"levelo://app?vid=7e9a47a8-5d6c-4e19-9cd5-24ee65ebc02d"},"vehicle_type_id":"4","last_reported":1687644392,"current_range_meters":30800,"station_id":"ce4bhr12rcd13ifvqhpg","pricing_plan_id":"free"},{"bike_id":"25bcc21c-84b0-43f8-8ed1-2713382bd734","system_id":"levelo_inurba_marseille","lat":43.31993,"lon":5.38154,"is_reserved":false,"is_disabled":false,"rental_uris":{"android":"levelo://app?vid=25bcc21c-84b0-43f8-8ed1-2713382bd734","ios":"levelo://app?vid=25bcc21c-84b0-43f8-8ed1-2713382bd734"},"vehicle_type_id":"4","last_reported":1687644392,"current_range_meters":25200,"station_id":"ce4bhr12rcd13ifvqhpg","pricing_plan_id":"free"},{"bike_id":"a75c021f-3ad2-4844-9119-7a136d74fc3a","system_id":"levelo_inurba_marseille","lat":43.313571,"lon":5.384829,"is_reserved":false,"is_disabled":false,"rental_uris":{"android":"levelo://app?vid=a75c021f-3ad2-4844-9119-7a136d74fc3a","ios":"levelo://app?vid=a75c021f-3ad2-4844-9119-7a136d74fc3a"},"vehicle_type_id":"4","last_reported":1687644392,"current_range_meters":28400,"station_id":"ce4bgt92rcd13ifvqcf0","pricing_plan_id":"free"},{"bike_id":"153fa751-8152-4c42-bdfd-71e59f0b6e19","system_id":"levelo_inurba_marseille","lat":43.313571,"lon":5.384829,"is_reserved":false,"is_disabled":false,"rental_uris":{"android":"levelo://app?vid=153fa751-8152-4c42-bdfd-71e59f0b6e19","ios":"levelo://app?vid=153fa751-8152-4c42-bdfd-71e59f0b6e19"},"vehicle_type_id":"4","last_reported":1687644392,"current_range_meters":26000,"station_id":"ce4bgt92rcd13ifvqcf0","pricing_plan_id":"free"},{"bike_id":"a6a1b60e-0359-40f4-b5c7-b0d3bb70a673","system_id":"levelo_inurba_marseille","lat":43.313571,"lon":5.384829,"is_reserved":false,"is_disabled":false,"rental_uris":{"android":"levelo://app?vid=a6a1b60e-0359-40f4-b5c7-b0d3bb70a673","ios":"levelo://app?vid=a6a1b60e-0359-40f4-b5c7-b0d3bb70a673"},"vehicle_type_id":"4","last_reported":1687644392,"current_range_meters":8000,"station_id":"ce4bgt92rcd13ifvqcf0","pricing_plan_id":"free"},{"bike_id":"0ffbb83f-7f4f-4298-bd29-7af02a35a0b7","system_id":"levelo_inurba_marseille","lat":43.313571,"lon":5.384829,"is_reserved":false,"is_disabled":false,"rental_uris":{"android":"levelo://app?vid=0ffbb83f-7f4f-4298-bd29-7af02a35a0b7","ios":"levelo://app?vid=0ffbb83f-7f4f-4298-bd29-7af02a35a0b7"},"vehicle_type_id":"4","last_reported":1687644392,"current_range_meters":20800,"station_id":"ce4bgt92rcd13ifvqcf0","pricing_plan_id":"free"},{"bike_id":"485eeb3e-50b8-4aee-954a-69f12f8bfa1e","system_id":"levelo_inurba_marseille","lat":43.31366,"lon":5.38495,"is_reserved":false,"is_disabled":false,"rental_uris":{"android":"levelo://app?vid=485eeb3e-50b8-4aee-954a-69f12f8bfa1e","ios":"levelo://app?vid=485eeb3e-50b8-4aee-954a-69f12f8bfa1e"},"vehicle_type_id":"4","last_reported":1687644392,"current_range_meters":26000,"station_id":"ce4bgt92rcd13ifvqcf0","pricing_plan_id":"free"},{"bike_id":"71600d7b-332f-46e7-ae3f-7749ee8aaede","system_id":"levelo_inurba_marseille","lat":43.31358,"lon":5.38499,"is_reserved":false,"is_disabled":false,"rental_uris":{"android":"levelo://app?vid=71600d7b-332f-46e7-ae3f-7749ee8aaede","ios":"levelo://app?vid=71600d7b-332f-46e7-ae3f-7749ee8aaede"},"vehicle_type_id":"4","last_reported":1687644392,"current_range_meters":27200,"station_id":"ce4bgt92rcd13ifvqcf0","pricing_plan_id":"free"},{"bike_id":"157881fd-c59c-4a45-a5f8-8782d2d5e4c9","system_id":"levelo_inurba_marseille","lat":43.313571,"lon":5.384829,"is_reserved":false,"is_disabled":false,"rental_uris":{"android":"levelo://app?vid=157881fd-c59c-4a45-a5f8-8782d2d5e4c9","ios":"levelo://app?vid=157881fd-c59c-4a45-a5f8-8782d2d5e4c9"},"vehicle_type_id":"4","last_reported":1687644392,"current_range_meters":30800,"station_id":"ce4bgt92rcd13ifvqcf0","pricing_plan_id":"free"},{"bike_id":"752a82d6-92e7-4663-b484-c1a92fe5a327","system_id":"levelo_inurba_marseille","lat":43.299222,"lon":5.365554,"is_reserved":false,"is_disabled":false,"rental_uris":{"android":"levelo://app?vid=752a82d6-92e7-4663-b484-c1a92fe5a327","ios":"levelo://app?vid=752a82d6-92e7-4663-b484-c1a92fe5a327"},"vehicle_type_id":"4","last_reported":1687644392,"current_range_meters":20000,"station_id":"ce4bgm92rcd13ifvqbr0","pricing_plan_id":"free"},{"bike_id":"a4b313ed-c24e-47d1-9927-d8218dd72180","system_id":"levelo_inurba_marseille","lat":43.299222,"lon":5.365554,"is_reserved":false,"is_disabled":false,"rental_uris":{"android":"levelo://app?vid=a4b313ed-c24e-47d1-9927-d8218dd72180","ios":"levelo://app?vid=a4b313ed-c24e-47d1-9927-d8218dd72180"},"vehicle_type_id":"4","last_reported":1687644392,"current_range_meters":31200,"station_id":"ce4bgm92rcd13ifvqbr0","pricing_plan_id":"free"},{"bike_id":"6bbd88ac-2201-4545-8ac4-2c71c6b58071","system_id":"levelo_inurba_marseille","lat":43.299222,"lon":5.365554,"is_reserved":false,"is_disabled":false,"rental_uris":{"android":"levelo://app?vid=6bbd88ac-2201-4545-8ac4-2c71c6b58071","ios":"levelo://app?vid=6bbd88ac-2201-4545-8ac4-2c71c6b58071"},"vehicle_type_id":"4","last_reported":1687644392,"current_range_meters":28400,"station_id":"ce4bgm92rcd13ifvqbr0","pricing_plan_id":"free"},{"bike_id":"fc723a5a-e584-4c07-838b-3e51f781c9e7","system_id":"levelo_inurba_marseille","lat":43.299222,"lon":5.365554,"is_reserved":false,"is_disabled":false,"rental_uris":{"android":"levelo://app?vid=fc723a5a-e584-4c07-838b-3e51f781c9e7","ios":"levelo://app?vid=fc723a5a-e584-4c07-838b-3e51f781c9e7"},"vehicle_type_id":"4","last_reported":1687644392,"current_range_meters":21600,"station_id":"ce4bgm92rcd13ifvqbr0","pricing_plan_id":"free"},{"bike_id":"e66613f8-5b2d-4f68-8377-b97f25673d7c","system_id":"levelo_inurba_marseille","lat":43.299222,"lon":5.365554,"is_reserved":false,"is_disabled":false,"rental_uris":{"android":"levelo://app?vid=e66613f8-5b2d-4f68-8377-b97f25673d7c","ios":"levelo://app?vid=e66613f8-5b2d-4f68-8377-b97f25673d7c"},"vehicle_type_id":"4","last_reported":1687644392,"current_range_meters":1200,"station_id":"ce4bgm92rcd13ifvqbr0","pricing_plan_id":"free"},{"bike_id":"c4af8b78-197f-4edc-b718-491470026859","system_id":"levelo_inurba_marseille","lat":43.29854,"lon":5.36288,"is_reserved":false,"is_disabled":false,"rental_uris":{"android":"levelo://app?vid=c4af8b78-197f-4edc-b718-491470026859","ios":"levelo://app?vid=c4af8b78-197f-4edc-b718-491470026859"},"vehicle_type_id":"4","last_reported":1687644392,"current_range_meters":28800,"station_id":"ce4bgpp2rcd13ifvqc3g","pricing_plan_id":"free"},{"bike_id":"1e84d163-aa3a-40c3-896f-ab63ebf14de0","system_id":"levelo_inurba_marseille","lat":43.299243,"lon":5.37481,"is_reserved":false,"is_disabled":false,"rental_uris":{"android":"levelo://app?vid=1e84d163-aa3a-40c3-896f-ab63ebf14de0","ios":"levelo://app?vid=1e84d163-aa3a-40c3-896f-ab63ebf14de0"},"vehicle_type_id":"4","last_reported":1687644392,"current_range_meters":16400,"station_id":"ce4bgjh2rcd13ifvqbg0","pricing_plan_id":"free"},{"bike_id":"f0aaf9f6-728b-4982-9bf1-9cf5fc9c39a7","system_id":"levelo_inurba_marseille","lat":43.299243,"lon":5.37481,"is_reserved":false,"is_disabled":false,"rental_uris":{"android":"levelo://app?vid=f0aaf9f6-728b-4982-9bf1-9cf5fc9c39a7","ios":"levelo://app?vid=f0aaf9f6-728b-4982-9bf1-9cf5fc9c39a7"},"vehicle_type_id":"4","last_reported":1687644392,"current_range_meters":24000,"station_id":"ce4bgjh2rcd13ifvqbg0","pricing_plan_id":"free"},{"bike_id":"f2aa27d7-e12d-4311-808f-577518063f67","system_id":"levelo_inurba_marseille","lat":43.299243,"lon":5.37481,"is_reserved":false,"is_disabled":false,"rental_uris":{"android":"levelo://app?vid=f2aa27d7-e12d-4311-808f-577518063f67","ios":"levelo://app?vid=f2aa27d7-e12d-4311-808f-577518063f67"},"vehicle_type_id":"4","last_reported":1687644392,"current_range_meters":15200,"station_id":"ce4bgjh2rcd13ifvqbg0","pricing_plan_id":"free"},{"bike_id":"16f8b77c-f13d-4303-ae4d-942f991f035d","system_id":"levelo_inurba_marseille","lat":43.311722,"lon":5.387247,"is_reserved":false,"is_disabled":false,"rental_uris":{"android":"levelo://app?vid=16f8b77c-f13d-4303-ae4d-942f991f035d","ios":"levelo://app?vid=16f8b77c-f13d-4303-ae4d-942f991f035d"},"vehicle_type_id":"4","last_reported":1687644392,"current_range_meters":7200,"station_id":"ce4bgv12rcd13ifvqcp0","pricing_plan_id":"free"},{"bike_id":"650c1c9c-eec0-4cf4-b25b-10079e741586","system_id":"levelo_inurba_marseille","lat":43.299243,"lon":5.37481,"is_reserved":false,"is_disabled":false,"rental_uris":{"android":"levelo://app?vid=650c1c9c-eec0-4cf4-b25b-10079e741586","ios":"levelo://app?vid=650c1c9c-eec0-4cf4-b25b-10079e741586"},"vehicle_type_id":"4","last_reported":1687644392,"current_range_meters":9200,"station_id":"ce4bgjh2rcd13ifvqbg0","pricing_plan_id":"free"},{"bike_id":"1e383475-b1b1-49be-b57e-075125816253","system_id":"levelo_inurba_marseille","lat":43.297794,"lon":5.370888,"is_reserved":false,"is_disabled":false,"rental_uris":{"android":"levelo://app?vid=1e383475-b1b1-49be-b57e-075125816253","ios":"levelo://app?vid=1e383475-b1b1-49be-b57e-075125816253"},"vehicle_type_id":"4","last_reported":1687644392,"current_range_meters":17600,"station_id":"ce4bgop2rcd13ifvqc1g","pricing_plan_id":"free"},{"bike_id":"1580a472-182f-4d91-8a6c-4c3a23a9c034","system_id":"levelo_inurba_marseille","lat":43.302,"lon":5.3821,"is_reserved":false,"is_disabled":false,"rental_uris":{"android":"levelo://app?vid=1580a472-182f-4d91-8a6c-4c3a23a9c034","ios":"levelo://app?vid=1580a472-182f-4d91-8a6c-4c3a23a9c034"},"vehicle_type_id":"4","last_reported":1687644392,"current_range_meters":16000,"station_id":"","pricing_plan_id":"free"},{"bike_id":"bbcba801-aef7-4aaa-8356-84ee79ef2b85","system_id":"levelo_inurba_marseille","lat":43.328371,"lon":5.366909,"is_reserved":false,"is_disabled":false,"rental_uris":{"android":"levelo://app?vid=bbcba801-aef7-4aaa-8356-84ee79ef2b85","ios":"levelo://app?vid=bbcba801-aef7-4aaa-8356-84ee79ef2b85"},"vehicle_type_id":"4","last_reported":1687644392,"current_range_meters":27600,"station_id":"ce4bhs92rcd13ifvqi0g","pricing_plan_id":"free"},{"bike_id":"cbdd73a9-8831-4dab-9e8d-2ce4e630f6d2","system_id":"levelo_inurba_marseille","lat":43.328371,"lon":5.366909,"is_reserved":false,"is_disabled":false,"rental_uris":{"android":"levelo://app?vid=cbdd73a9-8831-4dab-9e8d-2ce4e630f6d2","ios":"levelo://app?vid=cbdd73a9-8831-4dab-9e8d-2ce4e630f6d2"},"vehicle_type_id":"4","last_reported":1687644392,"current_range_meters":29200,"station_id":"ce4bhs92rcd13ifvqi0g","pricing_plan_id":"free"},{"bike_id":"c317f2f3-aa5e-4468-8f1e-a206c959ce4f","system_id":"levelo_inurba_marseille","lat":43.32831,"lon":5.36692,"is_reserved":false,"is_disabled":false,"rental_uris":{"android":"levelo://app?vid=c317f2f3-aa5e-4468-8f1e-a206c959ce4f","ios":"levelo://app?vid=c317f2f3-aa5e-4468-8f1e-a206c959ce4f"},"vehicle_type_id":"4","last_reported":1687644392,"current_range_meters":2400,"station_id":"ce4bhs92rcd13ifvqi0g","pricing_plan_id":"free"},{"bike_id":"9823f69b-7618-447c-88b9-9a8290da0996","system_id":"levelo_inurba_marseille","lat":43.32832,"lon":5.36692,"is_reserved":false,"is_disabled":false,"rental_uris":{"android":"levelo://app?vid=9823f69b-7618-447c-88b9-9a8290da0996","ios":"levelo://app?vid=9823f69b-7618-447c-88b9-9a8290da0996"},"vehicle_type_id":"4","last_reported":1687644392,"current_range_meters":12800,"station_id":"ce4bhs92rcd13ifvqi0g","pricing_plan_id":"free"},{"bike_id":"84310711-9ffd-45bf-a8e1-79683581878e","system_id":"levelo_inurba_marseille","lat":43.328371,"lon":5.366909,"is_reserved":false,"is_disabled":false,"rental_uris":{"android":"levelo://app?vid=84310711-9ffd-45bf-a8e1-79683581878e","ios":"levelo://app?vid=84310711-9ffd-45bf-a8e1-79683581878e"},"vehicle_type_id":"4","last_reported":1687644392,"current_range_meters":24800,"station_id":"ce4bhs92rcd13ifvqi0g","pricing_plan_id":"free"},{"bike_id":"d6aa4b8f-0fbd-492f-a726-f1b64033634e","system_id":"levelo_inurba_marseille","lat":43.29681,"lon":5.36406,"is_reserved":false,"is_disabled":false,"rental_uris":{"android":"levelo://app?vid=d6aa4b8f-0fbd-492f-a726-f1b64033634e","ios":"levelo://app?vid=d6aa4b8f-0fbd-492f-a726-f1b64033634e"},"vehicle_type_id":"4","last_reported":1687644392,"current_range_meters":4400,"station_id":"","pricing_plan_id":"free"},{"bike_id":"d474d7f3-3de0-43d8-b9b3-a59ebbf83108","system_id":"levelo_inurba_marseille","lat":43.296131,"lon":5.370791,"is_reserved":false,"is_disabled":false,"rental_uris":{"android":"levelo://app?vid=d474d7f3-3de0-43d8-b9b3-a59ebbf83108","ios":"levelo://app?vid=d474d7f3-3de0-43d8-b9b3-a59ebbf83108"},"vehicle_type_id":"4","last_reported":1687644392,"current_range_meters":0,"station_id":"ce4bgnh2rcd13ifvqc0g","pricing_plan_id":"free"},{"bike_id":"c656868a-c16f-441f-990e-ebb7c6f78d4a","system_id":"levelo_inurba_marseille","lat":43.296131,"lon":5.370773,"is_reserved":false,"is_disabled":false,"rental_uris":{"android":"levelo://app?vid=c656868a-c16f-441f-990e-ebb7c6f78d4a","ios":"levelo://app?vid=c656868a-c16f-441f-990e-ebb7c6f78d4a"},"vehicle_type_id":"4","last_reported":1687644392,"current_range_meters":8800,"station_id":"ce4bgnh2rcd13ifvqc0g","pricing_plan_id":"free"},{"bike_id":"ced68ed6-d124-4eb9-bc4a-3fa2bc161c14","system_id":"levelo_inurba_marseille","lat":43.29729,"lon":5.37687,"is_reserved":false,"is_disabled":false,"rental_uris":{"android":"levelo://app?vid=ced68ed6-d124-4eb9-bc4a-3fa2bc161c14","ios":"levelo://app?vid=ced68ed6-d124-4eb9-bc4a-3fa2bc161c14"},"vehicle_type_id":"4","last_reported":1687644392,"current_range_meters":21200,"station_id":"","pricing_plan_id":"free"},{"bike_id":"9ef8d9c7-a3f9-48e8-88e8-b00dde723e49","system_id":"levelo_inurba_marseille","lat":43.299028,"lon":5.381509,"is_reserved":false,"is_disabled":false,"rental_uris":{"android":"levelo://app?vid=9ef8d9c7-a3f9-48e8-88e8-b00dde723e49","ios":"levelo://app?vid=9ef8d9c7-a3f9-48e8-88e8-b00dde723e49"},"vehicle_type_id":"4","last_reported":1687644392,"current_range_meters":28000,"station_id":"ce4bgj12rcd13ifvqbc0","pricing_plan_id":"free"},{"bike_id":"340a83e5-4c6f-4ef4-b2a7-1acf735086b0","system_id":"levelo_inurba_marseille","lat":43.299028,"lon":5.381509,"is_reserved":false,"is_disabled":false,"rental_uris":{"android":"levelo://app?vid=340a83e5-4c6f-4ef4-b2a7-1acf735086b0","ios":"levelo://app?vid=340a83e5-4c6f-4ef4-b2a7-1acf735086b0"},"vehicle_type_id":"4","last_reported":1687644392,"current_range_meters":24800,"station_id":"ce4bgj12rcd13ifvqbc0","pricing_plan_id":"free"},{"bike_id":"041bc147-ef2f-419b-bb81-deca3bdf89e2","system_id":"levelo_inurba_marseille","lat":43.29611,"lon":5.36046,"is_reserved":false,"is_disabled":false,"rental_uris":{"android":"levelo://app?vid=041bc147-ef2f-419b-bb81-deca3bdf89e2","ios":"levelo://app?vid=041bc147-ef2f-419b-bb81-deca3bdf89e2"},"vehicle_type_id":"4","last_reported":1687644392,"current_range_meters":5200,"station_id":"","pricing_plan_id":"free"},{"bike_id":"66c31eab-de31-4e2d-a837-cb1d49c13748","system_id":"levelo_inurba_marseille","lat":43.299028,"lon":5.381509,"is_reserved":false,"is_disabled":false,"rental_uris":{"android":"levelo://app?vid=66c31eab-de31-4e2d-a837-cb1d49c13748","ios":"levelo://app?vid=66c31eab-de31-4e2d-a837-cb1d49c13748"},"vehicle_type_id":"4","last_reported":1687644392,"current_range_meters":23600,"station_id":"ce4bgj12rcd13ifvqbc0","pricing_plan_id":"free"},{"bike_id":"7880ea9f-3617-4245-bf50-e70bb1893795","system_id":"levelo_inurba_marseille","lat":43.309589,"lon":5.390258,"is_reserved":false,"is_disabled":false,"rental_uris":{"android":"levelo://app?vid=7880ea9f-3617-4245-bf50-e70bb1893795","ios":"levelo://app?vid=7880ea9f-3617-4245-bf50-e70bb1893795"},"vehicle_type_id":"4","last_reported":1687644392,"current_range_meters":1200,"station_id":"ce4bgup2rcd13ifvqco0","pricing_plan_id":"free"},{"bike_id":"a307c650-550f-4586-b0d1-70bf87853088","system_id":"levelo_inurba_marseille","lat":43.317557,"lon":5.390173,"is_reserved":false,"is_disabled":false,"rental_uris":{"android":"levelo://app?vid=a307c650-550f-4586-b0d1-70bf87853088","ios":"levelo://app?vid=a307c650-550f-4586-b0d1-70bf87853088"},"vehicle_type_id":"4","last_reported":1687644392,"current_range_meters":31200,"station_id":"ce4bhqp2rcd13ifvqhng","pricing_plan_id":"free"},{"bike_id":"9b3671c4-4790-4ad2-996a-8582db3ffb1d","system_id":"levelo_inurba_marseille","lat":43.317557,"lon":5.390173,"is_reserved":false,"is_disabled":false,"rental_uris":{"android":"levelo://app?vid=9b3671c4-4790-4ad2-996a-8582db3ffb1d","ios":"levelo://app?vid=9b3671c4-4790-4ad2-996a-8582db3ffb1d"},"vehicle_type_id":"4","last_reported":1687644392,"current_range_meters":31200,"station_id":"ce4bhqp2rcd13ifvqhng","pricing_plan_id":"free"},{"bike_id":"6f390e29-c858-46a2-aabd-79bec37f0f33","system_id":"levelo_inurba_marseille","lat":43.317557,"lon":5.390173,"is_reserved":false,"is_disabled":false,"rental_uris":{"android":"levelo://app?vid=6f390e29-c858-46a2-aabd-79bec37f0f33","ios":"levelo://app?vid=6f390e29-c858-46a2-aabd-79bec37f0f33"},"vehicle_type_id":"4","last_reported":1687644392,"current_range_meters":31200,"station_id":"ce4bhqp2rcd13ifvqhng","pricing_plan_id":"free"},{"bike_id":"02b3a3cf-1f16-400b-ba0a-5d9869c1292e","system_id":"levelo_inurba_marseille","lat":43.317557,"lon":5.390173,"is_reserved":false,"is_disabled":false,"rental_uris":{"android":"levelo://app?vid=02b3a3cf-1f16-400b-ba0a-5d9869c1292e","ios":"levelo://app?vid=02b3a3cf-1f16-400b-ba0a-5d9869c1292e"},"vehicle_type_id":"4","last_reported":1687644392,"current_range_meters":31200,"station_id":"ce4bhqp2rcd13ifvqhng","pricing_plan_id":"free"},{"bike_id":"6bf9c012-f117-4823-9dc3-60ed8515475b","system_id":"levelo_inurba_marseille","lat":43.29805,"lon":5.38091,"is_reserved":false,"is_disabled":false,"rental_uris":{"android":"levelo://app?vid=6bf9c012-f117-4823-9dc3-60ed8515475b","ios":"levelo://app?vid=6bf9c012-f117-4823-9dc3-60ed8515475b"},"vehicle_type_id":"4","last_reported":1687644392,"current_range_meters":26000,"station_id":"ce4bgip2rcd13ifvqbb0","pricing_plan_id":"free"},{"bike_id":"7c2ac772-a7d4-427d-a27a-c54ff0298fbe","system_id":"levelo_inurba_marseille","lat":43.29812,"lon":5.38106,"is_reserved":false,"is_disabled":false,"rental_uris":{"android":"levelo://app?vid=7c2ac772-a7d4-427d-a27a-c54ff0298fbe","ios":"levelo://app?vid=7c2ac772-a7d4-427d-a27a-c54ff0298fbe"},"vehicle_type_id":"4","last_reported":1687644392,"current_range_meters":28800,"station_id":"ce4bgip2rcd13ifvqbb0","pricing_plan_id":"free"},{"bike_id":"65c6db33-a297-439d-80c5-1eba4b8a6165","system_id":"levelo_inurba_marseille","lat":43.304274,"lon":5.388873,"is_reserved":false,"is_disabled":false,"rental_uris":{"android":"levelo://app?vid=65c6db33-a297-439d-80c5-1eba4b8a6165","ios":"levelo://app?vid=65c6db33-a297-439d-80c5-1eba4b8a6165"},"vehicle_type_id":"4","last_reported":1687644392,"current_range_meters":5200,"station_id":"ce4bgk12rcd13ifvqbi0","pricing_plan_id":"free"},{"bike_id":"e888bb4d-2277-4c9e-81b2-530b57537182","system_id":"levelo_inurba_marseille","lat":43.304274,"lon":5.388873,"is_reserved":false,"is_disabled":false,"rental_uris":{"android":"levelo://app?vid=e888bb4d-2277-4c9e-81b2-530b57537182","ios":"levelo://app?vid=e888bb4d-2277-4c9e-81b2-530b57537182"},"vehicle_type_id":"4","last_reported":1687644392,"current_range_meters":18000,"station_id":"ce4bgk12rcd13ifvqbi0","pricing_plan_id":"free"},{"bike_id":"c58476b1-a1c8-4183-9429-a3ac6e293dc2","system_id":"levelo_inurba_marseille","lat":43.304274,"lon":5.388873,"is_reserved":false,"is_disabled":false,"rental_uris":{"android":"levelo://app?vid=c58476b1-a1c8-4183-9429-a3ac6e293dc2","ios":"levelo://app?vid=c58476b1-a1c8-4183-9429-a3ac6e293dc2"},"vehicle_type_id":"4","last_reported":1687644392,"current_range_meters":24400,"station_id":"ce4bgk12rcd13ifvqbi0","pricing_plan_id":"free"},{"bike_id":"ad543534-9843-4374-9f3f-07e77250ece1","system_id":"levelo_inurba_marseille","lat":43.30439,"lon":5.38897,"is_reserved":false,"is_disabled":false,"rental_uris":{"android":"levelo://app?vid=ad543534-9843-4374-9f3f-07e77250ece1","ios":"levelo://app?vid=ad543534-9843-4374-9f3f-07e77250ece1"},"vehicle_type_id":"4","last_reported":1687644392,"current_range_meters":6000,"station_id":"ce4bgk12rcd13ifvqbi0","pricing_plan_id":"free"},{"bike_id":"e29af455-52f6-4222-a8c1-4468615ed901","system_id":"levelo_inurba_marseille","lat":43.29983,"lon":5.38495,"is_reserved":false,"is_disabled":false,"rental_uris":{"android":"levelo://app?vid=e29af455-52f6-4222-a8c1-4468615ed901","ios":"levelo://app?vid=e29af455-52f6-4222-a8c1-4468615ed901"},"vehicle_type_id":"4","last_reported":1687644392,"current_range_meters":30400,"station_id":"ce4bgj92rcd13ifvqbd0","pricing_plan_id":"free"},{"bike_id":"12918817-573f-49ae-8a74-53de6d9e3633","system_id":"levelo_inurba_marseille","lat":43.29974,"lon":5.38484,"is_reserved":false,"is_disabled":false,"rental_uris":{"android":"levelo://app?vid=12918817-573f-49ae-8a74-53de6d9e3633","ios":"levelo://app?vid=12918817-573f-49ae-8a74-53de6d9e3633"},"vehicle_type_id":"4","last_reported":1687644392,"current_range_meters":15200,"station_id":"ce4bgj92rcd13ifvqbd0","pricing_plan_id":"free"},{"bike_id":"5ba421ac-d002-40c1-99a0-0f150acb8d0b","system_id":"levelo_inurba_marseille","lat":43.299717,"lon":5.384845,"is_reserved":false,"is_disabled":false,"rental_uris":{"android":"levelo://app?vid=5ba421ac-d002-40c1-99a0-0f150acb8d0b","ios":"levelo://app?vid=5ba421ac-d002-40c1-99a0-0f150acb8d0b"},"vehicle_type_id":"4","last_reported":1687644392,"current_range_meters":30800,"station_id":"ce4bgj92rcd13ifvqbd0","pricing_plan_id":"free"},{"bike_id":"e526a327-5d62-4792-8d8b-305349790fcb","system_id":"levelo_inurba_marseille","lat":43.299717,"lon":5.384845,"is_reserved":false,"is_disabled":false,"rental_uris":{"android":"levelo://app?vid=e526a327-5d62-4792-8d8b-305349790fcb","ios":"levelo://app?vid=e526a327-5d62-4792-8d8b-305349790fcb"},"vehicle_type_id":"4","last_reported":1687644392,"current_range_meters":16000,"station_id":"ce4bgj92rcd13ifvqbd0","pricing_plan_id":"free"},{"bike_id":"d0b7f833-d4e7-4d84-b29e-ab39982383d6","system_id":"levelo_inurba_marseille","lat":43.29975,"lon":5.38493,"is_reserved":false,"is_disabled":false,"rental_uris":{"android":"levelo://app?vid=d0b7f833-d4e7-4d84-b29e-ab39982383d6","ios":"levelo://app?vid=d0b7f833-d4e7-4d84-b29e-ab39982383d6"},"vehicle_type_id":"4","last_reported":1687644392,"current_range_meters":25600,"station_id":"ce4bgj92rcd13ifvqbd0","pricing_plan_id":"free"},{"bike_id":"d7522da1-ef7e-4c51-94d7-be62a6304ec2","system_id":"levelo_inurba_marseille","lat":43.299717,"lon":5.384845,"is_reserved":false,"is_disabled":false,"rental_uris":{"android":"levelo://app?vid=d7522da1-ef7e-4c51-94d7-be62a6304ec2","ios":"levelo://app?vid=d7522da1-ef7e-4c51-94d7-be62a6304ec2"},"vehicle_type_id":"4","last_reported":1687644392,"current_range_meters":0,"station_id":"ce4bgj92rcd13ifvqbd0","pricing_plan_id":"free"},{"bike_id":"e0afcc7a-0f24-432a-9eed-759446b4d222","system_id":"levelo_inurba_marseille","lat":43.299717,"lon":5.384845,"is_reserved":false,"is_disabled":false,"rental_uris":{"android":"levelo://app?vid=e0afcc7a-0f24-432a-9eed-759446b4d222","ios":"levelo://app?vid=e0afcc7a-0f24-432a-9eed-759446b4d222"},"vehicle_type_id":"4","last_reported":1687644392,"current_range_meters":3600,"station_id":"ce4bgj92rcd13ifvqbd0","pricing_plan_id":"free"},{"bike_id":"bde9569a-d3f1-42b2-8da9-14c9a8d07046","system_id":"levelo_inurba_marseille","lat":43.309589,"lon":5.390258,"is_reserved":false,"is_disabled":false,"rental_uris":{"android":"levelo://app?vid=bde9569a-d3f1-42b2-8da9-14c9a8d07046","ios":"levelo://app?vid=bde9569a-d3f1-42b2-8da9-14c9a8d07046"},"vehicle_type_id":"4","last_reported":1687644392,"current_range_meters":5200,"station_id":"ce4bgup2rcd13ifvqco0","pricing_plan_id":"free"},{"bike_id":"a1369af0-eec4-4a47-b0dd-9c8157e5ea08","system_id":"levelo_inurba_marseille","lat":43.32367,"lon":5.388836,"is_reserved":false,"is_disabled":false,"rental_uris":{"android":"levelo://app?vid=a1369af0-eec4-4a47-b0dd-9c8157e5ea08","ios":"levelo://app?vid=a1369af0-eec4-4a47-b0dd-9c8157e5ea08"},"vehicle_type_id":"4","last_reported":1687644392,"current_range_meters":3600,"station_id":"ce4bhqp2rcd13ifvqhog","pricing_plan_id":"free"},{"bike_id":"01d8a3fe-f044-4375-a24b-ffb33a3bd8a2","system_id":"levelo_inurba_marseille","lat":43.32367,"lon":5.388836,"is_reserved":false,"is_disabled":false,"rental_uris":{"android":"levelo://app?vid=01d8a3fe-f044-4375-a24b-ffb33a3bd8a2","ios":"levelo://app?vid=01d8a3fe-f044-4375-a24b-ffb33a3bd8a2"},"vehicle_type_id":"4","last_reported":1687644392,"current_range_meters":17600,"station_id":"ce4bhqp2rcd13ifvqhog","pricing_plan_id":"free"},{"bike_id":"a6b543df-b29f-4057-a17b-ece9e8918f86","system_id":"levelo_inurba_marseille","lat":43.32367,"lon":5.388836,"is_reserved":false,"is_disabled":false,"rental_uris":{"android":"levelo://app?vid=a6b543df-b29f-4057-a17b-ece9e8918f86","ios":"levelo://app?vid=a6b543df-b29f-4057-a17b-ece9e8918f86"},"vehicle_type_id":"4","last_reported":1687644392,"current_range_meters":18800,"station_id":"ce4bhqp2rcd13ifvqhog","pricing_plan_id":"free"},{"bike_id":"75f84c0e-07de-482f-9c11-b7dfca9d3445","system_id":"levelo_inurba_marseille","lat":43.32367,"lon":5.388836,"is_reserved":false,"is_disabled":false,"rental_uris":{"android":"levelo://app?vid=75f84c0e-07de-482f-9c11-b7dfca9d3445","ios":"levelo://app?vid=75f84c0e-07de-482f-9c11-b7dfca9d3445"},"vehicle_type_id":"4","last_reported":1687644392,"current_range_meters":18800,"station_id":"ce4bhqp2rcd13ifvqhog","pricing_plan_id":"free"},{"bike_id":"8d20ae28-ced1-4c37-96de-ca9a2a802825","system_id":"levelo_inurba_marseille","lat":43.32367,"lon":5.388836,"is_reserved":false,"is_disabled":false,"rental_uris":{"android":"levelo://app?vid=8d20ae28-ced1-4c37-96de-ca9a2a802825","ios":"levelo://app?vid=8d20ae28-ced1-4c37-96de-ca9a2a802825"},"vehicle_type_id":"4","last_reported":1687644392,"current_range_meters":15200,"station_id":"ce4bhqp2rcd13ifvqhog","pricing_plan_id":"free"},{"bike_id":"8bbc2a90-175b-4d31-99a7-8d91314340e3","system_id":"levelo_inurba_marseille","lat":43.30024,"lon":5.38845,"is_reserved":false,"is_disabled":false,"rental_uris":{"android":"levelo://app?vid=8bbc2a90-175b-4d31-99a7-8d91314340e3","ios":"levelo://app?vid=8bbc2a90-175b-4d31-99a7-8d91314340e3"},"vehicle_type_id":"4","last_reported":1687644392,"current_range_meters":25200,"station_id":"","pricing_plan_id":"free"},{"bike_id":"71659aa7-5302-46f8-a93a-726dbf1e585d","system_id":"levelo_inurba_marseille","lat":43.300852,"lon":5.390859,"is_reserved":false,"is_disabled":false,"rental_uris":{"android":"levelo://app?vid=71659aa7-5302-46f8-a93a-726dbf1e585d","ios":"levelo://app?vid=71659aa7-5302-46f8-a93a-726dbf1e585d"},"vehicle_type_id":"4","last_reported":1687644392,"current_range_meters":24000,"station_id":"ce4bh192rcd13ifvqdb0","pricing_plan_id":"free"},{"bike_id":"535618a3-0d0a-4a7e-aee2-bf83acea9505","system_id":"levelo_inurba_marseille","lat":43.300852,"lon":5.390859,"is_reserved":false,"is_disabled":false,"rental_uris":{"android":"levelo://app?vid=535618a3-0d0a-4a7e-aee2-bf83acea9505","ios":"levelo://app?vid=535618a3-0d0a-4a7e-aee2-bf83acea9505"},"vehicle_type_id":"4","last_reported":1687644392,"current_range_meters":24400,"station_id":"ce4bh192rcd13ifvqdb0","pricing_plan_id":"free"},{"bike_id":"50f88b21-ad2a-4c41-b316-9dcc0ea01ac0","system_id":"levelo_inurba_marseille","lat":43.300852,"lon":5.390859,"is_reserved":false,"is_disabled":false,"rental_uris":{"android":"levelo://app?vid=50f88b21-ad2a-4c41-b316-9dcc0ea01ac0","ios":"levelo://app?vid=50f88b21-ad2a-4c41-b316-9dcc0ea01ac0"},"vehicle_type_id":"4","last_reported":1687644392,"current_range_meters":18400,"station_id":"ce4bh192rcd13ifvqdb0","pricing_plan_id":"free"},{"bike_id":"00f3c313-6fb4-4f0f-bab9-0a3c5ba36f82","system_id":"levelo_inurba_marseille","lat":43.300852,"lon":5.390859,"is_reserved":false,"is_disabled":false,"rental_uris":{"android":"levelo://app?vid=00f3c313-6fb4-4f0f-bab9-0a3c5ba36f82","ios":"levelo://app?vid=00f3c313-6fb4-4f0f-bab9-0a3c5ba36f82"},"vehicle_type_id":"4","last_reported":1687644392,"current_range_meters":6800,"station_id":"ce4bh192rcd13ifvqdb0","pricing_plan_id":"free"},{"bike_id":"5eee9d3a-0013-409d-be63-655610155ad5","system_id":"levelo_inurba_marseille","lat":43.300852,"lon":5.390859,"is_reserved":false,"is_disabled":false,"rental_uris":{"android":"levelo://app?vid=5eee9d3a-0013-409d-be63-655610155ad5","ios":"levelo://app?vid=5eee9d3a-0013-409d-be63-655610155ad5"},"vehicle_type_id":"4","last_reported":1687644392,"current_range_meters":17600,"station_id":"ce4bh192rcd13ifvqdb0","pricing_plan_id":"free"},{"bike_id":"db2ec777-4284-4394-b950-2dde2a70c803","system_id":"levelo_inurba_marseille","lat":43.300852,"lon":5.390859,"is_reserved":false,"is_disabled":false,"rental_uris":{"android":"levelo://app?vid=db2ec777-4284-4394-b950-2dde2a70c803","ios":"levelo://app?vid=db2ec777-4284-4394-b950-2dde2a70c803"},"vehicle_type_id":"4","last_reported":1687644392,"current_range_meters":25600,"station_id":"ce4bh192rcd13ifvqdb0","pricing_plan_id":"free"},{"bike_id":"c2756284-8b8e-45a0-b094-d8cc824a9d60","system_id":"levelo_inurba_marseille","lat":43.298764,"lon":5.388973,"is_reserved":false,"is_disabled":false,"rental_uris":{"android":"levelo://app?vid=c2756284-8b8e-45a0-b094-d8cc824a9d60","ios":"levelo://app?vid=c2756284-8b8e-45a0-b094-d8cc824a9d60"},"vehicle_type_id":"4","last_reported":1687644392,"current_range_meters":24400,"station_id":"ce4bh392rcd13ifvqdl0","pricing_plan_id":"free"},{"bike_id":"17a9ac7a-70bb-4a78-be46-99ea84c4a53e","system_id":"levelo_inurba_marseille","lat":43.298764,"lon":5.388973,"is_reserved":false,"is_disabled":false,"rental_uris":{"android":"levelo://app?vid=17a9ac7a-70bb-4a78-be46-99ea84c4a53e","ios":"levelo://app?vid=17a9ac7a-70bb-4a78-be46-99ea84c4a53e"},"vehicle_type_id":"4","last_reported":1687644392,"current_range_meters":9600,"station_id":"ce4bh392rcd13ifvqdl0","pricing_plan_id":"free"},{"bike_id":"a7e68939-157e-44bb-895a-0d675d5b036d","system_id":"levelo_inurba_marseille","lat":43.298764,"lon":5.388973,"is_reserved":false,"is_disabled":false,"rental_uris":{"android":"levelo://app?vid=a7e68939-157e-44bb-895a-0d675d5b036d","ios":"levelo://app?vid=a7e68939-157e-44bb-895a-0d675d5b036d"},"vehicle_type_id":"4","last_reported":1687644392,"current_range_meters":19600,"station_id":"ce4bh392rcd13ifvqdl0","pricing_plan_id":"free"},{"bike_id":"2607e3a1-c4f8-40e9-a7fd-9b264401db53","system_id":"levelo_inurba_marseille","lat":43.291675,"lon":5.371583,"is_reserved":false,"is_disabled":false,"rental_uris":{"android":"levelo://app?vid=2607e3a1-c4f8-40e9-a7fd-9b264401db53","ios":"levelo://app?vid=2607e3a1-c4f8-40e9-a7fd-9b264401db53"},"vehicle_type_id":"4","last_reported":1687644392,"current_range_meters":18800,"station_id":"ce4bha92rcd13ifvqeh0","pricing_plan_id":"free"},{"bike_id":"7128dcdf-5bf8-41f6-8fd6-f2983506364a","system_id":"levelo_inurba_marseille","lat":43.298764,"lon":5.388973,"is_reserved":false,"is_disabled":false,"rental_uris":{"android":"levelo://app?vid=7128dcdf-5bf8-41f6-8fd6-f2983506364a","ios":"levelo://app?vid=7128dcdf-5bf8-41f6-8fd6-f2983506364a"},"vehicle_type_id":"4","last_reported":1687644392,"current_range_meters":30000,"station_id":"ce4bh392rcd13ifvqdl0","pricing_plan_id":"free"},{"bike_id":"4c77553d-d17c-49d1-bbc4-4d147fbb0f26","system_id":"levelo_inurba_marseille","lat":43.291671,"lon":5.371575,"is_reserved":false,"is_disabled":false,"rental_uris":{"android":"levelo://app?vid=4c77553d-d17c-49d1-bbc4-4d147fbb0f26","ios":"levelo://app?vid=4c77553d-d17c-49d1-bbc4-4d147fbb0f26"},"vehicle_type_id":"4","last_reported":1687644392,"current_range_meters":400,"station_id":"ce4bha92rcd13ifvqeh0","pricing_plan_id":"free"},{"bike_id":"fca1f777-a2f4-4cf8-8ece-dbd01d2c8f5e","system_id":"levelo_inurba_marseille","lat":43.29169,"lon":5.37161,"is_reserved":false,"is_disabled":false,"rental_uris":{"android":"levelo://app?vid=fca1f777-a2f4-4cf8-8ece-dbd01d2c8f5e","ios":"levelo://app?vid=fca1f777-a2f4-4cf8-8ece-dbd01d2c8f5e"},"vehicle_type_id":"4","last_reported":1687644392,"current_range_meters":21200,"station_id":"ce4bha92rcd13ifvqeh0","pricing_plan_id":"free"},{"bike_id":"46f897d9-23d7-43ac-af00-98c8f3158478","system_id":"levelo_inurba_marseille","lat":43.298764,"lon":5.388973,"is_reserved":false,"is_disabled":false,"rental_uris":{"android":"levelo://app?vid=46f897d9-23d7-43ac-af00-98c8f3158478","ios":"levelo://app?vid=46f897d9-23d7-43ac-af00-98c8f3158478"},"vehicle_type_id":"4","last_reported":1687644392,"current_range_meters":0,"station_id":"ce4bh392rcd13ifvqdl0","pricing_plan_id":"free"},{"bike_id":"30812c17-048b-4583-9bb4-46b1cbc1c3ab","system_id":"levelo_inurba_marseille","lat":43.298764,"lon":5.388973,"is_reserved":false,"is_disabled":false,"rental_uris":{"android":"levelo://app?vid=30812c17-048b-4583-9bb4-46b1cbc1c3ab","ios":"levelo://app?vid=30812c17-048b-4583-9bb4-46b1cbc1c3ab"},"vehicle_type_id":"4","last_reported":1687644392,"current_range_meters":6000,"station_id":"ce4bh392rcd13ifvqdl0","pricing_plan_id":"free"},{"bike_id":"9b55f931-d079-418b-af93-12dddd4df44a","system_id":"levelo_inurba_marseille","lat":43.298764,"lon":5.388973,"is_reserved":false,"is_disabled":false,"rental_uris":{"android":"levelo://app?vid=9b55f931-d079-418b-af93-12dddd4df44a","ios":"levelo://app?vid=9b55f931-d079-418b-af93-12dddd4df44a"},"vehicle_type_id":"4","last_reported":1687644392,"current_range_meters":19200,"station_id":"ce4bh392rcd13ifvqdl0","pricing_plan_id":"free"},{"bike_id":"c49d478c-a57b-4d90-9c3e-05c95bc9cda3","system_id":"levelo_inurba_marseille","lat":43.30875,"lon":5.39634,"is_reserved":false,"is_disabled":false,"rental_uris":{"android":"levelo://app?vid=c49d478c-a57b-4d90-9c3e-05c95bc9cda3","ios":"levelo://app?vid=c49d478c-a57b-4d90-9c3e-05c95bc9cda3"},"vehicle_type_id":"4","last_reported":1687644392,"current_range_meters":0,"station_id":"ce4bh012rcd13ifvqcv0","pricing_plan_id":"free"},{"bike_id":"acd61f41-eed2-4623-9d99-68ce306f0f6c","system_id":"levelo_inurba_marseille","lat":43.309038,"lon":5.396546,"is_reserved":false,"is_disabled":false,"rental_uris":{"android":"levelo://app?vid=acd61f41-eed2-4623-9d99-68ce306f0f6c","ios":"levelo://app?vid=acd61f41-eed2-4623-9d99-68ce306f0f6c"},"vehicle_type_id":"4","last_reported":1687644392,"current_range_meters":18000,"station_id":"ce4bh012rcd13ifvqcv0","pricing_plan_id":"free"},{"bike_id":"f1e4cd8d-5254-4526-8056-d10abb6a765e","system_id":"levelo_inurba_marseille","lat":43.309038,"lon":5.396546,"is_reserved":false,"is_disabled":false,"rental_uris":{"android":"levelo://app?vid=f1e4cd8d-5254-4526-8056-d10abb6a765e","ios":"levelo://app?vid=f1e4cd8d-5254-4526-8056-d10abb6a765e"},"vehicle_type_id":"4","last_reported":1687644392,"current_range_meters":26800,"station_id":"ce4bh012rcd13ifvqcv0","pricing_plan_id":"free"},{"bike_id":"fb458992-6bfd-4cdd-80bb-46040dd4577f","system_id":"levelo_inurba_marseille","lat":43.313291,"lon":5.396838,"is_reserved":false,"is_disabled":false,"rental_uris":{"android":"levelo://app?vid=fb458992-6bfd-4cdd-80bb-46040dd4577f","ios":"levelo://app?vid=fb458992-6bfd-4cdd-80bb-46040dd4577f"},"vehicle_type_id":"4","last_reported":1687644392,"current_range_meters":1600,"station_id":"ce4bgvp2rcd13ifvqcu0","pricing_plan_id":"free"},{"bike_id":"df133076-c106-4356-a2ec-367bb4c070c5","system_id":"levelo_inurba_marseille","lat":43.313291,"lon":5.396838,"is_reserved":false,"is_disabled":false,"rental_uris":{"android":"levelo://app?vid=df133076-c106-4356-a2ec-367bb4c070c5","ios":"levelo://app?vid=df133076-c106-4356-a2ec-367bb4c070c5"},"vehicle_type_id":"4","last_reported":1687644392,"current_range_meters":22000,"station_id":"ce4bgvp2rcd13ifvqcu0","pricing_plan_id":"free"},{"bike_id":"aa27269f-145c-42ec-a9ae-edfbbab3280b","system_id":"levelo_inurba_marseille","lat":43.31319,"lon":5.39694,"is_reserved":false,"is_disabled":false,"rental_uris":{"android":"levelo://app?vid=aa27269f-145c-42ec-a9ae-edfbbab3280b","ios":"levelo://app?vid=aa27269f-145c-42ec-a9ae-edfbbab3280b"},"vehicle_type_id":"4","last_reported":1687644392,"current_range_meters":18800,"station_id":"ce4bgvp2rcd13ifvqcu0","pricing_plan_id":"free"},{"bike_id":"9e6e51dc-c0c0-442a-9ee7-2eeb0ebc2952","system_id":"levelo_inurba_marseille","lat":43.313291,"lon":5.396838,"is_reserved":false,"is_disabled":false,"rental_uris":{"android":"levelo://app?vid=9e6e51dc-c0c0-442a-9ee7-2eeb0ebc2952","ios":"levelo://app?vid=9e6e51dc-c0c0-442a-9ee7-2eeb0ebc2952"},"vehicle_type_id":"4","last_reported":1687644392,"current_range_meters":7600,"station_id":"ce4bgvp2rcd13ifvqcu0","pricing_plan_id":"free"},{"bike_id":"c2ab59f0-890c-4312-afed-b21e5d42a553","system_id":"levelo_inurba_marseille","lat":43.313291,"lon":5.396838,"is_reserved":false,"is_disabled":false,"rental_uris":{"android":"levelo://app?vid=c2ab59f0-890c-4312-afed-b21e5d42a553","ios":"levelo://app?vid=c2ab59f0-890c-4312-afed-b21e5d42a553"},"vehicle_type_id":"4","last_reported":1687644392,"current_range_meters":14800,"station_id":"ce4bgvp2rcd13ifvqcu0","pricing_plan_id":"free"},{"bike_id":"60319338-8d9d-4e80-b65b-c574853cb445","system_id":"levelo_inurba_marseille","lat":43.309038,"lon":5.396546,"is_reserved":false,"is_disabled":false,"rental_uris":{"android":"levelo://app?vid=60319338-8d9d-4e80-b65b-c574853cb445","ios":"levelo://app?vid=60319338-8d9d-4e80-b65b-c574853cb445"},"vehicle_type_id":"4","last_reported":1687644392,"current_range_meters":2400,"station_id":"ce4bh012rcd13ifvqcv0","pricing_plan_id":"free"},{"bike_id":"78641d33-ff1e-440a-910b-e5fe87c7cedd","system_id":"levelo_inurba_marseille","lat":43.29529,"lon":5.385581,"is_reserved":false,"is_disabled":false,"rental_uris":{"android":"levelo://app?vid=78641d33-ff1e-440a-910b-e5fe87c7cedd","ios":"levelo://app?vid=78641d33-ff1e-440a-910b-e5fe87c7cedd"},"vehicle_type_id":"4","last_reported":1687644392,"current_range_meters":3200,"station_id":"ce4bgih2rcd13ifvqba0","pricing_plan_id":"free"},{"bike_id":"89eeb86d-57e9-4755-938e-da392472587e","system_id":"levelo_inurba_marseille","lat":43.309038,"lon":5.396546,"is_reserved":false,"is_disabled":false,"rental_uris":{"android":"levelo://app?vid=89eeb86d-57e9-4755-938e-da392472587e","ios":"levelo://app?vid=89eeb86d-57e9-4755-938e-da392472587e"},"vehicle_type_id":"4","last_reported":1687644392,"current_range_meters":15200,"station_id":"ce4bh012rcd13ifvqcv0","pricing_plan_id":"free"},{"bike_id":"ab3467b6-011a-4527-a6cd-c9dccae13ff6","system_id":"levelo_inurba_marseille","lat":43.29529,"lon":5.385581,"is_reserved":false,"is_disabled":false,"rental_uris":{"android":"levelo://app?vid=ab3467b6-011a-4527-a6cd-c9dccae13ff6","ios":"levelo://app?vid=ab3467b6-011a-4527-a6cd-c9dccae13ff6"},"vehicle_type_id":"4","last_reported":1687644392,"current_range_meters":0,"station_id":"ce4bgih2rcd13ifvqba0","pricing_plan_id":"free"},{"bike_id":"33bb2fcd-51cf-4e21-b68b-72a296a3709f","system_id":"levelo_inurba_marseille","lat":43.29529,"lon":5.385581,"is_reserved":false,"is_disabled":false,"rental_uris":{"android":"levelo://app?vid=33bb2fcd-51cf-4e21-b68b-72a296a3709f","ios":"levelo://app?vid=33bb2fcd-51cf-4e21-b68b-72a296a3709f"},"vehicle_type_id":"4","last_reported":1687644392,"current_range_meters":27600,"station_id":"ce4bgih2rcd13ifvqba0","pricing_plan_id":"free"},{"bike_id":"5897097c-5d26-48dc-96d4-299ce07fd549","system_id":"levelo_inurba_marseille","lat":43.29529,"lon":5.385581,"is_reserved":false,"is_disabled":false,"rental_uris":{"android":"levelo://app?vid=5897097c-5d26-48dc-96d4-299ce07fd549","ios":"levelo://app?vid=5897097c-5d26-48dc-96d4-299ce07fd549"},"vehicle_type_id":"4","last_reported":1687644392,"current_range_meters":1200,"station_id":"ce4bgih2rcd13ifvqba0","pricing_plan_id":"free"},{"bike_id":"917a0d7b-d612-4fa1-9f42-1552a4698991","system_id":"levelo_inurba_marseille","lat":43.29529,"lon":5.385581,"is_reserved":false,"is_disabled":false,"rental_uris":{"android":"levelo://app?vid=917a0d7b-d612-4fa1-9f42-1552a4698991","ios":"levelo://app?vid=917a0d7b-d612-4fa1-9f42-1552a4698991"},"vehicle_type_id":"4","last_reported":1687644392,"current_range_meters":23600,"station_id":"ce4bgih2rcd13ifvqba0","pricing_plan_id":"free"},{"bike_id":"050546b3-a8c2-44d1-8f4d-5bda9412e9b9","system_id":"levelo_inurba_marseille","lat":43.29529,"lon":5.385581,"is_reserved":false,"is_disabled":false,"rental_uris":{"android":"levelo://app?vid=050546b3-a8c2-44d1-8f4d-5bda9412e9b9","ios":"levelo://app?vid=050546b3-a8c2-44d1-8f4d-5bda9412e9b9"},"vehicle_type_id":"4","last_reported":1687644392,"current_range_meters":31200,"station_id":"ce4bgih2rcd13ifvqba0","pricing_plan_id":"free"},{"bike_id":"5a3e6079-287a-48fc-948c-ef6b439e7f71","system_id":"levelo_inurba_marseille","lat":43.29529,"lon":5.385581,"is_reserved":false,"is_disabled":false,"rental_uris":{"android":"levelo://app?vid=5a3e6079-287a-48fc-948c-ef6b439e7f71","ios":"levelo://app?vid=5a3e6079-287a-48fc-948c-ef6b439e7f71"},"vehicle_type_id":"4","last_reported":1687644392,"current_range_meters":9200,"station_id":"ce4bgih2rcd13ifvqba0","pricing_plan_id":"free"},{"bike_id":"da870f6f-328d-4b88-846c-212aa6f46357","system_id":"levelo_inurba_marseille","lat":43.29529,"lon":5.385581,"is_reserved":false,"is_disabled":false,"rental_uris":{"android":"levelo://app?vid=da870f6f-328d-4b88-846c-212aa6f46357","ios":"levelo://app?vid=da870f6f-328d-4b88-846c-212aa6f46357"},"vehicle_type_id":"4","last_reported":1687644392,"current_range_meters":31200,"station_id":"ce4bgih2rcd13ifvqba0","pricing_plan_id":"free"},{"bike_id":"d0e66549-823a-4385-a8b4-524f09a66003","system_id":"levelo_inurba_marseille","lat":43.29529,"lon":5.385581,"is_reserved":false,"is_disabled":false,"rental_uris":{"android":"levelo://app?vid=d0e66549-823a-4385-a8b4-524f09a66003","ios":"levelo://app?vid=d0e66549-823a-4385-a8b4-524f09a66003"},"vehicle_type_id":"4","last_reported":1687644392,"current_range_meters":21200,"station_id":"ce4bgih2rcd13ifvqba0","pricing_plan_id":"free"},{"bike_id":"a2d3ba11-291c-4aba-8567-4baccbcaeb8c","system_id":"levelo_inurba_marseille","lat":43.292644,"lon":5.384257,"is_reserved":false,"is_disabled":false,"rental_uris":{"android":"levelo://app?vid=a2d3ba11-291c-4aba-8567-4baccbcaeb8c","ios":"levelo://app?vid=a2d3ba11-291c-4aba-8567-4baccbcaeb8c"},"vehicle_type_id":"4","last_reported":1687644392,"current_range_meters":0,"station_id":"ce4bh692rcd13ifvqea0","pricing_plan_id":"free"},{"bike_id":"e148b52d-eadb-4915-9ac1-491ce04fd6c1","system_id":"levelo_inurba_marseille","lat":43.294153,"lon":5.386305,"is_reserved":false,"is_disabled":false,"rental_uris":{"android":"levelo://app?vid=e148b52d-eadb-4915-9ac1-491ce04fd6c1","ios":"levelo://app?vid=e148b52d-eadb-4915-9ac1-491ce04fd6c1"},"vehicle_type_id":"4","last_reported":1687644392,"current_range_meters":0,"station_id":"ce4bh2h2rcd13ifvqdh0","pricing_plan_id":"free"},{"bike_id":"be8e8d40-5b44-4205-8560-c0eff54aa189","system_id":"levelo_inurba_marseille","lat":43.294153,"lon":5.386305,"is_reserved":false,"is_disabled":false,"rental_uris":{"android":"levelo://app?vid=be8e8d40-5b44-4205-8560-c0eff54aa189","ios":"levelo://app?vid=be8e8d40-5b44-4205-8560-c0eff54aa189"},"vehicle_type_id":"4","last_reported":1687644392,"current_range_meters":11600,"station_id":"ce4bh2h2rcd13ifvqdh0","pricing_plan_id":"free"},{"bike_id":"6271c003-e04e-448d-ad38-a37461d8ada0","system_id":"levelo_inurba_marseille","lat":43.290327,"lon":5.375711,"is_reserved":false,"is_disabled":false,"rental_uris":{"android":"levelo://app?vid=6271c003-e04e-448d-ad38-a37461d8ada0","ios":"levelo://app?vid=6271c003-e04e-448d-ad38-a37461d8ada0"},"vehicle_type_id":"4","last_reported":1687644392,"current_range_meters":5200,"station_id":"ce4bh692rcd13ifvqe90","pricing_plan_id":"free"},{"bike_id":"b2f5d6ce-1a94-4e07-bf42-813d2d7f3f50","system_id":"levelo_inurba_marseille","lat":43.294166,"lon":5.386238,"is_reserved":false,"is_disabled":false,"rental_uris":{"android":"levelo://app?vid=b2f5d6ce-1a94-4e07-bf42-813d2d7f3f50","ios":"levelo://app?vid=b2f5d6ce-1a94-4e07-bf42-813d2d7f3f50"},"vehicle_type_id":"4","last_reported":1687644392,"current_range_meters":24800,"station_id":"","pricing_plan_id":"free"},{"bike_id":"20b2702a-2cf1-439f-b7da-41f192fa1a0a","system_id":"levelo_inurba_marseille","lat":43.29411,"lon":5.38614,"is_reserved":false,"is_disabled":false,"rental_uris":{"android":"levelo://app?vid=20b2702a-2cf1-439f-b7da-41f192fa1a0a","ios":"levelo://app?vid=20b2702a-2cf1-439f-b7da-41f192fa1a0a"},"vehicle_type_id":"4","last_reported":1687644392,"current_range_meters":17600,"station_id":"","pricing_plan_id":"free"},{"bike_id":"aec9bc35-4ae6-4069-bc66-0a4d62518a07","system_id":"levelo_inurba_marseille","lat":43.294162,"lon":5.386292,"is_reserved":false,"is_disabled":false,"rental_uris":{"android":"levelo://app?vid=aec9bc35-4ae6-4069-bc66-0a4d62518a07","ios":"levelo://app?vid=aec9bc35-4ae6-4069-bc66-0a4d62518a07"},"vehicle_type_id":"4","last_reported":1687644392,"current_range_meters":24000,"station_id":"ce4bh2h2rcd13ifvqdh0","pricing_plan_id":"free"},{"bike_id":"b8de96d1-e683-452b-bbd8-2479910eee4a","system_id":"levelo_inurba_marseille","lat":43.287154,"lon":5.399979,"is_reserved":false,"is_disabled":false,"rental_uris":{"android":"levelo://app?vid=b8de96d1-e683-452b-bbd8-2479910eee4a","ios":"levelo://app?vid=b8de96d1-e683-452b-bbd8-2479910eee4a"},"vehicle_type_id":"4","last_reported":1687644392,"current_range_meters":6400,"station_id":"ce4bho92rcd13ifvqh3g","pricing_plan_id":"free"},{"bike_id":"251f18f2-0a72-424f-8514-65f05806ef76","system_id":"levelo_inurba_marseille","lat":43.292642,"lon":5.384254,"is_reserved":false,"is_disabled":false,"rental_uris":{"android":"levelo://app?vid=251f18f2-0a72-424f-8514-65f05806ef76","ios":"levelo://app?vid=251f18f2-0a72-424f-8514-65f05806ef76"},"vehicle_type_id":"4","last_reported":1687644392,"current_range_meters":20000,"station_id":"ce4bh692rcd13ifvqea0","pricing_plan_id":"free"},{"bike_id":"23e2153c-7a42-4e5c-a8fd-346fab44051c","system_id":"levelo_inurba_marseille","lat":43.292642,"lon":5.384254,"is_reserved":false,"is_disabled":false,"rental_uris":{"android":"levelo://app?vid=23e2153c-7a42-4e5c-a8fd-346fab44051c","ios":"levelo://app?vid=23e2153c-7a42-4e5c-a8fd-346fab44051c"},"vehicle_type_id":"4","last_reported":1687644392,"current_range_meters":21200,"station_id":"ce4bh692rcd13ifvqea0","pricing_plan_id":"free"},{"bike_id":"6e9f6c74-d028-4e49-b280-e6582154d864","system_id":"levelo_inurba_marseille","lat":43.292642,"lon":5.384254,"is_reserved":false,"is_disabled":false,"rental_uris":{"android":"levelo://app?vid=6e9f6c74-d028-4e49-b280-e6582154d864","ios":"levelo://app?vid=6e9f6c74-d028-4e49-b280-e6582154d864"},"vehicle_type_id":"4","last_reported":1687644392,"current_range_meters":7200,"station_id":"ce4bh692rcd13ifvqea0","pricing_plan_id":"free"},{"bike_id":"9359a244-373e-493f-9c97-4fe925fc38f9","system_id":"levelo_inurba_marseille","lat":43.292642,"lon":5.384254,"is_reserved":false,"is_disabled":false,"rental_uris":{"android":"levelo://app?vid=9359a244-373e-493f-9c97-4fe925fc38f9","ios":"levelo://app?vid=9359a244-373e-493f-9c97-4fe925fc38f9"},"vehicle_type_id":"4","last_reported":1687644392,"current_range_meters":20400,"station_id":"ce4bh692rcd13ifvqea0","pricing_plan_id":"free"},{"bike_id":"60f3453f-03d5-4cd7-978f-9b7d5680da12","system_id":"levelo_inurba_marseille","lat":43.292644,"lon":5.384257,"is_reserved":false,"is_disabled":false,"rental_uris":{"android":"levelo://app?vid=60f3453f-03d5-4cd7-978f-9b7d5680da12","ios":"levelo://app?vid=60f3453f-03d5-4cd7-978f-9b7d5680da12"},"vehicle_type_id":"4","last_reported":1687644392,"current_range_meters":2000,"station_id":"ce4bh692rcd13ifvqea0","pricing_plan_id":"free"},{"bike_id":"fd8147fd-9fd4-46b2-94fd-11b0047432da","system_id":"levelo_inurba_marseille","lat":43.292644,"lon":5.384257,"is_reserved":false,"is_disabled":false,"rental_uris":{"android":"levelo://app?vid=fd8147fd-9fd4-46b2-94fd-11b0047432da","ios":"levelo://app?vid=fd8147fd-9fd4-46b2-94fd-11b0047432da"},"vehicle_type_id":"4","last_reported":1687644392,"current_range_meters":31600,"station_id":"ce4bh692rcd13ifvqea0","pricing_plan_id":"free"},{"bike_id":"6caf6bf9-1213-407d-8f5c-aabdad853dc0","system_id":"levelo_inurba_marseille","lat":43.292644,"lon":5.384257,"is_reserved":false,"is_disabled":false,"rental_uris":{"android":"levelo://app?vid=6caf6bf9-1213-407d-8f5c-aabdad853dc0","ios":"levelo://app?vid=6caf6bf9-1213-407d-8f5c-aabdad853dc0"},"vehicle_type_id":"4","last_reported":1687644392,"current_range_meters":5200,"station_id":"ce4bh692rcd13ifvqea0","pricing_plan_id":"free"},{"bike_id":"3fbabcb6-aae9-4034-acc9-8f3a326e8f9c","system_id":"levelo_inurba_marseille","lat":43.292642,"lon":5.384254,"is_reserved":false,"is_disabled":false,"rental_uris":{"android":"levelo://app?vid=3fbabcb6-aae9-4034-acc9-8f3a326e8f9c","ios":"levelo://app?vid=3fbabcb6-aae9-4034-acc9-8f3a326e8f9c"},"vehicle_type_id":"4","last_reported":1687644392,"current_range_meters":26000,"station_id":"ce4bh692rcd13ifvqea0","pricing_plan_id":"free"},{"bike_id":"812f36a8-bc81-4dc1-99e3-a89ac00e83d3","system_id":"levelo_inurba_marseille","lat":43.292642,"lon":5.384254,"is_reserved":false,"is_disabled":false,"rental_uris":{"android":"levelo://app?vid=812f36a8-bc81-4dc1-99e3-a89ac00e83d3","ios":"levelo://app?vid=812f36a8-bc81-4dc1-99e3-a89ac00e83d3"},"vehicle_type_id":"4","last_reported":1687644392,"current_range_meters":400,"station_id":"ce4bh692rcd13ifvqea0","pricing_plan_id":"free"},{"bike_id":"6d3c6c0d-49f7-44c6-b80c-52d63eecd04f","system_id":"levelo_inurba_marseille","lat":43.292644,"lon":5.384257,"is_reserved":false,"is_disabled":false,"rental_uris":{"android":"levelo://app?vid=6d3c6c0d-49f7-44c6-b80c-52d63eecd04f","ios":"levelo://app?vid=6d3c6c0d-49f7-44c6-b80c-52d63eecd04f"},"vehicle_type_id":"4","last_reported":1687644392,"current_range_meters":31200,"station_id":"ce4bh692rcd13ifvqea0","pricing_plan_id":"free"},{"bike_id":"1cfb3112-f478-4969-9f4a-678523902b90","system_id":"levelo_inurba_marseille","lat":43.292642,"lon":5.384254,"is_reserved":false,"is_disabled":false,"rental_uris":{"android":"levelo://app?vid=1cfb3112-f478-4969-9f4a-678523902b90","ios":"levelo://app?vid=1cfb3112-f478-4969-9f4a-678523902b90"},"vehicle_type_id":"4","last_reported":1687644392,"current_range_meters":21200,"station_id":"ce4bh692rcd13ifvqea0","pricing_plan_id":"free"},{"bike_id":"65cc17b2-b0ce-4c8d-b323-d65128ab7a93","system_id":"levelo_inurba_marseille","lat":43.29262,"lon":5.38445,"is_reserved":false,"is_disabled":false,"rental_uris":{"android":"levelo://app?vid=65cc17b2-b0ce-4c8d-b323-d65128ab7a93","ios":"levelo://app?vid=65cc17b2-b0ce-4c8d-b323-d65128ab7a93"},"vehicle_type_id":"4","last_reported":1687644392,"current_range_meters":24400,"station_id":"ce4bh692rcd13ifvqea0","pricing_plan_id":"free"},{"bike_id":"f16f2383-5e4a-4f16-887b-ac94d82dd169","system_id":"levelo_inurba_marseille","lat":43.292644,"lon":5.384257,"is_reserved":false,"is_disabled":false,"rental_uris":{"android":"levelo://app?vid=f16f2383-5e4a-4f16-887b-ac94d82dd169","ios":"levelo://app?vid=f16f2383-5e4a-4f16-887b-ac94d82dd169"},"vehicle_type_id":"4","last_reported":1687644392,"current_range_meters":20000,"station_id":"ce4bh692rcd13ifvqea0","pricing_plan_id":"free"},{"bike_id":"a89e6206-1441-489b-b8dd-e7c1fdc29ca3","system_id":"levelo_inurba_marseille","lat":43.292644,"lon":5.384257,"is_reserved":false,"is_disabled":false,"rental_uris":{"android":"levelo://app?vid=a89e6206-1441-489b-b8dd-e7c1fdc29ca3","ios":"levelo://app?vid=a89e6206-1441-489b-b8dd-e7c1fdc29ca3"},"vehicle_type_id":"4","last_reported":1687644392,"current_range_meters":2800,"station_id":"ce4bh692rcd13ifvqea0","pricing_plan_id":"free"},{"bike_id":"f7af42c0-bbae-4d51-9bcf-29ce8751e8e5","system_id":"levelo_inurba_marseille","lat":43.304296,"lon":5.397513,"is_reserved":false,"is_disabled":false,"rental_uris":{"android":"levelo://app?vid=f7af42c0-bbae-4d51-9bcf-29ce8751e8e5","ios":"levelo://app?vid=f7af42c0-bbae-4d51-9bcf-29ce8751e8e5"},"vehicle_type_id":"4","last_reported":1687644392,"current_range_meters":24800,"station_id":"ce4bh092rcd13ifvqd20","pricing_plan_id":"free"},{"bike_id":"bf62140e-e81f-4eff-aee9-9ade344f3d85","system_id":"levelo_inurba_marseille","lat":43.292644,"lon":5.384257,"is_reserved":false,"is_disabled":false,"rental_uris":{"android":"levelo://app?vid=bf62140e-e81f-4eff-aee9-9ade344f3d85","ios":"levelo://app?vid=bf62140e-e81f-4eff-aee9-9ade344f3d85"},"vehicle_type_id":"4","last_reported":1687644392,"current_range_meters":2000,"station_id":"ce4bh692rcd13ifvqea0","pricing_plan_id":"free"},{"bike_id":"4fa39cc8-15e6-435d-9733-391cc8849b0b","system_id":"levelo_inurba_marseille","lat":43.290104,"lon":5.356111,"is_reserved":false,"is_disabled":false,"rental_uris":{"android":"levelo://app?vid=4fa39cc8-15e6-435d-9733-391cc8849b0b","ios":"levelo://app?vid=4fa39cc8-15e6-435d-9733-391cc8849b0b"},"vehicle_type_id":"4","last_reported":1687644392,"current_range_meters":18800,"station_id":"ce4bhb92rcd13ifvqen0","pricing_plan_id":"free"},{"bike_id":"eb4cbc42-e85e-4d87-92af-4d6e85a15de6","system_id":"levelo_inurba_marseille","lat":43.33044,"lon":5.38921,"is_reserved":false,"is_disabled":false,"rental_uris":{"android":"levelo://app?vid=eb4cbc42-e85e-4d87-92af-4d6e85a15de6","ios":"levelo://app?vid=eb4cbc42-e85e-4d87-92af-4d6e85a15de6"},"vehicle_type_id":"4","last_reported":1687644392,"current_range_meters":2800,"station_id":"ce4bhr92rcd13ifvqhrg","pricing_plan_id":"free"},{"bike_id":"c86a761b-93a2-48cd-a643-b9517e672bcb","system_id":"levelo_inurba_marseille","lat":43.33045,"lon":5.38925,"is_reserved":false,"is_disabled":false,"rental_uris":{"android":"levelo://app?vid=c86a761b-93a2-48cd-a643-b9517e672bcb","ios":"levelo://app?vid=c86a761b-93a2-48cd-a643-b9517e672bcb"},"vehicle_type_id":"4","last_reported":1687644392,"current_range_meters":31200,"station_id":"ce4bhr92rcd13ifvqhrg","pricing_plan_id":"free"},{"bike_id":"8fa4b804-eeea-441f-9b15-4664acb44e13","system_id":"levelo_inurba_marseille","lat":43.33028,"lon":5.38954,"is_reserved":false,"is_disabled":false,"rental_uris":{"android":"levelo://app?vid=8fa4b804-eeea-441f-9b15-4664acb44e13","ios":"levelo://app?vid=8fa4b804-eeea-441f-9b15-4664acb44e13"},"vehicle_type_id":"4","last_reported":1687644392,"current_range_meters":2400,"station_id":"","pricing_plan_id":"free"},{"bike_id":"95fabcde-c1f2-4cf7-9898-b2320dd48c6a","system_id":"levelo_inurba_marseille","lat":43.290995,"lon":5.381361,"is_reserved":false,"is_disabled":false,"rental_uris":{"android":"levelo://app?vid=95fabcde-c1f2-4cf7-9898-b2320dd48c6a","ios":"levelo://app?vid=95fabcde-c1f2-4cf7-9898-b2320dd48c6a"},"vehicle_type_id":"4","last_reported":1687644392,"current_range_meters":29600,"station_id":"ce4bh512rcd13ifvqe2g","pricing_plan_id":"free"},{"bike_id":"5739bc30-9b87-4af8-9828-b5100c3edcbc","system_id":"levelo_inurba_marseille","lat":43.290995,"lon":5.381361,"is_reserved":false,"is_disabled":false,"rental_uris":{"android":"levelo://app?vid=5739bc30-9b87-4af8-9828-b5100c3edcbc","ios":"levelo://app?vid=5739bc30-9b87-4af8-9828-b5100c3edcbc"},"vehicle_type_id":"4","last_reported":1687644392,"current_range_meters":0,"station_id":"ce4bh512rcd13ifvqe2g","pricing_plan_id":"free"},{"bike_id":"6ad19f3b-fb59-4421-ae37-eb4a1c220635","system_id":"levelo_inurba_marseille","lat":43.290995,"lon":5.381361,"is_reserved":false,"is_disabled":false,"rental_uris":{"android":"levelo://app?vid=6ad19f3b-fb59-4421-ae37-eb4a1c220635","ios":"levelo://app?vid=6ad19f3b-fb59-4421-ae37-eb4a1c220635"},"vehicle_type_id":"4","last_reported":1687644392,"current_range_meters":19600,"station_id":"ce4bh512rcd13ifvqe2g","pricing_plan_id":"free"},{"bike_id":"830864db-448c-4ae2-8ef6-5061dcdac38c","system_id":"levelo_inurba_marseille","lat":43.290995,"lon":5.381361,"is_reserved":false,"is_disabled":false,"rental_uris":{"android":"levelo://app?vid=830864db-448c-4ae2-8ef6-5061dcdac38c","ios":"levelo://app?vid=830864db-448c-4ae2-8ef6-5061dcdac38c"},"vehicle_type_id":"4","last_reported":1687644392,"current_range_meters":30000,"station_id":"ce4bh512rcd13ifvqe2g","pricing_plan_id":"free"},{"bike_id":"99fb295c-e57c-49bb-bf93-a0002f379349","system_id":"levelo_inurba_marseille","lat":43.290995,"lon":5.381361,"is_reserved":false,"is_disabled":false,"rental_uris":{"android":"levelo://app?vid=99fb295c-e57c-49bb-bf93-a0002f379349","ios":"levelo://app?vid=99fb295c-e57c-49bb-bf93-a0002f379349"},"vehicle_type_id":"4","last_reported":1687644392,"current_range_meters":31200,"station_id":"ce4bh512rcd13ifvqe2g","pricing_plan_id":"free"},{"bike_id":"c9384e54-d00a-48da-9566-d35821b0ee9a","system_id":"levelo_inurba_marseille","lat":43.297815,"lon":5.393548,"is_reserved":false,"is_disabled":false,"rental_uris":{"android":"levelo://app?vid=c9384e54-d00a-48da-9566-d35821b0ee9a","ios":"levelo://app?vid=c9384e54-d00a-48da-9566-d35821b0ee9a"},"vehicle_type_id":"4","last_reported":1687644392,"current_range_meters":16400,"station_id":"chh1huq6cuj3fo74tm60","pricing_plan_id":"free"},{"bike_id":"49886fe0-c256-4708-9363-26ef1cbfff8b","system_id":"levelo_inurba_marseille","lat":43.297815,"lon":5.393548,"is_reserved":false,"is_disabled":false,"rental_uris":{"android":"levelo://app?vid=49886fe0-c256-4708-9363-26ef1cbfff8b","ios":"levelo://app?vid=49886fe0-c256-4708-9363-26ef1cbfff8b"},"vehicle_type_id":"4","last_reported":1687644392,"current_range_meters":0,"station_id":"chh1huq6cuj3fo74tm60","pricing_plan_id":"free"},{"bike_id":"8e7846f1-3c57-4b77-b546-7a1ff3fa0a86","system_id":"levelo_inurba_marseille","lat":43.297815,"lon":5.393548,"is_reserved":false,"is_disabled":false,"rental_uris":{"android":"levelo://app?vid=8e7846f1-3c57-4b77-b546-7a1ff3fa0a86","ios":"levelo://app?vid=8e7846f1-3c57-4b77-b546-7a1ff3fa0a86"},"vehicle_type_id":"4","last_reported":1687644392,"current_range_meters":27600,"station_id":"chh1huq6cuj3fo74tm60","pricing_plan_id":"free"},{"bike_id":"93fce22a-ee2f-40ba-9312-c06cb08dca76","system_id":"levelo_inurba_marseille","lat":43.295169,"lon":5.390426,"is_reserved":false,"is_disabled":false,"rental_uris":{"android":"levelo://app?vid=93fce22a-ee2f-40ba-9312-c06cb08dca76","ios":"levelo://app?vid=93fce22a-ee2f-40ba-9312-c06cb08dca76"},"vehicle_type_id":"4","last_reported":1687644392,"current_range_meters":12400,"station_id":"ce4bh3p2rcd13ifvqdp0","pricing_plan_id":"free"},{"bike_id":"abc0f40c-6c49-4bff-95e4-5532c29a53d4","system_id":"levelo_inurba_marseille","lat":43.295169,"lon":5.390426,"is_reserved":false,"is_disabled":false,"rental_uris":{"android":"levelo://app?vid=abc0f40c-6c49-4bff-95e4-5532c29a53d4","ios":"levelo://app?vid=abc0f40c-6c49-4bff-95e4-5532c29a53d4"},"vehicle_type_id":"4","last_reported":1687644392,"current_range_meters":18000,"station_id":"ce4bh3p2rcd13ifvqdp0","pricing_plan_id":"free"},{"bike_id":"51bd5809-2994-450b-aa5d-23d378eb7f2f","system_id":"levelo_inurba_marseille","lat":43.28856,"lon":5.358371,"is_reserved":false,"is_disabled":false,"rental_uris":{"android":"levelo://app?vid=51bd5809-2994-450b-aa5d-23d378eb7f2f","ios":"levelo://app?vid=51bd5809-2994-450b-aa5d-23d378eb7f2f"},"vehicle_type_id":"4","last_reported":1687644392,"current_range_meters":28000,"station_id":"ce4bhb12rcd13ifvqem0","pricing_plan_id":"free"},{"bike_id":"3f8a925a-6a54-4259-a38f-9cf091aab246","system_id":"levelo_inurba_marseille","lat":43.29243,"lon":5.38748,"is_reserved":false,"is_disabled":false,"rental_uris":{"android":"levelo://app?vid=3f8a925a-6a54-4259-a38f-9cf091aab246","ios":"levelo://app?vid=3f8a925a-6a54-4259-a38f-9cf091aab246"},"vehicle_type_id":"4","last_reported":1687644392,"current_range_meters":19200,"station_id":"","pricing_plan_id":"free"},{"bike_id":"daa529e0-a159-46a8-976b-cac8f17e0b22","system_id":"levelo_inurba_marseille","lat":43.309371,"lon":5.401449,"is_reserved":false,"is_disabled":false,"rental_uris":{"android":"levelo://app?vid=daa529e0-a159-46a8-976b-cac8f17e0b22","ios":"levelo://app?vid=daa529e0-a159-46a8-976b-cac8f17e0b22"},"vehicle_type_id":"4","last_reported":1687644392,"current_range_meters":2400,"station_id":"ce4bgvp2rcd13ifvqct0","pricing_plan_id":"free"},{"bike_id":"5b51ec64-d0df-4b22-9acd-b5de599c52c1","system_id":"levelo_inurba_marseille","lat":43.309371,"lon":5.401449,"is_reserved":false,"is_disabled":false,"rental_uris":{"android":"levelo://app?vid=5b51ec64-d0df-4b22-9acd-b5de599c52c1","ios":"levelo://app?vid=5b51ec64-d0df-4b22-9acd-b5de599c52c1"},"vehicle_type_id":"4","last_reported":1687644392,"current_range_meters":7200,"station_id":"ce4bgvp2rcd13ifvqct0","pricing_plan_id":"free"},{"bike_id":"54103fa6-4374-4b91-b591-eccea9579fa3","system_id":"levelo_inurba_marseille","lat":43.30935,"lon":5.40142,"is_reserved":false,"is_disabled":false,"rental_uris":{"android":"levelo://app?vid=54103fa6-4374-4b91-b591-eccea9579fa3","ios":"levelo://app?vid=54103fa6-4374-4b91-b591-eccea9579fa3"},"vehicle_type_id":"4","last_reported":1687644392,"current_range_meters":6400,"station_id":"ce4bgvp2rcd13ifvqct0","pricing_plan_id":"free"},{"bike_id":"12165ca6-e5fc-4192-9601-990e6f4a6c19","system_id":"levelo_inurba_marseille","lat":43.30926,"lon":5.40142,"is_reserved":false,"is_disabled":false,"rental_uris":{"android":"levelo://app?vid=12165ca6-e5fc-4192-9601-990e6f4a6c19","ios":"levelo://app?vid=12165ca6-e5fc-4192-9601-990e6f4a6c19"},"vehicle_type_id":"4","last_reported":1687644392,"current_range_meters":17200,"station_id":"","pricing_plan_id":"free"},{"bike_id":"0556bb26-b1f3-4276-a612-1099138b0906","system_id":"levelo_inurba_marseille","lat":43.28786,"lon":5.37353,"is_reserved":false,"is_disabled":false,"rental_uris":{"android":"levelo://app?vid=0556bb26-b1f3-4276-a612-1099138b0906","ios":"levelo://app?vid=0556bb26-b1f3-4276-a612-1099138b0906"},"vehicle_type_id":"4","last_reported":1687644392,"current_range_meters":18000,"station_id":"ce4bh3p2rcd13ifvqdq0","pricing_plan_id":"free"},{"bike_id":"577d30ec-0ac1-4ea7-b016-9db3bbb9e9f7","system_id":"levelo_inurba_marseille","lat":43.28856,"lon":5.358371,"is_reserved":false,"is_disabled":false,"rental_uris":{"android":"levelo://app?vid=577d30ec-0ac1-4ea7-b016-9db3bbb9e9f7","ios":"levelo://app?vid=577d30ec-0ac1-4ea7-b016-9db3bbb9e9f7"},"vehicle_type_id":"4","last_reported":1687644392,"current_range_meters":16800,"station_id":"ce4bhb12rcd13ifvqem0","pricing_plan_id":"free"},{"bike_id":"c180ae38-f769-441f-8a55-5a6e4930e6ad","system_id":"levelo_inurba_marseille","lat":43.3375,"lon":5.37439,"is_reserved":false,"is_disabled":false,"rental_uris":{"android":"levelo://app?vid=c180ae38-f769-441f-8a55-5a6e4930e6ad","ios":"levelo://app?vid=c180ae38-f769-441f-8a55-5a6e4930e6ad"},"vehicle_type_id":"4","last_reported":1687644392,"current_range_meters":23200,"station_id":"","pricing_plan_id":"free"},{"bike_id":"8362c46c-26a3-4c75-b8f6-7fdc43232500","system_id":"levelo_inurba_marseille","lat":43.309371,"lon":5.401449,"is_reserved":false,"is_disabled":false,"rental_uris":{"android":"levelo://app?vid=8362c46c-26a3-4c75-b8f6-7fdc43232500","ios":"levelo://app?vid=8362c46c-26a3-4c75-b8f6-7fdc43232500"},"vehicle_type_id":"4","last_reported":1687644392,"current_range_meters":18400,"station_id":"ce4bgvp2rcd13ifvqct0","pricing_plan_id":"free"},{"bike_id":"e85f0dfa-2d82-4f4c-a2ed-017029c76dcb","system_id":"levelo_inurba_marseille","lat":43.309371,"lon":5.401449,"is_reserved":false,"is_disabled":false,"rental_uris":{"android":"levelo://app?vid=e85f0dfa-2d82-4f4c-a2ed-017029c76dcb","ios":"levelo://app?vid=e85f0dfa-2d82-4f4c-a2ed-017029c76dcb"},"vehicle_type_id":"4","last_reported":1687644392,"current_range_meters":14800,"station_id":"ce4bgvp2rcd13ifvqct0","pricing_plan_id":"free"},{"bike_id":"b7481e7f-b912-43ca-9a76-75715140d665","system_id":"levelo_inurba_marseille","lat":43.33764,"lon":5.37434,"is_reserved":false,"is_disabled":false,"rental_uris":{"android":"levelo://app?vid=b7481e7f-b912-43ca-9a76-75715140d665","ios":"levelo://app?vid=b7481e7f-b912-43ca-9a76-75715140d665"},"vehicle_type_id":"4","last_reported":1687644392,"current_range_meters":31200,"station_id":"","pricing_plan_id":"free"},{"bike_id":"97d1e768-7941-4cec-87f7-8fcefd91708e","system_id":"levelo_inurba_marseille","lat":43.306412,"lon":5.401035,"is_reserved":false,"is_disabled":false,"rental_uris":{"android":"levelo://app?vid=97d1e768-7941-4cec-87f7-8fcefd91708e","ios":"levelo://app?vid=97d1e768-7941-4cec-87f7-8fcefd91708e"},"vehicle_type_id":"4","last_reported":1687644392,"current_range_meters":6000,"station_id":"ce4bh112rcd13ifvqda0","pricing_plan_id":"free"},{"bike_id":"28e93d43-832c-417c-abee-725e880624b8","system_id":"levelo_inurba_marseille","lat":43.30133,"lon":5.39864,"is_reserved":false,"is_disabled":false,"rental_uris":{"android":"levelo://app?vid=28e93d43-832c-417c-abee-725e880624b8","ios":"levelo://app?vid=28e93d43-832c-417c-abee-725e880624b8"},"vehicle_type_id":"4","last_reported":1687644392,"current_range_meters":30400,"station_id":"ce4bh0h2rcd13ifvqd40","pricing_plan_id":"free"},{"bike_id":"eeae8f70-b842-4ffa-a5e8-96c5b4189437","system_id":"levelo_inurba_marseille","lat":43.301117,"lon":5.398795,"is_reserved":false,"is_disabled":false,"rental_uris":{"android":"levelo://app?vid=eeae8f70-b842-4ffa-a5e8-96c5b4189437","ios":"levelo://app?vid=eeae8f70-b842-4ffa-a5e8-96c5b4189437"},"vehicle_type_id":"4","last_reported":1687644392,"current_range_meters":800,"station_id":"ce4bh0h2rcd13ifvqd40","pricing_plan_id":"free"},{"bike_id":"b1b3d3b9-8841-4144-bac9-3c22eaba1a93","system_id":"levelo_inurba_marseille","lat":43.286591,"lon":5.363346,"is_reserved":false,"is_disabled":false,"rental_uris":{"android":"levelo://app?vid=b1b3d3b9-8841-4144-bac9-3c22eaba1a93","ios":"levelo://app?vid=b1b3d3b9-8841-4144-bac9-3c22eaba1a93"},"vehicle_type_id":"4","last_reported":1687644392,"current_range_meters":28800,"station_id":"ce4bhah2rcd13ifvqej0","pricing_plan_id":"free"},{"bike_id":"791e2fee-029b-428d-b80d-c9ea57aeedf9","system_id":"levelo_inurba_marseille","lat":43.286961,"lon":5.373785,"is_reserved":false,"is_disabled":false,"rental_uris":{"android":"levelo://app?vid=791e2fee-029b-428d-b80d-c9ea57aeedf9","ios":"levelo://app?vid=791e2fee-029b-428d-b80d-c9ea57aeedf9"},"vehicle_type_id":"4","last_reported":1687644392,"current_range_meters":17200,"station_id":"ce4bh3p2rcd13ifvqdq0","pricing_plan_id":"free"},{"bike_id":"54ec1fdc-282d-4a1a-a7c1-d56aef528c40","system_id":"levelo_inurba_marseille","lat":43.28705,"lon":5.3739,"is_reserved":false,"is_disabled":false,"rental_uris":{"android":"levelo://app?vid=54ec1fdc-282d-4a1a-a7c1-d56aef528c40","ios":"levelo://app?vid=54ec1fdc-282d-4a1a-a7c1-d56aef528c40"},"vehicle_type_id":"4","last_reported":1687644392,"current_range_meters":8400,"station_id":"ce4bh3p2rcd13ifvqdq0","pricing_plan_id":"free"},{"bike_id":"fbe3baa4-559d-451a-837b-1d5b342a0644","system_id":"levelo_inurba_marseille","lat":43.28664,"lon":5.36356,"is_reserved":false,"is_disabled":false,"rental_uris":{"android":"levelo://app?vid=fbe3baa4-559d-451a-837b-1d5b342a0644","ios":"levelo://app?vid=fbe3baa4-559d-451a-837b-1d5b342a0644"},"vehicle_type_id":"4","last_reported":1687644392,"current_range_meters":24800,"station_id":"ce4bhah2rcd13ifvqej0","pricing_plan_id":"free"},{"bike_id":"20ee7d31-53ff-4b11-acfc-98381f35f814","system_id":"levelo_inurba_marseille","lat":43.286591,"lon":5.363346,"is_reserved":false,"is_disabled":false,"rental_uris":{"android":"levelo://app?vid=20ee7d31-53ff-4b11-acfc-98381f35f814","ios":"levelo://app?vid=20ee7d31-53ff-4b11-acfc-98381f35f814"},"vehicle_type_id":"4","last_reported":1687644392,"current_range_meters":24800,"station_id":"ce4bhah2rcd13ifvqej0","pricing_plan_id":"free"},{"bike_id":"8a5f5ddf-c50c-43bf-ac19-7c3d03201fa0","system_id":"levelo_inurba_marseille","lat":43.286591,"lon":5.363346,"is_reserved":false,"is_disabled":false,"rental_uris":{"android":"levelo://app?vid=8a5f5ddf-c50c-43bf-ac19-7c3d03201fa0","ios":"levelo://app?vid=8a5f5ddf-c50c-43bf-ac19-7c3d03201fa0"},"vehicle_type_id":"4","last_reported":1687644392,"current_range_meters":25600,"station_id":"ce4bhah2rcd13ifvqej0","pricing_plan_id":"free"},{"bike_id":"3c717080-f3b7-4752-bf28-7991c392178b","system_id":"levelo_inurba_marseille","lat":43.28697,"lon":5.3738,"is_reserved":false,"is_disabled":false,"rental_uris":{"android":"levelo://app?vid=3c717080-f3b7-4752-bf28-7991c392178b","ios":"levelo://app?vid=3c717080-f3b7-4752-bf28-7991c392178b"},"vehicle_type_id":"4","last_reported":1687644392,"current_range_meters":5600,"station_id":"ce4bh3p2rcd13ifvqdq0","pricing_plan_id":"free"},{"bike_id":"bc9dea98-0fe1-458c-840a-09092aba2e76","system_id":"levelo_inurba_marseille","lat":43.28693,"lon":5.37379,"is_reserved":false,"is_disabled":false,"rental_uris":{"android":"levelo://app?vid=bc9dea98-0fe1-458c-840a-09092aba2e76","ios":"levelo://app?vid=bc9dea98-0fe1-458c-840a-09092aba2e76"},"vehicle_type_id":"4","last_reported":1687644392,"current_range_meters":12400,"station_id":"ce4bh3p2rcd13ifvqdq0","pricing_plan_id":"free"},{"bike_id":"b1b1d835-8a71-4782-b3f5-9b745727190c","system_id":"levelo_inurba_marseille","lat":43.295196,"lon":5.39397,"is_reserved":false,"is_disabled":false,"rental_uris":{"android":"levelo://app?vid=b1b1d835-8a71-4782-b3f5-9b745727190c","ios":"levelo://app?vid=b1b1d835-8a71-4782-b3f5-9b745727190c"},"vehicle_type_id":"4","last_reported":1687644392,"current_range_meters":27600,"station_id":"ce4bh292rcd13ifvqdf0","pricing_plan_id":"free"},{"bike_id":"e912d77e-3a22-41f6-8517-d48246c92053","system_id":"levelo_inurba_marseille","lat":43.295194,"lon":5.39397,"is_reserved":false,"is_disabled":false,"rental_uris":{"android":"levelo://app?vid=e912d77e-3a22-41f6-8517-d48246c92053","ios":"levelo://app?vid=e912d77e-3a22-41f6-8517-d48246c92053"},"vehicle_type_id":"4","last_reported":1687644392,"current_range_meters":11200,"station_id":"ce4bh292rcd13ifvqdf0","pricing_plan_id":"free"},{"bike_id":"46d408e3-99e1-4a6c-a7dc-68ee83967a83","system_id":"levelo_inurba_marseille","lat":43.295194,"lon":5.39397,"is_reserved":false,"is_disabled":false,"rental_uris":{"android":"levelo://app?vid=46d408e3-99e1-4a6c-a7dc-68ee83967a83","ios":"levelo://app?vid=46d408e3-99e1-4a6c-a7dc-68ee83967a83"},"vehicle_type_id":"4","last_reported":1687644392,"current_range_meters":17600,"station_id":"ce4bh292rcd13ifvqdf0","pricing_plan_id":"free"},{"bike_id":"03e31d7a-387c-4b28-977b-d4a49686e736","system_id":"levelo_inurba_marseille","lat":43.295194,"lon":5.39397,"is_reserved":false,"is_disabled":false,"rental_uris":{"android":"levelo://app?vid=03e31d7a-387c-4b28-977b-d4a49686e736","ios":"levelo://app?vid=03e31d7a-387c-4b28-977b-d4a49686e736"},"vehicle_type_id":"4","last_reported":1687644392,"current_range_meters":6800,"station_id":"ce4bh292rcd13ifvqdf0","pricing_plan_id":"free"},{"bike_id":"c52027c7-68c6-415a-bac1-c9b5f1cb7a1c","system_id":"levelo_inurba_marseille","lat":43.290345,"lon":5.38646,"is_reserved":false,"is_disabled":false,"rental_uris":{"android":"levelo://app?vid=c52027c7-68c6-415a-bac1-c9b5f1cb7a1c","ios":"levelo://app?vid=c52027c7-68c6-415a-bac1-c9b5f1cb7a1c"},"vehicle_type_id":"4","last_reported":1687644392,"current_range_meters":18400,"station_id":"ce4bh4p2rcd13ifvqe0g","pricing_plan_id":"free"},{"bike_id":"159f08d4-8aad-47e4-88fd-1968e25ccc0d","system_id":"levelo_inurba_marseille","lat":43.290296,"lon":5.386472,"is_reserved":false,"is_disabled":false,"rental_uris":{"android":"levelo://app?vid=159f08d4-8aad-47e4-88fd-1968e25ccc0d","ios":"levelo://app?vid=159f08d4-8aad-47e4-88fd-1968e25ccc0d"},"vehicle_type_id":"4","last_reported":1687644392,"current_range_meters":14800,"station_id":"ce4bh4p2rcd13ifvqe0g","pricing_plan_id":"free"},{"bike_id":"96be1f4c-8390-4e3f-90cd-3c4f7123b695","system_id":"levelo_inurba_marseille","lat":43.29023,"lon":5.38641,"is_reserved":false,"is_disabled":false,"rental_uris":{"android":"levelo://app?vid=96be1f4c-8390-4e3f-90cd-3c4f7123b695","ios":"levelo://app?vid=96be1f4c-8390-4e3f-90cd-3c4f7123b695"},"vehicle_type_id":"4","last_reported":1687644392,"current_range_meters":31600,"station_id":"ce4bh4p2rcd13ifvqe0g","pricing_plan_id":"free"},{"bike_id":"17c92dbc-52d6-4ff9-b6fa-4a354109c404","system_id":"levelo_inurba_marseille","lat":43.290216,"lon":5.386406,"is_reserved":false,"is_disabled":false,"rental_uris":{"android":"levelo://app?vid=17c92dbc-52d6-4ff9-b6fa-4a354109c404","ios":"levelo://app?vid=17c92dbc-52d6-4ff9-b6fa-4a354109c404"},"vehicle_type_id":"4","last_reported":1687644392,"current_range_meters":24800,"station_id":"","pricing_plan_id":"free"},{"bike_id":"19713e72-62d5-447b-ac9f-45aec80f6957","system_id":"levelo_inurba_marseille","lat":43.302759,"lon":5.400793,"is_reserved":false,"is_disabled":false,"rental_uris":{"android":"levelo://app?vid=19713e72-62d5-447b-ac9f-45aec80f6957","ios":"levelo://app?vid=19713e72-62d5-447b-ac9f-45aec80f6957"},"vehicle_type_id":"4","last_reported":1687644392,"current_range_meters":18800,"station_id":"ce4bgvh2rcd13ifvqcs0","pricing_plan_id":"free"},{"bike_id":"48dfe182-948c-44a3-9c2d-3d0263ba5677","system_id":"levelo_inurba_marseille","lat":43.286039,"lon":5.370679,"is_reserved":false,"is_disabled":false,"rental_uris":{"android":"levelo://app?vid=48dfe182-948c-44a3-9c2d-3d0263ba5677","ios":"levelo://app?vid=48dfe182-948c-44a3-9c2d-3d0263ba5677"},"vehicle_type_id":"4","last_reported":1687644392,"current_range_meters":31200,"station_id":"ce4bht12rcd13ifvqi60","pricing_plan_id":"free"},{"bike_id":"6a6b878c-072b-41d9-b3d4-915a91134fb1","system_id":"levelo_inurba_marseille","lat":43.286039,"lon":5.370679,"is_reserved":false,"is_disabled":false,"rental_uris":{"android":"levelo://app?vid=6a6b878c-072b-41d9-b3d4-915a91134fb1","ios":"levelo://app?vid=6a6b878c-072b-41d9-b3d4-915a91134fb1"},"vehicle_type_id":"4","last_reported":1687644392,"current_range_meters":31200,"station_id":"ce4bht12rcd13ifvqi60","pricing_plan_id":"free"},{"bike_id":"648594cb-1cd1-4551-a982-a76d8fbc7445","system_id":"levelo_inurba_marseille","lat":43.286039,"lon":5.370679,"is_reserved":false,"is_disabled":false,"rental_uris":{"android":"levelo://app?vid=648594cb-1cd1-4551-a982-a76d8fbc7445","ios":"levelo://app?vid=648594cb-1cd1-4551-a982-a76d8fbc7445"},"vehicle_type_id":"4","last_reported":1687644392,"current_range_meters":16000,"station_id":"ce4bht12rcd13ifvqi60","pricing_plan_id":"free"},{"bike_id":"4c41a211-4bd3-4fe7-91b7-c15f8173f4d2","system_id":"levelo_inurba_marseille","lat":43.287184,"lon":5.37937,"is_reserved":false,"is_disabled":false,"rental_uris":{"android":"levelo://app?vid=4c41a211-4bd3-4fe7-91b7-c15f8173f4d2","ios":"levelo://app?vid=4c41a211-4bd3-4fe7-91b7-c15f8173f4d2"},"vehicle_type_id":"4","last_reported":1687644392,"current_range_meters":26400,"station_id":"ce4bh9p2rcd13ifvqec0","pricing_plan_id":"free"},{"bike_id":"d69fed3a-efe9-46fb-b1dc-1240b8978d3e","system_id":"levelo_inurba_marseille","lat":43.316517,"lon":5.404375,"is_reserved":false,"is_disabled":false,"rental_uris":{"android":"levelo://app?vid=d69fed3a-efe9-46fb-b1dc-1240b8978d3e","ios":"levelo://app?vid=d69fed3a-efe9-46fb-b1dc-1240b8978d3e"},"vehicle_type_id":"4","last_reported":1687644392,"current_range_meters":17200,"station_id":"ce4bh012rcd13ifvqd00","pricing_plan_id":"free"},{"bike_id":"0000ae79-128f-44b1-85d3-176caabf1483","system_id":"levelo_inurba_marseille","lat":43.316517,"lon":5.404375,"is_reserved":false,"is_disabled":false,"rental_uris":{"android":"levelo://app?vid=0000ae79-128f-44b1-85d3-176caabf1483","ios":"levelo://app?vid=0000ae79-128f-44b1-85d3-176caabf1483"},"vehicle_type_id":"4","last_reported":1687644392,"current_range_meters":11200,"station_id":"ce4bh012rcd13ifvqd00","pricing_plan_id":"free"},{"bike_id":"bce3faa7-3399-4910-bcc1-0b0720c07864","system_id":"levelo_inurba_marseille","lat":43.3165,"lon":5.40438,"is_reserved":false,"is_disabled":false,"rental_uris":{"android":"levelo://app?vid=bce3faa7-3399-4910-bcc1-0b0720c07864","ios":"levelo://app?vid=bce3faa7-3399-4910-bcc1-0b0720c07864"},"vehicle_type_id":"4","last_reported":1687644392,"current_range_meters":1600,"station_id":"ce4bh012rcd13ifvqd00","pricing_plan_id":"free"},{"bike_id":"4c0a2cb4-dfa4-4f50-b315-1c6527b0eede","system_id":"levelo_inurba_marseille","lat":43.291994,"lon":5.392907,"is_reserved":false,"is_disabled":false,"rental_uris":{"android":"levelo://app?vid=4c0a2cb4-dfa4-4f50-b315-1c6527b0eede","ios":"levelo://app?vid=4c0a2cb4-dfa4-4f50-b315-1c6527b0eede"},"vehicle_type_id":"4","last_reported":1687644392,"current_range_meters":19200,"station_id":"ce4bh192rcd13ifvqdd0","pricing_plan_id":"free"},{"bike_id":"02cc3517-44fc-4b5d-9acb-77c73fcb03d5","system_id":"levelo_inurba_marseille","lat":43.291994,"lon":5.392907,"is_reserved":false,"is_disabled":false,"rental_uris":{"android":"levelo://app?vid=02cc3517-44fc-4b5d-9acb-77c73fcb03d5","ios":"levelo://app?vid=02cc3517-44fc-4b5d-9acb-77c73fcb03d5"},"vehicle_type_id":"4","last_reported":1687644392,"current_range_meters":31200,"station_id":"ce4bh192rcd13ifvqdd0","pricing_plan_id":"free"},{"bike_id":"4300fcd9-8436-4c31-8943-f31d111cd064","system_id":"levelo_inurba_marseille","lat":43.291994,"lon":5.392907,"is_reserved":false,"is_disabled":false,"rental_uris":{"android":"levelo://app?vid=4300fcd9-8436-4c31-8943-f31d111cd064","ios":"levelo://app?vid=4300fcd9-8436-4c31-8943-f31d111cd064"},"vehicle_type_id":"4","last_reported":1687644392,"current_range_meters":31200,"station_id":"ce4bh192rcd13ifvqdd0","pricing_plan_id":"free"},{"bike_id":"9961ab13-e487-48fa-abf2-cbbeb3ac5c3c","system_id":"levelo_inurba_marseille","lat":43.291994,"lon":5.392907,"is_reserved":false,"is_disabled":false,"rental_uris":{"android":"levelo://app?vid=9961ab13-e487-48fa-abf2-cbbeb3ac5c3c","ios":"levelo://app?vid=9961ab13-e487-48fa-abf2-cbbeb3ac5c3c"},"vehicle_type_id":"4","last_reported":1687644392,"current_range_meters":16000,"station_id":"ce4bh192rcd13ifvqdd0","pricing_plan_id":"free"},{"bike_id":"124ebb6f-7e8e-4bcb-8b3d-88c0bdca7173","system_id":"levelo_inurba_marseille","lat":43.284534,"lon":5.358662,"is_reserved":false,"is_disabled":false,"rental_uris":{"android":"levelo://app?vid=124ebb6f-7e8e-4bcb-8b3d-88c0bdca7173","ios":"levelo://app?vid=124ebb6f-7e8e-4bcb-8b3d-88c0bdca7173"},"vehicle_type_id":"4","last_reported":1687644392,"current_range_meters":24400,"station_id":"ce4bhah2rcd13ifvqei0","pricing_plan_id":"free"},{"bike_id":"f423cb42-7922-4a77-8181-f1f7a5c28757","system_id":"levelo_inurba_marseille","lat":43.28613,"lon":5.351,"is_reserved":false,"is_disabled":false,"rental_uris":{"android":"levelo://app?vid=f423cb42-7922-4a77-8181-f1f7a5c28757","ios":"levelo://app?vid=f423cb42-7922-4a77-8181-f1f7a5c28757"},"vehicle_type_id":"4","last_reported":1687644392,"current_range_meters":30800,"station_id":"ce4bhch2rcd13ifvqeug","pricing_plan_id":"free"},{"bike_id":"b3ee5d9e-1dc6-49c9-b4b7-920e0abdd74d","system_id":"levelo_inurba_marseille","lat":43.28419,"lon":5.37511,"is_reserved":false,"is_disabled":false,"rental_uris":{"android":"levelo://app?vid=b3ee5d9e-1dc6-49c9-b4b7-920e0abdd74d","ios":"levelo://app?vid=b3ee5d9e-1dc6-49c9-b4b7-920e0abdd74d"},"vehicle_type_id":"4","last_reported":1687644392,"current_range_meters":17600,"station_id":"ce4bh412rcd13ifvqds0","pricing_plan_id":"free"},{"bike_id":"d0a84e13-c9f9-4afe-ab62-cf0b02fca7fa","system_id":"levelo_inurba_marseille","lat":43.283998,"lon":5.375062,"is_reserved":false,"is_disabled":false,"rental_uris":{"android":"levelo://app?vid=d0a84e13-c9f9-4afe-ab62-cf0b02fca7fa","ios":"levelo://app?vid=d0a84e13-c9f9-4afe-ab62-cf0b02fca7fa"},"vehicle_type_id":"4","last_reported":1687644392,"current_range_meters":22000,"station_id":"ce4bh412rcd13ifvqds0","pricing_plan_id":"free"},