{"last_updated":1748427160,"ttl":60,"version":"2.2","data":{"bikes":[{"bike_id":"2409e25a-da7b-4a85-a246-1f097f5bbef5","system_id":"levelo_inurba_marseille","lat":43.22497,"lon":5.34774,"is_reserved":false,"is_disabled":false,"rental_uris":{"android":"levelo://app?vid=2409e25a-da7b-4a85-a246-1f097f5bbef5","ios":"levelo://app?vid=2409e25a-da7b-4a85-a246-1f097f5bbef5"},"vehicle_type_id":"4","last_reported":1748427160,"current_range_meters":2800,"station_id":"","pricing_plan_id":"cebpf4jnsgd1na2vs0mg"},{"bike_id":"4df98796-8a68-4157-959f-fcb2f015f6b1","system_id":"levelo_inurba_marseille","lat":43.30141,"lon":5.38089,"is_reserved":false,"is_disabled":false,"rental_uris":{"android":"levelo://app?vid=4df98796-8a68-4157-959f-fcb2f015f6b1","ios":"levelo://app?vid=4df98796-8a68-4157-959f-fcb2f015f6b1"},"vehicle_type_id":"4","last_reported":1748427160,"current_range_meters":2800,"station_id":"ce4bgjp2rcd13ifvqbh0","pricing_plan_id":"cebpf4jnsgd1na2vs0mg"},{"bike_id":"e05bc006-517a-41b9-8ee7-0b630de9bc03","system_id":"levelo_inurba_marseille","lat":43.28698,"lon":5.39988,"is_reserved":false,"is_disabled":false,"rental_uris":{"android":"levelo://app?vid=e05bc006-517a-41b9-8ee7-0b630de9bc03","ios":"levelo://app?vid=e05bc006-517a-41b9-8ee7-0b630de9bc03"},"vehicle_type_id":"4","last_reported":1748427160,"current_range_meters":2000,"station_id":"ce4bho92rcd13ifvqh3g","pricing_plan_id":"cebpf4jnsgd1na2vs0mg"},{"bike_id":"fdd3eb78-fc80-43aa-979d-6d5adf489529","system_id":"levelo_inurba_marseille","lat":43.28271,"lon":5.3506,"is_reserved":false,"is_disabled":false,"rental_uris":{"android":"levelo://app?vid=fdd3eb78-fc80-43aa-979d-6d5adf489529","ios":"levelo://app?vid=fdd3eb78-fc80-43aa-979d-6d5adf489529"},"vehicle_type_id":"4","last_reported":1748427160,"current_range_meters":2800,"station_id":"ce4bhbp2rcd13ifvqerg","pricing_plan_id":"cebpf4jnsgd1na2vs0mg"},{"bike_id":"1ee350fc-9435-4e23-8b29-514e49065a3a","system_id":"levelo_inurba_marseille","lat":43.30537,"lon":5.36554,"is_reserved":false,"is_disabled":false,"rental_uris":{"android":"levelo://app?vid=1ee350fc-9435-4e23-8b29-514e49065a3a","ios":"levelo://app?vid=1ee350fc-9435-4e23-8b29-514e49065a3a"},"vehicle_type_id":"4","last_reported":1748427160,"current_range_meters":2800,"station_id":"ce4bgs12rcd13ifvqcag","pricing_plan_id":"cebpf4jnsgd1na2vs0mg"},{"bike_id":"d98702f3-fbbf-45b6-876c-45ed45352768","system_id":"levelo_inurba_marseille","lat":43.27317,"lon":5.39077,"is_reserved":false,"is_disabled":false,"rental_uris":{"android":"levelo://app?vid=d98702f3-fbbf-45b6-876c-45ed45352768","ios":"levelo://app?vid=d98702f3-fbbf-45b6-876c-45ed45352768"},"vehicle_type_id":"4","last_reported":1748427160,"current_range_meters":3600,"station_id":"ce4bhgp2rcd13ifvqfe0","pricing_plan_id":"cebpf4jnsgd1na2vs0mg"},{"bike_id":"a6dda9d3-9e41-4132-bfca-41c7da65584f","system_id":"levelo_inurba_marseille","lat":43.30141,"lon":5.37405,"is_reserved":false,"is_disabled":false,"rental_uris":{"android":"levelo://app?vid=a6dda9d3-9e41-4132-bfca-41c7da65584f","ios":"levelo://app?vid=a6dda9d3-9e41-4132-bfca-41c7da65584f"},"vehicle_type_id":"4","last_reported":1748427160,"current_range_meters":4000,"station_id":"ce4bgs92rcd13ifvqcc0","pricing_plan_id":"cebpf4jnsgd1na2vs0mg"},{"bike_id":"a3b3b644-d0b6-4fcd-a49e-cdb4a764f887","system_id":"levelo_inurba_marseille","lat":43.231812,"lon":5.399823,"is_reserved":false,"is_disabled":false,"rental_uris":{"android":"levelo://app?vid=a3b3b644-d0b6-4fcd-a49e-cdb4a764f887","ios":"levelo://app?vid=a3b3b644-d0b6-4fcd-a49e-cdb4a764f887"},"vehicle_type_id":"4","last_reported":1748427160,"current_range_meters":4000,"station_id":"ce4bhn12rcd13ifvqgqg","pricing_plan_id":"cebpf4jnsgd1na2vs0mg"},{"bike_id":"bc025435-6e22-4530-9e01-4f08ead8d148","system_id":"levelo_inurba_marseille","lat":43.254969,"lon":5.37649,"is_reserved":false,"is_disabled":false,"rental_uris":{"android":"levelo://app?vid=bc025435-6e22-4530-9e01-4f08ead8d148","ios":"levelo://app?vid=bc025435-6e22-4530-9e01-4f08ead8d148"},"vehicle_type_id":"4","last_reported":1748427160,"current_range_meters":4000,"station_id":"","pricing_plan_id":"cebpf4jnsgd1na2vs0mg"},{"bike_id":"264caaf0-d1cf-4b62-9806-2e7f2f802de7","system_id":"levelo_inurba_marseille","lat":43.30139,"lon":5.38076,"is_reserved":false,"is_disabled":false,"rental_uris":{"android":"levelo://app?vid=264caaf0-d1cf-4b62-9806-2e7f2f802de7","ios":"levelo://app?vid=264caaf0-d1cf-4b62-9806-2e7f2f802de7"},"vehicle_type_id":"4","last_reported":1748427160,"current_range_meters":4400,"station_id":"ce4bgjp2rcd13ifvqbh0","pricing_plan_id":"cebpf4jnsgd1na2vs0mg"},{"bike_id":"ab47c1b8-cc17-4510-beb1-d30ebc20c098","system_id":"levelo_inurba_marseille","lat":43.30604,"lon":5.3723,"is_reserved":false,"is_disabled":false,"rental_uris":{"android":"levelo://app?vid=ab47c1b8-cc17-4510-beb1-d30ebc20c098","ios":"levelo://app?vid=ab47c1b8-cc17-4510-beb1-d30ebc20c098"},"vehicle_type_id":"4","last_reported":1748427160,"current_range_meters":4400,"station_id":"ce4bgqh2rcd13ifvqc4g","pricing_plan_id":"cebpf4jnsgd1na2vs0mg"},{"bike_id":"887d5295-a698-4c86-b372-df43ad3846df","system_id":"levelo_inurba_marseille","lat":43.29745,"lon":5.37666,"is_reserved":false,"is_disabled":false,"rental_uris":{"android":"levelo://app?vid=887d5295-a698-4c86-b372-df43ad3846df","ios":"levelo://app?vid=887d5295-a698-4c86-b372-df43ad3846df"},"vehicle_type_id":"4","last_reported":1748427160,"current_range_meters":4400,"station_id":"ce4bgkh2rcd13ifvqbl0","pricing_plan_id":"cebpf4jnsgd1na2vs0mg"},{"bike_id":"f4c45e95-54cf-46e5-83c5-d89c27c9a69c","system_id":"levelo_inurba_marseille","lat":43.27292,"lon":5.4158,"is_reserved":false,"is_disabled":false,"rental_uris":{"android":"levelo://app?vid=f4c45e95-54cf-46e5-83c5-d89c27c9a69c","ios":"levelo://app?vid=f4c45e95-54cf-46e5-83c5-d89c27c9a69c"},"vehicle_type_id":"4","last_reported":1748427160,"current_range_meters":4400,"station_id":"","pricing_plan_id":"cebpf4jnsgd1na2vs0mg"},{"bike_id":"29e6eaaf-c5e4-491e-be3f-3fe88304f36b","system_id":"levelo_inurba_marseille","lat":43.28426,"lon":5.34975,"is_reserved":false,"is_disabled":false,"rental_uris":{"android":"levelo://app?vid=29e6eaaf-c5e4-491e-be3f-3fe88304f36b","ios":"levelo://app?vid=29e6eaaf-c5e4-491e-be3f-3fe88304f36b"},"vehicle_type_id":"4","last_reported":1748427160,"current_range_meters":4400,"station_id":"ce4bhbh2rcd13ifvqepg","pricing_plan_id":"cebpf4jnsgd1na2vs0mg"},{"bike_id":"096174a7-0b81-4b84-b5da-b86a7e0d9a96","system_id":"levelo_inurba_marseille","lat":43.26504,"lon":5.39535,"is_reserved":false,"is_disabled":false,"rental_uris":{"android":"levelo://app?vid=096174a7-0b81-4b84-b5da-b86a7e0d9a96","ios":"levelo://app?vid=096174a7-0b81-4b84-b5da-b86a7e0d9a96"},"vehicle_type_id":"4","last_reported":1748427160,"current_range_meters":4000,"station_id":"ce4bhi12rcd13ifvqfq0","pricing_plan_id":"cebpf4jnsgd1na2vs0mg"},{"bike_id":"c826a468-c0a7-48ee-be2e-fae0d77db3ef","system_id":"levelo_inurba_marseille","lat":43.23161,"lon":5.43717,"is_reserved":false,"is_disabled":false,"rental_uris":{"android":"levelo://app?vid=c826a468-c0a7-48ee-be2e-fae0d77db3ef","ios":"levelo://app?vid=c826a468-c0a7-48ee-be2e-fae0d77db3ef"},"vehicle_type_id":"4","last_reported":1748427160,"current_range_meters":4800,"station_id":"ce4bhmp2rcd13ifvqgog","pricing_plan_id":"cebpf4jnsgd1na2vs0mg"},{"bike_id":"cb855ca7-9c9e-4599-895d-0aace864d6e7","system_id":"levelo_inurba_marseille","lat":43.23963,"lon":5.36628,"is_reserved":false,"is_disabled":false,"rental_uris":{"android":"levelo://app?vid=cb855ca7-9c9e-4599-895d-0aace864d6e7","ios":"levelo://app?vid=cb855ca7-9c9e-4599-895d-0aace864d6e7"},"vehicle_type_id":"4","last_reported":1748427160,"current_range_meters":5600,"station_id":"ce4bhi12rcd13ifvqfp0","pricing_plan_id":"cebpf4jnsgd1na2vs0mg"},{"bike_id":"69f81271-1db8-43e1-a66a-18726af90e65","system_id":"levelo_inurba_marseille","lat":43.26788,"lon":5.39409,"is_reserved":false,"is_disabled":false,"rental_uris":{"android":"levelo://app?vid=69f81271-1db8-43e1-a66a-18726af90e65","ios":"levelo://app?vid=69f81271-1db8-43e1-a66a-18726af90e65"},"vehicle_type_id":"4","last_reported":1748427160,"current_range_meters":4000,"station_id":"ce4bhh12rcd13ifvqfg0","pricing_plan_id":"cebpf4jnsgd1na2vs0mg"},{"bike_id":"9c5561ef-2517-4540-81bc-cd1ed451f820","system_id":"levelo_inurba_marseille","lat":43.266557,"lon":5.384331,"is_reserved":false,"is_disabled":false,"rental_uris":{"android":"levelo://app?vid=9c5561ef-2517-4540-81bc-cd1ed451f820","ios":"levelo://app?vid=9c5561ef-2517-4540-81bc-cd1ed451f820"},"vehicle_type_id":"4","last_reported":1748427160,"current_range_meters":6000,"station_id":"","pricing_plan_id":"cebpf4jnsgd1na2vs0mg"},{"bike_id":"0b436773-e69d-4142-805a-e0eb98de015d","system_id":"levelo_inurba_marseille","lat":43.26203,"lon":5.37927,"is_reserved":false,"is_disabled":false,"rental_uris":{"android":"levelo://app?vid=0b436773-e69d-4142-805a-e0eb98de015d","ios":"levelo://app?vid=0b436773-e69d-4142-805a-e0eb98de015d"},"vehicle_type_id":"4","last_reported":1748427160,"current_range_meters":6000,"station_id":"ce4bhjp2rcd13ifvqg90","pricing_plan_id":"cebpf4jnsgd1na2vs0mg"},{"bike_id":"3fe6ed2d-7fb1-4ba4-94c9-fa58c4b0335c","system_id":"levelo_inurba_marseille","lat":43.32277,"lon":5.37642,"is_reserved":false,"is_disabled":false,"rental_uris":{"android":"levelo://app?vid=3fe6ed2d-7fb1-4ba4-94c9-fa58c4b0335c","ios":"levelo://app?vid=3fe6ed2d-7fb1-4ba4-94c9-fa58c4b0335c"},"vehicle_type_id":"4","last_reported":1748427160,"current_range_meters":6000,"station_id":"","pricing_plan_id":"cebpf4jnsgd1na2vs0mg"},{"bike_id":"cee0c3e6-c1db-4752-bb13-2757b3e28c2a","system_id":"levelo_inurba_marseille","lat":43.30728,"lon":5.42445,"is_reserved":false,"is_disabled":false,"rental_uris":{"android":"levelo://app?vid=cee0c3e6-c1db-4752-bb13-2757b3e28c2a","ios":"levelo://app?vid=cee0c3e6-c1db-4752-bb13-2757b3e28c2a"},"vehicle_type_id":"4","last_reported":1748427160,"current_range_meters":6000,"station_id":"st_cvj6ca6bvosntc0bfgr0","pricing_plan_id":"cebpf4jnsgd1na2vs0mg"},{"bike_id":"5c12c83b-3c39-4a4a-882e-1219fce2dc8e","system_id":"levelo_inurba_marseille","lat":43.31699,"lon":5.40438,"is_reserved":false,"is_disabled":false,"rental_uris":{"android":"levelo://app?vid=5c12c83b-3c39-4a4a-882e-1219fce2dc8e","ios":"levelo://app?vid=5c12c83b-3c39-4a4a-882e-1219fce2dc8e"},"vehicle_type_id":"4","last_reported":1748427160,"current_range_meters":6400,"station_id":"ce4bh012rcd13ifvqd00","pricing_plan_id":"cebpf4jnsgd1na2vs0mg"},{"bike_id":"23facd23-494f-4437-a6a5-2ed7ea162fd1","system_id":"levelo_inurba_marseille","lat":43.29596,"lon":5.38115,"is_reserved":false,"is_disabled":false,"rental_uris":{"android":"levelo://app?vid=23facd23-494f-4437-a6a5-2ed7ea162fd1","ios":"levelo://app?vid=23facd23-494f-4437-a6a5-2ed7ea162fd1"},"vehicle_type_id":"4","last_reported":1748427160,"current_range_meters":6400,"station_id":"ce4bgl12rcd13ifvqbo0","pricing_plan_id":"cebpf4jnsgd1na2vs0mg"},{"bike_id":"7b305c6c-e570-4323-93fc-9126162d53d4","system_id":"levelo_inurba_marseille","lat":43.31695,"lon":5.37724,"is_reserved":false,"is_disabled":false,"rental_uris":{"android":"levelo://app?vid=7b305c6c-e570-4323-93fc-9126162d53d4","ios":"levelo://app?vid=7b305c6c-e570-4323-93fc-9126162d53d4"},"vehicle_type_id":"4","last_reported":1748427160,"current_range_meters":6800,"station_id":"ce4bgth2rcd13ifvqch0","pricing_plan_id":"cebpf4jnsgd1na2vs0mg"},{"bike_id":"dea7d9d6-c5d3-45af-a5a5-fc6f98230ba4","system_id":"levelo_inurba_marseille","lat":43.27378,"lon":5.36252,"is_reserved":false,"is_disabled":false,"rental_uris":{"android":"levelo://app?vid=dea7d9d6-c5d3-45af-a5a5-fc6f98230ba4","ios":"levelo://app?vid=dea7d9d6-c5d3-45af-a5a5-fc6f98230ba4"},"vehicle_type_id":"4","last_reported":1748427160,"current_range_meters":6800,"station_id":"ce4bhbh2rcd13ifvqeo0","pricing_plan_id":"cebpf4jnsgd1na2vs0mg"},{"bike_id":"5cd0facc-09ec-4dc2-9e68-93b13bfa8357","system_id":"levelo_inurba_marseille","lat":43.29231,"lon":5.36076,"is_reserved":false,"is_disabled":false,"rental_uris":{"android":"levelo://app?vid=5cd0facc-09ec-4dc2-9e68-93b13bfa8357","ios":"levelo://app?vid=5cd0facc-09ec-4dc2-9e68-93b13bfa8357"},"vehicle_type_id":"4","last_reported":1748427160,"current_range_meters":6800,"station_id":"ce4bhbh2rcd13ifvqeqg","pricing_plan_id":"cebpf4jnsgd1na2vs0mg"},{"bike_id":"48aa7ac3-49d5-4846-bbdf-873a2ffe6bd1","system_id":"levelo_inurba_marseille","lat":43.22922,"lon":5.35377,"is_reserved":false,"is_disabled":false,"rental_uris":{"android":"levelo://app?vid=48aa7ac3-49d5-4846-bbdf-873a2ffe6bd1","ios":"levelo://app?vid=48aa7ac3-49d5-4846-bbdf-873a2ffe6bd1"},"vehicle_type_id":"4","last_reported":1748427160,"current_range_meters":6800,"station_id":"cpo3532slgdg3j2ikp40","pricing_plan_id":"cebpf4jnsgd1na2vs0mg"},{"bike_id":"6c67cf09-0829-4811-8429-44a427420af8","system_id":"levelo_inurba_marseille","lat":43.23207,"lon":5.35536,"is_reserved":false,"is_disabled":false,"rental_uris":{"android":"levelo://app?vid=6c67cf09-0829-4811-8429-44a427420af8","ios":"levelo://app?vid=6c67cf09-0829-4811-8429-44a427420af8"},"vehicle_type_id":"4","last_reported":1748427160,"current_range_meters":6800,"station_id":"ce4bhu92rcd13ifvqi70","pricing_plan_id":"cebpf4jnsgd1na2vs0mg"},{"bike_id":"66db8b9d-3924-4098-9a43-1a4fa23b7f3b","system_id":"levelo_inurba_marseille","lat":43.27038,"lon":5.4028,"is_reserved":false,"is_disabled":false,"rental_uris":{"android":"levelo://app?vid=66db8b9d-3924-4098-9a43-1a4fa23b7f3b","ios":"levelo://app?vid=66db8b9d-3924-4098-9a43-1a4fa23b7f3b"},"vehicle_type_id":"4","last_reported":1748427160,"current_range_meters":6800,"station_id":"ce4bhk92rcd13ifvqgc0","pricing_plan_id":"cebpf4jnsgd1na2vs0mg"},{"bike_id":"373ed124-c9ca-4e6e-b00a-d53ad268bd15","system_id":"levelo_inurba_marseille","lat":43.269311,"lon":5.389201,"is_reserved":false,"is_disabled":false,"rental_uris":{"android":"levelo://app?vid=373ed124-c9ca-4e6e-b00a-d53ad268bd15","ios":"levelo://app?vid=373ed124-c9ca-4e6e-b00a-d53ad268bd15"},"vehicle_type_id":"4","last_reported":1748427160,"current_range_meters":7200,"station_id":"ce4bhhh2rcd13ifvqfl0","pricing_plan_id":"cebpf4jnsgd1na2vs0mg"},{"bike_id":"c519bbd2-44c5-422b-8920-0cb8aa38f9f8","system_id":"levelo_inurba_marseille","lat":43.29004,"lon":5.35611,"is_reserved":false,"is_disabled":false,"rental_uris":{"android":"levelo://app?vid=c519bbd2-44c5-422b-8920-0cb8aa38f9f8","ios":"levelo://app?vid=c519bbd2-44c5-422b-8920-0cb8aa38f9f8"},"vehicle_type_id":"4","last_reported":1748427160,"current_range_meters":7200,"station_id":"ce4bhb92rcd13ifvqen0","pricing_plan_id":"cebpf4jnsgd1na2vs0mg"},{"bike_id":"301bfd77-cc3a-456a-ae1f-4e811055f618","system_id":"levelo_inurba_marseille","lat":43.30952,"lon":5.39032,"is_reserved":false,"is_disabled":false,"rental_uris":{"android":"levelo://app?vid=301bfd77-cc3a-456a-ae1f-4e811055f618","ios":"levelo://app?vid=301bfd77-cc3a-456a-ae1f-4e811055f618"},"vehicle_type_id":"4","last_reported":1748427160,"current_range_meters":10800,"station_id":"ce4bgup2rcd13ifvqco0","pricing_plan_id":"cebpf4jnsgd1na2vs0mg"},{"bike_id":"8145cdf9-86b8-4e0f-b8ac-1d21a9f3db6d","system_id":"levelo_inurba_marseille","lat":43.30932,"lon":5.36825,"is_reserved":false,"is_disabled":false,"rental_uris":{"android":"levelo://app?vid=8145cdf9-86b8-4e0f-b8ac-1d21a9f3db6d","ios":"levelo://app?vid=8145cdf9-86b8-4e0f-b8ac-1d21a9f3db6d"},"vehicle_type_id":"4","last_reported":1748427160,"current_range_meters":8000,"station_id":"ce4bgn92rcd13ifvqbvg","pricing_plan_id":"cebpf4jnsgd1na2vs0mg"},{"bike_id":"1335255c-e672-47b0-b5bb-07a53b49a948","system_id":"levelo_inurba_marseille","lat":43.30951,"lon":5.39061,"is_reserved":false,"is_disabled":false,"rental_uris":{"android":"levelo://app?vid=1335255c-e672-47b0-b5bb-07a53b49a948","ios":"levelo://app?vid=1335255c-e672-47b0-b5bb-07a53b49a948"},"vehicle_type_id":"4","last_reported":1748427160,"current_range_meters":8000,"station_id":"ce4bgup2rcd13ifvqco0","pricing_plan_id":"cebpf4jnsgd1na2vs0mg"},{"bike_id":"a5f90b1e-a09e-40ad-8d54-7442721c8689","system_id":"levelo_inurba_marseille","lat":43.24604,"lon":5.39289,"is_reserved":false,"is_disabled":false,"rental_uris":{"android":"levelo://app?vid=a5f90b1e-a09e-40ad-8d54-7442721c8689","ios":"levelo://app?vid=a5f90b1e-a09e-40ad-8d54-7442721c8689"},"vehicle_type_id":"4","last_reported":1748427160,"current_range_meters":8000,"station_id":"","pricing_plan_id":"cebpf4jnsgd1na2vs0mg"},{"bike_id":"71624964-7fb7-4254-a259-ff9c5269297b","system_id":"levelo_inurba_marseille","lat":43.3302,"lon":5.39043,"is_reserved":false,"is_disabled":false,"rental_uris":{"android":"levelo://app?vid=71624964-7fb7-4254-a259-ff9c5269297b","ios":"levelo://app?vid=71624964-7fb7-4254-a259-ff9c5269297b"},"vehicle_type_id":"4","last_reported":1748427160,"current_range_meters":8000,"station_id":"ce4bhr92rcd13ifvqhrg","pricing_plan_id":"cebpf4jnsgd1na2vs0mg"},{"bike_id":"85477fb1-082f-4bc1-86aa-924c35b3143f","system_id":"levelo_inurba_marseille","lat":43.25862,"lon":5.39894,"is_reserved":false,"is_disabled":false,"rental_uris":{"android":"levelo://app?vid=85477fb1-082f-4bc1-86aa-924c35b3143f","ios":"levelo://app?vid=85477fb1-082f-4bc1-86aa-924c35b3143f"},"vehicle_type_id":"4","last_reported":1748427160,"current_range_meters":8000,"station_id":"ce4bhl92rcd13ifvqghg","pricing_plan_id":"cebpf4jnsgd1na2vs0mg"},{"bike_id":"340b6b28-6f90-412f-9197-2fc31f9afa51","system_id":"levelo_inurba_marseille","lat":43.239594,"lon":5.366273,"is_reserved":false,"is_disabled":false,"rental_uris":{"android":"levelo://app?vid=340b6b28-6f90-412f-9197-2fc31f9afa51","ios":"levelo://app?vid=340b6b28-6f90-412f-9197-2fc31f9afa51"},"vehicle_type_id":"4","last_reported":1748427160,"current_range_meters":8400,"station_id":"ce4bhi12rcd13ifvqfp0","pricing_plan_id":"cebpf4jnsgd1na2vs0mg"},{"bike_id":"87b395fb-0dfd-464d-b68d-3afc622e0d48","system_id":"levelo_inurba_marseille","lat":43.29567,"lon":5.39464,"is_reserved":false,"is_disabled":false,"rental_uris":{"android":"levelo://app?vid=87b395fb-0dfd-464d-b68d-3afc622e0d48","ios":"levelo://app?vid=87b395fb-0dfd-464d-b68d-3afc622e0d48"},"vehicle_type_id":"4","last_reported":1748427160,"current_range_meters":8400,"station_id":"","pricing_plan_id":"cebpf4jnsgd1na2vs0mg"},{"bike_id":"a5813f86-2e78-4252-b1bb-ec51de8e3614","system_id":"levelo_inurba_marseille","lat":43.30961,"lon":5.39039,"is_reserved":false,"is_disabled":false,"rental_uris":{"android":"levelo://app?vid=a5813f86-2e78-4252-b1bb-ec51de8e3614","ios":"levelo://app?vid=a5813f86-2e78-4252-b1bb-ec51de8e3614"},"vehicle_type_id":"4","last_reported":1748427160,"current_range_meters":8400,"station_id":"ce4bgup2rcd13ifvqco0","pricing_plan_id":"cebpf4jnsgd1na2vs0mg"},{"bike_id":"a30f0e65-ba7d-424c-bc91-6d97d276f3f5","system_id":"levelo_inurba_marseille","lat":43.23143,"lon":5.43711,"is_reserved":false,"is_disabled":false,"rental_uris":{"android":"levelo://app?vid=a30f0e65-ba7d-424c-bc91-6d97d276f3f5","ios":"levelo://app?vid=a30f0e65-ba7d-424c-bc91-6d97d276f3f5"},"vehicle_type_id":"4","last_reported":1748427160,"current_range_meters":8400,"station_id":"ce4bhmp2rcd13ifvqgog","pricing_plan_id":"cebpf4jnsgd1na2vs0mg"},{"bike_id":"22b2c611-db18-4aa4-b4d9-23fadd68a26c","system_id":"levelo_inurba_marseille","lat":43.313541,"lon":5.367061,"is_reserved":false,"is_disabled":false,"rental_uris":{"android":"levelo://app?vid=22b2c611-db18-4aa4-b4d9-23fadd68a26c","ios":"levelo://app?vid=22b2c611-db18-4aa4-b4d9-23fadd68a26c"},"vehicle_type_id":"4","last_reported":1748427160,"current_range_meters":8400,"station_id":"ce4bgr92rcd13ifvqc6g","pricing_plan_id":"cebpf4jnsgd1na2vs0mg"},{"bike_id":"1a9deaa6-5b0b-41ea-a3a0-9c49f0de8473","system_id":"levelo_inurba_marseille","lat":43.29327,"lon":5.41152,"is_reserved":false,"is_disabled":false,"rental_uris":{"android":"levelo://app?vid=1a9deaa6-5b0b-41ea-a3a0-9c49f0de8473","ios":"levelo://app?vid=1a9deaa6-5b0b-41ea-a3a0-9c49f0de8473"},"vehicle_type_id":"4","last_reported":1748427160,"current_range_meters":8400,"station_id":"","pricing_plan_id":"cebpf4jnsgd1na2vs0mg"},{"bike_id":"77e92efa-2f30-4d04-860c-bdbbef132ac5","system_id":"levelo_inurba_marseille","lat":43.3055,"lon":5.36707,"is_reserved":false,"is_disabled":false,"rental_uris":{"android":"levelo://app?vid=77e92efa-2f30-4d04-860c-bdbbef132ac5","ios":"levelo://app?vid=77e92efa-2f30-4d04-860c-bdbbef132ac5"},"vehicle_type_id":"4","last_reported":1748427160,"current_range_meters":8400,"station_id":"ce4bgrp2rcd13ifvqc9g","pricing_plan_id":"cebpf4jnsgd1na2vs0mg"},{"bike_id":"601692b3-c5c2-4a3b-9269-7eb3c873868f","system_id":"levelo_inurba_marseille","lat":43.2693,"lon":5.38922,"is_reserved":false,"is_disabled":true,"rental_uris":{"android":"levelo://app?vid=601692b3-c5c2-4a3b-9269-7eb3c873868f","ios":"levelo://app?vid=601692b3-c5c2-4a3b-9269-7eb3c873868f"},"vehicle_type_id":"4","last_reported":1748427160,"current_range_meters":8800,"station_id":"ce4bhhh2rcd13ifvqfl0","pricing_plan_id":"cebpf4jnsgd1na2vs0mg"},{"bike_id":"38303e76-870d-43ef-b2b6-5b703c7a2576","system_id":"levelo_inurba_marseille","lat":43.2736,"lon":5.36228,"is_reserved":false,"is_disabled":false,"rental_uris":{"android":"levelo://app?vid=38303e76-870d-43ef-b2b6-5b703c7a2576","ios":"levelo://app?vid=38303e76-870d-43ef-b2b6-5b703c7a2576"},"vehicle_type_id":"4","last_reported":1748427160,"current_range_meters":8800,"station_id":"ce4bhbh2rcd13ifvqeo0","pricing_plan_id":"cebpf4jnsgd1na2vs0mg"},{"bike_id":"a90874a9-5d91-4e97-8863-1decc68698f5","system_id":"levelo_inurba_marseille","lat":43.23181,"lon":5.399984,"is_reserved":false,"is_disabled":false,"rental_uris":{"android":"levelo://app?vid=a90874a9-5d91-4e97-8863-1decc68698f5","ios":"levelo://app?vid=a90874a9-5d91-4e97-8863-1decc68698f5"},"vehicle_type_id":"4","last_reported":1748427160,"current_range_meters":8800,"station_id":"ce4bhn12rcd13ifvqgqg","pricing_plan_id":"cebpf4jnsgd1na2vs0mg"},{"bike_id":"78e8af7f-0623-4657-a388-1c8a6ff12ede","system_id":"levelo_inurba_marseille","lat":43.27566,"lon":5.38431,"is_reserved":false,"is_disabled":false,"rental_uris":{"android":"levelo://app?vid=78e8af7f-0623-4657-a388-1c8a6ff12ede","ios":"levelo://app?vid=78e8af7f-0623-4657-a388-1c8a6ff12ede"},"vehicle_type_id":"4","last_reported":1748427160,"current_range_meters":9200,"station_id":"ce4bhh92rcd13ifvqfi0","pricing_plan_id":"cebpf4jnsgd1na2vs0mg"},{"bike_id":"fa363048-f4f7-4ebf-9596-0dbf2e59e510","system_id":"levelo_inurba_marseille","lat":43.26785,"lon":5.3942,"is_reserved":false,"is_disabled":false,"rental_uris":{"android":"levelo://app?vid=fa363048-f4f7-4ebf-9596-0dbf2e59e510","ios":"levelo://app?vid=fa363048-f4f7-4ebf-9596-0dbf2e59e510"},"vehicle_type_id":"4","last_reported":1748427160,"current_range_meters":9200,"station_id":"ce4bhh12rcd13ifvqfg0","pricing_plan_id":"cebpf4jnsgd1na2vs0mg"},{"bike_id":"28518bc8-8a8e-4184-8b3e-9f9dc5ac313f","system_id":"levelo_inurba_marseille","lat":43.279299,"lon":5.414847,"is_reserved":false,"is_disabled":false,"rental_uris":{"android":"levelo://app?vid=28518bc8-8a8e-4184-8b3e-9f9dc5ac313f","ios":"levelo://app?vid=28518bc8-8a8e-4184-8b3e-9f9dc5ac313f"},"vehicle_type_id":"4","last_reported":1748427160,"current_range_meters":9200,"station_id":"ce4bho12rcd13ifvqh1g","pricing_plan_id":"cebpf4jnsgd1na2vs0mg"},{"bike_id":"bebcf26e-ec80-409a-8a11-1d8d2f41fa8f","system_id":"levelo_inurba_marseille","lat":43.29708,"lon":5.3662,"is_reserved":false,"is_disabled":false,"rental_uris":{"android":"levelo://app?vid=bebcf26e-ec80-409a-8a11-1d8d2f41fa8f","ios":"levelo://app?vid=bebcf26e-ec80-409a-8a11-1d8d2f41fa8f"},"vehicle_type_id":"4","last_reported":1748427160,"current_range_meters":9200,"station_id":"ce4bgn12rcd13ifvqbt0","pricing_plan_id":"cebpf4jnsgd1na2vs0mg"},{"bike_id":"de82d006-a542-4cc5-9b8f-8ed2d19a481b","system_id":"levelo_inurba_marseille","lat":43.30144,"lon":5.37394,"is_reserved":false,"is_disabled":false,"rental_uris":{"android":"levelo://app?vid=de82d006-a542-4cc5-9b8f-8ed2d19a481b","ios":"levelo://app?vid=de82d006-a542-4cc5-9b8f-8ed2d19a481b"},"vehicle_type_id":"4","last_reported":1748427160,"current_range_meters":9200,"station_id":"ce4bgs92rcd13ifvqcc0","pricing_plan_id":"cebpf4jnsgd1na2vs0mg"},{"bike_id":"2efed59f-c9a2-4212-8bc9-d9c13ecc9c03","system_id":"levelo_inurba_marseille","lat":43.29847,"lon":5.36292,"is_reserved":false,"is_disabled":false,"rental_uris":{"android":"levelo://app?vid=2efed59f-c9a2-4212-8bc9-d9c13ecc9c03","ios":"levelo://app?vid=2efed59f-c9a2-4212-8bc9-d9c13ecc9c03"},"vehicle_type_id":"4","last_reported":1748427160,"current_range_meters":9600,"station_id":"ce4bgpp2rcd13ifvqc3g","pricing_plan_id":"cebpf4jnsgd1na2vs0mg"},{"bike_id":"e0867dea-f0b0-4b6c-b263-41ff705efb61","system_id":"levelo_inurba_marseille","lat":43.30311,"lon":5.36888,"is_reserved":false,"is_disabled":false,"rental_uris":{"android":"levelo://app?vid=e0867dea-f0b0-4b6c-b263-41ff705efb61","ios":"levelo://app?vid=e0867dea-f0b0-4b6c-b263-41ff705efb61"},"vehicle_type_id":"4","last_reported":1748427160,"current_range_meters":9600,"station_id":"ce4bgqh2rcd13ifvqc5g","pricing_plan_id":"cebpf4jnsgd1na2vs0mg"},{"bike_id":"04f22404-f0e4-400d-b598-aa9047b5cb18","system_id":"levelo_inurba_marseille","lat":43.25862,"lon":5.39902,"is_reserved":false,"is_disabled":false,"rental_uris":{"android":"levelo://app?vid=04f22404-f0e4-400d-b598-aa9047b5cb18","ios":"levelo://app?vid=04f22404-f0e4-400d-b598-aa9047b5cb18"},"vehicle_type_id":"4","last_reported":1748427160,"current_range_meters":9600,"station_id":"ce4bhl92rcd13ifvqghg","pricing_plan_id":"cebpf4jnsgd1na2vs0mg"},{"bike_id":"45be150f-a113-4a4b-b718-b0b4d0bfd488","system_id":"levelo_inurba_marseille","lat":43.30508,"lon":5.36526,"is_reserved":false,"is_disabled":false,"rental_uris":{"android":"levelo://app?vid=45be150f-a113-4a4b-b718-b0b4d0bfd488","ios":"levelo://app?vid=45be150f-a113-4a4b-b718-b0b4d0bfd488"},"vehicle_type_id":"4","last_reported":1748427160,"current_range_meters":9600,"station_id":"","pricing_plan_id":"cebpf4jnsgd1na2vs0mg"},{"bike_id":"272b82b8-54df-440a-b0df-3bcb4fa49b94","system_id":"levelo_inurba_marseille","lat":43.33582,"lon":5.41028,"is_reserved":false,"is_disabled":false,"rental_uris":{"android":"levelo://app?vid=272b82b8-54df-440a-b0df-3bcb4fa49b94","ios":"levelo://app?vid=272b82b8-54df-440a-b0df-3bcb4fa49b94"},"vehicle_type_id":"4","last_reported":1748427160,"current_range_meters":9600,"station_id":"ce4bhqh2rcd13ifvqhmg","pricing_plan_id":"cebpf4jnsgd1na2vs0mg"},{"bike_id":"a812792e-4b76-4025-a1d9-47593cdd5f2e","system_id":"levelo_inurba_marseille","lat":43.28614,"lon":5.35107,"is_reserved":false,"is_disabled":false,"rental_uris":{"android":"levelo://app?vid=a812792e-4b76-4025-a1d9-47593cdd5f2e","ios":"levelo://app?vid=a812792e-4b76-4025-a1d9-47593cdd5f2e"},"vehicle_type_id":"4","last_reported":1748427160,"current_range_meters":9600,"station_id":"ce4bhch2rcd13ifvqeug","pricing_plan_id":"cebpf4jnsgd1na2vs0mg"},{"bike_id":"3cad45d9-90b5-438b-b5b6-5b05ee49547c","system_id":"levelo_inurba_marseille","lat":43.251066,"lon":5.403225,"is_reserved":false,"is_disabled":false,"rental_uris":{"android":"levelo://app?vid=3cad45d9-90b5-438b-b5b6-5b05ee49547c","ios":"levelo://app?vid=3cad45d9-90b5-438b-b5b6-5b05ee49547c"},"vehicle_type_id":"4","last_reported":1748427160,"current_range_meters":9600,"station_id":"ce4bhlh2rcd13ifvqgig","pricing_plan_id":"cebpf4jnsgd1na2vs0mg"},{"bike_id":"c98963b4-c6fb-469c-bfaa-0a3d1e373178","system_id":"levelo_inurba_marseille","lat":43.24166,"lon":5.36393,"is_reserved":false,"is_disabled":false,"rental_uris":{"android":"levelo://app?vid=c98963b4-c6fb-469c-bfaa-0a3d1e373178","ios":"levelo://app?vid=c98963b4-c6fb-469c-bfaa-0a3d1e373178"},"vehicle_type_id":"4","last_reported":1748427160,"current_range_meters":9600,"station_id":"cpo36qri1sfpv3e86is0","pricing_plan_id":"cebpf4jnsgd1na2vs0mg"},{"bike_id":"dca40154-b3be-4cbb-a685-51b4936dfb3c","system_id":"levelo_inurba_marseille","lat":43.30478,"lon":5.37907,"is_reserved":false,"is_disabled":false,"rental_uris":{"android":"levelo://app?vid=dca40154-b3be-4cbb-a685-51b4936dfb3c","ios":"levelo://app?vid=dca40154-b3be-4cbb-a685-51b4936dfb3c"},"vehicle_type_id":"4","last_reported":1748427160,"current_range_meters":10000,"station_id":"ce4bgup2rcd13ifvqcn0","pricing_plan_id":"cebpf4jnsgd1na2vs0mg"},{"bike_id":"a9ef3812-b639-4426-83bb-437b458a5ace","system_id":"levelo_inurba_marseille","lat":43.31216,"lon":5.36892,"is_reserved":false,"is_disabled":false,"rental_uris":{"android":"levelo://app?vid=a9ef3812-b639-4426-83bb-437b458a5ace","ios":"levelo://app?vid=a9ef3812-b639-4426-83bb-437b458a5ace"},"vehicle_type_id":"4","last_reported":1748427160,"current_range_meters":10000,"station_id":"ce4bgl92rcd13ifvqbq0","pricing_plan_id":"cebpf4jnsgd1na2vs0mg"},{"bike_id":"9da07447-8eb8-47d7-b2d9-5355fba9e2a6","system_id":"levelo_inurba_marseille","lat":43.23141,"lon":5.43706,"is_reserved":false,"is_disabled":false,"rental_uris":{"android":"levelo://app?vid=9da07447-8eb8-47d7-b2d9-5355fba9e2a6","ios":"levelo://app?vid=9da07447-8eb8-47d7-b2d9-5355fba9e2a6"},"vehicle_type_id":"4","last_reported":1748427160,"current_range_meters":10000,"station_id":"ce4bhmp2rcd13ifvqgog","pricing_plan_id":"cebpf4jnsgd1na2vs0mg"},{"bike_id":"fcf11e6c-0e27-4e51-a890-c1e385240db5","system_id":"levelo_inurba_marseille","lat":43.29845,"lon":5.36271,"is_reserved":false,"is_disabled":false,"rental_uris":{"android":"levelo://app?vid=fcf11e6c-0e27-4e51-a890-c1e385240db5","ios":"levelo://app?vid=fcf11e6c-0e27-4e51-a890-c1e385240db5"},"vehicle_type_id":"4","last_reported":1748427160,"current_range_meters":10000,"station_id":"ce4bgpp2rcd13ifvqc3g","pricing_plan_id":"cebpf4jnsgd1na2vs0mg"},{"bike_id":"040bb757-d84d-4b26-bc31-0e384d9f531c","system_id":"levelo_inurba_marseille","lat":43.29577,"lon":5.36733,"is_reserved":false,"is_disabled":false,"rental_uris":{"android":"levelo://app?vid=040bb757-d84d-4b26-bc31-0e384d9f531c","ios":"levelo://app?vid=040bb757-d84d-4b26-bc31-0e384d9f531c"},"vehicle_type_id":"4","last_reported":1748427160,"current_range_meters":10000,"station_id":"ce4bgph2rcd13ifvqc2g","pricing_plan_id":"cebpf4jnsgd1na2vs0mg"},{"bike_id":"16578a9c-c460-4d38-be25-a20250881a73","system_id":"levelo_inurba_marseille","lat":43.32224,"lon":5.38417,"is_reserved":false,"is_disabled":false,"rental_uris":{"android":"levelo://app?vid=16578a9c-c460-4d38-be25-a20250881a73","ios":"levelo://app?vid=16578a9c-c460-4d38-be25-a20250881a73"},"vehicle_type_id":"4","last_reported":1748427160,"current_range_meters":10000,"station_id":"","pricing_plan_id":"cebpf4jnsgd1na2vs0mg"},{"bike_id":"d5bd81a0-40ce-4d74-b55f-d5c39c2f15c3","system_id":"levelo_inurba_marseille","lat":43.301532,"lon":5.38078,"is_reserved":false,"is_disabled":false,"rental_uris":{"android":"levelo://app?vid=d5bd81a0-40ce-4d74-b55f-d5c39c2f15c3","ios":"levelo://app?vid=d5bd81a0-40ce-4d74-b55f-d5c39c2f15c3"},"vehicle_type_id":"4","last_reported":1748427160,"current_range_meters":10000,"station_id":"ce4bgjp2rcd13ifvqbh0","pricing_plan_id":"cebpf4jnsgd1na2vs0mg"},{"bike_id":"42c66138-e273-43da-92e1-263165cb1171","system_id":"levelo_inurba_marseille","lat":43.29921,"lon":5.39728,"is_reserved":false,"is_disabled":false,"rental_uris":{"android":"levelo://app?vid=42c66138-e273-43da-92e1-263165cb1171","ios":"levelo://app?vid=42c66138-e273-43da-92e1-263165cb1171"},"vehicle_type_id":"4","last_reported":1748427160,"current_range_meters":10800,"station_id":"","pricing_plan_id":"cebpf4jnsgd1na2vs0mg"},{"bike_id":"4a98053e-d674-4057-9dfa-4e35b665012e","system_id":"levelo_inurba_marseille","lat":43.309633,"lon":5.390344,"is_reserved":false,"is_disabled":true,"rental_uris":{"android":"levelo://app?vid=4a98053e-d674-4057-9dfa-4e35b665012e","ios":"levelo://app?vid=4a98053e-d674-4057-9dfa-4e35b665012e"},"vehicle_type_id":"4","last_reported":1748427160,"current_range_meters":10800,"station_id":"ce4bgup2rcd13ifvqco0","pricing_plan_id":"cebpf4jnsgd1na2vs0mg"},{"bike_id":"925e29ac-ac8d-43d3-9b1e-8788a09d98c1","system_id":"levelo_inurba_marseille","lat":43.311956,"lon":5.401896,"is_reserved":false,"is_disabled":false,"rental_uris":{"android":"levelo://app?vid=925e29ac-ac8d-43d3-9b1e-8788a09d98c1","ios":"levelo://app?vid=925e29ac-ac8d-43d3-9b1e-8788a09d98c1"},"vehicle_type_id":"4","last_reported":1748427160,"current_range_meters":10800,"station_id":"","pricing_plan_id":"cebpf4jnsgd1na2vs0mg"},{"bike_id":"d2cb8ea4-971a-43d4-83bc-a83c7f8cabee","system_id":"levelo_inurba_marseille","lat":43.279976,"lon":5.400108,"is_reserved":false,"is_disabled":false,"rental_uris":{"android":"levelo://app?vid=d2cb8ea4-971a-43d4-83bc-a83c7f8cabee","ios":"levelo://app?vid=d2cb8ea4-971a-43d4-83bc-a83c7f8cabee"},"vehicle_type_id":"4","last_reported":1748427160,"current_range_meters":10000,"station_id":"","pricing_plan_id":"cebpf4jnsgd1na2vs0mg"},{"bike_id":"bff55ccd-8643-4ade-b379-0025793325ce","system_id":"levelo_inurba_marseille","lat":43.29713,"lon":5.37688,"is_reserved":false,"is_disabled":false,"rental_uris":{"android":"levelo://app?vid=bff55ccd-8643-4ade-b379-0025793325ce","ios":"levelo://app?vid=bff55ccd-8643-4ade-b379-0025793325ce"},"vehicle_type_id":"4","last_reported":1748427160,"current_range_meters":10800,"station_id":"ce4bgkh2rcd13ifvqbl0","pricing_plan_id":"cebpf4jnsgd1na2vs0mg"},{"bike_id":"c8fa656b-80cd-420d-a6d1-e1aefb7fe1df","system_id":"levelo_inurba_marseille","lat":43.23968,"lon":5.36631,"is_reserved":false,"is_disabled":false,"rental_uris":{"android":"levelo://app?vid=c8fa656b-80cd-420d-a6d1-e1aefb7fe1df","ios":"levelo://app?vid=c8fa656b-80cd-420d-a6d1-e1aefb7fe1df"},"vehicle_type_id":"4","last_reported":1748427160,"current_range_meters":10800,"station_id":"ce4bhi12rcd13ifvqfp0","pricing_plan_id":"cebpf4jnsgd1na2vs0mg"},{"bike_id":"295c8eac-b427-4ccf-9fc2-ba0f33f588cc","system_id":"levelo_inurba_marseille","lat":43.27054,"lon":5.40262,"is_reserved":false,"is_disabled":false,"rental_uris":{"android":"levelo://app?vid=295c8eac-b427-4ccf-9fc2-ba0f33f588cc","ios":"levelo://app?vid=295c8eac-b427-4ccf-9fc2-ba0f33f588cc"},"vehicle_type_id":"4","last_reported":1748427160,"current_range_meters":10800,"station_id":"ce4bhk92rcd13ifvqgc0","pricing_plan_id":"cebpf4jnsgd1na2vs0mg"},{"bike_id":"8eaa8731-cba0-4da0-8881-b5264822c964","system_id":"levelo_inurba_marseille","lat":43.30538,"lon":5.36546,"is_reserved":false,"is_disabled":false,"rental_uris":{"android":"levelo://app?vid=8eaa8731-cba0-4da0-8881-b5264822c964","ios":"levelo://app?vid=8eaa8731-cba0-4da0-8881-b5264822c964"},"vehicle_type_id":"4","last_reported":1748427160,"current_range_meters":10800,"station_id":"ce4bgs12rcd13ifvqcag","pricing_plan_id":"cebpf4jnsgd1na2vs0mg"},{"bike_id":"cc950315-b4b3-4bd7-9001-a9b540fe13bc","system_id":"levelo_inurba_marseille","lat":43.30199,"lon":5.366506,"is_reserved":false,"is_disabled":false,"rental_uris":{"android":"levelo://app?vid=cc950315-b4b3-4bd7-9001-a9b540fe13bc","ios":"levelo://app?vid=cc950315-b4b3-4bd7-9001-a9b540fe13bc"},"vehicle_type_id":"4","last_reported":1748427160,"current_range_meters":10800,"station_id":"ce4bgrh2rcd13ifvqc8g","pricing_plan_id":"cebpf4jnsgd1na2vs0mg"},{"bike_id":"071c8f48-56d0-4f89-921e-134b819ac9f0","system_id":"levelo_inurba_marseille","lat":43.312256,"lon":5.36854,"is_reserved":false,"is_disabled":false,"rental_uris":{"android":"levelo://app?vid=071c8f48-56d0-4f89-921e-134b819ac9f0","ios":"levelo://app?vid=071c8f48-56d0-4f89-921e-134b819ac9f0"},"vehicle_type_id":"4","last_reported":1748427160,"current_range_meters":10800,"station_id":"ce4bgl92rcd13ifvqbq0","pricing_plan_id":"cebpf4jnsgd1na2vs0mg"},{"bike_id":"685b1329-765b-4c8a-8091-07e46f3f321b","system_id":"levelo_inurba_marseille","lat":43.29923,"lon":5.37478,"is_reserved":false,"is_disabled":false,"rental_uris":{"android":"levelo://app?vid=685b1329-765b-4c8a-8091-07e46f3f321b","ios":"levelo://app?vid=685b1329-765b-4c8a-8091-07e46f3f321b"},"vehicle_type_id":"4","last_reported":1748427160,"current_range_meters":11200,"station_id":"ce4bgjh2rcd13ifvqbg0","pricing_plan_id":"cebpf4jnsgd1na2vs0mg"},{"bike_id":"cce972d4-d27d-4530-819d-7eaaf1a95f1f","system_id":"levelo_inurba_marseille","lat":43.29733,"lon":5.37656,"is_reserved":false,"is_disabled":false,"rental_uris":{"android":"levelo://app?vid=cce972d4-d27d-4530-819d-7eaaf1a95f1f","ios":"levelo://app?vid=cce972d4-d27d-4530-819d-7eaaf1a95f1f"},"vehicle_type_id":"4","last_reported":1748427160,"current_range_meters":11200,"station_id":"ce4bgkh2rcd13ifvqbl0","pricing_plan_id":"cebpf4jnsgd1na2vs0mg"},{"bike_id":"0ac406d2-f5d9-4504-a904-69b3572f43e1","system_id":"levelo_inurba_marseille","lat":43.23204,"lon":5.35559,"is_reserved":false,"is_disabled":false,"rental_uris":{"android":"levelo://app?vid=0ac406d2-f5d9-4504-a904-69b3572f43e1","ios":"levelo://app?vid=0ac406d2-f5d9-4504-a904-69b3572f43e1"},"vehicle_type_id":"4","last_reported":1748427160,"current_range_meters":11200,"station_id":"ce4bhu92rcd13ifvqi70","pricing_plan_id":"cebpf4jnsgd1na2vs0mg"},{"bike_id":"1e6e288c-e4d4-426d-9934-6c16dd4ed208","system_id":"levelo_inurba_marseille","lat":43.32126,"lon":5.3672,"is_reserved":false,"is_disabled":false,"rental_uris":{"android":"levelo://app?vid=1e6e288c-e4d4-426d-9934-6c16dd4ed208","ios":"levelo://app?vid=1e6e288c-e4d4-426d-9934-6c16dd4ed208"},"vehicle_type_id":"4","last_reported":1748427160,"current_range_meters":11200,"station_id":"","pricing_plan_id":"cebpf4jnsgd1na2vs0mg"},{"bike_id":"9b439ba4-9816-4677-bbe7-7139baf3462d","system_id":"levelo_inurba_marseille","lat":43.291972,"lon":5.357983,"is_reserved":false,"is_disabled":false,"rental_uris":{"android":"levelo://app?vid=9b439ba4-9816-4677-bbe7-7139baf3462d","ios":"levelo://app?vid=9b439ba4-9816-4677-bbe7-7139baf3462d"},"vehicle_type_id":"4","last_reported":1748427160,"current_range_meters":11200,"station_id":"","pricing_plan_id":"cebpf4jnsgd1na2vs0mg"},{"bike_id":"ae8f2ba3-c94e-498c-848b-a463ff674c62","system_id":"levelo_inurba_marseille","lat":43.30333,"lon":5.36895,"is_reserved":false,"is_disabled":false,"rental_uris":{"android":"levelo://app?vid=ae8f2ba3-c94e-498c-848b-a463ff674c62","ios":"levelo://app?vid=ae8f2ba3-c94e-498c-848b-a463ff674c62"},"vehicle_type_id":"4","last_reported":1748427160,"current_range_meters":11200,"station_id":"ce4bgqh2rcd13ifvqc5g","pricing_plan_id":"cebpf4jnsgd1na2vs0mg"},{"bike_id":"b6776944-1c4f-4d22-bfa7-028ba5cfb43a","system_id":"levelo_inurba_marseille","lat":43.27059,"lon":5.40245,"is_reserved":false,"is_disabled":false,"rental_uris":{"android":"levelo://app?vid=b6776944-1c4f-4d22-bfa7-028ba5cfb43a","ios":"levelo://app?vid=b6776944-1c4f-4d22-bfa7-028ba5cfb43a"},"vehicle_type_id":"4","last_reported":1748427160,"current_range_meters":11200,"station_id":"ce4bhk92rcd13ifvqgc0","pricing_plan_id":"cebpf4jnsgd1na2vs0mg"},{"bike_id":"08165cbb-6ace-41cd-a0e2-a8692b282c40","system_id":"levelo_inurba_marseille","lat":43.30559,"lon":5.36555,"is_reserved":false,"is_disabled":false,"rental_uris":{"android":"levelo://app?vid=08165cbb-6ace-41cd-a0e2-a8692b282c40","ios":"levelo://app?vid=08165cbb-6ace-41cd-a0e2-a8692b282c40"},"vehicle_type_id":"4","last_reported":1748427160,"current_range_meters":11200,"station_id":"ce4bgs12rcd13ifvqcag","pricing_plan_id":"cebpf4jnsgd1na2vs0mg"},{"bike_id":"a2c97d6a-6888-4b00-93c1-205dfcbde7b1","system_id":"levelo_inurba_marseille","lat":43.25935,"lon":5.40898,"is_reserved":false,"is_disabled":false,"rental_uris":{"android":"levelo://app?vid=a2c97d6a-6888-4b00-93c1-205dfcbde7b1","ios":"levelo://app?vid=a2c97d6a-6888-4b00-93c1-205dfcbde7b1"},"vehicle_type_id":"4","last_reported":1748427160,"current_range_meters":11600,"station_id":"ce4bhm92rcd13ifvqglg","pricing_plan_id":"cebpf4jnsgd1na2vs0mg"},{"bike_id":"98047655-8bf4-4e47-b6d1-71d00b9b5e6d","system_id":"levelo_inurba_marseille","lat":43.231477,"lon":5.437235,"is_reserved":false,"is_disabled":false,"rental_uris":{"android":"levelo://app?vid=98047655-8bf4-4e47-b6d1-71d00b9b5e6d","ios":"levelo://app?vid=98047655-8bf4-4e47-b6d1-71d00b9b5e6d"},"vehicle_type_id":"4","last_reported":1748427160,"current_range_meters":11600,"station_id":"ce4bhmp2rcd13ifvqgog","pricing_plan_id":"cebpf4jnsgd1na2vs0mg"},{"bike_id":"9202969b-2a6a-40e6-884d-ac4758895bb9","system_id":"levelo_inurba_marseille","lat":43.25109,"lon":5.40325,"is_reserved":false,"is_disabled":false,"rental_uris":{"android":"levelo://app?vid=9202969b-2a6a-40e6-884d-ac4758895bb9","ios":"levelo://app?vid=9202969b-2a6a-40e6-884d-ac4758895bb9"},"vehicle_type_id":"4","last_reported":1748427160,"current_range_meters":12000,"station_id":"ce4bhlh2rcd13ifvqgig","pricing_plan_id":"cebpf4jnsgd1na2vs0mg"},{"bike_id":"28f4d848-2fa3-40c0-b1a6-6d55ae057dbc","system_id":"levelo_inurba_marseille","lat":43.31369,"lon":5.36694,"is_reserved":false,"is_disabled":false,"rental_uris":{"android":"levelo://app?vid=28f4d848-2fa3-40c0-b1a6-6d55ae057dbc","ios":"levelo://app?vid=28f4d848-2fa3-40c0-b1a6-6d55ae057dbc"},"vehicle_type_id":"4","last_reported":1748427160,"current_range_meters":12000,"station_id":"ce4bgr92rcd13ifvqc6g","pricing_plan_id":"cebpf4jnsgd1na2vs0mg"},{"bike_id":"fdfa7863-9967-4d31-ae32-f03efdd733b9","system_id":"levelo_inurba_marseille","lat":43.3302,"lon":5.3905,"is_reserved":false,"is_disabled":false,"rental_uris":{"android":"levelo://app?vid=fdfa7863-9967-4d31-ae32-f03efdd733b9","ios":"levelo://app?vid=fdfa7863-9967-4d31-ae32-f03efdd733b9"},"vehicle_type_id":"4","last_reported":1748427160,"current_range_meters":12000,"station_id":"ce4bhr92rcd13ifvqhrg","pricing_plan_id":"cebpf4jnsgd1na2vs0mg"},{"bike_id":"c84f8025-f392-4efb-8662-faa8b7ebbd21","system_id":"levelo_inurba_marseille","lat":43.295066,"lon":5.374448,"is_reserved":false,"is_disabled":false,"rental_uris":{"android":"levelo://app?vid=c84f8025-f392-4efb-8662-faa8b7ebbd21","ios":"levelo://app?vid=c84f8025-f392-4efb-8662-faa8b7ebbd21"},"vehicle_type_id":"4","last_reported":1748427160,"current_range_meters":12400,"station_id":"ce4bgh92rcd13ifvqb50","pricing_plan_id":"cebpf4jnsgd1na2vs0mg"},{"bike_id":"4859ddd6-0d45-4f35-b02f-a224d102e16e","system_id":"levelo_inurba_marseille","lat":43.31361,"lon":5.36722,"is_reserved":false,"is_disabled":false,"rental_uris":{"android":"levelo://app?vid=4859ddd6-0d45-4f35-b02f-a224d102e16e","ios":"levelo://app?vid=4859ddd6-0d45-4f35-b02f-a224d102e16e"},"vehicle_type_id":"4","last_reported":1748427160,"current_range_meters":12400,"station_id":"ce4bgr92rcd13ifvqc6g","pricing_plan_id":"cebpf4jnsgd1na2vs0mg"},{"bike_id":"bc14d841-bad2-4b71-968c-cfdf3fbb404b","system_id":"levelo_inurba_marseille","lat":43.25723,"lon":5.41104,"is_reserved":false,"is_disabled":false,"rental_uris":{"android":"levelo://app?vid=bc14d841-bad2-4b71-968c-cfdf3fbb404b","ios":"levelo://app?vid=bc14d841-bad2-4b71-968c-cfdf3fbb404b"},"vehicle_type_id":"4","last_reported":1748427160,"current_range_meters":12000,"station_id":"ce4bhkp2rcd13ifvqgd0","pricing_plan_id":"cebpf4jnsgd1na2vs0mg"},{"bike_id":"f0621d65-9b5e-459c-bef0-a331e1b0f487","system_id":"levelo_inurba_marseille","lat":43.30948,"lon":5.39009,"is_reserved":false,"is_disabled":true,"rental_uris":{"android":"levelo://app?vid=f0621d65-9b5e-459c-bef0-a331e1b0f487","ios":"levelo://app?vid=f0621d65-9b5e-459c-bef0-a331e1b0f487"},"vehicle_type_id":"4","last_reported":1748427160,"current_range_meters":12400,"station_id":"ce4bgup2rcd13ifvqco0","pricing_plan_id":"cebpf4jnsgd1na2vs0mg"},{"bike_id":"ec5b5986-9e90-4d83-9fcd-d33ae0f0c466","system_id":"levelo_inurba_marseille","lat":43.27069,"lon":5.42277,"is_reserved":false,"is_disabled":false,"rental_uris":{"android":"levelo://app?vid=ec5b5986-9e90-4d83-9fcd-d33ae0f0c466","ios":"levelo://app?vid=ec5b5986-9e90-4d83-9fcd-d33ae0f0c466"},"vehicle_type_id":"4","last_reported":1748427160,"current_range_meters":12400,"station_id":"ce4bhk92rcd13ifvqgb0","pricing_plan_id":"cebpf4jnsgd1na2vs0mg"},{"bike_id":"ebef2745-3f7a-440a-9681-2c2034f2e1ea","system_id":"levelo_inurba_marseille","lat":43.30133,"lon":5.37421,"is_reserved":false,"is_disabled":false,"rental_uris":{"android":"levelo://app?vid=ebef2745-3f7a-440a-9681-2c2034f2e1ea","ios":"levelo://app?vid=ebef2745-3f7a-440a-9681-2c2034f2e1ea"},"vehicle_type_id":"4","last_reported":1748427160,"current_range_meters":12400,"station_id":"ce4bgs92rcd13ifvqcc0","pricing_plan_id":"cebpf4jnsgd1na2vs0mg"},{"bike_id":"55012dee-979f-4dcc-a53b-b942325d66f2","system_id":"levelo_inurba_marseille","lat":43.28264,"lon":5.35069,"is_reserved":false,"is_disabled":false,"rental_uris":{"android":"levelo://app?vid=55012dee-979f-4dcc-a53b-b942325d66f2","ios":"levelo://app?vid=55012dee-979f-4dcc-a53b-b942325d66f2"},"vehicle_type_id":"4","last_reported":1748427160,"current_range_meters":12800,"station_id":"ce4bhbp2rcd13ifvqerg","pricing_plan_id":"cebpf4jnsgd1na2vs0mg"},{"bike_id":"11021af9-33b0-47ee-a547-cd2cdc405099","system_id":"levelo_inurba_marseille","lat":43.24392,"lon":5.37058,"is_reserved":false,"is_disabled":false,"rental_uris":{"android":"levelo://app?vid=11021af9-33b0-47ee-a547-cd2cdc405099","ios":"levelo://app?vid=11021af9-33b0-47ee-a547-cd2cdc405099"},"vehicle_type_id":"4","last_reported":1748427160,"current_range_meters":12400,"station_id":"ce4bhhh2rcd13ifvqfk0","pricing_plan_id":"cebpf4jnsgd1na2vs0mg"},{"bike_id":"097f970b-375f-4b74-9427-a05a73ffd790","system_id":"levelo_inurba_marseille","lat":43.3235,"lon":5.36741,"is_reserved":false,"is_disabled":false,"rental_uris":{"android":"levelo://app?vid=097f970b-375f-4b74-9427-a05a73ffd790","ios":"levelo://app?vid=097f970b-375f-4b74-9427-a05a73ffd790"},"vehicle_type_id":"4","last_reported":1748427160,"current_range_meters":12800,"station_id":"ce4bhsh2rcd13ifvqi2g","pricing_plan_id":"cebpf4jnsgd1na2vs0mg"},{"bike_id":"f7331bf1-883a-4214-a566-411d18681a6f","system_id":"levelo_inurba_marseille","lat":43.26027,"lon":5.37548,"is_reserved":false,"is_disabled":false,"rental_uris":{"android":"levelo://app?vid=f7331bf1-883a-4214-a566-411d18681a6f","ios":"levelo://app?vid=f7331bf1-883a-4214-a566-411d18681a6f"},"vehicle_type_id":"4","last_reported":1748427160,"current_range_meters":12800,"station_id":"ce4bhgh2rcd13ifvqfa0","pricing_plan_id":"cebpf4jnsgd1na2vs0mg"},{"bike_id":"ca0fb632-1b0c-4618-bde8-7d8176a8f689","system_id":"levelo_inurba_marseille","lat":43.27378,"lon":5.36253,"is_reserved":false,"is_disabled":false,"rental_uris":{"android":"levelo://app?vid=ca0fb632-1b0c-4618-bde8-7d8176a8f689","ios":"levelo://app?vid=ca0fb632-1b0c-4618-bde8-7d8176a8f689"},"vehicle_type_id":"4","last_reported":1748427160,"current_range_meters":12800,"station_id":"ce4bhbh2rcd13ifvqeo0","pricing_plan_id":"cebpf4jnsgd1na2vs0mg"},{"bike_id":"dc12dc2a-0afe-4b10-8f24-895b5c694eb8","system_id":"levelo_inurba_marseille","lat":43.29233,"lon":5.36052,"is_reserved":false,"is_disabled":false,"rental_uris":{"android":"levelo://app?vid=dc12dc2a-0afe-4b10-8f24-895b5c694eb8","ios":"levelo://app?vid=dc12dc2a-0afe-4b10-8f24-895b5c694eb8"},"vehicle_type_id":"4","last_reported":1748427160,"current_range_meters":12800,"station_id":"ce4bhbh2rcd13ifvqeqg","pricing_plan_id":"cebpf4jnsgd1na2vs0mg"},{"bike_id":"1ddb77e7-837f-4528-b809-a0be7a7f1fc5","system_id":"levelo_inurba_marseille","lat":43.30531,"lon":5.38427,"is_reserved":false,"is_disabled":false,"rental_uris":{"android":"levelo://app?vid=1ddb77e7-837f-4528-b809-a0be7a7f1fc5","ios":"levelo://app?vid=1ddb77e7-837f-4528-b809-a0be7a7f1fc5"},"vehicle_type_id":"4","last_reported":1748427160,"current_range_meters":14000,"station_id":"ce4bgg92rcd13ifvqb30","pricing_plan_id":"cebpf4jnsgd1na2vs0mg"},{"bike_id":"948f1fd1-2ee5-4d13-9f4c-633ff2972d08","system_id":"levelo_inurba_marseille","lat":43.24168,"lon":5.36392,"is_reserved":false,"is_disabled":false,"rental_uris":{"android":"levelo://app?vid=948f1fd1-2ee5-4d13-9f4c-633ff2972d08","ios":"levelo://app?vid=948f1fd1-2ee5-4d13-9f4c-633ff2972d08"},"vehicle_type_id":"4","last_reported":1748427160,"current_range_meters":13600,"station_id":"cpo36qri1sfpv3e86is0","pricing_plan_id":"cebpf4jnsgd1na2vs0mg"},{"bike_id":"8c789ce8-f495-48a3-88e3-69dda1ef46ab","system_id":"levelo_inurba_marseille","lat":43.26955,"lon":5.38629,"is_reserved":false,"is_disabled":false,"rental_uris":{"android":"levelo://app?vid=8c789ce8-f495-48a3-88e3-69dda1ef46ab","ios":"levelo://app?vid=8c789ce8-f495-48a3-88e3-69dda1ef46ab"},"vehicle_type_id":"4","last_reported":1748427160,"current_range_meters":12800,"station_id":"ce4bhh92rcd13ifvqfh0","pricing_plan_id":"cebpf4jnsgd1na2vs0mg"},{"bike_id":"135abd13-e144-4f96-b589-15832b6a65b9","system_id":"levelo_inurba_marseille","lat":43.30099,"lon":5.37437,"is_reserved":false,"is_disabled":false,"rental_uris":{"android":"levelo://app?vid=135abd13-e144-4f96-b589-15832b6a65b9","ios":"levelo://app?vid=135abd13-e144-4f96-b589-15832b6a65b9"},"vehicle_type_id":"4","last_reported":1748427160,"current_range_meters":13600,"station_id":"","pricing_plan_id":"cebpf4jnsgd1na2vs0mg"},{"bike_id":"d49302de-3843-45f9-a5dd-8b7687c62571","system_id":"levelo_inurba_marseille","lat":43.30203,"lon":5.36597,"is_reserved":false,"is_disabled":false,"rental_uris":{"android":"levelo://app?vid=d49302de-3843-45f9-a5dd-8b7687c62571","ios":"levelo://app?vid=d49302de-3843-45f9-a5dd-8b7687c62571"},"vehicle_type_id":"4","last_reported":1748427160,"current_range_meters":14000,"station_id":"ce4bgrh2rcd13ifvqc8g","pricing_plan_id":"cebpf4jnsgd1na2vs0mg"},{"bike_id":"6b700ef6-858d-43d2-a8db-e48f2b8f1682","system_id":"levelo_inurba_marseille","lat":43.29272,"lon":5.40132,"is_reserved":false,"is_disabled":true,"rental_uris":{"android":"levelo://app?vid=6b700ef6-858d-43d2-a8db-e48f2b8f1682","ios":"levelo://app?vid=6b700ef6-858d-43d2-a8db-e48f2b8f1682"},"vehicle_type_id":"4","last_reported":1748427160,"current_range_meters":14000,"station_id":"ce4bh312rcd13ifvqdk0","pricing_plan_id":"cebpf4jnsgd1na2vs0mg"},{"bike_id":"86f11208-7f90-4009-a976-cc81e2c7825f","system_id":"levelo_inurba_marseille","lat":43.24167,"lon":5.363992,"is_reserved":false,"is_disabled":true,"rental_uris":{"android":"levelo://app?vid=86f11208-7f90-4009-a976-cc81e2c7825f","ios":"levelo://app?vid=86f11208-7f90-4009-a976-cc81e2c7825f"},"vehicle_type_id":"4","last_reported":1748427160,"current_range_meters":14000,"station_id":"cpo36qri1sfpv3e86is0","pricing_plan_id":"cebpf4jnsgd1na2vs0mg"},{"bike_id":"17507746-9194-4b06-bc0d-a6f8dd56546b","system_id":"levelo_inurba_marseille","lat":43.2971,"lon":5.3769,"is_reserved":false,"is_disabled":false,"rental_uris":{"android":"levelo://app?vid=17507746-9194-4b06-bc0d-a6f8dd56546b","ios":"levelo://app?vid=17507746-9194-4b06-bc0d-a6f8dd56546b"},"vehicle_type_id":"4","last_reported":1748427160,"current_range_meters":14000,"station_id":"ce4bgkh2rcd13ifvqbl0","pricing_plan_id":"cebpf4jnsgd1na2vs0mg"},{"bike_id":"74da23b8-bced-4c58-81bd-2f9ce15bea07","system_id":"levelo_inurba_marseille","lat":43.2252,"lon":5.34759,"is_reserved":false,"is_disabled":false,"rental_uris":{"android":"levelo://app?vid=74da23b8-bced-4c58-81bd-2f9ce15bea07","ios":"levelo://app?vid=74da23b8-bced-4c58-81bd-2f9ce15bea07"},"vehicle_type_id":"4","last_reported":1748427160,"current_range_meters":14000,"station_id":"","pricing_plan_id":"cebpf4jnsgd1na2vs0mg"},{"bike_id":"b78e6c35-8852-4521-8bc6-ec905346aa88","system_id":"levelo_inurba_marseille","lat":43.26222,"lon":5.40468,"is_reserved":false,"is_disabled":false,"rental_uris":{"android":"levelo://app?vid=b78e6c35-8852-4521-8bc6-ec905346aa88","ios":"levelo://app?vid=b78e6c35-8852-4521-8bc6-ec905346aa88"},"vehicle_type_id":"4","last_reported":1748427160,"current_range_meters":14000,"station_id":"ce4bhmh2rcd13ifvqgmg","pricing_plan_id":"cebpf4jnsgd1na2vs0mg"},{"bike_id":"03fc9574-6903-41e6-8313-a540ac82c832","system_id":"levelo_inurba_marseille","lat":43.25109,"lon":5.4032,"is_reserved":false,"is_disabled":false,"rental_uris":{"android":"levelo://app?vid=03fc9574-6903-41e6-8313-a540ac82c832","ios":"levelo://app?vid=03fc9574-6903-41e6-8313-a540ac82c832"},"vehicle_type_id":"4","last_reported":1748427160,"current_range_meters":14000,"station_id":"ce4bhlh2rcd13ifvqgig","pricing_plan_id":"cebpf4jnsgd1na2vs0mg"},{"bike_id":"244ce130-80b5-4207-9ef7-8d54b297a541","system_id":"levelo_inurba_marseille","lat":43.315344,"lon":5.386576,"is_reserved":false,"is_disabled":false,"rental_uris":{"android":"levelo://app?vid=244ce130-80b5-4207-9ef7-8d54b297a541","ios":"levelo://app?vid=244ce130-80b5-4207-9ef7-8d54b297a541"},"vehicle_type_id":"4","last_reported":1748427160,"current_range_meters":14000,"station_id":"","pricing_plan_id":"cebpf4jnsgd1na2vs0mg"},{"bike_id":"6a101bb6-707d-4017-bc73-567def88749d","system_id":"levelo_inurba_marseille","lat":43.27071,"lon":5.42279,"is_reserved":false,"is_disabled":false,"rental_uris":{"android":"levelo://app?vid=6a101bb6-707d-4017-bc73-567def88749d","ios":"levelo://app?vid=6a101bb6-707d-4017-bc73-567def88749d"},"vehicle_type_id":"4","last_reported":1748427160,"current_range_meters":14400,"station_id":"ce4bhk92rcd13ifvqgb0","pricing_plan_id":"cebpf4jnsgd1na2vs0mg"},{"bike_id":"f28bd174-5dff-4a43-b8aa-c6ddb148d9e0","system_id":"levelo_inurba_marseille","lat":43.28415,"lon":5.34978,"is_reserved":false,"is_disabled":false,"rental_uris":{"android":"levelo://app?vid=f28bd174-5dff-4a43-b8aa-c6ddb148d9e0","ios":"levelo://app?vid=f28bd174-5dff-4a43-b8aa-c6ddb148d9e0"},"vehicle_type_id":"4","last_reported":1748427160,"current_range_meters":14400,"station_id":"ce4bhbh2rcd13ifvqepg","pricing_plan_id":"cebpf4jnsgd1na2vs0mg"},{"bike_id":"6197b090-2c79-4724-af3d-0c9dd855ba3e","system_id":"levelo_inurba_marseille","lat":43.25917,"lon":5.40909,"is_reserved":false,"is_disabled":false,"rental_uris":{"android":"levelo://app?vid=6197b090-2c79-4724-af3d-0c9dd855ba3e","ios":"levelo://app?vid=6197b090-2c79-4724-af3d-0c9dd855ba3e"},"vehicle_type_id":"4","last_reported":1748427160,"current_range_meters":14400,"station_id":"ce4bhm92rcd13ifvqglg","pricing_plan_id":"cebpf4jnsgd1na2vs0mg"},{"bike_id":"145d5d45-1836-428a-b8c5-d09c730df21a","system_id":"levelo_inurba_marseille","lat":43.25112,"lon":5.4032,"is_reserved":false,"is_disabled":false,"rental_uris":{"android":"levelo://app?vid=145d5d45-1836-428a-b8c5-d09c730df21a","ios":"levelo://app?vid=145d5d45-1836-428a-b8c5-d09c730df21a"},"vehicle_type_id":"4","last_reported":1748427160,"current_range_meters":14400,"station_id":"ce4bhlh2rcd13ifvqgig","pricing_plan_id":"cebpf4jnsgd1na2vs0mg"},{"bike_id":"24a11296-1d4b-4907-9e88-5097c4e57fe4","system_id":"levelo_inurba_marseille","lat":43.28277,"lon":5.35077,"is_reserved":false,"is_disabled":false,"rental_uris":{"android":"levelo://app?vid=24a11296-1d4b-4907-9e88-5097c4e57fe4","ios":"levelo://app?vid=24a11296-1d4b-4907-9e88-5097c4e57fe4"},"vehicle_type_id":"4","last_reported":1748427160,"current_range_meters":14400,"station_id":"ce4bhbp2rcd13ifvqerg","pricing_plan_id":"cebpf4jnsgd1na2vs0mg"},{"bike_id":"adb725c1-9c48-4e78-b48d-dc140714f3be","system_id":"levelo_inurba_marseille","lat":43.239663,"lon":5.366313,"is_reserved":false,"is_disabled":false,"rental_uris":{"android":"levelo://app?vid=adb725c1-9c48-4e78-b48d-dc140714f3be","ios":"levelo://app?vid=adb725c1-9c48-4e78-b48d-dc140714f3be"},"vehicle_type_id":"4","last_reported":1748427160,"current_range_meters":18000,"station_id":"ce4bhi12rcd13ifvqfp0","pricing_plan_id":"cebpf4jnsgd1na2vs0mg"},{"bike_id":"2ed3c292-1213-491c-b0fc-71304a59fa3a","system_id":"levelo_inurba_marseille","lat":43.31102,"lon":5.377607,"is_reserved":false,"is_disabled":true,"rental_uris":{"android":"levelo://app?vid=2ed3c292-1213-491c-b0fc-71304a59fa3a","ios":"levelo://app?vid=2ed3c292-1213-491c-b0fc-71304a59fa3a"},"vehicle_type_id":"4","last_reported":1748427160,"current_range_meters":14400,"station_id":"ce4bgih2rcd13ifvqba0","pricing_plan_id":"cebpf4jnsgd1na2vs0mg"},{"bike_id":"03ed65a4-c877-4e66-a7ce-38be7b9fc722","system_id":"levelo_inurba_marseille","lat":43.30214,"lon":5.39464,"is_reserved":false,"is_disabled":false,"rental_uris":{"android":"levelo://app?vid=03ed65a4-c877-4e66-a7ce-38be7b9fc722","ios":"levelo://app?vid=03ed65a4-c877-4e66-a7ce-38be7b9fc722"},"vehicle_type_id":"4","last_reported":1748427160,"current_range_meters":16000,"station_id":"ce4bh0p2rcd13ifvqd70","pricing_plan_id":"cebpf4jnsgd1na2vs0mg"},{"bike_id":"7e21b4c5-84e6-49b9-999a-4fa6883be7c5","system_id":"levelo_inurba_marseille","lat":43.28413,"lon":5.34972,"is_reserved":false,"is_disabled":false,"rental_uris":{"android":"levelo://app?vid=7e21b4c5-84e6-49b9-999a-4fa6883be7c5","ios":"levelo://app?vid=7e21b4c5-84e6-49b9-999a-4fa6883be7c5"},"vehicle_type_id":"4","last_reported":1748427160,"current_range_meters":14800,"station_id":"ce4bhbh2rcd13ifvqepg","pricing_plan_id":"cebpf4jnsgd1na2vs0mg"},{"bike_id":"a7b28dad-b0e3-4373-84c9-ca1db05de1f6","system_id":"levelo_inurba_marseille","lat":43.29981,"lon":5.384,"is_reserved":false,"is_disabled":false,"rental_uris":{"android":"levelo://app?vid=a7b28dad-b0e3-4373-84c9-ca1db05de1f6","ios":"levelo://app?vid=a7b28dad-b0e3-4373-84c9-ca1db05de1f6"},"vehicle_type_id":"4","last_reported":1748427160,"current_range_meters":14800,"station_id":"","pricing_plan_id":"cebpf4jnsgd1na2vs0mg"},{"bike_id":"ebfb6178-ea1a-4836-842c-c45fd50fbfb0","system_id":"levelo_inurba_marseille","lat":43.273121,"lon":5.39078,"is_reserved":false,"is_disabled":false,"rental_uris":{"android":"levelo://app?vid=ebfb6178-ea1a-4836-842c-c45fd50fbfb0","ios":"levelo://app?vid=ebfb6178-ea1a-4836-842c-c45fd50fbfb0"},"vehicle_type_id":"4","last_reported":1748427160,"current_range_meters":14800,"station_id":"ce4bhgp2rcd13ifvqfe0","pricing_plan_id":"cebpf4jnsgd1na2vs0mg"},{"bike_id":"48631712-c372-4924-b516-0ff6d4bb66ae","system_id":"levelo_inurba_marseille","lat":43.29746,"lon":5.38381,"is_reserved":false,"is_disabled":false,"rental_uris":{"android":"levelo://app?vid=48631712-c372-4924-b516-0ff6d4bb66ae","ios":"levelo://app?vid=48631712-c372-4924-b516-0ff6d4bb66ae"},"vehicle_type_id":"4","last_reported":1748427160,"current_range_meters":14800,"station_id":"","pricing_plan_id":"cebpf4jnsgd1na2vs0mg"},{"bike_id":"16358778-9c20-4d43-9f79-f22659df4b1a","system_id":"levelo_inurba_marseille","lat":43.273785,"lon":5.362588,"is_reserved":false,"is_disabled":false,"rental_uris":{"android":"levelo://app?vid=16358778-9c20-4d43-9f79-f22659df4b1a","ios":"levelo://app?vid=16358778-9c20-4d43-9f79-f22659df4b1a"},"vehicle_type_id":"4","last_reported":1748427160,"current_range_meters":14800,"station_id":"ce4bhbh2rcd13ifvqeo0","pricing_plan_id":"cebpf4jnsgd1na2vs0mg"},{"bike_id":"ed26471f-a1ad-4374-a6db-e9f3e51e3e47","system_id":"levelo_inurba_marseille","lat":43.24178,"lon":5.39729,"is_reserved":false,"is_disabled":false,"rental_uris":{"android":"levelo://app?vid=ed26471f-a1ad-4374-a6db-e9f3e51e3e47","ios":"levelo://app?vid=ed26471f-a1ad-4374-a6db-e9f3e51e3e47"},"vehicle_type_id":"4","last_reported":1748427160,"current_range_meters":14800,"station_id":"ce4bhn12rcd13ifvqgpg","pricing_plan_id":"cebpf4jnsgd1na2vs0mg"},{"bike_id":"e096af3c-0540-4efc-bca3-a970fb73bc93","system_id":"levelo_inurba_marseille","lat":43.28213,"lon":5.390645,"is_reserved":false,"is_disabled":false,"rental_uris":{"android":"levelo://app?vid=e096af3c-0540-4efc-bca3-a970fb73bc93","ios":"levelo://app?vid=e096af3c-0540-4efc-bca3-a970fb73bc93"},"vehicle_type_id":"4","last_reported":1748427160,"current_range_meters":15200,"station_id":"","pricing_plan_id":"cebpf4jnsgd1na2vs0mg"},{"bike_id":"6a4a9486-c9f2-4feb-ad16-826c186ad39b","system_id":"levelo_inurba_marseille","lat":43.27962,"lon":5.3874,"is_reserved":false,"is_disabled":false,"rental_uris":{"android":"levelo://app?vid=6a4a9486-c9f2-4feb-ad16-826c186ad39b","ios":"levelo://app?vid=6a4a9486-c9f2-4feb-ad16-826c186ad39b"},"vehicle_type_id":"4","last_reported":1748427160,"current_range_meters":15200,"station_id":"ce4bhg12rcd13ifvqf80","pricing_plan_id":"cebpf4jnsgd1na2vs0mg"},{"bike_id":"bbf30e6f-7a7e-43da-9ecc-35a6c3450b07","system_id":"levelo_inurba_marseille","lat":43.28616,"lon":5.35099,"is_reserved":false,"is_disabled":false,"rental_uris":{"android":"levelo://app?vid=bbf30e6f-7a7e-43da-9ecc-35a6c3450b07","ios":"levelo://app?vid=bbf30e6f-7a7e-43da-9ecc-35a6c3450b07"},"vehicle_type_id":"4","last_reported":1748427160,"current_range_meters":11200,"station_id":"ce4bhch2rcd13ifvqeug","pricing_plan_id":"cebpf4jnsgd1na2vs0mg"},{"bike_id":"63616c72-9029-44e6-98de-a040d6b5ecfb","system_id":"levelo_inurba_marseille","lat":43.32086,"lon":5.36781,"is_reserved":false,"is_disabled":false,"rental_uris":{"android":"levelo://app?vid=63616c72-9029-44e6-98de-a040d6b5ecfb","ios":"levelo://app?vid=63616c72-9029-44e6-98de-a040d6b5ecfb"},"vehicle_type_id":"4","last_reported":1748427160,"current_range_meters":15200,"station_id":"ce4bhrh2rcd13ifvqhug","pricing_plan_id":"cebpf4jnsgd1na2vs0mg"},{"bike_id":"5751d432-e1a5-4ae0-96dc-ecba69a30082","system_id":"levelo_inurba_marseille","lat":43.23151,"lon":5.4371,"is_reserved":false,"is_disabled":false,"rental_uris":{"android":"levelo://app?vid=5751d432-e1a5-4ae0-96dc-ecba69a30082","ios":"levelo://app?vid=5751d432-e1a5-4ae0-96dc-ecba69a30082"},"vehicle_type_id":"4","last_reported":1748427160,"current_range_meters":16000,"station_id":"ce4bhmp2rcd13ifvqgog","pricing_plan_id":"cebpf4jnsgd1na2vs0mg"},{"bike_id":"38677a73-5eef-4eeb-b90f-fe25e6031a44","system_id":"levelo_inurba_marseille","lat":43.29675,"lon":5.37288,"is_reserved":false,"is_disabled":false,"rental_uris":{"android":"levelo://app?vid=38677a73-5eef-4eeb-b90f-fe25e6031a44","ios":"levelo://app?vid=38677a73-5eef-4eeb-b90f-fe25e6031a44"},"vehicle_type_id":"4","last_reported":1748427160,"current_range_meters":15200,"station_id":"ce4bgk12rcd13ifvqbj0","pricing_plan_id":"cebpf4jnsgd1na2vs0mg"},{"bike_id":"2915623f-261f-4979-8bfb-d98ca9857c57","system_id":"levelo_inurba_marseille","lat":43.27943,"lon":5.41047,"is_reserved":false,"is_disabled":false,"rental_uris":{"android":"levelo://app?vid=2915623f-261f-4979-8bfb-d98ca9857c57","ios":"levelo://app?vid=2915623f-261f-4979-8bfb-d98ca9857c57"},"vehicle_type_id":"4","last_reported":1748427160,"current_range_meters":16000,"station_id":"ce4bhnp2rcd13ifvqh0g","pricing_plan_id":"cebpf4jnsgd1na2vs0mg"},{"bike_id":"05ad02a8-301e-4778-ac9a-3ac5aeb16533","system_id":"levelo_inurba_marseille","lat":43.30954,"lon":5.3904,"is_reserved":false,"is_disabled":false,"rental_uris":{"android":"levelo://app?vid=05ad02a8-301e-4778-ac9a-3ac5aeb16533","ios":"levelo://app?vid=05ad02a8-301e-4778-ac9a-3ac5aeb16533"},"vehicle_type_id":"4","last_reported":1748427160,"current_range_meters":16000,"station_id":"ce4bgup2rcd13ifvqco0","pricing_plan_id":"cebpf4jnsgd1na2vs0mg"},{"bike_id":"60815888-7c98-4769-b7d4-8cf1272505d8","system_id":"levelo_inurba_marseille","lat":43.23188,"lon":5.39974,"is_reserved":false,"is_disabled":false,"rental_uris":{"android":"levelo://app?vid=60815888-7c98-4769-b7d4-8cf1272505d8","ios":"levelo://app?vid=60815888-7c98-4769-b7d4-8cf1272505d8"},"vehicle_type_id":"4","last_reported":1748427160,"current_range_meters":16000,"station_id":"ce4bhn12rcd13ifvqgqg","pricing_plan_id":"cebpf4jnsgd1na2vs0mg"},{"bike_id":"6ac7edd4-badc-4853-87f6-24b5639be3b4","system_id":"levelo_inurba_marseille","lat":43.24181,"lon":5.39723,"is_reserved":false,"is_disabled":false,"rental_uris":{"android":"levelo://app?vid=6ac7edd4-badc-4853-87f6-24b5639be3b4","ios":"levelo://app?vid=6ac7edd4-badc-4853-87f6-24b5639be3b4"},"vehicle_type_id":"4","last_reported":1748427160,"current_range_meters":16000,"station_id":"ce4bhn12rcd13ifvqgpg","pricing_plan_id":"cebpf4jnsgd1na2vs0mg"},{"bike_id":"ca9c3bc9-4766-4cd9-8344-6aff456a3cab","system_id":"levelo_inurba_marseille","lat":43.30463,"lon":5.37912,"is_reserved":false,"is_disabled":false,"rental_uris":{"android":"levelo://app?vid=ca9c3bc9-4766-4cd9-8344-6aff456a3cab","ios":"levelo://app?vid=ca9c3bc9-4766-4cd9-8344-6aff456a3cab"},"vehicle_type_id":"4","last_reported":1748427160,"current_range_meters":16000,"station_id":"ce4bgup2rcd13ifvqcn0","pricing_plan_id":"cebpf4jnsgd1na2vs0mg"},{"bike_id":"78561a21-4ad6-42f3-b013-571db6228ce1","system_id":"levelo_inurba_marseille","lat":43.3031,"lon":5.36892,"is_reserved":false,"is_disabled":false,"rental_uris":{"android":"levelo://app?vid=78561a21-4ad6-42f3-b013-571db6228ce1","ios":"levelo://app?vid=78561a21-4ad6-42f3-b013-571db6228ce1"},"vehicle_type_id":"4","last_reported":1748427160,"current_range_meters":16000,"station_id":"ce4bgqh2rcd13ifvqc5g","pricing_plan_id":"cebpf4jnsgd1na2vs0mg"},{"bike_id":"9ecc2f4b-4ce1-43d5-8e1f-60e6ad827390","system_id":"levelo_inurba_marseille","lat":43.29869,"lon":5.39742,"is_reserved":false,"is_disabled":false,"rental_uris":{"android":"levelo://app?vid=9ecc2f4b-4ce1-43d5-8e1f-60e6ad827390","ios":"levelo://app?vid=9ecc2f4b-4ce1-43d5-8e1f-60e6ad827390"},"vehicle_type_id":"4","last_reported":1748427160,"current_range_meters":16400,"station_id":"ce4bh0h2rcd13ifvqd50","pricing_plan_id":"cebpf4jnsgd1na2vs0mg"},{"bike_id":"ef3809cd-3b33-4c57-a18f-32a0ad0eb24a","system_id":"levelo_inurba_marseille","lat":43.2318,"lon":5.39984,"is_reserved":false,"is_disabled":false,"rental_uris":{"android":"levelo://app?vid=ef3809cd-3b33-4c57-a18f-32a0ad0eb24a","ios":"levelo://app?vid=ef3809cd-3b33-4c57-a18f-32a0ad0eb24a"},"vehicle_type_id":"4","last_reported":1748427160,"current_range_meters":16400,"station_id":"ce4bhn12rcd13ifvqgqg","pricing_plan_id":"cebpf4jnsgd1na2vs0mg"},{"bike_id":"a0b95b13-3e80-4077-b978-76e3a5dff908","system_id":"levelo_inurba_marseille","lat":43.27054,"lon":5.40254,"is_reserved":false,"is_disabled":false,"rental_uris":{"android":"levelo://app?vid=a0b95b13-3e80-4077-b978-76e3a5dff908","ios":"levelo://app?vid=a0b95b13-3e80-4077-b978-76e3a5dff908"},"vehicle_type_id":"4","last_reported":1748427160,"current_range_meters":16400,"station_id":"ce4bhk92rcd13ifvqgc0","pricing_plan_id":"cebpf4jnsgd1na2vs0mg"},{"bike_id":"3497c608-d157-4b08-a88b-6d42b660a25c","system_id":"levelo_inurba_marseille","lat":43.28618,"lon":5.35099,"is_reserved":false,"is_disabled":false,"rental_uris":{"android":"levelo://app?vid=3497c608-d157-4b08-a88b-6d42b660a25c","ios":"levelo://app?vid=3497c608-d157-4b08-a88b-6d42b660a25c"},"vehicle_type_id":"4","last_reported":1748427160,"current_range_meters":16400,"station_id":"ce4bhch2rcd13ifvqeug","pricing_plan_id":"cebpf4jnsgd1na2vs0mg"},{"bike_id":"322c95c5-34b6-4a3e-8799-dc2f5e970e4c","system_id":"levelo_inurba_marseille","lat":43.33626,"lon":5.40993,"is_reserved":false,"is_disabled":false,"rental_uris":{"android":"levelo://app?vid=322c95c5-34b6-4a3e-8799-dc2f5e970e4c","ios":"levelo://app?vid=322c95c5-34b6-4a3e-8799-dc2f5e970e4c"},"vehicle_type_id":"4","last_reported":1748427160,"current_range_meters":16400,"station_id":"ce4bhqh2rcd13ifvqhmg","pricing_plan_id":"cebpf4jnsgd1na2vs0mg"},{"bike_id":"1aa25db9-423d-433e-8114-09dd300fe632","system_id":"levelo_inurba_marseille","lat":43.29552,"lon":5.37474,"is_reserved":false,"is_disabled":true,"rental_uris":{"android":"levelo://app?vid=1aa25db9-423d-433e-8114-09dd300fe632","ios":"levelo://app?vid=1aa25db9-423d-433e-8114-09dd300fe632"},"vehicle_type_id":"4","last_reported":1748427160,"current_range_meters":16400,"station_id":"ce4bgkp2rcd13ifvqbmg","pricing_plan_id":"cebpf4jnsgd1na2vs0mg"},{"bike_id":"c32421ed-ddf4-4edd-af08-47e1fffda6e0","system_id":"levelo_inurba_marseille","lat":43.31273,"lon":5.36818,"is_reserved":false,"is_disabled":true,"rental_uris":{"android":"levelo://app?vid=c32421ed-ddf4-4edd-af08-47e1fffda6e0","ios":"levelo://app?vid=c32421ed-ddf4-4edd-af08-47e1fffda6e0"},"vehicle_type_id":"4","last_reported":1748427160,"current_range_meters":16400,"station_id":"","pricing_plan_id":"cebpf4jnsgd1na2vs0mg"},{"bike_id":"754aed2a-cf54-4467-b6ba-83fa67e5d062","system_id":"levelo_inurba_marseille","lat":43.3301,"lon":5.39047,"is_reserved":false,"is_disabled":false,"rental_uris":{"android":"levelo://app?vid=754aed2a-cf54-4467-b6ba-83fa67e5d062","ios":"levelo://app?vid=754aed2a-cf54-4467-b6ba-83fa67e5d062"},"vehicle_type_id":"4","last_reported":1748427160,"current_range_meters":16800,"station_id":"ce4bhr92rcd13ifvqhrg","pricing_plan_id":"cebpf4jnsgd1na2vs0mg"},{"bike_id":"5b6812e7-4bfc-4d12-82c7-bc2962aa5f20","system_id":"levelo_inurba_marseille","lat":43.25644,"lon":5.41187,"is_reserved":false,"is_disabled":false,"rental_uris":{"android":"levelo://app?vid=5b6812e7-4bfc-4d12-82c7-bc2962aa5f20","ios":"levelo://app?vid=5b6812e7-4bfc-4d12-82c7-bc2962aa5f20"},"vehicle_type_id":"4","last_reported":1748427160,"current_range_meters":16800,"station_id":"ce4bhkp2rcd13ifvqgd0","pricing_plan_id":"cebpf4jnsgd1na2vs0mg"},{"bike_id":"50f5d89a-6b7b-42d3-98dd-a5e8f30853c8","system_id":"levelo_inurba_marseille","lat":43.29199,"lon":5.35808,"is_reserved":false,"is_disabled":false,"rental_uris":{"android":"levelo://app?vid=50f5d89a-6b7b-42d3-98dd-a5e8f30853c8","ios":"levelo://app?vid=50f5d89a-6b7b-42d3-98dd-a5e8f30853c8"},"vehicle_type_id":"4","last_reported":1748427160,"current_range_meters":16800,"station_id":"ce4bhb12rcd13ifvqel0","pricing_plan_id":"cebpf4jnsgd1na2vs0mg"},{"bike_id":"b389ed41-3f56-4d56-a769-8f34ca4b85a4","system_id":"levelo_inurba_marseille","lat":43.27319,"lon":5.41044,"is_reserved":false,"is_disabled":false,"rental_uris":{"android":"levelo://app?vid=b389ed41-3f56-4d56-a769-8f34ca4b85a4","ios":"levelo://app?vid=b389ed41-3f56-4d56-a769-8f34ca4b85a4"},"vehicle_type_id":"4","last_reported":1748427160,"current_range_meters":16800,"station_id":"","pricing_plan_id":"cebpf4jnsgd1na2vs0mg"},{"bike_id":"1088b1a7-f33a-436d-8607-bb4847239ffb","system_id":"levelo_inurba_marseille","lat":43.23963,"lon":5.36644,"is_reserved":false,"is_disabled":false,"rental_uris":{"android":"levelo://app?vid=1088b1a7-f33a-436d-8607-bb4847239ffb","ios":"levelo://app?vid=1088b1a7-f33a-436d-8607-bb4847239ffb"},"vehicle_type_id":"4","last_reported":1748427160,"current_range_meters":16800,"station_id":"ce4bhi12rcd13ifvqfp0","pricing_plan_id":"cebpf4jnsgd1na2vs0mg"},{"bike_id":"ce7c597b-a26f-404e-b2c7-c2d8592a9281","system_id":"levelo_inurba_marseille","lat":43.25917,"lon":5.40888,"is_reserved":false,"is_disabled":false,"rental_uris":{"android":"levelo://app?vid=ce7c597b-a26f-404e-b2c7-c2d8592a9281","ios":"levelo://app?vid=ce7c597b-a26f-404e-b2c7-c2d8592a9281"},"vehicle_type_id":"4","last_reported":1748427160,"current_range_meters":17200,"station_id":"ce4bhm92rcd13ifvqglg","pricing_plan_id":"cebpf4jnsgd1na2vs0mg"},{"bike_id":"8370405b-92b4-4963-aa2e-c5495e16d397","system_id":"levelo_inurba_marseille","lat":43.324743,"lon":5.365527,"is_reserved":false,"is_disabled":false,"rental_uris":{"android":"levelo://app?vid=8370405b-92b4-4963-aa2e-c5495e16d397","ios":"levelo://app?vid=8370405b-92b4-4963-aa2e-c5495e16d397"},"vehicle_type_id":"4","last_reported":1748427160,"current_range_meters":17200,"station_id":"ce4bhs12rcd13ifvqhvg","pricing_plan_id":"cebpf4jnsgd1na2vs0mg"},{"bike_id":"1cc8e6d9-dcfc-4bea-aeb5-47cb500e54cd","system_id":"levelo_inurba_marseille","lat":43.298428,"lon":5.36275,"is_reserved":false,"is_disabled":false,"rental_uris":{"android":"levelo://app?vid=1cc8e6d9-dcfc-4bea-aeb5-47cb500e54cd","ios":"levelo://app?vid=1cc8e6d9-dcfc-4bea-aeb5-47cb500e54cd"},"vehicle_type_id":"4","last_reported":1748427160,"current_range_meters":17200,"station_id":"ce4bgpp2rcd13ifvqc3g","pricing_plan_id":"cebpf4jnsgd1na2vs0mg"},{"bike_id":"99dd0d54-1576-402f-b345-65a484125c48","system_id":"levelo_inurba_marseille","lat":43.30596,"lon":5.36715,"is_reserved":false,"is_disabled":false,"rental_uris":{"android":"levelo://app?vid=99dd0d54-1576-402f-b345-65a484125c48","ios":"levelo://app?vid=99dd0d54-1576-402f-b345-65a484125c48"},"vehicle_type_id":"4","last_reported":1748427160,"current_range_meters":17200,"station_id":"","pricing_plan_id":"cebpf4jnsgd1na2vs0mg"},{"bike_id":"74596cad-01b8-4827-9b35-ca1f4056673c","system_id":"levelo_inurba_marseille","lat":43.32325,"lon":5.38275,"is_reserved":false,"is_disabled":false,"rental_uris":{"android":"levelo://app?vid=74596cad-01b8-4827-9b35-ca1f4056673c","ios":"levelo://app?vid=74596cad-01b8-4827-9b35-ca1f4056673c"},"vehicle_type_id":"4","last_reported":1748427160,"current_range_meters":17200,"station_id":"ce4bhr12rcd13ifvqhqg","pricing_plan_id":"cebpf4jnsgd1na2vs0mg"},{"bike_id":"6b768e44-2286-4c3b-9779-4cbddad163c2","system_id":"levelo_inurba_marseille","lat":43.27062,"lon":5.40246,"is_reserved":false,"is_disabled":false,"rental_uris":{"android":"levelo://app?vid=6b768e44-2286-4c3b-9779-4cbddad163c2","ios":"levelo://app?vid=6b768e44-2286-4c3b-9779-4cbddad163c2"},"vehicle_type_id":"4","last_reported":1748427160,"current_range_meters":17600,"station_id":"ce4bhk92rcd13ifvqgc0","pricing_plan_id":"cebpf4jnsgd1na2vs0mg"},{"bike_id":"16c1928a-f1da-4575-9ab0-42b3233d934e","system_id":"levelo_inurba_marseille","lat":43.26558,"lon":5.37292,"is_reserved":false,"is_disabled":false,"rental_uris":{"android":"levelo://app?vid=16c1928a-f1da-4575-9ab0-42b3233d934e","ios":"levelo://app?vid=16c1928a-f1da-4575-9ab0-42b3233d934e"},"vehicle_type_id":"4","last_reported":1748427160,"current_range_meters":17600,"station_id":"ce4bhg12rcd13ifvqf70","pricing_plan_id":"cebpf4jnsgd1na2vs0mg"},{"bike_id":"ecef8788-4032-4831-b0af-0b88c49b7166","system_id":"levelo_inurba_marseille","lat":43.31393,"lon":5.36717,"is_reserved":false,"is_disabled":false,"rental_uris":{"android":"levelo://app?vid=ecef8788-4032-4831-b0af-0b88c49b7166","ios":"levelo://app?vid=ecef8788-4032-4831-b0af-0b88c49b7166"},"vehicle_type_id":"4","last_reported":1748427160,"current_range_meters":17600,"station_id":"ce4bgr92rcd13ifvqc6g","pricing_plan_id":"cebpf4jnsgd1na2vs0mg"},{"bike_id":"e7658274-2d64-49c2-bf7a-12ec69a3e7a6","system_id":"levelo_inurba_marseille","lat":43.33042,"lon":5.39031,"is_reserved":false,"is_disabled":false,"rental_uris":{"android":"levelo://app?vid=e7658274-2d64-49c2-bf7a-12ec69a3e7a6","ios":"levelo://app?vid=e7658274-2d64-49c2-bf7a-12ec69a3e7a6"},"vehicle_type_id":"4","last_reported":1748427160,"current_range_meters":17600,"station_id":"ce4bhr92rcd13ifvqhrg","pricing_plan_id":"cebpf4jnsgd1na2vs0mg"},{"bike_id":"44b74968-b10e-4cbd-9252-a930e88401a1","system_id":"levelo_inurba_marseille","lat":43.251053,"lon":5.403189,"is_reserved":false,"is_disabled":false,"rental_uris":{"android":"levelo://app?vid=44b74968-b10e-4cbd-9252-a930e88401a1","ios":"levelo://app?vid=44b74968-b10e-4cbd-9252-a930e88401a1"},"vehicle_type_id":"4","last_reported":1748427160,"current_range_meters":18000,"station_id":"ce4bhlh2rcd13ifvqgig","pricing_plan_id":"cebpf4jnsgd1na2vs0mg"},{"bike_id":"9de30b60-ec6a-49cb-bd23-8dc2fca35908","system_id":"levelo_inurba_marseille","lat":43.268,"lon":5.40265,"is_reserved":false,"is_disabled":false,"rental_uris":{"android":"levelo://app?vid=9de30b60-ec6a-49cb-bd23-8dc2fca35908","ios":"levelo://app?vid=9de30b60-ec6a-49cb-bd23-8dc2fca35908"},"vehicle_type_id":"4","last_reported":1748427160,"current_range_meters":18800,"station_id":"ce501612rcd8frsf0b60","pricing_plan_id":"cebpf4jnsgd1na2vs0mg"},{"bike_id":"bdd3e308-d35a-4067-beaf-e99ad6e1c006","system_id":"levelo_inurba_marseille","lat":43.21743,"lon":5.34594,"is_reserved":false,"is_disabled":false,"rental_uris":{"android":"levelo://app?vid=bdd3e308-d35a-4067-beaf-e99ad6e1c006","ios":"levelo://app?vid=bdd3e308-d35a-4067-beaf-e99ad6e1c006"},"vehicle_type_id":"4","last_reported":1748427160,"current_range_meters":18000,"station_id":"st_cvj6r9ubvosntc0bgbag","pricing_plan_id":"cebpf4jnsgd1na2vs0mg"},{"bike_id":"87967fff-9f95-4917-ac27-506ae2d052c0","system_id":"levelo_inurba_marseille","lat":43.30522,"lon":5.36731,"is_reserved":false,"is_disabled":false,"rental_uris":{"android":"levelo://app?vid=87967fff-9f95-4917-ac27-506ae2d052c0","ios":"levelo://app?vid=87967fff-9f95-4917-ac27-506ae2d052c0"},"vehicle_type_id":"4","last_reported":1748427160,"current_range_meters":18000,"station_id":"ce4bgrp2rcd13ifvqc9g","pricing_plan_id":"cebpf4jnsgd1na2vs0mg"},{"bike_id":"4e1077fb-32ed-4465-8680-743d30ac283d","system_id":"levelo_inurba_marseille","lat":43.25931,"lon":5.40892,"is_reserved":false,"is_disabled":false,"rental_uris":{"android":"levelo://app?vid=4e1077fb-32ed-4465-8680-743d30ac283d","ios":"levelo://app?vid=4e1077fb-32ed-4465-8680-743d30ac283d"},"vehicle_type_id":"4","last_reported":1748427160,"current_range_meters":18000,"station_id":"ce4bhm92rcd13ifvqglg","pricing_plan_id":"cebpf4jnsgd1na2vs0mg"},{"bike_id":"c10a5d99-0714-4920-9f07-729a169d7c21","system_id":"levelo_inurba_marseille","lat":43.25945,"lon":5.40894,"is_reserved":false,"is_disabled":false,"rental_uris":{"android":"levelo://app?vid=c10a5d99-0714-4920-9f07-729a169d7c21","ios":"levelo://app?vid=c10a5d99-0714-4920-9f07-729a169d7c21"},"vehicle_type_id":"4","last_reported":1748427160,"current_range_meters":18000,"station_id":"ce4bhm92rcd13ifvqglg","pricing_plan_id":"cebpf4jnsgd1na2vs0mg"},{"bike_id":"6fdb68de-8ff8-4e33-89d3-503ee8472080","system_id":"levelo_inurba_marseille","lat":43.2176,"lon":5.34584,"is_reserved":false,"is_disabled":false,"rental_uris":{"android":"levelo://app?vid=6fdb68de-8ff8-4e33-89d3-503ee8472080","ios":"levelo://app?vid=6fdb68de-8ff8-4e33-89d3-503ee8472080"},"vehicle_type_id":"4","last_reported":1748427160,"current_range_meters":18000,"station_id":"","pricing_plan_id":"cebpf4jnsgd1na2vs0mg"},{"bike_id":"186f123c-06e5-42fb-b941-bb54b2e34470","system_id":"levelo_inurba_marseille","lat":43.24653,"lon":5.38897,"is_reserved":false,"is_disabled":false,"rental_uris":{"android":"levelo://app?vid=186f123c-06e5-42fb-b941-bb54b2e34470","ios":"levelo://app?vid=186f123c-06e5-42fb-b941-bb54b2e34470"},"vehicle_type_id":"4","last_reported":1748427160,"current_range_meters":18000,"station_id":"ce4bhg12rcd13ifvqf60","pricing_plan_id":"cebpf4jnsgd1na2vs0mg"},{"bike_id":"8a8bd3a6-2413-4189-ac83-0783be13bb83","system_id":"levelo_inurba_marseille","lat":43.28939,"lon":5.39643,"is_reserved":false,"is_disabled":false,"rental_uris":{"android":"levelo://app?vid=8a8bd3a6-2413-4189-ac83-0783be13bb83","ios":"levelo://app?vid=8a8bd3a6-2413-4189-ac83-0783be13bb83"},"vehicle_type_id":"4","last_reported":1748427160,"current_range_meters":17600,"station_id":"ce4bh3h2rcd13ifvqdn0","pricing_plan_id":"cebpf4jnsgd1na2vs0mg"},{"bike_id":"a4f19251-a5e7-4f73-9422-8b90f3932f17","system_id":"levelo_inurba_marseille","lat":43.2175,"lon":5.34601,"is_reserved":false,"is_disabled":false,"rental_uris":{"android":"levelo://app?vid=a4f19251-a5e7-4f73-9422-8b90f3932f17","ios":"levelo://app?vid=a4f19251-a5e7-4f73-9422-8b90f3932f17"},"vehicle_type_id":"4","last_reported":1748427160,"current_range_meters":18000,"station_id":"st_cvj6r9ubvosntc0bgbag","pricing_plan_id":"cebpf4jnsgd1na2vs0mg"},{"bike_id":"a426f99b-d34a-41bf-bbda-59f7dfd6939b","system_id":"levelo_inurba_marseille","lat":43.255796,"lon":5.382262,"is_reserved":false,"is_disabled":false,"rental_uris":{"android":"levelo://app?vid=a426f99b-d34a-41bf-bbda-59f7dfd6939b","ios":"levelo://app?vid=a426f99b-d34a-41bf-bbda-59f7dfd6939b"},"vehicle_type_id":"4","last_reported":1748427160,"current_range_meters":18800,"station_id":"ce501612rcd8frsf0b60","pricing_plan_id":"cebpf4jnsgd1na2vs0mg"},{"bike_id":"056c236d-6fe6-4262-8100-b1e2b0643d38","system_id":"levelo_inurba_marseille","lat":43.25938,"lon":5.40912,"is_reserved":false,"is_disabled":false,"rental_uris":{"android":"levelo://app?vid=056c236d-6fe6-4262-8100-b1e2b0643d38","ios":"levelo://app?vid=056c236d-6fe6-4262-8100-b1e2b0643d38"},"vehicle_type_id":"4","last_reported":1748427160,"current_range_meters":18800,"station_id":"ce4bhm92rcd13ifvqglg","pricing_plan_id":"cebpf4jnsgd1na2vs0mg"},{"bike_id":"5137887d-1cb3-4375-b6d8-bb6eaab195e4","system_id":"levelo_inurba_marseille","lat":43.28422,"lon":5.34975,"is_reserved":false,"is_disabled":false,"rental_uris":{"android":"levelo://app?vid=5137887d-1cb3-4375-b6d8-bb6eaab195e4","ios":"levelo://app?vid=5137887d-1cb3-4375-b6d8-bb6eaab195e4"},"vehicle_type_id":"4","last_reported":1748427160,"current_range_meters":18800,"station_id":"ce4bhbh2rcd13ifvqepg","pricing_plan_id":"cebpf4jnsgd1na2vs0mg"},{"bike_id":"bf582ff3-0c69-4927-9d30-ff8c4a491f29","system_id":"levelo_inurba_marseille","lat":43.337444,"lon":5.374475,"is_reserved":false,"is_disabled":false,"rental_uris":{"android":"levelo://app?vid=bf582ff3-0c69-4927-9d30-ff8c4a491f29","ios":"levelo://app?vid=bf582ff3-0c69-4927-9d30-ff8c4a491f29"},"vehicle_type_id":"4","last_reported":1748427160,"current_range_meters":18800,"station_id":"","pricing_plan_id":"cebpf4jnsgd1na2vs0mg"},{"bike_id":"f5733814-9732-4748-bcc9-3b2fac8e1564","system_id":"levelo_inurba_marseille","lat":43.31256,"lon":5.37829,"is_reserved":false,"is_disabled":false,"rental_uris":{"android":"levelo://app?vid=f5733814-9732-4748-bcc9-3b2fac8e1564","ios":"levelo://app?vid=f5733814-9732-4748-bcc9-3b2fac8e1564"},"vehicle_type_id":"4","last_reported":1748427160,"current_range_meters":18800,"station_id":"","pricing_plan_id":"cebpf4jnsgd1na2vs0mg"},{"bike_id":"199e8851-7775-4fcc-a0d7-1dac28393674","system_id":"levelo_inurba_marseille","lat":43.24183,"lon":5.39711,"is_reserved":false,"is_disabled":false,"rental_uris":{"android":"levelo://app?vid=199e8851-7775-4fcc-a0d7-1dac28393674","ios":"levelo://app?vid=199e8851-7775-4fcc-a0d7-1dac28393674"},"vehicle_type_id":"4","last_reported":1748427160,"current_range_meters":18800,"station_id":"ce4bhn12rcd13ifvqgpg","pricing_plan_id":"cebpf4jnsgd1na2vs0mg"},{"bike_id":"6d9a5bf4-8602-4ec6-b1c0-80ab27d110e5","system_id":"levelo_inurba_marseille","lat":43.21752,"lon":5.34607,"is_reserved":false,"is_disabled":false,"rental_uris":{"android":"levelo://app?vid=6d9a5bf4-8602-4ec6-b1c0-80ab27d110e5","ios":"levelo://app?vid=6d9a5bf4-8602-4ec6-b1c0-80ab27d110e5"},"vehicle_type_id":"4","last_reported":1748427160,"current_range_meters":18800,"station_id":"st_cvj6r9ubvosntc0bgbag","pricing_plan_id":"cebpf4jnsgd1na2vs0mg"},{"bike_id":"f1bcf169-4bdb-4813-842b-205d53752447","system_id":"levelo_inurba_marseille","lat":43.23137,"lon":5.43713,"is_reserved":false,"is_disabled":false,"rental_uris":{"android":"levelo://app?vid=f1bcf169-4bdb-4813-842b-205d53752447","ios":"levelo://app?vid=f1bcf169-4bdb-4813-842b-205d53752447"},"vehicle_type_id":"4","last_reported":1748427160,"current_range_meters":19200,"station_id":"ce4bhmp2rcd13ifvqgog","pricing_plan_id":"cebpf4jnsgd1na2vs0mg"},{"bike_id":"e9cda520-c6f4-465d-ad7f-8c059b3dc45a","system_id":"levelo_inurba_marseille","lat":43.31319,"lon":5.38429,"is_reserved":false,"is_disabled":false,"rental_uris":{"android":"levelo://app?vid=e9cda520-c6f4-465d-ad7f-8c059b3dc45a","ios":"levelo://app?vid=e9cda520-c6f4-465d-ad7f-8c059b3dc45a"},"vehicle_type_id":"4","last_reported":1748427160,"current_range_meters":19200,"station_id":"","pricing_plan_id":"cebpf4jnsgd1na2vs0mg"},{"bike_id":"01b48386-9a65-47fa-89f7-720f3dad2bd3","system_id":"levelo_inurba_marseille","lat":43.2842,"lon":5.34975,"is_reserved":false,"is_disabled":false,"rental_uris":{"android":"levelo://app?vid=01b48386-9a65-47fa-89f7-720f3dad2bd3","ios":"levelo://app?vid=01b48386-9a65-47fa-89f7-720f3dad2bd3"},"vehicle_type_id":"4","last_reported":1748427160,"current_range_meters":19200,"station_id":"ce4bhbh2rcd13ifvqepg","pricing_plan_id":"cebpf4jnsgd1na2vs0mg"},{"bike_id":"2f650bb1-6027-4191-83d2-16315820a0a7","system_id":"levelo_inurba_marseille","lat":43.30574,"lon":5.3669,"is_reserved":false,"is_disabled":true,"rental_uris":{"android":"levelo://app?vid=2f650bb1-6027-4191-83d2-16315820a0a7","ios":"levelo://app?vid=2f650bb1-6027-4191-83d2-16315820a0a7"},"vehicle_type_id":"4","last_reported":1748427160,"current_range_meters":19200,"station_id":"","pricing_plan_id":"cebpf4jnsgd1na2vs0mg"},{"bike_id":"52d4fc5b-3e61-455f-8ece-d81db1a40c79","system_id":"levelo_inurba_marseille","lat":43.26031,"lon":5.37547,"is_reserved":false,"is_disabled":false,"rental_uris":{"android":"levelo://app?vid=52d4fc5b-3e61-455f-8ece-d81db1a40c79","ios":"levelo://app?vid=52d4fc5b-3e61-455f-8ece-d81db1a40c79"},"vehicle_type_id":"4","last_reported":1748427160,"current_range_meters":19200,"station_id":"ce4bhgh2rcd13ifvqfa0","pricing_plan_id":"cebpf4jnsgd1na2vs0mg"},{"bike_id":"02b95e2f-1fe5-4b5d-962e-6df3f4500841","system_id":"levelo_inurba_marseille","lat":43.25129,"lon":5.40323,"is_reserved":false,"is_disabled":false,"rental_uris":{"android":"levelo://app?vid=02b95e2f-1fe5-4b5d-962e-6df3f4500841","ios":"levelo://app?vid=02b95e2f-1fe5-4b5d-962e-6df3f4500841"},"vehicle_type_id":"4","last_reported":1748427160,"current_range_meters":20000,"station_id":"ce4bhlh2rcd13ifvqgig","pricing_plan_id":"cebpf4jnsgd1na2vs0mg"},{"bike_id":"fa0993ff-768f-4c3c-9313-298363b3e186","system_id":"levelo_inurba_marseille","lat":43.294481,"lon":5.397525,"is_reserved":false,"is_disabled":false,"rental_uris":{"android":"levelo://app?vid=fa0993ff-768f-4c3c-9313-298363b3e186","ios":"levelo://app?vid=fa0993ff-768f-4c3c-9313-298363b3e186"},"vehicle_type_id":"4","last_reported":1748427160,"current_range_meters":19600,"station_id":"ce4bh3h2rcd13ifvqdo0","pricing_plan_id":"cebpf4jnsgd1na2vs0mg"},{"bike_id":"18f0ee94-4d63-4152-8eb9-eb5edb904111","system_id":"levelo_inurba_marseille","lat":43.25824,"lon":5.39416,"is_reserved":false,"is_disabled":false,"rental_uris":{"android":"levelo://app?vid=18f0ee94-4d63-4152-8eb9-eb5edb904111","ios":"levelo://app?vid=18f0ee94-4d63-4152-8eb9-eb5edb904111"},"vehicle_type_id":"4","last_reported":1748427160,"current_range_meters":19600,"station_id":"ce4bhip2rcd13ifvqft0","pricing_plan_id":"cebpf4jnsgd1na2vs0mg"},{"bike_id":"2828457e-942a-42e3-a2af-9042d2ff6ebd","system_id":"levelo_inurba_marseille","lat":43.28261,"lon":5.35068,"is_reserved":false,"is_disabled":false,"rental_uris":{"android":"levelo://app?vid=2828457e-942a-42e3-a2af-9042d2ff6ebd","ios":"levelo://app?vid=2828457e-942a-42e3-a2af-9042d2ff6ebd"},"vehicle_type_id":"4","last_reported":1748427160,"current_range_meters":20000,"station_id":"ce4bhbp2rcd13ifvqerg","pricing_plan_id":"cebpf4jnsgd1na2vs0mg"},{"bike_id":"c3468d7b-b24e-421f-bcad-c5c242ba67a8","system_id":"levelo_inurba_marseille","lat":43.33015,"lon":5.39035,"is_reserved":false,"is_disabled":false,"rental_uris":{"android":"levelo://app?vid=c3468d7b-b24e-421f-bcad-c5c242ba67a8","ios":"levelo://app?vid=c3468d7b-b24e-421f-bcad-c5c242ba67a8"},"vehicle_type_id":"4","last_reported":1748427160,"current_range_meters":20000,"station_id":"ce4bhr92rcd13ifvqhrg","pricing_plan_id":"cebpf4jnsgd1na2vs0mg"},{"bike_id":"1541af6b-7167-4bee-98c9-b763aa1e5486","system_id":"levelo_inurba_marseille","lat":43.305582,"lon":5.365505,"is_reserved":false,"is_disabled":false,"rental_uris":{"android":"levelo://app?vid=1541af6b-7167-4bee-98c9-b763aa1e5486","ios":"levelo://app?vid=1541af6b-7167-4bee-98c9-b763aa1e5486"},"vehicle_type_id":"4","last_reported":1748427160,"current_range_meters":20000,"station_id":"","pricing_plan_id":"cebpf4jnsgd1na2vs0mg"},{"bike_id":"3e281efa-fc0f-456d-98ac-d4767994bb12","system_id":"levelo_inurba_marseille","lat":43.29932,"lon":5.36551,"is_reserved":false,"is_disabled":false,"rental_uris":{"android":"levelo://app?vid=3e281efa-fc0f-456d-98ac-d4767994bb12","ios":"levelo://app?vid=3e281efa-fc0f-456d-98ac-d4767994bb12"},"vehicle_type_id":"4","last_reported":1748427160,"current_range_meters":20000,"station_id":"ce4bgm92rcd13ifvqbr0","pricing_plan_id":"cebpf4jnsgd1na2vs0mg"},{"bike_id":"c5a327af-b8be-40a1-abc8-7f0f7bf16932","system_id":"levelo_inurba_marseille","lat":43.21752,"lon":5.34612,"is_reserved":false,"is_disabled":false,"rental_uris":{"android":"levelo://app?vid=c5a327af-b8be-40a1-abc8-7f0f7bf16932","ios":"levelo://app?vid=c5a327af-b8be-40a1-abc8-7f0f7bf16932"},"vehicle_type_id":"4","last_reported":1748427160,"current_range_meters":20000,"station_id":"st_cvj6r9ubvosntc0bgbag","pricing_plan_id":"cebpf4jnsgd1na2vs0mg"},{"bike_id":"b0d54d54-ef57-4856-96c3-3a8a5fd83931","system_id":"levelo_inurba_marseille","lat":43.26063,"lon":5.39398,"is_reserved":false,"is_disabled":false,"rental_uris":{"android":"levelo://app?vid=b0d54d54-ef57-4856-96c3-3a8a5fd83931","ios":"levelo://app?vid=b0d54d54-ef57-4856-96c3-3a8a5fd83931"},"vehicle_type_id":"4","last_reported":1748427160,"current_range_meters":19600,"station_id":"","pricing_plan_id":"cebpf4jnsgd1na2vs0mg"},{"bike_id":"3cc5a81f-1b78-4dca-93ad-0e53e32c5292","system_id":"levelo_inurba_marseille","lat":43.30528,"lon":5.36557,"is_reserved":false,"is_disabled":false,"rental_uris":{"android":"levelo://app?vid=3cc5a81f-1b78-4dca-93ad-0e53e32c5292","ios":"levelo://app?vid=3cc5a81f-1b78-4dca-93ad-0e53e32c5292"},"vehicle_type_id":"4","last_reported":1748427160,"current_range_meters":20000,"station_id":"ce4bgs12rcd13ifvqcag","pricing_plan_id":"cebpf4jnsgd1na2vs0mg"},{"bike_id":"77e645e4-ed29-4efc-a901-1bd2ec42ae6e","system_id":"levelo_inurba_marseille","lat":43.32478,"lon":5.36555,"is_reserved":false,"is_disabled":false,"rental_uris":{"android":"levelo://app?vid=77e645e4-ed29-4efc-a901-1bd2ec42ae6e","ios":"levelo://app?vid=77e645e4-ed29-4efc-a901-1bd2ec42ae6e"},"vehicle_type_id":"4","last_reported":1748427160,"current_range_meters":20000,"station_id":"ce4bhs12rcd13ifvqhvg","pricing_plan_id":"cebpf4jnsgd1na2vs0mg"},{"bike_id":"5bc7b36d-b560-4a01-9df8-d342a19c4021","system_id":"levelo_inurba_marseille","lat":43.21187,"lon":5.35078,"is_reserved":false,"is_disabled":false,"rental_uris":{"android":"levelo://app?vid=5bc7b36d-b560-4a01-9df8-d342a19c4021","ios":"levelo://app?vid=5bc7b36d-b560-4a01-9df8-d342a19c4021"},"vehicle_type_id":"4","last_reported":1748427160,"current_range_meters":20000,"station_id":"st_cvj6sg6p6f1abm77japg","pricing_plan_id":"cebpf4jnsgd1na2vs0mg"},{"bike_id":"69c52702-6c6f-4755-8792-c583b7af123b","system_id":"levelo_inurba_marseille","lat":43.28421,"lon":5.35005,"is_reserved":false,"is_disabled":false,"rental_uris":{"android":"levelo://app?vid=69c52702-6c6f-4755-8792-c583b7af123b","ios":"levelo://app?vid=69c52702-6c6f-4755-8792-c583b7af123b"},"vehicle_type_id":"4","last_reported":1748427160,"current_range_meters":20000,"station_id":"ce4bhbh2rcd13ifvqepg","pricing_plan_id":"cebpf4jnsgd1na2vs0mg"},{"bike_id":"7fabaa98-6ff9-4611-9d1f-7cda201cab30","system_id":"levelo_inurba_marseille","lat":43.31124,"lon":5.37756,"is_reserved":false,"is_disabled":true,"rental_uris":{"android":"levelo://app?vid=7fabaa98-6ff9-4611-9d1f-7cda201cab30","ios":"levelo://app?vid=7fabaa98-6ff9-4611-9d1f-7cda201cab30"},"vehicle_type_id":"4","last_reported":1748427160,"current_range_meters":20000,"station_id":"ce4bgt92rcd13ifvqcg0","pricing_plan_id":"cebpf4jnsgd1na2vs0mg"},{"bike_id":"ec1f0169-9f91-434e-957a-befc05e41d0d","system_id":"levelo_inurba_marseille","lat":43.29272,"lon":5.36841,"is_reserved":false,"is_disabled":false,"rental_uris":{"android":"levelo://app?vid=ec1f0169-9f91-434e-957a-befc05e41d0d","ios":"levelo://app?vid=ec1f0169-9f91-434e-957a-befc05e41d0d"},"vehicle_type_id":"4","last_reported":1748427160,"current_range_meters":20000,"station_id":"ce4bhbp2rcd13ifvqesg","pricing_plan_id":"cebpf4jnsgd1na2vs0mg"},{"bike_id":"d7da8956-3acd-4f02-8211-0424e8130ae4","system_id":"levelo_inurba_marseille","lat":43.28268,"lon":5.35065,"is_reserved":false,"is_disabled":false,"rental_uris":{"android":"levelo://app?vid=d7da8956-3acd-4f02-8211-0424e8130ae4","ios":"levelo://app?vid=d7da8956-3acd-4f02-8211-0424e8130ae4"},"vehicle_type_id":"4","last_reported":1748427160,"current_range_meters":20000,"station_id":"ce4bhbp2rcd13ifvqerg","pricing_plan_id":"cebpf4jnsgd1na2vs0mg"},{"bike_id":"ce84a0ad-ebc1-48cc-9746-c67695c79193","system_id":"levelo_inurba_marseille","lat":43.33575,"lon":5.41095,"is_reserved":false,"is_disabled":true,"rental_uris":{"android":"levelo://app?vid=ce84a0ad-ebc1-48cc-9746-c67695c79193","ios":"levelo://app?vid=ce84a0ad-ebc1-48cc-9746-c67695c79193"},"vehicle_type_id":"4","last_reported":1748427160,"current_range_meters":20000,"station_id":"ce4bhqh2rcd13ifvqhmg","pricing_plan_id":"cebpf4jnsgd1na2vs0mg"},{"bike_id":"09f55d96-0ad9-4631-a796-11717da06548","system_id":"levelo_inurba_marseille","lat":43.30147,"lon":5.38091,"is_reserved":false,"is_disabled":false,"rental_uris":{"android":"levelo://app?vid=09f55d96-0ad9-4631-a796-11717da06548","ios":"levelo://app?vid=09f55d96-0ad9-4631-a796-11717da06548"},"vehicle_type_id":"4","last_reported":1748427160,"current_range_meters":20000,"station_id":"ce4bgjp2rcd13ifvqbh0","pricing_plan_id":"cebpf4jnsgd1na2vs0mg"},{"bike_id":"ad585d45-0c7e-4e18-b6cf-ccddfbb22a33","system_id":"levelo_inurba_marseille","lat":43.26555,"lon":5.37281,"is_reserved":false,"is_disabled":false,"rental_uris":{"android":"levelo://app?vid=ad585d45-0c7e-4e18-b6cf-ccddfbb22a33","ios":"levelo://app?vid=ad585d45-0c7e-4e18-b6cf-ccddfbb22a33"},"vehicle_type_id":"4","last_reported":1748427160,"current_range_meters":20400,"station_id":"ce4bhg12rcd13ifvqf70","pricing_plan_id":"cebpf4jnsgd1na2vs0mg"},{"bike_id":"328f4570-de31-4d9b-a257-cbdad4a98f6c","system_id":"levelo_inurba_marseille","lat":43.31496,"lon":5.37308,"is_reserved":false,"is_disabled":false,"rental_uris":{"android":"levelo://app?vid=328f4570-de31-4d9b-a257-cbdad4a98f6c","ios":"levelo://app?vid=328f4570-de31-4d9b-a257-cbdad4a98f6c"},"vehicle_type_id":"4","last_reported":1748427160,"current_range_meters":20400,"station_id":"ce4bgt12rcd13ifvqcd0","pricing_plan_id":"cebpf4jnsgd1na2vs0mg"},{"bike_id":"1c5570de-f858-4ba1-aa8c-ef3e5befbb1c","system_id":"levelo_inurba_marseille","lat":43.25925,"lon":5.40877,"is_reserved":false,"is_disabled":false,"rental_uris":{"android":"levelo://app?vid=1c5570de-f858-4ba1-aa8c-ef3e5befbb1c","ios":"levelo://app?vid=1c5570de-f858-4ba1-aa8c-ef3e5befbb1c"},"vehicle_type_id":"4","last_reported":1748427160,"current_range_meters":20400,"station_id":"ce4bhm92rcd13ifvqglg","pricing_plan_id":"cebpf4jnsgd1na2vs0mg"},{"bike_id":"80764920-a953-4bb5-9cba-181440add32e","system_id":"levelo_inurba_marseille","lat":43.323538,"lon":5.367316,"is_reserved":false,"is_disabled":true,"rental_uris":{"android":"levelo://app?vid=80764920-a953-4bb5-9cba-181440add32e","ios":"levelo://app?vid=80764920-a953-4bb5-9cba-181440add32e"},"vehicle_type_id":"4","last_reported":1748427160,"current_range_meters":20400,"station_id":"ce4bhsh2rcd13ifvqi2g","pricing_plan_id":"cebpf4jnsgd1na2vs0mg"},{"bike_id":"354f645c-d57f-438a-8b00-b93cc3cd349a","system_id":"levelo_inurba_marseille","lat":43.23138,"lon":5.43716,"is_reserved":false,"is_disabled":false,"rental_uris":{"android":"levelo://app?vid=354f645c-d57f-438a-8b00-b93cc3cd349a","ios":"levelo://app?vid=354f645c-d57f-438a-8b00-b93cc3cd349a"},"vehicle_type_id":"4","last_reported":1748427160,"current_range_meters":20800,"station_id":"ce4bhmp2rcd13ifvqgog","pricing_plan_id":"cebpf4jnsgd1na2vs0mg"},{"bike_id":"837479c8-a4bc-4747-bad1-d0381f006254","system_id":"levelo_inurba_marseille","lat":43.29513,"lon":5.38893,"is_reserved":false,"is_disabled":false,"rental_uris":{"android":"levelo://app?vid=837479c8-a4bc-4747-bad1-d0381f006254","ios":"levelo://app?vid=837479c8-a4bc-4747-bad1-d0381f006254"},"vehicle_type_id":"4","last_reported":1748427160,"current_range_meters":20400,"station_id":"","pricing_plan_id":"cebpf4jnsgd1na2vs0mg"},{"bike_id":"3fb82f6b-6282-4ebd-a590-13b6885a1cdf","system_id":"levelo_inurba_marseille","lat":43.30543,"lon":5.3654,"is_reserved":false,"is_disabled":false,"rental_uris":{"android":"levelo://app?vid=3fb82f6b-6282-4ebd-a590-13b6885a1cdf","ios":"levelo://app?vid=3fb82f6b-6282-4ebd-a590-13b6885a1cdf"},"vehicle_type_id":"4","last_reported":1748427160,"current_range_meters":20400,"station_id":"ce4bgs12rcd13ifvqcag","pricing_plan_id":"cebpf4jnsgd1na2vs0mg"},{"bike_id":"a61f7eb6-ebec-441f-aafc-053f6c7ee27a","system_id":"levelo_inurba_marseille","lat":43.26196,"lon":5.37917,"is_reserved":false,"is_disabled":false,"rental_uris":{"android":"levelo://app?vid=a61f7eb6-ebec-441f-aafc-053f6c7ee27a","ios":"levelo://app?vid=a61f7eb6-ebec-441f-aafc-053f6c7ee27a"},"vehicle_type_id":"4","last_reported":1748427160,"current_range_meters":20400,"station_id":"ce4bhjp2rcd13ifvqg90","pricing_plan_id":"cebpf4jnsgd1na2vs0mg"},{"bike_id":"a19afa01-cc06-4d8b-aca0-8b4d98478511","system_id":"levelo_inurba_marseille","lat":43.309551,"lon":5.390289,"is_reserved":false,"is_disabled":false,"rental_uris":{"android":"levelo://app?vid=a19afa01-cc06-4d8b-aca0-8b4d98478511","ios":"levelo://app?vid=a19afa01-cc06-4d8b-aca0-8b4d98478511"},"vehicle_type_id":"4","last_reported":1748427160,"current_range_meters":20400,"station_id":"ce4bgup2rcd13ifvqco0","pricing_plan_id":"cebpf4jnsgd1na2vs0mg"},{"bike_id":"8fd8957d-f4b5-468b-8a1a-601e52f6123f","system_id":"levelo_inurba_marseille","lat":43.33597,"lon":5.41019,"is_reserved":false,"is_disabled":false,"rental_uris":{"android":"levelo://app?vid=8fd8957d-f4b5-468b-8a1a-601e52f6123f","ios":"levelo://app?vid=8fd8957d-f4b5-468b-8a1a-601e52f6123f"},"vehicle_type_id":"4","last_reported":1748427160,"current_range_meters":26000,"station_id":"ce4bhqh2rcd13ifvqhmg","pricing_plan_id":"cebpf4jnsgd1na2vs0mg"},{"bike_id":"11e1a63e-b58f-4730-b380-634a3ae7bf4a","system_id":"levelo_inurba_marseille","lat":43.29737,"lon":5.37664,"is_reserved":false,"is_disabled":true,"rental_uris":{"android":"levelo://app?vid=11e1a63e-b58f-4730-b380-634a3ae7bf4a","ios":"levelo://app?vid=11e1a63e-b58f-4730-b380-634a3ae7bf4a"},"vehicle_type_id":"4","last_reported":1748427160,"current_range_meters":20800,"station_id":"ce4bgkh2rcd13ifvqbl0","pricing_plan_id":"cebpf4jnsgd1na2vs0mg"},{"bike_id":"db5b4fdb-3368-4e4d-8d96-4477294c82aa","system_id":"levelo_inurba_marseille","lat":43.25577,"lon":5.38229,"is_reserved":false,"is_disabled":false,"rental_uris":{"android":"levelo://app?vid=db5b4fdb-3368-4e4d-8d96-4477294c82aa","ios":"levelo://app?vid=db5b4fdb-3368-4e4d-8d96-4477294c82aa"},"vehicle_type_id":"4","last_reported":1748427160,"current_range_meters":20800,"station_id":"ce4bhih2rcd13ifvqfs0","pricing_plan_id":"cebpf4jnsgd1na2vs0mg"},{"bike_id":"84b1cdb3-afec-4946-99df-4fcba5b743f0","system_id":"levelo_inurba_marseille","lat":43.26135,"lon":5.40081,"is_reserved":false,"is_disabled":false,"rental_uris":{"android":"levelo://app?vid=84b1cdb3-afec-4946-99df-4fcba5b743f0","ios":"levelo://app?vid=84b1cdb3-afec-4946-99df-4fcba5b743f0"},"vehicle_type_id":"4","last_reported":1748427160,"current_range_meters":20800,"station_id":"","pricing_plan_id":"cebpf4jnsgd1na2vs0mg"},{"bike_id":"e1607fd3-af5f-4844-bedc-831010b313ff","system_id":"levelo_inurba_marseille","lat":43.3107,"lon":5.3835,"is_reserved":false,"is_disabled":true,"rental_uris":{"android":"levelo://app?vid=e1607fd3-af5f-4844-bedc-831010b313ff","ios":"levelo://app?vid=e1607fd3-af5f-4844-bedc-831010b313ff"},"vehicle_type_id":"4","last_reported":1748427160,"current_range_meters":20800,"station_id":"ce4bgv92rcd13ifvqcr0","pricing_plan_id":"cebpf4jnsgd1na2vs0mg"},{"bike_id":"c57b8452-cdf3-4ffa-8a2a-1e39205ae310","system_id":"levelo_inurba_marseille","lat":43.21745,"lon":5.34602,"is_reserved":false,"is_disabled":false,"rental_uris":{"android":"levelo://app?vid=c57b8452-cdf3-4ffa-8a2a-1e39205ae310","ios":"levelo://app?vid=c57b8452-cdf3-4ffa-8a2a-1e39205ae310"},"vehicle_type_id":"4","last_reported":1748427160,"current_range_meters":20800,"station_id":"st_cvj6r9ubvosntc0bgbag","pricing_plan_id":"cebpf4jnsgd1na2vs0mg"},{"bike_id":"de872f10-7c93-4bab-be50-29597669f0f2","system_id":"levelo_inurba_marseille","lat":43.23186,"lon":5.39975,"is_reserved":false,"is_disabled":false,"rental_uris":{"android":"levelo://app?vid=de872f10-7c93-4bab-be50-29597669f0f2","ios":"levelo://app?vid=de872f10-7c93-4bab-be50-29597669f0f2"},"vehicle_type_id":"4","last_reported":1748427160,"current_range_meters":20800,"station_id":"ce4bhn12rcd13ifvqgqg","pricing_plan_id":"cebpf4jnsgd1na2vs0mg"},{"bike_id":"5d9917c4-d654-42ff-8135-bbe42a8e1afc","system_id":"levelo_inurba_marseille","lat":43.23058,"lon":5.35492,"is_reserved":false,"is_disabled":false,"rental_uris":{"android":"levelo://app?vid=5d9917c4-d654-42ff-8135-bbe42a8e1afc","ios":"levelo://app?vid=5d9917c4-d654-42ff-8135-bbe42a8e1afc"},"vehicle_type_id":"4","last_reported":1748427160,"current_range_meters":21600,"station_id":"cpo3342slgdg3j2ifvpg","pricing_plan_id":"cebpf4jnsgd1na2vs0mg"},{"bike_id":"f61b7f73-84e3-4805-a73d-0334d49a8a59","system_id":"levelo_inurba_marseille","lat":43.2318,"lon":5.39988,"is_reserved":false,"is_disabled":false,"rental_uris":{"android":"levelo://app?vid=f61b7f73-84e3-4805-a73d-0334d49a8a59","ios":"levelo://app?vid=f61b7f73-84e3-4805-a73d-0334d49a8a59"},"vehicle_type_id":"4","last_reported":1748427160,"current_range_meters":21600,"station_id":"ce4bhn12rcd13ifvqgqg","pricing_plan_id":"cebpf4jnsgd1na2vs0mg"},