{"last_updated":1701346419,"ttl":30,"version":"2.2","data":{"bikes":[{"bike_id":"08c0f07f-1e2c-41a3-8d6c-92ccb0d6e88a","system_id":"levelo_inurba_marseille","lat":43.31341,"lon":5.367098,"is_reserved":false,"is_disabled":false,"rental_uris":{"android":"levelo://app?vid=08c0f07f-1e2c-41a3-8d6c-92ccb0d6e88a","ios":"levelo://app?vid=08c0f07f-1e2c-41a3-8d6c-92ccb0d6e88a"},"vehicle_type_id":"4","last_reported":1701346420,"current_range_meters":4000,"station_id":"ce4bgr92rcd13ifvqc6g","pricing_plan_id":"free"},{"bike_id":"dc8aebcf-5310-4a5e-a1cd-e498b2840c41","system_id":"levelo_inurba_marseille","lat":43.31346,"lon":5.367202,"is_reserved":false,"is_disabled":false,"rental_uris":{"android":"levelo://app?vid=dc8aebcf-5310-4a5e-a1cd-e498b2840c41","ios":"levelo://app?vid=dc8aebcf-5310-4a5e-a1cd-e498b2840c41"},"vehicle_type_id":"4","last_reported":1701346420,"current_range_meters":16400,"station_id":"ce4bgr92rcd13ifvqc6g","pricing_plan_id":"free"},{"bike_id":"7c052d57-e5ae-4cd3-a31f-2f400eadca73","system_id":"levelo_inurba_marseille","lat":43.313496,"lon":5.367182,"is_reserved":false,"is_disabled":false,"rental_uris":{"android":"levelo://app?vid=7c052d57-e5ae-4cd3-a31f-2f400eadca73","ios":"levelo://app?vid=7c052d57-e5ae-4cd3-a31f-2f400eadca73"},"vehicle_type_id":"4","last_reported":1701346420,"current_range_meters":18400,"station_id":"ce4bgr92rcd13ifvqc6g","pricing_plan_id":"free"},{"bike_id":"de6fc00f-35ef-4ecc-ac8f-233d13501e24","system_id":"levelo_inurba_marseille","lat":43.313391,"lon":5.36706,"is_reserved":false,"is_disabled":false,"rental_uris":{"android":"levelo://app?vid=de6fc00f-35ef-4ecc-ac8f-233d13501e24","ios":"levelo://app?vid=de6fc00f-35ef-4ecc-ac8f-233d13501e24"},"vehicle_type_id":"4","last_reported":1701346420,"current_range_meters":31200,"station_id":"ce4bgr92rcd13ifvqc6g","pricing_plan_id":"free"},{"bike_id":"84e775e2-3361-4165-96bb-a3dafd35a718","system_id":"levelo_inurba_marseille","lat":43.31352,"lon":5.36726,"is_reserved":false,"is_disabled":false,"rental_uris":{"android":"levelo://app?vid=84e775e2-3361-4165-96bb-a3dafd35a718","ios":"levelo://app?vid=84e775e2-3361-4165-96bb-a3dafd35a718"},"vehicle_type_id":"4","last_reported":1701346420,"current_range_meters":6800,"station_id":"ce4bgr92rcd13ifvqc6g","pricing_plan_id":"free"},{"bike_id":"5b4696ba-54c0-4218-b933-f6dc6bb7dfd2","system_id":"levelo_inurba_marseille","lat":43.31356,"lon":5.36715,"is_reserved":false,"is_disabled":false,"rental_uris":{"android":"levelo://app?vid=5b4696ba-54c0-4218-b933-f6dc6bb7dfd2","ios":"levelo://app?vid=5b4696ba-54c0-4218-b933-f6dc6bb7dfd2"},"vehicle_type_id":"4","last_reported":1701346420,"current_range_meters":26800,"station_id":"ce4bgr92rcd13ifvqc6g","pricing_plan_id":"free"},{"bike_id":"bed1e390-30ee-4727-858e-8a52e4b26941","system_id":"levelo_inurba_marseille","lat":43.313595,"lon":5.36704,"is_reserved":false,"is_disabled":false,"rental_uris":{"android":"levelo://app?vid=bed1e390-30ee-4727-858e-8a52e4b26941","ios":"levelo://app?vid=bed1e390-30ee-4727-858e-8a52e4b26941"},"vehicle_type_id":"4","last_reported":1701346420,"current_range_meters":30000,"station_id":"ce4bgr92rcd13ifvqc6g","pricing_plan_id":"free"},{"bike_id":"6069efed-4214-4ef4-89c2-abebeb832aca","system_id":"levelo_inurba_marseille","lat":43.312239,"lon":5.368562,"is_reserved":false,"is_disabled":false,"rental_uris":{"android":"levelo://app?vid=6069efed-4214-4ef4-89c2-abebeb832aca","ios":"levelo://app?vid=6069efed-4214-4ef4-89c2-abebeb832aca"},"vehicle_type_id":"4","last_reported":1701346420,"current_range_meters":29600,"station_id":"ce4bgl92rcd13ifvqbq0","pricing_plan_id":"free"},{"bike_id":"69907837-c36c-4c49-b90d-f2943933288a","system_id":"levelo_inurba_marseille","lat":43.309076,"lon":5.368465,"is_reserved":false,"is_disabled":false,"rental_uris":{"android":"levelo://app?vid=69907837-c36c-4c49-b90d-f2943933288a","ios":"levelo://app?vid=69907837-c36c-4c49-b90d-f2943933288a"},"vehicle_type_id":"4","last_reported":1701346420,"current_range_meters":31600,"station_id":"ce4bgn92rcd13ifvqbvg","pricing_plan_id":"free"},{"bike_id":"e0ed4152-83c6-48a0-8da6-adae3254e07e","system_id":"levelo_inurba_marseille","lat":43.309076,"lon":5.368465,"is_reserved":false,"is_disabled":false,"rental_uris":{"android":"levelo://app?vid=e0ed4152-83c6-48a0-8da6-adae3254e07e","ios":"levelo://app?vid=e0ed4152-83c6-48a0-8da6-adae3254e07e"},"vehicle_type_id":"4","last_reported":1701346420,"current_range_meters":31600,"station_id":"ce4bgn92rcd13ifvqbvg","pricing_plan_id":"free"},{"bike_id":"826b6c91-ce0a-43d9-b4e0-164b7cad7d98","system_id":"levelo_inurba_marseille","lat":43.309076,"lon":5.368465,"is_reserved":false,"is_disabled":false,"rental_uris":{"android":"levelo://app?vid=826b6c91-ce0a-43d9-b4e0-164b7cad7d98","ios":"levelo://app?vid=826b6c91-ce0a-43d9-b4e0-164b7cad7d98"},"vehicle_type_id":"4","last_reported":1701346420,"current_range_meters":7200,"station_id":"ce4bgn92rcd13ifvqbvg","pricing_plan_id":"free"},{"bike_id":"67da3b1b-73ab-4891-8c6d-be55db134bd7","system_id":"levelo_inurba_marseille","lat":43.309076,"lon":5.368465,"is_reserved":false,"is_disabled":false,"rental_uris":{"android":"levelo://app?vid=67da3b1b-73ab-4891-8c6d-be55db134bd7","ios":"levelo://app?vid=67da3b1b-73ab-4891-8c6d-be55db134bd7"},"vehicle_type_id":"4","last_reported":1701346420,"current_range_meters":24000,"station_id":"ce4bgn92rcd13ifvqbvg","pricing_plan_id":"free"},{"bike_id":"1e969908-02cc-4239-a406-be8b96ae7498","system_id":"levelo_inurba_marseille","lat":43.309076,"lon":5.368465,"is_reserved":false,"is_disabled":false,"rental_uris":{"android":"levelo://app?vid=1e969908-02cc-4239-a406-be8b96ae7498","ios":"levelo://app?vid=1e969908-02cc-4239-a406-be8b96ae7498"},"vehicle_type_id":"4","last_reported":1701346420,"current_range_meters":20400,"station_id":"ce4bgn92rcd13ifvqbvg","pricing_plan_id":"free"},{"bike_id":"d647e152-1033-4d6c-a8b6-f0456676aa1a","system_id":"levelo_inurba_marseille","lat":43.309076,"lon":5.368465,"is_reserved":false,"is_disabled":false,"rental_uris":{"android":"levelo://app?vid=d647e152-1033-4d6c-a8b6-f0456676aa1a","ios":"levelo://app?vid=d647e152-1033-4d6c-a8b6-f0456676aa1a"},"vehicle_type_id":"4","last_reported":1701346420,"current_range_meters":20400,"station_id":"ce4bgn92rcd13ifvqbvg","pricing_plan_id":"free"},{"bike_id":"f54eedfd-603c-42cf-b084-d047335ff135","system_id":"levelo_inurba_marseille","lat":43.309076,"lon":5.368465,"is_reserved":false,"is_disabled":false,"rental_uris":{"android":"levelo://app?vid=f54eedfd-603c-42cf-b084-d047335ff135","ios":"levelo://app?vid=f54eedfd-603c-42cf-b084-d047335ff135"},"vehicle_type_id":"4","last_reported":1701346420,"current_range_meters":31200,"station_id":"ce4bgn92rcd13ifvqbvg","pricing_plan_id":"free"},{"bike_id":"5ccc757b-55ba-497f-8a04-9995def58564","system_id":"levelo_inurba_marseille","lat":43.309076,"lon":5.368465,"is_reserved":false,"is_disabled":false,"rental_uris":{"android":"levelo://app?vid=5ccc757b-55ba-497f-8a04-9995def58564","ios":"levelo://app?vid=5ccc757b-55ba-497f-8a04-9995def58564"},"vehicle_type_id":"4","last_reported":1701346420,"current_range_meters":20800,"station_id":"ce4bgn92rcd13ifvqbvg","pricing_plan_id":"free"},{"bike_id":"46292cda-88ee-4995-aaab-576a03d5f41b","system_id":"levelo_inurba_marseille","lat":43.309076,"lon":5.368465,"is_reserved":false,"is_disabled":false,"rental_uris":{"android":"levelo://app?vid=46292cda-88ee-4995-aaab-576a03d5f41b","ios":"levelo://app?vid=46292cda-88ee-4995-aaab-576a03d5f41b"},"vehicle_type_id":"4","last_reported":1701346420,"current_range_meters":19600,"station_id":"ce4bgn92rcd13ifvqbvg","pricing_plan_id":"free"},{"bike_id":"2c956fd0-0828-4e6c-ac18-4831b238b588","system_id":"levelo_inurba_marseille","lat":43.314811,"lon":5.373103,"is_reserved":false,"is_disabled":false,"rental_uris":{"android":"levelo://app?vid=2c956fd0-0828-4e6c-ac18-4831b238b588","ios":"levelo://app?vid=2c956fd0-0828-4e6c-ac18-4831b238b588"},"vehicle_type_id":"4","last_reported":1701346420,"current_range_meters":4800,"station_id":"ce4bgt12rcd13ifvqcd0","pricing_plan_id":"free"},{"bike_id":"73f174a2-c64f-4438-813b-fc43ca31ed80","system_id":"levelo_inurba_marseille","lat":43.308853,"lon":5.371855,"is_reserved":false,"is_disabled":false,"rental_uris":{"android":"levelo://app?vid=73f174a2-c64f-4438-813b-fc43ca31ed80","ios":"levelo://app?vid=73f174a2-c64f-4438-813b-fc43ca31ed80"},"vehicle_type_id":"4","last_reported":1701346420,"current_range_meters":22800,"station_id":"ce4bguh2rcd13ifvqckg","pricing_plan_id":"free"},{"bike_id":"26b59c2e-5b06-4966-abe5-0c4de09fd476","system_id":"levelo_inurba_marseille","lat":43.305466,"lon":5.367067,"is_reserved":false,"is_disabled":false,"rental_uris":{"android":"levelo://app?vid=26b59c2e-5b06-4966-abe5-0c4de09fd476","ios":"levelo://app?vid=26b59c2e-5b06-4966-abe5-0c4de09fd476"},"vehicle_type_id":"4","last_reported":1701346420,"current_range_meters":0,"station_id":"ce4bgrp2rcd13ifvqc9g","pricing_plan_id":"free"},{"bike_id":"bc3359c3-3c09-4404-b622-212a7e837b69","system_id":"levelo_inurba_marseille","lat":43.305714,"lon":5.365633,"is_reserved":false,"is_disabled":false,"rental_uris":{"android":"levelo://app?vid=bc3359c3-3c09-4404-b622-212a7e837b69","ios":"levelo://app?vid=bc3359c3-3c09-4404-b622-212a7e837b69"},"vehicle_type_id":"4","last_reported":1701346420,"current_range_meters":6000,"station_id":"ce4bgs12rcd13ifvqcag","pricing_plan_id":"free"},{"bike_id":"1272bab0-c377-4222-9138-dd18286c445d","system_id":"levelo_inurba_marseille","lat":43.305714,"lon":5.365633,"is_reserved":false,"is_disabled":false,"rental_uris":{"android":"levelo://app?vid=1272bab0-c377-4222-9138-dd18286c445d","ios":"levelo://app?vid=1272bab0-c377-4222-9138-dd18286c445d"},"vehicle_type_id":"4","last_reported":1701346420,"current_range_meters":10000,"station_id":"ce4bgs12rcd13ifvqcag","pricing_plan_id":"free"},{"bike_id":"1f6ba4d3-1130-4a26-89a4-1f62536a54f7","system_id":"levelo_inurba_marseille","lat":43.30546,"lon":5.36555,"is_reserved":false,"is_disabled":false,"rental_uris":{"android":"levelo://app?vid=1f6ba4d3-1130-4a26-89a4-1f62536a54f7","ios":"levelo://app?vid=1f6ba4d3-1130-4a26-89a4-1f62536a54f7"},"vehicle_type_id":"4","last_reported":1701346420,"current_range_meters":18400,"station_id":"ce4bgs12rcd13ifvqcag","pricing_plan_id":"free"},{"bike_id":"809f38bf-8dec-49e4-8d8e-221e35676859","system_id":"levelo_inurba_marseille","lat":43.305714,"lon":5.365633,"is_reserved":false,"is_disabled":false,"rental_uris":{"android":"levelo://app?vid=809f38bf-8dec-49e4-8d8e-221e35676859","ios":"levelo://app?vid=809f38bf-8dec-49e4-8d8e-221e35676859"},"vehicle_type_id":"4","last_reported":1701346420,"current_range_meters":19600,"station_id":"ce4bgs12rcd13ifvqcag","pricing_plan_id":"free"},{"bike_id":"8df24494-9112-4de8-8b03-99f6061022de","system_id":"levelo_inurba_marseille","lat":43.305714,"lon":5.365633,"is_reserved":false,"is_disabled":false,"rental_uris":{"android":"levelo://app?vid=8df24494-9112-4de8-8b03-99f6061022de","ios":"levelo://app?vid=8df24494-9112-4de8-8b03-99f6061022de"},"vehicle_type_id":"4","last_reported":1701346420,"current_range_meters":0,"station_id":"ce4bgs12rcd13ifvqcag","pricing_plan_id":"free"},{"bike_id":"f8fabd24-8415-412c-bbf8-869ed52a9e9d","system_id":"levelo_inurba_marseille","lat":43.305706,"lon":5.365654,"is_reserved":false,"is_disabled":false,"rental_uris":{"android":"levelo://app?vid=f8fabd24-8415-412c-bbf8-869ed52a9e9d","ios":"levelo://app?vid=f8fabd24-8415-412c-bbf8-869ed52a9e9d"},"vehicle_type_id":"4","last_reported":1701346420,"current_range_meters":26000,"station_id":"ce4bgs12rcd13ifvqcag","pricing_plan_id":"free"},{"bike_id":"cabe279f-3d2b-4440-911b-0ed0b607cbc1","system_id":"levelo_inurba_marseille","lat":43.30529,"lon":5.36709,"is_reserved":false,"is_disabled":false,"rental_uris":{"android":"levelo://app?vid=cabe279f-3d2b-4440-911b-0ed0b607cbc1","ios":"levelo://app?vid=cabe279f-3d2b-4440-911b-0ed0b607cbc1"},"vehicle_type_id":"4","last_reported":1701346420,"current_range_meters":7200,"station_id":"ce4bgrp2rcd13ifvqc9g","pricing_plan_id":"free"},{"bike_id":"e1a52f5c-225e-4d0d-90e3-a322a6c9812d","system_id":"levelo_inurba_marseille","lat":43.305706,"lon":5.365654,"is_reserved":false,"is_disabled":false,"rental_uris":{"android":"levelo://app?vid=e1a52f5c-225e-4d0d-90e3-a322a6c9812d","ios":"levelo://app?vid=e1a52f5c-225e-4d0d-90e3-a322a6c9812d"},"vehicle_type_id":"4","last_reported":1701346420,"current_range_meters":27200,"station_id":"ce4bgs12rcd13ifvqcag","pricing_plan_id":"free"},{"bike_id":"8ddbe663-31ab-400f-a2b2-be13cebcedc4","system_id":"levelo_inurba_marseille","lat":43.305706,"lon":5.365654,"is_reserved":false,"is_disabled":false,"rental_uris":{"android":"levelo://app?vid=8ddbe663-31ab-400f-a2b2-be13cebcedc4","ios":"levelo://app?vid=8ddbe663-31ab-400f-a2b2-be13cebcedc4"},"vehicle_type_id":"4","last_reported":1701346420,"current_range_meters":31200,"station_id":"ce4bgs12rcd13ifvqcag","pricing_plan_id":"free"},{"bike_id":"727d231a-d425-4d8f-ad3f-99b5a47572e8","system_id":"levelo_inurba_marseille","lat":43.30439,"lon":5.36753,"is_reserved":false,"is_disabled":false,"rental_uris":{"android":"levelo://app?vid=727d231a-d425-4d8f-ad3f-99b5a47572e8","ios":"levelo://app?vid=727d231a-d425-4d8f-ad3f-99b5a47572e8"},"vehicle_type_id":"4","last_reported":1701346420,"current_range_meters":30800,"station_id":"","pricing_plan_id":"free"},{"bike_id":"f427a2c3-6e4a-446b-ae2f-9be8aa7f4122","system_id":"levelo_inurba_marseille","lat":43.31719,"lon":5.376813,"is_reserved":false,"is_disabled":false,"rental_uris":{"android":"levelo://app?vid=f427a2c3-6e4a-446b-ae2f-9be8aa7f4122","ios":"levelo://app?vid=f427a2c3-6e4a-446b-ae2f-9be8aa7f4122"},"vehicle_type_id":"4","last_reported":1701346420,"current_range_meters":5600,"station_id":"ce4bgth2rcd13ifvqch0","pricing_plan_id":"free"},{"bike_id":"e913f328-1e31-4c22-bd87-f809ea246de4","system_id":"levelo_inurba_marseille","lat":43.317168,"lon":5.376883,"is_reserved":false,"is_disabled":false,"rental_uris":{"android":"levelo://app?vid=e913f328-1e31-4c22-bd87-f809ea246de4","ios":"levelo://app?vid=e913f328-1e31-4c22-bd87-f809ea246de4"},"vehicle_type_id":"4","last_reported":1701346420,"current_range_meters":8000,"station_id":"ce4bgth2rcd13ifvqch0","pricing_plan_id":"free"},{"bike_id":"d4e2d88a-201a-40de-8526-5a0424bacd30","system_id":"levelo_inurba_marseille","lat":43.317075,"lon":5.377367,"is_reserved":false,"is_disabled":false,"rental_uris":{"android":"levelo://app?vid=d4e2d88a-201a-40de-8526-5a0424bacd30","ios":"levelo://app?vid=d4e2d88a-201a-40de-8526-5a0424bacd30"},"vehicle_type_id":"4","last_reported":1701346420,"current_range_meters":25200,"station_id":"ce4bgth2rcd13ifvqch0","pricing_plan_id":"free"},{"bike_id":"5e60f435-ba87-410c-bb82-e50c25ac0013","system_id":"levelo_inurba_marseille","lat":43.303046,"lon":5.368981,"is_reserved":false,"is_disabled":false,"rental_uris":{"android":"levelo://app?vid=5e60f435-ba87-410c-bb82-e50c25ac0013","ios":"levelo://app?vid=5e60f435-ba87-410c-bb82-e50c25ac0013"},"vehicle_type_id":"4","last_reported":1701346420,"current_range_meters":30000,"station_id":"ce4bgqh2rcd13ifvqc5g","pricing_plan_id":"free"},{"bike_id":"f8dad9b6-05c2-44f3-b712-d967eaa33bce","system_id":"levelo_inurba_marseille","lat":43.30306,"lon":5.36913,"is_reserved":false,"is_disabled":false,"rental_uris":{"android":"levelo://app?vid=f8dad9b6-05c2-44f3-b712-d967eaa33bce","ios":"levelo://app?vid=f8dad9b6-05c2-44f3-b712-d967eaa33bce"},"vehicle_type_id":"4","last_reported":1701346420,"current_range_meters":13600,"station_id":"ce4bgqh2rcd13ifvqc5g","pricing_plan_id":"free"},{"bike_id":"4f0b66b2-3931-4e2c-a543-5359103b0456","system_id":"levelo_inurba_marseille","lat":43.30303,"lon":5.36894,"is_reserved":false,"is_disabled":false,"rental_uris":{"android":"levelo://app?vid=4f0b66b2-3931-4e2c-a543-5359103b0456","ios":"levelo://app?vid=4f0b66b2-3931-4e2c-a543-5359103b0456"},"vehicle_type_id":"4","last_reported":1701346420,"current_range_meters":27600,"station_id":"ce4bgqh2rcd13ifvqc5g","pricing_plan_id":"free"},{"bike_id":"bef3c888-e26e-4daf-a279-528d05d9f20b","system_id":"levelo_inurba_marseille","lat":43.30143,"lon":5.37413,"is_reserved":false,"is_disabled":false,"rental_uris":{"android":"levelo://app?vid=bef3c888-e26e-4daf-a279-528d05d9f20b","ios":"levelo://app?vid=bef3c888-e26e-4daf-a279-528d05d9f20b"},"vehicle_type_id":"4","last_reported":1701346420,"current_range_meters":22000,"station_id":"ce4bgs92rcd13ifvqcc0","pricing_plan_id":"free"},{"bike_id":"4860dfc2-9601-4c64-822c-af73ad90037d","system_id":"levelo_inurba_marseille","lat":43.30416,"lon":5.37529,"is_reserved":false,"is_disabled":false,"rental_uris":{"android":"levelo://app?vid=4860dfc2-9601-4c64-822c-af73ad90037d","ios":"levelo://app?vid=4860dfc2-9601-4c64-822c-af73ad90037d"},"vehicle_type_id":"4","last_reported":1701346420,"current_range_meters":29200,"station_id":"","pricing_plan_id":"free"},{"bike_id":"3c2eff30-1744-4408-8758-5857030018d2","system_id":"levelo_inurba_marseille","lat":43.301939,"lon":5.366286,"is_reserved":false,"is_disabled":false,"rental_uris":{"android":"levelo://app?vid=3c2eff30-1744-4408-8758-5857030018d2","ios":"levelo://app?vid=3c2eff30-1744-4408-8758-5857030018d2"},"vehicle_type_id":"4","last_reported":1701346420,"current_range_meters":30400,"station_id":"ce4bgrh2rcd13ifvqc8g","pricing_plan_id":"free"},{"bike_id":"2e031966-616c-4a9a-88b4-12df5f71c2c0","system_id":"levelo_inurba_marseille","lat":43.301939,"lon":5.366286,"is_reserved":false,"is_disabled":false,"rental_uris":{"android":"levelo://app?vid=2e031966-616c-4a9a-88b4-12df5f71c2c0","ios":"levelo://app?vid=2e031966-616c-4a9a-88b4-12df5f71c2c0"},"vehicle_type_id":"4","last_reported":1701346420,"current_range_meters":21200,"station_id":"ce4bgrh2rcd13ifvqc8g","pricing_plan_id":"free"},{"bike_id":"c3006f35-8ad4-439b-98ec-43a882b16acf","system_id":"levelo_inurba_marseille","lat":43.301939,"lon":5.366286,"is_reserved":false,"is_disabled":false,"rental_uris":{"android":"levelo://app?vid=c3006f35-8ad4-439b-98ec-43a882b16acf","ios":"levelo://app?vid=c3006f35-8ad4-439b-98ec-43a882b16acf"},"vehicle_type_id":"4","last_reported":1701346420,"current_range_meters":30400,"station_id":"ce4bgrh2rcd13ifvqc8g","pricing_plan_id":"free"},{"bike_id":"ed71ff7c-1779-4ca6-bd6d-a8c21531725d","system_id":"levelo_inurba_marseille","lat":43.308012,"lon":5.381511,"is_reserved":false,"is_disabled":false,"rental_uris":{"android":"levelo://app?vid=ed71ff7c-1779-4ca6-bd6d-a8c21531725d","ios":"levelo://app?vid=ed71ff7c-1779-4ca6-bd6d-a8c21531725d"},"vehicle_type_id":"4","last_reported":1701346420,"current_range_meters":20000,"station_id":"ce4bgt12rcd13ifvqce0","pricing_plan_id":"free"},{"bike_id":"a24e8a4d-fdb9-4ab4-ac65-7b918392b376","system_id":"levelo_inurba_marseille","lat":43.308012,"lon":5.381511,"is_reserved":false,"is_disabled":false,"rental_uris":{"android":"levelo://app?vid=a24e8a4d-fdb9-4ab4-ac65-7b918392b376","ios":"levelo://app?vid=a24e8a4d-fdb9-4ab4-ac65-7b918392b376"},"vehicle_type_id":"4","last_reported":1701346420,"current_range_meters":10400,"station_id":"ce4bgt12rcd13ifvqce0","pricing_plan_id":"free"},{"bike_id":"4949ac62-c4d2-427d-869c-a8396970fe7c","system_id":"levelo_inurba_marseille","lat":43.308012,"lon":5.381511,"is_reserved":false,"is_disabled":false,"rental_uris":{"android":"levelo://app?vid=4949ac62-c4d2-427d-869c-a8396970fe7c","ios":"levelo://app?vid=4949ac62-c4d2-427d-869c-a8396970fe7c"},"vehicle_type_id":"4","last_reported":1701346420,"current_range_meters":18400,"station_id":"ce4bgt12rcd13ifvqce0","pricing_plan_id":"free"},{"bike_id":"5056589b-e355-4d55-b1df-6cf9c5d7edb7","system_id":"levelo_inurba_marseille","lat":43.324771,"lon":5.36557,"is_reserved":false,"is_disabled":false,"rental_uris":{"android":"levelo://app?vid=5056589b-e355-4d55-b1df-6cf9c5d7edb7","ios":"levelo://app?vid=5056589b-e355-4d55-b1df-6cf9c5d7edb7"},"vehicle_type_id":"4","last_reported":1701346420,"current_range_meters":2000,"station_id":"ce4bhs12rcd13ifvqhvg","pricing_plan_id":"free"},{"bike_id":"6611ff6c-cf3e-4eaf-93d9-16b36fc3bf30","system_id":"levelo_inurba_marseille","lat":43.304606,"lon":5.379026,"is_reserved":false,"is_disabled":false,"rental_uris":{"android":"levelo://app?vid=6611ff6c-cf3e-4eaf-93d9-16b36fc3bf30","ios":"levelo://app?vid=6611ff6c-cf3e-4eaf-93d9-16b36fc3bf30"},"vehicle_type_id":"4","last_reported":1701346420,"current_range_meters":17600,"station_id":"ce4bgup2rcd13ifvqcn0","pricing_plan_id":"free"},{"bike_id":"eb252f97-a627-460e-bc81-d2e563eb9f69","system_id":"levelo_inurba_marseille","lat":43.304606,"lon":5.379026,"is_reserved":false,"is_disabled":false,"rental_uris":{"android":"levelo://app?vid=eb252f97-a627-460e-bc81-d2e563eb9f69","ios":"levelo://app?vid=eb252f97-a627-460e-bc81-d2e563eb9f69"},"vehicle_type_id":"4","last_reported":1701346420,"current_range_meters":25600,"station_id":"ce4bgup2rcd13ifvqcn0","pricing_plan_id":"free"},{"bike_id":"6104e35a-8f8e-4236-b5bf-c165d44f9cf9","system_id":"levelo_inurba_marseille","lat":43.324771,"lon":5.36557,"is_reserved":false,"is_disabled":false,"rental_uris":{"android":"levelo://app?vid=6104e35a-8f8e-4236-b5bf-c165d44f9cf9","ios":"levelo://app?vid=6104e35a-8f8e-4236-b5bf-c165d44f9cf9"},"vehicle_type_id":"4","last_reported":1701346420,"current_range_meters":13600,"station_id":"ce4bhs12rcd13ifvqhvg","pricing_plan_id":"free"},{"bike_id":"5f0dcc7e-fe2f-41ae-b9b7-07b5430b86ee","system_id":"levelo_inurba_marseille","lat":43.324771,"lon":5.36557,"is_reserved":false,"is_disabled":false,"rental_uris":{"android":"levelo://app?vid=5f0dcc7e-fe2f-41ae-b9b7-07b5430b86ee","ios":"levelo://app?vid=5f0dcc7e-fe2f-41ae-b9b7-07b5430b86ee"},"vehicle_type_id":"4","last_reported":1701346420,"current_range_meters":14800,"station_id":"ce4bhs12rcd13ifvqhvg","pricing_plan_id":"free"},{"bike_id":"7104edd8-87c0-4109-9646-1b0847d65add","system_id":"levelo_inurba_marseille","lat":43.302784,"lon":5.377158,"is_reserved":false,"is_disabled":false,"rental_uris":{"android":"levelo://app?vid=7104edd8-87c0-4109-9646-1b0847d65add","ios":"levelo://app?vid=7104edd8-87c0-4109-9646-1b0847d65add"},"vehicle_type_id":"4","last_reported":1701346420,"current_range_meters":29200,"station_id":"ce4bguh2rcd13ifvqcj0","pricing_plan_id":"free"},{"bike_id":"d60f8413-5e65-4aa7-a9cd-6754d53177fa","system_id":"levelo_inurba_marseille","lat":43.302784,"lon":5.377158,"is_reserved":false,"is_disabled":false,"rental_uris":{"android":"levelo://app?vid=d60f8413-5e65-4aa7-a9cd-6754d53177fa","ios":"levelo://app?vid=d60f8413-5e65-4aa7-a9cd-6754d53177fa"},"vehicle_type_id":"4","last_reported":1701346420,"current_range_meters":12800,"station_id":"ce4bguh2rcd13ifvqcj0","pricing_plan_id":"free"},{"bike_id":"e388ce8a-160b-438e-9445-ae0b7ce88214","system_id":"levelo_inurba_marseille","lat":43.301429,"lon":5.37413,"is_reserved":false,"is_disabled":false,"rental_uris":{"android":"levelo://app?vid=e388ce8a-160b-438e-9445-ae0b7ce88214","ios":"levelo://app?vid=e388ce8a-160b-438e-9445-ae0b7ce88214"},"vehicle_type_id":"4","last_reported":1701346420,"current_range_meters":21600,"station_id":"ce4bgs92rcd13ifvqcc0","pricing_plan_id":"free"},{"bike_id":"7f65e615-eb9b-42e1-8276-ef4f85668f89","system_id":"levelo_inurba_marseille","lat":43.302784,"lon":5.377158,"is_reserved":false,"is_disabled":false,"rental_uris":{"android":"levelo://app?vid=7f65e615-eb9b-42e1-8276-ef4f85668f89","ios":"levelo://app?vid=7f65e615-eb9b-42e1-8276-ef4f85668f89"},"vehicle_type_id":"4","last_reported":1701346420,"current_range_meters":24800,"station_id":"ce4bguh2rcd13ifvqcj0","pricing_plan_id":"free"},{"bike_id":"3e01df68-27f0-42b4-ac09-2ec4a13acda6","system_id":"levelo_inurba_marseille","lat":43.31988,"lon":5.38149,"is_reserved":false,"is_disabled":false,"rental_uris":{"android":"levelo://app?vid=3e01df68-27f0-42b4-ac09-2ec4a13acda6","ios":"levelo://app?vid=3e01df68-27f0-42b4-ac09-2ec4a13acda6"},"vehicle_type_id":"4","last_reported":1701346420,"current_range_meters":7600,"station_id":"ce4bhr12rcd13ifvqhpg","pricing_plan_id":"free"},{"bike_id":"093b3fa6-19cd-428c-9e79-0fa9ca00d3ab","system_id":"levelo_inurba_marseille","lat":43.319935,"lon":5.381699,"is_reserved":false,"is_disabled":false,"rental_uris":{"android":"levelo://app?vid=093b3fa6-19cd-428c-9e79-0fa9ca00d3ab","ios":"levelo://app?vid=093b3fa6-19cd-428c-9e79-0fa9ca00d3ab"},"vehicle_type_id":"4","last_reported":1701346420,"current_range_meters":27200,"station_id":"ce4bhr12rcd13ifvqhpg","pricing_plan_id":"free"},{"bike_id":"36126671-6f79-4ad1-a386-d9a2aaebfb25","system_id":"levelo_inurba_marseille","lat":43.319935,"lon":5.381699,"is_reserved":false,"is_disabled":false,"rental_uris":{"android":"levelo://app?vid=36126671-6f79-4ad1-a386-d9a2aaebfb25","ios":"levelo://app?vid=36126671-6f79-4ad1-a386-d9a2aaebfb25"},"vehicle_type_id":"4","last_reported":1701346420,"current_range_meters":18400,"station_id":"ce4bhr12rcd13ifvqhpg","pricing_plan_id":"free"},{"bike_id":"2275aca5-3158-4c2c-8022-ca5d2714bc86","system_id":"levelo_inurba_marseille","lat":43.319997,"lon":5.381594,"is_reserved":false,"is_disabled":false,"rental_uris":{"android":"levelo://app?vid=2275aca5-3158-4c2c-8022-ca5d2714bc86","ios":"levelo://app?vid=2275aca5-3158-4c2c-8022-ca5d2714bc86"},"vehicle_type_id":"4","last_reported":1701346420,"current_range_meters":23200,"station_id":"ce4bhr12rcd13ifvqhpg","pricing_plan_id":"free"},{"bike_id":"b0f8fb3c-6c71-4aa8-a783-905b8eeec7fd","system_id":"levelo_inurba_marseille","lat":43.299209,"lon":5.365547,"is_reserved":false,"is_disabled":false,"rental_uris":{"android":"levelo://app?vid=b0f8fb3c-6c71-4aa8-a783-905b8eeec7fd","ios":"levelo://app?vid=b0f8fb3c-6c71-4aa8-a783-905b8eeec7fd"},"vehicle_type_id":"4","last_reported":1701346420,"current_range_meters":9200,"station_id":"ce4bgm92rcd13ifvqbr0","pricing_plan_id":"free"},{"bike_id":"8dc022c5-36da-4b30-aa49-b8b616d54f7e","system_id":"levelo_inurba_marseille","lat":43.305364,"lon":5.384119,"is_reserved":false,"is_disabled":false,"rental_uris":{"android":"levelo://app?vid=8dc022c5-36da-4b30-aa49-b8b616d54f7e","ios":"levelo://app?vid=8dc022c5-36da-4b30-aa49-b8b616d54f7e"},"vehicle_type_id":"4","last_reported":1701346420,"current_range_meters":11600,"station_id":"ce4bgg92rcd13ifvqb30","pricing_plan_id":"free"},{"bike_id":"a89e6edb-2e42-4592-bc00-49970af775df","system_id":"levelo_inurba_marseille","lat":43.305364,"lon":5.384119,"is_reserved":false,"is_disabled":false,"rental_uris":{"android":"levelo://app?vid=a89e6edb-2e42-4592-bc00-49970af775df","ios":"levelo://app?vid=a89e6edb-2e42-4592-bc00-49970af775df"},"vehicle_type_id":"4","last_reported":1701346420,"current_range_meters":18000,"station_id":"ce4bgg92rcd13ifvqb30","pricing_plan_id":"free"},{"bike_id":"4523c086-5879-4741-b014-cb57f03b43f5","system_id":"levelo_inurba_marseille","lat":43.305364,"lon":5.384119,"is_reserved":false,"is_disabled":false,"rental_uris":{"android":"levelo://app?vid=4523c086-5879-4741-b014-cb57f03b43f5","ios":"levelo://app?vid=4523c086-5879-4741-b014-cb57f03b43f5"},"vehicle_type_id":"4","last_reported":1701346420,"current_range_meters":24400,"station_id":"ce4bgg92rcd13ifvqb30","pricing_plan_id":"free"},{"bike_id":"85cf0ee0-64e4-4700-a09a-987788e7553a","system_id":"levelo_inurba_marseille","lat":43.298433,"lon":5.362774,"is_reserved":false,"is_disabled":false,"rental_uris":{"android":"levelo://app?vid=85cf0ee0-64e4-4700-a09a-987788e7553a","ios":"levelo://app?vid=85cf0ee0-64e4-4700-a09a-987788e7553a"},"vehicle_type_id":"4","last_reported":1701346420,"current_range_meters":14800,"station_id":"ce4bgpp2rcd13ifvqc3g","pricing_plan_id":"free"},{"bike_id":"1e12c10f-7a12-466f-9400-0235196e8aae","system_id":"levelo_inurba_marseille","lat":43.311722,"lon":5.387247,"is_reserved":false,"is_disabled":false,"rental_uris":{"android":"levelo://app?vid=1e12c10f-7a12-466f-9400-0235196e8aae","ios":"levelo://app?vid=1e12c10f-7a12-466f-9400-0235196e8aae"},"vehicle_type_id":"4","last_reported":1701346420,"current_range_meters":12400,"station_id":"ce4bgv12rcd13ifvqcp0","pricing_plan_id":"free"},{"bike_id":"aebb5f1f-3a1e-4323-a4f0-ae83e0b78d14","system_id":"levelo_inurba_marseille","lat":43.327603,"lon":5.36705,"is_reserved":false,"is_disabled":false,"rental_uris":{"android":"levelo://app?vid=aebb5f1f-3a1e-4323-a4f0-ae83e0b78d14","ios":"levelo://app?vid=aebb5f1f-3a1e-4323-a4f0-ae83e0b78d14"},"vehicle_type_id":"4","last_reported":1701346420,"current_range_meters":24800,"station_id":"","pricing_plan_id":"free"},{"bike_id":"690de2bf-1827-453d-b68b-9ac2331d17d9","system_id":"levelo_inurba_marseille","lat":43.29729,"lon":5.365923,"is_reserved":false,"is_disabled":false,"rental_uris":{"android":"levelo://app?vid=690de2bf-1827-453d-b68b-9ac2331d17d9","ios":"levelo://app?vid=690de2bf-1827-453d-b68b-9ac2331d17d9"},"vehicle_type_id":"4","last_reported":1701346420,"current_range_meters":5200,"station_id":"ce4bgn12rcd13ifvqbt0","pricing_plan_id":"free"},{"bike_id":"91ac59ee-b4ec-458d-ae67-bf1609b66e39","system_id":"levelo_inurba_marseille","lat":43.328371,"lon":5.366912,"is_reserved":false,"is_disabled":false,"rental_uris":{"android":"levelo://app?vid=91ac59ee-b4ec-458d-ae67-bf1609b66e39","ios":"levelo://app?vid=91ac59ee-b4ec-458d-ae67-bf1609b66e39"},"vehicle_type_id":"4","last_reported":1701346420,"current_range_meters":14800,"station_id":"ce4bhs92rcd13ifvqi0g","pricing_plan_id":"free"},{"bike_id":"f572b1d3-94bc-4ea1-95d9-f0b1739b38c6","system_id":"levelo_inurba_marseille","lat":43.32834,"lon":5.36689,"is_reserved":false,"is_disabled":false,"rental_uris":{"android":"levelo://app?vid=f572b1d3-94bc-4ea1-95d9-f0b1739b38c6","ios":"levelo://app?vid=f572b1d3-94bc-4ea1-95d9-f0b1739b38c6"},"vehicle_type_id":"4","last_reported":1701346420,"current_range_meters":19200,"station_id":"ce4bhs92rcd13ifvqi0g","pricing_plan_id":"free"},{"bike_id":"0587d9a7-ffbd-4c05-b9a2-11eebd013967","system_id":"levelo_inurba_marseille","lat":43.297163,"lon":5.365866,"is_reserved":false,"is_disabled":false,"rental_uris":{"android":"levelo://app?vid=0587d9a7-ffbd-4c05-b9a2-11eebd013967","ios":"levelo://app?vid=0587d9a7-ffbd-4c05-b9a2-11eebd013967"},"vehicle_type_id":"4","last_reported":1701346420,"current_range_meters":20400,"station_id":"ce4bgn12rcd13ifvqbt0","pricing_plan_id":"free"},{"bike_id":"1433e4fd-747a-42e7-a397-be7ab5ba4e5d","system_id":"levelo_inurba_marseille","lat":43.2968,"lon":5.37291,"is_reserved":false,"is_disabled":false,"rental_uris":{"android":"levelo://app?vid=1433e4fd-747a-42e7-a397-be7ab5ba4e5d","ios":"levelo://app?vid=1433e4fd-747a-42e7-a397-be7ab5ba4e5d"},"vehicle_type_id":"4","last_reported":1701346420,"current_range_meters":24800,"station_id":"ce4bgk12rcd13ifvqbj0","pricing_plan_id":"free"},{"bike_id":"d068864e-3768-4cb7-8f2c-e01febcf4d60","system_id":"levelo_inurba_marseille","lat":43.296223,"lon":5.365103,"is_reserved":false,"is_disabled":false,"rental_uris":{"android":"levelo://app?vid=d068864e-3768-4cb7-8f2c-e01febcf4d60","ios":"levelo://app?vid=d068864e-3768-4cb7-8f2c-e01febcf4d60"},"vehicle_type_id":"4","last_reported":1701346420,"current_range_meters":12800,"station_id":"","pricing_plan_id":"free"},{"bike_id":"c093a85d-0b52-4609-9f66-e103f1bae647","system_id":"levelo_inurba_marseille","lat":43.29573,"lon":5.367355,"is_reserved":false,"is_disabled":false,"rental_uris":{"android":"levelo://app?vid=c093a85d-0b52-4609-9f66-e103f1bae647","ios":"levelo://app?vid=c093a85d-0b52-4609-9f66-e103f1bae647"},"vehicle_type_id":"4","last_reported":1701346420,"current_range_meters":13200,"station_id":"ce4bgph2rcd13ifvqc2g","pricing_plan_id":"free"},{"bike_id":"5d818e48-0e64-45c7-b3b3-0b6946e0047d","system_id":"levelo_inurba_marseille","lat":43.296131,"lon":5.370791,"is_reserved":false,"is_disabled":false,"rental_uris":{"android":"levelo://app?vid=5d818e48-0e64-45c7-b3b3-0b6946e0047d","ios":"levelo://app?vid=5d818e48-0e64-45c7-b3b3-0b6946e0047d"},"vehicle_type_id":"4","last_reported":1701346420,"current_range_meters":14000,"station_id":"ce4bgnh2rcd13ifvqc0g","pricing_plan_id":"free"},{"bike_id":"4e66220f-79c4-4cab-af5d-21c1cc7b9b45","system_id":"levelo_inurba_marseille","lat":43.29792,"lon":5.38112,"is_reserved":false,"is_disabled":false,"rental_uris":{"android":"levelo://app?vid=4e66220f-79c4-4cab-af5d-21c1cc7b9b45","ios":"levelo://app?vid=4e66220f-79c4-4cab-af5d-21c1cc7b9b45"},"vehicle_type_id":"4","last_reported":1701346420,"current_range_meters":0,"station_id":"ce4bgip2rcd13ifvqbb0","pricing_plan_id":"free"},{"bike_id":"732e13fe-bdcb-4a57-bbc2-e10e77ba14c7","system_id":"levelo_inurba_marseille","lat":43.299683,"lon":5.384897,"is_reserved":false,"is_disabled":false,"rental_uris":{"android":"levelo://app?vid=732e13fe-bdcb-4a57-bbc2-e10e77ba14c7","ios":"levelo://app?vid=732e13fe-bdcb-4a57-bbc2-e10e77ba14c7"},"vehicle_type_id":"4","last_reported":1701346420,"current_range_meters":0,"station_id":"ce4bgj92rcd13ifvqbd0","pricing_plan_id":"free"},{"bike_id":"a2f12fcc-77db-4a5e-9d0a-3e37ef1844fc","system_id":"levelo_inurba_marseille","lat":43.323703,"lon":5.38882,"is_reserved":false,"is_disabled":false,"rental_uris":{"android":"levelo://app?vid=a2f12fcc-77db-4a5e-9d0a-3e37ef1844fc","ios":"levelo://app?vid=a2f12fcc-77db-4a5e-9d0a-3e37ef1844fc"},"vehicle_type_id":"4","last_reported":1701346420,"current_range_meters":25200,"station_id":"ce4bhqp2rcd13ifvqhog","pricing_plan_id":"free"},{"bike_id":"50447284-9ef1-4feb-b520-eed03ae0c578","system_id":"levelo_inurba_marseille","lat":43.32367,"lon":5.388836,"is_reserved":false,"is_disabled":false,"rental_uris":{"android":"levelo://app?vid=50447284-9ef1-4feb-b520-eed03ae0c578","ios":"levelo://app?vid=50447284-9ef1-4feb-b520-eed03ae0c578"},"vehicle_type_id":"4","last_reported":1701346420,"current_range_meters":20800,"station_id":"ce4bhqp2rcd13ifvqhog","pricing_plan_id":"free"},{"bike_id":"58d8a878-3757-4afa-82e8-a31fa7cadaa9","system_id":"levelo_inurba_marseille","lat":43.293259,"lon":5.371586,"is_reserved":false,"is_disabled":false,"rental_uris":{"android":"levelo://app?vid=58d8a878-3757-4afa-82e8-a31fa7cadaa9","ios":"levelo://app?vid=58d8a878-3757-4afa-82e8-a31fa7cadaa9"},"vehicle_type_id":"4","last_reported":1701346420,"current_range_meters":20400,"station_id":"ce4bgh92rcd13ifvqb40","pricing_plan_id":"free"},{"bike_id":"cfbc88d0-2827-47a8-bee3-7d212466f718","system_id":"levelo_inurba_marseille","lat":43.29278,"lon":5.368466,"is_reserved":false,"is_disabled":false,"rental_uris":{"android":"levelo://app?vid=cfbc88d0-2827-47a8-bee3-7d212466f718","ios":"levelo://app?vid=cfbc88d0-2827-47a8-bee3-7d212466f718"},"vehicle_type_id":"4","last_reported":1701346420,"current_range_meters":18000,"station_id":"","pricing_plan_id":"free"},{"bike_id":"2e36cd5a-b305-4490-971e-4ad1b9d92ec7","system_id":"levelo_inurba_marseille","lat":43.293259,"lon":5.371586,"is_reserved":false,"is_disabled":false,"rental_uris":{"android":"levelo://app?vid=2e36cd5a-b305-4490-971e-4ad1b9d92ec7","ios":"levelo://app?vid=2e36cd5a-b305-4490-971e-4ad1b9d92ec7"},"vehicle_type_id":"4","last_reported":1701346420,"current_range_meters":30400,"station_id":"ce4bgh92rcd13ifvqb40","pricing_plan_id":"free"},{"bike_id":"e6b21be3-91c2-4320-8397-677f2523e3b9","system_id":"levelo_inurba_marseille","lat":43.292749,"lon":5.368402,"is_reserved":false,"is_disabled":false,"rental_uris":{"android":"levelo://app?vid=e6b21be3-91c2-4320-8397-677f2523e3b9","ios":"levelo://app?vid=e6b21be3-91c2-4320-8397-677f2523e3b9"},"vehicle_type_id":"4","last_reported":1701346420,"current_range_meters":10400,"station_id":"ce4bhbp2rcd13ifvqesg","pricing_plan_id":"free"},{"bike_id":"b870d055-8e53-498a-8298-06bfdf558633","system_id":"levelo_inurba_marseille","lat":43.305994,"lon":5.393687,"is_reserved":false,"is_disabled":false,"rental_uris":{"android":"levelo://app?vid=b870d055-8e53-498a-8298-06bfdf558633","ios":"levelo://app?vid=b870d055-8e53-498a-8298-06bfdf558633"},"vehicle_type_id":"4","last_reported":1701346420,"current_range_meters":21600,"station_id":"ce4bh0p2rcd13ifvqd80","pricing_plan_id":"free"},{"bike_id":"3df55433-9975-4a1b-974c-25152973ef69","system_id":"levelo_inurba_marseille","lat":43.293009,"lon":5.374584,"is_reserved":false,"is_disabled":false,"rental_uris":{"android":"levelo://app?vid=3df55433-9975-4a1b-974c-25152973ef69","ios":"levelo://app?vid=3df55433-9975-4a1b-974c-25152973ef69"},"vehicle_type_id":"4","last_reported":1701346420,"current_range_meters":16000,"station_id":"ce4bgi12rcd13ifvqb70","pricing_plan_id":"free"},{"bike_id":"fb5839ad-3d78-44e7-bc90-b2bee83ce132","system_id":"levelo_inurba_marseille","lat":43.30479,"lon":5.3934,"is_reserved":false,"is_disabled":false,"rental_uris":{"android":"levelo://app?vid=fb5839ad-3d78-44e7-bc90-b2bee83ce132","ios":"levelo://app?vid=fb5839ad-3d78-44e7-bc90-b2bee83ce132"},"vehicle_type_id":"4","last_reported":1701346420,"current_range_meters":0,"station_id":"","pricing_plan_id":"free"},{"bike_id":"6059964e-7c93-4f29-9328-7014b9762ad5","system_id":"levelo_inurba_marseille","lat":43.292311,"lon":5.360731,"is_reserved":false,"is_disabled":false,"rental_uris":{"android":"levelo://app?vid=6059964e-7c93-4f29-9328-7014b9762ad5","ios":"levelo://app?vid=6059964e-7c93-4f29-9328-7014b9762ad5"},"vehicle_type_id":"4","last_reported":1701346420,"current_range_meters":26400,"station_id":"ce4bhbh2rcd13ifvqeqg","pricing_plan_id":"free"},{"bike_id":"86b4600e-1f9f-45d3-b058-30f94c2b332d","system_id":"levelo_inurba_marseille","lat":43.300852,"lon":5.390859,"is_reserved":false,"is_disabled":false,"rental_uris":{"android":"levelo://app?vid=86b4600e-1f9f-45d3-b058-30f94c2b332d","ios":"levelo://app?vid=86b4600e-1f9f-45d3-b058-30f94c2b332d"},"vehicle_type_id":"4","last_reported":1701346420,"current_range_meters":20400,"station_id":"ce4bh192rcd13ifvqdb0","pricing_plan_id":"free"},{"bike_id":"633c17f7-b590-4758-88d5-13bc5b737d14","system_id":"levelo_inurba_marseille","lat":43.292311,"lon":5.360731,"is_reserved":false,"is_disabled":false,"rental_uris":{"android":"levelo://app?vid=633c17f7-b590-4758-88d5-13bc5b737d14","ios":"levelo://app?vid=633c17f7-b590-4758-88d5-13bc5b737d14"},"vehicle_type_id":"4","last_reported":1701346420,"current_range_meters":18000,"station_id":"ce4bhbh2rcd13ifvqeqg","pricing_plan_id":"free"},{"bike_id":"4b7a3a23-3c1b-41ba-9110-d1cda72f9b40","system_id":"levelo_inurba_marseille","lat":43.292311,"lon":5.360731,"is_reserved":false,"is_disabled":false,"rental_uris":{"android":"levelo://app?vid=4b7a3a23-3c1b-41ba-9110-d1cda72f9b40","ios":"levelo://app?vid=4b7a3a23-3c1b-41ba-9110-d1cda72f9b40"},"vehicle_type_id":"4","last_reported":1701346420,"current_range_meters":4000,"station_id":"ce4bhbh2rcd13ifvqeqg","pricing_plan_id":"free"},{"bike_id":"19779c9c-5419-42de-af4c-f072d9219129","system_id":"levelo_inurba_marseille","lat":43.30085,"lon":5.390856,"is_reserved":false,"is_disabled":false,"rental_uris":{"android":"levelo://app?vid=19779c9c-5419-42de-af4c-f072d9219129","ios":"levelo://app?vid=19779c9c-5419-42de-af4c-f072d9219129"},"vehicle_type_id":"4","last_reported":1701346420,"current_range_meters":27600,"station_id":"ce4bh192rcd13ifvqdb0","pricing_plan_id":"free"},{"bike_id":"679d1e00-c007-4c7e-86ef-4cddf5fd76d1","system_id":"levelo_inurba_marseille","lat":43.300852,"lon":5.390859,"is_reserved":false,"is_disabled":false,"rental_uris":{"android":"levelo://app?vid=679d1e00-c007-4c7e-86ef-4cddf5fd76d1","ios":"levelo://app?vid=679d1e00-c007-4c7e-86ef-4cddf5fd76d1"},"vehicle_type_id":"4","last_reported":1701346420,"current_range_meters":15600,"station_id":"ce4bh192rcd13ifvqdb0","pricing_plan_id":"free"},{"bike_id":"1351c78b-a59e-4e7c-946b-eb24d5c9c258","system_id":"levelo_inurba_marseille","lat":43.298764,"lon":5.388973,"is_reserved":false,"is_disabled":false,"rental_uris":{"android":"levelo://app?vid=1351c78b-a59e-4e7c-946b-eb24d5c9c258","ios":"levelo://app?vid=1351c78b-a59e-4e7c-946b-eb24d5c9c258"},"vehicle_type_id":"4","last_reported":1701346420,"current_range_meters":25200,"station_id":"ce4bh392rcd13ifvqdl0","pricing_plan_id":"free"},{"bike_id":"af5322c9-718a-4fa1-847a-66f2bcf5e695","system_id":"levelo_inurba_marseille","lat":43.292663,"lon":5.376389,"is_reserved":false,"is_disabled":false,"rental_uris":{"android":"levelo://app?vid=af5322c9-718a-4fa1-847a-66f2bcf5e695","ios":"levelo://app?vid=af5322c9-718a-4fa1-847a-66f2bcf5e695"},"vehicle_type_id":"4","last_reported":1701346420,"current_range_meters":6800,"station_id":"ce4bgi12rcd13ifvqb80","pricing_plan_id":"free"},{"bike_id":"7f8b81e8-14c3-45e4-a27e-3d67b3264e87","system_id":"levelo_inurba_marseille","lat":43.298764,"lon":5.388973,"is_reserved":false,"is_disabled":false,"rental_uris":{"android":"levelo://app?vid=7f8b81e8-14c3-45e4-a27e-3d67b3264e87","ios":"levelo://app?vid=7f8b81e8-14c3-45e4-a27e-3d67b3264e87"},"vehicle_type_id":"4","last_reported":1701346420,"current_range_meters":25600,"station_id":"ce4bh392rcd13ifvqdl0","pricing_plan_id":"free"},{"bike_id":"99edbbc2-2924-4580-9e46-85e6355f60c4","system_id":"levelo_inurba_marseille","lat":43.298764,"lon":5.388973,"is_reserved":false,"is_disabled":false,"rental_uris":{"android":"levelo://app?vid=99edbbc2-2924-4580-9e46-85e6355f60c4","ios":"levelo://app?vid=99edbbc2-2924-4580-9e46-85e6355f60c4"},"vehicle_type_id":"4","last_reported":1701346420,"current_range_meters":30000,"station_id":"ce4bh392rcd13ifvqdl0","pricing_plan_id":"free"},{"bike_id":"7533fcc0-be89-4ece-a1cc-632973fd3b11","system_id":"levelo_inurba_marseille","lat":43.291675,"lon":5.371583,"is_reserved":false,"is_disabled":false,"rental_uris":{"android":"levelo://app?vid=7533fcc0-be89-4ece-a1cc-632973fd3b11","ios":"levelo://app?vid=7533fcc0-be89-4ece-a1cc-632973fd3b11"},"vehicle_type_id":"4","last_reported":1701346420,"current_range_meters":17600,"station_id":"ce4bha92rcd13ifvqeh0","pricing_plan_id":"free"},{"bike_id":"8bf3e767-48d7-454e-bb1f-0dc5212bf37c","system_id":"levelo_inurba_marseille","lat":43.291675,"lon":5.371583,"is_reserved":false,"is_disabled":false,"rental_uris":{"android":"levelo://app?vid=8bf3e767-48d7-454e-bb1f-0dc5212bf37c","ios":"levelo://app?vid=8bf3e767-48d7-454e-bb1f-0dc5212bf37c"},"vehicle_type_id":"4","last_reported":1701346420,"current_range_meters":24800,"station_id":"ce4bha92rcd13ifvqeh0","pricing_plan_id":"free"},{"bike_id":"75d6e743-f6f4-4262-a920-39bedff24a1d","system_id":"levelo_inurba_marseille","lat":43.309047,"lon":5.396551,"is_reserved":false,"is_disabled":false,"rental_uris":{"android":"levelo://app?vid=75d6e743-f6f4-4262-a920-39bedff24a1d","ios":"levelo://app?vid=75d6e743-f6f4-4262-a920-39bedff24a1d"},"vehicle_type_id":"4","last_reported":1701346420,"current_range_meters":4800,"station_id":"ce4bh012rcd13ifvqcv0","pricing_plan_id":"free"},{"bike_id":"a0be9416-b0fd-445b-a4d5-d3adee995195","system_id":"levelo_inurba_marseille","lat":43.30205,"lon":5.39458,"is_reserved":false,"is_disabled":false,"rental_uris":{"android":"levelo://app?vid=a0be9416-b0fd-445b-a4d5-d3adee995195","ios":"levelo://app?vid=a0be9416-b0fd-445b-a4d5-d3adee995195"},"vehicle_type_id":"4","last_reported":1701346420,"current_range_meters":25200,"station_id":"ce4bh0p2rcd13ifvqd70","pricing_plan_id":"free"},{"bike_id":"2f590f0c-eafb-4d75-9bc9-c5ec1487b816","system_id":"levelo_inurba_marseille","lat":43.302008,"lon":5.394694,"is_reserved":false,"is_disabled":false,"rental_uris":{"android":"levelo://app?vid=2f590f0c-eafb-4d75-9bc9-c5ec1487b816","ios":"levelo://app?vid=2f590f0c-eafb-4d75-9bc9-c5ec1487b816"},"vehicle_type_id":"4","last_reported":1701346420,"current_range_meters":25600,"station_id":"ce4bh0p2rcd13ifvqd70","pricing_plan_id":"free"},{"bike_id":"5bffc459-9b02-4d93-b9f1-1c8abf7b5120","system_id":"levelo_inurba_marseille","lat":43.290327,"lon":5.375711,"is_reserved":false,"is_disabled":false,"rental_uris":{"android":"levelo://app?vid=5bffc459-9b02-4d93-b9f1-1c8abf7b5120","ios":"levelo://app?vid=5bffc459-9b02-4d93-b9f1-1c8abf7b5120"},"vehicle_type_id":"4","last_reported":1701346420,"current_range_meters":2400,"station_id":"ce4bh692rcd13ifvqe90","pricing_plan_id":"free"},{"bike_id":"69d84086-aa49-4e26-9d83-020612e8f955","system_id":"levelo_inurba_marseille","lat":43.289184,"lon":5.366408,"is_reserved":false,"is_disabled":false,"rental_uris":{"android":"levelo://app?vid=69d84086-aa49-4e26-9d83-020612e8f955","ios":"levelo://app?vid=69d84086-aa49-4e26-9d83-020612e8f955"},"vehicle_type_id":"4","last_reported":1701346420,"current_range_meters":5600,"station_id":"ce4bhap2rcd13ifvqek0","pricing_plan_id":"free"},{"bike_id":"e8c99e41-0ce5-4fa5-9972-5101c5754a60","system_id":"levelo_inurba_marseille","lat":43.289184,"lon":5.366408,"is_reserved":false,"is_disabled":false,"rental_uris":{"android":"levelo://app?vid=e8c99e41-0ce5-4fa5-9972-5101c5754a60","ios":"levelo://app?vid=e8c99e41-0ce5-4fa5-9972-5101c5754a60"},"vehicle_type_id":"4","last_reported":1701346420,"current_range_meters":25200,"station_id":"ce4bhap2rcd13ifvqek0","pricing_plan_id":"free"},{"bike_id":"280b818d-922b-4996-8435-4e9ab10ddd45","system_id":"levelo_inurba_marseille","lat":43.33041,"lon":5.38921,"is_reserved":false,"is_disabled":false,"rental_uris":{"android":"levelo://app?vid=280b818d-922b-4996-8435-4e9ab10ddd45","ios":"levelo://app?vid=280b818d-922b-4996-8435-4e9ab10ddd45"},"vehicle_type_id":"4","last_reported":1701346420,"current_range_meters":6000,"station_id":"ce4bhr92rcd13ifvqhrg","pricing_plan_id":"free"},{"bike_id":"55c84667-a8f1-4e2c-9a3e-6128f81f7d9e","system_id":"levelo_inurba_marseille","lat":43.330442,"lon":5.389148,"is_reserved":false,"is_disabled":false,"rental_uris":{"android":"levelo://app?vid=55c84667-a8f1-4e2c-9a3e-6128f81f7d9e","ios":"levelo://app?vid=55c84667-a8f1-4e2c-9a3e-6128f81f7d9e"},"vehicle_type_id":"4","last_reported":1701346420,"current_range_meters":24000,"station_id":"ce4bhr92rcd13ifvqhrg","pricing_plan_id":"free"},{"bike_id":"b4416b8f-d4eb-4657-abe6-daace87e8c0d","system_id":"levelo_inurba_marseille","lat":43.290104,"lon":5.356111,"is_reserved":false,"is_disabled":false,"rental_uris":{"android":"levelo://app?vid=b4416b8f-d4eb-4657-abe6-daace87e8c0d","ios":"levelo://app?vid=b4416b8f-d4eb-4657-abe6-daace87e8c0d"},"vehicle_type_id":"4","last_reported":1701346420,"current_range_meters":6400,"station_id":"ce4bhb92rcd13ifvqen0","pricing_plan_id":"free"},{"bike_id":"168ea453-53a9-417c-8415-963940d99ad1","system_id":"levelo_inurba_marseille","lat":43.290995,"lon":5.381361,"is_reserved":false,"is_disabled":false,"rental_uris":{"android":"levelo://app?vid=168ea453-53a9-417c-8415-963940d99ad1","ios":"levelo://app?vid=168ea453-53a9-417c-8415-963940d99ad1"},"vehicle_type_id":"4","last_reported":1701346420,"current_range_meters":28000,"station_id":"ce4bh512rcd13ifvqe2g","pricing_plan_id":"free"},{"bike_id":"f7f048b8-fc40-4a28-ba39-76281909b901","system_id":"levelo_inurba_marseille","lat":43.289743,"lon":5.378304,"is_reserved":false,"is_disabled":false,"rental_uris":{"android":"levelo://app?vid=f7f048b8-fc40-4a28-ba39-76281909b901","ios":"levelo://app?vid=f7f048b8-fc40-4a28-ba39-76281909b901"},"vehicle_type_id":"4","last_reported":1701346420,"current_range_meters":28000,"station_id":"ce4bh9p2rcd13ifvqed0","pricing_plan_id":"free"},{"bike_id":"ad1320cd-392d-462d-9feb-a3524148e12d","system_id":"levelo_inurba_marseille","lat":43.289741,"lon":5.378306,"is_reserved":false,"is_disabled":false,"rental_uris":{"android":"levelo://app?vid=ad1320cd-392d-462d-9feb-a3524148e12d","ios":"levelo://app?vid=ad1320cd-392d-462d-9feb-a3524148e12d"},"vehicle_type_id":"4","last_reported":1701346420,"current_range_meters":29200,"station_id":"ce4bh9p2rcd13ifvqed0","pricing_plan_id":"free"},{"bike_id":"7c1fa4cd-82cb-4503-b011-22521bc2d081","system_id":"levelo_inurba_marseille","lat":43.28856,"lon":5.358371,"is_reserved":false,"is_disabled":false,"rental_uris":{"android":"levelo://app?vid=7c1fa4cd-82cb-4503-b011-22521bc2d081","ios":"levelo://app?vid=7c1fa4cd-82cb-4503-b011-22521bc2d081"},"vehicle_type_id":"4","last_reported":1701346420,"current_range_meters":26400,"station_id":"ce4bhb12rcd13ifvqem0","pricing_plan_id":"free"},{"bike_id":"6b0b18b0-8f7b-4d02-808f-fa0b9e3779b7","system_id":"levelo_inurba_marseille","lat":43.304296,"lon":5.397513,"is_reserved":false,"is_disabled":false,"rental_uris":{"android":"levelo://app?vid=6b0b18b0-8f7b-4d02-808f-fa0b9e3779b7","ios":"levelo://app?vid=6b0b18b0-8f7b-4d02-808f-fa0b9e3779b7"},"vehicle_type_id":"4","last_reported":1701346420,"current_range_meters":20000,"station_id":"ce4bh092rcd13ifvqd20","pricing_plan_id":"free"},{"bike_id":"d384d885-7532-4994-86a8-d2aa808c0e9b","system_id":"levelo_inurba_marseille","lat":43.306429,"lon":5.400686,"is_reserved":false,"is_disabled":false,"rental_uris":{"android":"levelo://app?vid=d384d885-7532-4994-86a8-d2aa808c0e9b","ios":"levelo://app?vid=d384d885-7532-4994-86a8-d2aa808c0e9b"},"vehicle_type_id":"4","last_reported":1701346420,"current_range_meters":24000,"station_id":"","pricing_plan_id":"free"},{"bike_id":"f860c43e-5634-469a-ad27-e3b1408f4c1e","system_id":"levelo_inurba_marseille","lat":43.309371,"lon":5.401449,"is_reserved":false,"is_disabled":false,"rental_uris":{"android":"levelo://app?vid=f860c43e-5634-469a-ad27-e3b1408f4c1e","ios":"levelo://app?vid=f860c43e-5634-469a-ad27-e3b1408f4c1e"},"vehicle_type_id":"4","last_reported":1701346420,"current_range_meters":0,"station_id":"ce4bgvp2rcd13ifvqct0","pricing_plan_id":"free"},{"bike_id":"2ae93018-1f66-4407-8727-ce3bd016a9f6","system_id":"levelo_inurba_marseille","lat":43.33751,"lon":5.37484,"is_reserved":false,"is_disabled":false,"rental_uris":{"android":"levelo://app?vid=2ae93018-1f66-4407-8727-ce3bd016a9f6","ios":"levelo://app?vid=2ae93018-1f66-4407-8727-ce3bd016a9f6"},"vehicle_type_id":"4","last_reported":1701346420,"current_range_meters":20000,"station_id":"","pricing_plan_id":"free"},{"bike_id":"91dd5016-55bf-4e87-867b-86b9e134be36","system_id":"levelo_inurba_marseille","lat":43.306412,"lon":5.401035,"is_reserved":false,"is_disabled":false,"rental_uris":{"android":"levelo://app?vid=91dd5016-55bf-4e87-867b-86b9e134be36","ios":"levelo://app?vid=91dd5016-55bf-4e87-867b-86b9e134be36"},"vehicle_type_id":"4","last_reported":1701346420,"current_range_meters":24400,"station_id":"ce4bh112rcd13ifvqda0","pricing_plan_id":"free"},{"bike_id":"f8ba80ce-d128-43de-bf28-77cf80fd7f20","system_id":"levelo_inurba_marseille","lat":43.301117,"lon":5.398795,"is_reserved":false,"is_disabled":false,"rental_uris":{"android":"levelo://app?vid=f8ba80ce-d128-43de-bf28-77cf80fd7f20","ios":"levelo://app?vid=f8ba80ce-d128-43de-bf28-77cf80fd7f20"},"vehicle_type_id":"4","last_reported":1701346420,"current_range_meters":31200,"station_id":"ce4bh0h2rcd13ifvqd40","pricing_plan_id":"free"},{"bike_id":"31c45912-dc54-42c3-b2d9-39bf53bbc091","system_id":"levelo_inurba_marseille","lat":43.298681,"lon":5.397225,"is_reserved":false,"is_disabled":false,"rental_uris":{"android":"levelo://app?vid=31c45912-dc54-42c3-b2d9-39bf53bbc091","ios":"levelo://app?vid=31c45912-dc54-42c3-b2d9-39bf53bbc091"},"vehicle_type_id":"4","last_reported":1701346420,"current_range_meters":22000,"station_id":"ce4bh0h2rcd13ifvqd50","pricing_plan_id":"free"},{"bike_id":"bd2f3dc7-0dc9-4e0c-8a65-72b8fe7d2cd4","system_id":"levelo_inurba_marseille","lat":43.298681,"lon":5.397225,"is_reserved":false,"is_disabled":false,"rental_uris":{"android":"levelo://app?vid=bd2f3dc7-0dc9-4e0c-8a65-72b8fe7d2cd4","ios":"levelo://app?vid=bd2f3dc7-0dc9-4e0c-8a65-72b8fe7d2cd4"},"vehicle_type_id":"4","last_reported":1701346420,"current_range_meters":27200,"station_id":"ce4bh0h2rcd13ifvqd50","pricing_plan_id":"free"},{"bike_id":"c39003f8-aefd-4cb0-91ff-834aa72efe4e","system_id":"levelo_inurba_marseille","lat":43.298681,"lon":5.397225,"is_reserved":false,"is_disabled":false,"rental_uris":{"android":"levelo://app?vid=c39003f8-aefd-4cb0-91ff-834aa72efe4e","ios":"levelo://app?vid=c39003f8-aefd-4cb0-91ff-834aa72efe4e"},"vehicle_type_id":"4","last_reported":1701346420,"current_range_meters":17200,"station_id":"ce4bh0h2rcd13ifvqd50","pricing_plan_id":"free"},{"bike_id":"d6f719e8-038b-4b2e-89f0-47ed338bbd8c","system_id":"levelo_inurba_marseille","lat":43.29026,"lon":5.38653,"is_reserved":false,"is_disabled":false,"rental_uris":{"android":"levelo://app?vid=d6f719e8-038b-4b2e-89f0-47ed338bbd8c","ios":"levelo://app?vid=d6f719e8-038b-4b2e-89f0-47ed338bbd8c"},"vehicle_type_id":"4","last_reported":1701346420,"current_range_meters":0,"station_id":"","pricing_plan_id":"free"},{"bike_id":"3f6eaa20-4eaa-4e78-ba02-9f862053c1e5","system_id":"levelo_inurba_marseille","lat":43.302759,"lon":5.400793,"is_reserved":false,"is_disabled":false,"rental_uris":{"android":"levelo://app?vid=3f6eaa20-4eaa-4e78-ba02-9f862053c1e5","ios":"levelo://app?vid=3f6eaa20-4eaa-4e78-ba02-9f862053c1e5"},"vehicle_type_id":"4","last_reported":1701346420,"current_range_meters":26000,"station_id":"ce4bgvh2rcd13ifvqcs0","pricing_plan_id":"free"},{"bike_id":"d8dc1f68-a85f-458a-815f-74a4a17484c8","system_id":"levelo_inurba_marseille","lat":43.287185,"lon":5.379373,"is_reserved":false,"is_disabled":false,"rental_uris":{"android":"levelo://app?vid=d8dc1f68-a85f-458a-815f-74a4a17484c8","ios":"levelo://app?vid=d8dc1f68-a85f-458a-815f-74a4a17484c8"},"vehicle_type_id":"4","last_reported":1701346420,"current_range_meters":17200,"station_id":"ce4bh9p2rcd13ifvqec0","pricing_plan_id":"free"},{"bike_id":"efbeb7b5-dc43-407d-aef1-8d6a73e7e90f","system_id":"levelo_inurba_marseille","lat":43.29197,"lon":5.39324,"is_reserved":false,"is_disabled":false,"rental_uris":{"android":"levelo://app?vid=efbeb7b5-dc43-407d-aef1-8d6a73e7e90f","ios":"levelo://app?vid=efbeb7b5-dc43-407d-aef1-8d6a73e7e90f"},"vehicle_type_id":"4","last_reported":1701346420,"current_range_meters":17600,"station_id":"ce4bh192rcd13ifvqdd0","pricing_plan_id":"free"},{"bike_id":"b3d2d109-8dd7-4e35-bc94-c4f739203de9","system_id":"levelo_inurba_marseille","lat":43.2919,"lon":5.39328,"is_reserved":false,"is_disabled":false,"rental_uris":{"android":"levelo://app?vid=b3d2d109-8dd7-4e35-bc94-c4f739203de9","ios":"levelo://app?vid=b3d2d109-8dd7-4e35-bc94-c4f739203de9"},"vehicle_type_id":"4","last_reported":1701346420,"current_range_meters":11200,"station_id":"ce4bh192rcd13ifvqdd0","pricing_plan_id":"free"},{"bike_id":"7b895baf-beea-4ba9-8e82-2e1b4fa86810","system_id":"levelo_inurba_marseille","lat":43.294314,"lon":5.397498,"is_reserved":false,"is_disabled":false,"rental_uris":{"android":"levelo://app?vid=7b895baf-beea-4ba9-8e82-2e1b4fa86810","ios":"levelo://app?vid=7b895baf-beea-4ba9-8e82-2e1b4fa86810"},"vehicle_type_id":"4","last_reported":1701346420,"current_range_meters":25200,"station_id":"ce4bh3h2rcd13ifvqdo0","pricing_plan_id":"free"},{"bike_id":"a0e9bc77-d263-44c4-b24f-fc73bed58130","system_id":"levelo_inurba_marseille","lat":43.28613,"lon":5.351125,"is_reserved":false,"is_disabled":false,"rental_uris":{"android":"levelo://app?vid=a0e9bc77-d263-44c4-b24f-fc73bed58130","ios":"levelo://app?vid=a0e9bc77-d263-44c4-b24f-fc73bed58130"},"vehicle_type_id":"4","last_reported":1701346420,"current_range_meters":12000,"station_id":"ce4bhch2rcd13ifvqeug","pricing_plan_id":"free"},{"bike_id":"70347d79-37ca-490e-b76e-3bdf0781db63","system_id":"levelo_inurba_marseille","lat":43.285856,"lon":5.350771,"is_reserved":false,"is_disabled":false,"rental_uris":{"android":"levelo://app?vid=70347d79-37ca-490e-b76e-3bdf0781db63","ios":"levelo://app?vid=70347d79-37ca-490e-b76e-3bdf0781db63"},"vehicle_type_id":"4","last_reported":1701346420,"current_range_meters":3200,"station_id":"ce4bhch2rcd13ifvqeug","pricing_plan_id":"free"},{"bike_id":"0c230e74-55ec-406a-a651-bd433bf423e1","system_id":"levelo_inurba_marseille","lat":43.285848,"lon":5.350787,"is_reserved":false,"is_disabled":false,"rental_uris":{"android":"levelo://app?vid=0c230e74-55ec-406a-a651-bd433bf423e1","ios":"levelo://app?vid=0c230e74-55ec-406a-a651-bd433bf423e1"},"vehicle_type_id":"4","last_reported":1701346420,"current_range_meters":26000,"station_id":"ce4bhch2rcd13ifvqeug","pricing_plan_id":"free"},{"bike_id":"7493b29a-8609-45fe-997d-92c72b2fe7e2","system_id":"levelo_inurba_marseille","lat":43.283998,"lon":5.375062,"is_reserved":false,"is_disabled":false,"rental_uris":{"android":"levelo://app?vid=7493b29a-8609-45fe-997d-92c72b2fe7e2","ios":"levelo://app?vid=7493b29a-8609-45fe-997d-92c72b2fe7e2"},"vehicle_type_id":"4","last_reported":1701346420,"current_range_meters":19600,"station_id":"ce4bh412rcd13ifvqds0","pricing_plan_id":"free"},{"bike_id":"f7da3cea-a25e-48d5-b27a-7be49e28cf10","system_id":"levelo_inurba_marseille","lat":43.267966,"lon":5.393976,"is_reserved":false,"is_disabled":false,"rental_uris":{"android":"levelo://app?vid=f7da3cea-a25e-48d5-b27a-7be49e28cf10","ios":"levelo://app?vid=f7da3cea-a25e-48d5-b27a-7be49e28cf10"},"vehicle_type_id":"4","last_reported":1701346420,"current_range_meters":0,"station_id":"ce4bhh12rcd13ifvqfg0","pricing_plan_id":"free"},{"bike_id":"139d20b0-887e-4861-8fc7-21371d349bd4","system_id":"levelo_inurba_marseille","lat":43.319179,"lon":5.407725,"is_reserved":false,"is_disabled":false,"rental_uris":{"android":"levelo://app?vid=139d20b0-887e-4861-8fc7-21371d349bd4","ios":"levelo://app?vid=139d20b0-887e-4861-8fc7-21371d349bd4"},"vehicle_type_id":"4","last_reported":1701346420,"current_range_meters":25200,"station_id":"ce4bhq12rcd13ifvqhig","pricing_plan_id":"free"},{"bike_id":"84132732-d5c2-4549-b3ed-7c713f6d4431","system_id":"levelo_inurba_marseille","lat":43.323464,"lon":5.406297,"is_reserved":false,"is_disabled":false,"rental_uris":{"android":"levelo://app?vid=84132732-d5c2-4549-b3ed-7c713f6d4431","ios":"levelo://app?vid=84132732-d5c2-4549-b3ed-7c713f6d4431"},"vehicle_type_id":"4","last_reported":1701346420,"current_range_meters":8000,"station_id":"ce4bhq92rcd13ifvqhjg","pricing_plan_id":"free"},{"bike_id":"9b97ae4a-8fb7-4dfd-a731-5f427c0c0b64","system_id":"levelo_inurba_marseille","lat":43.283498,"lon":5.380948,"is_reserved":false,"is_disabled":false,"rental_uris":{"android":"levelo://app?vid=9b97ae4a-8fb7-4dfd-a731-5f427c0c0b64","ios":"levelo://app?vid=9b97ae4a-8fb7-4dfd-a731-5f427c0c0b64"},"vehicle_type_id":"4","last_reported":1701346420,"current_range_meters":16000,"station_id":"ce4bh412rcd13ifvqdr0","pricing_plan_id":"free"},{"bike_id":"6bf6fff8-150e-4aae-b8e2-a2181a17001a","system_id":"levelo_inurba_marseille","lat":43.283494,"lon":5.380945,"is_reserved":false,"is_disabled":false,"rental_uris":{"android":"levelo://app?vid=6bf6fff8-150e-4aae-b8e2-a2181a17001a","ios":"levelo://app?vid=6bf6fff8-150e-4aae-b8e2-a2181a17001a"},"vehicle_type_id":"4","last_reported":1701346420,"current_range_meters":6800,"station_id":"ce4bh412rcd13ifvqdr0","pricing_plan_id":"free"},{"bike_id":"322336b1-3d50-4121-8561-7c4c13634c0f","system_id":"levelo_inurba_marseille","lat":43.289363,"lon":5.396322,"is_reserved":false,"is_disabled":false,"rental_uris":{"android":"levelo://app?vid=322336b1-3d50-4121-8561-7c4c13634c0f","ios":"levelo://app?vid=322336b1-3d50-4121-8561-7c4c13634c0f"},"vehicle_type_id":"4","last_reported":1701346420,"current_range_meters":29600,"station_id":"ce4bh3h2rcd13ifvqdn0","pricing_plan_id":"free"},{"bike_id":"13ab5d66-5d62-4445-ac1a-0b5408cd0905","system_id":"levelo_inurba_marseille","lat":43.292724,"lon":5.401131,"is_reserved":false,"is_disabled":false,"rental_uris":{"android":"levelo://app?vid=13ab5d66-5d62-4445-ac1a-0b5408cd0905","ios":"levelo://app?vid=13ab5d66-5d62-4445-ac1a-0b5408cd0905"},"vehicle_type_id":"4","last_reported":1701346420,"current_range_meters":16800,"station_id":"ce4bh312rcd13ifvqdk0","pricing_plan_id":"free"},{"bike_id":"c1b42653-4165-4eb8-b1da-2680d58631a1","system_id":"levelo_inurba_marseille","lat":43.282754,"lon":5.350519,"is_reserved":false,"is_disabled":false,"rental_uris":{"android":"levelo://app?vid=c1b42653-4165-4eb8-b1da-2680d58631a1","ios":"levelo://app?vid=c1b42653-4165-4eb8-b1da-2680d58631a1"},"vehicle_type_id":"4","last_reported":1701346420,"current_range_meters":0,"station_id":"ce4bhbp2rcd13ifvqerg","pricing_plan_id":"free"},{"bike_id":"b89b9ba6-8d7d-4dcc-a771-97d1e3a4bfd7","system_id":"levelo_inurba_marseille","lat":43.28039,"lon":5.369297,"is_reserved":false,"is_disabled":false,"rental_uris":{"android":"levelo://app?vid=b89b9ba6-8d7d-4dcc-a771-97d1e3a4bfd7","ios":"levelo://app?vid=b89b9ba6-8d7d-4dcc-a771-97d1e3a4bfd7"},"vehicle_type_id":"4","last_reported":1701346420,"current_range_meters":11600,"station_id":"ce4bha12rcd13ifvqef0","pricing_plan_id":"free"},{"bike_id":"6344110a-e9ff-461b-8245-466ff9b16a99","system_id":"levelo_inurba_marseille","lat":43.280382,"lon":5.369291,"is_reserved":false,"is_disabled":false,"rental_uris":{"android":"levelo://app?vid=6344110a-e9ff-461b-8245-466ff9b16a99","ios":"levelo://app?vid=6344110a-e9ff-461b-8245-466ff9b16a99"},"vehicle_type_id":"4","last_reported":1701346420,"current_range_meters":30000,"station_id":"ce4bha12rcd13ifvqef0","pricing_plan_id":"free"},{"bike_id":"60a427e2-8b21-45c5-ace0-895608476e0b","system_id":"levelo_inurba_marseille","lat":43.292724,"lon":5.401131,"is_reserved":false,"is_disabled":false,"rental_uris":{"android":"levelo://app?vid=60a427e2-8b21-45c5-ace0-895608476e0b","ios":"levelo://app?vid=60a427e2-8b21-45c5-ace0-895608476e0b"},"vehicle_type_id":"4","last_reported":1701346420,"current_range_meters":10000,"station_id":"ce4bh312rcd13ifvqdk0","pricing_plan_id":"free"},{"bike_id":"c9838a5d-c3c3-41f6-8d8a-25a62ab07dbc","system_id":"levelo_inurba_marseille","lat":43.29041,"lon":5.399634,"is_reserved":false,"is_disabled":false,"rental_uris":{"android":"levelo://app?vid=c9838a5d-c3c3-41f6-8d8a-25a62ab07dbc","ios":"levelo://app?vid=c9838a5d-c3c3-41f6-8d8a-25a62ab07dbc"},"vehicle_type_id":"4","last_reported":1701346420,"current_range_meters":21600,"station_id":"ce4bh392rcd13ifvqdm0","pricing_plan_id":"free"},{"bike_id":"e8d321fb-de52-443c-b54b-55a2c834d6c9","system_id":"levelo_inurba_marseille","lat":43.290412,"lon":5.399633,"is_reserved":false,"is_disabled":false,"rental_uris":{"android":"levelo://app?vid=e8d321fb-de52-443c-b54b-55a2c834d6c9","ios":"levelo://app?vid=e8d321fb-de52-443c-b54b-55a2c834d6c9"},"vehicle_type_id":"4","last_reported":1701346420,"current_range_meters":29600,"station_id":"ce4bh392rcd13ifvqdm0","pricing_plan_id":"free"},{"bike_id":"29c0158a-8cdb-4db8-b494-3d120ce4d0fc","system_id":"levelo_inurba_marseille","lat":43.281044,"lon":5.378308,"is_reserved":false,"is_disabled":false,"rental_uris":{"android":"levelo://app?vid=29c0158a-8cdb-4db8-b494-3d120ce4d0fc","ios":"levelo://app?vid=29c0158a-8cdb-4db8-b494-3d120ce4d0fc"},"vehicle_type_id":"4","last_reported":1701346420,"current_range_meters":16800,"station_id":"ce4bha12rcd13ifvqee0","pricing_plan_id":"free"},{"bike_id":"258ed5b9-b367-4467-a1c1-d9a36fe82a12","system_id":"levelo_inurba_marseille","lat":43.296263,"lon":5.40601,"is_reserved":false,"is_disabled":false,"rental_uris":{"android":"levelo://app?vid=258ed5b9-b367-4467-a1c1-d9a36fe82a12","ios":"levelo://app?vid=258ed5b9-b367-4467-a1c1-d9a36fe82a12"},"vehicle_type_id":"4","last_reported":1701346420,"current_range_meters":31200,"station_id":"ce4bh0h2rcd13ifvqd60","pricing_plan_id":"free"},{"bike_id":"fb622afb-ed1e-40da-a106-092f119bfc55","system_id":"levelo_inurba_marseille","lat":43.296263,"lon":5.40601,"is_reserved":false,"is_disabled":false,"rental_uris":{"android":"levelo://app?vid=fb622afb-ed1e-40da-a106-092f119bfc55","ios":"levelo://app?vid=fb622afb-ed1e-40da-a106-092f119bfc55"},"vehicle_type_id":"4","last_reported":1701346420,"current_range_meters":26800,"station_id":"ce4bh0h2rcd13ifvqd60","pricing_plan_id":"free"},{"bike_id":"6e87ef1b-74b6-4b3b-ba73-260300afec07","system_id":"levelo_inurba_marseille","lat":43.281044,"lon":5.378308,"is_reserved":false,"is_disabled":false,"rental_uris":{"android":"levelo://app?vid=6e87ef1b-74b6-4b3b-ba73-260300afec07","ios":"levelo://app?vid=6e87ef1b-74b6-4b3b-ba73-260300afec07"},"vehicle_type_id":"4","last_reported":1701346420,"current_range_meters":6800,"station_id":"ce4bha12rcd13ifvqee0","pricing_plan_id":"free"},{"bike_id":"29fe2c43-95a6-499e-b20a-cb240ff0233c","system_id":"levelo_inurba_marseille","lat":43.296263,"lon":5.40601,"is_reserved":false,"is_disabled":false,"rental_uris":{"android":"levelo://app?vid=29fe2c43-95a6-499e-b20a-cb240ff0233c","ios":"levelo://app?vid=29fe2c43-95a6-499e-b20a-cb240ff0233c"},"vehicle_type_id":"4","last_reported":1701346420,"current_range_meters":20400,"station_id":"ce4bh0h2rcd13ifvqd60","pricing_plan_id":"free"},{"bike_id":"0fdf4870-081c-46b5-8fd2-f5ada8115902","system_id":"levelo_inurba_marseille","lat":43.281044,"lon":5.378308,"is_reserved":false,"is_disabled":false,"rental_uris":{"android":"levelo://app?vid=0fdf4870-081c-46b5-8fd2-f5ada8115902","ios":"levelo://app?vid=0fdf4870-081c-46b5-8fd2-f5ada8115902"},"vehicle_type_id":"4","last_reported":1701346420,"current_range_meters":13200,"station_id":"ce4bha12rcd13ifvqee0","pricing_plan_id":"free"},{"bike_id":"f58e675e-031b-46f4-af6c-a27c3b175066","system_id":"levelo_inurba_marseille","lat":43.284317,"lon":5.391844,"is_reserved":false,"is_disabled":false,"rental_uris":{"android":"levelo://app?vid=f58e675e-031b-46f4-af6c-a27c3b175066","ios":"levelo://app?vid=f58e675e-031b-46f4-af6c-a27c3b175066"},"vehicle_type_id":"4","last_reported":1701346420,"current_range_meters":3600,"station_id":"ce4bhoh2rcd13ifvqh5g","pricing_plan_id":"free"},{"bike_id":"c698eb94-382c-42ed-a8f9-a0353bd0fbc7","system_id":"levelo_inurba_marseille","lat":43.279087,"lon":5.380114,"is_reserved":false,"is_disabled":false,"rental_uris":{"android":"levelo://app?vid=c698eb94-382c-42ed-a8f9-a0353bd0fbc7","ios":"levelo://app?vid=c698eb94-382c-42ed-a8f9-a0353bd0fbc7"},"vehicle_type_id":"4","last_reported":1701346420,"current_range_meters":13200,"station_id":"ce4bhf92rcd13ifvqf50","pricing_plan_id":"free"},{"bike_id":"057c8a3b-1a43-4293-ada9-3faf6b8b913e","system_id":"levelo_inurba_marseille","lat":43.292618,"lon":5.409096,"is_reserved":false,"is_disabled":false,"rental_uris":{"android":"levelo://app?vid=057c8a3b-1a43-4293-ada9-3faf6b8b913e","ios":"levelo://app?vid=057c8a3b-1a43-4293-ada9-3faf6b8b913e"},"vehicle_type_id":"4","last_reported":1701346420,"current_range_meters":14000,"station_id":"","pricing_plan_id":"free"},{"bike_id":"f23c819e-4e63-48d3-bd73-e9c7554c54bc","system_id":"levelo_inurba_marseille","lat":43.292571,"lon":5.409107,"is_reserved":false,"is_disabled":false,"rental_uris":{"android":"levelo://app?vid=f23c819e-4e63-48d3-bd73-e9c7554c54bc","ios":"levelo://app?vid=f23c819e-4e63-48d3-bd73-e9c7554c54bc"},"vehicle_type_id":"4","last_reported":1701346420,"current_range_meters":30400,"station_id":"ce4bh192rcd13ifvqdc0","pricing_plan_id":"free"},{"bike_id":"70c955cf-1509-4978-bd4b-aeda6f9abfce","system_id":"levelo_inurba_marseille","lat":43.28074,"lon":5.3966,"is_reserved":false,"is_disabled":false,"rental_uris":{"android":"levelo://app?vid=70c955cf-1509-4978-bd4b-aeda6f9abfce","ios":"levelo://app?vid=70c955cf-1509-4978-bd4b-aeda6f9abfce"},"vehicle_type_id":"4","last_reported":1701346420,"current_range_meters":19600,"station_id":"ce4bho12rcd13ifvqh2g","pricing_plan_id":"free"},{"bike_id":"52934fab-ddf7-4654-8872-eda2b04cb253","system_id":"levelo_inurba_marseille","lat":43.27377,"lon":5.36254,"is_reserved":false,"is_disabled":false,"rental_uris":{"android":"levelo://app?vid=52934fab-ddf7-4654-8872-eda2b04cb253","ios":"levelo://app?vid=52934fab-ddf7-4654-8872-eda2b04cb253"},"vehicle_type_id":"4","last_reported":1701346420,"current_range_meters":0,"station_id":"ce4bhbh2rcd13ifvqeo0","pricing_plan_id":"free"},{"bike_id":"d75503ed-0214-40c9-9192-4757a57f26cd","system_id":"levelo_inurba_marseille","lat":43.273613,"lon":5.362705,"is_reserved":false,"is_disabled":false,"rental_uris":{"android":"levelo://app?vid=d75503ed-0214-40c9-9192-4757a57f26cd","ios":"levelo://app?vid=d75503ed-0214-40c9-9192-4757a57f26cd"},"vehicle_type_id":"4","last_reported":1701346420,"current_range_meters":3200,"station_id":"ce4bhbh2rcd13ifvqeo0","pricing_plan_id":"free"},{"bike_id":"a209a9a0-4b24-4c30-a386-b067b767ad00","system_id":"levelo_inurba_marseille","lat":43.275625,"lon":5.384392,"is_reserved":false,"is_disabled":false,"rental_uris":{"android":"levelo://app?vid=a209a9a0-4b24-4c30-a386-b067b767ad00","ios":"levelo://app?vid=a209a9a0-4b24-4c30-a386-b067b767ad00"},"vehicle_type_id":"4","last_reported":1701346420,"current_range_meters":19600,"station_id":"ce4bhh92rcd13ifvqfi0","pricing_plan_id":"free"},{"bike_id":"ef193d76-4bd3-47c7-8d7b-7dd00a9428b6","system_id":"levelo_inurba_marseille","lat":43.340804,"lon":5.410219,"is_reserved":false,"is_disabled":false,"rental_uris":{"android":"levelo://app?vid=ef193d76-4bd3-47c7-8d7b-7dd00a9428b6","ios":"levelo://app?vid=ef193d76-4bd3-47c7-8d7b-7dd00a9428b6"},"vehicle_type_id":"4","last_reported":1701346420,"current_range_meters":4800,"station_id":"ce4bhqh2rcd13ifvqhlg","pricing_plan_id":"free"},{"bike_id":"940ea296-2f44-4a09-a212-fcdd808e62e5","system_id":"levelo_inurba_marseille","lat":43.304096,"lon":5.425385,"is_reserved":false,"is_disabled":false,"rental_uris":{"android":"levelo://app?vid=940ea296-2f44-4a09-a212-fcdd808e62e5","ios":"levelo://app?vid=940ea296-2f44-4a09-a212-fcdd808e62e5"},"vehicle_type_id":"4","last_reported":1701346420,"current_range_meters":27200,"station_id":"ce4bhoh2rcd13ifvqh6g","pricing_plan_id":"free"},{"bike_id":"7335a393-cc37-4e1d-b729-82d3cd0e69fb","system_id":"levelo_inurba_marseille","lat":43.29517,"lon":5.422587,"is_reserved":false,"is_disabled":false,"rental_uris":{"android":"levelo://app?vid=7335a393-cc37-4e1d-b729-82d3cd0e69fb","ios":"levelo://app?vid=7335a393-cc37-4e1d-b729-82d3cd0e69fb"},"vehicle_type_id":"4","last_reported":1701346420,"current_range_meters":20400,"station_id":"ce4bhph2rcd13ifvqhdg","pricing_plan_id":"free"},{"bike_id":"ff8f89e2-08b1-4745-b6aa-0580c5a1c61f","system_id":"levelo_inurba_marseille","lat":43.295511,"lon":5.422926,"is_reserved":false,"is_disabled":false,"rental_uris":{"android":"levelo://app?vid=ff8f89e2-08b1-4745-b6aa-0580c5a1c61f","ios":"levelo://app?vid=ff8f89e2-08b1-4745-b6aa-0580c5a1c61f"},"vehicle_type_id":"4","last_reported":1701346420,"current_range_meters":9200,"station_id":"ce4bhph2rcd13ifvqhdg","pricing_plan_id":"free"},{"bike_id":"ff850d8b-6b13-4494-bd9d-e33330617fc9","system_id":"levelo_inurba_marseille","lat":43.278128,"lon":5.407195,"is_reserved":false,"is_disabled":false,"rental_uris":{"android":"levelo://app?vid=ff850d8b-6b13-4494-bd9d-e33330617fc9","ios":"levelo://app?vid=ff850d8b-6b13-4494-bd9d-e33330617fc9"},"vehicle_type_id":"4","last_reported":1701346420,"current_range_meters":28400,"station_id":"ce4bhnh2rcd13ifvqgtg","pricing_plan_id":"free"},{"bike_id":"0d39329f-db68-470b-b8d6-67a09e26b6dc","system_id":"levelo_inurba_marseille","lat":43.269467,"lon":5.386439,"is_reserved":false,"is_disabled":false,"rental_uris":{"android":"levelo://app?vid=0d39329f-db68-470b-b8d6-67a09e26b6dc","ios":"levelo://app?vid=0d39329f-db68-470b-b8d6-67a09e26b6dc"},"vehicle_type_id":"4","last_reported":1701346420,"current_range_meters":15600,"station_id":"ce4bhh92rcd13ifvqfh0","pricing_plan_id":"free"},{"bike_id":"a9f96f01-37a3-4e6a-b713-5af00e4649fd","system_id":"levelo_inurba_marseille","lat":43.269467,"lon":5.386439,"is_reserved":false,"is_disabled":false,"rental_uris":{"android":"levelo://app?vid=a9f96f01-37a3-4e6a-b713-5af00e4649fd","ios":"levelo://app?vid=a9f96f01-37a3-4e6a-b713-5af00e4649fd"},"vehicle_type_id":"4","last_reported":1701346420,"current_range_meters":17600,"station_id":"ce4bhh92rcd13ifvqfh0","pricing_plan_id":"free"},{"bike_id":"3d5f8c4a-368e-47de-b91c-416acbbcc284","system_id":"levelo_inurba_marseille","lat":43.279465,"lon":5.410561,"is_reserved":false,"is_disabled":false,"rental_uris":{"android":"levelo://app?vid=3d5f8c4a-368e-47de-b91c-416acbbcc284","ios":"levelo://app?vid=3d5f8c4a-368e-47de-b91c-416acbbcc284"},"vehicle_type_id":"4","last_reported":1701346420,"current_range_meters":11600,"station_id":"ce4bhnp2rcd13ifvqh0g","pricing_plan_id":"free"},{"bike_id":"26e25efa-f49d-4fe1-88ef-a43f2b89229b","system_id":"levelo_inurba_marseille","lat":43.26558,"lon":5.37281,"is_reserved":false,"is_disabled":false,"rental_uris":{"android":"levelo://app?vid=26e25efa-f49d-4fe1-88ef-a43f2b89229b","ios":"levelo://app?vid=26e25efa-f49d-4fe1-88ef-a43f2b89229b"},"vehicle_type_id":"4","last_reported":1701346420,"current_range_meters":22400,"station_id":"ce4bhg12rcd13ifvqf70","pricing_plan_id":"free"},{"bike_id":"584bd308-0693-4678-a764-7bc342ec32b4","system_id":"levelo_inurba_marseille","lat":43.267966,"lon":5.393976,"is_reserved":false,"is_disabled":false,"rental_uris":{"android":"levelo://app?vid=584bd308-0693-4678-a764-7bc342ec32b4","ios":"levelo://app?vid=584bd308-0693-4678-a764-7bc342ec32b4"},"vehicle_type_id":"4","last_reported":1701346420,"current_range_meters":20800,"station_id":"ce4bhh12rcd13ifvqfg0","pricing_plan_id":"free"},{"bike_id":"2f142561-e7f9-4b82-a84a-06284ded7cba","system_id":"levelo_inurba_marseille","lat":43.27996,"lon":5.416624,"is_reserved":false,"is_disabled":false,"rental_uris":{"android":"levelo://app?vid=2f142561-e7f9-4b82-a84a-06284ded7cba","ios":"levelo://app?vid=2f142561-e7f9-4b82-a84a-06284ded7cba"},"vehicle_type_id":"4","last_reported":1701346420,"current_range_meters":16800,"station_id":"ce4bho12rcd13ifvqh1g","pricing_plan_id":"free"},{"bike_id":"9eb74e05-8712-48eb-84e9-f35d454788e0","system_id":"levelo_inurba_marseille","lat":43.267959,"lon":5.402685,"is_reserved":false,"is_disabled":false,"rental_uris":{"android":"levelo://app?vid=9eb74e05-8712-48eb-84e9-f35d454788e0","ios":"levelo://app?vid=9eb74e05-8712-48eb-84e9-f35d454788e0"},"vehicle_type_id":"4","last_reported":1701346420,"current_range_meters":19600,"station_id":"ce501612rcd8frsf0b60","pricing_plan_id":"free"},{"bike_id":"4f5fe813-8935-4e78-9631-5e3e105a868a","system_id":"levelo_inurba_marseille","lat":43.281548,"lon":5.42643,"is_reserved":false,"is_disabled":false,"rental_uris":{"android":"levelo://app?vid=4f5fe813-8935-4e78-9631-5e3e105a868a","ios":"levelo://app?vid=4f5fe813-8935-4e78-9631-5e3e105a868a"},"vehicle_type_id":"4","last_reported":1701346420,"current_range_meters":26800,"station_id":"ce4bhnh2rcd13ifvqgug","pricing_plan_id":"free"},{"bike_id":"3a3a158e-e448-4aea-9204-f9245ee3113f","system_id":"levelo_inurba_marseille","lat":43.281548,"lon":5.42643,"is_reserved":false,"is_disabled":false,"rental_uris":{"android":"levelo://app?vid=3a3a158e-e448-4aea-9204-f9245ee3113f","ios":"levelo://app?vid=3a3a158e-e448-4aea-9204-f9245ee3113f"},"vehicle_type_id":"4","last_reported":1701346420,"current_range_meters":5200,"station_id":"ce4bhnh2rcd13ifvqgug","pricing_plan_id":"free"},{"bike_id":"797ae937-73b0-4a96-b6e3-262c31da2bed","system_id":"levelo_inurba_marseille","lat":43.275028,"lon":5.424534,"is_reserved":false,"is_disabled":false,"rental_uris":{"android":"levelo://app?vid=797ae937-73b0-4a96-b6e3-262c31da2bed","ios":"levelo://app?vid=797ae937-73b0-4a96-b6e3-262c31da2bed"},"vehicle_type_id":"4","last_reported":1701346420,"current_range_meters":8400,"station_id":"ce4bhn92rcd13ifvqgrg","pricing_plan_id":"free"},{"bike_id":"3356f29e-ae4b-45d9-b165-b48ebc182256","system_id":"levelo_inurba_marseille","lat":43.275028,"lon":5.424534,"is_reserved":false,"is_disabled":false,"rental_uris":{"android":"levelo://app?vid=3356f29e-ae4b-45d9-b165-b48ebc182256","ios":"levelo://app?vid=3356f29e-ae4b-45d9-b165-b48ebc182256"},"vehicle_type_id":"4","last_reported":1701346420,"current_range_meters":10000,"station_id":"ce4bhn92rcd13ifvqgrg","pricing_plan_id":"free"},{"bike_id":"a0ad5954-4678-4ed0-a699-84d1b14aeda3","system_id":"levelo_inurba_marseille","lat":43.27483,"lon":5.42453,"is_reserved":false,"is_disabled":false,"rental_uris":{"android":"levelo://app?vid=a0ad5954-4678-4ed0-a699-84d1b14aeda3","ios":"levelo://app?vid=a0ad5954-4678-4ed0-a699-84d1b14aeda3"},"vehicle_type_id":"4","last_reported":1701346420,"current_range_meters":8400,"station_id":"ce4bhn92rcd13ifvqgrg","pricing_plan_id":"free"},{"bike_id":"ae6a23ea-ee31-45f5-b93a-58394a56c974","system_id":"levelo_inurba_marseille","lat":43.25575,"lon":5.38227,"is_reserved":false,"is_disabled":false,"rental_uris":{"android":"levelo://app?vid=ae6a23ea-ee31-45f5-b93a-58394a56c974","ios":"levelo://app?vid=ae6a23ea-ee31-45f5-b93a-58394a56c974"},"vehicle_type_id":"4","last_reported":1701346420,"current_range_meters":6000,"station_id":"ce4bhih2rcd13ifvqfs0","pricing_plan_id":"free"},{"bike_id":"b877e3a3-4277-4538-9adf-cc56df947b29","system_id":"levelo_inurba_marseille","lat":43.25574,"lon":5.38232,"is_reserved":false,"is_disabled":false,"rental_uris":{"android":"levelo://app?vid=b877e3a3-4277-4538-9adf-cc56df947b29","ios":"levelo://app?vid=b877e3a3-4277-4538-9adf-cc56df947b29"},"vehicle_type_id":"4","last_reported":1701346420,"current_range_meters":17200,"station_id":"ce4bhih2rcd13ifvqfs0","pricing_plan_id":"free"},{"bike_id":"090bc588-fe12-4d79-9254-dde58d635cd3","system_id":"levelo_inurba_marseille","lat":43.25573,"lon":5.38228,"is_reserved":false,"is_disabled":false,"rental_uris":{"android":"levelo://app?vid=090bc588-fe12-4d79-9254-dde58d635cd3","ios":"levelo://app?vid=090bc588-fe12-4d79-9254-dde58d635cd3"},"vehicle_type_id":"4","last_reported":1701346420,"current_range_meters":22400,"station_id":"ce4bhih2rcd13ifvqfs0","pricing_plan_id":"free"},{"bike_id":"a1ebfa61-9a00-42cf-bbdb-acd444ebb328","system_id":"levelo_inurba_marseille","lat":43.258224,"lon":5.394369,"is_reserved":false,"is_disabled":false,"rental_uris":{"android":"levelo://app?vid=a1ebfa61-9a00-42cf-bbdb-acd444ebb328","ios":"levelo://app?vid=a1ebfa61-9a00-42cf-bbdb-acd444ebb328"},"vehicle_type_id":"4","last_reported":1701346420,"current_range_meters":20400,"station_id":"ce4bhip2rcd13ifvqft0","pricing_plan_id":"free"},{"bike_id":"94bc82a4-18b9-4058-a7e7-a759fdbfc051","system_id":"levelo_inurba_marseille","lat":43.254947,"lon":5.376454,"is_reserved":false,"is_disabled":false,"rental_uris":{"android":"levelo://app?vid=94bc82a4-18b9-4058-a7e7-a759fdbfc051","ios":"levelo://app?vid=94bc82a4-18b9-4058-a7e7-a759fdbfc051"},"vehicle_type_id":"4","last_reported":1701346420,"current_range_meters":29600,"station_id":"ce4bhh12rcd13ifvqff0","pricing_plan_id":"free"},{"bike_id":"072735fc-7166-45e4-ab1b-a3fa626d7d29","system_id":"levelo_inurba_marseille","lat":43.254945,"lon":5.376454,"is_reserved":false,"is_disabled":false,"rental_uris":{"android":"levelo://app?vid=072735fc-7166-45e4-ab1b-a3fa626d7d29","ios":"levelo://app?vid=072735fc-7166-45e4-ab1b-a3fa626d7d29"},"vehicle_type_id":"4","last_reported":1701346420,"current_range_meters":22800,"station_id":"ce4bhh12rcd13ifvqff0","pricing_plan_id":"free"},{"bike_id":"ce4a8b89-5467-4175-a7e0-4caeff86e402","system_id":"levelo_inurba_marseille","lat":43.270721,"lon":5.422764,"is_reserved":false,"is_disabled":false,"rental_uris":{"android":"levelo://app?vid=ce4a8b89-5467-4175-a7e0-4caeff86e402","ios":"levelo://app?vid=ce4a8b89-5467-4175-a7e0-4caeff86e402"},"vehicle_type_id":"4","last_reported":1701346420,"current_range_meters":30800,"station_id":"ce4bhk92rcd13ifvqgb0","pricing_plan_id":"free"},{"bike_id":"8a07c10e-58d8-480b-ac33-fcd6e26cdb24","system_id":"levelo_inurba_marseille","lat":43.270721,"lon":5.422764,"is_reserved":false,"is_disabled":false,"rental_uris":{"android":"levelo://app?vid=8a07c10e-58d8-480b-ac33-fcd6e26cdb24","ios":"levelo://app?vid=8a07c10e-58d8-480b-ac33-fcd6e26cdb24"},"vehicle_type_id":"4","last_reported":1701346420,"current_range_meters":30400,"station_id":"ce4bhk92rcd13ifvqgb0","pricing_plan_id":"free"},{"bike_id":"0bfa831d-c154-44c8-bf08-0af5df864f43","system_id":"levelo_inurba_marseille","lat":43.258658,"lon":5.398935,"is_reserved":false,"is_disabled":false,"rental_uris":{"android":"levelo://app?vid=0bfa831d-c154-44c8-bf08-0af5df864f43","ios":"levelo://app?vid=0bfa831d-c154-44c8-bf08-0af5df864f43"},"vehicle_type_id":"4","last_reported":1701346420,"current_range_meters":22800,"station_id":"ce4bhl92rcd13ifvqghg","pricing_plan_id":"free"},{"bike_id":"22499d14-cb2e-427a-b5d1-03f78641cd20","system_id":"levelo_inurba_marseille","lat":43.257079,"lon":5.411051,"is_reserved":false,"is_disabled":false,"rental_uris":{"android":"levelo://app?vid=22499d14-cb2e-427a-b5d1-03f78641cd20","ios":"levelo://app?vid=22499d14-cb2e-427a-b5d1-03f78641cd20"},"vehicle_type_id":"4","last_reported":1701346420,"current_range_meters":10000,"station_id":"ce4bhkp2rcd13ifvqgd0","pricing_plan_id":"free"},{"bike_id":"d4f9021c-ad89-46c1-83a7-86a9c9771265","system_id":"levelo_inurba_marseille","lat":43.250009,"lon":5.389195,"is_reserved":false,"is_disabled":false,"rental_uris":{"android":"levelo://app?vid=d4f9021c-ad89-46c1-83a7-86a9c9771265","ios":"levelo://app?vid=d4f9021c-ad89-46c1-83a7-86a9c9771265"},"vehicle_type_id":"4","last_reported":1701346420,"current_range_meters":0,"station_id":"ce4bhgp2rcd13ifvqfd0","pricing_plan_id":"free"},{"bike_id":"856f2952-0d85-4a71-9497-5e57411e76d2","system_id":"levelo_inurba_marseille","lat":43.250009,"lon":5.389195,"is_reserved":false,"is_disabled":false,"rental_uris":{"android":"levelo://app?vid=856f2952-0d85-4a71-9497-5e57411e76d2","ios":"levelo://app?vid=856f2952-0d85-4a71-9497-5e57411e76d2"},"vehicle_type_id":"4","last_reported":1701346420,"current_range_meters":31200,"station_id":"ce4bhgp2rcd13ifvqfd0","pricing_plan_id":"free"},{"bike_id":"a6cf1f11-6f9b-4237-b29b-25de9661b1a1","system_id":"levelo_inurba_marseille","lat":43.250009,"lon":5.389195,"is_reserved":false,"is_disabled":false,"rental_uris":{"android":"levelo://app?vid=a6cf1f11-6f9b-4237-b29b-25de9661b1a1","ios":"levelo://app?vid=a6cf1f11-6f9b-4237-b29b-25de9661b1a1"},"vehicle_type_id":"4","last_reported":1701346420,"current_range_meters":19200,"station_id":"ce4bhgp2rcd13ifvqfd0","pricing_plan_id":"free"},{"bike_id":"48bee34a-4d3b-4771-8675-763384bfe122","system_id":"levelo_inurba_marseille","lat":43.250009,"lon":5.389195,"is_reserved":false,"is_disabled":false,"rental_uris":{"android":"levelo://app?vid=48bee34a-4d3b-4771-8675-763384bfe122","ios":"levelo://app?vid=48bee34a-4d3b-4771-8675-763384bfe122"},"vehicle_type_id":"4","last_reported":1701346420,"current_range_meters":26000,"station_id":"ce4bhgp2rcd13ifvqfd0","pricing_plan_id":"free"},{"bike_id":"85f01cb1-5515-46e6-9e1e-e59ba2b18d5b","system_id":"levelo_inurba_marseille","lat":43.250009,"lon":5.389195,"is_reserved":false,"is_disabled":false,"rental_uris":{"android":"levelo://app?vid=85f01cb1-5515-46e6-9e1e-e59ba2b18d5b","ios":"levelo://app?vid=85f01cb1-5515-46e6-9e1e-e59ba2b18d5b"},"vehicle_type_id":"4","last_reported":1701346420,"current_range_meters":3200,"station_id":"ce4bhgp2rcd13ifvqfd0","pricing_plan_id":"free"},{"bike_id":"c36362d3-43e6-4c44-ad57-4ea4a0ee1f5b","system_id":"levelo_inurba_marseille","lat":43.24809,"lon":5.37455,"is_reserved":false,"is_disabled":false,"rental_uris":{"android":"levelo://app?vid=c36362d3-43e6-4c44-ad57-4ea4a0ee1f5b","ios":"levelo://app?vid=c36362d3-43e6-4c44-ad57-4ea4a0ee1f5b"},"vehicle_type_id":"4","last_reported":1701346420,"current_range_meters":29200,"station_id":"ce4bhgh2rcd13ifvqfb0","pricing_plan_id":"free"},{"bike_id":"90f718ac-db15-4082-ae55-f09dd992ecfd","system_id":"levelo_inurba_marseille","lat":43.2479,"lon":5.374457,"is_reserved":false,"is_disabled":false,"rental_uris":{"android":"levelo://app?vid=90f718ac-db15-4082-ae55-f09dd992ecfd","ios":"levelo://app?vid=90f718ac-db15-4082-ae55-f09dd992ecfd"},"vehicle_type_id":"4","last_reported":1701346420,"current_range_meters":30400,"station_id":"ce4bhgh2rcd13ifvqfb0","pricing_plan_id":"free"},{"bike_id":"8ef0c053-8f63-47cb-af6f-02608d78b538","system_id":"levelo_inurba_marseille","lat":43.250966,"lon":5.395186,"is_reserved":false,"is_disabled":false,"rental_uris":{"android":"levelo://app?vid=8ef0c053-8f63-47cb-af6f-02608d78b538","ios":"levelo://app?vid=8ef0c053-8f63-47cb-af6f-02608d78b538"},"vehicle_type_id":"4","last_reported":1701346420,"current_range_meters":20000,"station_id":"ce4bhm12rcd13ifvqgkg","pricing_plan_id":"free"},{"bike_id":"dfade778-27d4-4b18-972c-b73f892138aa","system_id":"levelo_inurba_marseille","lat":43.250966,"lon":5.395186,"is_reserved":false,"is_disabled":false,"rental_uris":{"android":"levelo://app?vid=dfade778-27d4-4b18-972c-b73f892138aa","ios":"levelo://app?vid=dfade778-27d4-4b18-972c-b73f892138aa"},"vehicle_type_id":"4","last_reported":1701346420,"current_range_meters":24000,"station_id":"ce4bhm12rcd13ifvqgkg","pricing_plan_id":"free"},{"bike_id":"0bd7c58a-0dde-4db6-bc64-73f44a14518f","system_id":"levelo_inurba_marseille","lat":43.250966,"lon":5.395186,"is_reserved":false,"is_disabled":false,"rental_uris":{"android":"levelo://app?vid=0bd7c58a-0dde-4db6-bc64-73f44a14518f","ios":"levelo://app?vid=0bd7c58a-0dde-4db6-bc64-73f44a14518f"},"vehicle_type_id":"4","last_reported":1701346420,"current_range_meters":22400,"station_id":"ce4bhm12rcd13ifvqgkg","pricing_plan_id":"free"},{"bike_id":"23d14c6b-87a0-48d1-b61c-0caf99d54cc4","system_id":"levelo_inurba_marseille","lat":43.25109,"lon":5.40319,"is_reserved":false,"is_disabled":false,"rental_uris":{"android":"levelo://app?vid=23d14c6b-87a0-48d1-b61c-0caf99d54cc4","ios":"levelo://app?vid=23d14c6b-87a0-48d1-b61c-0caf99d54cc4"},"vehicle_type_id":"4","last_reported":1701346420,"current_range_meters":400,"station_id":"ce4bhlh2rcd13ifvqgig","pricing_plan_id":"free"},{"bike_id":"13738718-44dc-425c-8cd0-c9af9f4dfa0f","system_id":"levelo_inurba_marseille","lat":43.25102,"lon":5.403214,"is_reserved":false,"is_disabled":false,"rental_uris":{"android":"levelo://app?vid=13738718-44dc-425c-8cd0-c9af9f4dfa0f","ios":"levelo://app?vid=13738718-44dc-425c-8cd0-c9af9f4dfa0f"},"vehicle_type_id":"4","last_reported":1701346420,"current_range_meters":2800,"station_id":"ce4bhlh2rcd13ifvqgig","pricing_plan_id":"free"},{"bike_id":"b8ca3d31-98ac-46c6-a0a4-80bdbe1ee550","system_id":"levelo_inurba_marseille","lat":43.246461,"lon":5.389014,"is_reserved":false,"is_disabled":false,"rental_uris":{"android":"levelo://app?vid=b8ca3d31-98ac-46c6-a0a4-80bdbe1ee550","ios":"levelo://app?vid=b8ca3d31-98ac-46c6-a0a4-80bdbe1ee550"},"vehicle_type_id":"4","last_reported":1701346420,"current_range_meters":22400,"station_id":"ce4bhg12rcd13ifvqf60","pricing_plan_id":"free"},{"bike_id":"a8c25e28-f89e-480f-9f3b-4a0ecaae5379","system_id":"levelo_inurba_marseille","lat":43.246461,"lon":5.389014,"is_reserved":false,"is_disabled":false,"rental_uris":{"android":"levelo://app?vid=a8c25e28-f89e-480f-9f3b-4a0ecaae5379","ios":"levelo://app?vid=a8c25e28-f89e-480f-9f3b-4a0ecaae5379"},"vehicle_type_id":"4","last_reported":1701346420,"current_range_meters":25200,"station_id":"ce4bhg12rcd13ifvqf60","pricing_plan_id":"free"},{"bike_id":"46274338-7531-44ee-8066-1fb7da05be34","system_id":"levelo_inurba_marseille","lat":43.243883,"lon":5.370578,"is_reserved":false,"is_disabled":false,"rental_uris":{"android":"levelo://app?vid=46274338-7531-44ee-8066-1fb7da05be34","ios":"levelo://app?vid=46274338-7531-44ee-8066-1fb7da05be34"},"vehicle_type_id":"4","last_reported":1701346420,"current_range_meters":30400,"station_id":"ce4bhnp2rcd13ifvqgvg","pricing_plan_id":"free"},{"bike_id":"8609ba6f-5dba-4e42-821c-263a41645ca4","system_id":"levelo_inurba_marseille","lat":43.243884,"lon":5.370737,"is_reserved":false,"is_disabled":false,"rental_uris":{"android":"levelo://app?vid=8609ba6f-5dba-4e42-821c-263a41645ca4","ios":"levelo://app?vid=8609ba6f-5dba-4e42-821c-263a41645ca4"},"vehicle_type_id":"4","last_reported":1701346420,"current_range_meters":18000,"station_id":"ce4bhhh2rcd13ifvqfk0","pricing_plan_id":"free"},{"bike_id":"2e159999-87b7-4bc7-a918-309c1622eb4c","system_id":"levelo_inurba_marseille","lat":43.243884,"lon":5.370737,"is_reserved":false,"is_disabled":false,"rental_uris":{"android":"levelo://app?vid=2e159999-87b7-4bc7-a918-309c1622eb4c","ios":"levelo://app?vid=2e159999-87b7-4bc7-a918-309c1622eb4c"},"vehicle_type_id":"4","last_reported":1701346420,"current_range_meters":28000,"station_id":"ce4bhhh2rcd13ifvqfk0","pricing_plan_id":"free"},{"bike_id":"2bc49007-cffd-457e-a98f-32ce73d85773","system_id":"levelo_inurba_marseille","lat":43.24387,"lon":5.37057,"is_reserved":false,"is_disabled":false,"rental_uris":{"android":"levelo://app?vid=2bc49007-cffd-457e-a98f-32ce73d85773","ios":"levelo://app?vid=2bc49007-cffd-457e-a98f-32ce73d85773"},"vehicle_type_id":"4","last_reported":1701346420,"current_range_meters":21600,"station_id":"ce4bhhh2rcd13ifvqfk0","pricing_plan_id":"free"},{"bike_id":"5e9da16a-1805-45da-bae2-e54b4625efac","system_id":"levelo_inurba_marseille","lat":43.24387,"lon":5.37059,"is_reserved":false,"is_disabled":false,"rental_uris":{"android":"levelo://app?vid=5e9da16a-1805-45da-bae2-e54b4625efac","ios":"levelo://app?vid=5e9da16a-1805-45da-bae2-e54b4625efac"},"vehicle_type_id":"4","last_reported":1701346420,"current_range_meters":16400,"station_id":"ce4bhhh2rcd13ifvqfk0","pricing_plan_id":"free"},{"bike_id":"31477cac-dad9-40da-a8f0-2b06ddb732dc","system_id":"levelo_inurba_marseille","lat":43.243884,"lon":5.370736,"is_reserved":false,"is_disabled":false,"rental_uris":{"android":"levelo://app?vid=31477cac-dad9-40da-a8f0-2b06ddb732dc","ios":"levelo://app?vid=31477cac-dad9-40da-a8f0-2b06ddb732dc"},"vehicle_type_id":"4","last_reported":1701346420,"current_range_meters":24800,"station_id":"ce4bhhh2rcd13ifvqfk0","pricing_plan_id":"free"},{"bike_id":"6d6239be-9ca4-4e23-a40c-e8cb68671c03","system_id":"levelo_inurba_marseille","lat":43.243884,"lon":5.370736,"is_reserved":false,"is_disabled":false,"rental_uris":{"android":"levelo://app?vid=6d6239be-9ca4-4e23-a40c-e8cb68671c03","ios":"levelo://app?vid=6d6239be-9ca4-4e23-a40c-e8cb68671c03"},"vehicle_type_id":"4","last_reported":1701346420,"current_range_meters":31200,"station_id":"ce4bhhh2rcd13ifvqfk0","pricing_plan_id":"free"},{"bike_id":"bcc93469-dac7-4061-b03e-a1e648dc5717","system_id":"levelo_inurba_marseille","lat":43.24385,"lon":5.37058,"is_reserved":false,"is_disabled":false,"rental_uris":{"android":"levelo://app?vid=bcc93469-dac7-4061-b03e-a1e648dc5717","ios":"levelo://app?vid=bcc93469-dac7-4061-b03e-a1e648dc5717"},"vehicle_type_id":"4","last_reported":1701346420,"current_range_meters":31200,"station_id":"ce4bhhh2rcd13ifvqfk0","pricing_plan_id":"free"},{"bike_id":"9426cf54-5de3-40a3-9325-ac2cd4e0783b","system_id":"levelo_inurba_marseille","lat":43.243884,"lon":5.370737,"is_reserved":false,"is_disabled":false,"rental_uris":{"android":"levelo://app?vid=9426cf54-5de3-40a3-9325-ac2cd4e0783b","ios":"levelo://app?vid=9426cf54-5de3-40a3-9325-ac2cd4e0783b"},"vehicle_type_id":"4","last_reported":1701346420,"current_range_meters":23200,"station_id":"ce4bhhh2rcd13ifvqfk0","pricing_plan_id":"free"},{"bike_id":"c912dfb9-b9e1-4490-ba70-4926b3071cf6","system_id":"levelo_inurba_marseille","lat":43.243884,"lon":5.370736,"is_reserved":false,"is_disabled":false,"rental_uris":{"android":"levelo://app?vid=c912dfb9-b9e1-4490-ba70-4926b3071cf6","ios":"levelo://app?vid=c912dfb9-b9e1-4490-ba70-4926b3071cf6"},"vehicle_type_id":"4","last_reported":1701346420,"current_range_meters":27200,"station_id":"ce4bhhh2rcd13ifvqfk0","pricing_plan_id":"free"},{"bike_id":"2ada2448-4297-4146-8f4d-5714674e6368","system_id":"levelo_inurba_marseille","lat":43.243884,"lon":5.370737,"is_reserved":false,"is_disabled":false,"rental_uris":{"android":"levelo://app?vid=2ada2448-4297-4146-8f4d-5714674e6368","ios":"levelo://app?vid=2ada2448-4297-4146-8f4d-5714674e6368"},"vehicle_type_id":"4","last_reported":1701346420,"current_range_meters":14800,"station_id":"ce4bhhh2rcd13ifvqfk0","pricing_plan_id":"free"},{"bike_id":"72a82443-13cc-42eb-b402-28c106d6fff8","system_id":"levelo_inurba_marseille","lat":43.243835,"lon":5.370565,"is_reserved":false,"is_disabled":false,"rental_uris":{"android":"levelo://app?vid=72a82443-13cc-42eb-b402-28c106d6fff8","ios":"levelo://app?vid=72a82443-13cc-42eb-b402-28c106d6fff8"},"vehicle_type_id":"4","last_reported":1701346420,"current_range_meters":31200,"station_id":"ce4bhhh2rcd13ifvqfk0","pricing_plan_id":"free"},{"bike_id":"cf534767-31d7-44ec-a3dc-ba448b03aa99","system_id":"levelo_inurba_marseille","lat":43.2438,"lon":5.37052,"is_reserved":false,"is_disabled":false,"rental_uris":{"android":"levelo://app?vid=cf534767-31d7-44ec-a3dc-ba448b03aa99","ios":"levelo://app?vid=cf534767-31d7-44ec-a3dc-ba448b03aa99"},"vehicle_type_id":"4","last_reported":1701346420,"current_range_meters":2400,"station_id":"ce4bhhh2rcd13ifvqfk0","pricing_plan_id":"free"},{"bike_id":"6cb17998-6ce9-4655-ab4d-1c2be457aabd","system_id":"levelo_inurba_marseille","lat":43.245581,"lon":5.395069,"is_reserved":false,"is_disabled":false,"rental_uris":{"android":"levelo://app?vid=6cb17998-6ce9-4655-ab4d-1c2be457aabd","ios":"levelo://app?vid=6cb17998-6ce9-4655-ab4d-1c2be457aabd"},"vehicle_type_id":"4","last_reported":1701346420,"current_range_meters":30800,"station_id":"ce4bhlp2rcd13ifvqgjg","pricing_plan_id":"free"},{"bike_id":"88ce38e1-8c3d-40b3-bade-2a4601496ae1","system_id":"levelo_inurba_marseille","lat":43.245581,"lon":5.395069,"is_reserved":false,"is_disabled":false,"rental_uris":{"android":"levelo://app?vid=88ce38e1-8c3d-40b3-bade-2a4601496ae1","ios":"levelo://app?vid=88ce38e1-8c3d-40b3-bade-2a4601496ae1"},"vehicle_type_id":"4","last_reported":1701346420,"current_range_meters":24400,"station_id":"ce4bhlp2rcd13ifvqgjg","pricing_plan_id":"free"},{"bike_id":"766ffb29-ebf9-4cf9-9252-18d9dbfe5565","system_id":"levelo_inurba_marseille","lat":43.245581,"lon":5.395069,"is_reserved":false,"is_disabled":false,"rental_uris":{"android":"levelo://app?vid=766ffb29-ebf9-4cf9-9252-18d9dbfe5565","ios":"levelo://app?vid=766ffb29-ebf9-4cf9-9252-18d9dbfe5565"},"vehicle_type_id":"4","last_reported":1701346420,"current_range_meters":31200,"station_id":"ce4bhlp2rcd13ifvqgjg","pricing_plan_id":"free"},{"bike_id":"9b1796ee-9381-4a2c-a89b-ed20940d144a","system_id":"levelo_inurba_marseille","lat":43.24067,"lon":5.37761,"is_reserved":false,"is_disabled":false,"rental_uris":{"android":"levelo://app?vid=9b1796ee-9381-4a2c-a89b-ed20940d144a","ios":"levelo://app?vid=9b1796ee-9381-4a2c-a89b-ed20940d144a"},"vehicle_type_id":"4","last_reported":1701346420,"current_range_meters":0,"station_id":"ce4bhnp2rcd13ifvqgvg","pricing_plan_id":"free"},{"bike_id":"d1703505-b125-4a98-a807-11024241bc04","system_id":"levelo_inurba_marseille","lat":43.231923,"lon":5.355545,"is_reserved":false,"is_disabled":false,"rental_uris":{"android":"levelo://app?vid=d1703505-b125-4a98-a807-11024241bc04","ios":"levelo://app?vid=d1703505-b125-4a98-a807-11024241bc04"},"vehicle_type_id":"4","last_reported":1701346420,"current_range_meters":31200,"station_id":"ce4bhu92rcd13ifvqi70","pricing_plan_id":"free"},{"bike_id":"b37cf8bc-ef87-4960-b38c-3279b894369f","system_id":"levelo_inurba_marseille","lat":43.231923,"lon":5.355545,"is_reserved":false,"is_disabled":false,"rental_uris":{"android":"levelo://app?vid=b37cf8bc-ef87-4960-b38c-3279b894369f","ios":"levelo://app?vid=b37cf8bc-ef87-4960-b38c-3279b894369f"},"vehicle_type_id":"4","last_reported":1701346420,"current_range_meters":31200,"station_id":"ce4bhu92rcd13ifvqi70","pricing_plan_id":"free"},{"bike_id":"d75baf64-9632-4edf-ae5a-7b75bff5c119","system_id":"levelo_inurba_marseille","lat":43.23154,"lon":5.43701,"is_reserved":false,"is_disabled":false,"rental_uris":{"android":"levelo://app?vid=d75baf64-9632-4edf-ae5a-7b75bff5c119","ios":"levelo://app?vid=d75baf64-9632-4edf-ae5a-7b75bff5c119"},"vehicle_type_id":"4","last_reported":1701346420,"current_range_meters":12000,"station_id":"ce4bhmp2rcd13ifvqgog","pricing_plan_id":"free"},{"bike_id":"efff7272-587c-49a1-9a30-8799331953fa","system_id":"levelo_inurba_marseille","lat":43.231562,"lon":5.436933,"is_reserved":false,"is_disabled":false,"rental_uris":{"android":"levelo://app?vid=efff7272-587c-49a1-9a30-8799331953fa","ios":"levelo://app?vid=efff7272-587c-49a1-9a30-8799331953fa"},"vehicle_type_id":"4","last_reported":1701346420,"current_range_meters":13600,"station_id":"ce4bhmp2rcd13ifvqgog","pricing_plan_id":"free"},{"bike_id":"24e3ff79-46b3-41bd-89a3-16c527066233","system_id":"levelo_inurba_marseille","lat":43.231562,"lon":5.436933,"is_reserved":false,"is_disabled":false,"rental_uris":{"android":"levelo://app?vid=24e3ff79-46b3-41bd-89a3-16c527066233","ios":"levelo://app?vid=24e3ff79-46b3-41bd-89a3-16c527066233"},"vehicle_type_id":"4","last_reported":1701346420,"current_range_meters":31600,"station_id":"ce4bhmp2rcd13ifvqgog","pricing_plan_id":"free"},{"bike_id":"0e927ffd-e778-4a11-906b-584735d1e66f","system_id":"levelo_inurba_marseille","lat":43.231562,"lon":5.436933,"is_reserved":false,"is_disabled":false,"rental_uris":{"android":"levelo://app?vid=0e927ffd-e778-4a11-906b-584735d1e66f","ios":"levelo://app?vid=0e927ffd-e778-4a11-906b-584735d1e66f"},"vehicle_type_id":"4","last_reported":1701346420,"current_range_meters":25600,"station_id":"ce4bhmp2rcd13ifvqgog","pricing_plan_id":"free"},{"bike_id":"a55fc69c-de95-45fb-b2d3-2ab27fa26c54","system_id":"levelo_inurba_marseille","lat":43.231562,"lon":5.436933,"is_reserved":false,"is_disabled":false,"rental_uris":{"android":"levelo://app?vid=a55fc69c-de95-45fb-b2d3-2ab27fa26c54","ios":"levelo://app?vid=a55fc69c-de95-45fb-b2d3-2ab27fa26c54"},"vehicle_type_id":"4","last_reported":1701346420,"current_range_meters":11600,"station_id":"ce4bhmp2rcd13ifvqgog","pricing_plan_id":"free"},{"bike_id":"82664f3d-90fe-4492-8474-fec00b2e7f73","system_id":"levelo_inurba_marseille","lat":43.231562,"lon":5.436933,"is_reserved":false,"is_disabled":false,"rental_uris":{"android":"levelo://app?vid=82664f3d-90fe-4492-8474-fec00b2e7f73","ios":"levelo://app?vid=82664f3d-90fe-4492-8474-fec00b2e7f73"},"vehicle_type_id":"4","last_reported":1701346420,"current_range_meters":12800,"station_id":"ce4bhmp2rcd13ifvqgog","pricing_plan_id":"free"},{"bike_id":"7ccd67b9-63b4-44c4-962f-e558f1b86670","system_id":"levelo_inurba_marseille","lat":43.231562,"lon":5.436933,"is_reserved":false,"is_disabled":false,"rental_uris":{"android":"levelo://app?vid=7ccd67b9-63b4-44c4-962f-e558f1b86670","ios":"levelo://app?vid=7ccd67b9-63b4-44c4-962f-e558f1b86670"},"vehicle_type_id":"4","last_reported":1701346420,"current_range_meters":18800,"station_id":"ce4bhmp2rcd13ifvqgog","pricing_plan_id":"free"},{"bike_id":"9c412994-a680-4967-8472-0012ab9c2218","system_id":"levelo_inurba_marseille","lat":43.2315,"lon":5.43724,"is_reserved":false,"is_disabled":false,"rental_uris":{"android":"levelo://app?vid=9c412994-a680-4967-8472-0012ab9c2218","ios":"levelo://app?vid=9c412994-a680-4967-8472-0012ab9c2218"},"vehicle_type_id":"4","last_reported":1701346420,"current_range_meters":5200,"station_id":"ce4bhmp2rcd13ifvqgog","pricing_plan_id":"free"},{"bike_id":"94ff6c3e-2342-4247-a1f4-07b501326b3b","system_id":"levelo_inurba_marseille","lat":43.231562,"lon":5.436933,"is_reserved":false,"is_disabled":false,"rental_uris":{"android":"levelo://app?vid=94ff6c3e-2342-4247-a1f4-07b501326b3b","ios":"levelo://app?vid=94ff6c3e-2342-4247-a1f4-07b501326b3b"},"vehicle_type_id":"4","last_reported":1701346420,"current_range_meters":0,"station_id":"ce4bhmp2rcd13ifvqgog","pricing_plan_id":"free"}]}}