{"last_updated":1766992637,"ttl":60,"version":"2.2","data":{"bikes":[{"bike_id":"e18638c9-13d5-4f73-9138-332d3cc47a52","system_id":"levelo_inurba_marseille","lat":43.262292,"lon":5.40457,"is_reserved":false,"is_disabled":false,"rental_uris":{"android":"levelo://app?vid=e18638c9-13d5-4f73-9138-332d3cc47a52","ios":"levelo://app?vid=e18638c9-13d5-4f73-9138-332d3cc47a52"},"vehicle_type_id":"4","last_reported":1766992637,"current_range_meters":2800,"station_id":"ce4bhmh2rcd13ifvqgmg","pricing_plan_id":"cebpf4jnsgd1na2vs0mg"},{"bike_id":"ca52e022-567b-45ef-be8d-c03ddb38c606","system_id":"levelo_inurba_marseille","lat":43.27481,"lon":5.42463,"is_reserved":false,"is_disabled":false,"rental_uris":{"android":"levelo://app?vid=ca52e022-567b-45ef-be8d-c03ddb38c606","ios":"levelo://app?vid=ca52e022-567b-45ef-be8d-c03ddb38c606"},"vehicle_type_id":"4","last_reported":1766992637,"current_range_meters":3200,"station_id":"ce4bhn92rcd13ifvqgrg","pricing_plan_id":"cebpf4jnsgd1na2vs0mg"},{"bike_id":"8f1fbae4-9ae2-42cf-94dd-daad6d586514","system_id":"levelo_inurba_marseille","lat":43.22568,"lon":5.41635,"is_reserved":false,"is_disabled":false,"rental_uris":{"android":"levelo://app?vid=8f1fbae4-9ae2-42cf-94dd-daad6d586514","ios":"levelo://app?vid=8f1fbae4-9ae2-42cf-94dd-daad6d586514"},"vehicle_type_id":"4","last_reported":1766992637,"current_range_meters":3200,"station_id":"st_d2o4gvlbi1j2169b742g","pricing_plan_id":"cebpf4jnsgd1na2vs0mg"},{"bike_id":"50f2d474-ee9b-4c75-ad2b-2a2a28d29ffb","system_id":"levelo_inurba_marseille","lat":43.29684,"lon":5.38552,"is_reserved":false,"is_disabled":false,"rental_uris":{"android":"levelo://app?vid=50f2d474-ee9b-4c75-ad2b-2a2a28d29ffb","ios":"levelo://app?vid=50f2d474-ee9b-4c75-ad2b-2a2a28d29ffb"},"vehicle_type_id":"4","last_reported":1766992637,"current_range_meters":3200,"station_id":"","pricing_plan_id":"cebpf4jnsgd1na2vs0mg"},{"bike_id":"9946c4ed-7a05-42ed-9877-9de77083527d","system_id":"levelo_inurba_marseille","lat":43.337444,"lon":5.374475,"is_reserved":false,"is_disabled":false,"rental_uris":{"android":"levelo://app?vid=9946c4ed-7a05-42ed-9877-9de77083527d","ios":"levelo://app?vid=9946c4ed-7a05-42ed-9877-9de77083527d"},"vehicle_type_id":"4","last_reported":1766992637,"current_range_meters":3200,"station_id":"ce4bgqh2rcd13ifvqc4g","pricing_plan_id":"cebpf4jnsgd1na2vs0mg"},{"bike_id":"2774eca9-c878-4033-8514-2330fd47f167","system_id":"levelo_inurba_marseille","lat":43.28478,"lon":5.48385,"is_reserved":false,"is_disabled":false,"rental_uris":{"android":"levelo://app?vid=2774eca9-c878-4033-8514-2330fd47f167","ios":"levelo://app?vid=2774eca9-c878-4033-8514-2330fd47f167"},"vehicle_type_id":"4","last_reported":1766992637,"current_range_meters":3200,"station_id":"st_d3svhcjqgbts73a3dn0g","pricing_plan_id":"cebpf4jnsgd1na2vs0mg"},{"bike_id":"e7edc206-0920-444e-9080-1692dbca00f0","system_id":"levelo_inurba_marseille","lat":43.28467,"lon":5.48404,"is_reserved":false,"is_disabled":false,"rental_uris":{"android":"levelo://app?vid=e7edc206-0920-444e-9080-1692dbca00f0","ios":"levelo://app?vid=e7edc206-0920-444e-9080-1692dbca00f0"},"vehicle_type_id":"4","last_reported":1766992637,"current_range_meters":3600,"station_id":"st_d3svhcjqgbts73a3dn0g","pricing_plan_id":"cebpf4jnsgd1na2vs0mg"},{"bike_id":"86b17cf5-8215-4d55-88c5-65e96bfcf6ae","system_id":"levelo_inurba_marseille","lat":43.240651,"lon":5.377611,"is_reserved":false,"is_disabled":false,"rental_uris":{"android":"levelo://app?vid=86b17cf5-8215-4d55-88c5-65e96bfcf6ae","ios":"levelo://app?vid=86b17cf5-8215-4d55-88c5-65e96bfcf6ae"},"vehicle_type_id":"4","last_reported":1766992637,"current_range_meters":3600,"station_id":"ce4bhnp2rcd13ifvqgvg","pricing_plan_id":"cebpf4jnsgd1na2vs0mg"},{"bike_id":"bc568f99-2d83-4e5a-8b80-4c8ab7d8ad1f","system_id":"levelo_inurba_marseille","lat":43.24161,"lon":5.37649,"is_reserved":false,"is_disabled":false,"rental_uris":{"android":"levelo://app?vid=bc568f99-2d83-4e5a-8b80-4c8ab7d8ad1f","ios":"levelo://app?vid=bc568f99-2d83-4e5a-8b80-4c8ab7d8ad1f"},"vehicle_type_id":"4","last_reported":1766992637,"current_range_meters":3600,"station_id":"","pricing_plan_id":"cebpf4jnsgd1na2vs0mg"},{"bike_id":"69c9962e-c1be-44b1-b813-7b132088334d","system_id":"levelo_inurba_marseille","lat":43.24551,"lon":5.39528,"is_reserved":false,"is_disabled":false,"rental_uris":{"android":"levelo://app?vid=69c9962e-c1be-44b1-b813-7b132088334d","ios":"levelo://app?vid=69c9962e-c1be-44b1-b813-7b132088334d"},"vehicle_type_id":"4","last_reported":1766992637,"current_range_meters":3600,"station_id":"ce4bhlp2rcd13ifvqgjg","pricing_plan_id":"cebpf4jnsgd1na2vs0mg"},{"bike_id":"ceff65ce-d147-470b-833e-b84215f38640","system_id":"levelo_inurba_marseille","lat":43.2551,"lon":5.37643,"is_reserved":false,"is_disabled":false,"rental_uris":{"android":"levelo://app?vid=ceff65ce-d147-470b-833e-b84215f38640","ios":"levelo://app?vid=ceff65ce-d147-470b-833e-b84215f38640"},"vehicle_type_id":"4","last_reported":1766992637,"current_range_meters":4000,"station_id":"ce4bhh12rcd13ifvqff0","pricing_plan_id":"cebpf4jnsgd1na2vs0mg"},{"bike_id":"cbd9a5d3-c860-4f7a-ad37-169754c8f453","system_id":"levelo_inurba_marseille","lat":43.28769,"lon":5.38405,"is_reserved":false,"is_disabled":false,"rental_uris":{"android":"levelo://app?vid=cbd9a5d3-c860-4f7a-ad37-169754c8f453","ios":"levelo://app?vid=cbd9a5d3-c860-4f7a-ad37-169754c8f453"},"vehicle_type_id":"4","last_reported":1766992637,"current_range_meters":4000,"station_id":"","pricing_plan_id":"cebpf4jnsgd1na2vs0mg"},{"bike_id":"7ef0cae7-d0ce-42f4-8945-1ef1b36c8fff","system_id":"levelo_inurba_marseille","lat":43.29053,"lon":5.39939,"is_reserved":false,"is_disabled":false,"rental_uris":{"android":"levelo://app?vid=7ef0cae7-d0ce-42f4-8945-1ef1b36c8fff","ios":"levelo://app?vid=7ef0cae7-d0ce-42f4-8945-1ef1b36c8fff"},"vehicle_type_id":"4","last_reported":1766992637,"current_range_meters":4000,"station_id":"ce4bh392rcd13ifvqdm0","pricing_plan_id":"cebpf4jnsgd1na2vs0mg"},{"bike_id":"1352469f-8d92-432c-aca8-bbec2c8f651a","system_id":"levelo_inurba_marseille","lat":43.27057,"lon":5.40256,"is_reserved":false,"is_disabled":false,"rental_uris":{"android":"levelo://app?vid=1352469f-8d92-432c-aca8-bbec2c8f651a","ios":"levelo://app?vid=1352469f-8d92-432c-aca8-bbec2c8f651a"},"vehicle_type_id":"4","last_reported":1766992637,"current_range_meters":4400,"station_id":"ce4bhk92rcd13ifvqgc0","pricing_plan_id":"cebpf4jnsgd1na2vs0mg"},{"bike_id":"8526cb13-c70f-4134-9aed-80c4c9d31e4e","system_id":"levelo_inurba_marseille","lat":43.27895,"lon":5.39157,"is_reserved":false,"is_disabled":false,"rental_uris":{"android":"levelo://app?vid=8526cb13-c70f-4134-9aed-80c4c9d31e4e","ios":"levelo://app?vid=8526cb13-c70f-4134-9aed-80c4c9d31e4e"},"vehicle_type_id":"4","last_reported":1766992637,"current_range_meters":4400,"station_id":"","pricing_plan_id":"cebpf4jnsgd1na2vs0mg"},{"bike_id":"452ec907-2f3f-4763-837c-7d2a67fa4119","system_id":"levelo_inurba_marseille","lat":43.25107,"lon":5.40322,"is_reserved":false,"is_disabled":false,"rental_uris":{"android":"levelo://app?vid=452ec907-2f3f-4763-837c-7d2a67fa4119","ios":"levelo://app?vid=452ec907-2f3f-4763-837c-7d2a67fa4119"},"vehicle_type_id":"4","last_reported":1766992637,"current_range_meters":4400,"station_id":"ce4bhlh2rcd13ifvqgig","pricing_plan_id":"cebpf4jnsgd1na2vs0mg"},{"bike_id":"80e5704f-ad4a-47fa-8434-b81adbddb3a7","system_id":"levelo_inurba_marseille","lat":43.28005,"lon":5.4102,"is_reserved":false,"is_disabled":true,"rental_uris":{"android":"levelo://app?vid=80e5704f-ad4a-47fa-8434-b81adbddb3a7","ios":"levelo://app?vid=80e5704f-ad4a-47fa-8434-b81adbddb3a7"},"vehicle_type_id":"4","last_reported":1766992637,"current_range_meters":4400,"station_id":"","pricing_plan_id":"cebpf4jnsgd1na2vs0mg"},{"bike_id":"d478cff2-fcfa-4146-96ae-b08077f0d62b","system_id":"levelo_inurba_marseille","lat":43.27254,"lon":5.42774,"is_reserved":false,"is_disabled":false,"rental_uris":{"android":"levelo://app?vid=d478cff2-fcfa-4146-96ae-b08077f0d62b","ios":"levelo://app?vid=d478cff2-fcfa-4146-96ae-b08077f0d62b"},"vehicle_type_id":"4","last_reported":1766992637,"current_range_meters":4400,"station_id":"","pricing_plan_id":"cebpf4jnsgd1na2vs0mg"},{"bike_id":"9d21dcb0-ce26-48db-a303-317550439f40","system_id":"levelo_inurba_marseille","lat":43.284809,"lon":5.483911,"is_reserved":false,"is_disabled":false,"rental_uris":{"android":"levelo://app?vid=9d21dcb0-ce26-48db-a303-317550439f40","ios":"levelo://app?vid=9d21dcb0-ce26-48db-a303-317550439f40"},"vehicle_type_id":"4","last_reported":1766992637,"current_range_meters":4800,"station_id":"","pricing_plan_id":"cebpf4jnsgd1na2vs0mg"},{"bike_id":"240f90c0-9144-4a3b-a221-7e86b8542577","system_id":"levelo_inurba_marseille","lat":43.26806,"lon":5.40263,"is_reserved":false,"is_disabled":false,"rental_uris":{"android":"levelo://app?vid=240f90c0-9144-4a3b-a221-7e86b8542577","ios":"levelo://app?vid=240f90c0-9144-4a3b-a221-7e86b8542577"},"vehicle_type_id":"4","last_reported":1766992637,"current_range_meters":6000,"station_id":"ce501612rcd8frsf0b60","pricing_plan_id":"cebpf4jnsgd1na2vs0mg"},{"bike_id":"7451e2f1-97cc-4a6a-824e-1c725c74e9d6","system_id":"levelo_inurba_marseille","lat":43.3235,"lon":5.38438,"is_reserved":false,"is_disabled":false,"rental_uris":{"android":"levelo://app?vid=7451e2f1-97cc-4a6a-824e-1c725c74e9d6","ios":"levelo://app?vid=7451e2f1-97cc-4a6a-824e-1c725c74e9d6"},"vehicle_type_id":"4","last_reported":1766992637,"current_range_meters":6000,"station_id":"","pricing_plan_id":"cebpf4jnsgd1na2vs0mg"},{"bike_id":"bfe254bd-a5b9-4c71-ba4e-98d44237de7c","system_id":"levelo_inurba_marseille","lat":43.28013,"lon":5.39988,"is_reserved":false,"is_disabled":true,"rental_uris":{"android":"levelo://app?vid=bfe254bd-a5b9-4c71-ba4e-98d44237de7c","ios":"levelo://app?vid=bfe254bd-a5b9-4c71-ba4e-98d44237de7c"},"vehicle_type_id":"4","last_reported":1766992637,"current_range_meters":6000,"station_id":"ce4bho92rcd13ifvqh4g","pricing_plan_id":"cebpf4jnsgd1na2vs0mg"},{"bike_id":"7c5ef131-acab-4659-999a-8e7261371087","system_id":"levelo_inurba_marseille","lat":43.29854,"lon":5.37833,"is_reserved":false,"is_disabled":true,"rental_uris":{"android":"levelo://app?vid=7c5ef131-acab-4659-999a-8e7261371087","ios":"levelo://app?vid=7c5ef131-acab-4659-999a-8e7261371087"},"vehicle_type_id":"4","last_reported":1766992637,"current_range_meters":6000,"station_id":"","pricing_plan_id":"cebpf4jnsgd1na2vs0mg"},{"bike_id":"bafbac57-f95d-474f-9ab8-4089c3a4d706","system_id":"levelo_inurba_marseille","lat":43.285402,"lon":5.441031,"is_reserved":false,"is_disabled":false,"rental_uris":{"android":"levelo://app?vid=bafbac57-f95d-474f-9ab8-4089c3a4d706","ios":"levelo://app?vid=bafbac57-f95d-474f-9ab8-4089c3a4d706"},"vehicle_type_id":"4","last_reported":1766992637,"current_range_meters":6000,"station_id":"st_d3j3df2ikq2c7380ej80","pricing_plan_id":"cebpf4jnsgd1na2vs0mg"},{"bike_id":"16f348d1-ac62-4c83-8126-521c8914df76","system_id":"levelo_inurba_marseille","lat":43.28954,"lon":5.36381,"is_reserved":false,"is_disabled":false,"rental_uris":{"android":"levelo://app?vid=16f348d1-ac62-4c83-8126-521c8914df76","ios":"levelo://app?vid=16f348d1-ac62-4c83-8126-521c8914df76"},"vehicle_type_id":"4","last_reported":1766992637,"current_range_meters":6000,"station_id":"ce4bhc92rcd13ifvqetg","pricing_plan_id":"cebpf4jnsgd1na2vs0mg"},{"bike_id":"b1613545-ea2a-4973-88b1-f1323209ed4c","system_id":"levelo_inurba_marseille","lat":43.27906,"lon":5.43666,"is_reserved":false,"is_disabled":true,"rental_uris":{"android":"levelo://app?vid=b1613545-ea2a-4973-88b1-f1323209ed4c","ios":"levelo://app?vid=b1613545-ea2a-4973-88b1-f1323209ed4c"},"vehicle_type_id":"4","last_reported":1766992637,"current_range_meters":6000,"station_id":"","pricing_plan_id":"cebpf4jnsgd1na2vs0mg"},{"bike_id":"08f4624a-a23d-4738-b794-a8bd53bfd7e8","system_id":"levelo_inurba_marseille","lat":43.29828,"lon":5.37658,"is_reserved":false,"is_disabled":false,"rental_uris":{"android":"levelo://app?vid=08f4624a-a23d-4738-b794-a8bd53bfd7e8","ios":"levelo://app?vid=08f4624a-a23d-4738-b794-a8bd53bfd7e8"},"vehicle_type_id":"4","last_reported":1766992637,"current_range_meters":6400,"station_id":"","pricing_plan_id":"cebpf4jnsgd1na2vs0mg"},{"bike_id":"e44fdb7f-8720-46ac-981c-054c6ce20310","system_id":"levelo_inurba_marseille","lat":43.28494,"lon":5.48408,"is_reserved":false,"is_disabled":true,"rental_uris":{"android":"levelo://app?vid=e44fdb7f-8720-46ac-981c-054c6ce20310","ios":"levelo://app?vid=e44fdb7f-8720-46ac-981c-054c6ce20310"},"vehicle_type_id":"4","last_reported":1766992637,"current_range_meters":6400,"station_id":"st_d3svhcjqgbts73a3dn0g","pricing_plan_id":"cebpf4jnsgd1na2vs0mg"},{"bike_id":"bc30f488-7026-4ace-83c7-00d1f4902064","system_id":"levelo_inurba_marseille","lat":43.22937,"lon":5.35364,"is_reserved":false,"is_disabled":false,"rental_uris":{"android":"levelo://app?vid=bc30f488-7026-4ace-83c7-00d1f4902064","ios":"levelo://app?vid=bc30f488-7026-4ace-83c7-00d1f4902064"},"vehicle_type_id":"4","last_reported":1766992637,"current_range_meters":6400,"station_id":"cpo3532slgdg3j2ikp40","pricing_plan_id":"cebpf4jnsgd1na2vs0mg"},{"bike_id":"c0723a55-d0d0-493e-a4c5-9479bcaeff93","system_id":"levelo_inurba_marseille","lat":43.28486,"lon":5.48396,"is_reserved":false,"is_disabled":false,"rental_uris":{"android":"levelo://app?vid=c0723a55-d0d0-493e-a4c5-9479bcaeff93","ios":"levelo://app?vid=c0723a55-d0d0-493e-a4c5-9479bcaeff93"},"vehicle_type_id":"4","last_reported":1766992637,"current_range_meters":6400,"station_id":"","pricing_plan_id":"cebpf4jnsgd1na2vs0mg"},{"bike_id":"97848435-e4dc-4eee-ab50-f0d1b0b6b0f3","system_id":"levelo_inurba_marseille","lat":43.25858,"lon":5.39911,"is_reserved":false,"is_disabled":true,"rental_uris":{"android":"levelo://app?vid=97848435-e4dc-4eee-ab50-f0d1b0b6b0f3","ios":"levelo://app?vid=97848435-e4dc-4eee-ab50-f0d1b0b6b0f3"},"vehicle_type_id":"4","last_reported":1766992637,"current_range_meters":6400,"station_id":"ce4bhl92rcd13ifvqghg","pricing_plan_id":"cebpf4jnsgd1na2vs0mg"},{"bike_id":"18d6b732-e653-4cc9-abec-7765b974a020","system_id":"levelo_inurba_marseille","lat":43.2904,"lon":5.39954,"is_reserved":false,"is_disabled":false,"rental_uris":{"android":"levelo://app?vid=18d6b732-e653-4cc9-abec-7765b974a020","ios":"levelo://app?vid=18d6b732-e653-4cc9-abec-7765b974a020"},"vehicle_type_id":"4","last_reported":1766992637,"current_range_meters":6400,"station_id":"ce4bh392rcd13ifvqdm0","pricing_plan_id":"cebpf4jnsgd1na2vs0mg"},{"bike_id":"d7ee54e6-2519-4ac6-8f67-c3a659f7d88b","system_id":"levelo_inurba_marseille","lat":43.28541,"lon":5.44082,"is_reserved":false,"is_disabled":false,"rental_uris":{"android":"levelo://app?vid=d7ee54e6-2519-4ac6-8f67-c3a659f7d88b","ios":"levelo://app?vid=d7ee54e6-2519-4ac6-8f67-c3a659f7d88b"},"vehicle_type_id":"4","last_reported":1766992637,"current_range_meters":6400,"station_id":"st_d3j3df2ikq2c7380ej80","pricing_plan_id":"cebpf4jnsgd1na2vs0mg"},{"bike_id":"945eb126-c9ee-4f01-8c11-f3e0bd3eb3ad","system_id":"levelo_inurba_marseille","lat":43.297297,"lon":5.376744,"is_reserved":false,"is_disabled":false,"rental_uris":{"android":"levelo://app?vid=945eb126-c9ee-4f01-8c11-f3e0bd3eb3ad","ios":"levelo://app?vid=945eb126-c9ee-4f01-8c11-f3e0bd3eb3ad"},"vehicle_type_id":"4","last_reported":1766992637,"current_range_meters":6800,"station_id":"ce4bgkh2rcd13ifvqbl0","pricing_plan_id":"cebpf4jnsgd1na2vs0mg"},{"bike_id":"e77a2825-2f18-453f-84dc-7cda1b3d469d","system_id":"levelo_inurba_marseille","lat":43.290303,"lon":5.381199,"is_reserved":false,"is_disabled":true,"rental_uris":{"android":"levelo://app?vid=e77a2825-2f18-453f-84dc-7cda1b3d469d","ios":"levelo://app?vid=e77a2825-2f18-453f-84dc-7cda1b3d469d"},"vehicle_type_id":"4","last_reported":1766992637,"current_range_meters":6800,"station_id":"ce4bh4p2rcd13ifvqe1g","pricing_plan_id":"cebpf4jnsgd1na2vs0mg"},{"bike_id":"13510b18-4a9b-47d0-a954-6d7cdc2c118c","system_id":"levelo_inurba_marseille","lat":43.28481,"lon":5.48391,"is_reserved":false,"is_disabled":false,"rental_uris":{"android":"levelo://app?vid=13510b18-4a9b-47d0-a954-6d7cdc2c118c","ios":"levelo://app?vid=13510b18-4a9b-47d0-a954-6d7cdc2c118c"},"vehicle_type_id":"4","last_reported":1766992637,"current_range_meters":6800,"station_id":"st_d3svhcjqgbts73a3dn0g","pricing_plan_id":"cebpf4jnsgd1na2vs0mg"},{"bike_id":"898113a0-4857-44ff-94de-b1b7a47646b6","system_id":"levelo_inurba_marseille","lat":43.30293,"lon":5.38538,"is_reserved":false,"is_disabled":false,"rental_uris":{"android":"levelo://app?vid=898113a0-4857-44ff-94de-b1b7a47646b6","ios":"levelo://app?vid=898113a0-4857-44ff-94de-b1b7a47646b6"},"vehicle_type_id":"4","last_reported":1766992637,"current_range_meters":6800,"station_id":"","pricing_plan_id":"cebpf4jnsgd1na2vs0mg"},{"bike_id":"bf3023c2-c164-48e3-a052-4188babe7919","system_id":"levelo_inurba_marseille","lat":43.324799,"lon":5.365692,"is_reserved":false,"is_disabled":false,"rental_uris":{"android":"levelo://app?vid=bf3023c2-c164-48e3-a052-4188babe7919","ios":"levelo://app?vid=bf3023c2-c164-48e3-a052-4188babe7919"},"vehicle_type_id":"4","last_reported":1766992637,"current_range_meters":6800,"station_id":"ce4bhs12rcd13ifvqhvg","pricing_plan_id":"cebpf4jnsgd1na2vs0mg"},{"bike_id":"c58c978f-95c8-40ca-8720-6fddd4118f85","system_id":"levelo_inurba_marseille","lat":43.231948,"lon":5.355587,"is_reserved":false,"is_disabled":false,"rental_uris":{"android":"levelo://app?vid=c58c978f-95c8-40ca-8720-6fddd4118f85","ios":"levelo://app?vid=c58c978f-95c8-40ca-8720-6fddd4118f85"},"vehicle_type_id":"4","last_reported":1766992637,"current_range_meters":6800,"station_id":"ce4bhu92rcd13ifvqi70","pricing_plan_id":"cebpf4jnsgd1na2vs0mg"},{"bike_id":"ec3a3c86-9abd-43c8-b159-b95b9b1267ed","system_id":"levelo_inurba_marseille","lat":43.28829,"lon":5.3553,"is_reserved":false,"is_disabled":false,"rental_uris":{"android":"levelo://app?vid=ec3a3c86-9abd-43c8-b159-b95b9b1267ed","ios":"levelo://app?vid=ec3a3c86-9abd-43c8-b159-b95b9b1267ed"},"vehicle_type_id":"4","last_reported":1766992637,"current_range_meters":6800,"station_id":"","pricing_plan_id":"cebpf4jnsgd1na2vs0mg"},{"bike_id":"548a8254-9ba6-4ee7-b9b1-a8034a41e939","system_id":"levelo_inurba_marseille","lat":43.30737,"lon":5.424422,"is_reserved":false,"is_disabled":false,"rental_uris":{"android":"levelo://app?vid=548a8254-9ba6-4ee7-b9b1-a8034a41e939","ios":"levelo://app?vid=548a8254-9ba6-4ee7-b9b1-a8034a41e939"},"vehicle_type_id":"4","last_reported":1766992637,"current_range_meters":7200,"station_id":"st_cvj6ca6bvosntc0bfgr0","pricing_plan_id":"cebpf4jnsgd1na2vs0mg"},{"bike_id":"b7166de2-1d61-4c79-9744-9f412287c996","system_id":"levelo_inurba_marseille","lat":43.31231,"lon":5.38085,"is_reserved":false,"is_disabled":false,"rental_uris":{"android":"levelo://app?vid=b7166de2-1d61-4c79-9744-9f412287c996","ios":"levelo://app?vid=b7166de2-1d61-4c79-9744-9f412287c996"},"vehicle_type_id":"4","last_reported":1766992637,"current_range_meters":7200,"station_id":"","pricing_plan_id":"cebpf4jnsgd1na2vs0mg"},{"bike_id":"f21fe9bf-f3b6-40e2-a040-797febd6921f","system_id":"levelo_inurba_marseille","lat":43.24178,"lon":5.39731,"is_reserved":false,"is_disabled":false,"rental_uris":{"android":"levelo://app?vid=f21fe9bf-f3b6-40e2-a040-797febd6921f","ios":"levelo://app?vid=f21fe9bf-f3b6-40e2-a040-797febd6921f"},"vehicle_type_id":"4","last_reported":1766992637,"current_range_meters":7200,"station_id":"ce4bhn12rcd13ifvqgpg","pricing_plan_id":"cebpf4jnsgd1na2vs0mg"},{"bike_id":"364a48f3-8473-4e00-9d33-2eb0fe242911","system_id":"levelo_inurba_marseille","lat":43.27655,"lon":5.38889,"is_reserved":false,"is_disabled":true,"rental_uris":{"android":"levelo://app?vid=364a48f3-8473-4e00-9d33-2eb0fe242911","ios":"levelo://app?vid=364a48f3-8473-4e00-9d33-2eb0fe242911"},"vehicle_type_id":"4","last_reported":1766992637,"current_range_meters":7200,"station_id":"ce4bhi12rcd13ifvqfo0","pricing_plan_id":"cebpf4jnsgd1na2vs0mg"},{"bike_id":"0de95848-3f7b-48c6-94ed-fa5a0cc60df2","system_id":"levelo_inurba_marseille","lat":43.27939,"lon":5.41037,"is_reserved":false,"is_disabled":false,"rental_uris":{"android":"levelo://app?vid=0de95848-3f7b-48c6-94ed-fa5a0cc60df2","ios":"levelo://app?vid=0de95848-3f7b-48c6-94ed-fa5a0cc60df2"},"vehicle_type_id":"4","last_reported":1766992637,"current_range_meters":7200,"station_id":"ce4bhnp2rcd13ifvqh0g","pricing_plan_id":"cebpf4jnsgd1na2vs0mg"},{"bike_id":"17a49efb-d179-4b85-b20c-4afe87c0613f","system_id":"levelo_inurba_marseille","lat":43.31051,"lon":5.37176,"is_reserved":false,"is_disabled":true,"rental_uris":{"android":"levelo://app?vid=17a49efb-d179-4b85-b20c-4afe87c0613f","ios":"levelo://app?vid=17a49efb-d179-4b85-b20c-4afe87c0613f"},"vehicle_type_id":"4","last_reported":1766992637,"current_range_meters":7200,"station_id":"st_d4kl2rp97mjs73e7tdfg","pricing_plan_id":"cebpf4jnsgd1na2vs0mg"},{"bike_id":"4db2dd6f-8183-4e90-af8a-d7adac78a5ac","system_id":"levelo_inurba_marseille","lat":43.272063,"lon":5.39192,"is_reserved":false,"is_disabled":true,"rental_uris":{"android":"levelo://app?vid=4db2dd6f-8183-4e90-af8a-d7adac78a5ac","ios":"levelo://app?vid=4db2dd6f-8183-4e90-af8a-d7adac78a5ac"},"vehicle_type_id":"4","last_reported":1766992637,"current_range_meters":7200,"station_id":"ce4bhhp2rcd13ifvqfm0","pricing_plan_id":"cebpf4jnsgd1na2vs0mg"},{"bike_id":"e5c4b75a-10e6-457f-8ed0-8691eb2c382b","system_id":"levelo_inurba_marseille","lat":43.312742,"lon":5.377703,"is_reserved":false,"is_disabled":false,"rental_uris":{"android":"levelo://app?vid=e5c4b75a-10e6-457f-8ed0-8691eb2c382b","ios":"levelo://app?vid=e5c4b75a-10e6-457f-8ed0-8691eb2c382b"},"vehicle_type_id":"4","last_reported":1766992637,"current_range_meters":8000,"station_id":"","pricing_plan_id":"cebpf4jnsgd1na2vs0mg"},{"bike_id":"60931b26-689a-488c-9bd9-5b895f45b3d8","system_id":"levelo_inurba_marseille","lat":43.31272,"lon":5.4019,"is_reserved":false,"is_disabled":false,"rental_uris":{"android":"levelo://app?vid=60931b26-689a-488c-9bd9-5b895f45b3d8","ios":"levelo://app?vid=60931b26-689a-488c-9bd9-5b895f45b3d8"},"vehicle_type_id":"4","last_reported":1766992637,"current_range_meters":8000,"station_id":"ce4bh092rcd13ifvqd30","pricing_plan_id":"cebpf4jnsgd1na2vs0mg"},{"bike_id":"94b65cfe-edaf-4322-865d-06eff46e3ede","system_id":"levelo_inurba_marseille","lat":43.300404,"lon":5.373563,"is_reserved":false,"is_disabled":false,"rental_uris":{"android":"levelo://app?vid=94b65cfe-edaf-4322-865d-06eff46e3ede","ios":"levelo://app?vid=94b65cfe-edaf-4322-865d-06eff46e3ede"},"vehicle_type_id":"4","last_reported":1766992637,"current_range_meters":8000,"station_id":"","pricing_plan_id":"cebpf4jnsgd1na2vs0mg"},{"bike_id":"6dd44bb5-f62f-4a64-af74-baa595bb1251","system_id":"levelo_inurba_marseille","lat":43.29198,"lon":5.39307,"is_reserved":false,"is_disabled":false,"rental_uris":{"android":"levelo://app?vid=6dd44bb5-f62f-4a64-af74-baa595bb1251","ios":"levelo://app?vid=6dd44bb5-f62f-4a64-af74-baa595bb1251"},"vehicle_type_id":"4","last_reported":1766992637,"current_range_meters":8000,"station_id":"ce4bh192rcd13ifvqdd0","pricing_plan_id":"cebpf4jnsgd1na2vs0mg"},{"bike_id":"417386cf-4059-4a1f-ab41-a9b62b453096","system_id":"levelo_inurba_marseille","lat":43.2958,"lon":5.36763,"is_reserved":false,"is_disabled":false,"rental_uris":{"android":"levelo://app?vid=417386cf-4059-4a1f-ab41-a9b62b453096","ios":"levelo://app?vid=417386cf-4059-4a1f-ab41-a9b62b453096"},"vehicle_type_id":"4","last_reported":1766992637,"current_range_meters":8000,"station_id":"","pricing_plan_id":"cebpf4jnsgd1na2vs0mg"},{"bike_id":"339f7fad-0b1b-4a48-b72c-b5526abdec50","system_id":"levelo_inurba_marseille","lat":43.284775,"lon":5.484048,"is_reserved":false,"is_disabled":false,"rental_uris":{"android":"levelo://app?vid=339f7fad-0b1b-4a48-b72c-b5526abdec50","ios":"levelo://app?vid=339f7fad-0b1b-4a48-b72c-b5526abdec50"},"vehicle_type_id":"4","last_reported":1766992637,"current_range_meters":8000,"station_id":"","pricing_plan_id":"cebpf4jnsgd1na2vs0mg"},{"bike_id":"d930ea5f-6b91-4dbe-9c42-e83ff7245067","system_id":"levelo_inurba_marseille","lat":43.28607,"lon":5.37064,"is_reserved":false,"is_disabled":false,"rental_uris":{"android":"levelo://app?vid=d930ea5f-6b91-4dbe-9c42-e83ff7245067","ios":"levelo://app?vid=d930ea5f-6b91-4dbe-9c42-e83ff7245067"},"vehicle_type_id":"4","last_reported":1766992637,"current_range_meters":8000,"station_id":"ce4bht12rcd13ifvqi60","pricing_plan_id":"cebpf4jnsgd1na2vs0mg"},{"bike_id":"beea6f64-d836-4f73-bff2-5b3beaa59d80","system_id":"levelo_inurba_marseille","lat":43.229296,"lon":5.353783,"is_reserved":false,"is_disabled":false,"rental_uris":{"android":"levelo://app?vid=beea6f64-d836-4f73-bff2-5b3beaa59d80","ios":"levelo://app?vid=beea6f64-d836-4f73-bff2-5b3beaa59d80"},"vehicle_type_id":"4","last_reported":1766992637,"current_range_meters":8000,"station_id":"cpo3532slgdg3j2ikp40","pricing_plan_id":"cebpf4jnsgd1na2vs0mg"},{"bike_id":"c93bbf3c-9650-44c3-9782-9bef181a9bed","system_id":"levelo_inurba_marseille","lat":43.24763,"lon":5.37564,"is_reserved":false,"is_disabled":false,"rental_uris":{"android":"levelo://app?vid=c93bbf3c-9650-44c3-9782-9bef181a9bed","ios":"levelo://app?vid=c93bbf3c-9650-44c3-9782-9bef181a9bed"},"vehicle_type_id":"4","last_reported":1766992637,"current_range_meters":8000,"station_id":"","pricing_plan_id":"cebpf4jnsgd1na2vs0mg"},{"bike_id":"a4821bb1-a15b-42d7-b80c-382f45814acf","system_id":"levelo_inurba_marseille","lat":43.31888,"lon":5.40721,"is_reserved":false,"is_disabled":false,"rental_uris":{"android":"levelo://app?vid=a4821bb1-a15b-42d7-b80c-382f45814acf","ios":"levelo://app?vid=a4821bb1-a15b-42d7-b80c-382f45814acf"},"vehicle_type_id":"4","last_reported":1766992637,"current_range_meters":8400,"station_id":"ce4bhq12rcd13ifvqhig","pricing_plan_id":"cebpf4jnsgd1na2vs0mg"},{"bike_id":"96cff8a2-c8e3-4b17-8132-2de8c70febcb","system_id":"levelo_inurba_marseille","lat":43.28533,"lon":5.44095,"is_reserved":false,"is_disabled":false,"rental_uris":{"android":"levelo://app?vid=96cff8a2-c8e3-4b17-8132-2de8c70febcb","ios":"levelo://app?vid=96cff8a2-c8e3-4b17-8132-2de8c70febcb"},"vehicle_type_id":"4","last_reported":1766992637,"current_range_meters":8400,"station_id":"st_d3j3df2ikq2c7380ej80","pricing_plan_id":"cebpf4jnsgd1na2vs0mg"},{"bike_id":"5e62b23f-3386-4337-a1a4-edfe3d7f3411","system_id":"levelo_inurba_marseille","lat":43.28153,"lon":5.42631,"is_reserved":false,"is_disabled":false,"rental_uris":{"android":"levelo://app?vid=5e62b23f-3386-4337-a1a4-edfe3d7f3411","ios":"levelo://app?vid=5e62b23f-3386-4337-a1a4-edfe3d7f3411"},"vehicle_type_id":"4","last_reported":1766992637,"current_range_meters":8400,"station_id":"ce4bhnh2rcd13ifvqgug","pricing_plan_id":"cebpf4jnsgd1na2vs0mg"},{"bike_id":"ef10592e-adff-49b5-8467-d9f686a1a24b","system_id":"levelo_inurba_marseille","lat":43.281612,"lon":5.426366,"is_reserved":false,"is_disabled":false,"rental_uris":{"android":"levelo://app?vid=ef10592e-adff-49b5-8467-d9f686a1a24b","ios":"levelo://app?vid=ef10592e-adff-49b5-8467-d9f686a1a24b"},"vehicle_type_id":"4","last_reported":1766992637,"current_range_meters":8400,"station_id":"ce4bhnh2rcd13ifvqgug","pricing_plan_id":"cebpf4jnsgd1na2vs0mg"},{"bike_id":"b8359eb8-309f-4919-a9d8-14bc8a289068","system_id":"levelo_inurba_marseille","lat":43.29845,"lon":5.381046,"is_reserved":false,"is_disabled":false,"rental_uris":{"android":"levelo://app?vid=b8359eb8-309f-4919-a9d8-14bc8a289068","ios":"levelo://app?vid=b8359eb8-309f-4919-a9d8-14bc8a289068"},"vehicle_type_id":"4","last_reported":1766992637,"current_range_meters":8400,"station_id":"","pricing_plan_id":"cebpf4jnsgd1na2vs0mg"},{"bike_id":"8219a7e0-26be-492b-bfe0-b26fb4fbe056","system_id":"levelo_inurba_marseille","lat":43.297292,"lon":5.376988,"is_reserved":false,"is_disabled":false,"rental_uris":{"android":"levelo://app?vid=8219a7e0-26be-492b-bfe0-b26fb4fbe056","ios":"levelo://app?vid=8219a7e0-26be-492b-bfe0-b26fb4fbe056"},"vehicle_type_id":"4","last_reported":1766992637,"current_range_meters":8400,"station_id":"ce4bgkh2rcd13ifvqbl0","pricing_plan_id":"cebpf4jnsgd1na2vs0mg"},{"bike_id":"cf0e2dfe-8751-4251-bbd3-3ad00be9f3ad","system_id":"levelo_inurba_marseille","lat":43.28482,"lon":5.48393,"is_reserved":false,"is_disabled":false,"rental_uris":{"android":"levelo://app?vid=cf0e2dfe-8751-4251-bbd3-3ad00be9f3ad","ios":"levelo://app?vid=cf0e2dfe-8751-4251-bbd3-3ad00be9f3ad"},"vehicle_type_id":"4","last_reported":1766992637,"current_range_meters":8400,"station_id":"st_d3svhcjqgbts73a3dn0g","pricing_plan_id":"cebpf4jnsgd1na2vs0mg"},{"bike_id":"9e141b39-0e68-4f68-bcde-138c49258b29","system_id":"levelo_inurba_marseille","lat":43.311794,"lon":5.387106,"is_reserved":false,"is_disabled":false,"rental_uris":{"android":"levelo://app?vid=9e141b39-0e68-4f68-bcde-138c49258b29","ios":"levelo://app?vid=9e141b39-0e68-4f68-bcde-138c49258b29"},"vehicle_type_id":"4","last_reported":1766992637,"current_range_meters":8400,"station_id":"ce4bgv12rcd13ifvqcp0","pricing_plan_id":"cebpf4jnsgd1na2vs0mg"},{"bike_id":"36e3ab74-d85b-46de-9904-53928a1da310","system_id":"levelo_inurba_marseille","lat":43.25673,"lon":5.40018,"is_reserved":false,"is_disabled":false,"rental_uris":{"android":"levelo://app?vid=36e3ab74-d85b-46de-9904-53928a1da310","ios":"levelo://app?vid=36e3ab74-d85b-46de-9904-53928a1da310"},"vehicle_type_id":"4","last_reported":1766992637,"current_range_meters":8800,"station_id":"","pricing_plan_id":"cebpf4jnsgd1na2vs0mg"},{"bike_id":"fd4467b5-dbcb-4ead-98d2-8d3da410caee","system_id":"levelo_inurba_marseille","lat":43.32025,"lon":5.41591,"is_reserved":false,"is_disabled":true,"rental_uris":{"android":"levelo://app?vid=fd4467b5-dbcb-4ead-98d2-8d3da410caee","ios":"levelo://app?vid=fd4467b5-dbcb-4ead-98d2-8d3da410caee"},"vehicle_type_id":"4","last_reported":1766992637,"current_range_meters":8800,"station_id":"ce4bhq92rcd13ifvqhkg","pricing_plan_id":"cebpf4jnsgd1na2vs0mg"},{"bike_id":"6f43cfcd-5b7c-4880-b513-fb31e9502d04","system_id":"levelo_inurba_marseille","lat":43.28029,"lon":5.44001,"is_reserved":false,"is_disabled":false,"rental_uris":{"android":"levelo://app?vid=6f43cfcd-5b7c-4880-b513-fb31e9502d04","ios":"levelo://app?vid=6f43cfcd-5b7c-4880-b513-fb31e9502d04"},"vehicle_type_id":"4","last_reported":1766992637,"current_range_meters":8800,"station_id":"","pricing_plan_id":"cebpf4jnsgd1na2vs0mg"},{"bike_id":"d6a449d9-67ef-4444-ae17-bd1e29b48728","system_id":"levelo_inurba_marseille","lat":43.285767,"lon":5.429835,"is_reserved":false,"is_disabled":false,"rental_uris":{"android":"levelo://app?vid=d6a449d9-67ef-4444-ae17-bd1e29b48728","ios":"levelo://app?vid=d6a449d9-67ef-4444-ae17-bd1e29b48728"},"vehicle_type_id":"4","last_reported":1766992637,"current_range_meters":8800,"station_id":"","pricing_plan_id":"cebpf4jnsgd1na2vs0mg"},{"bike_id":"9b2d0712-3ac5-402d-bf31-0ee5331ac79b","system_id":"levelo_inurba_marseille","lat":43.29874,"lon":5.37696,"is_reserved":false,"is_disabled":false,"rental_uris":{"android":"levelo://app?vid=9b2d0712-3ac5-402d-bf31-0ee5331ac79b","ios":"levelo://app?vid=9b2d0712-3ac5-402d-bf31-0ee5331ac79b"},"vehicle_type_id":"4","last_reported":1766992637,"current_range_meters":8800,"station_id":"","pricing_plan_id":"cebpf4jnsgd1na2vs0mg"},{"bike_id":"81062f73-91d6-4254-837a-3a79f2f3a1d9","system_id":"levelo_inurba_marseille","lat":43.28114,"lon":5.38905,"is_reserved":false,"is_disabled":false,"rental_uris":{"android":"levelo://app?vid=81062f73-91d6-4254-837a-3a79f2f3a1d9","ios":"levelo://app?vid=81062f73-91d6-4254-837a-3a79f2f3a1d9"},"vehicle_type_id":"4","last_reported":1766992637,"current_range_meters":8800,"station_id":"","pricing_plan_id":"cebpf4jnsgd1na2vs0mg"},{"bike_id":"86f9bcbd-32e9-428e-99c3-43e9d0d37532","system_id":"levelo_inurba_marseille","lat":43.22935,"lon":5.35374,"is_reserved":false,"is_disabled":false,"rental_uris":{"android":"levelo://app?vid=86f9bcbd-32e9-428e-99c3-43e9d0d37532","ios":"levelo://app?vid=86f9bcbd-32e9-428e-99c3-43e9d0d37532"},"vehicle_type_id":"4","last_reported":1766992637,"current_range_meters":8800,"station_id":"cpo3532slgdg3j2ikp40","pricing_plan_id":"cebpf4jnsgd1na2vs0mg"},{"bike_id":"93668d68-d030-4a6b-8a18-92aae4171ebd","system_id":"levelo_inurba_marseille","lat":43.30527,"lon":5.36516,"is_reserved":false,"is_disabled":false,"rental_uris":{"android":"levelo://app?vid=93668d68-d030-4a6b-8a18-92aae4171ebd","ios":"levelo://app?vid=93668d68-d030-4a6b-8a18-92aae4171ebd"},"vehicle_type_id":"4","last_reported":1766992637,"current_range_meters":9200,"station_id":"","pricing_plan_id":"cebpf4jnsgd1na2vs0mg"},{"bike_id":"ca108dd5-43c0-433a-bcb7-55c9a2e6c037","system_id":"levelo_inurba_marseille","lat":43.32032,"lon":5.37436,"is_reserved":false,"is_disabled":false,"rental_uris":{"android":"levelo://app?vid=ca108dd5-43c0-433a-bcb7-55c9a2e6c037","ios":"levelo://app?vid=ca108dd5-43c0-433a-bcb7-55c9a2e6c037"},"vehicle_type_id":"4","last_reported":1766992637,"current_range_meters":9200,"station_id":"","pricing_plan_id":"cebpf4jnsgd1na2vs0mg"},{"bike_id":"ca54b8c2-a6c5-4699-8603-0ca8d9b98b82","system_id":"levelo_inurba_marseille","lat":43.3042,"lon":5.412838,"is_reserved":false,"is_disabled":false,"rental_uris":{"android":"levelo://app?vid=ca54b8c2-a6c5-4699-8603-0ca8d9b98b82","ios":"levelo://app?vid=ca54b8c2-a6c5-4699-8603-0ca8d9b98b82"},"vehicle_type_id":"4","last_reported":1766992637,"current_range_meters":9200,"station_id":"ce4bhop2rcd13ifvqh8g","pricing_plan_id":"cebpf4jnsgd1na2vs0mg"},{"bike_id":"d6e88a96-e819-42ed-ba47-0ad831dd2b72","system_id":"levelo_inurba_marseille","lat":43.29572,"lon":5.37503,"is_reserved":false,"is_disabled":false,"rental_uris":{"android":"levelo://app?vid=d6e88a96-e819-42ed-ba47-0ad831dd2b72","ios":"levelo://app?vid=d6e88a96-e819-42ed-ba47-0ad831dd2b72"},"vehicle_type_id":"4","last_reported":1766992637,"current_range_meters":9200,"station_id":"ce4bgh92rcd13ifvqb50","pricing_plan_id":"cebpf4jnsgd1na2vs0mg"},{"bike_id":"eb087d7f-76f2-4f0e-ab86-400d39571005","system_id":"levelo_inurba_marseille","lat":43.284457,"lon":5.391829,"is_reserved":false,"is_disabled":true,"rental_uris":{"android":"levelo://app?vid=eb087d7f-76f2-4f0e-ab86-400d39571005","ios":"levelo://app?vid=eb087d7f-76f2-4f0e-ab86-400d39571005"},"vehicle_type_id":"4","last_reported":1766992637,"current_range_meters":9200,"station_id":"ce4bhoh2rcd13ifvqh5g","pricing_plan_id":"cebpf4jnsgd1na2vs0mg"},{"bike_id":"de05e0fb-75d0-4fde-9f37-6a5a74a45811","system_id":"levelo_inurba_marseille","lat":43.24546,"lon":5.39521,"is_reserved":false,"is_disabled":false,"rental_uris":{"android":"levelo://app?vid=de05e0fb-75d0-4fde-9f37-6a5a74a45811","ios":"levelo://app?vid=de05e0fb-75d0-4fde-9f37-6a5a74a45811"},"vehicle_type_id":"4","last_reported":1766992637,"current_range_meters":9200,"station_id":"ce4bhlp2rcd13ifvqgjg","pricing_plan_id":"cebpf4jnsgd1na2vs0mg"},{"bike_id":"6f931f24-09d5-49e4-bcaf-80c2cd2a82ec","system_id":"levelo_inurba_marseille","lat":43.28669,"lon":5.3853,"is_reserved":false,"is_disabled":false,"rental_uris":{"android":"levelo://app?vid=6f931f24-09d5-49e4-bcaf-80c2cd2a82ec","ios":"levelo://app?vid=6f931f24-09d5-49e4-bcaf-80c2cd2a82ec"},"vehicle_type_id":"4","last_reported":1766992637,"current_range_meters":9200,"station_id":"","pricing_plan_id":"cebpf4jnsgd1na2vs0mg"},{"bike_id":"9f06c61c-e328-4887-a7b1-d9ecc55f132d","system_id":"levelo_inurba_marseille","lat":43.31321,"lon":5.3969,"is_reserved":false,"is_disabled":false,"rental_uris":{"android":"levelo://app?vid=9f06c61c-e328-4887-a7b1-d9ecc55f132d","ios":"levelo://app?vid=9f06c61c-e328-4887-a7b1-d9ecc55f132d"},"vehicle_type_id":"4","last_reported":1766992637,"current_range_meters":9200,"station_id":"ce4bgvp2rcd13ifvqcu0","pricing_plan_id":"cebpf4jnsgd1na2vs0mg"},{"bike_id":"47552ee0-d854-4e17-8af3-88a0a30502ea","system_id":"levelo_inurba_marseille","lat":43.28869,"lon":5.42537,"is_reserved":false,"is_disabled":false,"rental_uris":{"android":"levelo://app?vid=47552ee0-d854-4e17-8af3-88a0a30502ea","ios":"levelo://app?vid=47552ee0-d854-4e17-8af3-88a0a30502ea"},"vehicle_type_id":"4","last_reported":1766992637,"current_range_meters":9200,"station_id":"st_d3b462108ojc7389ooeg","pricing_plan_id":"cebpf4jnsgd1na2vs0mg"},{"bike_id":"e9ffa096-acd4-4048-a7b2-1c444588a8ee","system_id":"levelo_inurba_marseille","lat":43.28532,"lon":5.44083,"is_reserved":false,"is_disabled":false,"rental_uris":{"android":"levelo://app?vid=e9ffa096-acd4-4048-a7b2-1c444588a8ee","ios":"levelo://app?vid=e9ffa096-acd4-4048-a7b2-1c444588a8ee"},"vehicle_type_id":"4","last_reported":1766992637,"current_range_meters":9200,"station_id":"st_d3j3df2ikq2c7380ej80","pricing_plan_id":"cebpf4jnsgd1na2vs0mg"},{"bike_id":"3d8062de-4bd0-49c7-86a6-7bf3b5df4845","system_id":"levelo_inurba_marseille","lat":43.28473,"lon":5.484,"is_reserved":false,"is_disabled":false,"rental_uris":{"android":"levelo://app?vid=3d8062de-4bd0-49c7-86a6-7bf3b5df4845","ios":"levelo://app?vid=3d8062de-4bd0-49c7-86a6-7bf3b5df4845"},"vehicle_type_id":"4","last_reported":1766992637,"current_range_meters":9200,"station_id":"","pricing_plan_id":"cebpf4jnsgd1na2vs0mg"},{"bike_id":"cf261b2f-f39a-47f5-ac5b-384674e05890","system_id":"levelo_inurba_marseille","lat":43.29611,"lon":5.38101,"is_reserved":false,"is_disabled":false,"rental_uris":{"android":"levelo://app?vid=cf261b2f-f39a-47f5-ac5b-384674e05890","ios":"levelo://app?vid=cf261b2f-f39a-47f5-ac5b-384674e05890"},"vehicle_type_id":"4","last_reported":1766992637,"current_range_meters":9200,"station_id":"ce4bgl12rcd13ifvqbo0","pricing_plan_id":"cebpf4jnsgd1na2vs0mg"},{"bike_id":"5089722c-f7e0-4066-8ac8-35582342af82","system_id":"levelo_inurba_marseille","lat":43.29857,"lon":5.37627,"is_reserved":false,"is_disabled":false,"rental_uris":{"android":"levelo://app?vid=5089722c-f7e0-4066-8ac8-35582342af82","ios":"levelo://app?vid=5089722c-f7e0-4066-8ac8-35582342af82"},"vehicle_type_id":"4","last_reported":1766992637,"current_range_meters":9600,"station_id":"","pricing_plan_id":"cebpf4jnsgd1na2vs0mg"},{"bike_id":"b672c522-aca1-4885-98f6-4e99eceec109","system_id":"levelo_inurba_marseille","lat":43.3006,"lon":5.38742,"is_reserved":false,"is_disabled":true,"rental_uris":{"android":"levelo://app?vid=b672c522-aca1-4885-98f6-4e99eceec109","ios":"levelo://app?vid=b672c522-aca1-4885-98f6-4e99eceec109"},"vehicle_type_id":"4","last_reported":1766992637,"current_range_meters":9600,"station_id":"","pricing_plan_id":"cebpf4jnsgd1na2vs0mg"},{"bike_id":"f6e6dcdd-f74f-4d28-9f48-2ce11c11db83","system_id":"levelo_inurba_marseille","lat":43.29572,"lon":5.37496,"is_reserved":false,"is_disabled":false,"rental_uris":{"android":"levelo://app?vid=f6e6dcdd-f74f-4d28-9f48-2ce11c11db83","ios":"levelo://app?vid=f6e6dcdd-f74f-4d28-9f48-2ce11c11db83"},"vehicle_type_id":"4","last_reported":1766992637,"current_range_meters":9600,"station_id":"ce4bgh92rcd13ifvqb50","pricing_plan_id":"cebpf4jnsgd1na2vs0mg"},{"bike_id":"a62303ff-bb49-4dd5-ac58-5e4e023411d7","system_id":"levelo_inurba_marseille","lat":43.23954,"lon":5.36632,"is_reserved":false,"is_disabled":false,"rental_uris":{"android":"levelo://app?vid=a62303ff-bb49-4dd5-ac58-5e4e023411d7","ios":"levelo://app?vid=a62303ff-bb49-4dd5-ac58-5e4e023411d7"},"vehicle_type_id":"4","last_reported":1766992637,"current_range_meters":9600,"station_id":"ce4bhi12rcd13ifvqfp0","pricing_plan_id":"cebpf4jnsgd1na2vs0mg"},{"bike_id":"1ac4e350-66c1-44e9-8ae3-e6cd49644fba","system_id":"levelo_inurba_marseille","lat":43.28473,"lon":5.38406,"is_reserved":false,"is_disabled":false,"rental_uris":{"android":"levelo://app?vid=1ac4e350-66c1-44e9-8ae3-e6cd49644fba","ios":"levelo://app?vid=1ac4e350-66c1-44e9-8ae3-e6cd49644fba"},"vehicle_type_id":"4","last_reported":1766992637,"current_range_meters":9600,"station_id":"ce4bh512rcd13ifvqe3g","pricing_plan_id":"cebpf4jnsgd1na2vs0mg"},{"bike_id":"80dbd64a-bc91-4c6f-885a-5048f29c86df","system_id":"levelo_inurba_marseille","lat":43.26497,"lon":5.39528,"is_reserved":false,"is_disabled":false,"rental_uris":{"android":"levelo://app?vid=80dbd64a-bc91-4c6f-885a-5048f29c86df","ios":"levelo://app?vid=80dbd64a-bc91-4c6f-885a-5048f29c86df"},"vehicle_type_id":"4","last_reported":1766992637,"current_range_meters":9600,"station_id":"ce4bhi12rcd13ifvqfq0","pricing_plan_id":"cebpf4jnsgd1na2vs0mg"},{"bike_id":"14ae9959-6d18-4598-8253-e78df69f7308","system_id":"levelo_inurba_marseille","lat":43.303,"lon":5.36924,"is_reserved":false,"is_disabled":false,"rental_uris":{"android":"levelo://app?vid=14ae9959-6d18-4598-8253-e78df69f7308","ios":"levelo://app?vid=14ae9959-6d18-4598-8253-e78df69f7308"},"vehicle_type_id":"4","last_reported":1766992637,"current_range_meters":9600,"station_id":"ce4bgqh2rcd13ifvqc5g","pricing_plan_id":"cebpf4jnsgd1na2vs0mg"},{"bike_id":"b0670612-f386-45a7-b298-51cbe92468c8","system_id":"levelo_inurba_marseille","lat":43.29724,"lon":5.37694,"is_reserved":false,"is_disabled":false,"rental_uris":{"android":"levelo://app?vid=b0670612-f386-45a7-b298-51cbe92468c8","ios":"levelo://app?vid=b0670612-f386-45a7-b298-51cbe92468c8"},"vehicle_type_id":"4","last_reported":1766992637,"current_range_meters":9600,"station_id":"ce4bgkh2rcd13ifvqbl0","pricing_plan_id":"cebpf4jnsgd1na2vs0mg"},{"bike_id":"c5ceed16-6dfe-409f-82bf-89ae8b5810cf","system_id":"levelo_inurba_marseille","lat":43.28528,"lon":5.44099,"is_reserved":false,"is_disabled":false,"rental_uris":{"android":"levelo://app?vid=c5ceed16-6dfe-409f-82bf-89ae8b5810cf","ios":"levelo://app?vid=c5ceed16-6dfe-409f-82bf-89ae8b5810cf"},"vehicle_type_id":"4","last_reported":1766992637,"current_range_meters":9600,"station_id":"st_d3j3df2ikq2c7380ej80","pricing_plan_id":"cebpf4jnsgd1na2vs0mg"},{"bike_id":"c84b8e47-5802-4c21-b1cc-1df47c4f26c2","system_id":"levelo_inurba_marseille","lat":43.284782,"lon":5.483903,"is_reserved":false,"is_disabled":false,"rental_uris":{"android":"levelo://app?vid=c84b8e47-5802-4c21-b1cc-1df47c4f26c2","ios":"levelo://app?vid=c84b8e47-5802-4c21-b1cc-1df47c4f26c2"},"vehicle_type_id":"4","last_reported":1766992637,"current_range_meters":9600,"station_id":"st_d3svhcjqgbts73a3dn0g","pricing_plan_id":"cebpf4jnsgd1na2vs0mg"},{"bike_id":"c342fbd5-df63-43d2-911d-bfa0fcc44689","system_id":"levelo_inurba_marseille","lat":43.33087,"lon":5.41035,"is_reserved":false,"is_disabled":false,"rental_uris":{"android":"levelo://app?vid=c342fbd5-df63-43d2-911d-bfa0fcc44689","ios":"levelo://app?vid=c342fbd5-df63-43d2-911d-bfa0fcc44689"},"vehicle_type_id":"4","last_reported":1766992637,"current_range_meters":9600,"station_id":"","pricing_plan_id":"cebpf4jnsgd1na2vs0mg"},{"bike_id":"2959011c-1ba7-48fe-a67a-5bbd5cd550a7","system_id":"levelo_inurba_marseille","lat":43.263708,"lon":5.410755,"is_reserved":false,"is_disabled":false,"rental_uris":{"android":"levelo://app?vid=2959011c-1ba7-48fe-a67a-5bbd5cd550a7","ios":"levelo://app?vid=2959011c-1ba7-48fe-a67a-5bbd5cd550a7"},"vehicle_type_id":"4","last_reported":1766992637,"current_range_meters":9600,"station_id":"st_d4e5ca6na9uc73bfl5fg","pricing_plan_id":"cebpf4jnsgd1na2vs0mg"},{"bike_id":"04b61149-510d-4bf6-81d6-a065cc99d735","system_id":"levelo_inurba_marseille","lat":43.23179,"lon":5.39964,"is_reserved":false,"is_disabled":false,"rental_uris":{"android":"levelo://app?vid=04b61149-510d-4bf6-81d6-a065cc99d735","ios":"levelo://app?vid=04b61149-510d-4bf6-81d6-a065cc99d735"},"vehicle_type_id":"4","last_reported":1766992637,"current_range_meters":9600,"station_id":"ce4bhn12rcd13ifvqgqg","pricing_plan_id":"cebpf4jnsgd1na2vs0mg"},{"bike_id":"4d26a3d3-9dfd-4a2f-9328-cc08376c9aa1","system_id":"levelo_inurba_marseille","lat":43.27835,"lon":5.39203,"is_reserved":false,"is_disabled":false,"rental_uris":{"android":"levelo://app?vid=4d26a3d3-9dfd-4a2f-9328-cc08376c9aa1","ios":"levelo://app?vid=4d26a3d3-9dfd-4a2f-9328-cc08376c9aa1"},"vehicle_type_id":"4","last_reported":1766992637,"current_range_meters":10000,"station_id":"ce4bhjp2rcd13ifvqga0","pricing_plan_id":"cebpf4jnsgd1na2vs0mg"},{"bike_id":"d07dc22c-a864-4104-81e7-c60339403064","system_id":"levelo_inurba_marseille","lat":43.29642,"lon":5.38135,"is_reserved":false,"is_disabled":false,"rental_uris":{"android":"levelo://app?vid=d07dc22c-a864-4104-81e7-c60339403064","ios":"levelo://app?vid=d07dc22c-a864-4104-81e7-c60339403064"},"vehicle_type_id":"4","last_reported":1766992637,"current_range_meters":10000,"station_id":"","pricing_plan_id":"cebpf4jnsgd1na2vs0mg"},{"bike_id":"84edb561-7951-432d-ad1a-5c5c09f836c7","system_id":"levelo_inurba_marseille","lat":43.21182,"lon":5.35075,"is_reserved":false,"is_disabled":false,"rental_uris":{"android":"levelo://app?vid=84edb561-7951-432d-ad1a-5c5c09f836c7","ios":"levelo://app?vid=84edb561-7951-432d-ad1a-5c5c09f836c7"},"vehicle_type_id":"4","last_reported":1766992637,"current_range_meters":10000,"station_id":"st_cvj6sg6p6f1abm77japg","pricing_plan_id":"cebpf4jnsgd1na2vs0mg"},{"bike_id":"d5157bc4-281e-4273-a854-3dd0ece413ba","system_id":"levelo_inurba_marseille","lat":43.30733,"lon":5.42438,"is_reserved":false,"is_disabled":false,"rental_uris":{"android":"levelo://app?vid=d5157bc4-281e-4273-a854-3dd0ece413ba","ios":"levelo://app?vid=d5157bc4-281e-4273-a854-3dd0ece413ba"},"vehicle_type_id":"4","last_reported":1766992637,"current_range_meters":10000,"station_id":"st_cvj6ca6bvosntc0bfgr0","pricing_plan_id":"cebpf4jnsgd1na2vs0mg"},{"bike_id":"11b98af3-c435-4c49-b9a3-6f66ee04ce85","system_id":"levelo_inurba_marseille","lat":43.304184,"lon":5.412921,"is_reserved":false,"is_disabled":false,"rental_uris":{"android":"levelo://app?vid=11b98af3-c435-4c49-b9a3-6f66ee04ce85","ios":"levelo://app?vid=11b98af3-c435-4c49-b9a3-6f66ee04ce85"},"vehicle_type_id":"4","last_reported":1766992637,"current_range_meters":10000,"station_id":"ce4bhop2rcd13ifvqh8g","pricing_plan_id":"cebpf4jnsgd1na2vs0mg"},{"bike_id":"dc47a473-6377-4424-adf4-6498be065ab5","system_id":"levelo_inurba_marseille","lat":43.26936,"lon":5.38914,"is_reserved":false,"is_disabled":false,"rental_uris":{"android":"levelo://app?vid=dc47a473-6377-4424-adf4-6498be065ab5","ios":"levelo://app?vid=dc47a473-6377-4424-adf4-6498be065ab5"},"vehicle_type_id":"4","last_reported":1766992637,"current_range_meters":10000,"station_id":"ce4bhhh2rcd13ifvqfl0","pricing_plan_id":"cebpf4jnsgd1na2vs0mg"},{"bike_id":"29fe9c73-68f9-4808-81a4-ddd93340fcf1","system_id":"levelo_inurba_marseille","lat":43.296,"lon":5.38108,"is_reserved":false,"is_disabled":false,"rental_uris":{"android":"levelo://app?vid=29fe9c73-68f9-4808-81a4-ddd93340fcf1","ios":"levelo://app?vid=29fe9c73-68f9-4808-81a4-ddd93340fcf1"},"vehicle_type_id":"4","last_reported":1766992637,"current_range_meters":10000,"station_id":"ce4bgl12rcd13ifvqbo0","pricing_plan_id":"cebpf4jnsgd1na2vs0mg"},{"bike_id":"c03aa070-26a3-46a4-b104-b236ef7e32dd","system_id":"levelo_inurba_marseille","lat":43.29849,"lon":5.36266,"is_reserved":false,"is_disabled":false,"rental_uris":{"android":"levelo://app?vid=c03aa070-26a3-46a4-b104-b236ef7e32dd","ios":"levelo://app?vid=c03aa070-26a3-46a4-b104-b236ef7e32dd"},"vehicle_type_id":"4","last_reported":1766992637,"current_range_meters":10000,"station_id":"ce4bgpp2rcd13ifvqc3g","pricing_plan_id":"cebpf4jnsgd1na2vs0mg"},{"bike_id":"0587f04e-e1d2-45f2-83bf-7bb7cf6afa1b","system_id":"levelo_inurba_marseille","lat":43.2315,"lon":5.437029,"is_reserved":false,"is_disabled":true,"rental_uris":{"android":"levelo://app?vid=0587f04e-e1d2-45f2-83bf-7bb7cf6afa1b","ios":"levelo://app?vid=0587f04e-e1d2-45f2-83bf-7bb7cf6afa1b"},"vehicle_type_id":"4","last_reported":1766992637,"current_range_meters":10000,"station_id":"ce4bhmp2rcd13ifvqgog","pricing_plan_id":"cebpf4jnsgd1na2vs0mg"},{"bike_id":"f0719800-ec59-4207-a9ac-9d4158658ade","system_id":"levelo_inurba_marseille","lat":43.29632,"lon":5.37154,"is_reserved":false,"is_disabled":false,"rental_uris":{"android":"levelo://app?vid=f0719800-ec59-4207-a9ac-9d4158658ade","ios":"levelo://app?vid=f0719800-ec59-4207-a9ac-9d4158658ade"},"vehicle_type_id":"4","last_reported":1766992637,"current_range_meters":10000,"station_id":"ce4bgnh2rcd13ifvqc0g","pricing_plan_id":"cebpf4jnsgd1na2vs0mg"},{"bike_id":"757122f6-080a-424e-8657-a7d9bec52449","system_id":"levelo_inurba_marseille","lat":43.313428,"lon":5.367194,"is_reserved":false,"is_disabled":false,"rental_uris":{"android":"levelo://app?vid=757122f6-080a-424e-8657-a7d9bec52449","ios":"levelo://app?vid=757122f6-080a-424e-8657-a7d9bec52449"},"vehicle_type_id":"4","last_reported":1766992637,"current_range_meters":10000,"station_id":"ce4bgr92rcd13ifvqc6g","pricing_plan_id":"cebpf4jnsgd1na2vs0mg"},{"bike_id":"01c912e2-a222-42e6-94b0-689d01614e7e","system_id":"levelo_inurba_marseille","lat":43.28483,"lon":5.3845,"is_reserved":false,"is_disabled":false,"rental_uris":{"android":"levelo://app?vid=01c912e2-a222-42e6-94b0-689d01614e7e","ios":"levelo://app?vid=01c912e2-a222-42e6-94b0-689d01614e7e"},"vehicle_type_id":"4","last_reported":1766992637,"current_range_meters":10000,"station_id":"ce4bh512rcd13ifvqe3g","pricing_plan_id":"cebpf4jnsgd1na2vs0mg"},{"bike_id":"f1e029ec-966a-4c18-90a6-6313298321ec","system_id":"levelo_inurba_marseille","lat":43.24232,"lon":5.39318,"is_reserved":false,"is_disabled":false,"rental_uris":{"android":"levelo://app?vid=f1e029ec-966a-4c18-90a6-6313298321ec","ios":"levelo://app?vid=f1e029ec-966a-4c18-90a6-6313298321ec"},"vehicle_type_id":"4","last_reported":1766992637,"current_range_meters":10000,"station_id":"","pricing_plan_id":"cebpf4jnsgd1na2vs0mg"},{"bike_id":"5f26fd32-d57c-4a0b-a416-65f73ea2479e","system_id":"levelo_inurba_marseille","lat":43.32777,"lon":5.40664,"is_reserved":false,"is_disabled":false,"rental_uris":{"android":"levelo://app?vid=5f26fd32-d57c-4a0b-a416-65f73ea2479e","ios":"levelo://app?vid=5f26fd32-d57c-4a0b-a416-65f73ea2479e"},"vehicle_type_id":"4","last_reported":1766992637,"current_range_meters":10000,"station_id":"","pricing_plan_id":"cebpf4jnsgd1na2vs0mg"},{"bike_id":"3a7a242b-3435-4529-a804-2b646f8da446","system_id":"levelo_inurba_marseille","lat":43.26942,"lon":5.4025,"is_reserved":false,"is_disabled":false,"rental_uris":{"android":"levelo://app?vid=3a7a242b-3435-4529-a804-2b646f8da446","ios":"levelo://app?vid=3a7a242b-3435-4529-a804-2b646f8da446"},"vehicle_type_id":"4","last_reported":1766992637,"current_range_meters":10000,"station_id":"cjm6bp8fraef2m0cb0m0","pricing_plan_id":"cebpf4jnsgd1na2vs0mg"},{"bike_id":"31704bec-4f9a-49bc-bf97-b66633aba2e8","system_id":"levelo_inurba_marseille","lat":43.26018,"lon":5.41738,"is_reserved":false,"is_disabled":false,"rental_uris":{"android":"levelo://app?vid=31704bec-4f9a-49bc-bf97-b66633aba2e8","ios":"levelo://app?vid=31704bec-4f9a-49bc-bf97-b66633aba2e8"},"vehicle_type_id":"4","last_reported":1766992637,"current_range_meters":10000,"station_id":"","pricing_plan_id":"cebpf4jnsgd1na2vs0mg"},{"bike_id":"73a639c2-eb99-415c-8e85-b2a348b888e6","system_id":"levelo_inurba_marseille","lat":43.30128,"lon":5.387656,"is_reserved":false,"is_disabled":false,"rental_uris":{"android":"levelo://app?vid=73a639c2-eb99-415c-8e85-b2a348b888e6","ios":"levelo://app?vid=73a639c2-eb99-415c-8e85-b2a348b888e6"},"vehicle_type_id":"4","last_reported":1766992637,"current_range_meters":10800,"station_id":"ce4bghh2rcd13ifvqb60","pricing_plan_id":"cebpf4jnsgd1na2vs0mg"},{"bike_id":"409f22f5-c320-45ca-851d-1966d2bb3619","system_id":"levelo_inurba_marseille","lat":43.30764,"lon":5.37028,"is_reserved":false,"is_disabled":false,"rental_uris":{"android":"levelo://app?vid=409f22f5-c320-45ca-851d-1966d2bb3619","ios":"levelo://app?vid=409f22f5-c320-45ca-851d-1966d2bb3619"},"vehicle_type_id":"4","last_reported":1766992637,"current_range_meters":10800,"station_id":"","pricing_plan_id":"cebpf4jnsgd1na2vs0mg"},{"bike_id":"942ebd73-296e-419b-b1a3-08e0c2700002","system_id":"levelo_inurba_marseille","lat":43.31062,"lon":5.38339,"is_reserved":false,"is_disabled":false,"rental_uris":{"android":"levelo://app?vid=942ebd73-296e-419b-b1a3-08e0c2700002","ios":"levelo://app?vid=942ebd73-296e-419b-b1a3-08e0c2700002"},"vehicle_type_id":"4","last_reported":1766992637,"current_range_meters":10800,"station_id":"ce4bgv92rcd13ifvqcr0","pricing_plan_id":"cebpf4jnsgd1na2vs0mg"},{"bike_id":"a431f10d-1c1b-486a-93bf-1bf3d2057a18","system_id":"levelo_inurba_marseille","lat":43.27322,"lon":5.39088,"is_reserved":false,"is_disabled":false,"rental_uris":{"android":"levelo://app?vid=a431f10d-1c1b-486a-93bf-1bf3d2057a18","ios":"levelo://app?vid=a431f10d-1c1b-486a-93bf-1bf3d2057a18"},"vehicle_type_id":"4","last_reported":1766992637,"current_range_meters":10800,"station_id":"ce4bhgp2rcd13ifvqfe0","pricing_plan_id":"cebpf4jnsgd1na2vs0mg"},{"bike_id":"917b698b-6d07-4dcf-be03-698c150ee9f0","system_id":"levelo_inurba_marseille","lat":43.29065,"lon":5.36959,"is_reserved":false,"is_disabled":false,"rental_uris":{"android":"levelo://app?vid=917b698b-6d07-4dcf-be03-698c150ee9f0","ios":"levelo://app?vid=917b698b-6d07-4dcf-be03-698c150ee9f0"},"vehicle_type_id":"4","last_reported":1766992637,"current_range_meters":10800,"station_id":"","pricing_plan_id":"cebpf4jnsgd1na2vs0mg"},{"bike_id":"59ce43fb-ff44-4d6d-a90f-61c10ba0732a","system_id":"levelo_inurba_marseille","lat":43.27489,"lon":5.42472,"is_reserved":false,"is_disabled":false,"rental_uris":{"android":"levelo://app?vid=59ce43fb-ff44-4d6d-a90f-61c10ba0732a","ios":"levelo://app?vid=59ce43fb-ff44-4d6d-a90f-61c10ba0732a"},"vehicle_type_id":"4","last_reported":1766992637,"current_range_meters":10800,"station_id":"ce4bhn92rcd13ifvqgrg","pricing_plan_id":"cebpf4jnsgd1na2vs0mg"},{"bike_id":"54928690-97c0-48f0-b287-763b4f8d51ba","system_id":"levelo_inurba_marseille","lat":43.281543,"lon":5.426613,"is_reserved":false,"is_disabled":false,"rental_uris":{"android":"levelo://app?vid=54928690-97c0-48f0-b287-763b4f8d51ba","ios":"levelo://app?vid=54928690-97c0-48f0-b287-763b4f8d51ba"},"vehicle_type_id":"4","last_reported":1766992637,"current_range_meters":10800,"station_id":"ce4bhnh2rcd13ifvqgug","pricing_plan_id":"cebpf4jnsgd1na2vs0mg"},{"bike_id":"8c27f8dd-49de-48cb-b4c0-2c146ce86148","system_id":"levelo_inurba_marseille","lat":43.29577,"lon":5.38149,"is_reserved":false,"is_disabled":false,"rental_uris":{"android":"levelo://app?vid=8c27f8dd-49de-48cb-b4c0-2c146ce86148","ios":"levelo://app?vid=8c27f8dd-49de-48cb-b4c0-2c146ce86148"},"vehicle_type_id":"4","last_reported":1766992637,"current_range_meters":10800,"station_id":"ce4bgl12rcd13ifvqbo0","pricing_plan_id":"cebpf4jnsgd1na2vs0mg"},{"bike_id":"f773cadc-b3b5-4db5-9263-9f91aa6ae72f","system_id":"levelo_inurba_marseille","lat":43.28466,"lon":5.3587,"is_reserved":false,"is_disabled":false,"rental_uris":{"android":"levelo://app?vid=f773cadc-b3b5-4db5-9263-9f91aa6ae72f","ios":"levelo://app?vid=f773cadc-b3b5-4db5-9263-9f91aa6ae72f"},"vehicle_type_id":"4","last_reported":1766992637,"current_range_meters":10800,"station_id":"ce4bhah2rcd13ifvqei0","pricing_plan_id":"cebpf4jnsgd1na2vs0mg"},{"bike_id":"73316916-f4b9-40c0-bae5-a10ff912f833","system_id":"levelo_inurba_marseille","lat":43.28932,"lon":5.39643,"is_reserved":false,"is_disabled":false,"rental_uris":{"android":"levelo://app?vid=73316916-f4b9-40c0-bae5-a10ff912f833","ios":"levelo://app?vid=73316916-f4b9-40c0-bae5-a10ff912f833"},"vehicle_type_id":"4","last_reported":1766992637,"current_range_meters":10800,"station_id":"ce4bh3h2rcd13ifvqdn0","pricing_plan_id":"cebpf4jnsgd1na2vs0mg"},{"bike_id":"02986807-7a95-4c2f-969e-a1e4c911dc4f","system_id":"levelo_inurba_marseille","lat":43.27938,"lon":5.41031,"is_reserved":false,"is_disabled":false,"rental_uris":{"android":"levelo://app?vid=02986807-7a95-4c2f-969e-a1e4c911dc4f","ios":"levelo://app?vid=02986807-7a95-4c2f-969e-a1e4c911dc4f"},"vehicle_type_id":"4","last_reported":1766992637,"current_range_meters":10800,"station_id":"ce4bhnp2rcd13ifvqh0g","pricing_plan_id":"cebpf4jnsgd1na2vs0mg"},{"bike_id":"49166d3a-7d57-41ae-b5e6-9a6cbabce031","system_id":"levelo_inurba_marseille","lat":43.29686,"lon":5.36771,"is_reserved":false,"is_disabled":false,"rental_uris":{"android":"levelo://app?vid=49166d3a-7d57-41ae-b5e6-9a6cbabce031","ios":"levelo://app?vid=49166d3a-7d57-41ae-b5e6-9a6cbabce031"},"vehicle_type_id":"4","last_reported":1766992637,"current_range_meters":11200,"station_id":"","pricing_plan_id":"cebpf4jnsgd1na2vs0mg"},{"bike_id":"93238dbe-7e18-4ff9-acc5-cf08ef47ac5a","system_id":"levelo_inurba_marseille","lat":43.27426,"lon":5.41462,"is_reserved":false,"is_disabled":false,"rental_uris":{"android":"levelo://app?vid=93238dbe-7e18-4ff9-acc5-cf08ef47ac5a","ios":"levelo://app?vid=93238dbe-7e18-4ff9-acc5-cf08ef47ac5a"},"vehicle_type_id":"4","last_reported":1766992637,"current_range_meters":11200,"station_id":"","pricing_plan_id":"cebpf4jnsgd1na2vs0mg"},{"bike_id":"23fef27e-16b1-41b3-8527-38d1a2c1bd4c","system_id":"levelo_inurba_marseille","lat":43.30553,"lon":5.365354,"is_reserved":false,"is_disabled":false,"rental_uris":{"android":"levelo://app?vid=23fef27e-16b1-41b3-8527-38d1a2c1bd4c","ios":"levelo://app?vid=23fef27e-16b1-41b3-8527-38d1a2c1bd4c"},"vehicle_type_id":"4","last_reported":1766992637,"current_range_meters":11200,"station_id":"ce4bgs12rcd13ifvqcag","pricing_plan_id":"cebpf4jnsgd1na2vs0mg"},{"bike_id":"fdd77af3-8e6b-4198-9033-45b5ff3a53e7","system_id":"levelo_inurba_marseille","lat":43.312256,"lon":5.368664,"is_reserved":false,"is_disabled":false,"rental_uris":{"android":"levelo://app?vid=fdd77af3-8e6b-4198-9033-45b5ff3a53e7","ios":"levelo://app?vid=fdd77af3-8e6b-4198-9033-45b5ff3a53e7"},"vehicle_type_id":"4","last_reported":1766992637,"current_range_meters":11200,"station_id":"ce4bgl92rcd13ifvqbq0","pricing_plan_id":"cebpf4jnsgd1na2vs0mg"},{"bike_id":"4466e4e7-7d9e-4691-9c78-17a073c9b554","system_id":"levelo_inurba_marseille","lat":43.324696,"lon":5.365642,"is_reserved":false,"is_disabled":false,"rental_uris":{"android":"levelo://app?vid=4466e4e7-7d9e-4691-9c78-17a073c9b554","ios":"levelo://app?vid=4466e4e7-7d9e-4691-9c78-17a073c9b554"},"vehicle_type_id":"4","last_reported":1766992637,"current_range_meters":11200,"station_id":"ce4bhs12rcd13ifvqhvg","pricing_plan_id":"cebpf4jnsgd1na2vs0mg"},{"bike_id":"84886109-4483-4131-9b99-6aabd40c89aa","system_id":"levelo_inurba_marseille","lat":43.25936,"lon":5.40901,"is_reserved":false,"is_disabled":false,"rental_uris":{"android":"levelo://app?vid=84886109-4483-4131-9b99-6aabd40c89aa","ios":"levelo://app?vid=84886109-4483-4131-9b99-6aabd40c89aa"},"vehicle_type_id":"4","last_reported":1766992637,"current_range_meters":11200,"station_id":"ce4bhm92rcd13ifvqglg","pricing_plan_id":"cebpf4jnsgd1na2vs0mg"},{"bike_id":"a875dbb3-0ecc-4340-a068-a391d54950ba","system_id":"levelo_inurba_marseille","lat":43.29685,"lon":5.37286,"is_reserved":false,"is_disabled":false,"rental_uris":{"android":"levelo://app?vid=a875dbb3-0ecc-4340-a068-a391d54950ba","ios":"levelo://app?vid=a875dbb3-0ecc-4340-a068-a391d54950ba"},"vehicle_type_id":"4","last_reported":1766992637,"current_range_meters":11200,"station_id":"ce4bgk12rcd13ifvqbj0","pricing_plan_id":"cebpf4jnsgd1na2vs0mg"},{"bike_id":"f9aefd96-ff9f-436b-9129-ecd99bd3e479","system_id":"levelo_inurba_marseille","lat":43.29573,"lon":5.39957,"is_reserved":false,"is_disabled":false,"rental_uris":{"android":"levelo://app?vid=f9aefd96-ff9f-436b-9129-ecd99bd3e479","ios":"levelo://app?vid=f9aefd96-ff9f-436b-9129-ecd99bd3e479"},"vehicle_type_id":"4","last_reported":1766992637,"current_range_meters":11200,"station_id":"ce4bh312rcd13ifvqdj0","pricing_plan_id":"cebpf4jnsgd1na2vs0mg"},{"bike_id":"d72c4de3-c9e7-41ef-b6ae-a17d053a04e8","system_id":"levelo_inurba_marseille","lat":43.26568,"lon":5.38986,"is_reserved":false,"is_disabled":false,"rental_uris":{"android":"levelo://app?vid=d72c4de3-c9e7-41ef-b6ae-a17d053a04e8","ios":"levelo://app?vid=d72c4de3-c9e7-41ef-b6ae-a17d053a04e8"},"vehicle_type_id":"4","last_reported":1766992637,"current_range_meters":11200,"station_id":"ce4bhe12rcd13ifvqf30","pricing_plan_id":"cebpf4jnsgd1na2vs0mg"},{"bike_id":"9b83f865-8af6-453d-980e-50cbfb13843e","system_id":"levelo_inurba_marseille","lat":43.25498,"lon":5.37645,"is_reserved":false,"is_disabled":true,"rental_uris":{"android":"levelo://app?vid=9b83f865-8af6-453d-980e-50cbfb13843e","ios":"levelo://app?vid=9b83f865-8af6-453d-980e-50cbfb13843e"},"vehicle_type_id":"4","last_reported":1766992637,"current_range_meters":11200,"station_id":"ce4bhh12rcd13ifvqff0","pricing_plan_id":"cebpf4jnsgd1na2vs0mg"},{"bike_id":"631b4917-b2c5-4925-86d4-958dd23950ab","system_id":"levelo_inurba_marseille","lat":43.30726,"lon":5.42443,"is_reserved":false,"is_disabled":false,"rental_uris":{"android":"levelo://app?vid=631b4917-b2c5-4925-86d4-958dd23950ab","ios":"levelo://app?vid=631b4917-b2c5-4925-86d4-958dd23950ab"},"vehicle_type_id":"4","last_reported":1766992637,"current_range_meters":11200,"station_id":"st_cvj6ca6bvosntc0bfgr0","pricing_plan_id":"cebpf4jnsgd1na2vs0mg"},{"bike_id":"f737ec76-1ed3-420a-ba1a-4c26fe21313b","system_id":"levelo_inurba_marseille","lat":43.31356,"lon":5.36708,"is_reserved":false,"is_disabled":false,"rental_uris":{"android":"levelo://app?vid=f737ec76-1ed3-420a-ba1a-4c26fe21313b","ios":"levelo://app?vid=f737ec76-1ed3-420a-ba1a-4c26fe21313b"},"vehicle_type_id":"4","last_reported":1766992637,"current_range_meters":11200,"station_id":"ce4bgr92rcd13ifvqc6g","pricing_plan_id":"cebpf4jnsgd1na2vs0mg"},{"bike_id":"a944d8b8-16d2-4f8f-ad76-bfa63a6f7554","system_id":"levelo_inurba_marseille","lat":43.26946,"lon":5.3861,"is_reserved":false,"is_disabled":false,"rental_uris":{"android":"levelo://app?vid=a944d8b8-16d2-4f8f-ad76-bfa63a6f7554","ios":"levelo://app?vid=a944d8b8-16d2-4f8f-ad76-bfa63a6f7554"},"vehicle_type_id":"4","last_reported":1766992637,"current_range_meters":11200,"station_id":"ce4bhh92rcd13ifvqfh0","pricing_plan_id":"cebpf4jnsgd1na2vs0mg"},{"bike_id":"b01ea148-6d75-415a-a691-525a082b33cd","system_id":"levelo_inurba_marseille","lat":43.32487,"lon":5.36568,"is_reserved":false,"is_disabled":false,"rental_uris":{"android":"levelo://app?vid=b01ea148-6d75-415a-a691-525a082b33cd","ios":"levelo://app?vid=b01ea148-6d75-415a-a691-525a082b33cd"},"vehicle_type_id":"4","last_reported":1766992637,"current_range_meters":11200,"station_id":"ce4bhs12rcd13ifvqhvg","pricing_plan_id":"cebpf4jnsgd1na2vs0mg"},{"bike_id":"cb1a5e72-739f-4783-8662-ea812a37dbb1","system_id":"levelo_inurba_marseille","lat":43.27939,"lon":5.41072,"is_reserved":false,"is_disabled":false,"rental_uris":{"android":"levelo://app?vid=cb1a5e72-739f-4783-8662-ea812a37dbb1","ios":"levelo://app?vid=cb1a5e72-739f-4783-8662-ea812a37dbb1"},"vehicle_type_id":"4","last_reported":1766992637,"current_range_meters":11200,"station_id":"ce4bhnp2rcd13ifvqh0g","pricing_plan_id":"cebpf4jnsgd1na2vs0mg"},{"bike_id":"d92812f8-5b57-4c59-8c7f-259f28af8665","system_id":"levelo_inurba_marseille","lat":43.28276,"lon":5.43216,"is_reserved":false,"is_disabled":false,"rental_uris":{"android":"levelo://app?vid=d92812f8-5b57-4c59-8c7f-259f28af8665","ios":"levelo://app?vid=d92812f8-5b57-4c59-8c7f-259f28af8665"},"vehicle_type_id":"4","last_reported":1766992637,"current_range_meters":11200,"station_id":"","pricing_plan_id":"cebpf4jnsgd1na2vs0mg"},{"bike_id":"a5390c1b-8ddc-4e56-baf4-66b1fe2b384c","system_id":"levelo_inurba_marseille","lat":43.28862,"lon":5.42517,"is_reserved":false,"is_disabled":false,"rental_uris":{"android":"levelo://app?vid=a5390c1b-8ddc-4e56-baf4-66b1fe2b384c","ios":"levelo://app?vid=a5390c1b-8ddc-4e56-baf4-66b1fe2b384c"},"vehicle_type_id":"4","last_reported":1766992637,"current_range_meters":11600,"station_id":"st_d3b462108ojc7389ooeg","pricing_plan_id":"cebpf4jnsgd1na2vs0mg"},{"bike_id":"9016c1de-520e-4429-85a2-2967a8b371c6","system_id":"levelo_inurba_marseille","lat":43.3206,"lon":5.41608,"is_reserved":false,"is_disabled":false,"rental_uris":{"android":"levelo://app?vid=9016c1de-520e-4429-85a2-2967a8b371c6","ios":"levelo://app?vid=9016c1de-520e-4429-85a2-2967a8b371c6"},"vehicle_type_id":"4","last_reported":1766992637,"current_range_meters":11600,"station_id":"ce4bhq92rcd13ifvqhkg","pricing_plan_id":"cebpf4jnsgd1na2vs0mg"},{"bike_id":"8e408ba0-2118-43f7-a8ba-d277410a9103","system_id":"levelo_inurba_marseille","lat":43.31239,"lon":5.3807,"is_reserved":false,"is_disabled":false,"rental_uris":{"android":"levelo://app?vid=8e408ba0-2118-43f7-a8ba-d277410a9103","ios":"levelo://app?vid=8e408ba0-2118-43f7-a8ba-d277410a9103"},"vehicle_type_id":"4","last_reported":1766992637,"current_range_meters":11600,"station_id":"","pricing_plan_id":"cebpf4jnsgd1na2vs0mg"},{"bike_id":"f03054fd-325c-4942-bb69-32004d79c98e","system_id":"levelo_inurba_marseille","lat":43.30413,"lon":5.39748,"is_reserved":false,"is_disabled":false,"rental_uris":{"android":"levelo://app?vid=f03054fd-325c-4942-bb69-32004d79c98e","ios":"levelo://app?vid=f03054fd-325c-4942-bb69-32004d79c98e"},"vehicle_type_id":"4","last_reported":1766992637,"current_range_meters":11600,"station_id":"ce4bh092rcd13ifvqd20","pricing_plan_id":"cebpf4jnsgd1na2vs0mg"},{"bike_id":"62cf4cee-7c0c-4908-8bd6-9190e5298cee","system_id":"levelo_inurba_marseille","lat":43.22569,"lon":5.41622,"is_reserved":false,"is_disabled":false,"rental_uris":{"android":"levelo://app?vid=62cf4cee-7c0c-4908-8bd6-9190e5298cee","ios":"levelo://app?vid=62cf4cee-7c0c-4908-8bd6-9190e5298cee"},"vehicle_type_id":"4","last_reported":1766992637,"current_range_meters":11600,"station_id":"st_d2o4gvlbi1j2169b742g","pricing_plan_id":"cebpf4jnsgd1na2vs0mg"},{"bike_id":"4da4d4a4-6ba6-462c-b911-56889a9a05c2","system_id":"levelo_inurba_marseille","lat":43.29964,"lon":5.38514,"is_reserved":false,"is_disabled":false,"rental_uris":{"android":"levelo://app?vid=4da4d4a4-6ba6-462c-b911-56889a9a05c2","ios":"levelo://app?vid=4da4d4a4-6ba6-462c-b911-56889a9a05c2"},"vehicle_type_id":"4","last_reported":1766992637,"current_range_meters":11600,"station_id":"ce4bgip2rcd13ifvqbb0","pricing_plan_id":"cebpf4jnsgd1na2vs0mg"},{"bike_id":"96b57251-3bb8-45a3-9d19-4eef7bda930c","system_id":"levelo_inurba_marseille","lat":43.3147,"lon":5.37304,"is_reserved":false,"is_disabled":false,"rental_uris":{"android":"levelo://app?vid=96b57251-3bb8-45a3-9d19-4eef7bda930c","ios":"levelo://app?vid=96b57251-3bb8-45a3-9d19-4eef7bda930c"},"vehicle_type_id":"4","last_reported":1766992637,"current_range_meters":11600,"station_id":"ce4bgt12rcd13ifvqcd0","pricing_plan_id":"cebpf4jnsgd1na2vs0mg"},{"bike_id":"0b6b7ef6-a186-43b2-9b05-002cedfa6175","system_id":"levelo_inurba_marseille","lat":43.26338,"lon":5.37828,"is_reserved":false,"is_disabled":false,"rental_uris":{"android":"levelo://app?vid=0b6b7ef6-a186-43b2-9b05-002cedfa6175","ios":"levelo://app?vid=0b6b7ef6-a186-43b2-9b05-002cedfa6175"},"vehicle_type_id":"4","last_reported":1766992637,"current_range_meters":11600,"station_id":"ce4bhjp2rcd13ifvqg90","pricing_plan_id":"cebpf4jnsgd1na2vs0mg"},{"bike_id":"cca2ddb1-404e-4449-aab2-dbdbcb941b87","system_id":"levelo_inurba_marseille","lat":43.26566,"lon":5.40316,"is_reserved":false,"is_disabled":false,"rental_uris":{"android":"levelo://app?vid=cca2ddb1-404e-4449-aab2-dbdbcb941b87","ios":"levelo://app?vid=cca2ddb1-404e-4449-aab2-dbdbcb941b87"},"vehicle_type_id":"4","last_reported":1766992637,"current_range_meters":11600,"station_id":"ce4bhmp2rcd13ifvqgng","pricing_plan_id":"cebpf4jnsgd1na2vs0mg"},{"bike_id":"af1f9193-90aa-4f34-b2c4-fb0bbaea183c","system_id":"levelo_inurba_marseille","lat":43.28472,"lon":5.48408,"is_reserved":false,"is_disabled":false,"rental_uris":{"android":"levelo://app?vid=af1f9193-90aa-4f34-b2c4-fb0bbaea183c","ios":"levelo://app?vid=af1f9193-90aa-4f34-b2c4-fb0bbaea183c"},"vehicle_type_id":"4","last_reported":1766992637,"current_range_meters":11600,"station_id":"","pricing_plan_id":"cebpf4jnsgd1na2vs0mg"},{"bike_id":"106b1859-7f56-4998-9be0-286467ccc804","system_id":"levelo_inurba_marseille","lat":43.28459,"lon":5.38398,"is_reserved":false,"is_disabled":false,"rental_uris":{"android":"levelo://app?vid=106b1859-7f56-4998-9be0-286467ccc804","ios":"levelo://app?vid=106b1859-7f56-4998-9be0-286467ccc804"},"vehicle_type_id":"4","last_reported":1766992637,"current_range_meters":11600,"station_id":"ce4bh512rcd13ifvqe3g","pricing_plan_id":"cebpf4jnsgd1na2vs0mg"},{"bike_id":"a47fcbd9-c583-4440-b071-7c4baac900f7","system_id":"levelo_inurba_marseille","lat":43.24045,"lon":5.3776,"is_reserved":false,"is_disabled":false,"rental_uris":{"android":"levelo://app?vid=a47fcbd9-c583-4440-b071-7c4baac900f7","ios":"levelo://app?vid=a47fcbd9-c583-4440-b071-7c4baac900f7"},"vehicle_type_id":"4","last_reported":1766992637,"current_range_meters":11600,"station_id":"ce4bhnp2rcd13ifvqgvg","pricing_plan_id":"cebpf4jnsgd1na2vs0mg"},{"bike_id":"abad47d3-1965-4445-97f9-548d9387c1a5","system_id":"levelo_inurba_marseille","lat":43.28228,"lon":5.39042,"is_reserved":false,"is_disabled":false,"rental_uris":{"android":"levelo://app?vid=abad47d3-1965-4445-97f9-548d9387c1a5","ios":"levelo://app?vid=abad47d3-1965-4445-97f9-548d9387c1a5"},"vehicle_type_id":"4","last_reported":1766992637,"current_range_meters":11600,"station_id":"ce4bhn92rcd13ifvqgsg","pricing_plan_id":"cebpf4jnsgd1na2vs0mg"},{"bike_id":"c58b5fbe-ad23-41d6-9e67-c61ddfb04479","system_id":"levelo_inurba_marseille","lat":43.24804,"lon":5.37451,"is_reserved":false,"is_disabled":false,"rental_uris":{"android":"levelo://app?vid=c58b5fbe-ad23-41d6-9e67-c61ddfb04479","ios":"levelo://app?vid=c58b5fbe-ad23-41d6-9e67-c61ddfb04479"},"vehicle_type_id":"4","last_reported":1766992637,"current_range_meters":11600,"station_id":"ce4bhgh2rcd13ifvqfb0","pricing_plan_id":"cebpf4jnsgd1na2vs0mg"},{"bike_id":"22650f94-9fdb-4e8a-89db-d52c54e1f7d6","system_id":"levelo_inurba_marseille","lat":43.284914,"lon":5.384396,"is_reserved":false,"is_disabled":true,"rental_uris":{"android":"levelo://app?vid=22650f94-9fdb-4e8a-89db-d52c54e1f7d6","ios":"levelo://app?vid=22650f94-9fdb-4e8a-89db-d52c54e1f7d6"},"vehicle_type_id":"4","last_reported":1766992637,"current_range_meters":12000,"station_id":"ce4bh512rcd13ifvqe3g","pricing_plan_id":"cebpf4jnsgd1na2vs0mg"},{"bike_id":"8edc1ab8-c82c-4ca3-afef-ae2ed37ce96b","system_id":"levelo_inurba_marseille","lat":43.3123,"lon":5.36845,"is_reserved":false,"is_disabled":false,"rental_uris":{"android":"levelo://app?vid=8edc1ab8-c82c-4ca3-afef-ae2ed37ce96b","ios":"levelo://app?vid=8edc1ab8-c82c-4ca3-afef-ae2ed37ce96b"},"vehicle_type_id":"4","last_reported":1766992637,"current_range_meters":12000,"station_id":"ce4bgl92rcd13ifvqbq0","pricing_plan_id":"cebpf4jnsgd1na2vs0mg"},{"bike_id":"dc72a47d-0da3-4605-b41c-5e0e4e708d67","system_id":"levelo_inurba_marseille","lat":43.267799,"lon":5.394241,"is_reserved":false,"is_disabled":false,"rental_uris":{"android":"levelo://app?vid=dc72a47d-0da3-4605-b41c-5e0e4e708d67","ios":"levelo://app?vid=dc72a47d-0da3-4605-b41c-5e0e4e708d67"},"vehicle_type_id":"4","last_reported":1766992637,"current_range_meters":12000,"station_id":"ce4bhh12rcd13ifvqfg0","pricing_plan_id":"cebpf4jnsgd1na2vs0mg"},{"bike_id":"42bf4004-31a4-4f03-b714-07305d01267a","system_id":"levelo_inurba_marseille","lat":43.292485,"lon":5.384362,"is_reserved":false,"is_disabled":true,"rental_uris":{"android":"levelo://app?vid=42bf4004-31a4-4f03-b714-07305d01267a","ios":"levelo://app?vid=42bf4004-31a4-4f03-b714-07305d01267a"},"vehicle_type_id":"4","last_reported":1766992637,"current_range_meters":12000,"station_id":"ce4bh692rcd13ifvqea0","pricing_plan_id":"cebpf4jnsgd1na2vs0mg"},{"bike_id":"12c38b32-5974-4311-910a-572392b8079a","system_id":"levelo_inurba_marseille","lat":43.28048,"lon":5.35087,"is_reserved":false,"is_disabled":false,"rental_uris":{"android":"levelo://app?vid=12c38b32-5974-4311-910a-572392b8079a","ios":"levelo://app?vid=12c38b32-5974-4311-910a-572392b8079a"},"vehicle_type_id":"4","last_reported":1766992637,"current_range_meters":12000,"station_id":"","pricing_plan_id":"cebpf4jnsgd1na2vs0mg"},{"bike_id":"596c9b3b-bd08-4237-a80d-9ed209e66871","system_id":"levelo_inurba_marseille","lat":43.288634,"lon":5.425116,"is_reserved":false,"is_disabled":false,"rental_uris":{"android":"levelo://app?vid=596c9b3b-bd08-4237-a80d-9ed209e66871","ios":"levelo://app?vid=596c9b3b-bd08-4237-a80d-9ed209e66871"},"vehicle_type_id":"4","last_reported":1766992637,"current_range_meters":12000,"station_id":"st_d3b462108ojc7389ooeg","pricing_plan_id":"cebpf4jnsgd1na2vs0mg"},{"bike_id":"a6aa4dfc-9e67-4953-8a6b-4f3237d86f53","system_id":"levelo_inurba_marseille","lat":43.282658,"lon":5.350765,"is_reserved":false,"is_disabled":false,"rental_uris":{"android":"levelo://app?vid=a6aa4dfc-9e67-4953-8a6b-4f3237d86f53","ios":"levelo://app?vid=a6aa4dfc-9e67-4953-8a6b-4f3237d86f53"},"vehicle_type_id":"4","last_reported":1766992637,"current_range_meters":12000,"station_id":"ce4bhbp2rcd13ifvqerg","pricing_plan_id":"cebpf4jnsgd1na2vs0mg"},{"bike_id":"129a3278-fc5d-4352-835f-b7570ccc01cb","system_id":"levelo_inurba_marseille","lat":43.301459,"lon":5.38773,"is_reserved":false,"is_disabled":false,"rental_uris":{"android":"levelo://app?vid=129a3278-fc5d-4352-835f-b7570ccc01cb","ios":"levelo://app?vid=129a3278-fc5d-4352-835f-b7570ccc01cb"},"vehicle_type_id":"4","last_reported":1766992637,"current_range_meters":12000,"station_id":"ce4bghh2rcd13ifvqb60","pricing_plan_id":"cebpf4jnsgd1na2vs0mg"},{"bike_id":"693e74ec-09b8-47f6-83d7-d5e8d99e0141","system_id":"levelo_inurba_marseille","lat":43.31269,"lon":5.38918,"is_reserved":false,"is_disabled":false,"rental_uris":{"android":"levelo://app?vid=693e74ec-09b8-47f6-83d7-d5e8d99e0141","ios":"levelo://app?vid=693e74ec-09b8-47f6-83d7-d5e8d99e0141"},"vehicle_type_id":"4","last_reported":1766992637,"current_range_meters":12000,"station_id":"","pricing_plan_id":"cebpf4jnsgd1na2vs0mg"},{"bike_id":"22fccd6e-9bb2-4a65-af43-e7639be36436","system_id":"levelo_inurba_marseille","lat":43.26546,"lon":5.37263,"is_reserved":false,"is_disabled":false,"rental_uris":{"android":"levelo://app?vid=22fccd6e-9bb2-4a65-af43-e7639be36436","ios":"levelo://app?vid=22fccd6e-9bb2-4a65-af43-e7639be36436"},"vehicle_type_id":"4","last_reported":1766992637,"current_range_meters":12000,"station_id":"ce4bhg12rcd13ifvqf70","pricing_plan_id":"cebpf4jnsgd1na2vs0mg"},{"bike_id":"c1cd2a68-9a25-4850-8c5a-a488ec89fa2b","system_id":"levelo_inurba_marseille","lat":43.29628,"lon":5.3713,"is_reserved":false,"is_disabled":true,"rental_uris":{"android":"levelo://app?vid=c1cd2a68-9a25-4850-8c5a-a488ec89fa2b","ios":"levelo://app?vid=c1cd2a68-9a25-4850-8c5a-a488ec89fa2b"},"vehicle_type_id":"4","last_reported":1766992637,"current_range_meters":12000,"station_id":"ce4bgnh2rcd13ifvqc0g","pricing_plan_id":"cebpf4jnsgd1na2vs0mg"},{"bike_id":"2fa43d22-f3a9-490d-ae6d-704c0d5a420c","system_id":"levelo_inurba_marseille","lat":43.29934,"lon":5.36544,"is_reserved":false,"is_disabled":false,"rental_uris":{"android":"levelo://app?vid=2fa43d22-f3a9-490d-ae6d-704c0d5a420c","ios":"levelo://app?vid=2fa43d22-f3a9-490d-ae6d-704c0d5a420c"},"vehicle_type_id":"4","last_reported":1766992637,"current_range_meters":12000,"station_id":"ce4bgm92rcd13ifvqbr0","pricing_plan_id":"cebpf4jnsgd1na2vs0mg"},{"bike_id":"0aa0e915-52e8-428b-a88a-3354f819b511","system_id":"levelo_inurba_marseille","lat":43.28081,"lon":5.3965,"is_reserved":false,"is_disabled":false,"rental_uris":{"android":"levelo://app?vid=0aa0e915-52e8-428b-a88a-3354f819b511","ios":"levelo://app?vid=0aa0e915-52e8-428b-a88a-3354f819b511"},"vehicle_type_id":"4","last_reported":1766992637,"current_range_meters":12400,"station_id":"ce4bho12rcd13ifvqh2g","pricing_plan_id":"cebpf4jnsgd1na2vs0mg"},{"bike_id":"0c473179-fb78-4e28-b75f-3d3d22a01e70","system_id":"levelo_inurba_marseille","lat":43.29182,"lon":5.39298,"is_reserved":false,"is_disabled":true,"rental_uris":{"android":"levelo://app?vid=0c473179-fb78-4e28-b75f-3d3d22a01e70","ios":"levelo://app?vid=0c473179-fb78-4e28-b75f-3d3d22a01e70"},"vehicle_type_id":"4","last_reported":1766992637,"current_range_meters":12400,"station_id":"ce4bh192rcd13ifvqdd0","pricing_plan_id":"cebpf4jnsgd1na2vs0mg"},{"bike_id":"2bede430-4250-4bb5-9cc1-2011ee04070d","system_id":"levelo_inurba_marseille","lat":43.28487,"lon":5.48384,"is_reserved":false,"is_disabled":false,"rental_uris":{"android":"levelo://app?vid=2bede430-4250-4bb5-9cc1-2011ee04070d","ios":"levelo://app?vid=2bede430-4250-4bb5-9cc1-2011ee04070d"},"vehicle_type_id":"4","last_reported":1766992637,"current_range_meters":12400,"station_id":"st_d3svhcjqgbts73a3dn0g","pricing_plan_id":"cebpf4jnsgd1na2vs0mg"},{"bike_id":"ecdbccf5-248d-463e-8827-d1aa577fbf49","system_id":"levelo_inurba_marseille","lat":43.26058,"lon":5.39388,"is_reserved":false,"is_disabled":true,"rental_uris":{"android":"levelo://app?vid=ecdbccf5-248d-463e-8827-d1aa577fbf49","ios":"levelo://app?vid=ecdbccf5-248d-463e-8827-d1aa577fbf49"},"vehicle_type_id":"4","last_reported":1766992637,"current_range_meters":12400,"station_id":"ce4bhh92rcd13ifvqfj0","pricing_plan_id":"cebpf4jnsgd1na2vs0mg"},{"bike_id":"1b98c6d3-988a-40e8-a138-836b264a962b","system_id":"levelo_inurba_marseille","lat":43.32331,"lon":5.36678,"is_reserved":false,"is_disabled":false,"rental_uris":{"android":"levelo://app?vid=1b98c6d3-988a-40e8-a138-836b264a962b","ios":"levelo://app?vid=1b98c6d3-988a-40e8-a138-836b264a962b"},"vehicle_type_id":"4","last_reported":1766992637,"current_range_meters":12400,"station_id":"","pricing_plan_id":"cebpf4jnsgd1na2vs0mg"},{"bike_id":"320da555-fe4e-472b-82f7-a1349d2ad7fa","system_id":"levelo_inurba_marseille","lat":43.26787,"lon":5.39425,"is_reserved":false,"is_disabled":false,"rental_uris":{"android":"levelo://app?vid=320da555-fe4e-472b-82f7-a1349d2ad7fa","ios":"levelo://app?vid=320da555-fe4e-472b-82f7-a1349d2ad7fa"},"vehicle_type_id":"4","last_reported":1766992637,"current_range_meters":12400,"station_id":"ce4bhh12rcd13ifvqfg0","pricing_plan_id":"cebpf4jnsgd1na2vs0mg"},{"bike_id":"cfc68cfa-696a-4683-bc70-2f0af19ddd34","system_id":"levelo_inurba_marseille","lat":43.337598,"lon":5.374618,"is_reserved":false,"is_disabled":false,"rental_uris":{"android":"levelo://app?vid=cfc68cfa-696a-4683-bc70-2f0af19ddd34","ios":"levelo://app?vid=cfc68cfa-696a-4683-bc70-2f0af19ddd34"},"vehicle_type_id":"4","last_reported":1766992637,"current_range_meters":12400,"station_id":"","pricing_plan_id":"cebpf4jnsgd1na2vs0mg"},{"bike_id":"5663c206-c4de-47ab-9767-8711dc76a6f9","system_id":"levelo_inurba_marseille","lat":43.301143,"lon":5.43126,"is_reserved":false,"is_disabled":false,"rental_uris":{"android":"levelo://app?vid=5663c206-c4de-47ab-9767-8711dc76a6f9","ios":"levelo://app?vid=5663c206-c4de-47ab-9767-8711dc76a6f9"},"vehicle_type_id":"4","last_reported":1766992637,"current_range_meters":12800,"station_id":"st_d3js3co5814s73ftftug","pricing_plan_id":"cebpf4jnsgd1na2vs0mg"},{"bike_id":"0c8752f9-67a9-4eee-998d-0a21d8c8f9f0","system_id":"levelo_inurba_marseille","lat":43.32891,"lon":5.40533,"is_reserved":false,"is_disabled":false,"rental_uris":{"android":"levelo://app?vid=0c8752f9-67a9-4eee-998d-0a21d8c8f9f0","ios":"levelo://app?vid=0c8752f9-67a9-4eee-998d-0a21d8c8f9f0"},"vehicle_type_id":"4","last_reported":1766992637,"current_range_meters":12800,"station_id":"ce4bhq92rcd13ifvqhkg","pricing_plan_id":"cebpf4jnsgd1na2vs0mg"},{"bike_id":"036cbba1-2eba-4d3a-bebd-070ee4e03e68","system_id":"levelo_inurba_marseille","lat":43.27418,"lon":5.39405,"is_reserved":false,"is_disabled":true,"rental_uris":{"android":"levelo://app?vid=036cbba1-2eba-4d3a-bebd-070ee4e03e68","ios":"levelo://app?vid=036cbba1-2eba-4d3a-bebd-070ee4e03e68"},"vehicle_type_id":"4","last_reported":1766992637,"current_range_meters":12800,"station_id":"ce4bhdp2rcd13ifvqf20","pricing_plan_id":"cebpf4jnsgd1na2vs0mg"},{"bike_id":"3981849e-f312-451e-a7c6-49908a23c833","system_id":"levelo_inurba_marseille","lat":43.30125,"lon":5.40209,"is_reserved":false,"is_disabled":false,"rental_uris":{"android":"levelo://app?vid=3981849e-f312-451e-a7c6-49908a23c833","ios":"levelo://app?vid=3981849e-f312-451e-a7c6-49908a23c833"},"vehicle_type_id":"4","last_reported":1766992637,"current_range_meters":12800,"station_id":"","pricing_plan_id":"cebpf4jnsgd1na2vs0mg"},{"bike_id":"54dd4bba-5ad9-446c-a3ff-e4b6dab3d047","system_id":"levelo_inurba_marseille","lat":43.265631,"lon":5.390258,"is_reserved":false,"is_disabled":false,"rental_uris":{"android":"levelo://app?vid=54dd4bba-5ad9-446c-a3ff-e4b6dab3d047","ios":"levelo://app?vid=54dd4bba-5ad9-446c-a3ff-e4b6dab3d047"},"vehicle_type_id":"4","last_reported":1766992637,"current_range_meters":12800,"station_id":"ce4bhe12rcd13ifvqf30","pricing_plan_id":"cebpf4jnsgd1na2vs0mg"},{"bike_id":"9e77c8aa-5f3b-45d7-886b-3857c1275ddf","system_id":"levelo_inurba_marseille","lat":43.280181,"lon":5.40005,"is_reserved":false,"is_disabled":false,"rental_uris":{"android":"levelo://app?vid=9e77c8aa-5f3b-45d7-886b-3857c1275ddf","ios":"levelo://app?vid=9e77c8aa-5f3b-45d7-886b-3857c1275ddf"},"vehicle_type_id":"4","last_reported":1766992637,"current_range_meters":12800,"station_id":"ce4bho92rcd13ifvqh4g","pricing_plan_id":"cebpf4jnsgd1na2vs0mg"},{"bike_id":"b732401a-be77-439c-b196-9e6064a16222","system_id":"levelo_inurba_marseille","lat":43.28468,"lon":5.35869,"is_reserved":false,"is_disabled":false,"rental_uris":{"android":"levelo://app?vid=b732401a-be77-439c-b196-9e6064a16222","ios":"levelo://app?vid=b732401a-be77-439c-b196-9e6064a16222"},"vehicle_type_id":"4","last_reported":1766992637,"current_range_meters":12800,"station_id":"ce4bhah2rcd13ifvqei0","pricing_plan_id":"cebpf4jnsgd1na2vs0mg"},{"bike_id":"5e55bf80-550f-403e-84fa-588bf4c49137","system_id":"levelo_inurba_marseille","lat":43.24476,"lon":5.42506,"is_reserved":false,"is_disabled":false,"rental_uris":{"android":"levelo://app?vid=5e55bf80-550f-403e-84fa-588bf4c49137","ios":"levelo://app?vid=5e55bf80-550f-403e-84fa-588bf4c49137"},"vehicle_type_id":"4","last_reported":1766992637,"current_range_meters":12800,"station_id":"st_d4a3vfp97mjs738cd8kg","pricing_plan_id":"cebpf4jnsgd1na2vs0mg"},{"bike_id":"f67e8e36-c24f-46d7-a9e8-5b0187dbf590","system_id":"levelo_inurba_marseille","lat":43.30884,"lon":5.37183,"is_reserved":false,"is_disabled":false,"rental_uris":{"android":"levelo://app?vid=f67e8e36-c24f-46d7-a9e8-5b0187dbf590","ios":"levelo://app?vid=f67e8e36-c24f-46d7-a9e8-5b0187dbf590"},"vehicle_type_id":"4","last_reported":1766992637,"current_range_meters":12800,"station_id":"ce4bguh2rcd13ifvqckg","pricing_plan_id":"cebpf4jnsgd1na2vs0mg"},{"bike_id":"ab07ab4d-8c00-4184-a952-35d08d673f0e","system_id":"levelo_inurba_marseille","lat":43.30767,"lon":5.43714,"is_reserved":false,"is_disabled":false,"rental_uris":{"android":"levelo://app?vid=ab07ab4d-8c00-4184-a952-35d08d673f0e","ios":"levelo://app?vid=ab07ab4d-8c00-4184-a952-35d08d673f0e"},"vehicle_type_id":"4","last_reported":1766992637,"current_range_meters":12800,"station_id":"","pricing_plan_id":"cebpf4jnsgd1na2vs0mg"},{"bike_id":"5ec820fb-f47e-43b3-bc55-57a5ad8275a7","system_id":"levelo_inurba_marseille","lat":43.29222,"lon":5.36335,"is_reserved":false,"is_disabled":false,"rental_uris":{"android":"levelo://app?vid=5ec820fb-f47e-43b3-bc55-57a5ad8275a7","ios":"levelo://app?vid=5ec820fb-f47e-43b3-bc55-57a5ad8275a7"},"vehicle_type_id":"4","last_reported":1766992637,"current_range_meters":12800,"station_id":"","pricing_plan_id":"cebpf4jnsgd1na2vs0mg"},{"bike_id":"b388443f-e6d4-4125-a04a-5dae673a45a3","system_id":"levelo_inurba_marseille","lat":43.28469,"lon":5.38434,"is_reserved":false,"is_disabled":false,"rental_uris":{"android":"levelo://app?vid=b388443f-e6d4-4125-a04a-5dae673a45a3","ios":"levelo://app?vid=b388443f-e6d4-4125-a04a-5dae673a45a3"},"vehicle_type_id":"4","last_reported":1766992637,"current_range_meters":12800,"station_id":"ce4bh512rcd13ifvqe3g","pricing_plan_id":"cebpf4jnsgd1na2vs0mg"},{"bike_id":"d99ca872-f1b2-458d-8ca1-eaf12ed82a96","system_id":"levelo_inurba_marseille","lat":43.28154,"lon":5.4264,"is_reserved":false,"is_disabled":false,"rental_uris":{"android":"levelo://app?vid=d99ca872-f1b2-458d-8ca1-eaf12ed82a96","ios":"levelo://app?vid=d99ca872-f1b2-458d-8ca1-eaf12ed82a96"},"vehicle_type_id":"4","last_reported":1766992637,"current_range_meters":12800,"station_id":"ce4bhnh2rcd13ifvqgug","pricing_plan_id":"cebpf4jnsgd1na2vs0mg"},{"bike_id":"0a62435e-a1a1-4faf-b848-03bd53df937d","system_id":"levelo_inurba_marseille","lat":43.29837,"lon":5.37892,"is_reserved":false,"is_disabled":false,"rental_uris":{"android":"levelo://app?vid=0a62435e-a1a1-4faf-b848-03bd53df937d","ios":"levelo://app?vid=0a62435e-a1a1-4faf-b848-03bd53df937d"},"vehicle_type_id":"4","last_reported":1766992637,"current_range_meters":12800,"station_id":"","pricing_plan_id":"cebpf4jnsgd1na2vs0mg"},{"bike_id":"386b84c0-75bf-4424-8634-928c7b12f9b8","system_id":"levelo_inurba_marseille","lat":43.25933,"lon":5.409,"is_reserved":false,"is_disabled":false,"rental_uris":{"android":"levelo://app?vid=386b84c0-75bf-4424-8634-928c7b12f9b8","ios":"levelo://app?vid=386b84c0-75bf-4424-8634-928c7b12f9b8"},"vehicle_type_id":"4","last_reported":1766992637,"current_range_meters":12800,"station_id":"ce4bhm92rcd13ifvqglg","pricing_plan_id":"cebpf4jnsgd1na2vs0mg"},{"bike_id":"531ee609-70ba-43dd-8751-ec3f7fecfe2a","system_id":"levelo_inurba_marseille","lat":43.29885,"lon":5.39732,"is_reserved":false,"is_disabled":true,"rental_uris":{"android":"levelo://app?vid=531ee609-70ba-43dd-8751-ec3f7fecfe2a","ios":"levelo://app?vid=531ee609-70ba-43dd-8751-ec3f7fecfe2a"},"vehicle_type_id":"4","last_reported":1766992637,"current_range_meters":12800,"station_id":"ce4bh0h2rcd13ifvqd50","pricing_plan_id":"cebpf4jnsgd1na2vs0mg"},{"bike_id":"a670ebcb-a6f0-45dc-95de-0aa0be581eab","system_id":"levelo_inurba_marseille","lat":43.240885,"lon":5.377462,"is_reserved":false,"is_disabled":false,"rental_uris":{"android":"levelo://app?vid=a670ebcb-a6f0-45dc-95de-0aa0be581eab","ios":"levelo://app?vid=a670ebcb-a6f0-45dc-95de-0aa0be581eab"},"vehicle_type_id":"4","last_reported":1766992637,"current_range_meters":13600,"station_id":"ce4bhnp2rcd13ifvqgvg","pricing_plan_id":"cebpf4jnsgd1na2vs0mg"},{"bike_id":"6100a49b-b7a6-4aa2-b731-6d812cff6227","system_id":"levelo_inurba_marseille","lat":43.24684,"lon":5.38164,"is_reserved":false,"is_disabled":false,"rental_uris":{"android":"levelo://app?vid=6100a49b-b7a6-4aa2-b731-6d812cff6227","ios":"levelo://app?vid=6100a49b-b7a6-4aa2-b731-6d812cff6227"},"vehicle_type_id":"4","last_reported":1766992637,"current_range_meters":13600,"station_id":"ce4bhih2rcd13ifvqfr0","pricing_plan_id":"cebpf4jnsgd1na2vs0mg"},{"bike_id":"d74fe559-c41d-4192-9c57-60d0ae2597f8","system_id":"levelo_inurba_marseille","lat":43.27939,"lon":5.41039,"is_reserved":false,"is_disabled":false,"rental_uris":{"android":"levelo://app?vid=d74fe559-c41d-4192-9c57-60d0ae2597f8","ios":"levelo://app?vid=d74fe559-c41d-4192-9c57-60d0ae2597f8"},"vehicle_type_id":"4","last_reported":1766992637,"current_range_meters":13600,"station_id":"ce4bhnp2rcd13ifvqh0g","pricing_plan_id":"cebpf4jnsgd1na2vs0mg"},{"bike_id":"fb7a2071-a4b8-4604-9c48-3ebbf49aaccd","system_id":"levelo_inurba_marseille","lat":43.29601,"lon":5.38098,"is_reserved":false,"is_disabled":false,"rental_uris":{"android":"levelo://app?vid=fb7a2071-a4b8-4604-9c48-3ebbf49aaccd","ios":"levelo://app?vid=fb7a2071-a4b8-4604-9c48-3ebbf49aaccd"},"vehicle_type_id":"4","last_reported":1766992637,"current_range_meters":13600,"station_id":"ce4bgl12rcd13ifvqbo0","pricing_plan_id":"cebpf4jnsgd1na2vs0mg"},{"bike_id":"5e11ca88-8b90-4217-af67-804f92644fbb","system_id":"levelo_inurba_marseille","lat":43.31046,"lon":5.37175,"is_reserved":false,"is_disabled":false,"rental_uris":{"android":"levelo://app?vid=5e11ca88-8b90-4217-af67-804f92644fbb","ios":"levelo://app?vid=5e11ca88-8b90-4217-af67-804f92644fbb"},"vehicle_type_id":"4","last_reported":1766992637,"current_range_meters":13600,"station_id":"st_d4kl2rp97mjs73e7tdfg","pricing_plan_id":"cebpf4jnsgd1na2vs0mg"},{"bike_id":"6430d914-0a21-4065-b1bd-22ff590b6d10","system_id":"levelo_inurba_marseille","lat":43.288618,"lon":5.425205,"is_reserved":false,"is_disabled":false,"rental_uris":{"android":"levelo://app?vid=6430d914-0a21-4065-b1bd-22ff590b6d10","ios":"levelo://app?vid=6430d914-0a21-4065-b1bd-22ff590b6d10"},"vehicle_type_id":"4","last_reported":1766992637,"current_range_meters":13600,"station_id":"st_d3b462108ojc7389ooeg","pricing_plan_id":"cebpf4jnsgd1na2vs0mg"},{"bike_id":"549ffa3a-8e31-4cf9-99c1-cb5aa343826f","system_id":"levelo_inurba_marseille","lat":43.262095,"lon":5.374423,"is_reserved":false,"is_disabled":false,"rental_uris":{"android":"levelo://app?vid=549ffa3a-8e31-4cf9-99c1-cb5aa343826f","ios":"levelo://app?vid=549ffa3a-8e31-4cf9-99c1-cb5aa343826f"},"vehicle_type_id":"4","last_reported":1766992637,"current_range_meters":13600,"station_id":"ce4bhgp2rcd13ifvqfc0","pricing_plan_id":"cebpf4jnsgd1na2vs0mg"},{"bike_id":"cb4324a0-44b1-4079-90a1-e8c3c42b4e43","system_id":"levelo_inurba_marseille","lat":43.31486,"lon":5.37269,"is_reserved":false,"is_disabled":false,"rental_uris":{"android":"levelo://app?vid=cb4324a0-44b1-4079-90a1-e8c3c42b4e43","ios":"levelo://app?vid=cb4324a0-44b1-4079-90a1-e8c3c42b4e43"},"vehicle_type_id":"4","last_reported":1766992637,"current_range_meters":13600,"station_id":"ce4bgt12rcd13ifvqcd0","pricing_plan_id":"cebpf4jnsgd1na2vs0mg"},{"bike_id":"6a694001-45e2-470a-bec0-e92f05ca1ece","system_id":"levelo_inurba_marseille","lat":43.245479,"lon":5.395261,"is_reserved":false,"is_disabled":false,"rental_uris":{"android":"levelo://app?vid=6a694001-45e2-470a-bec0-e92f05ca1ece","ios":"levelo://app?vid=6a694001-45e2-470a-bec0-e92f05ca1ece"},"vehicle_type_id":"4","last_reported":1766992637,"current_range_meters":13600,"station_id":"ce4bhlp2rcd13ifvqgjg","pricing_plan_id":"cebpf4jnsgd1na2vs0mg"},{"bike_id":"f1411068-b09b-4667-92c7-1f093aee39a9","system_id":"levelo_inurba_marseille","lat":43.29485,"lon":5.43311,"is_reserved":false,"is_disabled":true,"rental_uris":{"android":"levelo://app?vid=f1411068-b09b-4667-92c7-1f093aee39a9","ios":"levelo://app?vid=f1411068-b09b-4667-92c7-1f093aee39a9"},"vehicle_type_id":"4","last_reported":1766992637,"current_range_meters":13600,"station_id":"st_d3j5ugp08ojc73fj9d10","pricing_plan_id":"cebpf4jnsgd1na2vs0mg"},{"bike_id":"ae1b9423-a5b0-4421-80f5-23134313aff2","system_id":"levelo_inurba_marseille","lat":43.25575,"lon":5.38241,"is_reserved":false,"is_disabled":false,"rental_uris":{"android":"levelo://app?vid=ae1b9423-a5b0-4421-80f5-23134313aff2","ios":"levelo://app?vid=ae1b9423-a5b0-4421-80f5-23134313aff2"},"vehicle_type_id":"4","last_reported":1766992637,"current_range_meters":13600,"station_id":"ce4bhih2rcd13ifvqfs0","pricing_plan_id":"cebpf4jnsgd1na2vs0mg"},{"bike_id":"85f80c36-b01d-4148-8a0f-5ed00798dda8","system_id":"levelo_inurba_marseille","lat":43.30104,"lon":5.36478,"is_reserved":false,"is_disabled":false,"rental_uris":{"android":"levelo://app?vid=85f80c36-b01d-4148-8a0f-5ed00798dda8","ios":"levelo://app?vid=85f80c36-b01d-4148-8a0f-5ed00798dda8"},"vehicle_type_id":"4","last_reported":1766992637,"current_range_meters":13600,"station_id":"","pricing_plan_id":"cebpf4jnsgd1na2vs0mg"},{"bike_id":"9b0af2ac-60ca-4e52-9919-d2a635c0aec6","system_id":"levelo_inurba_marseille","lat":43.24174,"lon":5.39722,"is_reserved":false,"is_disabled":false,"rental_uris":{"android":"levelo://app?vid=9b0af2ac-60ca-4e52-9919-d2a635c0aec6","ios":"levelo://app?vid=9b0af2ac-60ca-4e52-9919-d2a635c0aec6"},"vehicle_type_id":"4","last_reported":1766992637,"current_range_meters":13600,"station_id":"ce4bhn12rcd13ifvqgpg","pricing_plan_id":"cebpf4jnsgd1na2vs0mg"},{"bike_id":"17b19a44-ef73-4948-b866-b33a136af908","system_id":"levelo_inurba_marseille","lat":43.23187,"lon":5.39982,"is_reserved":false,"is_disabled":false,"rental_uris":{"android":"levelo://app?vid=17b19a44-ef73-4948-b866-b33a136af908","ios":"levelo://app?vid=17b19a44-ef73-4948-b866-b33a136af908"},"vehicle_type_id":"4","last_reported":1766992637,"current_range_meters":13600,"station_id":"ce4bhn12rcd13ifvqgqg","pricing_plan_id":"cebpf4jnsgd1na2vs0mg"},{"bike_id":"8ed0aaee-94a4-4a16-a923-e8b24a7704a6","system_id":"levelo_inurba_marseille","lat":43.2887,"lon":5.4252,"is_reserved":false,"is_disabled":false,"rental_uris":{"android":"levelo://app?vid=8ed0aaee-94a4-4a16-a923-e8b24a7704a6","ios":"levelo://app?vid=8ed0aaee-94a4-4a16-a923-e8b24a7704a6"},"vehicle_type_id":"4","last_reported":1766992637,"current_range_meters":13600,"station_id":"st_d3b462108ojc7389ooeg","pricing_plan_id":"cebpf4jnsgd1na2vs0mg"},{"bike_id":"e3b0fb59-44ca-4e03-8f52-67a0f402d543","system_id":"levelo_inurba_marseille","lat":43.30129,"lon":5.39868,"is_reserved":false,"is_disabled":false,"rental_uris":{"android":"levelo://app?vid=e3b0fb59-44ca-4e03-8f52-67a0f402d543","ios":"levelo://app?vid=e3b0fb59-44ca-4e03-8f52-67a0f402d543"},"vehicle_type_id":"4","last_reported":1766992637,"current_range_meters":13600,"station_id":"ce4bh0h2rcd13ifvqd40","pricing_plan_id":"cebpf4jnsgd1na2vs0mg"},{"bike_id":"3f79ba6d-efe1-4a47-bf63-980f546edd89","system_id":"levelo_inurba_marseille","lat":43.32488,"lon":5.3829,"is_reserved":false,"is_disabled":false,"rental_uris":{"android":"levelo://app?vid=3f79ba6d-efe1-4a47-bf63-980f546edd89","ios":"levelo://app?vid=3f79ba6d-efe1-4a47-bf63-980f546edd89"},"vehicle_type_id":"4","last_reported":1766992637,"current_range_meters":14000,"station_id":"st_d4asgbiv49dc73anf9m0","pricing_plan_id":"cebpf4jnsgd1na2vs0mg"},{"bike_id":"f696103b-2b2b-4509-b475-28746835ce9f","system_id":"levelo_inurba_marseille","lat":43.32482,"lon":5.36573,"is_reserved":false,"is_disabled":false,"rental_uris":{"android":"levelo://app?vid=f696103b-2b2b-4509-b475-28746835ce9f","ios":"levelo://app?vid=f696103b-2b2b-4509-b475-28746835ce9f"},"vehicle_type_id":"4","last_reported":1766992637,"current_range_meters":14000,"station_id":"ce4bhs12rcd13ifvqhvg","pricing_plan_id":"cebpf4jnsgd1na2vs0mg"},{"bike_id":"804ebdc9-e028-419a-9c99-36251c1f2396","system_id":"levelo_inurba_marseille","lat":43.29054,"lon":5.35889,"is_reserved":false,"is_disabled":false,"rental_uris":{"android":"levelo://app?vid=804ebdc9-e028-419a-9c99-36251c1f2396","ios":"levelo://app?vid=804ebdc9-e028-419a-9c99-36251c1f2396"},"vehicle_type_id":"4","last_reported":1766992637,"current_range_meters":14000,"station_id":"ce4bha92rcd13ifvqeg0","pricing_plan_id":"cebpf4jnsgd1na2vs0mg"},{"bike_id":"8e2eafb7-76eb-46c2-a58c-eefb786ffe62","system_id":"levelo_inurba_marseille","lat":43.28945,"lon":5.36627,"is_reserved":false,"is_disabled":false,"rental_uris":{"android":"levelo://app?vid=8e2eafb7-76eb-46c2-a58c-eefb786ffe62","ios":"levelo://app?vid=8e2eafb7-76eb-46c2-a58c-eefb786ffe62"},"vehicle_type_id":"4","last_reported":1766992637,"current_range_meters":14000,"station_id":"ce4bhap2rcd13ifvqek0","pricing_plan_id":"cebpf4jnsgd1na2vs0mg"},{"bike_id":"9c1b57e1-addf-4919-93ed-023a6be78e08","system_id":"levelo_inurba_marseille","lat":43.26958,"lon":5.3863,"is_reserved":false,"is_disabled":false,"rental_uris":{"android":"levelo://app?vid=9c1b57e1-addf-4919-93ed-023a6be78e08","ios":"levelo://app?vid=9c1b57e1-addf-4919-93ed-023a6be78e08"},"vehicle_type_id":"4","last_reported":1766992637,"current_range_meters":14000,"station_id":"ce4bhh92rcd13ifvqfh0","pricing_plan_id":"cebpf4jnsgd1na2vs0mg"},{"bike_id":"433621e1-12cd-4d0c-b747-14612e74827b","system_id":"levelo_inurba_marseille","lat":43.217521,"lon":5.346045,"is_reserved":false,"is_disabled":false,"rental_uris":{"android":"levelo://app?vid=433621e1-12cd-4d0c-b747-14612e74827b","ios":"levelo://app?vid=433621e1-12cd-4d0c-b747-14612e74827b"},"vehicle_type_id":"4","last_reported":1766992637,"current_range_meters":14400,"station_id":"","pricing_plan_id":"cebpf4jnsgd1na2vs0mg"},{"bike_id":"9f035e6d-4716-4f35-9777-425cc5769f01","system_id":"levelo_inurba_marseille","lat":43.31381,"lon":5.36745,"is_reserved":false,"is_disabled":false,"rental_uris":{"android":"levelo://app?vid=9f035e6d-4716-4f35-9777-425cc5769f01","ios":"levelo://app?vid=9f035e6d-4716-4f35-9777-425cc5769f01"},"vehicle_type_id":"4","last_reported":1766992637,"current_range_meters":14400,"station_id":"ce4bgr92rcd13ifvqc6g","pricing_plan_id":"cebpf4jnsgd1na2vs0mg"},{"bike_id":"415440e0-d28b-4ffa-90a8-0152bd724c82","system_id":"levelo_inurba_marseille","lat":43.286041,"lon":5.39901,"is_reserved":false,"is_disabled":true,"rental_uris":{"android":"levelo://app?vid=415440e0-d28b-4ffa-90a8-0152bd724c82","ios":"levelo://app?vid=415440e0-d28b-4ffa-90a8-0152bd724c82"},"vehicle_type_id":"4","last_reported":1766992637,"current_range_meters":14400,"station_id":"ce4bho92rcd13ifvqh3g","pricing_plan_id":"cebpf4jnsgd1na2vs0mg"},{"bike_id":"11aad13e-8ff2-4c7a-8e77-493024f570dc","system_id":"levelo_inurba_marseille","lat":43.3025,"lon":5.40101,"is_reserved":false,"is_disabled":false,"rental_uris":{"android":"levelo://app?vid=11aad13e-8ff2-4c7a-8e77-493024f570dc","ios":"levelo://app?vid=11aad13e-8ff2-4c7a-8e77-493024f570dc"},"vehicle_type_id":"4","last_reported":1766992637,"current_range_meters":14400,"station_id":"ce4bgvh2rcd13ifvqcs0","pricing_plan_id":"cebpf4jnsgd1na2vs0mg"},{"bike_id":"1f44e37e-7ad8-4e44-a576-c4475b43b5c5","system_id":"levelo_inurba_marseille","lat":43.241729,"lon":5.397408,"is_reserved":false,"is_disabled":false,"rental_uris":{"android":"levelo://app?vid=1f44e37e-7ad8-4e44-a576-c4475b43b5c5","ios":"levelo://app?vid=1f44e37e-7ad8-4e44-a576-c4475b43b5c5"},"vehicle_type_id":"4","last_reported":1766992637,"current_range_meters":14400,"station_id":"ce4bhn12rcd13ifvqgpg","pricing_plan_id":"cebpf4jnsgd1na2vs0mg"},{"bike_id":"53d5e8c9-2653-43c3-af86-803b0eacfa38","system_id":"levelo_inurba_marseille","lat":43.30887,"lon":5.37194,"is_reserved":false,"is_disabled":false,"rental_uris":{"android":"levelo://app?vid=53d5e8c9-2653-43c3-af86-803b0eacfa38","ios":"levelo://app?vid=53d5e8c9-2653-43c3-af86-803b0eacfa38"},"vehicle_type_id":"4","last_reported":1766992637,"current_range_meters":14400,"station_id":"ce4bguh2rcd13ifvqckg","pricing_plan_id":"cebpf4jnsgd1na2vs0mg"},{"bike_id":"a20f6ed0-c571-44c4-a628-8c855808df15","system_id":"levelo_inurba_marseille","lat":43.284212,"lon":5.349854,"is_reserved":false,"is_disabled":false,"rental_uris":{"android":"levelo://app?vid=a20f6ed0-c571-44c4-a628-8c855808df15","ios":"levelo://app?vid=a20f6ed0-c571-44c4-a628-8c855808df15"},"vehicle_type_id":"4","last_reported":1766992637,"current_range_meters":14800,"station_id":"ce4bhbh2rcd13ifvqepg","pricing_plan_id":"cebpf4jnsgd1na2vs0mg"},{"bike_id":"67922df5-d209-414d-a62b-32b7a70f20a8","system_id":"levelo_inurba_marseille","lat":43.284902,"lon":5.384266,"is_reserved":false,"is_disabled":false,"rental_uris":{"android":"levelo://app?vid=67922df5-d209-414d-a62b-32b7a70f20a8","ios":"levelo://app?vid=67922df5-d209-414d-a62b-32b7a70f20a8"},"vehicle_type_id":"4","last_reported":1766992637,"current_range_meters":14800,"station_id":"ce4bh512rcd13ifvqe3g","pricing_plan_id":"cebpf4jnsgd1na2vs0mg"},{"bike_id":"2b74b88b-a4e6-41b1-a667-5a933a851b6c","system_id":"levelo_inurba_marseille","lat":43.25928,"lon":5.40909,"is_reserved":false,"is_disabled":false,"rental_uris":{"android":"levelo://app?vid=2b74b88b-a4e6-41b1-a667-5a933a851b6c","ios":"levelo://app?vid=2b74b88b-a4e6-41b1-a667-5a933a851b6c"},"vehicle_type_id":"4","last_reported":1766992637,"current_range_meters":14800,"station_id":"ce4bhm92rcd13ifvqglg","pricing_plan_id":"cebpf4jnsgd1na2vs0mg"},{"bike_id":"d5a17e06-f96f-4d08-b5e6-385a0720c6be","system_id":"levelo_inurba_marseille","lat":43.29596,"lon":5.373468,"is_reserved":false,"is_disabled":false,"rental_uris":{"android":"levelo://app?vid=d5a17e06-f96f-4d08-b5e6-385a0720c6be","ios":"levelo://app?vid=d5a17e06-f96f-4d08-b5e6-385a0720c6be"},"vehicle_type_id":"4","last_reported":1766992637,"current_range_meters":14800,"station_id":"","pricing_plan_id":"cebpf4jnsgd1na2vs0mg"},{"bike_id":"c9fdc383-a829-4246-be37-a41d66e9e351","system_id":"levelo_inurba_marseille","lat":43.31912,"lon":5.37352,"is_reserved":false,"is_disabled":false,"rental_uris":{"android":"levelo://app?vid=c9fdc383-a829-4246-be37-a41d66e9e351","ios":"levelo://app?vid=c9fdc383-a829-4246-be37-a41d66e9e351"},"vehicle_type_id":"4","last_reported":1766992637,"current_range_meters":14800,"station_id":"","pricing_plan_id":"cebpf4jnsgd1na2vs0mg"},{"bike_id":"2059b758-0b4a-46e4-91ff-a166d0193a47","system_id":"levelo_inurba_marseille","lat":43.31361,"lon":5.367,"is_reserved":false,"is_disabled":false,"rental_uris":{"android":"levelo://app?vid=2059b758-0b4a-46e4-91ff-a166d0193a47","ios":"levelo://app?vid=2059b758-0b4a-46e4-91ff-a166d0193a47"},"vehicle_type_id":"4","last_reported":1766992637,"current_range_meters":14800,"station_id":"ce4bgr92rcd13ifvqc6g","pricing_plan_id":"cebpf4jnsgd1na2vs0mg"},