{"last_updated":1732695200,"ttl":60,"version":"2.2","data":{"bikes":[{"bike_id":"31d30a80-5228-498b-9df4-dd318117c56d","system_id":"levelo_inurba_marseille","lat":43.29078,"lon":5.37167,"is_reserved":false,"is_disabled":false,"rental_uris":{"android":"levelo://app?vid=31d30a80-5228-498b-9df4-dd318117c56d","ios":"levelo://app?vid=31d30a80-5228-498b-9df4-dd318117c56d"},"vehicle_type_id":"4","last_reported":1732695200,"current_range_meters":29600,"station_id":"ce4bh5p2rcd13ifvqe4g","pricing_plan_id":"cebpf4jnsgd1na2vs0mg"},{"bike_id":"d9c28aa4-81a4-4d13-8fc9-100bb4e3d7e2","system_id":"levelo_inurba_marseille","lat":43.274,"lon":5.38947,"is_reserved":false,"is_disabled":true,"rental_uris":{"android":"levelo://app?vid=d9c28aa4-81a4-4d13-8fc9-100bb4e3d7e2","ios":"levelo://app?vid=d9c28aa4-81a4-4d13-8fc9-100bb4e3d7e2"},"vehicle_type_id":"4","last_reported":1732695200,"current_range_meters":0,"station_id":"","pricing_plan_id":"cebpf4jnsgd1na2vs0mg"},{"bike_id":"f63a2a00-2c2b-41cf-9bf2-46b189bba93c","system_id":"levelo_inurba_marseille","lat":43.25936,"lon":5.40901,"is_reserved":false,"is_disabled":false,"rental_uris":{"android":"levelo://app?vid=f63a2a00-2c2b-41cf-9bf2-46b189bba93c","ios":"levelo://app?vid=f63a2a00-2c2b-41cf-9bf2-46b189bba93c"},"vehicle_type_id":"4","last_reported":1732695200,"current_range_meters":22000,"station_id":"ce4bhm92rcd13ifvqglg","pricing_plan_id":"cebpf4jnsgd1na2vs0mg"},{"bike_id":"b856c8b4-412d-4c25-bdd4-e6b29aed04cb","system_id":"levelo_inurba_marseille","lat":43.22939,"lon":5.35375,"is_reserved":false,"is_disabled":false,"rental_uris":{"android":"levelo://app?vid=b856c8b4-412d-4c25-bdd4-e6b29aed04cb","ios":"levelo://app?vid=b856c8b4-412d-4c25-bdd4-e6b29aed04cb"},"vehicle_type_id":"4","last_reported":1732695200,"current_range_meters":38800,"station_id":"cpo3532slgdg3j2ikp40","pricing_plan_id":"cebpf4jnsgd1na2vs0mg"},{"bike_id":"8f3a010a-fa34-4964-ab13-9cb10e1288fc","system_id":"levelo_inurba_marseille","lat":43.28614,"lon":5.35113,"is_reserved":false,"is_disabled":false,"rental_uris":{"android":"levelo://app?vid=8f3a010a-fa34-4964-ab13-9cb10e1288fc","ios":"levelo://app?vid=8f3a010a-fa34-4964-ab13-9cb10e1288fc"},"vehicle_type_id":"4","last_reported":1732695200,"current_range_meters":17600,"station_id":"ce4bhch2rcd13ifvqeug","pricing_plan_id":"cebpf4jnsgd1na2vs0mg"},{"bike_id":"b51d31e3-b561-4c0d-b4c9-74c74d6a4aa9","system_id":"levelo_inurba_marseille","lat":43.33022,"lon":5.39053,"is_reserved":false,"is_disabled":false,"rental_uris":{"android":"levelo://app?vid=b51d31e3-b561-4c0d-b4c9-74c74d6a4aa9","ios":"levelo://app?vid=b51d31e3-b561-4c0d-b4c9-74c74d6a4aa9"},"vehicle_type_id":"4","last_reported":1732695200,"current_range_meters":38000,"station_id":"ce4bhr92rcd13ifvqhrg","pricing_plan_id":"cebpf4jnsgd1na2vs0mg"},{"bike_id":"13b69a4c-c9d5-4b43-b76b-633ca739dbed","system_id":"levelo_inurba_marseille","lat":43.31329,"lon":5.36703,"is_reserved":false,"is_disabled":false,"rental_uris":{"android":"levelo://app?vid=13b69a4c-c9d5-4b43-b76b-633ca739dbed","ios":"levelo://app?vid=13b69a4c-c9d5-4b43-b76b-633ca739dbed"},"vehicle_type_id":"4","last_reported":1732695200,"current_range_meters":12000,"station_id":"ce4bgr92rcd13ifvqc6g","pricing_plan_id":"cebpf4jnsgd1na2vs0mg"},{"bike_id":"f0347ef3-0bf2-4904-8134-c34ce91c6bae","system_id":"levelo_inurba_marseille","lat":43.3054,"lon":5.36696,"is_reserved":false,"is_disabled":false,"rental_uris":{"android":"levelo://app?vid=f0347ef3-0bf2-4904-8134-c34ce91c6bae","ios":"levelo://app?vid=f0347ef3-0bf2-4904-8134-c34ce91c6bae"},"vehicle_type_id":"4","last_reported":1732695200,"current_range_meters":13600,"station_id":"ce4bgrp2rcd13ifvqc9g","pricing_plan_id":"cebpf4jnsgd1na2vs0mg"},{"bike_id":"d2cf7a78-7eb1-4d32-aa77-ae8ed51e3e3f","system_id":"levelo_inurba_marseille","lat":43.3378,"lon":5.37474,"is_reserved":false,"is_disabled":false,"rental_uris":{"android":"levelo://app?vid=d2cf7a78-7eb1-4d32-aa77-ae8ed51e3e3f","ios":"levelo://app?vid=d2cf7a78-7eb1-4d32-aa77-ae8ed51e3e3f"},"vehicle_type_id":"4","last_reported":1732695200,"current_range_meters":19200,"station_id":"","pricing_plan_id":"cebpf4jnsgd1na2vs0mg"},{"bike_id":"a481b9a0-9c57-4f11-a4b3-9fcac54c7392","system_id":"levelo_inurba_marseille","lat":43.24074,"lon":5.37759,"is_reserved":false,"is_disabled":true,"rental_uris":{"android":"levelo://app?vid=a481b9a0-9c57-4f11-a4b3-9fcac54c7392","ios":"levelo://app?vid=a481b9a0-9c57-4f11-a4b3-9fcac54c7392"},"vehicle_type_id":"4","last_reported":1732695200,"current_range_meters":38400,"station_id":"ce4bhnp2rcd13ifvqgvg","pricing_plan_id":"cebpf4jnsgd1na2vs0mg"},{"bike_id":"ea443a94-2e19-4669-8876-440d8b9fd1f8","system_id":"levelo_inurba_marseille","lat":43.3122,"lon":5.36843,"is_reserved":false,"is_disabled":false,"rental_uris":{"android":"levelo://app?vid=ea443a94-2e19-4669-8876-440d8b9fd1f8","ios":"levelo://app?vid=ea443a94-2e19-4669-8876-440d8b9fd1f8"},"vehicle_type_id":"4","last_reported":1732695200,"current_range_meters":27600,"station_id":"ce4bgl92rcd13ifvqbq0","pricing_plan_id":"cebpf4jnsgd1na2vs0mg"},{"bike_id":"0fa82e23-4a3f-460a-a0a9-6383841fe087","system_id":"levelo_inurba_marseille","lat":43.27988,"lon":5.39988,"is_reserved":false,"is_disabled":false,"rental_uris":{"android":"levelo://app?vid=0fa82e23-4a3f-460a-a0a9-6383841fe087","ios":"levelo://app?vid=0fa82e23-4a3f-460a-a0a9-6383841fe087"},"vehicle_type_id":"4","last_reported":1732695200,"current_range_meters":20800,"station_id":"ce4bho92rcd13ifvqh4g","pricing_plan_id":"cebpf4jnsgd1na2vs0mg"},{"bike_id":"3e2716cd-8f2c-4b42-a600-739ee500ebd4","system_id":"levelo_inurba_marseille","lat":43.30143,"lon":5.3742,"is_reserved":false,"is_disabled":false,"rental_uris":{"android":"levelo://app?vid=3e2716cd-8f2c-4b42-a600-739ee500ebd4","ios":"levelo://app?vid=3e2716cd-8f2c-4b42-a600-739ee500ebd4"},"vehicle_type_id":"4","last_reported":1732695200,"current_range_meters":28000,"station_id":"ce4bgs92rcd13ifvqcc0","pricing_plan_id":"cebpf4jnsgd1na2vs0mg"},{"bike_id":"4a6f40e9-24aa-48ac-9ef2-a1bddf93539a","system_id":"levelo_inurba_marseille","lat":43.24072,"lon":5.37757,"is_reserved":false,"is_disabled":false,"rental_uris":{"android":"levelo://app?vid=4a6f40e9-24aa-48ac-9ef2-a1bddf93539a","ios":"levelo://app?vid=4a6f40e9-24aa-48ac-9ef2-a1bddf93539a"},"vehicle_type_id":"4","last_reported":1732695200,"current_range_meters":36000,"station_id":"ce4bhnp2rcd13ifvqgvg","pricing_plan_id":"cebpf4jnsgd1na2vs0mg"},{"bike_id":"208770de-9b49-4ea6-b6b3-1c83bb03a84e","system_id":"levelo_inurba_marseille","lat":43.29598,"lon":5.38099,"is_reserved":false,"is_disabled":true,"rental_uris":{"android":"levelo://app?vid=208770de-9b49-4ea6-b6b3-1c83bb03a84e","ios":"levelo://app?vid=208770de-9b49-4ea6-b6b3-1c83bb03a84e"},"vehicle_type_id":"4","last_reported":1732695200,"current_range_meters":36400,"station_id":"ce4bgl12rcd13ifvqbo0","pricing_plan_id":"cebpf4jnsgd1na2vs0mg"},{"bike_id":"e7d61961-f2fb-44c4-9ee3-a227626b507f","system_id":"levelo_inurba_marseille","lat":43.23063,"lon":5.35482,"is_reserved":false,"is_disabled":false,"rental_uris":{"android":"levelo://app?vid=e7d61961-f2fb-44c4-9ee3-a227626b507f","ios":"levelo://app?vid=e7d61961-f2fb-44c4-9ee3-a227626b507f"},"vehicle_type_id":"4","last_reported":1732695200,"current_range_meters":38400,"station_id":"cpo3342slgdg3j2ifvpg","pricing_plan_id":"cebpf4jnsgd1na2vs0mg"},{"bike_id":"1b9864eb-ebda-46d7-a9ca-a6fc007f6e00","system_id":"levelo_inurba_marseille","lat":43.31337,"lon":5.3672,"is_reserved":false,"is_disabled":false,"rental_uris":{"android":"levelo://app?vid=1b9864eb-ebda-46d7-a9ca-a6fc007f6e00","ios":"levelo://app?vid=1b9864eb-ebda-46d7-a9ca-a6fc007f6e00"},"vehicle_type_id":"4","last_reported":1732695200,"current_range_meters":35200,"station_id":"ce4bgr92rcd13ifvqc6g","pricing_plan_id":"cebpf4jnsgd1na2vs0mg"},{"bike_id":"7c78cb5b-afd1-4977-999e-753fbb3b7e3d","system_id":"levelo_inurba_marseille","lat":43.25496,"lon":5.3765,"is_reserved":false,"is_disabled":false,"rental_uris":{"android":"levelo://app?vid=7c78cb5b-afd1-4977-999e-753fbb3b7e3d","ios":"levelo://app?vid=7c78cb5b-afd1-4977-999e-753fbb3b7e3d"},"vehicle_type_id":"4","last_reported":1732695200,"current_range_meters":6400,"station_id":"ce4bhh12rcd13ifvqff0","pricing_plan_id":"cebpf4jnsgd1na2vs0mg"},{"bike_id":"23eaeb73-c653-45e3-a732-e3c59b73e1a9","system_id":"levelo_inurba_marseille","lat":43.29685,"lon":5.37306,"is_reserved":false,"is_disabled":false,"rental_uris":{"android":"levelo://app?vid=23eaeb73-c653-45e3-a732-e3c59b73e1a9","ios":"levelo://app?vid=23eaeb73-c653-45e3-a732-e3c59b73e1a9"},"vehicle_type_id":"4","last_reported":1732695200,"current_range_meters":30000,"station_id":"ce4bgk12rcd13ifvqbj0","pricing_plan_id":"cebpf4jnsgd1na2vs0mg"},{"bike_id":"a669fc4c-1592-4bd1-87ea-e6e507b2d262","system_id":"levelo_inurba_marseille","lat":43.33613,"lon":5.41019,"is_reserved":false,"is_disabled":false,"rental_uris":{"android":"levelo://app?vid=a669fc4c-1592-4bd1-87ea-e6e507b2d262","ios":"levelo://app?vid=a669fc4c-1592-4bd1-87ea-e6e507b2d262"},"vehicle_type_id":"4","last_reported":1732695200,"current_range_meters":4400,"station_id":"ce4bhqh2rcd13ifvqhmg","pricing_plan_id":"cebpf4jnsgd1na2vs0mg"},{"bike_id":"f8701991-8c40-432f-accb-db30a9ac6844","system_id":"levelo_inurba_marseille","lat":43.31352,"lon":5.36718,"is_reserved":false,"is_disabled":false,"rental_uris":{"android":"levelo://app?vid=f8701991-8c40-432f-accb-db30a9ac6844","ios":"levelo://app?vid=f8701991-8c40-432f-accb-db30a9ac6844"},"vehicle_type_id":"4","last_reported":1732695200,"current_range_meters":36400,"station_id":"ce4bgr92rcd13ifvqc6g","pricing_plan_id":"cebpf4jnsgd1na2vs0mg"},{"bike_id":"f98cf346-2f95-41c1-a190-288b7ed6e557","system_id":"levelo_inurba_marseille","lat":43.24086,"lon":5.37735,"is_reserved":false,"is_disabled":false,"rental_uris":{"android":"levelo://app?vid=f98cf346-2f95-41c1-a190-288b7ed6e557","ios":"levelo://app?vid=f98cf346-2f95-41c1-a190-288b7ed6e557"},"vehicle_type_id":"4","last_reported":1732695200,"current_range_meters":38400,"station_id":"ce4bhnp2rcd13ifvqgvg","pricing_plan_id":"cebpf4jnsgd1na2vs0mg"},{"bike_id":"3e74510c-d86b-4186-a956-0b286b8b0c60","system_id":"levelo_inurba_marseille","lat":43.24648,"lon":5.38183,"is_reserved":false,"is_disabled":false,"rental_uris":{"android":"levelo://app?vid=3e74510c-d86b-4186-a956-0b286b8b0c60","ios":"levelo://app?vid=3e74510c-d86b-4186-a956-0b286b8b0c60"},"vehicle_type_id":"4","last_reported":1732695200,"current_range_meters":38800,"station_id":"ce4bhih2rcd13ifvqfr0","pricing_plan_id":"cebpf4jnsgd1na2vs0mg"},{"bike_id":"bdd9bf8b-0483-4315-b3ab-59799858e292","system_id":"levelo_inurba_marseille","lat":43.29769,"lon":5.38129,"is_reserved":false,"is_disabled":false,"rental_uris":{"android":"levelo://app?vid=bdd9bf8b-0483-4315-b3ab-59799858e292","ios":"levelo://app?vid=bdd9bf8b-0483-4315-b3ab-59799858e292"},"vehicle_type_id":"4","last_reported":1732695200,"current_range_meters":18000,"station_id":"ce4bgip2rcd13ifvqbb0","pricing_plan_id":"cebpf4jnsgd1na2vs0mg"},{"bike_id":"02873962-c11e-4874-85ec-ca4c7d1993dc","system_id":"levelo_inurba_marseille","lat":43.25932,"lon":5.40908,"is_reserved":false,"is_disabled":false,"rental_uris":{"android":"levelo://app?vid=02873962-c11e-4874-85ec-ca4c7d1993dc","ios":"levelo://app?vid=02873962-c11e-4874-85ec-ca4c7d1993dc"},"vehicle_type_id":"4","last_reported":1732695200,"current_range_meters":35200,"station_id":"ce4bhm92rcd13ifvqglg","pricing_plan_id":"cebpf4jnsgd1na2vs0mg"},{"bike_id":"9789e421-83e5-4329-a1b2-4d098e373920","system_id":"levelo_inurba_marseille","lat":43.3095,"lon":5.39043,"is_reserved":false,"is_disabled":false,"rental_uris":{"android":"levelo://app?vid=9789e421-83e5-4329-a1b2-4d098e373920","ios":"levelo://app?vid=9789e421-83e5-4329-a1b2-4d098e373920"},"vehicle_type_id":"4","last_reported":1732695200,"current_range_meters":17600,"station_id":"ce4bgup2rcd13ifvqco0","pricing_plan_id":"cebpf4jnsgd1na2vs0mg"},{"bike_id":"63969398-aead-4450-9204-3c1d2cb164b4","system_id":"levelo_inurba_marseille","lat":43.2749,"lon":5.42452,"is_reserved":false,"is_disabled":false,"rental_uris":{"android":"levelo://app?vid=63969398-aead-4450-9204-3c1d2cb164b4","ios":"levelo://app?vid=63969398-aead-4450-9204-3c1d2cb164b4"},"vehicle_type_id":"4","last_reported":1732695200,"current_range_meters":35200,"station_id":"ce4bhn92rcd13ifvqgrg","pricing_plan_id":"cebpf4jnsgd1na2vs0mg"},{"bike_id":"c14240d5-8df7-4024-8eab-89c3e0df8641","system_id":"levelo_inurba_marseille","lat":43.30092,"lon":5.39075,"is_reserved":false,"is_disabled":false,"rental_uris":{"android":"levelo://app?vid=c14240d5-8df7-4024-8eab-89c3e0df8641","ios":"levelo://app?vid=c14240d5-8df7-4024-8eab-89c3e0df8641"},"vehicle_type_id":"4","last_reported":1732695200,"current_range_meters":4800,"station_id":"ce4bh192rcd13ifvqdb0","pricing_plan_id":"cebpf4jnsgd1na2vs0mg"},{"bike_id":"64c32c12-6135-4609-9367-8c88c6ffc2a1","system_id":"levelo_inurba_marseille","lat":43.31348,"lon":5.3671,"is_reserved":false,"is_disabled":false,"rental_uris":{"android":"levelo://app?vid=64c32c12-6135-4609-9367-8c88c6ffc2a1","ios":"levelo://app?vid=64c32c12-6135-4609-9367-8c88c6ffc2a1"},"vehicle_type_id":"4","last_reported":1732695200,"current_range_meters":17600,"station_id":"ce4bgr92rcd13ifvqc6g","pricing_plan_id":"cebpf4jnsgd1na2vs0mg"},{"bike_id":"fd4e9879-fa20-46eb-95a3-9d902fcd568c","system_id":"levelo_inurba_marseille","lat":43.29189,"lon":5.35809,"is_reserved":false,"is_disabled":false,"rental_uris":{"android":"levelo://app?vid=fd4e9879-fa20-46eb-95a3-9d902fcd568c","ios":"levelo://app?vid=fd4e9879-fa20-46eb-95a3-9d902fcd568c"},"vehicle_type_id":"4","last_reported":1732695200,"current_range_meters":25600,"station_id":"ce4bhb12rcd13ifvqel0","pricing_plan_id":"cebpf4jnsgd1na2vs0mg"},{"bike_id":"629ad990-73e7-4de8-a1f9-57c41eb33d0b","system_id":"levelo_inurba_marseille","lat":43.28696,"lon":5.39982,"is_reserved":false,"is_disabled":false,"rental_uris":{"android":"levelo://app?vid=629ad990-73e7-4de8-a1f9-57c41eb33d0b","ios":"levelo://app?vid=629ad990-73e7-4de8-a1f9-57c41eb33d0b"},"vehicle_type_id":"4","last_reported":1732695200,"current_range_meters":8400,"station_id":"ce4bho92rcd13ifvqh3g","pricing_plan_id":"cebpf4jnsgd1na2vs0mg"},{"bike_id":"9f0d99d0-4576-4f22-ab76-950a0271ec39","system_id":"levelo_inurba_marseille","lat":43.28336,"lon":5.38104,"is_reserved":false,"is_disabled":false,"rental_uris":{"android":"levelo://app?vid=9f0d99d0-4576-4f22-ab76-950a0271ec39","ios":"levelo://app?vid=9f0d99d0-4576-4f22-ab76-950a0271ec39"},"vehicle_type_id":"4","last_reported":1732695200,"current_range_meters":36400,"station_id":"ce4bh412rcd13ifvqdr0","pricing_plan_id":"cebpf4jnsgd1na2vs0mg"},{"bike_id":"88c0a23c-decf-469d-95fc-e70f9cd8eb3b","system_id":"levelo_inurba_marseille","lat":43.33775,"lon":5.37413,"is_reserved":false,"is_disabled":false,"rental_uris":{"android":"levelo://app?vid=88c0a23c-decf-469d-95fc-e70f9cd8eb3b","ios":"levelo://app?vid=88c0a23c-decf-469d-95fc-e70f9cd8eb3b"},"vehicle_type_id":"4","last_reported":1732695200,"current_range_meters":36800,"station_id":"","pricing_plan_id":"cebpf4jnsgd1na2vs0mg"},{"bike_id":"05ad44e5-d7ad-40e4-b78e-31a67af522c0","system_id":"levelo_inurba_marseille","lat":43.2573,"lon":5.41108,"is_reserved":false,"is_disabled":true,"rental_uris":{"android":"levelo://app?vid=05ad44e5-d7ad-40e4-b78e-31a67af522c0","ios":"levelo://app?vid=05ad44e5-d7ad-40e4-b78e-31a67af522c0"},"vehicle_type_id":"4","last_reported":1732695200,"current_range_meters":36400,"station_id":"ce4bhkp2rcd13ifvqgd0","pricing_plan_id":"cebpf4jnsgd1na2vs0mg"},{"bike_id":"947b4ae5-6d27-48cd-83df-1d5aa4a4dc55","system_id":"levelo_inurba_marseille","lat":43.24665,"lon":5.38157,"is_reserved":false,"is_disabled":false,"rental_uris":{"android":"levelo://app?vid=947b4ae5-6d27-48cd-83df-1d5aa4a4dc55","ios":"levelo://app?vid=947b4ae5-6d27-48cd-83df-1d5aa4a4dc55"},"vehicle_type_id":"4","last_reported":1732695200,"current_range_meters":30400,"station_id":"ce4bhih2rcd13ifvqfr0","pricing_plan_id":"cebpf4jnsgd1na2vs0mg"},{"bike_id":"e9453f45-1719-4d95-84b6-9fec3792c91c","system_id":"levelo_inurba_marseille","lat":43.24075,"lon":5.37754,"is_reserved":false,"is_disabled":false,"rental_uris":{"android":"levelo://app?vid=e9453f45-1719-4d95-84b6-9fec3792c91c","ios":"levelo://app?vid=e9453f45-1719-4d95-84b6-9fec3792c91c"},"vehicle_type_id":"4","last_reported":1732695200,"current_range_meters":37600,"station_id":"ce4bhnp2rcd13ifvqgvg","pricing_plan_id":"cebpf4jnsgd1na2vs0mg"},{"bike_id":"8dcefeb2-031a-4a52-8e53-707739264518","system_id":"levelo_inurba_marseille","lat":43.28153,"lon":5.42644,"is_reserved":false,"is_disabled":false,"rental_uris":{"android":"levelo://app?vid=8dcefeb2-031a-4a52-8e53-707739264518","ios":"levelo://app?vid=8dcefeb2-031a-4a52-8e53-707739264518"},"vehicle_type_id":"4","last_reported":1732695200,"current_range_meters":24000,"station_id":"ce4bhnh2rcd13ifvqgug","pricing_plan_id":"cebpf4jnsgd1na2vs0mg"},{"bike_id":"f7bcfebb-25d4-44bf-a81b-44cfda169095","system_id":"levelo_inurba_marseille","lat":43.25722,"lon":5.41112,"is_reserved":false,"is_disabled":true,"rental_uris":{"android":"levelo://app?vid=f7bcfebb-25d4-44bf-a81b-44cfda169095","ios":"levelo://app?vid=f7bcfebb-25d4-44bf-a81b-44cfda169095"},"vehicle_type_id":"4","last_reported":1732695200,"current_range_meters":0,"station_id":"ce4bhkp2rcd13ifvqgd0","pricing_plan_id":"cebpf4jnsgd1na2vs0mg"},{"bike_id":"730718ae-d786-4d6e-883c-c60966b23e43","system_id":"levelo_inurba_marseille","lat":43.24077,"lon":5.37751,"is_reserved":false,"is_disabled":false,"rental_uris":{"android":"levelo://app?vid=730718ae-d786-4d6e-883c-c60966b23e43","ios":"levelo://app?vid=730718ae-d786-4d6e-883c-c60966b23e43"},"vehicle_type_id":"4","last_reported":1732695200,"current_range_meters":18800,"station_id":"ce4bhnp2rcd13ifvqgvg","pricing_plan_id":"cebpf4jnsgd1na2vs0mg"},{"bike_id":"835a170b-9333-4a62-9af0-a89a87c1a309","system_id":"levelo_inurba_marseille","lat":43.24651,"lon":5.38156,"is_reserved":false,"is_disabled":false,"rental_uris":{"android":"levelo://app?vid=835a170b-9333-4a62-9af0-a89a87c1a309","ios":"levelo://app?vid=835a170b-9333-4a62-9af0-a89a87c1a309"},"vehicle_type_id":"4","last_reported":1732695200,"current_range_meters":7200,"station_id":"ce4bhih2rcd13ifvqfr0","pricing_plan_id":"cebpf4jnsgd1na2vs0mg"},{"bike_id":"830d6b87-87f9-4255-8695-a991d2800c7b","system_id":"levelo_inurba_marseille","lat":43.25579,"lon":5.3823,"is_reserved":false,"is_disabled":false,"rental_uris":{"android":"levelo://app?vid=830d6b87-87f9-4255-8695-a991d2800c7b","ios":"levelo://app?vid=830d6b87-87f9-4255-8695-a991d2800c7b"},"vehicle_type_id":"4","last_reported":1732695200,"current_range_meters":38000,"station_id":"ce4bhih2rcd13ifvqfs0","pricing_plan_id":"cebpf4jnsgd1na2vs0mg"},{"bike_id":"51c8c1ee-3034-493c-be2d-85f0093b985c","system_id":"levelo_inurba_marseille","lat":43.30137,"lon":5.37415,"is_reserved":false,"is_disabled":false,"rental_uris":{"android":"levelo://app?vid=51c8c1ee-3034-493c-be2d-85f0093b985c","ios":"levelo://app?vid=51c8c1ee-3034-493c-be2d-85f0093b985c"},"vehicle_type_id":"4","last_reported":1732695200,"current_range_meters":32400,"station_id":"ce4bgs92rcd13ifvqcc0","pricing_plan_id":"cebpf4jnsgd1na2vs0mg"},{"bike_id":"ecdb3743-a3d9-4afc-bb51-ff07b746abac","system_id":"levelo_inurba_marseille","lat":43.29031,"lon":5.39976,"is_reserved":false,"is_disabled":true,"rental_uris":{"android":"levelo://app?vid=ecdb3743-a3d9-4afc-bb51-ff07b746abac","ios":"levelo://app?vid=ecdb3743-a3d9-4afc-bb51-ff07b746abac"},"vehicle_type_id":"4","last_reported":1732695200,"current_range_meters":38800,"station_id":"ce4bh392rcd13ifvqdm0","pricing_plan_id":"cebpf4jnsgd1na2vs0mg"},{"bike_id":"8e46b2c9-0288-44ad-a5dd-399cf4cb50ae","system_id":"levelo_inurba_marseille","lat":43.33606,"lon":5.41021,"is_reserved":false,"is_disabled":false,"rental_uris":{"android":"levelo://app?vid=8e46b2c9-0288-44ad-a5dd-399cf4cb50ae","ios":"levelo://app?vid=8e46b2c9-0288-44ad-a5dd-399cf4cb50ae"},"vehicle_type_id":"4","last_reported":1732695200,"current_range_meters":8400,"station_id":"ce4bhqh2rcd13ifvqhmg","pricing_plan_id":"cebpf4jnsgd1na2vs0mg"},{"bike_id":"820f12a0-cf28-488c-8a74-3f1b9d2e4db5","system_id":"levelo_inurba_marseille","lat":43.230543,"lon":5.354971,"is_reserved":false,"is_disabled":false,"rental_uris":{"android":"levelo://app?vid=820f12a0-cf28-488c-8a74-3f1b9d2e4db5","ios":"levelo://app?vid=820f12a0-cf28-488c-8a74-3f1b9d2e4db5"},"vehicle_type_id":"4","last_reported":1732695200,"current_range_meters":19600,"station_id":"cpo3342slgdg3j2ifvpg","pricing_plan_id":"cebpf4jnsgd1na2vs0mg"},{"bike_id":"5cfa082c-7c1e-4ec1-be51-3e0c163e81f0","system_id":"levelo_inurba_marseille","lat":43.29567,"lon":5.3753,"is_reserved":false,"is_disabled":false,"rental_uris":{"android":"levelo://app?vid=5cfa082c-7c1e-4ec1-be51-3e0c163e81f0","ios":"levelo://app?vid=5cfa082c-7c1e-4ec1-be51-3e0c163e81f0"},"vehicle_type_id":"4","last_reported":1732695200,"current_range_meters":29600,"station_id":"ce4bgh92rcd13ifvqb50","pricing_plan_id":"cebpf4jnsgd1na2vs0mg"},{"bike_id":"738076aa-664d-4515-95d3-8469045c48fa","system_id":"levelo_inurba_marseille","lat":43.28854,"lon":5.35869,"is_reserved":false,"is_disabled":false,"rental_uris":{"android":"levelo://app?vid=738076aa-664d-4515-95d3-8469045c48fa","ios":"levelo://app?vid=738076aa-664d-4515-95d3-8469045c48fa"},"vehicle_type_id":"4","last_reported":1732695200,"current_range_meters":25200,"station_id":"ce4bhb12rcd13ifvqem0","pricing_plan_id":"cebpf4jnsgd1na2vs0mg"},{"bike_id":"36e535af-6ffe-45ec-a5b2-99a3b6c78331","system_id":"levelo_inurba_marseille","lat":43.28733,"lon":5.36079,"is_reserved":false,"is_disabled":false,"rental_uris":{"android":"levelo://app?vid=36e535af-6ffe-45ec-a5b2-99a3b6c78331","ios":"levelo://app?vid=36e535af-6ffe-45ec-a5b2-99a3b6c78331"},"vehicle_type_id":"4","last_reported":1732695200,"current_range_meters":38800,"station_id":"cki0cbj6b192h4jlfktg","pricing_plan_id":"cebpf4jnsgd1na2vs0mg"},{"bike_id":"a4f5ec09-594b-4d89-bf3e-08aaf07da9b6","system_id":"levelo_inurba_marseille","lat":43.30144,"lon":5.38087,"is_reserved":false,"is_disabled":false,"rental_uris":{"android":"levelo://app?vid=a4f5ec09-594b-4d89-bf3e-08aaf07da9b6","ios":"levelo://app?vid=a4f5ec09-594b-4d89-bf3e-08aaf07da9b6"},"vehicle_type_id":"4","last_reported":1732695200,"current_range_meters":37600,"station_id":"ce4bgjp2rcd13ifvqbh0","pricing_plan_id":"cebpf4jnsgd1na2vs0mg"},{"bike_id":"3451b272-9230-4dff-84d2-783314fd3bbb","system_id":"levelo_inurba_marseille","lat":43.25111,"lon":5.40323,"is_reserved":false,"is_disabled":true,"rental_uris":{"android":"levelo://app?vid=3451b272-9230-4dff-84d2-783314fd3bbb","ios":"levelo://app?vid=3451b272-9230-4dff-84d2-783314fd3bbb"},"vehicle_type_id":"4","last_reported":1732695200,"current_range_meters":0,"station_id":"ce4bhlh2rcd13ifvqgig","pricing_plan_id":"cebpf4jnsgd1na2vs0mg"},{"bike_id":"c6a70f22-de82-4b83-892d-3a7fa5ec9fa5","system_id":"levelo_inurba_marseille","lat":43.30093,"lon":5.39068,"is_reserved":false,"is_disabled":false,"rental_uris":{"android":"levelo://app?vid=c6a70f22-de82-4b83-892d-3a7fa5ec9fa5","ios":"levelo://app?vid=c6a70f22-de82-4b83-892d-3a7fa5ec9fa5"},"vehicle_type_id":"4","last_reported":1732695200,"current_range_meters":37600,"station_id":"ce4bh192rcd13ifvqdb0","pricing_plan_id":"cebpf4jnsgd1na2vs0mg"},{"bike_id":"2f9b9b42-f665-4c1c-86a1-5a0ce40d3de2","system_id":"levelo_inurba_marseille","lat":43.32483,"lon":5.36572,"is_reserved":false,"is_disabled":true,"rental_uris":{"android":"levelo://app?vid=2f9b9b42-f665-4c1c-86a1-5a0ce40d3de2","ios":"levelo://app?vid=2f9b9b42-f665-4c1c-86a1-5a0ce40d3de2"},"vehicle_type_id":"4","last_reported":1732695200,"current_range_meters":26800,"station_id":"ce4bhs12rcd13ifvqhvg","pricing_plan_id":"cebpf4jnsgd1na2vs0mg"},{"bike_id":"7d93fd60-b8d7-46a8-b162-5641b5ce3bda","system_id":"levelo_inurba_marseille","lat":43.25002,"lon":5.38928,"is_reserved":false,"is_disabled":false,"rental_uris":{"android":"levelo://app?vid=7d93fd60-b8d7-46a8-b162-5641b5ce3bda","ios":"levelo://app?vid=7d93fd60-b8d7-46a8-b162-5641b5ce3bda"},"vehicle_type_id":"4","last_reported":1732695200,"current_range_meters":31200,"station_id":"ce4bhgp2rcd13ifvqfd0","pricing_plan_id":"cebpf4jnsgd1na2vs0mg"},{"bike_id":"cb67f517-b055-4f00-ba20-a4b44888f759","system_id":"levelo_inurba_marseille","lat":43.31703,"lon":5.37764,"is_reserved":false,"is_disabled":false,"rental_uris":{"android":"levelo://app?vid=cb67f517-b055-4f00-ba20-a4b44888f759","ios":"levelo://app?vid=cb67f517-b055-4f00-ba20-a4b44888f759"},"vehicle_type_id":"4","last_reported":1732695200,"current_range_meters":32800,"station_id":"ce4bgth2rcd13ifvqch0","pricing_plan_id":"cebpf4jnsgd1na2vs0mg"},{"bike_id":"c6323cc4-3a8d-4794-8c5c-c47ccfb2ec44","system_id":"levelo_inurba_marseille","lat":43.30546,"lon":5.36704,"is_reserved":false,"is_disabled":false,"rental_uris":{"android":"levelo://app?vid=c6323cc4-3a8d-4794-8c5c-c47ccfb2ec44","ios":"levelo://app?vid=c6323cc4-3a8d-4794-8c5c-c47ccfb2ec44"},"vehicle_type_id":"4","last_reported":1732695200,"current_range_meters":34000,"station_id":"ce4bgrp2rcd13ifvqc9g","pricing_plan_id":"cebpf4jnsgd1na2vs0mg"},{"bike_id":"51d10e5b-7cf9-4b52-83d8-d94547e2d045","system_id":"levelo_inurba_marseille","lat":43.30942,"lon":5.39022,"is_reserved":false,"is_disabled":false,"rental_uris":{"android":"levelo://app?vid=51d10e5b-7cf9-4b52-83d8-d94547e2d045","ios":"levelo://app?vid=51d10e5b-7cf9-4b52-83d8-d94547e2d045"},"vehicle_type_id":"4","last_reported":1732695200,"current_range_meters":20800,"station_id":"ce4bgup2rcd13ifvqco0","pricing_plan_id":"cebpf4jnsgd1na2vs0mg"},{"bike_id":"b8724aa3-11ec-491b-842f-eeefa4c01d79","system_id":"levelo_inurba_marseille","lat":43.2749,"lon":5.42455,"is_reserved":false,"is_disabled":false,"rental_uris":{"android":"levelo://app?vid=b8724aa3-11ec-491b-842f-eeefa4c01d79","ios":"levelo://app?vid=b8724aa3-11ec-491b-842f-eeefa4c01d79"},"vehicle_type_id":"4","last_reported":1732695200,"current_range_meters":12400,"station_id":"ce4bhn92rcd13ifvqgrg","pricing_plan_id":"cebpf4jnsgd1na2vs0mg"},{"bike_id":"277f3546-97d6-4aa1-8554-a3090c9b905e","system_id":"levelo_inurba_marseille","lat":43.32536,"lon":5.41436,"is_reserved":false,"is_disabled":false,"rental_uris":{"android":"levelo://app?vid=277f3546-97d6-4aa1-8554-a3090c9b905e","ios":"levelo://app?vid=277f3546-97d6-4aa1-8554-a3090c9b905e"},"vehicle_type_id":"4","last_reported":1732695200,"current_range_meters":16400,"station_id":"ce4bhq12rcd13ifvqhhg","pricing_plan_id":"cebpf4jnsgd1na2vs0mg"},{"bike_id":"287fa067-0159-4a80-8436-f002b330f07a","system_id":"levelo_inurba_marseille","lat":43.27073,"lon":5.42271,"is_reserved":false,"is_disabled":false,"rental_uris":{"android":"levelo://app?vid=287fa067-0159-4a80-8436-f002b330f07a","ios":"levelo://app?vid=287fa067-0159-4a80-8436-f002b330f07a"},"vehicle_type_id":"4","last_reported":1732695200,"current_range_meters":38800,"station_id":"ce4bhk92rcd13ifvqgb0","pricing_plan_id":"cebpf4jnsgd1na2vs0mg"},{"bike_id":"b6df706b-8a11-4fb1-814d-c19eff907861","system_id":"levelo_inurba_marseille","lat":43.28614,"lon":5.35101,"is_reserved":false,"is_disabled":false,"rental_uris":{"android":"levelo://app?vid=b6df706b-8a11-4fb1-814d-c19eff907861","ios":"levelo://app?vid=b6df706b-8a11-4fb1-814d-c19eff907861"},"vehicle_type_id":"4","last_reported":1732695200,"current_range_meters":8800,"station_id":"ce4bhch2rcd13ifvqeug","pricing_plan_id":"cebpf4jnsgd1na2vs0mg"},{"bike_id":"4d4c884f-6933-49c0-8899-f9856d90f44d","system_id":"levelo_inurba_marseille","lat":43.29724,"lon":5.37986,"is_reserved":false,"is_disabled":true,"rental_uris":{"android":"levelo://app?vid=4d4c884f-6933-49c0-8899-f9856d90f44d","ios":"levelo://app?vid=4d4c884f-6933-49c0-8899-f9856d90f44d"},"vehicle_type_id":"4","last_reported":1732695200,"current_range_meters":0,"station_id":"","pricing_plan_id":"cebpf4jnsgd1na2vs0mg"},{"bike_id":"24b38645-9029-4d4b-97da-190c683f379b","system_id":"levelo_inurba_marseille","lat":43.29318,"lon":5.37171,"is_reserved":false,"is_disabled":false,"rental_uris":{"android":"levelo://app?vid=24b38645-9029-4d4b-97da-190c683f379b","ios":"levelo://app?vid=24b38645-9029-4d4b-97da-190c683f379b"},"vehicle_type_id":"4","last_reported":1732695200,"current_range_meters":30000,"station_id":"ce4bgh92rcd13ifvqb40","pricing_plan_id":"cebpf4jnsgd1na2vs0mg"},{"bike_id":"898a2045-3b1f-450d-bbe2-0cde778f9bcb","system_id":"levelo_inurba_marseille","lat":43.301577,"lon":5.380923,"is_reserved":false,"is_disabled":false,"rental_uris":{"android":"levelo://app?vid=898a2045-3b1f-450d-bbe2-0cde778f9bcb","ios":"levelo://app?vid=898a2045-3b1f-450d-bbe2-0cde778f9bcb"},"vehicle_type_id":"4","last_reported":1732695200,"current_range_meters":28800,"station_id":"ce4bgjp2rcd13ifvqbh0","pricing_plan_id":"cebpf4jnsgd1na2vs0mg"},{"bike_id":"1fd68eae-a001-469a-a916-fc8df7b33cca","system_id":"levelo_inurba_marseille","lat":43.29586,"lon":5.38103,"is_reserved":false,"is_disabled":false,"rental_uris":{"android":"levelo://app?vid=1fd68eae-a001-469a-a916-fc8df7b33cca","ios":"levelo://app?vid=1fd68eae-a001-469a-a916-fc8df7b33cca"},"vehicle_type_id":"4","last_reported":1732695200,"current_range_meters":38400,"station_id":"ce4bgl12rcd13ifvqbo0","pricing_plan_id":"cebpf4jnsgd1na2vs0mg"},{"bike_id":"43e60175-b97e-4e64-9a5a-2bf86d2f77ca","system_id":"levelo_inurba_marseille","lat":43.30269,"lon":5.37692,"is_reserved":false,"is_disabled":false,"rental_uris":{"android":"levelo://app?vid=43e60175-b97e-4e64-9a5a-2bf86d2f77ca","ios":"levelo://app?vid=43e60175-b97e-4e64-9a5a-2bf86d2f77ca"},"vehicle_type_id":"4","last_reported":1732695200,"current_range_meters":33200,"station_id":"ce4bguh2rcd13ifvqcj0","pricing_plan_id":"cebpf4jnsgd1na2vs0mg"},{"bike_id":"20b3d934-42a7-42b9-bb49-0833cf2f0412","system_id":"levelo_inurba_marseille","lat":43.29298,"lon":5.37189,"is_reserved":false,"is_disabled":true,"rental_uris":{"android":"levelo://app?vid=20b3d934-42a7-42b9-bb49-0833cf2f0412","ios":"levelo://app?vid=20b3d934-42a7-42b9-bb49-0833cf2f0412"},"vehicle_type_id":"4","last_reported":1732695200,"current_range_meters":38400,"station_id":"ce4bgh92rcd13ifvqb40","pricing_plan_id":"cebpf4jnsgd1na2vs0mg"},{"bike_id":"0cb4ba6d-d720-43f4-b11e-bbd18e9ade15","system_id":"levelo_inurba_marseille","lat":43.2418,"lon":5.39728,"is_reserved":false,"is_disabled":false,"rental_uris":{"android":"levelo://app?vid=0cb4ba6d-d720-43f4-b11e-bbd18e9ade15","ios":"levelo://app?vid=0cb4ba6d-d720-43f4-b11e-bbd18e9ade15"},"vehicle_type_id":"4","last_reported":1732695200,"current_range_meters":8000,"station_id":"ce4bhn12rcd13ifvqgpg","pricing_plan_id":"cebpf4jnsgd1na2vs0mg"},{"bike_id":"1a1b7ecb-dbcb-4f9a-8edb-34d1f7413256","system_id":"levelo_inurba_marseille","lat":43.27305,"lon":5.39086,"is_reserved":false,"is_disabled":false,"rental_uris":{"android":"levelo://app?vid=1a1b7ecb-dbcb-4f9a-8edb-34d1f7413256","ios":"levelo://app?vid=1a1b7ecb-dbcb-4f9a-8edb-34d1f7413256"},"vehicle_type_id":"4","last_reported":1732695200,"current_range_meters":35600,"station_id":"ce4bhgp2rcd13ifvqfe0","pricing_plan_id":"cebpf4jnsgd1na2vs0mg"},{"bike_id":"e023ff32-6c4f-4673-a7aa-5fcdbec26d0f","system_id":"levelo_inurba_marseille","lat":43.28847,"lon":5.35837,"is_reserved":false,"is_disabled":true,"rental_uris":{"android":"levelo://app?vid=e023ff32-6c4f-4673-a7aa-5fcdbec26d0f","ios":"levelo://app?vid=e023ff32-6c4f-4673-a7aa-5fcdbec26d0f"},"vehicle_type_id":"4","last_reported":1732695200,"current_range_meters":25600,"station_id":"ce4bhb12rcd13ifvqem0","pricing_plan_id":"cebpf4jnsgd1na2vs0mg"},{"bike_id":"f9ca3389-f0b0-42e9-b890-7ec20aa8d35e","system_id":"levelo_inurba_marseille","lat":43.29266,"lon":5.36844,"is_reserved":false,"is_disabled":true,"rental_uris":{"android":"levelo://app?vid=f9ca3389-f0b0-42e9-b890-7ec20aa8d35e","ios":"levelo://app?vid=f9ca3389-f0b0-42e9-b890-7ec20aa8d35e"},"vehicle_type_id":"4","last_reported":1732695200,"current_range_meters":11600,"station_id":"ce4bhbp2rcd13ifvqesg","pricing_plan_id":"cebpf4jnsgd1na2vs0mg"},{"bike_id":"4d809776-4d2b-4bf5-8aa6-666b5b1fd18f","system_id":"levelo_inurba_marseille","lat":43.337227,"lon":5.391903,"is_reserved":false,"is_disabled":false,"rental_uris":{"android":"levelo://app?vid=4d809776-4d2b-4bf5-8aa6-666b5b1fd18f","ios":"levelo://app?vid=4d809776-4d2b-4bf5-8aa6-666b5b1fd18f"},"vehicle_type_id":"4","last_reported":1732695200,"current_range_meters":38400,"station_id":"ce4bhr92rcd13ifvqhsg","pricing_plan_id":"cebpf4jnsgd1na2vs0mg"},{"bike_id":"55857015-4925-4b83-9c73-4a782a962aeb","system_id":"levelo_inurba_marseille","lat":43.3095,"lon":5.39037,"is_reserved":false,"is_disabled":false,"rental_uris":{"android":"levelo://app?vid=55857015-4925-4b83-9c73-4a782a962aeb","ios":"levelo://app?vid=55857015-4925-4b83-9c73-4a782a962aeb"},"vehicle_type_id":"4","last_reported":1732695200,"current_range_meters":18800,"station_id":"ce4bgup2rcd13ifvqco0","pricing_plan_id":"cebpf4jnsgd1na2vs0mg"},{"bike_id":"b08e20b5-f00e-4042-93cf-68b043595c11","system_id":"levelo_inurba_marseille","lat":43.2668,"lon":5.38266,"is_reserved":false,"is_disabled":false,"rental_uris":{"android":"levelo://app?vid=b08e20b5-f00e-4042-93cf-68b043595c11","ios":"levelo://app?vid=b08e20b5-f00e-4042-93cf-68b043595c11"},"vehicle_type_id":"4","last_reported":1732695200,"current_range_meters":34800,"station_id":"ce4bhg92rcd13ifvqf90","pricing_plan_id":"cebpf4jnsgd1na2vs0mg"},{"bike_id":"339850c3-d6a6-49d9-9bea-bb2f74b15c16","system_id":"levelo_inurba_marseille","lat":43.29534,"lon":5.38546,"is_reserved":false,"is_disabled":true,"rental_uris":{"android":"levelo://app?vid=339850c3-d6a6-49d9-9bea-bb2f74b15c16","ios":"levelo://app?vid=339850c3-d6a6-49d9-9bea-bb2f74b15c16"},"vehicle_type_id":"4","last_reported":1732695200,"current_range_meters":34000,"station_id":"ce4bgih2rcd13ifvqba0","pricing_plan_id":"cebpf4jnsgd1na2vs0mg"},{"bike_id":"5c89ccab-80c2-49a1-9b7e-a1e55222bd20","system_id":"levelo_inurba_marseille","lat":43.24074,"lon":5.37756,"is_reserved":false,"is_disabled":false,"rental_uris":{"android":"levelo://app?vid=5c89ccab-80c2-49a1-9b7e-a1e55222bd20","ios":"levelo://app?vid=5c89ccab-80c2-49a1-9b7e-a1e55222bd20"},"vehicle_type_id":"4","last_reported":1732695200,"current_range_meters":38000,"station_id":"ce4bhnp2rcd13ifvqgvg","pricing_plan_id":"cebpf4jnsgd1na2vs0mg"},{"bike_id":"3c99833d-85a4-43d2-84d8-2f934664111f","system_id":"levelo_inurba_marseille","lat":43.29602,"lon":5.38091,"is_reserved":false,"is_disabled":false,"rental_uris":{"android":"levelo://app?vid=3c99833d-85a4-43d2-84d8-2f934664111f","ios":"levelo://app?vid=3c99833d-85a4-43d2-84d8-2f934664111f"},"vehicle_type_id":"4","last_reported":1732695200,"current_range_meters":27600,"station_id":"ce4bgl12rcd13ifvqbo0","pricing_plan_id":"cebpf4jnsgd1na2vs0mg"},{"bike_id":"632211cd-b346-4150-9c78-c71d7b11441f","system_id":"levelo_inurba_marseille","lat":43.33603,"lon":5.41024,"is_reserved":false,"is_disabled":true,"rental_uris":{"android":"levelo://app?vid=632211cd-b346-4150-9c78-c71d7b11441f","ios":"levelo://app?vid=632211cd-b346-4150-9c78-c71d7b11441f"},"vehicle_type_id":"4","last_reported":1732695200,"current_range_meters":13600,"station_id":"ce4bhqh2rcd13ifvqhmg","pricing_plan_id":"cebpf4jnsgd1na2vs0mg"},{"bike_id":"834fa57d-9857-4cdc-bc18-1867eaf6f20a","system_id":"levelo_inurba_marseille","lat":43.3054,"lon":5.36551,"is_reserved":false,"is_disabled":false,"rental_uris":{"android":"levelo://app?vid=834fa57d-9857-4cdc-bc18-1867eaf6f20a","ios":"levelo://app?vid=834fa57d-9857-4cdc-bc18-1867eaf6f20a"},"vehicle_type_id":"4","last_reported":1732695200,"current_range_meters":16800,"station_id":"ce4bgs12rcd13ifvqcag","pricing_plan_id":"cebpf4jnsgd1na2vs0mg"},{"bike_id":"242eba8c-5633-44b9-9a97-b18308730ded","system_id":"levelo_inurba_marseille","lat":43.2408,"lon":5.37746,"is_reserved":false,"is_disabled":false,"rental_uris":{"android":"levelo://app?vid=242eba8c-5633-44b9-9a97-b18308730ded","ios":"levelo://app?vid=242eba8c-5633-44b9-9a97-b18308730ded"},"vehicle_type_id":"4","last_reported":1732695200,"current_range_meters":24400,"station_id":"ce4bhnp2rcd13ifvqgvg","pricing_plan_id":"cebpf4jnsgd1na2vs0mg"},{"bike_id":"73203dcb-1e3d-4dfd-939a-eac856f05ade","system_id":"levelo_inurba_marseille","lat":43.27492,"lon":5.42459,"is_reserved":false,"is_disabled":false,"rental_uris":{"android":"levelo://app?vid=73203dcb-1e3d-4dfd-939a-eac856f05ade","ios":"levelo://app?vid=73203dcb-1e3d-4dfd-939a-eac856f05ade"},"vehicle_type_id":"4","last_reported":1732695200,"current_range_meters":7200,"station_id":"ce4bhn92rcd13ifvqgrg","pricing_plan_id":"cebpf4jnsgd1na2vs0mg"},{"bike_id":"9ca0bee1-3ee3-42dd-bd49-56d5f853d816","system_id":"levelo_inurba_marseille","lat":43.24088,"lon":5.3776,"is_reserved":false,"is_disabled":true,"rental_uris":{"android":"levelo://app?vid=9ca0bee1-3ee3-42dd-bd49-56d5f853d816","ios":"levelo://app?vid=9ca0bee1-3ee3-42dd-bd49-56d5f853d816"},"vehicle_type_id":"4","last_reported":1732695200,"current_range_meters":32400,"station_id":"ce4bhnp2rcd13ifvqgvg","pricing_plan_id":"cebpf4jnsgd1na2vs0mg"},{"bike_id":"e217ab46-3533-4266-8525-236073afdbfc","system_id":"levelo_inurba_marseille","lat":43.30165,"lon":5.38076,"is_reserved":false,"is_disabled":false,"rental_uris":{"android":"levelo://app?vid=e217ab46-3533-4266-8525-236073afdbfc","ios":"levelo://app?vid=e217ab46-3533-4266-8525-236073afdbfc"},"vehicle_type_id":"4","last_reported":1732695200,"current_range_meters":14000,"station_id":"ce4bgjp2rcd13ifvqbh0","pricing_plan_id":"cebpf4jnsgd1na2vs0mg"},{"bike_id":"674df4ab-5b72-443e-a3da-efdec3ddef4f","system_id":"levelo_inurba_marseille","lat":43.31492,"lon":5.3731,"is_reserved":false,"is_disabled":true,"rental_uris":{"android":"levelo://app?vid=674df4ab-5b72-443e-a3da-efdec3ddef4f","ios":"levelo://app?vid=674df4ab-5b72-443e-a3da-efdec3ddef4f"},"vehicle_type_id":"4","last_reported":1732695200,"current_range_meters":6000,"station_id":"ce4bgt12rcd13ifvqcd0","pricing_plan_id":"cebpf4jnsgd1na2vs0mg"},{"bike_id":"6ea27bcb-4564-461e-8ad3-52be6ce29ff9","system_id":"levelo_inurba_marseille","lat":43.26955,"lon":5.38623,"is_reserved":false,"is_disabled":true,"rental_uris":{"android":"levelo://app?vid=6ea27bcb-4564-461e-8ad3-52be6ce29ff9","ios":"levelo://app?vid=6ea27bcb-4564-461e-8ad3-52be6ce29ff9"},"vehicle_type_id":"4","last_reported":1732695200,"current_range_meters":38800,"station_id":"ce4bhh92rcd13ifvqfh0","pricing_plan_id":"cebpf4jnsgd1na2vs0mg"},{"bike_id":"a71d24b9-b22e-418c-be0b-37629e71fe9a","system_id":"levelo_inurba_marseille","lat":43.24074,"lon":5.3776,"is_reserved":false,"is_disabled":false,"rental_uris":{"android":"levelo://app?vid=a71d24b9-b22e-418c-be0b-37629e71fe9a","ios":"levelo://app?vid=a71d24b9-b22e-418c-be0b-37629e71fe9a"},"vehicle_type_id":"4","last_reported":1732695200,"current_range_meters":27600,"station_id":"ce4bhnp2rcd13ifvqgvg","pricing_plan_id":"cebpf4jnsgd1na2vs0mg"},{"bike_id":"26e9bba5-e2f2-4e5e-990c-4106cf89abc0","system_id":"levelo_inurba_marseille","lat":43.28478,"lon":5.38418,"is_reserved":false,"is_disabled":true,"rental_uris":{"android":"levelo://app?vid=26e9bba5-e2f2-4e5e-990c-4106cf89abc0","ios":"levelo://app?vid=26e9bba5-e2f2-4e5e-990c-4106cf89abc0"},"vehicle_type_id":"4","last_reported":1732695200,"current_range_meters":38800,"station_id":"ce4bh512rcd13ifvqe3g","pricing_plan_id":"cebpf4jnsgd1na2vs0mg"},{"bike_id":"bc313ab8-a6b4-45fb-89b7-ffdf65698691","system_id":"levelo_inurba_marseille","lat":43.27493,"lon":5.42454,"is_reserved":false,"is_disabled":false,"rental_uris":{"android":"levelo://app?vid=bc313ab8-a6b4-45fb-89b7-ffdf65698691","ios":"levelo://app?vid=bc313ab8-a6b4-45fb-89b7-ffdf65698691"},"vehicle_type_id":"4","last_reported":1732695200,"current_range_meters":23200,"station_id":"ce4bhn92rcd13ifvqgrg","pricing_plan_id":"cebpf4jnsgd1na2vs0mg"},{"bike_id":"513381e8-8938-472e-b521-23a9788a26f8","system_id":"levelo_inurba_marseille","lat":43.26955,"lon":5.3862,"is_reserved":false,"is_disabled":false,"rental_uris":{"android":"levelo://app?vid=513381e8-8938-472e-b521-23a9788a26f8","ios":"levelo://app?vid=513381e8-8938-472e-b521-23a9788a26f8"},"vehicle_type_id":"4","last_reported":1732695200,"current_range_meters":30800,"station_id":"ce4bhh92rcd13ifvqfh0","pricing_plan_id":"cebpf4jnsgd1na2vs0mg"},{"bike_id":"7bb7b73e-ea93-4a2d-ae0f-6034139f7320","system_id":"levelo_inurba_marseille","lat":43.27496,"lon":5.4245,"is_reserved":false,"is_disabled":false,"rental_uris":{"android":"levelo://app?vid=7bb7b73e-ea93-4a2d-ae0f-6034139f7320","ios":"levelo://app?vid=7bb7b73e-ea93-4a2d-ae0f-6034139f7320"},"vehicle_type_id":"4","last_reported":1732695200,"current_range_meters":36800,"station_id":"ce4bhn92rcd13ifvqgrg","pricing_plan_id":"cebpf4jnsgd1na2vs0mg"},{"bike_id":"6a243988-d267-4e1e-bafc-c091870de6a8","system_id":"levelo_inurba_marseille","lat":43.24169,"lon":5.36403,"is_reserved":false,"is_disabled":false,"rental_uris":{"android":"levelo://app?vid=6a243988-d267-4e1e-bafc-c091870de6a8","ios":"levelo://app?vid=6a243988-d267-4e1e-bafc-c091870de6a8"},"vehicle_type_id":"4","last_reported":1732695200,"current_range_meters":36000,"station_id":"cpo36qri1sfpv3e86is0","pricing_plan_id":"cebpf4jnsgd1na2vs0mg"},{"bike_id":"fad5c5ad-bbe1-451c-a110-6684c364d128","system_id":"levelo_inurba_marseille","lat":43.26935,"lon":5.40247,"is_reserved":false,"is_disabled":false,"rental_uris":{"android":"levelo://app?vid=fad5c5ad-bbe1-451c-a110-6684c364d128","ios":"levelo://app?vid=fad5c5ad-bbe1-451c-a110-6684c364d128"},"vehicle_type_id":"4","last_reported":1732695200,"current_range_meters":38800,"station_id":"cjm6bp8fraef2m0cb0m0","pricing_plan_id":"cebpf4jnsgd1na2vs0mg"},{"bike_id":"f15f6d58-870f-404a-85b1-df03af06c067","system_id":"levelo_inurba_marseille","lat":43.28453,"lon":5.39199,"is_reserved":false,"is_disabled":true,"rental_uris":{"android":"levelo://app?vid=f15f6d58-870f-404a-85b1-df03af06c067","ios":"levelo://app?vid=f15f6d58-870f-404a-85b1-df03af06c067"},"vehicle_type_id":"4","last_reported":1732695200,"current_range_meters":0,"station_id":"ce4bhoh2rcd13ifvqh5g","pricing_plan_id":"cebpf4jnsgd1na2vs0mg"},{"bike_id":"8d7fb948-8394-45df-85f4-38659c7c1984","system_id":"levelo_inurba_marseille","lat":43.24645,"lon":5.38889,"is_reserved":false,"is_disabled":false,"rental_uris":{"android":"levelo://app?vid=8d7fb948-8394-45df-85f4-38659c7c1984","ios":"levelo://app?vid=8d7fb948-8394-45df-85f4-38659c7c1984"},"vehicle_type_id":"4","last_reported":1732695200,"current_range_meters":12400,"station_id":"ce4bhg12rcd13ifvqf60","pricing_plan_id":"cebpf4jnsgd1na2vs0mg"},{"bike_id":"82d9c03a-6f43-4338-8c7b-2b9ac3a50f16","system_id":"levelo_inurba_marseille","lat":43.28929,"lon":5.36634,"is_reserved":false,"is_disabled":true,"rental_uris":{"android":"levelo://app?vid=82d9c03a-6f43-4338-8c7b-2b9ac3a50f16","ios":"levelo://app?vid=82d9c03a-6f43-4338-8c7b-2b9ac3a50f16"},"vehicle_type_id":"4","last_reported":1732695200,"current_range_meters":12800,"station_id":"ce4bhap2rcd13ifvqek0","pricing_plan_id":"cebpf4jnsgd1na2vs0mg"},{"bike_id":"39b04c21-6a6a-40a7-a489-741c2b67c9bd","system_id":"levelo_inurba_marseille","lat":43.33726,"lon":5.39191,"is_reserved":false,"is_disabled":false,"rental_uris":{"android":"levelo://app?vid=39b04c21-6a6a-40a7-a489-741c2b67c9bd","ios":"levelo://app?vid=39b04c21-6a6a-40a7-a489-741c2b67c9bd"},"vehicle_type_id":"4","last_reported":1732695200,"current_range_meters":11200,"station_id":"ce4bhr92rcd13ifvqhsg","pricing_plan_id":"cebpf4jnsgd1na2vs0mg"},{"bike_id":"65a94bb3-b694-44db-bcd9-9e11ba61fae2","system_id":"levelo_inurba_marseille","lat":43.2694,"lon":5.40244,"is_reserved":false,"is_disabled":true,"rental_uris":{"android":"levelo://app?vid=65a94bb3-b694-44db-bcd9-9e11ba61fae2","ios":"levelo://app?vid=65a94bb3-b694-44db-bcd9-9e11ba61fae2"},"vehicle_type_id":"4","last_reported":1732695200,"current_range_meters":28400,"station_id":"cjm6bp8fraef2m0cb0m0","pricing_plan_id":"cebpf4jnsgd1na2vs0mg"},{"bike_id":"fed165e5-8382-4dd2-865b-69f1cdb3e32b","system_id":"levelo_inurba_marseille","lat":43.31358,"lon":5.36712,"is_reserved":false,"is_disabled":false,"rental_uris":{"android":"levelo://app?vid=fed165e5-8382-4dd2-865b-69f1cdb3e32b","ios":"levelo://app?vid=fed165e5-8382-4dd2-865b-69f1cdb3e32b"},"vehicle_type_id":"4","last_reported":1732695200,"current_range_meters":21600,"station_id":"ce4bgr92rcd13ifvqc6g","pricing_plan_id":"cebpf4jnsgd1na2vs0mg"},{"bike_id":"6399fd12-8aa7-4c62-b7cd-b0948e694e6d","system_id":"levelo_inurba_marseille","lat":43.30142,"lon":5.3742,"is_reserved":false,"is_disabled":false,"rental_uris":{"android":"levelo://app?vid=6399fd12-8aa7-4c62-b7cd-b0948e694e6d","ios":"levelo://app?vid=6399fd12-8aa7-4c62-b7cd-b0948e694e6d"},"vehicle_type_id":"4","last_reported":1732695200,"current_range_meters":8000,"station_id":"ce4bgs92rcd13ifvqcc0","pricing_plan_id":"cebpf4jnsgd1na2vs0mg"},{"bike_id":"7d51e624-0ea6-4353-a684-c3afe6c0bb90","system_id":"levelo_inurba_marseille","lat":43.25581,"lon":5.38233,"is_reserved":false,"is_disabled":false,"rental_uris":{"android":"levelo://app?vid=7d51e624-0ea6-4353-a684-c3afe6c0bb90","ios":"levelo://app?vid=7d51e624-0ea6-4353-a684-c3afe6c0bb90"},"vehicle_type_id":"4","last_reported":1732695200,"current_range_meters":38800,"station_id":"ce4bhih2rcd13ifvqfs0","pricing_plan_id":"cebpf4jnsgd1na2vs0mg"},{"bike_id":"8ec8e66e-c25f-41cb-8e9f-81e08a57004c","system_id":"levelo_inurba_marseille","lat":43.30907,"lon":5.36848,"is_reserved":false,"is_disabled":false,"rental_uris":{"android":"levelo://app?vid=8ec8e66e-c25f-41cb-8e9f-81e08a57004c","ios":"levelo://app?vid=8ec8e66e-c25f-41cb-8e9f-81e08a57004c"},"vehicle_type_id":"4","last_reported":1732695200,"current_range_meters":20000,"station_id":"ce4bgn92rcd13ifvqbvg","pricing_plan_id":"cebpf4jnsgd1na2vs0mg"},{"bike_id":"ce141ee6-3f60-421a-89f1-9d6e963e10d2","system_id":"levelo_inurba_marseille","lat":43.25934,"lon":5.4091,"is_reserved":false,"is_disabled":false,"rental_uris":{"android":"levelo://app?vid=ce141ee6-3f60-421a-89f1-9d6e963e10d2","ios":"levelo://app?vid=ce141ee6-3f60-421a-89f1-9d6e963e10d2"},"vehicle_type_id":"4","last_reported":1732695200,"current_range_meters":34800,"station_id":"ce4bhm92rcd13ifvqglg","pricing_plan_id":"cebpf4jnsgd1na2vs0mg"},{"bike_id":"d0efdbb4-8350-4368-8476-c95f775462d2","system_id":"levelo_inurba_marseille","lat":43.29254,"lon":5.40906,"is_reserved":false,"is_disabled":true,"rental_uris":{"android":"levelo://app?vid=d0efdbb4-8350-4368-8476-c95f775462d2","ios":"levelo://app?vid=d0efdbb4-8350-4368-8476-c95f775462d2"},"vehicle_type_id":"4","last_reported":1732695200,"current_range_meters":8400,"station_id":"ce4bh192rcd13ifvqdc0","pricing_plan_id":"cebpf4jnsgd1na2vs0mg"},{"bike_id":"5a9b1466-5466-4f74-af01-1f31647b1f3c","system_id":"levelo_inurba_marseille","lat":43.264923,"lon":5.395406,"is_reserved":false,"is_disabled":false,"rental_uris":{"android":"levelo://app?vid=5a9b1466-5466-4f74-af01-1f31647b1f3c","ios":"levelo://app?vid=5a9b1466-5466-4f74-af01-1f31647b1f3c"},"vehicle_type_id":"4","last_reported":1732695200,"current_range_meters":19200,"station_id":"ce4bhi12rcd13ifvqfq0","pricing_plan_id":"cebpf4jnsgd1na2vs0mg"},{"bike_id":"f3b2cf9b-41cc-4bae-8991-d9221e0e0cfc","system_id":"levelo_inurba_marseille","lat":43.28259,"lon":5.35066,"is_reserved":false,"is_disabled":false,"rental_uris":{"android":"levelo://app?vid=f3b2cf9b-41cc-4bae-8991-d9221e0e0cfc","ios":"levelo://app?vid=f3b2cf9b-41cc-4bae-8991-d9221e0e0cfc"},"vehicle_type_id":"4","last_reported":1732695200,"current_range_meters":17200,"station_id":"ce4bhbp2rcd13ifvqerg","pricing_plan_id":"cebpf4jnsgd1na2vs0mg"},{"bike_id":"ae635ed7-bedf-44f2-a57c-30c7b2ffef80","system_id":"levelo_inurba_marseille","lat":43.3021,"lon":5.39458,"is_reserved":false,"is_disabled":true,"rental_uris":{"android":"levelo://app?vid=ae635ed7-bedf-44f2-a57c-30c7b2ffef80","ios":"levelo://app?vid=ae635ed7-bedf-44f2-a57c-30c7b2ffef80"},"vehicle_type_id":"4","last_reported":1732695200,"current_range_meters":800,"station_id":"ce4bh0p2rcd13ifvqd70","pricing_plan_id":"cebpf4jnsgd1na2vs0mg"},{"bike_id":"36296f5c-0176-4be0-97c8-7930cda9c369","system_id":"levelo_inurba_marseille","lat":43.32101,"lon":5.36769,"is_reserved":false,"is_disabled":false,"rental_uris":{"android":"levelo://app?vid=36296f5c-0176-4be0-97c8-7930cda9c369","ios":"levelo://app?vid=36296f5c-0176-4be0-97c8-7930cda9c369"},"vehicle_type_id":"4","last_reported":1732695200,"current_range_meters":17200,"station_id":"ce4bhrh2rcd13ifvqhug","pricing_plan_id":"cebpf4jnsgd1na2vs0mg"},{"bike_id":"2015b399-7b63-48fc-9f8f-3dc77f0f11c3","system_id":"levelo_inurba_marseille","lat":43.23964,"lon":5.36629,"is_reserved":false,"is_disabled":false,"rental_uris":{"android":"levelo://app?vid=2015b399-7b63-48fc-9f8f-3dc77f0f11c3","ios":"levelo://app?vid=2015b399-7b63-48fc-9f8f-3dc77f0f11c3"},"vehicle_type_id":"4","last_reported":1732695200,"current_range_meters":24400,"station_id":"ce4bhi12rcd13ifvqfp0","pricing_plan_id":"cebpf4jnsgd1na2vs0mg"},{"bike_id":"bb99de60-0a27-461b-8211-89a6d2be6257","system_id":"levelo_inurba_marseille","lat":43.32535,"lon":5.41427,"is_reserved":false,"is_disabled":false,"rental_uris":{"android":"levelo://app?vid=bb99de60-0a27-461b-8211-89a6d2be6257","ios":"levelo://app?vid=bb99de60-0a27-461b-8211-89a6d2be6257"},"vehicle_type_id":"4","last_reported":1732695200,"current_range_meters":24000,"station_id":"ce4bhq12rcd13ifvqhhg","pricing_plan_id":"cebpf4jnsgd1na2vs0mg"},{"bike_id":"be4d2d1c-e4ca-47d5-a123-024b21714b07","system_id":"levelo_inurba_marseille","lat":43.3092,"lon":5.36838,"is_reserved":false,"is_disabled":false,"rental_uris":{"android":"levelo://app?vid=be4d2d1c-e4ca-47d5-a123-024b21714b07","ios":"levelo://app?vid=be4d2d1c-e4ca-47d5-a123-024b21714b07"},"vehicle_type_id":"4","last_reported":1732695200,"current_range_meters":38800,"station_id":"ce4bgn92rcd13ifvqbvg","pricing_plan_id":"cebpf4jnsgd1na2vs0mg"},{"bike_id":"5a64147f-da9a-40cb-a940-153001e1f291","system_id":"levelo_inurba_marseille","lat":43.29793,"lon":5.38194,"is_reserved":false,"is_disabled":true,"rental_uris":{"android":"levelo://app?vid=5a64147f-da9a-40cb-a940-153001e1f291","ios":"levelo://app?vid=5a64147f-da9a-40cb-a940-153001e1f291"},"vehicle_type_id":"4","last_reported":1732695200,"current_range_meters":28400,"station_id":"","pricing_plan_id":"cebpf4jnsgd1na2vs0mg"},{"bike_id":"870a5e9b-dbaa-41b8-93a2-a0bf095a744b","system_id":"levelo_inurba_marseille","lat":43.30918,"lon":5.36848,"is_reserved":false,"is_disabled":false,"rental_uris":{"android":"levelo://app?vid=870a5e9b-dbaa-41b8-93a2-a0bf095a744b","ios":"levelo://app?vid=870a5e9b-dbaa-41b8-93a2-a0bf095a744b"},"vehicle_type_id":"4","last_reported":1732695200,"current_range_meters":28000,"station_id":"ce4bgn92rcd13ifvqbvg","pricing_plan_id":"cebpf4jnsgd1na2vs0mg"},{"bike_id":"a6d7a9b9-988c-45e5-b37b-3a86475a2324","system_id":"levelo_inurba_marseille","lat":43.24075,"lon":5.37758,"is_reserved":false,"is_disabled":false,"rental_uris":{"android":"levelo://app?vid=a6d7a9b9-988c-45e5-b37b-3a86475a2324","ios":"levelo://app?vid=a6d7a9b9-988c-45e5-b37b-3a86475a2324"},"vehicle_type_id":"4","last_reported":1732695200,"current_range_meters":38800,"station_id":"ce4bhnp2rcd13ifvqgvg","pricing_plan_id":"cebpf4jnsgd1na2vs0mg"},{"bike_id":"4a03f1ce-910d-4efd-8c2a-a293273ffe8f","system_id":"levelo_inurba_marseille","lat":43.27998,"lon":5.41657,"is_reserved":false,"is_disabled":false,"rental_uris":{"android":"levelo://app?vid=4a03f1ce-910d-4efd-8c2a-a293273ffe8f","ios":"levelo://app?vid=4a03f1ce-910d-4efd-8c2a-a293273ffe8f"},"vehicle_type_id":"4","last_reported":1732695200,"current_range_meters":28400,"station_id":"ce4bho12rcd13ifvqh1g","pricing_plan_id":"cebpf4jnsgd1na2vs0mg"},{"bike_id":"9b85cf85-5c12-4998-a349-d738df3c6ea4","system_id":"levelo_inurba_marseille","lat":43.29846,"lon":5.36269,"is_reserved":false,"is_disabled":false,"rental_uris":{"android":"levelo://app?vid=9b85cf85-5c12-4998-a349-d738df3c6ea4","ios":"levelo://app?vid=9b85cf85-5c12-4998-a349-d738df3c6ea4"},"vehicle_type_id":"4","last_reported":1732695200,"current_range_meters":33600,"station_id":"ce4bgpp2rcd13ifvqc3g","pricing_plan_id":"cebpf4jnsgd1na2vs0mg"},{"bike_id":"3fb4bf40-3244-4e47-8fea-9dc5b0fd98ab","system_id":"levelo_inurba_marseille","lat":43.3414,"lon":5.40907,"is_reserved":false,"is_disabled":false,"rental_uris":{"android":"levelo://app?vid=3fb4bf40-3244-4e47-8fea-9dc5b0fd98ab","ios":"levelo://app?vid=3fb4bf40-3244-4e47-8fea-9dc5b0fd98ab"},"vehicle_type_id":"4","last_reported":1732695200,"current_range_meters":12000,"station_id":"ce4bhqh2rcd13ifvqhlg","pricing_plan_id":"cebpf4jnsgd1na2vs0mg"},{"bike_id":"3c41f7c8-d44a-4d6d-b306-8585b49100cd","system_id":"levelo_inurba_marseille","lat":43.337444,"lon":5.374475,"is_reserved":false,"is_disabled":false,"rental_uris":{"android":"levelo://app?vid=3c41f7c8-d44a-4d6d-b306-8585b49100cd","ios":"levelo://app?vid=3c41f7c8-d44a-4d6d-b306-8585b49100cd"},"vehicle_type_id":"4","last_reported":1732695200,"current_range_meters":30400,"station_id":"ce4bh192rcd13ifvqdb0","pricing_plan_id":"cebpf4jnsgd1na2vs0mg"},{"bike_id":"ab9d27c8-9335-4870-b8e1-937fefd36777","system_id":"levelo_inurba_marseille","lat":43.3091,"lon":5.36846,"is_reserved":false,"is_disabled":false,"rental_uris":{"android":"levelo://app?vid=ab9d27c8-9335-4870-b8e1-937fefd36777","ios":"levelo://app?vid=ab9d27c8-9335-4870-b8e1-937fefd36777"},"vehicle_type_id":"4","last_reported":1732695200,"current_range_meters":38800,"station_id":"ce4bgn92rcd13ifvqbvg","pricing_plan_id":"cebpf4jnsgd1na2vs0mg"},{"bike_id":"18561410-f6e2-4ef3-9541-19fe22080b6a","system_id":"levelo_inurba_marseille","lat":43.29798,"lon":5.38101,"is_reserved":false,"is_disabled":true,"rental_uris":{"android":"levelo://app?vid=18561410-f6e2-4ef3-9541-19fe22080b6a","ios":"levelo://app?vid=18561410-f6e2-4ef3-9541-19fe22080b6a"},"vehicle_type_id":"4","last_reported":1732695200,"current_range_meters":38800,"station_id":"ce4bgip2rcd13ifvqbb0","pricing_plan_id":"cebpf4jnsgd1na2vs0mg"},{"bike_id":"604dd96f-5e5b-41a0-9904-5b7d85d376d6","system_id":"levelo_inurba_marseille","lat":43.29565,"lon":5.37505,"is_reserved":false,"is_disabled":true,"rental_uris":{"android":"levelo://app?vid=604dd96f-5e5b-41a0-9904-5b7d85d376d6","ios":"levelo://app?vid=604dd96f-5e5b-41a0-9904-5b7d85d376d6"},"vehicle_type_id":"4","last_reported":1732695200,"current_range_meters":9600,"station_id":"ce4bgh92rcd13ifvqb50","pricing_plan_id":"cebpf4jnsgd1na2vs0mg"},{"bike_id":"2b9bf0ee-23ef-4ab2-9dc8-c3230886f6fb","system_id":"levelo_inurba_marseille","lat":43.29901,"lon":5.38095,"is_reserved":false,"is_disabled":false,"rental_uris":{"android":"levelo://app?vid=2b9bf0ee-23ef-4ab2-9dc8-c3230886f6fb","ios":"levelo://app?vid=2b9bf0ee-23ef-4ab2-9dc8-c3230886f6fb"},"vehicle_type_id":"4","last_reported":1732695200,"current_range_meters":38800,"station_id":"ce4bh9p2rcd13ifvqed0","pricing_plan_id":"cebpf4jnsgd1na2vs0mg"},{"bike_id":"1cd78e3c-eca2-430e-a00b-3450b52eb373","system_id":"levelo_inurba_marseille","lat":43.22927,"lon":5.35368,"is_reserved":false,"is_disabled":false,"rental_uris":{"android":"levelo://app?vid=1cd78e3c-eca2-430e-a00b-3450b52eb373","ios":"levelo://app?vid=1cd78e3c-eca2-430e-a00b-3450b52eb373"},"vehicle_type_id":"4","last_reported":1732695200,"current_range_meters":38000,"station_id":"cpo3532slgdg3j2ikp40","pricing_plan_id":"cebpf4jnsgd1na2vs0mg"},{"bike_id":"f6bfaf70-a9dc-4d17-af73-2831edc13099","system_id":"levelo_inurba_marseille","lat":43.2558,"lon":5.38221,"is_reserved":false,"is_disabled":false,"rental_uris":{"android":"levelo://app?vid=f6bfaf70-a9dc-4d17-af73-2831edc13099","ios":"levelo://app?vid=f6bfaf70-a9dc-4d17-af73-2831edc13099"},"vehicle_type_id":"4","last_reported":1732695200,"current_range_meters":26800,"station_id":"ce4bhih2rcd13ifvqfs0","pricing_plan_id":"cebpf4jnsgd1na2vs0mg"},{"bike_id":"be1cb12d-7838-4c30-9070-4250a24d3af8","system_id":"levelo_inurba_marseille","lat":43.29573,"lon":5.39979,"is_reserved":false,"is_disabled":true,"rental_uris":{"android":"levelo://app?vid=be1cb12d-7838-4c30-9070-4250a24d3af8","ios":"levelo://app?vid=be1cb12d-7838-4c30-9070-4250a24d3af8"},"vehicle_type_id":"4","last_reported":1732695200,"current_range_meters":3200,"station_id":"ce4bh312rcd13ifvqdj0","pricing_plan_id":"cebpf4jnsgd1na2vs0mg"},{"bike_id":"f1b41902-7b26-496c-8015-7bbf805aeb52","system_id":"levelo_inurba_marseille","lat":43.29275,"lon":5.36832,"is_reserved":false,"is_disabled":true,"rental_uris":{"android":"levelo://app?vid=f1b41902-7b26-496c-8015-7bbf805aeb52","ios":"levelo://app?vid=f1b41902-7b26-496c-8015-7bbf805aeb52"},"vehicle_type_id":"4","last_reported":1732695200,"current_range_meters":36400,"station_id":"ce4bhbp2rcd13ifvqesg","pricing_plan_id":"cebpf4jnsgd1na2vs0mg"},{"bike_id":"b229d446-8386-4daf-9dc9-16d46d904c92","system_id":"levelo_inurba_marseille","lat":43.24066,"lon":5.37766,"is_reserved":false,"is_disabled":false,"rental_uris":{"android":"levelo://app?vid=b229d446-8386-4daf-9dc9-16d46d904c92","ios":"levelo://app?vid=b229d446-8386-4daf-9dc9-16d46d904c92"},"vehicle_type_id":"4","last_reported":1732695200,"current_range_meters":19200,"station_id":"ce4bhnp2rcd13ifvqgvg","pricing_plan_id":"cebpf4jnsgd1na2vs0mg"},{"bike_id":"9d783f53-c920-4bd0-8924-5f8281136397","system_id":"levelo_inurba_marseille","lat":43.23151,"lon":5.43708,"is_reserved":false,"is_disabled":false,"rental_uris":{"android":"levelo://app?vid=9d783f53-c920-4bd0-8924-5f8281136397","ios":"levelo://app?vid=9d783f53-c920-4bd0-8924-5f8281136397"},"vehicle_type_id":"4","last_reported":1732695200,"current_range_meters":3200,"station_id":"ce4bhmp2rcd13ifvqgog","pricing_plan_id":"cebpf4jnsgd1na2vs0mg"},{"bike_id":"11004d7b-4c65-40af-bcfc-c714ae5f9afc","system_id":"levelo_inurba_marseille","lat":43.2991,"lon":5.37454,"is_reserved":false,"is_disabled":false,"rental_uris":{"android":"levelo://app?vid=11004d7b-4c65-40af-bcfc-c714ae5f9afc","ios":"levelo://app?vid=11004d7b-4c65-40af-bcfc-c714ae5f9afc"},"vehicle_type_id":"4","last_reported":1732695200,"current_range_meters":17200,"station_id":"ce4bgjh2rcd13ifvqbg0","pricing_plan_id":"cebpf4jnsgd1na2vs0mg"},{"bike_id":"7661e34e-ac55-4dca-b4c7-31a506d67932","system_id":"levelo_inurba_marseille","lat":43.2594,"lon":5.40903,"is_reserved":false,"is_disabled":false,"rental_uris":{"android":"levelo://app?vid=7661e34e-ac55-4dca-b4c7-31a506d67932","ios":"levelo://app?vid=7661e34e-ac55-4dca-b4c7-31a506d67932"},"vehicle_type_id":"4","last_reported":1732695200,"current_range_meters":12000,"station_id":"ce4bhm92rcd13ifvqglg","pricing_plan_id":"cebpf4jnsgd1na2vs0mg"},{"bike_id":"ad147b94-4180-4578-a0fa-c4d1998acb2d","system_id":"levelo_inurba_marseille","lat":43.290366,"lon":5.359264,"is_reserved":false,"is_disabled":true,"rental_uris":{"android":"levelo://app?vid=ad147b94-4180-4578-a0fa-c4d1998acb2d","ios":"levelo://app?vid=ad147b94-4180-4578-a0fa-c4d1998acb2d"},"vehicle_type_id":"4","last_reported":1732695200,"current_range_meters":36800,"station_id":"ce4bha92rcd13ifvqeg0","pricing_plan_id":"cebpf4jnsgd1na2vs0mg"},{"bike_id":"466f99e8-4092-4c37-b2d7-83c495404794","system_id":"levelo_inurba_marseille","lat":43.29599,"lon":5.38101,"is_reserved":false,"is_disabled":false,"rental_uris":{"android":"levelo://app?vid=466f99e8-4092-4c37-b2d7-83c495404794","ios":"levelo://app?vid=466f99e8-4092-4c37-b2d7-83c495404794"},"vehicle_type_id":"4","last_reported":1732695200,"current_range_meters":26000,"station_id":"ce4bgl12rcd13ifvqbo0","pricing_plan_id":"cebpf4jnsgd1na2vs0mg"},{"bike_id":"2e95a691-d7d8-426b-8dba-47b6b56c6a41","system_id":"levelo_inurba_marseille","lat":43.28157,"lon":5.42629,"is_reserved":false,"is_disabled":true,"rental_uris":{"android":"levelo://app?vid=2e95a691-d7d8-426b-8dba-47b6b56c6a41","ios":"levelo://app?vid=2e95a691-d7d8-426b-8dba-47b6b56c6a41"},"vehicle_type_id":"4","last_reported":1732695200,"current_range_meters":2800,"station_id":"ce4bhnh2rcd13ifvqgug","pricing_plan_id":"cebpf4jnsgd1na2vs0mg"},{"bike_id":"e1023cd0-0598-4752-bca2-87e3d8646e5a","system_id":"levelo_inurba_marseille","lat":43.27377,"lon":5.36259,"is_reserved":false,"is_disabled":false,"rental_uris":{"android":"levelo://app?vid=e1023cd0-0598-4752-bca2-87e3d8646e5a","ios":"levelo://app?vid=e1023cd0-0598-4752-bca2-87e3d8646e5a"},"vehicle_type_id":"4","last_reported":1732695200,"current_range_meters":38400,"station_id":"ce4bhbh2rcd13ifvqeo0","pricing_plan_id":"cebpf4jnsgd1na2vs0mg"},{"bike_id":"cbc9f954-8758-40c7-a093-276daeb1d283","system_id":"levelo_inurba_marseille","lat":43.31352,"lon":5.36703,"is_reserved":false,"is_disabled":false,"rental_uris":{"android":"levelo://app?vid=cbc9f954-8758-40c7-a093-276daeb1d283","ios":"levelo://app?vid=cbc9f954-8758-40c7-a093-276daeb1d283"},"vehicle_type_id":"4","last_reported":1732695200,"current_range_meters":21600,"station_id":"ce4bgr92rcd13ifvqc6g","pricing_plan_id":"cebpf4jnsgd1na2vs0mg"},{"bike_id":"fba1ceb6-3cef-4b3a-8f1d-cb2909f800c4","system_id":"levelo_inurba_marseille","lat":43.3133,"lon":5.36704,"is_reserved":false,"is_disabled":false,"rental_uris":{"android":"levelo://app?vid=fba1ceb6-3cef-4b3a-8f1d-cb2909f800c4","ios":"levelo://app?vid=fba1ceb6-3cef-4b3a-8f1d-cb2909f800c4"},"vehicle_type_id":"4","last_reported":1732695200,"current_range_meters":38800,"station_id":"ce4bgr92rcd13ifvqc6g","pricing_plan_id":"cebpf4jnsgd1na2vs0mg"},{"bike_id":"a5848fc1-9c38-4c0f-8cd3-7a1f74903e08","system_id":"levelo_inurba_marseille","lat":43.23183,"lon":5.39988,"is_reserved":false,"is_disabled":false,"rental_uris":{"android":"levelo://app?vid=a5848fc1-9c38-4c0f-8cd3-7a1f74903e08","ios":"levelo://app?vid=a5848fc1-9c38-4c0f-8cd3-7a1f74903e08"},"vehicle_type_id":"4","last_reported":1732695200,"current_range_meters":23200,"station_id":"ce4bhn12rcd13ifvqgqg","pricing_plan_id":"cebpf4jnsgd1na2vs0mg"},{"bike_id":"ca3ffebd-3f75-419f-8697-8c70302c4831","system_id":"levelo_inurba_marseille","lat":43.30143,"lon":5.37423,"is_reserved":false,"is_disabled":false,"rental_uris":{"android":"levelo://app?vid=ca3ffebd-3f75-419f-8697-8c70302c4831","ios":"levelo://app?vid=ca3ffebd-3f75-419f-8697-8c70302c4831"},"vehicle_type_id":"4","last_reported":1732695200,"current_range_meters":4800,"station_id":"ce4bgs92rcd13ifvqcc0","pricing_plan_id":"cebpf4jnsgd1na2vs0mg"},{"bike_id":"790d14b8-ea38-4b31-b9e3-f2e0c2d67b33","system_id":"levelo_inurba_marseille","lat":43.28354,"lon":5.38116,"is_reserved":false,"is_disabled":false,"rental_uris":{"android":"levelo://app?vid=790d14b8-ea38-4b31-b9e3-f2e0c2d67b33","ios":"levelo://app?vid=790d14b8-ea38-4b31-b9e3-f2e0c2d67b33"},"vehicle_type_id":"4","last_reported":1732695200,"current_range_meters":8400,"station_id":"ce4bh412rcd13ifvqdr0","pricing_plan_id":"cebpf4jnsgd1na2vs0mg"},{"bike_id":"1606c510-b735-4fc8-8ac9-1879292672fd","system_id":"levelo_inurba_marseille","lat":43.25861,"lon":5.39897,"is_reserved":false,"is_disabled":true,"rental_uris":{"android":"levelo://app?vid=1606c510-b735-4fc8-8ac9-1879292672fd","ios":"levelo://app?vid=1606c510-b735-4fc8-8ac9-1879292672fd"},"vehicle_type_id":"4","last_reported":1732695200,"current_range_meters":8000,"station_id":"ce4bhl92rcd13ifvqghg","pricing_plan_id":"cebpf4jnsgd1na2vs0mg"},{"bike_id":"858b65e1-94fc-4151-a71e-8b168cb19dcb","system_id":"levelo_inurba_marseille","lat":43.32249,"lon":5.39241,"is_reserved":false,"is_disabled":true,"rental_uris":{"android":"levelo://app?vid=858b65e1-94fc-4151-a71e-8b168cb19dcb","ios":"levelo://app?vid=858b65e1-94fc-4151-a71e-8b168cb19dcb"},"vehicle_type_id":"4","last_reported":1732695200,"current_range_meters":0,"station_id":"","pricing_plan_id":"cebpf4jnsgd1na2vs0mg"},{"bike_id":"0cf314c7-2378-4346-b5e8-c81c997d5879","system_id":"levelo_inurba_marseille","lat":43.31333,"lon":5.36718,"is_reserved":false,"is_disabled":false,"rental_uris":{"android":"levelo://app?vid=0cf314c7-2378-4346-b5e8-c81c997d5879","ios":"levelo://app?vid=0cf314c7-2378-4346-b5e8-c81c997d5879"},"vehicle_type_id":"4","last_reported":1732695200,"current_range_meters":29600,"station_id":"ce4bgr92rcd13ifvqc6g","pricing_plan_id":"cebpf4jnsgd1na2vs0mg"},{"bike_id":"e51b2acb-d883-446b-9ce9-347608453ece","system_id":"levelo_inurba_marseille","lat":43.2293,"lon":5.35372,"is_reserved":false,"is_disabled":false,"rental_uris":{"android":"levelo://app?vid=e51b2acb-d883-446b-9ce9-347608453ece","ios":"levelo://app?vid=e51b2acb-d883-446b-9ce9-347608453ece"},"vehicle_type_id":"4","last_reported":1732695200,"current_range_meters":37600,"station_id":"cpo3532slgdg3j2ikp40","pricing_plan_id":"cebpf4jnsgd1na2vs0mg"},{"bike_id":"2622f12f-2e88-41b1-afe4-60ce105e85f1","system_id":"levelo_inurba_marseille","lat":43.29769,"lon":5.37121,"is_reserved":false,"is_disabled":false,"rental_uris":{"android":"levelo://app?vid=2622f12f-2e88-41b1-afe4-60ce105e85f1","ios":"levelo://app?vid=2622f12f-2e88-41b1-afe4-60ce105e85f1"},"vehicle_type_id":"4","last_reported":1732695200,"current_range_meters":23200,"station_id":"ce4bgop2rcd13ifvqc1g","pricing_plan_id":"cebpf4jnsgd1na2vs0mg"},{"bike_id":"92c6c2b8-814a-4a18-ba1a-e771f58bc8ef","system_id":"levelo_inurba_marseille","lat":43.24064,"lon":5.37781,"is_reserved":false,"is_disabled":false,"rental_uris":{"android":"levelo://app?vid=92c6c2b8-814a-4a18-ba1a-e771f58bc8ef","ios":"levelo://app?vid=92c6c2b8-814a-4a18-ba1a-e771f58bc8ef"},"vehicle_type_id":"4","last_reported":1732695200,"current_range_meters":38800,"station_id":"ce4bhnp2rcd13ifvqgvg","pricing_plan_id":"cebpf4jnsgd1na2vs0mg"},{"bike_id":"eaab9cf3-a7fb-4f2b-a8b5-4220c5b3a28b","system_id":"levelo_inurba_marseille","lat":43.298281,"lon":5.363766,"is_reserved":false,"is_disabled":false,"rental_uris":{"android":"levelo://app?vid=eaab9cf3-a7fb-4f2b-a8b5-4220c5b3a28b","ios":"levelo://app?vid=eaab9cf3-a7fb-4f2b-a8b5-4220c5b3a28b"},"vehicle_type_id":"4","last_reported":1732695200,"current_range_meters":33600,"station_id":"ce4bgpp2rcd13ifvqc3g","pricing_plan_id":"cebpf4jnsgd1na2vs0mg"},{"bike_id":"687bcf23-a5c0-4a08-836b-545238d7de20","system_id":"levelo_inurba_marseille","lat":43.27491,"lon":5.42457,"is_reserved":false,"is_disabled":false,"rental_uris":{"android":"levelo://app?vid=687bcf23-a5c0-4a08-836b-545238d7de20","ios":"levelo://app?vid=687bcf23-a5c0-4a08-836b-545238d7de20"},"vehicle_type_id":"4","last_reported":1732695200,"current_range_meters":17200,"station_id":"ce4bhn92rcd13ifvqgrg","pricing_plan_id":"cebpf4jnsgd1na2vs0mg"},{"bike_id":"5b9df18a-310e-4322-9aec-13ce65e92c31","system_id":"levelo_inurba_marseille","lat":43.30303,"lon":5.4025,"is_reserved":false,"is_disabled":true,"rental_uris":{"android":"levelo://app?vid=5b9df18a-310e-4322-9aec-13ce65e92c31","ios":"levelo://app?vid=5b9df18a-310e-4322-9aec-13ce65e92c31"},"vehicle_type_id":"4","last_reported":1732695200,"current_range_meters":20400,"station_id":"","pricing_plan_id":"cebpf4jnsgd1na2vs0mg"},{"bike_id":"6a84fe5c-81fa-4ede-b74d-0690303fc0a8","system_id":"levelo_inurba_marseille","lat":43.30551,"lon":5.36524,"is_reserved":false,"is_disabled":false,"rental_uris":{"android":"levelo://app?vid=6a84fe5c-81fa-4ede-b74d-0690303fc0a8","ios":"levelo://app?vid=6a84fe5c-81fa-4ede-b74d-0690303fc0a8"},"vehicle_type_id":"4","last_reported":1732695200,"current_range_meters":20000,"station_id":"ce4bgs12rcd13ifvqcag","pricing_plan_id":"cebpf4jnsgd1na2vs0mg"},{"bike_id":"1aba9999-861f-4a36-85bd-515c27a2a462","system_id":"levelo_inurba_marseille","lat":43.2408,"lon":5.37749,"is_reserved":false,"is_disabled":false,"rental_uris":{"android":"levelo://app?vid=1aba9999-861f-4a36-85bd-515c27a2a462","ios":"levelo://app?vid=1aba9999-861f-4a36-85bd-515c27a2a462"},"vehicle_type_id":"4","last_reported":1732695200,"current_range_meters":16000,"station_id":"ce4bhnp2rcd13ifvqgvg","pricing_plan_id":"cebpf4jnsgd1na2vs0mg"},{"bike_id":"0d2e5408-2c3f-4b73-9953-16c976fd185c","system_id":"levelo_inurba_marseille","lat":43.25936,"lon":5.40908,"is_reserved":false,"is_disabled":false,"rental_uris":{"android":"levelo://app?vid=0d2e5408-2c3f-4b73-9953-16c976fd185c","ios":"levelo://app?vid=0d2e5408-2c3f-4b73-9953-16c976fd185c"},"vehicle_type_id":"4","last_reported":1732695200,"current_range_meters":34000,"station_id":"ce4bhm92rcd13ifvqglg","pricing_plan_id":"cebpf4jnsgd1na2vs0mg"},{"bike_id":"f7f3756c-1ec7-4782-9c87-6273f87b6774","system_id":"levelo_inurba_marseille","lat":43.337444,"lon":5.374475,"is_reserved":false,"is_disabled":true,"rental_uris":{"android":"levelo://app?vid=f7f3756c-1ec7-4782-9c87-6273f87b6774","ios":"levelo://app?vid=f7f3756c-1ec7-4782-9c87-6273f87b6774"},"vehicle_type_id":"4","last_reported":1732695200,"current_range_meters":16000,"station_id":"","pricing_plan_id":"cebpf4jnsgd1na2vs0mg"},{"bike_id":"9a7fc65c-a473-4df1-8da8-b97e38cbdb89","system_id":"levelo_inurba_marseille","lat":43.231469,"lon":5.437179,"is_reserved":false,"is_disabled":false,"rental_uris":{"android":"levelo://app?vid=9a7fc65c-a473-4df1-8da8-b97e38cbdb89","ios":"levelo://app?vid=9a7fc65c-a473-4df1-8da8-b97e38cbdb89"},"vehicle_type_id":"4","last_reported":1732695200,"current_range_meters":8000,"station_id":"ce4bhmp2rcd13ifvqgog","pricing_plan_id":"cebpf4jnsgd1na2vs0mg"},{"bike_id":"5ad94f11-d0cb-4d81-815c-d14c511fb2a1","system_id":"levelo_inurba_marseille","lat":43.24154,"lon":5.39714,"is_reserved":false,"is_disabled":true,"rental_uris":{"android":"levelo://app?vid=5ad94f11-d0cb-4d81-815c-d14c511fb2a1","ios":"levelo://app?vid=5ad94f11-d0cb-4d81-815c-d14c511fb2a1"},"vehicle_type_id":"4","last_reported":1732695200,"current_range_meters":18800,"station_id":"ce4bhn12rcd13ifvqgpg","pricing_plan_id":"cebpf4jnsgd1na2vs0mg"},{"bike_id":"5ac84619-8500-415b-9629-5dc640523aaa","system_id":"levelo_inurba_marseille","lat":43.2952,"lon":5.37494,"is_reserved":false,"is_disabled":true,"rental_uris":{"android":"levelo://app?vid=5ac84619-8500-415b-9629-5dc640523aaa","ios":"levelo://app?vid=5ac84619-8500-415b-9629-5dc640523aaa"},"vehicle_type_id":"4","last_reported":1732695200,"current_range_meters":12400,"station_id":"ce4bgkp2rcd13ifvqbmg","pricing_plan_id":"cebpf4jnsgd1na2vs0mg"},{"bike_id":"5dadf578-e948-48ee-a51f-0528253f70a2","system_id":"levelo_inurba_marseille","lat":43.28085,"lon":5.38506,"is_reserved":false,"is_disabled":true,"rental_uris":{"android":"levelo://app?vid=5dadf578-e948-48ee-a51f-0528253f70a2","ios":"levelo://app?vid=5dadf578-e948-48ee-a51f-0528253f70a2"},"vehicle_type_id":"4","last_reported":1732695200,"current_range_meters":33600,"station_id":"","pricing_plan_id":"cebpf4jnsgd1na2vs0mg"},{"bike_id":"79248b71-e381-4425-958e-44a988ca2b76","system_id":"levelo_inurba_marseille","lat":43.23151,"lon":5.43717,"is_reserved":false,"is_disabled":false,"rental_uris":{"android":"levelo://app?vid=79248b71-e381-4425-958e-44a988ca2b76","ios":"levelo://app?vid=79248b71-e381-4425-958e-44a988ca2b76"},"vehicle_type_id":"4","last_reported":1732695200,"current_range_meters":7200,"station_id":"ce4bhmp2rcd13ifvqgog","pricing_plan_id":"cebpf4jnsgd1na2vs0mg"},{"bike_id":"3e2ee879-ff2e-4801-b72c-a459f067b0a6","system_id":"levelo_inurba_marseille","lat":43.24075,"lon":5.37759,"is_reserved":false,"is_disabled":false,"rental_uris":{"android":"levelo://app?vid=3e2ee879-ff2e-4801-b72c-a459f067b0a6","ios":"levelo://app?vid=3e2ee879-ff2e-4801-b72c-a459f067b0a6"},"vehicle_type_id":"4","last_reported":1732695200,"current_range_meters":33200,"station_id":"ce4bhnp2rcd13ifvqgvg","pricing_plan_id":"cebpf4jnsgd1na2vs0mg"},{"bike_id":"be75626b-aa28-4d29-a136-b3bd4a0311ca","system_id":"levelo_inurba_marseille","lat":43.30549,"lon":5.36525,"is_reserved":false,"is_disabled":true,"rental_uris":{"android":"levelo://app?vid=be75626b-aa28-4d29-a136-b3bd4a0311ca","ios":"levelo://app?vid=be75626b-aa28-4d29-a136-b3bd4a0311ca"},"vehicle_type_id":"4","last_reported":1732695200,"current_range_meters":38800,"station_id":"ce4bgs12rcd13ifvqcag","pricing_plan_id":"cebpf4jnsgd1na2vs0mg"},{"bike_id":"e8b7f019-07fa-4a11-8d10-b2c4c529ac8a","system_id":"levelo_inurba_marseille","lat":43.29876,"lon":5.39732,"is_reserved":false,"is_disabled":true,"rental_uris":{"android":"levelo://app?vid=e8b7f019-07fa-4a11-8d10-b2c4c529ac8a","ios":"levelo://app?vid=e8b7f019-07fa-4a11-8d10-b2c4c529ac8a"},"vehicle_type_id":"4","last_reported":1732695200,"current_range_meters":36800,"station_id":"ce4bh0h2rcd13ifvqd50","pricing_plan_id":"cebpf4jnsgd1na2vs0mg"},{"bike_id":"5beeafd9-fc35-4444-8f38-3d5aae2d23a8","system_id":"levelo_inurba_marseille","lat":43.32492,"lon":5.36565,"is_reserved":false,"is_disabled":false,"rental_uris":{"android":"levelo://app?vid=5beeafd9-fc35-4444-8f38-3d5aae2d23a8","ios":"levelo://app?vid=5beeafd9-fc35-4444-8f38-3d5aae2d23a8"},"vehicle_type_id":"4","last_reported":1732695200,"current_range_meters":14800,"station_id":"ce4bhs12rcd13ifvqhvg","pricing_plan_id":"cebpf4jnsgd1na2vs0mg"},{"bike_id":"69dc2723-a0a2-48b7-b124-59364a33cf01","system_id":"levelo_inurba_marseille","lat":43.301478,"lon":5.374113,"is_reserved":false,"is_disabled":false,"rental_uris":{"android":"levelo://app?vid=69dc2723-a0a2-48b7-b124-59364a33cf01","ios":"levelo://app?vid=69dc2723-a0a2-48b7-b124-59364a33cf01"},"vehicle_type_id":"4","last_reported":1732695200,"current_range_meters":4400,"station_id":"ce4bgs92rcd13ifvqcc0","pricing_plan_id":"cebpf4jnsgd1na2vs0mg"},{"bike_id":"82e831e5-33ec-4f29-965f-70e9753ca3d0","system_id":"levelo_inurba_marseille","lat":43.30303,"lon":5.36906,"is_reserved":false,"is_disabled":false,"rental_uris":{"android":"levelo://app?vid=82e831e5-33ec-4f29-965f-70e9753ca3d0","ios":"levelo://app?vid=82e831e5-33ec-4f29-965f-70e9753ca3d0"},"vehicle_type_id":"4","last_reported":1732695200,"current_range_meters":8800,"station_id":"ce4bgqh2rcd13ifvqc5g","pricing_plan_id":"cebpf4jnsgd1na2vs0mg"},{"bike_id":"e937af93-4cba-4da6-a421-b49c77f1a0ab","system_id":"levelo_inurba_marseille","lat":43.24072,"lon":5.3776,"is_reserved":false,"is_disabled":false,"rental_uris":{"android":"levelo://app?vid=e937af93-4cba-4da6-a421-b49c77f1a0ab","ios":"levelo://app?vid=e937af93-4cba-4da6-a421-b49c77f1a0ab"},"vehicle_type_id":"4","last_reported":1732695200,"current_range_meters":17600,"station_id":"ce4bhnp2rcd13ifvqgvg","pricing_plan_id":"cebpf4jnsgd1na2vs0mg"},{"bike_id":"130c390a-fcab-4d8a-bc77-39fd6e1c5df0","system_id":"levelo_inurba_marseille","lat":43.29518,"lon":5.39051,"is_reserved":false,"is_disabled":false,"rental_uris":{"android":"levelo://app?vid=130c390a-fcab-4d8a-bc77-39fd6e1c5df0","ios":"levelo://app?vid=130c390a-fcab-4d8a-bc77-39fd6e1c5df0"},"vehicle_type_id":"4","last_reported":1732695200,"current_range_meters":22000,"station_id":"ce4bh3p2rcd13ifvqdp0","pricing_plan_id":"cebpf4jnsgd1na2vs0mg"},{"bike_id":"8eee5c87-5c23-43dc-9d4d-62c2b6f62111","system_id":"levelo_inurba_marseille","lat":43.27491,"lon":5.42455,"is_reserved":false,"is_disabled":true,"rental_uris":{"android":"levelo://app?vid=8eee5c87-5c23-43dc-9d4d-62c2b6f62111","ios":"levelo://app?vid=8eee5c87-5c23-43dc-9d4d-62c2b6f62111"},"vehicle_type_id":"4","last_reported":1732695200,"current_range_meters":16000,"station_id":"ce4bhn92rcd13ifvqgrg","pricing_plan_id":"cebpf4jnsgd1na2vs0mg"},{"bike_id":"a5909545-3e09-4859-9fda-9ffe4e6e4883","system_id":"levelo_inurba_marseille","lat":43.23065,"lon":5.35491,"is_reserved":false,"is_disabled":false,"rental_uris":{"android":"levelo://app?vid=a5909545-3e09-4859-9fda-9ffe4e6e4883","ios":"levelo://app?vid=a5909545-3e09-4859-9fda-9ffe4e6e4883"},"vehicle_type_id":"4","last_reported":1732695200,"current_range_meters":28000,"station_id":"cpo3342slgdg3j2ifvpg","pricing_plan_id":"cebpf4jnsgd1na2vs0mg"},{"bike_id":"cb4f3418-d66a-47f8-8486-d307392ab8d7","system_id":"levelo_inurba_marseille","lat":43.26785,"lon":5.39414,"is_reserved":false,"is_disabled":false,"rental_uris":{"android":"levelo://app?vid=cb4f3418-d66a-47f8-8486-d307392ab8d7","ios":"levelo://app?vid=cb4f3418-d66a-47f8-8486-d307392ab8d7"},"vehicle_type_id":"4","last_reported":1732695200,"current_range_meters":24800,"station_id":"ce4bhh12rcd13ifvqfg0","pricing_plan_id":"cebpf4jnsgd1na2vs0mg"},{"bike_id":"2d7a2bb6-d4df-4627-8c77-207c49dff95f","system_id":"levelo_inurba_marseille","lat":43.30176,"lon":5.36621,"is_reserved":false,"is_disabled":false,"rental_uris":{"android":"levelo://app?vid=2d7a2bb6-d4df-4627-8c77-207c49dff95f","ios":"levelo://app?vid=2d7a2bb6-d4df-4627-8c77-207c49dff95f"},"vehicle_type_id":"4","last_reported":1732695200,"current_range_meters":28800,"station_id":"ce4bgrh2rcd13ifvqc8g","pricing_plan_id":"cebpf4jnsgd1na2vs0mg"},{"bike_id":"0dce6a32-9976-459b-9a44-64b10ff4b95d","system_id":"levelo_inurba_marseille","lat":43.28266,"lon":5.38147,"is_reserved":false,"is_disabled":true,"rental_uris":{"android":"levelo://app?vid=0dce6a32-9976-459b-9a44-64b10ff4b95d","ios":"levelo://app?vid=0dce6a32-9976-459b-9a44-64b10ff4b95d"},"vehicle_type_id":"4","last_reported":1732695200,"current_range_meters":0,"station_id":"ce4bh412rcd13ifvqdr0","pricing_plan_id":"cebpf4jnsgd1na2vs0mg"},{"bike_id":"1818f3c3-83a2-4a2a-894d-f0c907e7e705","system_id":"levelo_inurba_marseille","lat":43.25086,"lon":5.39522,"is_reserved":false,"is_disabled":false,"rental_uris":{"android":"levelo://app?vid=1818f3c3-83a2-4a2a-894d-f0c907e7e705","ios":"levelo://app?vid=1818f3c3-83a2-4a2a-894d-f0c907e7e705"},"vehicle_type_id":"4","last_reported":1732695200,"current_range_meters":38800,"station_id":"ce4bhm12rcd13ifvqgkg","pricing_plan_id":"cebpf4jnsgd1na2vs0mg"},{"bike_id":"410be458-26df-4ab6-b673-ac23590e9546","system_id":"levelo_inurba_marseille","lat":43.24074,"lon":5.3776,"is_reserved":false,"is_disabled":false,"rental_uris":{"android":"levelo://app?vid=410be458-26df-4ab6-b673-ac23590e9546","ios":"levelo://app?vid=410be458-26df-4ab6-b673-ac23590e9546"},"vehicle_type_id":"4","last_reported":1732695200,"current_range_meters":19200,"station_id":"ce4bhnp2rcd13ifvqgvg","pricing_plan_id":"cebpf4jnsgd1na2vs0mg"},{"bike_id":"fd03285d-8912-446d-8f37-11e7b615c806","system_id":"levelo_inurba_marseille","lat":43.30535,"lon":5.38417,"is_reserved":false,"is_disabled":false,"rental_uris":{"android":"levelo://app?vid=fd03285d-8912-446d-8f37-11e7b615c806","ios":"levelo://app?vid=fd03285d-8912-446d-8f37-11e7b615c806"},"vehicle_type_id":"4","last_reported":1732695200,"current_range_meters":38800,"station_id":"ce4bgg92rcd13ifvqb30","pricing_plan_id":"cebpf4jnsgd1na2vs0mg"},{"bike_id":"e5951ee3-4a5a-4ebb-b469-096c5188dfa3","system_id":"levelo_inurba_marseille","lat":43.231904,"lon":5.355678,"is_reserved":false,"is_disabled":false,"rental_uris":{"android":"levelo://app?vid=e5951ee3-4a5a-4ebb-b469-096c5188dfa3","ios":"levelo://app?vid=e5951ee3-4a5a-4ebb-b469-096c5188dfa3"},"vehicle_type_id":"4","last_reported":1732695200,"current_range_meters":33200,"station_id":"ce4bhu92rcd13ifvqi70","pricing_plan_id":"cebpf4jnsgd1na2vs0mg"},{"bike_id":"f5ced30d-226f-4346-bf62-37f37846f9d7","system_id":"levelo_inurba_marseille","lat":43.29581,"lon":5.39035,"is_reserved":false,"is_disabled":true,"rental_uris":{"android":"levelo://app?vid=f5ced30d-226f-4346-bf62-37f37846f9d7","ios":"levelo://app?vid=f5ced30d-226f-4346-bf62-37f37846f9d7"},"vehicle_type_id":"4","last_reported":1732695200,"current_range_meters":14000,"station_id":"","pricing_plan_id":"cebpf4jnsgd1na2vs0mg"},{"bike_id":"c4ff3c2c-87d7-4575-9335-5f53ac047a46","system_id":"levelo_inurba_marseille","lat":43.27061,"lon":5.42257,"is_reserved":false,"is_disabled":false,"rental_uris":{"android":"levelo://app?vid=c4ff3c2c-87d7-4575-9335-5f53ac047a46","ios":"levelo://app?vid=c4ff3c2c-87d7-4575-9335-5f53ac047a46"},"vehicle_type_id":"4","last_reported":1732695200,"current_range_meters":38800,"station_id":"ce4bhk92rcd13ifvqgb0","pricing_plan_id":"cebpf4jnsgd1na2vs0mg"},{"bike_id":"8b90e280-1859-48e5-8cc1-f1521436ad0b","system_id":"levelo_inurba_marseille","lat":43.25578,"lon":5.38237,"is_reserved":false,"is_disabled":false,"rental_uris":{"android":"levelo://app?vid=8b90e280-1859-48e5-8cc1-f1521436ad0b","ios":"levelo://app?vid=8b90e280-1859-48e5-8cc1-f1521436ad0b"},"vehicle_type_id":"4","last_reported":1732695200,"current_range_meters":16800,"station_id":"ce4bhih2rcd13ifvqfs0","pricing_plan_id":"cebpf4jnsgd1na2vs0mg"},{"bike_id":"3379f44f-c07d-4ec3-b622-4c7ff9c0b74e","system_id":"levelo_inurba_marseille","lat":43.23194,"lon":5.35546,"is_reserved":false,"is_disabled":false,"rental_uris":{"android":"levelo://app?vid=3379f44f-c07d-4ec3-b622-4c7ff9c0b74e","ios":"levelo://app?vid=3379f44f-c07d-4ec3-b622-4c7ff9c0b74e"},"vehicle_type_id":"4","last_reported":1732695200,"current_range_meters":6800,"station_id":"ce4bhu92rcd13ifvqi70","pricing_plan_id":"cebpf4jnsgd1na2vs0mg"},{"bike_id":"6c948e9c-d5b3-4fe5-a918-1bd2f7c83b02","system_id":"levelo_inurba_marseille","lat":43.32111,"lon":5.3677,"is_reserved":false,"is_disabled":false,"rental_uris":{"android":"levelo://app?vid=6c948e9c-d5b3-4fe5-a918-1bd2f7c83b02","ios":"levelo://app?vid=6c948e9c-d5b3-4fe5-a918-1bd2f7c83b02"},"vehicle_type_id":"4","last_reported":1732695200,"current_range_meters":13600,"station_id":"ce4bhrh2rcd13ifvqhug","pricing_plan_id":"cebpf4jnsgd1na2vs0mg"},{"bike_id":"311c22a9-d002-4f76-a390-2ec196f39862","system_id":"levelo_inurba_marseille","lat":43.31025,"lon":5.38342,"is_reserved":false,"is_disabled":true,"rental_uris":{"android":"levelo://app?vid=311c22a9-d002-4f76-a390-2ec196f39862","ios":"levelo://app?vid=311c22a9-d002-4f76-a390-2ec196f39862"},"vehicle_type_id":"4","last_reported":1732695200,"current_range_meters":0,"station_id":"","pricing_plan_id":"cebpf4jnsgd1na2vs0mg"},{"bike_id":"e0220591-e43e-4ab8-8215-137b7e92e7e9","system_id":"levelo_inurba_marseille","lat":43.30465,"lon":5.37896,"is_reserved":false,"is_disabled":true,"rental_uris":{"android":"levelo://app?vid=e0220591-e43e-4ab8-8215-137b7e92e7e9","ios":"levelo://app?vid=e0220591-e43e-4ab8-8215-137b7e92e7e9"},"vehicle_type_id":"4","last_reported":1732695200,"current_range_meters":2000,"station_id":"ce4bgup2rcd13ifvqcn0","pricing_plan_id":"cebpf4jnsgd1na2vs0mg"},{"bike_id":"9a180024-2186-49fd-a9c4-839fdd683f93","system_id":"levelo_inurba_marseille","lat":43.29567,"lon":5.37531,"is_reserved":false,"is_disabled":false,"rental_uris":{"android":"levelo://app?vid=9a180024-2186-49fd-a9c4-839fdd683f93","ios":"levelo://app?vid=9a180024-2186-49fd-a9c4-839fdd683f93"},"vehicle_type_id":"4","last_reported":1732695200,"current_range_meters":32400,"station_id":"ce4bgh92rcd13ifvqb50","pricing_plan_id":"cebpf4jnsgd1na2vs0mg"},{"bike_id":"319db8f6-ad1c-4b46-ad57-5033d5ed25eb","system_id":"levelo_inurba_marseille","lat":43.25713,"lon":5.41071,"is_reserved":false,"is_disabled":false,"rental_uris":{"android":"levelo://app?vid=319db8f6-ad1c-4b46-ad57-5033d5ed25eb","ios":"levelo://app?vid=319db8f6-ad1c-4b46-ad57-5033d5ed25eb"},"vehicle_type_id":"4","last_reported":1732695200,"current_range_meters":19600,"station_id":"ce4bhkp2rcd13ifvqgd0","pricing_plan_id":"cebpf4jnsgd1na2vs0mg"},{"bike_id":"5c53cfbd-2547-413a-b79a-f8cc3b1ca992","system_id":"levelo_inurba_marseille","lat":43.32106,"lon":5.36769,"is_reserved":false,"is_disabled":false,"rental_uris":{"android":"levelo://app?vid=5c53cfbd-2547-413a-b79a-f8cc3b1ca992","ios":"levelo://app?vid=5c53cfbd-2547-413a-b79a-f8cc3b1ca992"},"vehicle_type_id":"4","last_reported":1732695200,"current_range_meters":28400,"station_id":"ce4bhrh2rcd13ifvqhug","pricing_plan_id":"cebpf4jnsgd1na2vs0mg"},{"bike_id":"874f783d-2c0e-4f59-8140-3c81a42b043e","system_id":"levelo_inurba_marseille","lat":43.29175,"lon":5.37154,"is_reserved":false,"is_disabled":false,"rental_uris":{"android":"levelo://app?vid=874f783d-2c0e-4f59-8140-3c81a42b043e","ios":"levelo://app?vid=874f783d-2c0e-4f59-8140-3c81a42b043e"},"vehicle_type_id":"4","last_reported":1732695200,"current_range_meters":38800,"station_id":"ce4bha92rcd13ifvqeh0","pricing_plan_id":"cebpf4jnsgd1na2vs0mg"},{"bike_id":"d857c7ff-0eae-417a-a283-d08c196b617c","system_id":"levelo_inurba_marseille","lat":43.23143,"lon":5.43707,"is_reserved":false,"is_disabled":false,"rental_uris":{"android":"levelo://app?vid=d857c7ff-0eae-417a-a283-d08c196b617c","ios":"levelo://app?vid=d857c7ff-0eae-417a-a283-d08c196b617c"},"vehicle_type_id":"4","last_reported":1732695200,"current_range_meters":32000,"station_id":"ce4bhmp2rcd13ifvqgog","pricing_plan_id":"cebpf4jnsgd1na2vs0mg"},{"bike_id":"e3910269-0960-41ab-9a5c-2f153c15e14c","system_id":"levelo_inurba_marseille","lat":43.255726,"lon":5.382346,"is_reserved":false,"is_disabled":false,"rental_uris":{"android":"levelo://app?vid=e3910269-0960-41ab-9a5c-2f153c15e14c","ios":"levelo://app?vid=e3910269-0960-41ab-9a5c-2f153c15e14c"},"vehicle_type_id":"4","last_reported":1732695200,"current_range_meters":38000,"station_id":"ce4bhih2rcd13ifvqfs0","pricing_plan_id":"cebpf4jnsgd1na2vs0mg"},{"bike_id":"d7d3efe9-1788-45c6-bd51-33c58ae43549","system_id":"levelo_inurba_marseille","lat":43.30536,"lon":5.36534,"is_reserved":false,"is_disabled":false,"rental_uris":{"android":"levelo://app?vid=d7d3efe9-1788-45c6-bd51-33c58ae43549","ios":"levelo://app?vid=d7d3efe9-1788-45c6-bd51-33c58ae43549"},"vehicle_type_id":"4","last_reported":1732695200,"current_range_meters":23200,"station_id":"ce4bgs12rcd13ifvqcag","pricing_plan_id":"cebpf4jnsgd1na2vs0mg"},{"bike_id":"41ef6e9a-6e79-4aa0-a7fb-748c8b32e486","system_id":"levelo_inurba_marseille","lat":43.29904,"lon":5.37419,"is_reserved":false,"is_disabled":false,"rental_uris":{"android":"levelo://app?vid=41ef6e9a-6e79-4aa0-a7fb-748c8b32e486","ios":"levelo://app?vid=41ef6e9a-6e79-4aa0-a7fb-748c8b32e486"},"vehicle_type_id":"4","last_reported":1732695200,"current_range_meters":28400,"station_id":"ce4bgn92rcd13ifvqbvg","pricing_plan_id":"cebpf4jnsgd1na2vs0mg"},{"bike_id":"276c8eac-f26f-4d52-8494-1e5f39f12889","system_id":"levelo_inurba_marseille","lat":43.25582,"lon":5.38234,"is_reserved":false,"is_disabled":false,"rental_uris":{"android":"levelo://app?vid=276c8eac-f26f-4d52-8494-1e5f39f12889","ios":"levelo://app?vid=276c8eac-f26f-4d52-8494-1e5f39f12889"},"vehicle_type_id":"4","last_reported":1732695200,"current_range_meters":38800,"station_id":"ce4bhih2rcd13ifvqfs0","pricing_plan_id":"cebpf4jnsgd1na2vs0mg"},{"bike_id":"30a476b5-19ff-4959-95de-6c8f0d1c5e5a","system_id":"levelo_inurba_marseille","lat":43.26955,"lon":5.38626,"is_reserved":false,"is_disabled":false,"rental_uris":{"android":"levelo://app?vid=30a476b5-19ff-4959-95de-6c8f0d1c5e5a","ios":"levelo://app?vid=30a476b5-19ff-4959-95de-6c8f0d1c5e5a"},"vehicle_type_id":"4","last_reported":1732695200,"current_range_meters":28800,"station_id":"ce4bhh92rcd13ifvqfh0","pricing_plan_id":"cebpf4jnsgd1na2vs0mg"},{"bike_id":"0dbf4a25-0b81-4076-980f-2de46488ffa7","system_id":"levelo_inurba_marseille","lat":43.28606,"lon":5.35088,"is_reserved":false,"is_disabled":true,"rental_uris":{"android":"levelo://app?vid=0dbf4a25-0b81-4076-980f-2de46488ffa7","ios":"levelo://app?vid=0dbf4a25-0b81-4076-980f-2de46488ffa7"},"vehicle_type_id":"4","last_reported":1732695200,"current_range_meters":15200,"station_id":"","pricing_plan_id":"cebpf4jnsgd1na2vs0mg"},{"bike_id":"4490893b-651f-4a29-8a23-f841e9f73902","system_id":"levelo_inurba_marseille","lat":43.3311,"lon":5.38221,"is_reserved":false,"is_disabled":false,"rental_uris":{"android":"levelo://app?vid=4490893b-651f-4a29-8a23-f841e9f73902","ios":"levelo://app?vid=4490893b-651f-4a29-8a23-f841e9f73902"},"vehicle_type_id":"4","last_reported":1732695200,"current_range_meters":24800,"station_id":"","pricing_plan_id":"cebpf4jnsgd1na2vs0mg"},{"bike_id":"8dd762bb-7436-4279-9bf6-e28d8bddc1db","system_id":"levelo_inurba_marseille","lat":43.28342,"lon":5.38106,"is_reserved":false,"is_disabled":true,"rental_uris":{"android":"levelo://app?vid=8dd762bb-7436-4279-9bf6-e28d8bddc1db","ios":"levelo://app?vid=8dd762bb-7436-4279-9bf6-e28d8bddc1db"},"vehicle_type_id":"4","last_reported":1732695200,"current_range_meters":38000,"station_id":"ce4bh412rcd13ifvqdr0","pricing_plan_id":"cebpf4jnsgd1na2vs0mg"},{"bike_id":"43746d86-8a13-4845-9faf-ae69b548d714","system_id":"levelo_inurba_marseille","lat":43.29459,"lon":5.37917,"is_reserved":false,"is_disabled":true,"rental_uris":{"android":"levelo://app?vid=43746d86-8a13-4845-9faf-ae69b548d714","ios":"levelo://app?vid=43746d86-8a13-4845-9faf-ae69b548d714"},"vehicle_type_id":"4","last_reported":1732695200,"current_range_meters":0,"station_id":"","pricing_plan_id":"cebpf4jnsgd1na2vs0mg"},{"bike_id":"e6a98e09-efc5-4507-9fb0-a56012aa8712","system_id":"levelo_inurba_marseille","lat":43.28144,"lon":5.42639,"is_reserved":false,"is_disabled":false,"rental_uris":{"android":"levelo://app?vid=e6a98e09-efc5-4507-9fb0-a56012aa8712","ios":"levelo://app?vid=e6a98e09-efc5-4507-9fb0-a56012aa8712"},"vehicle_type_id":"4","last_reported":1732695200,"current_range_meters":36400,"station_id":"ce4bhnh2rcd13ifvqgug","pricing_plan_id":"cebpf4jnsgd1na2vs0mg"},{"bike_id":"49ad9574-b0d7-498d-8456-68bdd40aec93","system_id":"levelo_inurba_marseille","lat":43.24673,"lon":5.38158,"is_reserved":false,"is_disabled":false,"rental_uris":{"android":"levelo://app?vid=49ad9574-b0d7-498d-8456-68bdd40aec93","ios":"levelo://app?vid=49ad9574-b0d7-498d-8456-68bdd40aec93"},"vehicle_type_id":"4","last_reported":1732695200,"current_range_meters":35600,"station_id":"ce4bhih2rcd13ifvqfr0","pricing_plan_id":"cebpf4jnsgd1na2vs0mg"},{"bike_id":"df76b7bf-b879-4e94-9796-439ee296ef0a","system_id":"levelo_inurba_marseille","lat":43.22928,"lon":5.3537,"is_reserved":false,"is_disabled":false,"rental_uris":{"android":"levelo://app?vid=df76b7bf-b879-4e94-9796-439ee296ef0a","ios":"levelo://app?vid=df76b7bf-b879-4e94-9796-439ee296ef0a"},"vehicle_type_id":"4","last_reported":1732695200,"current_range_meters":38400,"station_id":"cpo3532slgdg3j2ikp40","pricing_plan_id":"cebpf4jnsgd1na2vs0mg"},{"bike_id":"3cbcbb34-d27b-4f73-8740-bbee51c3c199","system_id":"levelo_inurba_marseille","lat":43.30154,"lon":5.38087,"is_reserved":false,"is_disabled":false,"rental_uris":{"android":"levelo://app?vid=3cbcbb34-d27b-4f73-8740-bbee51c3c199","ios":"levelo://app?vid=3cbcbb34-d27b-4f73-8740-bbee51c3c199"},"vehicle_type_id":"4","last_reported":1732695200,"current_range_meters":38000,"station_id":"ce4bgjp2rcd13ifvqbh0","pricing_plan_id":"cebpf4jnsgd1na2vs0mg"},{"bike_id":"f971abee-70f8-43dc-afe4-4050ccc8c3f7","system_id":"levelo_inurba_marseille","lat":43.25852,"lon":5.39895,"is_reserved":false,"is_disabled":true,"rental_uris":{"android":"levelo://app?vid=f971abee-70f8-43dc-afe4-4050ccc8c3f7","ios":"levelo://app?vid=f971abee-70f8-43dc-afe4-4050ccc8c3f7"},"vehicle_type_id":"4","last_reported":1732695200,"current_range_meters":38800,"station_id":"ce4bhl92rcd13ifvqghg","pricing_plan_id":"cebpf4jnsgd1na2vs0mg"},{"bike_id":"e429a23d-08fa-43bc-a99f-41dd20232034","system_id":"levelo_inurba_marseille","lat":43.263,"lon":5.398505,"is_reserved":false,"is_disabled":true,"rental_uris":{"android":"levelo://app?vid=e429a23d-08fa-43bc-a99f-41dd20232034","ios":"levelo://app?vid=e429a23d-08fa-43bc-a99f-41dd20232034"},"vehicle_type_id":"4","last_reported":1732695200,"current_range_meters":0,"station_id":"","pricing_plan_id":"cebpf4jnsgd1na2vs0mg"},{"bike_id":"0e8475c9-61b4-4062-83bd-67d5a8431edc","system_id":"levelo_inurba_marseille","lat":43.28033,"lon":5.36947,"is_reserved":false,"is_disabled":false,"rental_uris":{"android":"levelo://app?vid=0e8475c9-61b4-4062-83bd-67d5a8431edc","ios":"levelo://app?vid=0e8475c9-61b4-4062-83bd-67d5a8431edc"},"vehicle_type_id":"4","last_reported":1732695200,"current_range_meters":37600,"station_id":"ce4bha12rcd13ifvqef0","pricing_plan_id":"cebpf4jnsgd1na2vs0mg"},{"bike_id":"3faf8b2f-845f-4fd3-8bc7-04d1158d9692","system_id":"levelo_inurba_marseille","lat":43.33019,"lon":5.39032,"is_reserved":false,"is_disabled":false,"rental_uris":{"android":"levelo://app?vid=3faf8b2f-845f-4fd3-8bc7-04d1158d9692","ios":"levelo://app?vid=3faf8b2f-845f-4fd3-8bc7-04d1158d9692"},"vehicle_type_id":"4","last_reported":1732695200,"current_range_meters":24400,"station_id":"ce4bhr92rcd13ifvqhrg","pricing_plan_id":"cebpf4jnsgd1na2vs0mg"},{"bike_id":"1b369746-c244-4667-bf00-4dc6251158a6","system_id":"levelo_inurba_marseille","lat":43.24069,"lon":5.37753,"is_reserved":false,"is_disabled":true,"rental_uris":{"android":"levelo://app?vid=1b369746-c244-4667-bf00-4dc6251158a6","ios":"levelo://app?vid=1b369746-c244-4667-bf00-4dc6251158a6"},"vehicle_type_id":"4","last_reported":1732695200,"current_range_meters":25600,"station_id":"ce4bhnp2rcd13ifvqgvg","pricing_plan_id":"cebpf4jnsgd1na2vs0mg"},{"bike_id":"f9348c5f-0f0a-4894-b579-99d81f6dbbba","system_id":"levelo_inurba_marseille","lat":43.28154,"lon":5.42643,"is_reserved":false,"is_disabled":false,"rental_uris":{"android":"levelo://app?vid=f9348c5f-0f0a-4894-b579-99d81f6dbbba","ios":"levelo://app?vid=f9348c5f-0f0a-4894-b579-99d81f6dbbba"},"vehicle_type_id":"4","last_reported":1732695200,"current_range_meters":29600,"station_id":"ce4bhnh2rcd13ifvqgug","pricing_plan_id":"cebpf4jnsgd1na2vs0mg"},{"bike_id":"925d9d68-1b01-45a4-af19-d1a58d7476b9","system_id":"levelo_inurba_marseille","lat":43.312042,"lon":5.367348,"is_reserved":false,"is_disabled":true,"rental_uris":{"android":"levelo://app?vid=925d9d68-1b01-45a4-af19-d1a58d7476b9","ios":"levelo://app?vid=925d9d68-1b01-45a4-af19-d1a58d7476b9"},"vehicle_type_id":"4","last_reported":1732695200,"current_range_meters":0,"station_id":"","pricing_plan_id":"cebpf4jnsgd1na2vs0mg"},{"bike_id":"b85ab8e4-b623-4c2f-a6fb-707134f169c8","system_id":"levelo_inurba_marseille","lat":43.34141,"lon":5.40907,"is_reserved":false,"is_disabled":false,"rental_uris":{"android":"levelo://app?vid=b85ab8e4-b623-4c2f-a6fb-707134f169c8","ios":"levelo://app?vid=b85ab8e4-b623-4c2f-a6fb-707134f169c8"},"vehicle_type_id":"4","last_reported":1732695200,"current_range_meters":20400,"station_id":"ce4bhqh2rcd13ifvqhlg","pricing_plan_id":"cebpf4jnsgd1na2vs0mg"},{"bike_id":"8e03c5a9-5ac2-4fd6-83b3-ebf5c2e24174","system_id":"levelo_inurba_marseille","lat":43.30544,"lon":5.36535,"is_reserved":false,"is_disabled":true,"rental_uris":{"android":"levelo://app?vid=8e03c5a9-5ac2-4fd6-83b3-ebf5c2e24174","ios":"levelo://app?vid=8e03c5a9-5ac2-4fd6-83b3-ebf5c2e24174"},"vehicle_type_id":"4","last_reported":1732695200,"current_range_meters":38000,"station_id":"ce4bgs12rcd13ifvqcag","pricing_plan_id":"cebpf4jnsgd1na2vs0mg"},{"bike_id":"cf298d8c-a0c9-4883-b341-ff4459ca7832","system_id":"levelo_inurba_marseille","lat":43.22932,"lon":5.35378,"is_reserved":false,"is_disabled":false,"rental_uris":{"android":"levelo://app?vid=cf298d8c-a0c9-4883-b341-ff4459ca7832","ios":"levelo://app?vid=cf298d8c-a0c9-4883-b341-ff4459ca7832"},"vehicle_type_id":"4","last_reported":1732695200,"current_range_meters":38400,"station_id":"cpo3532slgdg3j2ikp40","pricing_plan_id":"cebpf4jnsgd1na2vs0mg"},{"bike_id":"d93d1461-f523-408d-9ecd-c0d362744ea1","system_id":"levelo_inurba_marseille","lat":43.27495,"lon":5.42457,"is_reserved":false,"is_disabled":false,"rental_uris":{"android":"levelo://app?vid=d93d1461-f523-408d-9ecd-c0d362744ea1","ios":"levelo://app?vid=d93d1461-f523-408d-9ecd-c0d362744ea1"},"vehicle_type_id":"4","last_reported":1732695200,"current_range_meters":28000,"station_id":"ce4bhn92rcd13ifvqgrg","pricing_plan_id":"cebpf4jnsgd1na2vs0mg"},{"bike_id":"d9ef5ed5-65f4-4a4b-8dbb-274b0e908852","system_id":"levelo_inurba_marseille","lat":43.24171,"lon":5.36396,"is_reserved":false,"is_disabled":false,"rental_uris":{"android":"levelo://app?vid=d9ef5ed5-65f4-4a4b-8dbb-274b0e908852","ios":"levelo://app?vid=d9ef5ed5-65f4-4a4b-8dbb-274b0e908852"},"vehicle_type_id":"4","last_reported":1732695200,"current_range_meters":25600,"station_id":"cpo36qri1sfpv3e86is0","pricing_plan_id":"cebpf4jnsgd1na2vs0mg"},{"bike_id":"66132751-c0dc-4e27-8cb1-86ddd363280c","system_id":"levelo_inurba_marseille","lat":43.337444,"lon":5.374475,"is_reserved":false,"is_disabled":false,"rental_uris":{"android":"levelo://app?vid=66132751-c0dc-4e27-8cb1-86ddd363280c","ios":"levelo://app?vid=66132751-c0dc-4e27-8cb1-86ddd363280c"},"vehicle_type_id":"4","last_reported":1732695200,"current_range_meters":38800,"station_id":"","pricing_plan_id":"cebpf4jnsgd1na2vs0mg"},{"bike_id":"33d7e226-88ae-4c9d-bb88-082159a305ba","system_id":"levelo_inurba_marseille","lat":43.25108,"lon":5.40323,"is_reserved":false,"is_disabled":false,"rental_uris":{"android":"levelo://app?vid=33d7e226-88ae-4c9d-bb88-082159a305ba","ios":"levelo://app?vid=33d7e226-88ae-4c9d-bb88-082159a305ba"},"vehicle_type_id":"4","last_reported":1732695200,"current_range_meters":8000,"station_id":"ce4bhlh2rcd13ifvqgig","pricing_plan_id":"cebpf4jnsgd1na2vs0mg"},{"bike_id":"76273592-9879-490a-9f64-c33340e3af5c","system_id":"levelo_inurba_marseille","lat":43.24082,"lon":5.37749,"is_reserved":false,"is_disabled":false,"rental_uris":{"android":"levelo://app?vid=76273592-9879-490a-9f64-c33340e3af5c","ios":"levelo://app?vid=76273592-9879-490a-9f64-c33340e3af5c"},"vehicle_type_id":"4","last_reported":1732695200,"current_range_meters":30400,"station_id":"ce4bhnp2rcd13ifvqgvg","pricing_plan_id":"cebpf4jnsgd1na2vs0mg"},{"bike_id":"75307887-00fc-43a9-af8b-6a034b645f94","system_id":"levelo_inurba_marseille","lat":43.268355,"lon":5.393562,"is_reserved":false,"is_disabled":true,"rental_uris":{"android":"levelo://app?vid=75307887-00fc-43a9-af8b-6a034b645f94","ios":"levelo://app?vid=75307887-00fc-43a9-af8b-6a034b645f94"},"vehicle_type_id":"4","last_reported":1732695200,"current_range_meters":0,"station_id":"","pricing_plan_id":"cebpf4jnsgd1na2vs0mg"},{"bike_id":"5cfe0a49-a983-4a59-9b71-f5e242363e9b","system_id":"levelo_inurba_marseille","lat":43.27494,"lon":5.42456,"is_reserved":false,"is_disabled":false,"rental_uris":{"android":"levelo://app?vid=5cfe0a49-a983-4a59-9b71-f5e242363e9b","ios":"levelo://app?vid=5cfe0a49-a983-4a59-9b71-f5e242363e9b"},"vehicle_type_id":"4","last_reported":1732695200,"current_range_meters":22800,"station_id":"ce4bhn92rcd13ifvqgrg","pricing_plan_id":"cebpf4jnsgd1na2vs0mg"},{"bike_id":"192233ce-ac57-43e4-abfb-3731e5d20c9a","system_id":"levelo_inurba_marseille","lat":43.26676,"lon":5.38257,"is_reserved":false,"is_disabled":false,"rental_uris":{"android":"levelo://app?vid=192233ce-ac57-43e4-abfb-3731e5d20c9a","ios":"levelo://app?vid=192233ce-ac57-43e4-abfb-3731e5d20c9a"},"vehicle_type_id":"4","last_reported":1732695200,"current_range_meters":36400,"station_id":"ce4bhg92rcd13ifvqf90","pricing_plan_id":"cebpf4jnsgd1na2vs0mg"},{"bike_id":"e25b69e2-93a4-40b5-ae2e-fc6df166f1c9","system_id":"levelo_inurba_marseille","lat":43.29554,"lon":5.42291,"is_reserved":false,"is_disabled":false,"rental_uris":{"android":"levelo://app?vid=e25b69e2-93a4-40b5-ae2e-fc6df166f1c9","ios":"levelo://app?vid=e25b69e2-93a4-40b5-ae2e-fc6df166f1c9"},"vehicle_type_id":"4","last_reported":1732695200,"current_range_meters":38800,"station_id":"ce4bhph2rcd13ifvqhdg","pricing_plan_id":"cebpf4jnsgd1na2vs0mg"},{"bike_id":"ee05ac60-a365-4a07-8df9-f1d6a7c1f3f4","system_id":"levelo_inurba_marseille","lat":43.30149,"lon":5.38083,"is_reserved":false,"is_disabled":false,"rental_uris":{"android":"levelo://app?vid=ee05ac60-a365-4a07-8df9-f1d6a7c1f3f4","ios":"levelo://app?vid=ee05ac60-a365-4a07-8df9-f1d6a7c1f3f4"},"vehicle_type_id":"4","last_reported":1732695200,"current_range_meters":35600,"station_id":"ce4bgjp2rcd13ifvqbh0","pricing_plan_id":"cebpf4jnsgd1na2vs0mg"},{"bike_id":"dd771d3c-1bff-451c-9d0a-985d99bb56af","system_id":"levelo_inurba_marseille","lat":43.2959,"lon":5.36975,"is_reserved":false,"is_disabled":false,"rental_uris":{"android":"levelo://app?vid=dd771d3c-1bff-451c-9d0a-985d99bb56af","ios":"levelo://app?vid=dd771d3c-1bff-451c-9d0a-985d99bb56af"},"vehicle_type_id":"4","last_reported":1732695200,"current_range_meters":7200,"station_id":"","pricing_plan_id":"cebpf4jnsgd1na2vs0mg"},{"bike_id":"441a1c08-ade8-4870-a513-9986867f0aab","system_id":"levelo_inurba_marseille","lat":43.3133,"lon":5.39695,"is_reserved":false,"is_disabled":true,"rental_uris":{"android":"levelo://app?vid=441a1c08-ade8-4870-a513-9986867f0aab","ios":"levelo://app?vid=441a1c08-ade8-4870-a513-9986867f0aab"},"vehicle_type_id":"4","last_reported":1732695200,"current_range_meters":0,"station_id":"ce4bgvp2rcd13ifvqcu0","pricing_plan_id":"cebpf4jnsgd1na2vs0mg"},{"bike_id":"d51e7c27-01a2-4b89-a037-e0b09ebe0ab5","system_id":"levelo_inurba_marseille","lat":43.30025,"lon":5.39983,"is_reserved":false,"is_disabled":true,"rental_uris":{"android":"levelo://app?vid=d51e7c27-01a2-4b89-a037-e0b09ebe0ab5","ios":"levelo://app?vid=d51e7c27-01a2-4b89-a037-e0b09ebe0ab5"},