{"last_updated":1743718125,"ttl":60,"version":"2.2","data":{"bikes":[{"bike_id":"d157a8ac-f1ea-480a-a1ee-9ac00962bb01","system_id":"levelo_inurba_marseille","lat":43.29536,"lon":5.4226,"is_reserved":false,"is_disabled":true,"rental_uris":{"android":"levelo://app?vid=d157a8ac-f1ea-480a-a1ee-9ac00962bb01","ios":"levelo://app?vid=d157a8ac-f1ea-480a-a1ee-9ac00962bb01"},"vehicle_type_id":"4","last_reported":1743718125,"current_range_meters":2800,"station_id":"ce4bhph2rcd13ifvqhdg","pricing_plan_id":"cebpf4jnsgd1na2vs0mg"},{"bike_id":"299dacb6-5266-4b81-88b2-50fcdef62869","system_id":"levelo_inurba_marseille","lat":43.24581,"lon":5.41661,"is_reserved":false,"is_disabled":false,"rental_uris":{"android":"levelo://app?vid=299dacb6-5266-4b81-88b2-50fcdef62869","ios":"levelo://app?vid=299dacb6-5266-4b81-88b2-50fcdef62869"},"vehicle_type_id":"4","last_reported":1743718125,"current_range_meters":2800,"station_id":"","pricing_plan_id":"cebpf4jnsgd1na2vs0mg"},{"bike_id":"062de6df-dcb7-46bb-91b2-60b4b03c6c53","system_id":"levelo_inurba_marseille","lat":43.29535,"lon":5.38546,"is_reserved":false,"is_disabled":true,"rental_uris":{"android":"levelo://app?vid=062de6df-dcb7-46bb-91b2-60b4b03c6c53","ios":"levelo://app?vid=062de6df-dcb7-46bb-91b2-60b4b03c6c53"},"vehicle_type_id":"4","last_reported":1743718125,"current_range_meters":2800,"station_id":"ce4bgih2rcd13ifvqba0","pricing_plan_id":"cebpf4jnsgd1na2vs0mg"},{"bike_id":"a0808337-37d6-488d-aae3-49008c58a2ec","system_id":"levelo_inurba_marseille","lat":43.30794,"lon":5.3815,"is_reserved":false,"is_disabled":false,"rental_uris":{"android":"levelo://app?vid=a0808337-37d6-488d-aae3-49008c58a2ec","ios":"levelo://app?vid=a0808337-37d6-488d-aae3-49008c58a2ec"},"vehicle_type_id":"4","last_reported":1743718125,"current_range_meters":2800,"station_id":"ce4bgt12rcd13ifvqce0","pricing_plan_id":"cebpf4jnsgd1na2vs0mg"},{"bike_id":"2976bfb8-2685-4e9f-98d5-4c1b40114cd4","system_id":"levelo_inurba_marseille","lat":43.30305,"lon":5.36894,"is_reserved":false,"is_disabled":false,"rental_uris":{"android":"levelo://app?vid=2976bfb8-2685-4e9f-98d5-4c1b40114cd4","ios":"levelo://app?vid=2976bfb8-2685-4e9f-98d5-4c1b40114cd4"},"vehicle_type_id":"4","last_reported":1743718125,"current_range_meters":2800,"station_id":"ce4bgqh2rcd13ifvqc5g","pricing_plan_id":"cebpf4jnsgd1na2vs0mg"},{"bike_id":"983ffbb9-3271-4d93-9aeb-c6b3275ea460","system_id":"levelo_inurba_marseille","lat":43.282503,"lon":5.391322,"is_reserved":false,"is_disabled":false,"rental_uris":{"android":"levelo://app?vid=983ffbb9-3271-4d93-9aeb-c6b3275ea460","ios":"levelo://app?vid=983ffbb9-3271-4d93-9aeb-c6b3275ea460"},"vehicle_type_id":"4","last_reported":1743718125,"current_range_meters":3200,"station_id":"","pricing_plan_id":"cebpf4jnsgd1na2vs0mg"},{"bike_id":"7327f380-316a-41b1-bfc7-3a71e5765529","system_id":"levelo_inurba_marseille","lat":43.29592,"lon":5.38103,"is_reserved":false,"is_disabled":false,"rental_uris":{"android":"levelo://app?vid=7327f380-316a-41b1-bfc7-3a71e5765529","ios":"levelo://app?vid=7327f380-316a-41b1-bfc7-3a71e5765529"},"vehicle_type_id":"4","last_reported":1743718125,"current_range_meters":3200,"station_id":"ce4bgl12rcd13ifvqbo0","pricing_plan_id":"cebpf4jnsgd1na2vs0mg"},{"bike_id":"7d098443-6c29-4901-8abd-316328908d18","system_id":"levelo_inurba_marseille","lat":43.28957,"lon":5.39544,"is_reserved":false,"is_disabled":false,"rental_uris":{"android":"levelo://app?vid=7d098443-6c29-4901-8abd-316328908d18","ios":"levelo://app?vid=7d098443-6c29-4901-8abd-316328908d18"},"vehicle_type_id":"4","last_reported":1743718125,"current_range_meters":3600,"station_id":"ce4bh2p2rcd13ifvqdi0","pricing_plan_id":"cebpf4jnsgd1na2vs0mg"},{"bike_id":"e9bea9ff-1c60-4cac-94d8-fa694cb8eebb","system_id":"levelo_inurba_marseille","lat":43.29883,"lon":5.389,"is_reserved":false,"is_disabled":false,"rental_uris":{"android":"levelo://app?vid=e9bea9ff-1c60-4cac-94d8-fa694cb8eebb","ios":"levelo://app?vid=e9bea9ff-1c60-4cac-94d8-fa694cb8eebb"},"vehicle_type_id":"4","last_reported":1743718125,"current_range_meters":3600,"station_id":"ce4bh392rcd13ifvqdl0","pricing_plan_id":"cebpf4jnsgd1na2vs0mg"},{"bike_id":"63e8ef59-5d5f-4ea3-95ca-cbf3c7cca20a","system_id":"levelo_inurba_marseille","lat":43.2994,"lon":5.36538,"is_reserved":false,"is_disabled":false,"rental_uris":{"android":"levelo://app?vid=63e8ef59-5d5f-4ea3-95ca-cbf3c7cca20a","ios":"levelo://app?vid=63e8ef59-5d5f-4ea3-95ca-cbf3c7cca20a"},"vehicle_type_id":"4","last_reported":1743718125,"current_range_meters":3600,"station_id":"ce4bgm92rcd13ifvqbr0","pricing_plan_id":"cebpf4jnsgd1na2vs0mg"},{"bike_id":"174a0272-f21c-42b9-afd8-a4b98233b8f9","system_id":"levelo_inurba_marseille","lat":43.31852,"lon":5.37412,"is_reserved":false,"is_disabled":false,"rental_uris":{"android":"levelo://app?vid=174a0272-f21c-42b9-afd8-a4b98233b8f9","ios":"levelo://app?vid=174a0272-f21c-42b9-afd8-a4b98233b8f9"},"vehicle_type_id":"4","last_reported":1743718125,"current_range_meters":3600,"station_id":"","pricing_plan_id":"cebpf4jnsgd1na2vs0mg"},{"bike_id":"387d92bd-e926-4abb-9bf6-834e76fa4fbb","system_id":"levelo_inurba_marseille","lat":43.28665,"lon":5.36362,"is_reserved":false,"is_disabled":false,"rental_uris":{"android":"levelo://app?vid=387d92bd-e926-4abb-9bf6-834e76fa4fbb","ios":"levelo://app?vid=387d92bd-e926-4abb-9bf6-834e76fa4fbb"},"vehicle_type_id":"4","last_reported":1743718125,"current_range_meters":4000,"station_id":"ce4bhah2rcd13ifvqej0","pricing_plan_id":"cebpf4jnsgd1na2vs0mg"},{"bike_id":"281732b8-84c8-4a17-95cc-85cf24651dd1","system_id":"levelo_inurba_marseille","lat":43.29876,"lon":5.389033,"is_reserved":false,"is_disabled":false,"rental_uris":{"android":"levelo://app?vid=281732b8-84c8-4a17-95cc-85cf24651dd1","ios":"levelo://app?vid=281732b8-84c8-4a17-95cc-85cf24651dd1"},"vehicle_type_id":"4","last_reported":1743718125,"current_range_meters":4400,"station_id":"ce4bgg92rcd13ifvqb30","pricing_plan_id":"cebpf4jnsgd1na2vs0mg"},{"bike_id":"22987ff2-118b-4b71-93b3-0a2bc3fe4d66","system_id":"levelo_inurba_marseille","lat":43.27978,"lon":5.41036,"is_reserved":false,"is_disabled":false,"rental_uris":{"android":"levelo://app?vid=22987ff2-118b-4b71-93b3-0a2bc3fe4d66","ios":"levelo://app?vid=22987ff2-118b-4b71-93b3-0a2bc3fe4d66"},"vehicle_type_id":"4","last_reported":1743718125,"current_range_meters":4400,"station_id":"ce4bhnp2rcd13ifvqh0g","pricing_plan_id":"cebpf4jnsgd1na2vs0mg"},{"bike_id":"b76ceae2-3c00-46cd-b993-fa72b5073718","system_id":"levelo_inurba_marseille","lat":43.28316,"lon":5.36093,"is_reserved":false,"is_disabled":false,"rental_uris":{"android":"levelo://app?vid=b76ceae2-3c00-46cd-b993-fa72b5073718","ios":"levelo://app?vid=b76ceae2-3c00-46cd-b993-fa72b5073718"},"vehicle_type_id":"4","last_reported":1743718125,"current_range_meters":4400,"station_id":"","pricing_plan_id":"cebpf4jnsgd1na2vs0mg"},{"bike_id":"4f289e29-f4e9-45d3-bd4f-83308745e543","system_id":"levelo_inurba_marseille","lat":43.23189,"lon":5.35558,"is_reserved":false,"is_disabled":false,"rental_uris":{"android":"levelo://app?vid=4f289e29-f4e9-45d3-bd4f-83308745e543","ios":"levelo://app?vid=4f289e29-f4e9-45d3-bd4f-83308745e543"},"vehicle_type_id":"4","last_reported":1743718125,"current_range_meters":4400,"station_id":"ce4bhu92rcd13ifvqi70","pricing_plan_id":"cebpf4jnsgd1na2vs0mg"},{"bike_id":"f87e996c-206a-47d9-8697-84a2d463fdc3","system_id":"levelo_inurba_marseille","lat":43.232,"lon":5.35543,"is_reserved":false,"is_disabled":false,"rental_uris":{"android":"levelo://app?vid=f87e996c-206a-47d9-8697-84a2d463fdc3","ios":"levelo://app?vid=f87e996c-206a-47d9-8697-84a2d463fdc3"},"vehicle_type_id":"4","last_reported":1743718125,"current_range_meters":4800,"station_id":"ce4bhu92rcd13ifvqi70","pricing_plan_id":"cebpf4jnsgd1na2vs0mg"},{"bike_id":"b8d54932-4a72-45df-9099-9e908dabed24","system_id":"levelo_inurba_marseille","lat":43.29569,"lon":5.39969,"is_reserved":false,"is_disabled":false,"rental_uris":{"android":"levelo://app?vid=b8d54932-4a72-45df-9099-9e908dabed24","ios":"levelo://app?vid=b8d54932-4a72-45df-9099-9e908dabed24"},"vehicle_type_id":"4","last_reported":1743718125,"current_range_meters":4800,"station_id":"ce4bh312rcd13ifvqdj0","pricing_plan_id":"cebpf4jnsgd1na2vs0mg"},{"bike_id":"141b9018-eafc-49d8-8568-0baa5f144416","system_id":"levelo_inurba_marseille","lat":43.23148,"lon":5.43727,"is_reserved":false,"is_disabled":false,"rental_uris":{"android":"levelo://app?vid=141b9018-eafc-49d8-8568-0baa5f144416","ios":"levelo://app?vid=141b9018-eafc-49d8-8568-0baa5f144416"},"vehicle_type_id":"4","last_reported":1743718125,"current_range_meters":4800,"station_id":"ce4bhmp2rcd13ifvqgog","pricing_plan_id":"cebpf4jnsgd1na2vs0mg"},{"bike_id":"4d3cfc11-7cb5-42c5-ab78-03eecd24fc7f","system_id":"levelo_inurba_marseille","lat":43.26236,"lon":5.40441,"is_reserved":false,"is_disabled":false,"rental_uris":{"android":"levelo://app?vid=4d3cfc11-7cb5-42c5-ab78-03eecd24fc7f","ios":"levelo://app?vid=4d3cfc11-7cb5-42c5-ab78-03eecd24fc7f"},"vehicle_type_id":"4","last_reported":1743718125,"current_range_meters":4800,"station_id":"ce4bhmh2rcd13ifvqgmg","pricing_plan_id":"cebpf4jnsgd1na2vs0mg"},{"bike_id":"88fb12f4-cfec-41af-a212-57502b20c394","system_id":"levelo_inurba_marseille","lat":43.28452,"lon":5.35869,"is_reserved":false,"is_disabled":false,"rental_uris":{"android":"levelo://app?vid=88fb12f4-cfec-41af-a212-57502b20c394","ios":"levelo://app?vid=88fb12f4-cfec-41af-a212-57502b20c394"},"vehicle_type_id":"4","last_reported":1743718125,"current_range_meters":5600,"station_id":"ce4bhah2rcd13ifvqei0","pricing_plan_id":"cebpf4jnsgd1na2vs0mg"},{"bike_id":"5a4bba22-b8bd-485a-9124-e201f115a77b","system_id":"levelo_inurba_marseille","lat":43.248081,"lon":5.374641,"is_reserved":false,"is_disabled":true,"rental_uris":{"android":"levelo://app?vid=5a4bba22-b8bd-485a-9124-e201f115a77b","ios":"levelo://app?vid=5a4bba22-b8bd-485a-9124-e201f115a77b"},"vehicle_type_id":"4","last_reported":1743718125,"current_range_meters":5600,"station_id":"","pricing_plan_id":"cebpf4jnsgd1na2vs0mg"},{"bike_id":"a097b438-9e19-439c-bed1-4d8edb1695ce","system_id":"levelo_inurba_marseille","lat":43.28843,"lon":5.39306,"is_reserved":false,"is_disabled":false,"rental_uris":{"android":"levelo://app?vid=a097b438-9e19-439c-bed1-4d8edb1695ce","ios":"levelo://app?vid=a097b438-9e19-439c-bed1-4d8edb1695ce"},"vehicle_type_id":"4","last_reported":1743718125,"current_range_meters":4800,"station_id":"ce4bh2p2rcd13ifvqdi0","pricing_plan_id":"cebpf4jnsgd1na2vs0mg"},{"bike_id":"e88f6251-290f-4fce-bf36-8443e88f1c94","system_id":"levelo_inurba_marseille","lat":43.29567,"lon":5.39975,"is_reserved":false,"is_disabled":false,"rental_uris":{"android":"levelo://app?vid=e88f6251-290f-4fce-bf36-8443e88f1c94","ios":"levelo://app?vid=e88f6251-290f-4fce-bf36-8443e88f1c94"},"vehicle_type_id":"4","last_reported":1743718125,"current_range_meters":5600,"station_id":"ce4bh312rcd13ifvqdj0","pricing_plan_id":"cebpf4jnsgd1na2vs0mg"},{"bike_id":"ce6d6aba-32eb-444f-be32-2fdb5beeb165","system_id":"levelo_inurba_marseille","lat":43.30214,"lon":5.39463,"is_reserved":false,"is_disabled":false,"rental_uris":{"android":"levelo://app?vid=ce6d6aba-32eb-444f-be32-2fdb5beeb165","ios":"levelo://app?vid=ce6d6aba-32eb-444f-be32-2fdb5beeb165"},"vehicle_type_id":"4","last_reported":1743718125,"current_range_meters":5600,"station_id":"ce4bh0p2rcd13ifvqd70","pricing_plan_id":"cebpf4jnsgd1na2vs0mg"},{"bike_id":"d55e31a6-d63f-4bfd-86f2-84fc3c340286","system_id":"levelo_inurba_marseille","lat":43.29034,"lon":5.38645,"is_reserved":false,"is_disabled":false,"rental_uris":{"android":"levelo://app?vid=d55e31a6-d63f-4bfd-86f2-84fc3c340286","ios":"levelo://app?vid=d55e31a6-d63f-4bfd-86f2-84fc3c340286"},"vehicle_type_id":"4","last_reported":1743718125,"current_range_meters":6000,"station_id":"ce4bh4p2rcd13ifvqe0g","pricing_plan_id":"cebpf4jnsgd1na2vs0mg"},{"bike_id":"ed79b392-690c-4103-a49c-e0d994100a2c","system_id":"levelo_inurba_marseille","lat":43.29038,"lon":5.3999,"is_reserved":false,"is_disabled":false,"rental_uris":{"android":"levelo://app?vid=ed79b392-690c-4103-a49c-e0d994100a2c","ios":"levelo://app?vid=ed79b392-690c-4103-a49c-e0d994100a2c"},"vehicle_type_id":"4","last_reported":1743718125,"current_range_meters":6000,"station_id":"ce4bh392rcd13ifvqdm0","pricing_plan_id":"cebpf4jnsgd1na2vs0mg"},{"bike_id":"9d13c440-da3b-4535-b70d-8105619f88bd","system_id":"levelo_inurba_marseille","lat":43.323743,"lon":5.388957,"is_reserved":false,"is_disabled":true,"rental_uris":{"android":"levelo://app?vid=9d13c440-da3b-4535-b70d-8105619f88bd","ios":"levelo://app?vid=9d13c440-da3b-4535-b70d-8105619f88bd"},"vehicle_type_id":"4","last_reported":1743718125,"current_range_meters":6000,"station_id":"ce4bhqp2rcd13ifvqhog","pricing_plan_id":"cebpf4jnsgd1na2vs0mg"},{"bike_id":"73d80700-af3e-4b57-b471-6a30c2e59c3e","system_id":"levelo_inurba_marseille","lat":43.2568,"lon":5.39747,"is_reserved":false,"is_disabled":false,"rental_uris":{"android":"levelo://app?vid=73d80700-af3e-4b57-b471-6a30c2e59c3e","ios":"levelo://app?vid=73d80700-af3e-4b57-b471-6a30c2e59c3e"},"vehicle_type_id":"4","last_reported":1743718125,"current_range_meters":6000,"station_id":"","pricing_plan_id":"cebpf4jnsgd1na2vs0mg"},{"bike_id":"08f6f1d7-c056-4f53-ac38-e35ba24417bd","system_id":"levelo_inurba_marseille","lat":43.24395,"lon":5.37058,"is_reserved":false,"is_disabled":false,"rental_uris":{"android":"levelo://app?vid=08f6f1d7-c056-4f53-ac38-e35ba24417bd","ios":"levelo://app?vid=08f6f1d7-c056-4f53-ac38-e35ba24417bd"},"vehicle_type_id":"4","last_reported":1743718125,"current_range_meters":6000,"station_id":"ce4bhhh2rcd13ifvqfk0","pricing_plan_id":"cebpf4jnsgd1na2vs0mg"},{"bike_id":"6e0ac892-eb5a-4e58-b40d-44ea2a6de718","system_id":"levelo_inurba_marseille","lat":43.23191,"lon":5.35541,"is_reserved":false,"is_disabled":false,"rental_uris":{"android":"levelo://app?vid=6e0ac892-eb5a-4e58-b40d-44ea2a6de718","ios":"levelo://app?vid=6e0ac892-eb5a-4e58-b40d-44ea2a6de718"},"vehicle_type_id":"4","last_reported":1743718125,"current_range_meters":6000,"station_id":"ce4bhu92rcd13ifvqi70","pricing_plan_id":"cebpf4jnsgd1na2vs0mg"},{"bike_id":"531fe235-6260-468c-b2dc-194278e224cc","system_id":"levelo_inurba_marseille","lat":43.284,"lon":5.37509,"is_reserved":false,"is_disabled":false,"rental_uris":{"android":"levelo://app?vid=531fe235-6260-468c-b2dc-194278e224cc","ios":"levelo://app?vid=531fe235-6260-468c-b2dc-194278e224cc"},"vehicle_type_id":"4","last_reported":1743718125,"current_range_meters":6000,"station_id":"ce4bh412rcd13ifvqds0","pricing_plan_id":"cebpf4jnsgd1na2vs0mg"},{"bike_id":"06b4bdf4-b108-4f73-9799-d50f386cdd68","system_id":"levelo_inurba_marseille","lat":43.30214,"lon":5.39466,"is_reserved":false,"is_disabled":false,"rental_uris":{"android":"levelo://app?vid=06b4bdf4-b108-4f73-9799-d50f386cdd68","ios":"levelo://app?vid=06b4bdf4-b108-4f73-9799-d50f386cdd68"},"vehicle_type_id":"4","last_reported":1743718125,"current_range_meters":6000,"station_id":"ce4bh0p2rcd13ifvqd70","pricing_plan_id":"cebpf4jnsgd1na2vs0mg"},{"bike_id":"32597f0f-d49f-48cf-aa5d-2e1607ad69f2","system_id":"levelo_inurba_marseille","lat":43.26215,"lon":5.40447,"is_reserved":false,"is_disabled":false,"rental_uris":{"android":"levelo://app?vid=32597f0f-d49f-48cf-aa5d-2e1607ad69f2","ios":"levelo://app?vid=32597f0f-d49f-48cf-aa5d-2e1607ad69f2"},"vehicle_type_id":"4","last_reported":1743718125,"current_range_meters":6000,"station_id":"","pricing_plan_id":"cebpf4jnsgd1na2vs0mg"},{"bike_id":"e5c04698-6ae3-48de-91e0-ca03d3d46a65","system_id":"levelo_inurba_marseille","lat":43.30588,"lon":5.39346,"is_reserved":false,"is_disabled":false,"rental_uris":{"android":"levelo://app?vid=e5c04698-6ae3-48de-91e0-ca03d3d46a65","ios":"levelo://app?vid=e5c04698-6ae3-48de-91e0-ca03d3d46a65"},"vehicle_type_id":"4","last_reported":1743718125,"current_range_meters":6000,"station_id":"ce4bh0p2rcd13ifvqd80","pricing_plan_id":"cebpf4jnsgd1na2vs0mg"},{"bike_id":"83aa3c8e-91bd-485c-a041-0adac5639e00","system_id":"levelo_inurba_marseille","lat":43.3057,"lon":5.37111,"is_reserved":false,"is_disabled":false,"rental_uris":{"android":"levelo://app?vid=83aa3c8e-91bd-485c-a041-0adac5639e00","ios":"levelo://app?vid=83aa3c8e-91bd-485c-a041-0adac5639e00"},"vehicle_type_id":"4","last_reported":1743718125,"current_range_meters":6400,"station_id":"","pricing_plan_id":"cebpf4jnsgd1na2vs0mg"},{"bike_id":"9154b06b-fd62-4fe1-88df-f898e423a46d","system_id":"levelo_inurba_marseille","lat":43.307935,"lon":5.381637,"is_reserved":false,"is_disabled":false,"rental_uris":{"android":"levelo://app?vid=9154b06b-fd62-4fe1-88df-f898e423a46d","ios":"levelo://app?vid=9154b06b-fd62-4fe1-88df-f898e423a46d"},"vehicle_type_id":"4","last_reported":1743718125,"current_range_meters":6000,"station_id":"ce4bgg92rcd13ifvqb30","pricing_plan_id":"cebpf4jnsgd1na2vs0mg"},{"bike_id":"220af502-7c89-4a41-8241-2f0d0d6651c1","system_id":"levelo_inurba_marseille","lat":43.30315,"lon":5.36897,"is_reserved":false,"is_disabled":false,"rental_uris":{"android":"levelo://app?vid=220af502-7c89-4a41-8241-2f0d0d6651c1","ios":"levelo://app?vid=220af502-7c89-4a41-8241-2f0d0d6651c1"},"vehicle_type_id":"4","last_reported":1743718125,"current_range_meters":6400,"station_id":"ce4bgqh2rcd13ifvqc5g","pricing_plan_id":"cebpf4jnsgd1na2vs0mg"},{"bike_id":"78d6b7cd-ac07-453b-bc94-98692716d8c6","system_id":"levelo_inurba_marseille","lat":43.231936,"lon":5.355639,"is_reserved":false,"is_disabled":false,"rental_uris":{"android":"levelo://app?vid=78d6b7cd-ac07-453b-bc94-98692716d8c6","ios":"levelo://app?vid=78d6b7cd-ac07-453b-bc94-98692716d8c6"},"vehicle_type_id":"4","last_reported":1743718125,"current_range_meters":6400,"station_id":"ce4bhu92rcd13ifvqi70","pricing_plan_id":"cebpf4jnsgd1na2vs0mg"},{"bike_id":"b23ad736-17a3-4962-8c72-8f5c558ed9e1","system_id":"levelo_inurba_marseille","lat":43.29201,"lon":5.35805,"is_reserved":false,"is_disabled":false,"rental_uris":{"android":"levelo://app?vid=b23ad736-17a3-4962-8c72-8f5c558ed9e1","ios":"levelo://app?vid=b23ad736-17a3-4962-8c72-8f5c558ed9e1"},"vehicle_type_id":"4","last_reported":1743718125,"current_range_meters":6400,"station_id":"ce4bhb12rcd13ifvqel0","pricing_plan_id":"cebpf4jnsgd1na2vs0mg"},{"bike_id":"32a978e0-d0c2-43d4-9b03-19a5c41c27de","system_id":"levelo_inurba_marseille","lat":43.31086,"lon":5.38374,"is_reserved":false,"is_disabled":true,"rental_uris":{"android":"levelo://app?vid=32a978e0-d0c2-43d4-9b03-19a5c41c27de","ios":"levelo://app?vid=32a978e0-d0c2-43d4-9b03-19a5c41c27de"},"vehicle_type_id":"4","last_reported":1743718125,"current_range_meters":6400,"station_id":"ce4bgv92rcd13ifvqcr0","pricing_plan_id":"cebpf4jnsgd1na2vs0mg"},{"bike_id":"ef3d362c-32e3-42b9-a96e-2a77377fa812","system_id":"levelo_inurba_marseille","lat":43.2957,"lon":5.39944,"is_reserved":false,"is_disabled":false,"rental_uris":{"android":"levelo://app?vid=ef3d362c-32e3-42b9-a96e-2a77377fa812","ios":"levelo://app?vid=ef3d362c-32e3-42b9-a96e-2a77377fa812"},"vehicle_type_id":"4","last_reported":1743718125,"current_range_meters":6400,"station_id":"ce4bh312rcd13ifvqdj0","pricing_plan_id":"cebpf4jnsgd1na2vs0mg"},{"bike_id":"817e7ae6-5324-498c-b6ec-179818208c6f","system_id":"levelo_inurba_marseille","lat":43.30374,"lon":5.406507,"is_reserved":false,"is_disabled":false,"rental_uris":{"android":"levelo://app?vid=817e7ae6-5324-498c-b6ec-179818208c6f","ios":"levelo://app?vid=817e7ae6-5324-498c-b6ec-179818208c6f"},"vehicle_type_id":"4","last_reported":1743718125,"current_range_meters":6000,"station_id":"ce4bhop2rcd13ifvqh8g","pricing_plan_id":"cebpf4jnsgd1na2vs0mg"},{"bike_id":"11c1223d-39e5-4a77-ab4a-ae20ea2c8c01","system_id":"levelo_inurba_marseille","lat":43.28158,"lon":5.42637,"is_reserved":false,"is_disabled":false,"rental_uris":{"android":"levelo://app?vid=11c1223d-39e5-4a77-ab4a-ae20ea2c8c01","ios":"levelo://app?vid=11c1223d-39e5-4a77-ab4a-ae20ea2c8c01"},"vehicle_type_id":"4","last_reported":1743718125,"current_range_meters":6800,"station_id":"ce4bhnh2rcd13ifvqgug","pricing_plan_id":"cebpf4jnsgd1na2vs0mg"},{"bike_id":"023427af-6175-4344-975e-36fad77ace7d","system_id":"levelo_inurba_marseille","lat":43.25583,"lon":5.38239,"is_reserved":false,"is_disabled":false,"rental_uris":{"android":"levelo://app?vid=023427af-6175-4344-975e-36fad77ace7d","ios":"levelo://app?vid=023427af-6175-4344-975e-36fad77ace7d"},"vehicle_type_id":"4","last_reported":1743718125,"current_range_meters":6800,"station_id":"ce4bhih2rcd13ifvqfs0","pricing_plan_id":"cebpf4jnsgd1na2vs0mg"},{"bike_id":"e1bcd518-a3a1-4a25-9b9e-794fbd0bdf0a","system_id":"levelo_inurba_marseille","lat":43.2396,"lon":5.36649,"is_reserved":false,"is_disabled":false,"rental_uris":{"android":"levelo://app?vid=e1bcd518-a3a1-4a25-9b9e-794fbd0bdf0a","ios":"levelo://app?vid=e1bcd518-a3a1-4a25-9b9e-794fbd0bdf0a"},"vehicle_type_id":"4","last_reported":1743718125,"current_range_meters":6800,"station_id":"ce4bhi12rcd13ifvqfp0","pricing_plan_id":"cebpf4jnsgd1na2vs0mg"},{"bike_id":"75dae32f-059a-4b5b-a5e8-963c6eda2f66","system_id":"levelo_inurba_marseille","lat":43.27515,"lon":5.41007,"is_reserved":false,"is_disabled":false,"rental_uris":{"android":"levelo://app?vid=75dae32f-059a-4b5b-a5e8-963c6eda2f66","ios":"levelo://app?vid=75dae32f-059a-4b5b-a5e8-963c6eda2f66"},"vehicle_type_id":"4","last_reported":1743718125,"current_range_meters":6800,"station_id":"","pricing_plan_id":"cebpf4jnsgd1na2vs0mg"},{"bike_id":"9684f4b4-207e-41dc-9a54-f1411fe6fae7","system_id":"levelo_inurba_marseille","lat":43.30223,"lon":5.3809,"is_reserved":false,"is_disabled":true,"rental_uris":{"android":"levelo://app?vid=9684f4b4-207e-41dc-9a54-f1411fe6fae7","ios":"levelo://app?vid=9684f4b4-207e-41dc-9a54-f1411fe6fae7"},"vehicle_type_id":"4","last_reported":1743718125,"current_range_meters":7200,"station_id":"","pricing_plan_id":"cebpf4jnsgd1na2vs0mg"},{"bike_id":"bddd4ccf-1482-4a9d-a8d7-0870910ef155","system_id":"levelo_inurba_marseille","lat":43.2795,"lon":5.41055,"is_reserved":false,"is_disabled":false,"rental_uris":{"android":"levelo://app?vid=bddd4ccf-1482-4a9d-a8d7-0870910ef155","ios":"levelo://app?vid=bddd4ccf-1482-4a9d-a8d7-0870910ef155"},"vehicle_type_id":"4","last_reported":1743718125,"current_range_meters":7200,"station_id":"ce4bhnp2rcd13ifvqh0g","pricing_plan_id":"cebpf4jnsgd1na2vs0mg"},{"bike_id":"3374421a-949f-40b6-870f-59a2d8ba0de4","system_id":"levelo_inurba_marseille","lat":43.24163,"lon":5.36396,"is_reserved":false,"is_disabled":false,"rental_uris":{"android":"levelo://app?vid=3374421a-949f-40b6-870f-59a2d8ba0de4","ios":"levelo://app?vid=3374421a-949f-40b6-870f-59a2d8ba0de4"},"vehicle_type_id":"4","last_reported":1743718125,"current_range_meters":7200,"station_id":"cpo36qri1sfpv3e86is0","pricing_plan_id":"cebpf4jnsgd1na2vs0mg"},{"bike_id":"c2e6881a-04a3-4a38-9cc0-75cacf165e78","system_id":"levelo_inurba_marseille","lat":43.28832,"lon":5.364645,"is_reserved":false,"is_disabled":false,"rental_uris":{"android":"levelo://app?vid=c2e6881a-04a3-4a38-9cc0-75cacf165e78","ios":"levelo://app?vid=c2e6881a-04a3-4a38-9cc0-75cacf165e78"},"vehicle_type_id":"4","last_reported":1743718125,"current_range_meters":7200,"station_id":"","pricing_plan_id":"cebpf4jnsgd1na2vs0mg"},{"bike_id":"b0be377e-7178-4513-92e8-22ad7dfc672f","system_id":"levelo_inurba_marseille","lat":43.2937,"lon":5.37852,"is_reserved":false,"is_disabled":false,"rental_uris":{"android":"levelo://app?vid=b0be377e-7178-4513-92e8-22ad7dfc672f","ios":"levelo://app?vid=b0be377e-7178-4513-92e8-22ad7dfc672f"},"vehicle_type_id":"4","last_reported":1743718125,"current_range_meters":7200,"station_id":"ce4bgjh2rcd13ifvqbf0","pricing_plan_id":"cebpf4jnsgd1na2vs0mg"},{"bike_id":"ed910235-7712-4f43-a3a3-b84c24c262e1","system_id":"levelo_inurba_marseille","lat":43.28362,"lon":5.38098,"is_reserved":false,"is_disabled":false,"rental_uris":{"android":"levelo://app?vid=ed910235-7712-4f43-a3a3-b84c24c262e1","ios":"levelo://app?vid=ed910235-7712-4f43-a3a3-b84c24c262e1"},"vehicle_type_id":"4","last_reported":1743718125,"current_range_meters":7200,"station_id":"ce4bh412rcd13ifvqdr0","pricing_plan_id":"cebpf4jnsgd1na2vs0mg"},{"bike_id":"fede0e43-1609-4a28-9f97-913c3f149703","system_id":"levelo_inurba_marseille","lat":43.23194,"lon":5.35558,"is_reserved":false,"is_disabled":false,"rental_uris":{"android":"levelo://app?vid=fede0e43-1609-4a28-9f97-913c3f149703","ios":"levelo://app?vid=fede0e43-1609-4a28-9f97-913c3f149703"},"vehicle_type_id":"4","last_reported":1743718125,"current_range_meters":7200,"station_id":"ce4bhu92rcd13ifvqi70","pricing_plan_id":"cebpf4jnsgd1na2vs0mg"},{"bike_id":"246eb2d3-47e7-40b3-ac9b-3a2b64b48730","system_id":"levelo_inurba_marseille","lat":43.2988,"lon":5.38895,"is_reserved":false,"is_disabled":false,"rental_uris":{"android":"levelo://app?vid=246eb2d3-47e7-40b3-ac9b-3a2b64b48730","ios":"levelo://app?vid=246eb2d3-47e7-40b3-ac9b-3a2b64b48730"},"vehicle_type_id":"4","last_reported":1743718125,"current_range_meters":7200,"station_id":"ce4bh392rcd13ifvqdl0","pricing_plan_id":"cebpf4jnsgd1na2vs0mg"},{"bike_id":"c9fb25a7-e723-41fe-abac-05d32f3d4f9d","system_id":"levelo_inurba_marseille","lat":43.26034,"lon":5.41744,"is_reserved":false,"is_disabled":false,"rental_uris":{"android":"levelo://app?vid=c9fb25a7-e723-41fe-abac-05d32f3d4f9d","ios":"levelo://app?vid=c9fb25a7-e723-41fe-abac-05d32f3d4f9d"},"vehicle_type_id":"4","last_reported":1743718125,"current_range_meters":7200,"station_id":"","pricing_plan_id":"cebpf4jnsgd1na2vs0mg"},{"bike_id":"15ea3e20-e3c1-434f-8b50-88d1ebba3f71","system_id":"levelo_inurba_marseille","lat":43.23192,"lon":5.35558,"is_reserved":false,"is_disabled":false,"rental_uris":{"android":"levelo://app?vid=15ea3e20-e3c1-434f-8b50-88d1ebba3f71","ios":"levelo://app?vid=15ea3e20-e3c1-434f-8b50-88d1ebba3f71"},"vehicle_type_id":"4","last_reported":1743718125,"current_range_meters":7200,"station_id":"ce4bhu92rcd13ifvqi70","pricing_plan_id":"cebpf4jnsgd1na2vs0mg"},{"bike_id":"4a8d215f-728c-4424-bfbf-5faa62888e2d","system_id":"levelo_inurba_marseille","lat":43.295101,"lon":5.394076,"is_reserved":false,"is_disabled":true,"rental_uris":{"android":"levelo://app?vid=4a8d215f-728c-4424-bfbf-5faa62888e2d","ios":"levelo://app?vid=4a8d215f-728c-4424-bfbf-5faa62888e2d"},"vehicle_type_id":"4","last_reported":1743718125,"current_range_meters":7200,"station_id":"ce4bh292rcd13ifvqdf0","pricing_plan_id":"cebpf4jnsgd1na2vs0mg"},{"bike_id":"1072d77b-89f0-4715-9c42-da47ce2c72f5","system_id":"levelo_inurba_marseille","lat":43.25864,"lon":5.399,"is_reserved":false,"is_disabled":false,"rental_uris":{"android":"levelo://app?vid=1072d77b-89f0-4715-9c42-da47ce2c72f5","ios":"levelo://app?vid=1072d77b-89f0-4715-9c42-da47ce2c72f5"},"vehicle_type_id":"4","last_reported":1743718125,"current_range_meters":7200,"station_id":"ce4bhl92rcd13ifvqghg","pricing_plan_id":"cebpf4jnsgd1na2vs0mg"},{"bike_id":"b451dcd6-3b36-4a20-94c0-24f42eb3416a","system_id":"levelo_inurba_marseille","lat":43.27954,"lon":5.41039,"is_reserved":false,"is_disabled":false,"rental_uris":{"android":"levelo://app?vid=b451dcd6-3b36-4a20-94c0-24f42eb3416a","ios":"levelo://app?vid=b451dcd6-3b36-4a20-94c0-24f42eb3416a"},"vehicle_type_id":"4","last_reported":1743718125,"current_range_meters":8000,"station_id":"ce4bhnp2rcd13ifvqh0g","pricing_plan_id":"cebpf4jnsgd1na2vs0mg"},{"bike_id":"44b923fe-a680-401a-862e-95063da690ea","system_id":"levelo_inurba_marseille","lat":43.24412,"lon":5.37083,"is_reserved":false,"is_disabled":false,"rental_uris":{"android":"levelo://app?vid=44b923fe-a680-401a-862e-95063da690ea","ios":"levelo://app?vid=44b923fe-a680-401a-862e-95063da690ea"},"vehicle_type_id":"4","last_reported":1743718125,"current_range_meters":8000,"station_id":"ce4bhhh2rcd13ifvqfk0","pricing_plan_id":"cebpf4jnsgd1na2vs0mg"},{"bike_id":"71e55f99-90e5-4133-8167-5af8b2b35d7e","system_id":"levelo_inurba_marseille","lat":43.23063,"lon":5.35495,"is_reserved":false,"is_disabled":false,"rental_uris":{"android":"levelo://app?vid=71e55f99-90e5-4133-8167-5af8b2b35d7e","ios":"levelo://app?vid=71e55f99-90e5-4133-8167-5af8b2b35d7e"},"vehicle_type_id":"4","last_reported":1743718125,"current_range_meters":8000,"station_id":"cpo3342slgdg3j2ifvpg","pricing_plan_id":"cebpf4jnsgd1na2vs0mg"},{"bike_id":"79f215b2-ad42-4977-9cad-50aaebf0a32d","system_id":"levelo_inurba_marseille","lat":43.28457,"lon":5.35883,"is_reserved":false,"is_disabled":false,"rental_uris":{"android":"levelo://app?vid=79f215b2-ad42-4977-9cad-50aaebf0a32d","ios":"levelo://app?vid=79f215b2-ad42-4977-9cad-50aaebf0a32d"},"vehicle_type_id":"4","last_reported":1743718125,"current_range_meters":8000,"station_id":"ce4bhah2rcd13ifvqei0","pricing_plan_id":"cebpf4jnsgd1na2vs0mg"},{"bike_id":"d511dac7-7a0c-4e1f-9811-742fb74037ce","system_id":"levelo_inurba_marseille","lat":43.28696,"lon":5.37392,"is_reserved":false,"is_disabled":false,"rental_uris":{"android":"levelo://app?vid=d511dac7-7a0c-4e1f-9811-742fb74037ce","ios":"levelo://app?vid=d511dac7-7a0c-4e1f-9811-742fb74037ce"},"vehicle_type_id":"4","last_reported":1743718125,"current_range_meters":8000,"station_id":"ce4bh3p2rcd13ifvqdq0","pricing_plan_id":"cebpf4jnsgd1na2vs0mg"},{"bike_id":"21790c88-cf36-42e6-b7c6-2ae010eaeac0","system_id":"levelo_inurba_marseille","lat":43.29926,"lon":5.37471,"is_reserved":false,"is_disabled":false,"rental_uris":{"android":"levelo://app?vid=21790c88-cf36-42e6-b7c6-2ae010eaeac0","ios":"levelo://app?vid=21790c88-cf36-42e6-b7c6-2ae010eaeac0"},"vehicle_type_id":"4","last_reported":1743718125,"current_range_meters":8000,"station_id":"ce4bgjh2rcd13ifvqbg0","pricing_plan_id":"cebpf4jnsgd1na2vs0mg"},{"bike_id":"2f5ebb33-56ac-48ac-8004-513ec8b3c9df","system_id":"levelo_inurba_marseille","lat":43.25928,"lon":5.40897,"is_reserved":false,"is_disabled":false,"rental_uris":{"android":"levelo://app?vid=2f5ebb33-56ac-48ac-8004-513ec8b3c9df","ios":"levelo://app?vid=2f5ebb33-56ac-48ac-8004-513ec8b3c9df"},"vehicle_type_id":"4","last_reported":1743718125,"current_range_meters":8000,"station_id":"ce4bhm92rcd13ifvqglg","pricing_plan_id":"cebpf4jnsgd1na2vs0mg"},{"bike_id":"e590fe23-e0aa-4322-a597-417c816f1dd9","system_id":"levelo_inurba_marseille","lat":43.279469,"lon":5.41046,"is_reserved":false,"is_disabled":false,"rental_uris":{"android":"levelo://app?vid=e590fe23-e0aa-4322-a597-417c816f1dd9","ios":"levelo://app?vid=e590fe23-e0aa-4322-a597-417c816f1dd9"},"vehicle_type_id":"4","last_reported":1743718125,"current_range_meters":8000,"station_id":"ce4bhnp2rcd13ifvqh0g","pricing_plan_id":"cebpf4jnsgd1na2vs0mg"},{"bike_id":"2372448a-d7df-45c3-bd13-b9b4112577c4","system_id":"levelo_inurba_marseille","lat":43.29884,"lon":5.48576,"is_reserved":false,"is_disabled":false,"rental_uris":{"android":"levelo://app?vid=2372448a-d7df-45c3-bd13-b9b4112577c4","ios":"levelo://app?vid=2372448a-d7df-45c3-bd13-b9b4112577c4"},"vehicle_type_id":"4","last_reported":1743718125,"current_range_meters":8000,"station_id":"","pricing_plan_id":"cebpf4jnsgd1na2vs0mg"},{"bike_id":"c135c5d1-a9f0-45c6-9e8f-943ce4e10bee","system_id":"levelo_inurba_marseille","lat":43.24426,"lon":5.37427,"is_reserved":false,"is_disabled":false,"rental_uris":{"android":"levelo://app?vid=c135c5d1-a9f0-45c6-9e8f-943ce4e10bee","ios":"levelo://app?vid=c135c5d1-a9f0-45c6-9e8f-943ce4e10bee"},"vehicle_type_id":"4","last_reported":1743718125,"current_range_meters":8000,"station_id":"","pricing_plan_id":"cebpf4jnsgd1na2vs0mg"},{"bike_id":"f37d8f5c-d063-4e35-8e15-0215542ca205","system_id":"levelo_inurba_marseille","lat":43.23736,"lon":5.40401,"is_reserved":false,"is_disabled":false,"rental_uris":{"android":"levelo://app?vid=f37d8f5c-d063-4e35-8e15-0215542ca205","ios":"levelo://app?vid=f37d8f5c-d063-4e35-8e15-0215542ca205"},"vehicle_type_id":"4","last_reported":1743718125,"current_range_meters":8000,"station_id":"","pricing_plan_id":"cebpf4jnsgd1na2vs0mg"},{"bike_id":"ade326d6-ba3c-4f8e-ae76-eaf7985121ca","system_id":"levelo_inurba_marseille","lat":43.29533,"lon":5.38546,"is_reserved":false,"is_disabled":false,"rental_uris":{"android":"levelo://app?vid=ade326d6-ba3c-4f8e-ae76-eaf7985121ca","ios":"levelo://app?vid=ade326d6-ba3c-4f8e-ae76-eaf7985121ca"},"vehicle_type_id":"4","last_reported":1743718125,"current_range_meters":8000,"station_id":"ce4bgih2rcd13ifvqba0","pricing_plan_id":"cebpf4jnsgd1na2vs0mg"},{"bike_id":"8f122147-5621-46cf-9b29-8d76987c1992","system_id":"levelo_inurba_marseille","lat":43.29259,"lon":5.38445,"is_reserved":false,"is_disabled":false,"rental_uris":{"android":"levelo://app?vid=8f122147-5621-46cf-9b29-8d76987c1992","ios":"levelo://app?vid=8f122147-5621-46cf-9b29-8d76987c1992"},"vehicle_type_id":"4","last_reported":1743718125,"current_range_meters":8000,"station_id":"ce4bh692rcd13ifvqea0","pricing_plan_id":"cebpf4jnsgd1na2vs0mg"},{"bike_id":"60c48144-68d8-4137-8587-1c261cf1fd7b","system_id":"levelo_inurba_marseille","lat":43.29204,"lon":5.39307,"is_reserved":false,"is_disabled":false,"rental_uris":{"android":"levelo://app?vid=60c48144-68d8-4137-8587-1c261cf1fd7b","ios":"levelo://app?vid=60c48144-68d8-4137-8587-1c261cf1fd7b"},"vehicle_type_id":"4","last_reported":1743718125,"current_range_meters":8400,"station_id":"ce4bh192rcd13ifvqdd0","pricing_plan_id":"cebpf4jnsgd1na2vs0mg"},{"bike_id":"cd83c8ac-ed09-4369-9279-b6f36f2bbd3c","system_id":"levelo_inurba_marseille","lat":43.30812,"lon":5.38233,"is_reserved":false,"is_disabled":false,"rental_uris":{"android":"levelo://app?vid=cd83c8ac-ed09-4369-9279-b6f36f2bbd3c","ios":"levelo://app?vid=cd83c8ac-ed09-4369-9279-b6f36f2bbd3c"},"vehicle_type_id":"4","last_reported":1743718125,"current_range_meters":8400,"station_id":"","pricing_plan_id":"cebpf4jnsgd1na2vs0mg"},{"bike_id":"ffeb9f26-549d-43c0-9321-05d01701284c","system_id":"levelo_inurba_marseille","lat":43.248624,"lon":5.381948,"is_reserved":false,"is_disabled":false,"rental_uris":{"android":"levelo://app?vid=ffeb9f26-549d-43c0-9321-05d01701284c","ios":"levelo://app?vid=ffeb9f26-549d-43c0-9321-05d01701284c"},"vehicle_type_id":"4","last_reported":1743718125,"current_range_meters":8000,"station_id":"ce4bhih2rcd13ifvqfr0","pricing_plan_id":"cebpf4jnsgd1na2vs0mg"},{"bike_id":"e15eb1e3-f59b-4224-85dc-18f082814a63","system_id":"levelo_inurba_marseille","lat":43.2835,"lon":5.381,"is_reserved":false,"is_disabled":false,"rental_uris":{"android":"levelo://app?vid=e15eb1e3-f59b-4224-85dc-18f082814a63","ios":"levelo://app?vid=e15eb1e3-f59b-4224-85dc-18f082814a63"},"vehicle_type_id":"4","last_reported":1743718125,"current_range_meters":8400,"station_id":"ce4bh412rcd13ifvqdr0","pricing_plan_id":"cebpf4jnsgd1na2vs0mg"},{"bike_id":"31f48809-b0cc-4a51-a1cb-b93239c54b0e","system_id":"levelo_inurba_marseille","lat":43.30293,"lon":5.39213,"is_reserved":false,"is_disabled":false,"rental_uris":{"android":"levelo://app?vid=31f48809-b0cc-4a51-a1cb-b93239c54b0e","ios":"levelo://app?vid=31f48809-b0cc-4a51-a1cb-b93239c54b0e"},"vehicle_type_id":"4","last_reported":1743718125,"current_range_meters":8400,"station_id":"ce4bgkh2rcd13ifvqbk0","pricing_plan_id":"cebpf4jnsgd1na2vs0mg"},{"bike_id":"7a5f2bd9-a13b-4eae-a2e5-687dce6a133f","system_id":"levelo_inurba_marseille","lat":43.30443,"lon":5.38882,"is_reserved":false,"is_disabled":false,"rental_uris":{"android":"levelo://app?vid=7a5f2bd9-a13b-4eae-a2e5-687dce6a133f","ios":"levelo://app?vid=7a5f2bd9-a13b-4eae-a2e5-687dce6a133f"},"vehicle_type_id":"4","last_reported":1743718125,"current_range_meters":8400,"station_id":"ce4bgk12rcd13ifvqbi0","pricing_plan_id":"cebpf4jnsgd1na2vs0mg"},{"bike_id":"6997e810-3f4c-46f4-a539-996e89fe73bb","system_id":"levelo_inurba_marseille","lat":43.2815,"lon":5.42631,"is_reserved":false,"is_disabled":false,"rental_uris":{"android":"levelo://app?vid=6997e810-3f4c-46f4-a539-996e89fe73bb","ios":"levelo://app?vid=6997e810-3f4c-46f4-a539-996e89fe73bb"},"vehicle_type_id":"4","last_reported":1743718125,"current_range_meters":8400,"station_id":"ce4bhnh2rcd13ifvqgug","pricing_plan_id":"cebpf4jnsgd1na2vs0mg"},{"bike_id":"b06bcefa-4863-48d2-b007-4e8ec99813f9","system_id":"levelo_inurba_marseille","lat":43.28347,"lon":5.38107,"is_reserved":false,"is_disabled":false,"rental_uris":{"android":"levelo://app?vid=b06bcefa-4863-48d2-b007-4e8ec99813f9","ios":"levelo://app?vid=b06bcefa-4863-48d2-b007-4e8ec99813f9"},"vehicle_type_id":"4","last_reported":1743718125,"current_range_meters":8400,"station_id":"ce4bh412rcd13ifvqdr0","pricing_plan_id":"cebpf4jnsgd1na2vs0mg"},{"bike_id":"73c6623c-fdfd-460c-8460-f522c3f951af","system_id":"levelo_inurba_marseille","lat":43.30874,"lon":5.39647,"is_reserved":false,"is_disabled":false,"rental_uris":{"android":"levelo://app?vid=73c6623c-fdfd-460c-8460-f522c3f951af","ios":"levelo://app?vid=73c6623c-fdfd-460c-8460-f522c3f951af"},"vehicle_type_id":"4","last_reported":1743718125,"current_range_meters":8400,"station_id":"ce4bh012rcd13ifvqcv0","pricing_plan_id":"cebpf4jnsgd1na2vs0mg"},{"bike_id":"ccbab995-10fc-4cb2-bbb6-95e7cc056e21","system_id":"levelo_inurba_marseille","lat":43.28948,"lon":5.36407,"is_reserved":false,"is_disabled":false,"rental_uris":{"android":"levelo://app?vid=ccbab995-10fc-4cb2-bbb6-95e7cc056e21","ios":"levelo://app?vid=ccbab995-10fc-4cb2-bbb6-95e7cc056e21"},"vehicle_type_id":"4","last_reported":1743718125,"current_range_meters":8400,"station_id":"ce4bhc92rcd13ifvqetg","pricing_plan_id":"cebpf4jnsgd1na2vs0mg"},{"bike_id":"73d854ad-9eb6-4d68-8878-e9b2295ae65a","system_id":"levelo_inurba_marseille","lat":43.23079,"lon":5.35485,"is_reserved":false,"is_disabled":false,"rental_uris":{"android":"levelo://app?vid=73d854ad-9eb6-4d68-8878-e9b2295ae65a","ios":"levelo://app?vid=73d854ad-9eb6-4d68-8878-e9b2295ae65a"},"vehicle_type_id":"4","last_reported":1743718125,"current_range_meters":8800,"station_id":"cpo3342slgdg3j2ifvpg","pricing_plan_id":"cebpf4jnsgd1na2vs0mg"},{"bike_id":"c50a89dc-b7b3-47ca-b77f-0aedf03cdfeb","system_id":"levelo_inurba_marseille","lat":43.28141,"lon":5.42639,"is_reserved":false,"is_disabled":false,"rental_uris":{"android":"levelo://app?vid=c50a89dc-b7b3-47ca-b77f-0aedf03cdfeb","ios":"levelo://app?vid=c50a89dc-b7b3-47ca-b77f-0aedf03cdfeb"},"vehicle_type_id":"4","last_reported":1743718125,"current_range_meters":8800,"station_id":"ce4bhnh2rcd13ifvqgug","pricing_plan_id":"cebpf4jnsgd1na2vs0mg"},{"bike_id":"5eeb5e50-0db0-41c6-afc4-e17fd1bc146e","system_id":"levelo_inurba_marseille","lat":43.31487,"lon":5.37287,"is_reserved":false,"is_disabled":false,"rental_uris":{"android":"levelo://app?vid=5eeb5e50-0db0-41c6-afc4-e17fd1bc146e","ios":"levelo://app?vid=5eeb5e50-0db0-41c6-afc4-e17fd1bc146e"},"vehicle_type_id":"4","last_reported":1743718125,"current_range_meters":8800,"station_id":"ce4bgt12rcd13ifvqcd0","pricing_plan_id":"cebpf4jnsgd1na2vs0mg"},{"bike_id":"809ab426-da69-405a-9ff2-30b58e1aceb6","system_id":"levelo_inurba_marseille","lat":43.29974,"lon":5.38699,"is_reserved":false,"is_disabled":false,"rental_uris":{"android":"levelo://app?vid=809ab426-da69-405a-9ff2-30b58e1aceb6","ios":"levelo://app?vid=809ab426-da69-405a-9ff2-30b58e1aceb6"},"vehicle_type_id":"4","last_reported":1743718125,"current_range_meters":8800,"station_id":"","pricing_plan_id":"cebpf4jnsgd1na2vs0mg"},{"bike_id":"2635283e-ffd4-4c1f-b9e8-1b146ac4c8cc","system_id":"levelo_inurba_marseille","lat":43.30203,"lon":5.41923,"is_reserved":false,"is_disabled":false,"rental_uris":{"android":"levelo://app?vid=2635283e-ffd4-4c1f-b9e8-1b146ac4c8cc","ios":"levelo://app?vid=2635283e-ffd4-4c1f-b9e8-1b146ac4c8cc"},"vehicle_type_id":"4","last_reported":1743718125,"current_range_meters":8800,"station_id":"","pricing_plan_id":"cebpf4jnsgd1na2vs0mg"},{"bike_id":"8a20a4d9-c3a5-4e20-9ecf-d4ab4e0a33f7","system_id":"levelo_inurba_marseille","lat":43.25864,"lon":5.39906,"is_reserved":false,"is_disabled":false,"rental_uris":{"android":"levelo://app?vid=8a20a4d9-c3a5-4e20-9ecf-d4ab4e0a33f7","ios":"levelo://app?vid=8a20a4d9-c3a5-4e20-9ecf-d4ab4e0a33f7"},"vehicle_type_id":"4","last_reported":1743718125,"current_range_meters":8800,"station_id":"ce4bhl92rcd13ifvqghg","pricing_plan_id":"cebpf4jnsgd1na2vs0mg"},{"bike_id":"0486a1d3-a412-4d01-bcb7-3e88e681a926","system_id":"levelo_inurba_marseille","lat":43.27935,"lon":5.39585,"is_reserved":false,"is_disabled":false,"rental_uris":{"android":"levelo://app?vid=0486a1d3-a412-4d01-bcb7-3e88e681a926","ios":"levelo://app?vid=0486a1d3-a412-4d01-bcb7-3e88e681a926"},"vehicle_type_id":"4","last_reported":1743718125,"current_range_meters":8800,"station_id":"ce4bhf92rcd13ifvqf40","pricing_plan_id":"cebpf4jnsgd1na2vs0mg"},{"bike_id":"0ea26ae8-0438-4cce-85e6-d7aa1b50dd68","system_id":"levelo_inurba_marseille","lat":43.25831,"lon":5.39436,"is_reserved":false,"is_disabled":false,"rental_uris":{"android":"levelo://app?vid=0ea26ae8-0438-4cce-85e6-d7aa1b50dd68","ios":"levelo://app?vid=0ea26ae8-0438-4cce-85e6-d7aa1b50dd68"},"vehicle_type_id":"4","last_reported":1743718125,"current_range_meters":8800,"station_id":"ce4bhip2rcd13ifvqft0","pricing_plan_id":"cebpf4jnsgd1na2vs0mg"},{"bike_id":"ed4d7350-318a-444b-bf62-19f86e0514aa","system_id":"levelo_inurba_marseille","lat":43.27818,"lon":5.40716,"is_reserved":false,"is_disabled":false,"rental_uris":{"android":"levelo://app?vid=ed4d7350-318a-444b-bf62-19f86e0514aa","ios":"levelo://app?vid=ed4d7350-318a-444b-bf62-19f86e0514aa"},"vehicle_type_id":"4","last_reported":1743718125,"current_range_meters":8800,"station_id":"ce4bhnh2rcd13ifvqgtg","pricing_plan_id":"cebpf4jnsgd1na2vs0mg"},{"bike_id":"000ca9d1-8408-494a-9841-abb744539257","system_id":"levelo_inurba_marseille","lat":43.28662,"lon":5.36357,"is_reserved":false,"is_disabled":false,"rental_uris":{"android":"levelo://app?vid=000ca9d1-8408-494a-9841-abb744539257","ios":"levelo://app?vid=000ca9d1-8408-494a-9841-abb744539257"},"vehicle_type_id":"4","last_reported":1743718125,"current_range_meters":9200,"station_id":"ce4bhah2rcd13ifvqej0","pricing_plan_id":"cebpf4jnsgd1na2vs0mg"},{"bike_id":"4f3eb7d3-6193-4152-af90-0b8ba47b65bc","system_id":"levelo_inurba_marseille","lat":43.28137,"lon":5.42644,"is_reserved":false,"is_disabled":false,"rental_uris":{"android":"levelo://app?vid=4f3eb7d3-6193-4152-af90-0b8ba47b65bc","ios":"levelo://app?vid=4f3eb7d3-6193-4152-af90-0b8ba47b65bc"},"vehicle_type_id":"4","last_reported":1743718125,"current_range_meters":9200,"station_id":"ce4bhnh2rcd13ifvqgug","pricing_plan_id":"cebpf4jnsgd1na2vs0mg"},{"bike_id":"97de9475-5272-4166-a380-76c3186681c8","system_id":"levelo_inurba_marseille","lat":43.28721,"lon":5.37929,"is_reserved":false,"is_disabled":false,"rental_uris":{"android":"levelo://app?vid=97de9475-5272-4166-a380-76c3186681c8","ios":"levelo://app?vid=97de9475-5272-4166-a380-76c3186681c8"},"vehicle_type_id":"4","last_reported":1743718125,"current_range_meters":9200,"station_id":"ce4bh9p2rcd13ifvqec0","pricing_plan_id":"cebpf4jnsgd1na2vs0mg"},{"bike_id":"d76832c4-3604-4de9-b7a5-182f7c6e995c","system_id":"levelo_inurba_marseille","lat":43.31325,"lon":5.38516,"is_reserved":false,"is_disabled":true,"rental_uris":{"android":"levelo://app?vid=d76832c4-3604-4de9-b7a5-182f7c6e995c","ios":"levelo://app?vid=d76832c4-3604-4de9-b7a5-182f7c6e995c"},"vehicle_type_id":"4","last_reported":1743718125,"current_range_meters":9200,"station_id":"ce4bgt92rcd13ifvqcf0","pricing_plan_id":"cebpf4jnsgd1na2vs0mg"},{"bike_id":"b4cb4e28-e514-44da-9db3-2c7d453900ef","system_id":"levelo_inurba_marseille","lat":43.2817,"lon":5.42696,"is_reserved":false,"is_disabled":false,"rental_uris":{"android":"levelo://app?vid=b4cb4e28-e514-44da-9db3-2c7d453900ef","ios":"levelo://app?vid=b4cb4e28-e514-44da-9db3-2c7d453900ef"},"vehicle_type_id":"4","last_reported":1743718125,"current_range_meters":9200,"station_id":"ce4bhnh2rcd13ifvqgug","pricing_plan_id":"cebpf4jnsgd1na2vs0mg"},{"bike_id":"0dac6cbf-70aa-4c5b-9bd6-89ce0f38fbc3","system_id":"levelo_inurba_marseille","lat":43.31283,"lon":5.37324,"is_reserved":false,"is_disabled":false,"rental_uris":{"android":"levelo://app?vid=0dac6cbf-70aa-4c5b-9bd6-89ce0f38fbc3","ios":"levelo://app?vid=0dac6cbf-70aa-4c5b-9bd6-89ce0f38fbc3"},"vehicle_type_id":"4","last_reported":1743718125,"current_range_meters":9200,"station_id":"","pricing_plan_id":"cebpf4jnsgd1na2vs0mg"},{"bike_id":"991ad642-e3bd-4cdd-8126-8ad92a329058","system_id":"levelo_inurba_marseille","lat":43.295319,"lon":5.385414,"is_reserved":false,"is_disabled":false,"rental_uris":{"android":"levelo://app?vid=991ad642-e3bd-4cdd-8126-8ad92a329058","ios":"levelo://app?vid=991ad642-e3bd-4cdd-8126-8ad92a329058"},"vehicle_type_id":"4","last_reported":1743718125,"current_range_meters":9200,"station_id":"ce4bgr92rcd13ifvqc7g","pricing_plan_id":"cebpf4jnsgd1na2vs0mg"},{"bike_id":"09acc38a-ce9e-4339-b410-bdafaf8d5a13","system_id":"levelo_inurba_marseille","lat":43.25098,"lon":5.39533,"is_reserved":false,"is_disabled":true,"rental_uris":{"android":"levelo://app?vid=09acc38a-ce9e-4339-b410-bdafaf8d5a13","ios":"levelo://app?vid=09acc38a-ce9e-4339-b410-bdafaf8d5a13"},"vehicle_type_id":"4","last_reported":1743718125,"current_range_meters":9200,"station_id":"ce4bhm12rcd13ifvqgkg","pricing_plan_id":"cebpf4jnsgd1na2vs0mg"},{"bike_id":"c13336a2-47ce-488c-b5b6-77c01a3ac1d1","system_id":"levelo_inurba_marseille","lat":43.31891,"lon":5.40764,"is_reserved":false,"is_disabled":true,"rental_uris":{"android":"levelo://app?vid=c13336a2-47ce-488c-b5b6-77c01a3ac1d1","ios":"levelo://app?vid=c13336a2-47ce-488c-b5b6-77c01a3ac1d1"},"vehicle_type_id":"4","last_reported":1743718125,"current_range_meters":9200,"station_id":"ce4bhq12rcd13ifvqhig","pricing_plan_id":"cebpf4jnsgd1na2vs0mg"},{"bike_id":"15e821ea-ee03-4fa0-99d0-ecfff3f6780c","system_id":"levelo_inurba_marseille","lat":43.29078,"lon":5.37175,"is_reserved":false,"is_disabled":false,"rental_uris":{"android":"levelo://app?vid=15e821ea-ee03-4fa0-99d0-ecfff3f6780c","ios":"levelo://app?vid=15e821ea-ee03-4fa0-99d0-ecfff3f6780c"},"vehicle_type_id":"4","last_reported":1743718125,"current_range_meters":9200,"station_id":"ce4bh5p2rcd13ifvqe4g","pricing_plan_id":"cebpf4jnsgd1na2vs0mg"},{"bike_id":"083c1fc8-517e-4312-affe-aed838db16fb","system_id":"levelo_inurba_marseille","lat":43.302491,"lon":5.400768,"is_reserved":false,"is_disabled":false,"rental_uris":{"android":"levelo://app?vid=083c1fc8-517e-4312-affe-aed838db16fb","ios":"levelo://app?vid=083c1fc8-517e-4312-affe-aed838db16fb"},"vehicle_type_id":"4","last_reported":1743718125,"current_range_meters":9200,"station_id":"ce4bgvh2rcd13ifvqcs0","pricing_plan_id":"cebpf4jnsgd1na2vs0mg"},{"bike_id":"55a458b5-99f0-4a0e-bf15-969bb5b742d8","system_id":"levelo_inurba_marseille","lat":43.31639,"lon":5.39441,"is_reserved":false,"is_disabled":false,"rental_uris":{"android":"levelo://app?vid=55a458b5-99f0-4a0e-bf15-969bb5b742d8","ios":"levelo://app?vid=55a458b5-99f0-4a0e-bf15-969bb5b742d8"},"vehicle_type_id":"4","last_reported":1743718125,"current_range_meters":9200,"station_id":"","pricing_plan_id":"cebpf4jnsgd1na2vs0mg"},{"bike_id":"e31e1094-f930-44ec-9386-dc6ec38200a8","system_id":"levelo_inurba_marseille","lat":43.28941,"lon":5.36393,"is_reserved":false,"is_disabled":false,"rental_uris":{"android":"levelo://app?vid=e31e1094-f930-44ec-9386-dc6ec38200a8","ios":"levelo://app?vid=e31e1094-f930-44ec-9386-dc6ec38200a8"},"vehicle_type_id":"4","last_reported":1743718125,"current_range_meters":9600,"station_id":"ce4bhc92rcd13ifvqetg","pricing_plan_id":"cebpf4jnsgd1na2vs0mg"},{"bike_id":"2350e60f-f5e0-4aa2-a199-876743a9f397","system_id":"levelo_inurba_marseille","lat":43.26571,"lon":5.39003,"is_reserved":false,"is_disabled":false,"rental_uris":{"android":"levelo://app?vid=2350e60f-f5e0-4aa2-a199-876743a9f397","ios":"levelo://app?vid=2350e60f-f5e0-4aa2-a199-876743a9f397"},"vehicle_type_id":"4","last_reported":1743718125,"current_range_meters":9600,"station_id":"ce4bhe12rcd13ifvqf30","pricing_plan_id":"cebpf4jnsgd1na2vs0mg"},{"bike_id":"2daa891c-c5fb-4f59-8761-9757aa5ea50b","system_id":"levelo_inurba_marseille","lat":43.27173,"lon":5.40994,"is_reserved":false,"is_disabled":false,"rental_uris":{"android":"levelo://app?vid=2daa891c-c5fb-4f59-8761-9757aa5ea50b","ios":"levelo://app?vid=2daa891c-c5fb-4f59-8761-9757aa5ea50b"},"vehicle_type_id":"4","last_reported":1743718125,"current_range_meters":9600,"station_id":"ce4bhl12rcd13ifvqgf0","pricing_plan_id":"cebpf4jnsgd1na2vs0mg"},{"bike_id":"47da3bff-3768-439d-ba2a-899af7453880","system_id":"levelo_inurba_marseille","lat":43.29569,"lon":5.39987,"is_reserved":false,"is_disabled":false,"rental_uris":{"android":"levelo://app?vid=47da3bff-3768-439d-ba2a-899af7453880","ios":"levelo://app?vid=47da3bff-3768-439d-ba2a-899af7453880"},"vehicle_type_id":"4","last_reported":1743718125,"current_range_meters":9600,"station_id":"ce4bh312rcd13ifvqdj0","pricing_plan_id":"cebpf4jnsgd1na2vs0mg"},{"bike_id":"81296a64-2b77-42f6-8329-c4c8f1f0969e","system_id":"levelo_inurba_marseille","lat":43.283497,"lon":5.381124,"is_reserved":false,"is_disabled":false,"rental_uris":{"android":"levelo://app?vid=81296a64-2b77-42f6-8329-c4c8f1f0969e","ios":"levelo://app?vid=81296a64-2b77-42f6-8329-c4c8f1f0969e"},"vehicle_type_id":"4","last_reported":1743718125,"current_range_meters":9600,"station_id":"ce4bh412rcd13ifvqdr0","pricing_plan_id":"cebpf4jnsgd1na2vs0mg"},{"bike_id":"f5759a4f-0592-41f6-9289-e855fab9cb10","system_id":"levelo_inurba_marseille","lat":43.24413,"lon":5.37086,"is_reserved":false,"is_disabled":false,"rental_uris":{"android":"levelo://app?vid=f5759a4f-0592-41f6-9289-e855fab9cb10","ios":"levelo://app?vid=f5759a4f-0592-41f6-9289-e855fab9cb10"},"vehicle_type_id":"4","last_reported":1743718125,"current_range_meters":9600,"station_id":"ce4bhhh2rcd13ifvqfk0","pricing_plan_id":"cebpf4jnsgd1na2vs0mg"},{"bike_id":"3cf22d29-90b6-4c79-a643-886bc3743ca7","system_id":"levelo_inurba_marseille","lat":43.33403,"lon":5.40074,"is_reserved":false,"is_disabled":false,"rental_uris":{"android":"levelo://app?vid=3cf22d29-90b6-4c79-a643-886bc3743ca7","ios":"levelo://app?vid=3cf22d29-90b6-4c79-a643-886bc3743ca7"},"vehicle_type_id":"4","last_reported":1743718125,"current_range_meters":9600,"station_id":"","pricing_plan_id":"cebpf4jnsgd1na2vs0mg"},{"bike_id":"4765d0fd-8821-454e-ac67-0e7d34b746ee","system_id":"levelo_inurba_marseille","lat":43.3033,"lon":5.4044,"is_reserved":false,"is_disabled":false,"rental_uris":{"android":"levelo://app?vid=4765d0fd-8821-454e-ac67-0e7d34b746ee","ios":"levelo://app?vid=4765d0fd-8821-454e-ac67-0e7d34b746ee"},"vehicle_type_id":"4","last_reported":1743718125,"current_range_meters":9600,"station_id":"ce4bh012rcd13ifvqd10","pricing_plan_id":"cebpf4jnsgd1na2vs0mg"},{"bike_id":"be19e26c-e8d6-41dc-9289-b6df129eb6b6","system_id":"levelo_inurba_marseille","lat":43.29251,"lon":5.40917,"is_reserved":false,"is_disabled":false,"rental_uris":{"android":"levelo://app?vid=be19e26c-e8d6-41dc-9289-b6df129eb6b6","ios":"levelo://app?vid=be19e26c-e8d6-41dc-9289-b6df129eb6b6"},"vehicle_type_id":"4","last_reported":1743718125,"current_range_meters":9600,"station_id":"ce4bh192rcd13ifvqdc0","pricing_plan_id":"cebpf4jnsgd1na2vs0mg"},{"bike_id":"e3a29d38-a611-4b12-87ef-2fb8a21c41d5","system_id":"levelo_inurba_marseille","lat":43.229374,"lon":5.353903,"is_reserved":false,"is_disabled":false,"rental_uris":{"android":"levelo://app?vid=e3a29d38-a611-4b12-87ef-2fb8a21c41d5","ios":"levelo://app?vid=e3a29d38-a611-4b12-87ef-2fb8a21c41d5"},"vehicle_type_id":"4","last_reported":1743718125,"current_range_meters":9600,"station_id":"cpo3532slgdg3j2ikp40","pricing_plan_id":"cebpf4jnsgd1na2vs0mg"},{"bike_id":"a5a7acc6-cfad-4681-8b97-f2685b60c8a8","system_id":"levelo_inurba_marseille","lat":43.24649,"lon":5.381627,"is_reserved":false,"is_disabled":false,"rental_uris":{"android":"levelo://app?vid=a5a7acc6-cfad-4681-8b97-f2685b60c8a8","ios":"levelo://app?vid=a5a7acc6-cfad-4681-8b97-f2685b60c8a8"},"vehicle_type_id":"4","last_reported":1743718125,"current_range_meters":9600,"station_id":"ce4bhhh2rcd13ifvqfl0","pricing_plan_id":"cebpf4jnsgd1na2vs0mg"},{"bike_id":"efddeda7-6eb2-4c14-868d-fa0ce0b35ef3","system_id":"levelo_inurba_marseille","lat":43.31299,"lon":5.38299,"is_reserved":false,"is_disabled":false,"rental_uris":{"android":"levelo://app?vid=efddeda7-6eb2-4c14-868d-fa0ce0b35ef3","ios":"levelo://app?vid=efddeda7-6eb2-4c14-868d-fa0ce0b35ef3"},"vehicle_type_id":"4","last_reported":1743718125,"current_range_meters":9600,"station_id":"","pricing_plan_id":"cebpf4jnsgd1na2vs0mg"},{"bike_id":"4d021dc5-da23-461e-96b2-594066586ca8","system_id":"levelo_inurba_marseille","lat":43.27964,"lon":5.4092,"is_reserved":false,"is_disabled":false,"rental_uris":{"android":"levelo://app?vid=4d021dc5-da23-461e-96b2-594066586ca8","ios":"levelo://app?vid=4d021dc5-da23-461e-96b2-594066586ca8"},"vehicle_type_id":"4","last_reported":1743718125,"current_range_meters":9600,"station_id":"","pricing_plan_id":"cebpf4jnsgd1na2vs0mg"},{"bike_id":"62b209c7-34f0-4013-acbc-f90aabbf05af","system_id":"levelo_inurba_marseille","lat":43.29027,"lon":5.38647,"is_reserved":false,"is_disabled":false,"rental_uris":{"android":"levelo://app?vid=62b209c7-34f0-4013-acbc-f90aabbf05af","ios":"levelo://app?vid=62b209c7-34f0-4013-acbc-f90aabbf05af"},"vehicle_type_id":"4","last_reported":1743718125,"current_range_meters":9600,"station_id":"ce4bh4p2rcd13ifvqe0g","pricing_plan_id":"cebpf4jnsgd1na2vs0mg"},{"bike_id":"db2e7a57-3ca4-4f6d-b555-a0eb07155750","system_id":"levelo_inurba_marseille","lat":43.24666,"lon":5.3815,"is_reserved":false,"is_disabled":false,"rental_uris":{"android":"levelo://app?vid=db2e7a57-3ca4-4f6d-b555-a0eb07155750","ios":"levelo://app?vid=db2e7a57-3ca4-4f6d-b555-a0eb07155750"},"vehicle_type_id":"4","last_reported":1743718125,"current_range_meters":9600,"station_id":"ce4bhih2rcd13ifvqfr0","pricing_plan_id":"cebpf4jnsgd1na2vs0mg"},{"bike_id":"6b9e6fc8-338e-44b0-9539-c4206b8d9896","system_id":"levelo_inurba_marseille","lat":43.304243,"lon":5.3889,"is_reserved":false,"is_disabled":false,"rental_uris":{"android":"levelo://app?vid=6b9e6fc8-338e-44b0-9539-c4206b8d9896","ios":"levelo://app?vid=6b9e6fc8-338e-44b0-9539-c4206b8d9896"},"vehicle_type_id":"4","last_reported":1743718125,"current_range_meters":9600,"station_id":"ce4bgk12rcd13ifvqbi0","pricing_plan_id":"cebpf4jnsgd1na2vs0mg"},{"bike_id":"1f65dc15-3b88-4765-8d95-4a3c41cc9559","system_id":"levelo_inurba_marseille","lat":43.33625,"lon":5.40989,"is_reserved":false,"is_disabled":true,"rental_uris":{"android":"levelo://app?vid=1f65dc15-3b88-4765-8d95-4a3c41cc9559","ios":"levelo://app?vid=1f65dc15-3b88-4765-8d95-4a3c41cc9559"},"vehicle_type_id":"4","last_reported":1743718125,"current_range_meters":9600,"station_id":"ce4bhqh2rcd13ifvqhmg","pricing_plan_id":"cebpf4jnsgd1na2vs0mg"},{"bike_id":"63c19073-a7de-46ed-a396-8639743b910e","system_id":"levelo_inurba_marseille","lat":43.23205,"lon":5.3555,"is_reserved":false,"is_disabled":false,"rental_uris":{"android":"levelo://app?vid=63c19073-a7de-46ed-a396-8639743b910e","ios":"levelo://app?vid=63c19073-a7de-46ed-a396-8639743b910e"},"vehicle_type_id":"4","last_reported":1743718125,"current_range_meters":9600,"station_id":"ce4bhu92rcd13ifvqi70","pricing_plan_id":"cebpf4jnsgd1na2vs0mg"},{"bike_id":"b4ab96b8-b55f-442c-98bf-22ba91464e26","system_id":"levelo_inurba_marseille","lat":43.31737,"lon":5.42407,"is_reserved":false,"is_disabled":false,"rental_uris":{"android":"levelo://app?vid=b4ab96b8-b55f-442c-98bf-22ba91464e26","ios":"levelo://app?vid=b4ab96b8-b55f-442c-98bf-22ba91464e26"},"vehicle_type_id":"4","last_reported":1743718125,"current_range_meters":9600,"station_id":"ce4bhp92rcd13ifvqhbg","pricing_plan_id":"cebpf4jnsgd1na2vs0mg"},{"bike_id":"fea9fa08-12bb-4d9c-95fa-bd8fe3fb3625","system_id":"levelo_inurba_marseille","lat":43.24387,"lon":5.37074,"is_reserved":false,"is_disabled":false,"rental_uris":{"android":"levelo://app?vid=fea9fa08-12bb-4d9c-95fa-bd8fe3fb3625","ios":"levelo://app?vid=fea9fa08-12bb-4d9c-95fa-bd8fe3fb3625"},"vehicle_type_id":"4","last_reported":1743718125,"current_range_meters":10000,"station_id":"ce4bhhh2rcd13ifvqfk0","pricing_plan_id":"cebpf4jnsgd1na2vs0mg"},{"bike_id":"88ed0122-316e-48a5-b56d-632466c60262","system_id":"levelo_inurba_marseille","lat":43.30309,"lon":5.39199,"is_reserved":false,"is_disabled":false,"rental_uris":{"android":"levelo://app?vid=88ed0122-316e-48a5-b56d-632466c60262","ios":"levelo://app?vid=88ed0122-316e-48a5-b56d-632466c60262"},"vehicle_type_id":"4","last_reported":1743718125,"current_range_meters":10000,"station_id":"ce4bgkh2rcd13ifvqbk0","pricing_plan_id":"cebpf4jnsgd1na2vs0mg"},{"bike_id":"a688b4f6-cbd3-4540-9afd-68e12e85ba02","system_id":"levelo_inurba_marseille","lat":43.28363,"lon":5.38098,"is_reserved":false,"is_disabled":false,"rental_uris":{"android":"levelo://app?vid=a688b4f6-cbd3-4540-9afd-68e12e85ba02","ios":"levelo://app?vid=a688b4f6-cbd3-4540-9afd-68e12e85ba02"},"vehicle_type_id":"4","last_reported":1743718125,"current_range_meters":10000,"station_id":"ce4bh412rcd13ifvqdr0","pricing_plan_id":"cebpf4jnsgd1na2vs0mg"},{"bike_id":"00af5085-bd9f-4e74-8dc5-1b3e94bfa446","system_id":"levelo_inurba_marseille","lat":43.29877,"lon":5.3892,"is_reserved":false,"is_disabled":false,"rental_uris":{"android":"levelo://app?vid=00af5085-bd9f-4e74-8dc5-1b3e94bfa446","ios":"levelo://app?vid=00af5085-bd9f-4e74-8dc5-1b3e94bfa446"},"vehicle_type_id":"4","last_reported":1743718125,"current_range_meters":10000,"station_id":"ce4bh392rcd13ifvqdl0","pricing_plan_id":"cebpf4jnsgd1na2vs0mg"},{"bike_id":"46ebcf4e-7f32-4258-b585-3c3011b6dba5","system_id":"levelo_inurba_marseille","lat":43.279654,"lon":5.387367,"is_reserved":false,"is_disabled":false,"rental_uris":{"android":"levelo://app?vid=46ebcf4e-7f32-4258-b585-3c3011b6dba5","ios":"levelo://app?vid=46ebcf4e-7f32-4258-b585-3c3011b6dba5"},"vehicle_type_id":"4","last_reported":1743718125,"current_range_meters":10000,"station_id":"ce4bhg12rcd13ifvqf80","pricing_plan_id":"cebpf4jnsgd1na2vs0mg"},{"bike_id":"0ea3923a-a8d8-44d3-933c-1ecd863d390f","system_id":"levelo_inurba_marseille","lat":43.2929,"lon":5.40118,"is_reserved":false,"is_disabled":false,"rental_uris":{"android":"levelo://app?vid=0ea3923a-a8d8-44d3-933c-1ecd863d390f","ios":"levelo://app?vid=0ea3923a-a8d8-44d3-933c-1ecd863d390f"},"vehicle_type_id":"4","last_reported":1743718125,"current_range_meters":10000,"station_id":"ce4bh312rcd13ifvqdk0","pricing_plan_id":"cebpf4jnsgd1na2vs0mg"},{"bike_id":"600e54ee-b5a6-4c30-87a6-f2d92b5c5ed2","system_id":"levelo_inurba_marseille","lat":43.30591,"lon":5.39348,"is_reserved":false,"is_disabled":false,"rental_uris":{"android":"levelo://app?vid=600e54ee-b5a6-4c30-87a6-f2d92b5c5ed2","ios":"levelo://app?vid=600e54ee-b5a6-4c30-87a6-f2d92b5c5ed2"},"vehicle_type_id":"4","last_reported":1743718125,"current_range_meters":10000,"station_id":"ce4bh0p2rcd13ifvqd80","pricing_plan_id":"cebpf4jnsgd1na2vs0mg"},{"bike_id":"96b5f2ee-edbd-4adf-a1cb-b2ed2ce98b72","system_id":"levelo_inurba_marseille","lat":43.28115,"lon":5.37848,"is_reserved":false,"is_disabled":false,"rental_uris":{"android":"levelo://app?vid=96b5f2ee-edbd-4adf-a1cb-b2ed2ce98b72","ios":"levelo://app?vid=96b5f2ee-edbd-4adf-a1cb-b2ed2ce98b72"},"vehicle_type_id":"4","last_reported":1743718125,"current_range_meters":10000,"station_id":"ce4bha12rcd13ifvqee0","pricing_plan_id":"cebpf4jnsgd1na2vs0mg"},{"bike_id":"7578464b-b45c-4f91-91ee-2bf4c78a3c7d","system_id":"levelo_inurba_marseille","lat":43.28851,"lon":5.39303,"is_reserved":false,"is_disabled":false,"rental_uris":{"android":"levelo://app?vid=7578464b-b45c-4f91-91ee-2bf4c78a3c7d","ios":"levelo://app?vid=7578464b-b45c-4f91-91ee-2bf4c78a3c7d"},"vehicle_type_id":"4","last_reported":1743718125,"current_range_meters":10800,"station_id":"ce4bh2p2rcd13ifvqdi0","pricing_plan_id":"cebpf4jnsgd1na2vs0mg"},{"bike_id":"39e71037-e1f7-491a-8e5d-50b5326f2262","system_id":"levelo_inurba_marseille","lat":43.29569,"lon":5.39967,"is_reserved":false,"is_disabled":false,"rental_uris":{"android":"levelo://app?vid=39e71037-e1f7-491a-8e5d-50b5326f2262","ios":"levelo://app?vid=39e71037-e1f7-491a-8e5d-50b5326f2262"},"vehicle_type_id":"4","last_reported":1743718125,"current_range_meters":10800,"station_id":"ce4bh312rcd13ifvqdj0","pricing_plan_id":"cebpf4jnsgd1na2vs0mg"},{"bike_id":"199364de-c886-4885-9f07-0156b4652438","system_id":"levelo_inurba_marseille","lat":43.29954,"lon":5.36536,"is_reserved":false,"is_disabled":false,"rental_uris":{"android":"levelo://app?vid=199364de-c886-4885-9f07-0156b4652438","ios":"levelo://app?vid=199364de-c886-4885-9f07-0156b4652438"},"vehicle_type_id":"4","last_reported":1743718125,"current_range_meters":10800,"station_id":"ce4bgm92rcd13ifvqbr0","pricing_plan_id":"cebpf4jnsgd1na2vs0mg"},{"bike_id":"e17335a5-1285-4d0d-956b-ff0ef8aad9f3","system_id":"levelo_inurba_marseille","lat":43.31171,"lon":5.38732,"is_reserved":false,"is_disabled":false,"rental_uris":{"android":"levelo://app?vid=e17335a5-1285-4d0d-956b-ff0ef8aad9f3","ios":"levelo://app?vid=e17335a5-1285-4d0d-956b-ff0ef8aad9f3"},"vehicle_type_id":"4","last_reported":1743718125,"current_range_meters":10800,"station_id":"ce4bgv12rcd13ifvqcp0","pricing_plan_id":"cebpf4jnsgd1na2vs0mg"},{"bike_id":"0b88ccf3-9ffa-4517-a262-a42fd565186e","system_id":"levelo_inurba_marseille","lat":43.28404,"lon":5.34971,"is_reserved":false,"is_disabled":false,"rental_uris":{"android":"levelo://app?vid=0b88ccf3-9ffa-4517-a262-a42fd565186e","ios":"levelo://app?vid=0b88ccf3-9ffa-4517-a262-a42fd565186e"},"vehicle_type_id":"4","last_reported":1743718125,"current_range_meters":10800,"station_id":"ce4bhbh2rcd13ifvqepg","pricing_plan_id":"cebpf4jnsgd1na2vs0mg"},{"bike_id":"becd4d9c-f5b2-4018-aadd-5312c9b4ec50","system_id":"levelo_inurba_marseille","lat":43.23977,"lon":5.36624,"is_reserved":false,"is_disabled":false,"rental_uris":{"android":"levelo://app?vid=becd4d9c-f5b2-4018-aadd-5312c9b4ec50","ios":"levelo://app?vid=becd4d9c-f5b2-4018-aadd-5312c9b4ec50"},"vehicle_type_id":"4","last_reported":1743718125,"current_range_meters":10800,"station_id":"ce4bhi12rcd13ifvqfp0","pricing_plan_id":"cebpf4jnsgd1na2vs0mg"},{"bike_id":"131dafb3-0416-4bc5-b992-f5b1a1c2d479","system_id":"levelo_inurba_marseille","lat":43.28338,"lon":5.38133,"is_reserved":false,"is_disabled":false,"rental_uris":{"android":"levelo://app?vid=131dafb3-0416-4bc5-b992-f5b1a1c2d479","ios":"levelo://app?vid=131dafb3-0416-4bc5-b992-f5b1a1c2d479"},"vehicle_type_id":"4","last_reported":1743718125,"current_range_meters":10800,"station_id":"ce4bh412rcd13ifvqdr0","pricing_plan_id":"cebpf4jnsgd1na2vs0mg"},{"bike_id":"63139285-137c-4e8d-8e95-6c2a275f8333","system_id":"levelo_inurba_marseille","lat":43.32052,"lon":5.36866,"is_reserved":false,"is_disabled":false,"rental_uris":{"android":"levelo://app?vid=63139285-137c-4e8d-8e95-6c2a275f8333","ios":"levelo://app?vid=63139285-137c-4e8d-8e95-6c2a275f8333"},"vehicle_type_id":"4","last_reported":1743718125,"current_range_meters":10800,"station_id":"ce4bhrh2rcd13ifvqhug","pricing_plan_id":"cebpf4jnsgd1na2vs0mg"},{"bike_id":"530add42-6a71-433e-8c7a-45b5a6543f85","system_id":"levelo_inurba_marseille","lat":43.25725,"lon":5.41121,"is_reserved":false,"is_disabled":false,"rental_uris":{"android":"levelo://app?vid=530add42-6a71-433e-8c7a-45b5a6543f85","ios":"levelo://app?vid=530add42-6a71-433e-8c7a-45b5a6543f85"},"vehicle_type_id":"4","last_reported":1743718125,"current_range_meters":11200,"station_id":"ce4bhkp2rcd13ifvqgd0","pricing_plan_id":"cebpf4jnsgd1na2vs0mg"},{"bike_id":"9acde94b-cdba-4433-b025-f8b39a15bb7b","system_id":"levelo_inurba_marseille","lat":43.29724,"lon":5.36607,"is_reserved":false,"is_disabled":false,"rental_uris":{"android":"levelo://app?vid=9acde94b-cdba-4433-b025-f8b39a15bb7b","ios":"levelo://app?vid=9acde94b-cdba-4433-b025-f8b39a15bb7b"},"vehicle_type_id":"4","last_reported":1743718125,"current_range_meters":11200,"station_id":"ce4bgn12rcd13ifvqbt0","pricing_plan_id":"cebpf4jnsgd1na2vs0mg"},{"bike_id":"69c0db05-6ded-4dc6-9720-2452c83c1020","system_id":"levelo_inurba_marseille","lat":43.22969,"lon":5.35422,"is_reserved":false,"is_disabled":false,"rental_uris":{"android":"levelo://app?vid=69c0db05-6ded-4dc6-9720-2452c83c1020","ios":"levelo://app?vid=69c0db05-6ded-4dc6-9720-2452c83c1020"},"vehicle_type_id":"4","last_reported":1743718125,"current_range_meters":11200,"station_id":"","pricing_plan_id":"cebpf4jnsgd1na2vs0mg"},{"bike_id":"4e68dd37-5c68-4401-9d3e-83a00e605018","system_id":"levelo_inurba_marseille","lat":43.30899,"lon":5.39654,"is_reserved":false,"is_disabled":false,"rental_uris":{"android":"levelo://app?vid=4e68dd37-5c68-4401-9d3e-83a00e605018","ios":"levelo://app?vid=4e68dd37-5c68-4401-9d3e-83a00e605018"},"vehicle_type_id":"4","last_reported":1743718125,"current_range_meters":11200,"station_id":"ce4bh012rcd13ifvqcv0","pricing_plan_id":"cebpf4jnsgd1na2vs0mg"},{"bike_id":"5f46717b-05d1-4f34-a220-8087932d755b","system_id":"levelo_inurba_marseille","lat":43.30096,"lon":5.36957,"is_reserved":false,"is_disabled":false,"rental_uris":{"android":"levelo://app?vid=5f46717b-05d1-4f34-a220-8087932d755b","ios":"levelo://app?vid=5f46717b-05d1-4f34-a220-8087932d755b"},"vehicle_type_id":"4","last_reported":1743718125,"current_range_meters":11200,"station_id":"","pricing_plan_id":"cebpf4jnsgd1na2vs0mg"},{"bike_id":"704e60e5-751d-4e7d-9ff7-69208dbcc407","system_id":"levelo_inurba_marseille","lat":43.30142,"lon":5.38778,"is_reserved":false,"is_disabled":false,"rental_uris":{"android":"levelo://app?vid=704e60e5-751d-4e7d-9ff7-69208dbcc407","ios":"levelo://app?vid=704e60e5-751d-4e7d-9ff7-69208dbcc407"},"vehicle_type_id":"4","last_reported":1743718125,"current_range_meters":11600,"station_id":"ce4bghh2rcd13ifvqb60","pricing_plan_id":"cebpf4jnsgd1na2vs0mg"},{"bike_id":"0ad6d41e-14cd-43f9-874a-a5141c7c0ff3","system_id":"levelo_inurba_marseille","lat":43.29276,"lon":5.40115,"is_reserved":false,"is_disabled":false,"rental_uris":{"android":"levelo://app?vid=0ad6d41e-14cd-43f9-874a-a5141c7c0ff3","ios":"levelo://app?vid=0ad6d41e-14cd-43f9-874a-a5141c7c0ff3"},"vehicle_type_id":"4","last_reported":1743718125,"current_range_meters":11600,"station_id":"ce4bh312rcd13ifvqdk0","pricing_plan_id":"cebpf4jnsgd1na2vs0mg"},{"bike_id":"a3929751-633a-4e5c-ae70-c2be5b95fdfe","system_id":"levelo_inurba_marseille","lat":43.29981,"lon":5.38503,"is_reserved":false,"is_disabled":true,"rental_uris":{"android":"levelo://app?vid=a3929751-633a-4e5c-ae70-c2be5b95fdfe","ios":"levelo://app?vid=a3929751-633a-4e5c-ae70-c2be5b95fdfe"},"vehicle_type_id":"4","last_reported":1743718125,"current_range_meters":11600,"station_id":"ce4bgj92rcd13ifvqbd0","pricing_plan_id":"cebpf4jnsgd1na2vs0mg"},{"bike_id":"a2cc56b1-ff5c-4d49-8794-6951d2d93f41","system_id":"levelo_inurba_marseille","lat":43.2394,"lon":5.36632,"is_reserved":false,"is_disabled":false,"rental_uris":{"android":"levelo://app?vid=a2cc56b1-ff5c-4d49-8794-6951d2d93f41","ios":"levelo://app?vid=a2cc56b1-ff5c-4d49-8794-6951d2d93f41"},"vehicle_type_id":"4","last_reported":1743718125,"current_range_meters":12000,"station_id":"ce4bhi12rcd13ifvqfp0","pricing_plan_id":"cebpf4jnsgd1na2vs0mg"},{"bike_id":"58ca22fb-77b9-4789-b9d9-7865abdbae86","system_id":"levelo_inurba_marseille","lat":43.28355,"lon":5.38113,"is_reserved":false,"is_disabled":false,"rental_uris":{"android":"levelo://app?vid=58ca22fb-77b9-4789-b9d9-7865abdbae86","ios":"levelo://app?vid=58ca22fb-77b9-4789-b9d9-7865abdbae86"},"vehicle_type_id":"4","last_reported":1743718125,"current_range_meters":12000,"station_id":"ce4bh412rcd13ifvqdr0","pricing_plan_id":"cebpf4jnsgd1na2vs0mg"},{"bike_id":"749cead4-1d11-4509-a1c7-f0f01f0c38dd","system_id":"levelo_inurba_marseille","lat":43.28334,"lon":5.38107,"is_reserved":false,"is_disabled":false,"rental_uris":{"android":"levelo://app?vid=749cead4-1d11-4509-a1c7-f0f01f0c38dd","ios":"levelo://app?vid=749cead4-1d11-4509-a1c7-f0f01f0c38dd"},"vehicle_type_id":"4","last_reported":1743718125,"current_range_meters":12000,"station_id":"ce4bh412rcd13ifvqdr0","pricing_plan_id":"cebpf4jnsgd1na2vs0mg"},{"bike_id":"2907afc2-01ac-4aec-9b08-c3a75d8347bc","system_id":"levelo_inurba_marseille","lat":43.2623,"lon":5.40465,"is_reserved":false,"is_disabled":false,"rental_uris":{"android":"levelo://app?vid=2907afc2-01ac-4aec-9b08-c3a75d8347bc","ios":"levelo://app?vid=2907afc2-01ac-4aec-9b08-c3a75d8347bc"},"vehicle_type_id":"4","last_reported":1743718125,"current_range_meters":12000,"station_id":"ce4bhmh2rcd13ifvqgmg","pricing_plan_id":"cebpf4jnsgd1na2vs0mg"},{"bike_id":"0f30dc72-745c-4206-bc59-afb6cb600956","system_id":"levelo_inurba_marseille","lat":43.2992,"lon":5.48554,"is_reserved":false,"is_disabled":false,"rental_uris":{"android":"levelo://app?vid=0f30dc72-745c-4206-bc59-afb6cb600956","ios":"levelo://app?vid=0f30dc72-745c-4206-bc59-afb6cb600956"},"vehicle_type_id":"4","last_reported":1743718125,"current_range_meters":12000,"station_id":"","pricing_plan_id":"cebpf4jnsgd1na2vs0mg"},{"bike_id":"dab153e1-9c72-4515-b5df-73a3071c1447","system_id":"levelo_inurba_marseille","lat":43.292731,"lon":5.368431,"is_reserved":false,"is_disabled":false,"rental_uris":{"android":"levelo://app?vid=dab153e1-9c72-4515-b5df-73a3071c1447","ios":"levelo://app?vid=dab153e1-9c72-4515-b5df-73a3071c1447"},"vehicle_type_id":"4","last_reported":1743718125,"current_range_meters":12000,"station_id":"ce4bgj92rcd13ifvqbe0","pricing_plan_id":"cebpf4jnsgd1na2vs0mg"},{"bike_id":"5fb05360-6c47-40d2-9566-842ae15b651f","system_id":"levelo_inurba_marseille","lat":43.31344,"lon":5.402405,"is_reserved":false,"is_disabled":false,"rental_uris":{"android":"levelo://app?vid=5fb05360-6c47-40d2-9566-842ae15b651f","ios":"levelo://app?vid=5fb05360-6c47-40d2-9566-842ae15b651f"},"vehicle_type_id":"4","last_reported":1743718125,"current_range_meters":12000,"station_id":"ce4bh012rcd13ifvqd00","pricing_plan_id":"cebpf4jnsgd1na2vs0mg"},{"bike_id":"f1e5f20d-e5bb-4349-9a72-f7ab8a004414","system_id":"levelo_inurba_marseille","lat":43.30336,"lon":5.40434,"is_reserved":false,"is_disabled":true,"rental_uris":{"android":"levelo://app?vid=f1e5f20d-e5bb-4349-9a72-f7ab8a004414","ios":"levelo://app?vid=f1e5f20d-e5bb-4349-9a72-f7ab8a004414"},"vehicle_type_id":"4","last_reported":1743718125,"current_range_meters":12000,"station_id":"ce4bh012rcd13ifvqd10","pricing_plan_id":"cebpf4jnsgd1na2vs0mg"},{"bike_id":"a0d78dc5-0522-43b9-90e0-a641910d4a98","system_id":"levelo_inurba_marseille","lat":43.28724,"lon":5.37922,"is_reserved":false,"is_disabled":false,"rental_uris":{"android":"levelo://app?vid=a0d78dc5-0522-43b9-90e0-a641910d4a98","ios":"levelo://app?vid=a0d78dc5-0522-43b9-90e0-a641910d4a98"},"vehicle_type_id":"4","last_reported":1743718125,"current_range_meters":12400,"station_id":"ce4bh9p2rcd13ifvqec0","pricing_plan_id":"cebpf4jnsgd1na2vs0mg"},{"bike_id":"c4eb33c8-4650-4540-a6c9-d0c299e72823","system_id":"levelo_inurba_marseille","lat":43.29895,"lon":5.4367,"is_reserved":false,"is_disabled":false,"rental_uris":{"android":"levelo://app?vid=c4eb33c8-4650-4540-a6c9-d0c299e72823","ios":"levelo://app?vid=c4eb33c8-4650-4540-a6c9-d0c299e72823"},"vehicle_type_id":"4","last_reported":1743718125,"current_range_meters":12400,"station_id":"ce4bhpp2rcd13ifvqhfg","pricing_plan_id":"cebpf4jnsgd1na2vs0mg"},{"bike_id":"077fb5c1-1a4a-429a-8e97-e1c6c7a3e4d9","system_id":"levelo_inurba_marseille","lat":43.30806,"lon":5.38157,"is_reserved":false,"is_disabled":false,"rental_uris":{"android":"levelo://app?vid=077fb5c1-1a4a-429a-8e97-e1c6c7a3e4d9","ios":"levelo://app?vid=077fb5c1-1a4a-429a-8e97-e1c6c7a3e4d9"},"vehicle_type_id":"4","last_reported":1743718125,"current_range_meters":12400,"station_id":"ce4bgt12rcd13ifvqce0","pricing_plan_id":"cebpf4jnsgd1na2vs0mg"},{"bike_id":"c306a5c5-7f53-49d4-abef-b10354726bdf","system_id":"levelo_inurba_marseille","lat":43.28705,"lon":5.39983,"is_reserved":false,"is_disabled":false,"rental_uris":{"android":"levelo://app?vid=c306a5c5-7f53-49d4-abef-b10354726bdf","ios":"levelo://app?vid=c306a5c5-7f53-49d4-abef-b10354726bdf"},"vehicle_type_id":"4","last_reported":1743718125,"current_range_meters":12400,"station_id":"ce4bho92rcd13ifvqh3g","pricing_plan_id":"cebpf4jnsgd1na2vs0mg"},{"bike_id":"19224d95-e048-4cbb-8884-43e0e6b3db9b","system_id":"levelo_inurba_marseille","lat":43.29883,"lon":5.39751,"is_reserved":false,"is_disabled":true,"rental_uris":{"android":"levelo://app?vid=19224d95-e048-4cbb-8884-43e0e6b3db9b","ios":"levelo://app?vid=19224d95-e048-4cbb-8884-43e0e6b3db9b"},"vehicle_type_id":"4","last_reported":1743718125,"current_range_meters":12400,"station_id":"ce4bh0h2rcd13ifvqd50","pricing_plan_id":"cebpf4jnsgd1na2vs0mg"},{"bike_id":"f0e77a2f-a06a-43be-9266-049ffb38b05c","system_id":"levelo_inurba_marseille","lat":43.29202,"lon":5.39296,"is_reserved":false,"is_disabled":false,"rental_uris":{"android":"levelo://app?vid=f0e77a2f-a06a-43be-9266-049ffb38b05c","ios":"levelo://app?vid=f0e77a2f-a06a-43be-9266-049ffb38b05c"},"vehicle_type_id":"4","last_reported":1743718125,"current_range_meters":12000,"station_id":"ce4bh192rcd13ifvqdd0","pricing_plan_id":"cebpf4jnsgd1na2vs0mg"},{"bike_id":"95d65fda-3062-4187-99f3-7125bc434c47","system_id":"levelo_inurba_marseille","lat":43.30551,"lon":5.38427,"is_reserved":false,"is_disabled":false,"rental_uris":{"android":"levelo://app?vid=95d65fda-3062-4187-99f3-7125bc434c47","ios":"levelo://app?vid=95d65fda-3062-4187-99f3-7125bc434c47"},"vehicle_type_id":"4","last_reported":1743718125,"current_range_meters":12400,"station_id":"ce4bgg92rcd13ifvqb30","pricing_plan_id":"cebpf4jnsgd1na2vs0mg"},{"bike_id":"6cf70fc4-4381-427a-93cd-2a8bd8f2f2e6","system_id":"levelo_inurba_marseille","lat":43.28453,"lon":5.35884,"is_reserved":false,"is_disabled":false,"rental_uris":{"android":"levelo://app?vid=6cf70fc4-4381-427a-93cd-2a8bd8f2f2e6","ios":"levelo://app?vid=6cf70fc4-4381-427a-93cd-2a8bd8f2f2e6"},"vehicle_type_id":"4","last_reported":1743718125,"current_range_meters":12400,"station_id":"ce4bhah2rcd13ifvqei0","pricing_plan_id":"cebpf4jnsgd1na2vs0mg"},{"bike_id":"65c86302-8ef0-46f4-ab6e-bac7149a2865","system_id":"levelo_inurba_marseille","lat":43.32114,"lon":5.36774,"is_reserved":false,"is_disabled":false,"rental_uris":{"android":"levelo://app?vid=65c86302-8ef0-46f4-ab6e-bac7149a2865","ios":"levelo://app?vid=65c86302-8ef0-46f4-ab6e-bac7149a2865"},"vehicle_type_id":"4","last_reported":1743718125,"current_range_meters":12400,"station_id":"ce4bhrh2rcd13ifvqhug","pricing_plan_id":"cebpf4jnsgd1na2vs0mg"},{"bike_id":"e1c4ecee-6faa-4175-802d-6c4439755824","system_id":"levelo_inurba_marseille","lat":43.27893,"lon":5.37998,"is_reserved":false,"is_disabled":false,"rental_uris":{"android":"levelo://app?vid=e1c4ecee-6faa-4175-802d-6c4439755824","ios":"levelo://app?vid=e1c4ecee-6faa-4175-802d-6c4439755824"},"vehicle_type_id":"4","last_reported":1743718125,"current_range_meters":12400,"station_id":"ce4bhf92rcd13ifvqf50","pricing_plan_id":"cebpf4jnsgd1na2vs0mg"},{"bike_id":"74a13a18-430a-4f50-ba26-e7dfbad23482","system_id":"levelo_inurba_marseille","lat":43.23068,"lon":5.35487,"is_reserved":false,"is_disabled":false,"rental_uris":{"android":"levelo://app?vid=74a13a18-430a-4f50-ba26-e7dfbad23482","ios":"levelo://app?vid=74a13a18-430a-4f50-ba26-e7dfbad23482"},"vehicle_type_id":"4","last_reported":1743718125,"current_range_meters":12400,"station_id":"cpo3342slgdg3j2ifvpg","pricing_plan_id":"cebpf4jnsgd1na2vs0mg"},{"bike_id":"9396f31d-e485-4f45-a818-9888089b5bb6","system_id":"levelo_inurba_marseille","lat":43.23205,"lon":5.35547,"is_reserved":false,"is_disabled":false,"rental_uris":{"android":"levelo://app?vid=9396f31d-e485-4f45-a818-9888089b5bb6","ios":"levelo://app?vid=9396f31d-e485-4f45-a818-9888089b5bb6"},"vehicle_type_id":"4","last_reported":1743718125,"current_range_meters":12400,"station_id":"ce4bhu92rcd13ifvqi70","pricing_plan_id":"cebpf4jnsgd1na2vs0mg"},{"bike_id":"758c2355-846a-4f3d-bcd8-eac4b3145cd6","system_id":"levelo_inurba_marseille","lat":43.23206,"lon":5.35627,"is_reserved":false,"is_disabled":false,"rental_uris":{"android":"levelo://app?vid=758c2355-846a-4f3d-bcd8-eac4b3145cd6","ios":"levelo://app?vid=758c2355-846a-4f3d-bcd8-eac4b3145cd6"},"vehicle_type_id":"4","last_reported":1743718125,"current_range_meters":12800,"station_id":"ce4bhu92rcd13ifvqi70","pricing_plan_id":"cebpf4jnsgd1na2vs0mg"},{"bike_id":"ed034283-1492-4da7-9409-35bdead80f30","system_id":"levelo_inurba_marseille","lat":43.30137,"lon":5.38776,"is_reserved":false,"is_disabled":true,"rental_uris":{"android":"levelo://app?vid=ed034283-1492-4da7-9409-35bdead80f30","ios":"levelo://app?vid=ed034283-1492-4da7-9409-35bdead80f30"},"vehicle_type_id":"4","last_reported":1743718125,"current_range_meters":12800,"station_id":"ce4bghh2rcd13ifvqb60","pricing_plan_id":"cebpf4jnsgd1na2vs0mg"},{"bike_id":"d4f10a8c-e63e-4a04-940c-dcfa76aac3c2","system_id":"levelo_inurba_marseille","lat":43.28414,"lon":5.37523,"is_reserved":false,"is_disabled":false,"rental_uris":{"android":"levelo://app?vid=d4f10a8c-e63e-4a04-940c-dcfa76aac3c2","ios":"levelo://app?vid=d4f10a8c-e63e-4a04-940c-dcfa76aac3c2"},"vehicle_type_id":"4","last_reported":1743718125,"current_range_meters":12800,"station_id":"ce4bh412rcd13ifvqds0","pricing_plan_id":"cebpf4jnsgd1na2vs0mg"},{"bike_id":"66c2c0a7-7a5f-4c50-82a3-05307676e3ea","system_id":"levelo_inurba_marseille","lat":43.30332,"lon":5.3688,"is_reserved":false,"is_disabled":false,"rental_uris":{"android":"levelo://app?vid=66c2c0a7-7a5f-4c50-82a3-05307676e3ea","ios":"levelo://app?vid=66c2c0a7-7a5f-4c50-82a3-05307676e3ea"},"vehicle_type_id":"4","last_reported":1743718125,"current_range_meters":12800,"station_id":"ce4bgqh2rcd13ifvqc5g","pricing_plan_id":"cebpf4jnsgd1na2vs0mg"},{"bike_id":"3a0b0f90-790c-4160-b50c-b4d5547d0490","system_id":"levelo_inurba_marseille","lat":43.30405,"lon":5.42452,"is_reserved":false,"is_disabled":false,"rental_uris":{"android":"levelo://app?vid=3a0b0f90-790c-4160-b50c-b4d5547d0490","ios":"levelo://app?vid=3a0b0f90-790c-4160-b50c-b4d5547d0490"},"vehicle_type_id":"4","last_reported":1743718125,"current_range_meters":13600,"station_id":"ce4bghh2rcd13ifvqb60","pricing_plan_id":"cebpf4jnsgd1na2vs0mg"},{"bike_id":"6bca0a29-b040-49bc-b07b-918965c53d85","system_id":"levelo_inurba_marseille","lat":43.28939,"lon":5.36388,"is_reserved":false,"is_disabled":false,"rental_uris":{"android":"levelo://app?vid=6bca0a29-b040-49bc-b07b-918965c53d85","ios":"levelo://app?vid=6bca0a29-b040-49bc-b07b-918965c53d85"},"vehicle_type_id":"4","last_reported":1743718125,"current_range_meters":13600,"station_id":"ce4bhc92rcd13ifvqetg","pricing_plan_id":"cebpf4jnsgd1na2vs0mg"},{"bike_id":"30e821e0-eeb0-4a3c-ac4b-a53a4e4eb90f","system_id":"levelo_inurba_marseille","lat":43.24083,"lon":5.37752,"is_reserved":false,"is_disabled":false,"rental_uris":{"android":"levelo://app?vid=30e821e0-eeb0-4a3c-ac4b-a53a4e4eb90f","ios":"levelo://app?vid=30e821e0-eeb0-4a3c-ac4b-a53a4e4eb90f"},"vehicle_type_id":"4","last_reported":1743718125,"current_range_meters":12800,"station_id":"ce4bhnp2rcd13ifvqgvg","pricing_plan_id":"cebpf4jnsgd1na2vs0mg"},{"bike_id":"dec04735-5055-4fbe-83da-7a8da24b9b92","system_id":"levelo_inurba_marseille","lat":43.28723,"lon":5.36084,"is_reserved":false,"is_disabled":false,"rental_uris":{"android":"levelo://app?vid=dec04735-5055-4fbe-83da-7a8da24b9b92","ios":"levelo://app?vid=dec04735-5055-4fbe-83da-7a8da24b9b92"},"vehicle_type_id":"4","last_reported":1743718125,"current_range_meters":12800,"station_id":"cki0cbj6b192h4jlfktg","pricing_plan_id":"cebpf4jnsgd1na2vs0mg"},{"bike_id":"da3649e0-2b6f-425e-ac75-d70497e5c37e","system_id":"levelo_inurba_marseille","lat":43.29637,"lon":5.40631,"is_reserved":false,"is_disabled":false,"rental_uris":{"android":"levelo://app?vid=da3649e0-2b6f-425e-ac75-d70497e5c37e","ios":"levelo://app?vid=da3649e0-2b6f-425e-ac75-d70497e5c37e"},"vehicle_type_id":"4","last_reported":1743718125,"current_range_meters":13600,"station_id":"ce4bh0h2rcd13ifvqd60","pricing_plan_id":"cebpf4jnsgd1na2vs0mg"},{"bike_id":"fb348b09-6abb-47a4-a266-91f2eeaee291","system_id":"levelo_inurba_marseille","lat":43.32115,"lon":5.36773,"is_reserved":false,"is_disabled":false,"rental_uris":{"android":"levelo://app?vid=fb348b09-6abb-47a4-a266-91f2eeaee291","ios":"levelo://app?vid=fb348b09-6abb-47a4-a266-91f2eeaee291"},"vehicle_type_id":"4","last_reported":1743718125,"current_range_meters":14000,"station_id":"ce4bhrh2rcd13ifvqhug","pricing_plan_id":"cebpf4jnsgd1na2vs0mg"},{"bike_id":"880a2ca1-013b-4838-92d2-98d3f54434e1","system_id":"levelo_inurba_marseille","lat":43.26782,"lon":5.39419,"is_reserved":false,"is_disabled":true,"rental_uris":{"android":"levelo://app?vid=880a2ca1-013b-4838-92d2-98d3f54434e1","ios":"levelo://app?vid=880a2ca1-013b-4838-92d2-98d3f54434e1"},"vehicle_type_id":"4","last_reported":1743718125,"current_range_meters":14000,"station_id":"ce4bhh12rcd13ifvqfg0","pricing_plan_id":"cebpf4jnsgd1na2vs0mg"},{"bike_id":"600bca3d-84c8-4f60-8b1f-644d43689b87","system_id":"levelo_inurba_marseille","lat":43.2871,"lon":5.37383,"is_reserved":false,"is_disabled":false,"rental_uris":{"android":"levelo://app?vid=600bca3d-84c8-4f60-8b1f-644d43689b87","ios":"levelo://app?vid=600bca3d-84c8-4f60-8b1f-644d43689b87"},"vehicle_type_id":"4","last_reported":1743718125,"current_range_meters":14000,"station_id":"ce4bh3p2rcd13ifvqdq0","pricing_plan_id":"cebpf4jnsgd1na2vs0mg"},{"bike_id":"c4e5b13a-dcda-49a8-8f79-7a1067389736","system_id":"levelo_inurba_marseille","lat":43.28338,"lon":5.38098,"is_reserved":false,"is_disabled":false,"rental_uris":{"android":"levelo://app?vid=c4e5b13a-dcda-49a8-8f79-7a1067389736","ios":"levelo://app?vid=c4e5b13a-dcda-49a8-8f79-7a1067389736"},"vehicle_type_id":"4","last_reported":1743718125,"current_range_meters":14000,"station_id":"ce4bh412rcd13ifvqdr0","pricing_plan_id":"cebpf4jnsgd1na2vs0mg"},{"bike_id":"bd1c6b46-4ab6-49fb-9282-e990dea0e8f6","system_id":"levelo_inurba_marseille","lat":43.31764,"lon":5.39025,"is_reserved":false,"is_disabled":false,"rental_uris":{"android":"levelo://app?vid=bd1c6b46-4ab6-49fb-9282-e990dea0e8f6","ios":"levelo://app?vid=bd1c6b46-4ab6-49fb-9282-e990dea0e8f6"},"vehicle_type_id":"4","last_reported":1743718125,"current_range_meters":14000,"station_id":"ce4bhqp2rcd13ifvqhng","pricing_plan_id":"cebpf4jnsgd1na2vs0mg"},{"bike_id":"8357a04c-a6ab-43c0-8732-2e79a23e3c2a","system_id":"levelo_inurba_marseille","lat":43.30798,"lon":5.4352,"is_reserved":false,"is_disabled":false,"rental_uris":{"android":"levelo://app?vid=8357a04c-a6ab-43c0-8732-2e79a23e3c2a","ios":"levelo://app?vid=8357a04c-a6ab-43c0-8732-2e79a23e3c2a"},"vehicle_type_id":"4","last_reported":1743718125,"current_range_meters":14000,"station_id":"ce4bhph2rcd13ifvqheg","pricing_plan_id":"cebpf4jnsgd1na2vs0mg"},{"bike_id":"81f4fa39-fcae-4eb6-936b-4c640b5dd88e","system_id":"levelo_inurba_marseille","lat":43.23955,"lon":5.36639,"is_reserved":false,"is_disabled":false,"rental_uris":{"android":"levelo://app?vid=81f4fa39-fcae-4eb6-936b-4c640b5dd88e","ios":"levelo://app?vid=81f4fa39-fcae-4eb6-936b-4c640b5dd88e"},"vehicle_type_id":"4","last_reported":1743718125,"current_range_meters":14000,"station_id":"ce4bhi12rcd13ifvqfp0","pricing_plan_id":"cebpf4jnsgd1na2vs0mg"},{"bike_id":"aab85d2a-da53-45c7-ae9c-554ffa706d4a","system_id":"levelo_inurba_marseille","lat":43.28411,"lon":5.37523,"is_reserved":false,"is_disabled":false,"rental_uris":{"android":"levelo://app?vid=aab85d2a-da53-45c7-ae9c-554ffa706d4a","ios":"levelo://app?vid=aab85d2a-da53-45c7-ae9c-554ffa706d4a"},"vehicle_type_id":"4","last_reported":1743718125,"current_range_meters":14000,"station_id":"ce4bh412rcd13ifvqds0","pricing_plan_id":"cebpf4jnsgd1na2vs0mg"},{"bike_id":"69d96eab-d655-4e71-80af-adf26a43bf2a","system_id":"levelo_inurba_marseille","lat":43.28354,"lon":5.38111,"is_reserved":false,"is_disabled":false,"rental_uris":{"android":"levelo://app?vid=69d96eab-d655-4e71-80af-adf26a43bf2a","ios":"levelo://app?vid=69d96eab-d655-4e71-80af-adf26a43bf2a"},"vehicle_type_id":"4","last_reported":1743718125,"current_range_meters":14000,"station_id":"ce4bh412rcd13ifvqdr0","pricing_plan_id":"cebpf4jnsgd1na2vs0mg"},{"bike_id":"73e51c7c-7f25-4f43-ace4-67f590194031","system_id":"levelo_inurba_marseille","lat":43.29082,"lon":5.38137,"is_reserved":false,"is_disabled":false,"rental_uris":{"android":"levelo://app?vid=73e51c7c-7f25-4f43-ace4-67f590194031","ios":"levelo://app?vid=73e51c7c-7f25-4f43-ace4-67f590194031"},"vehicle_type_id":"4","last_reported":1743718125,"current_range_meters":10800,"station_id":"ce4bh512rcd13ifvqe2g","pricing_plan_id":"cebpf4jnsgd1na2vs0mg"},{"bike_id":"b4ce858d-504b-418b-ad13-9ea7fadc2068","system_id":"levelo_inurba_marseille","lat":43.28573,"lon":5.39514,"is_reserved":false,"is_disabled":false,"rental_uris":{"android":"levelo://app?vid=b4ce858d-504b-418b-ad13-9ea7fadc2068","ios":"levelo://app?vid=b4ce858d-504b-418b-ad13-9ea7fadc2068"},"vehicle_type_id":"4","last_reported":1743718125,"current_range_meters":14400,"station_id":"ce4bh292rcd13ifvqdg0","pricing_plan_id":"cebpf4jnsgd1na2vs0mg"},{"bike_id":"cc816832-e65b-406e-8bbe-a56fe5128c57","system_id":"levelo_inurba_marseille","lat":43.32988,"lon":5.39053,"is_reserved":false,"is_disabled":false,"rental_uris":{"android":"levelo://app?vid=cc816832-e65b-406e-8bbe-a56fe5128c57","ios":"levelo://app?vid=cc816832-e65b-406e-8bbe-a56fe5128c57"},"vehicle_type_id":"4","last_reported":1743718125,"current_range_meters":14400,"station_id":"ce4bhr92rcd13ifvqhrg","pricing_plan_id":"cebpf4jnsgd1na2vs0mg"},{"bike_id":"cd9ae2e0-5f0d-46fc-8613-7e21ab3c80c6","system_id":"levelo_inurba_marseille","lat":43.28694,"lon":5.37387,"is_reserved":false,"is_disabled":false,"rental_uris":{"android":"levelo://app?vid=cd9ae2e0-5f0d-46fc-8613-7e21ab3c80c6","ios":"levelo://app?vid=cd9ae2e0-5f0d-46fc-8613-7e21ab3c80c6"},"vehicle_type_id":"4","last_reported":1743718125,"current_range_meters":14400,"station_id":"ce4bh3p2rcd13ifvqdq0","pricing_plan_id":"cebpf4jnsgd1na2vs0mg"},{"bike_id":"95401442-a1a5-4d01-b9f6-b43024d94496","system_id":"levelo_inurba_marseille","lat":43.30422,"lon":5.38891,"is_reserved":false,"is_disabled":false,"rental_uris":{"android":"levelo://app?vid=95401442-a1a5-4d01-b9f6-b43024d94496","ios":"levelo://app?vid=95401442-a1a5-4d01-b9f6-b43024d94496"},"vehicle_type_id":"4","last_reported":1743718125,"current_range_meters":14400,"station_id":"ce4bgk12rcd13ifvqbi0","pricing_plan_id":"cebpf4jnsgd1na2vs0mg"},{"bike_id":"c5db4479-0ea3-46f0-aa1b-be09153a04f5","system_id":"levelo_inurba_marseille","lat":43.28719,"lon":5.36083,"is_reserved":false,"is_disabled":false,"rental_uris":{"android":"levelo://app?vid=c5db4479-0ea3-46f0-aa1b-be09153a04f5","ios":"levelo://app?vid=c5db4479-0ea3-46f0-aa1b-be09153a04f5"},"vehicle_type_id":"4","last_reported":1743718125,"current_range_meters":14400,"station_id":"cki0cbj6b192h4jlfktg","pricing_plan_id":"cebpf4jnsgd1na2vs0mg"},{"bike_id":"73e64a3a-6251-48b5-9308-5ebee8b59ab9","system_id":"levelo_inurba_marseille","lat":43.2992,"lon":5.37473,"is_reserved":false,"is_disabled":false,"rental_uris":{"android":"levelo://app?vid=73e64a3a-6251-48b5-9308-5ebee8b59ab9","ios":"levelo://app?vid=73e64a3a-6251-48b5-9308-5ebee8b59ab9"},"vehicle_type_id":"4","last_reported":1743718125,"current_range_meters":14000,"station_id":"ce4bgjh2rcd13ifvqbg0","pricing_plan_id":"cebpf4jnsgd1na2vs0mg"},{"bike_id":"f320bcfd-d3a7-4746-b26f-e416beaa874d","system_id":"levelo_inurba_marseille","lat":43.31525,"lon":5.38045,"is_reserved":false,"is_disabled":false,"rental_uris":{"android":"levelo://app?vid=f320bcfd-d3a7-4746-b26f-e416beaa874d","ios":"levelo://app?vid=f320bcfd-d3a7-4746-b26f-e416beaa874d"},"vehicle_type_id":"4","last_reported":1743718125,"current_range_meters":14400,"station_id":"ce4bhsp2rcd13ifvqi50","pricing_plan_id":"cebpf4jnsgd1na2vs0mg"},{"bike_id":"20880086-e9f3-4f88-a58d-d5598ff76a19","system_id":"levelo_inurba_marseille","lat":43.2956,"lon":5.42284,"is_reserved":false,"is_disabled":false,"rental_uris":{"android":"levelo://app?vid=20880086-e9f3-4f88-a58d-d5598ff76a19","ios":"levelo://app?vid=20880086-e9f3-4f88-a58d-d5598ff76a19"},"vehicle_type_id":"4","last_reported":1743718125,"current_range_meters":14400,"station_id":"ce4bhph2rcd13ifvqhdg","pricing_plan_id":"cebpf4jnsgd1na2vs0mg"},{"bike_id":"72fd48d9-88cb-4944-b105-1efff245f1ff","system_id":"levelo_inurba_marseille","lat":43.28459,"lon":5.39183,"is_reserved":false,"is_disabled":true,"rental_uris":{"android":"levelo://app?vid=72fd48d9-88cb-4944-b105-1efff245f1ff","ios":"levelo://app?vid=72fd48d9-88cb-4944-b105-1efff245f1ff"},"vehicle_type_id":"4","last_reported":1743718125,"current_range_meters":14800,"station_id":"ce4bhoh2rcd13ifvqh5g","pricing_plan_id":"cebpf4jnsgd1na2vs0mg"},{"bike_id":"93c4d539-5a26-452d-932b-a9b403a887d2","system_id":"levelo_inurba_marseille","lat":43.29914,"lon":5.38098,"is_reserved":false,"is_disabled":true,"rental_uris":{"android":"levelo://app?vid=93c4d539-5a26-452d-932b-a9b403a887d2","ios":"levelo://app?vid=93c4d539-5a26-452d-932b-a9b403a887d2"},"vehicle_type_id":"4","last_reported":1743718125,"current_range_meters":14800,"station_id":"ce4bgj12rcd13ifvqbc0","pricing_plan_id":"cebpf4jnsgd1na2vs0mg"},{"bike_id":"988930ae-cf6e-4cc6-a663-6be8d5a86333","system_id":"levelo_inurba_marseille","lat":43.32115,"lon":5.36797,"is_reserved":false,"is_disabled":false,"rental_uris":{"android":"levelo://app?vid=988930ae-cf6e-4cc6-a663-6be8d5a86333","ios":"levelo://app?vid=988930ae-cf6e-4cc6-a663-6be8d5a86333"},"vehicle_type_id":"4","last_reported":1743718125,"current_range_meters":14800,"station_id":"ce4bhrh2rcd13ifvqhug","pricing_plan_id":"cebpf4jnsgd1na2vs0mg"},{"bike_id":"1819d911-c755-4c58-809b-6148ce5e2cb9","system_id":"levelo_inurba_marseille","lat":43.30219,"lon":5.39472,"is_reserved":false,"is_disabled":false,"rental_uris":{"android":"levelo://app?vid=1819d911-c755-4c58-809b-6148ce5e2cb9","ios":"levelo://app?vid=1819d911-c755-4c58-809b-6148ce5e2cb9"},"vehicle_type_id":"4","last_reported":1743718125,"current_range_meters":14800,"station_id":"ce4bh0p2rcd13ifvqd70","pricing_plan_id":"cebpf4jnsgd1na2vs0mg"},{"bike_id":"8f689b90-27c5-4d21-ae3d-93d4a9452e5b","system_id":"levelo_inurba_marseille","lat":43.27974,"lon":5.41057,"is_reserved":false,"is_disabled":false,"rental_uris":{"android":"levelo://app?vid=8f689b90-27c5-4d21-ae3d-93d4a9452e5b","ios":"levelo://app?vid=8f689b90-27c5-4d21-ae3d-93d4a9452e5b"},"vehicle_type_id":"4","last_reported":1743718125,"current_range_meters":14800,"station_id":"ce4bhnp2rcd13ifvqh0g","pricing_plan_id":"cebpf4jnsgd1na2vs0mg"},{"bike_id":"d611c285-e231-4710-a27e-55004fc8766c","system_id":"levelo_inurba_marseille","lat":43.31719,"lon":5.43706,"is_reserved":false,"is_disabled":false,"rental_uris":{"android":"levelo://app?vid=d611c285-e231-4710-a27e-55004fc8766c","ios":"levelo://app?vid=d611c285-e231-4710-a27e-55004fc8766c"},"vehicle_type_id":"4","last_reported":1743718125,"current_range_meters":14400,"station_id":"ce4bhp92rcd13ifvqhcg","pricing_plan_id":"cebpf4jnsgd1na2vs0mg"},{"bike_id":"90a1b927-1402-4fc8-8c0c-a3c0e3db2b80","system_id":"levelo_inurba_marseille","lat":43.31893,"lon":5.40734,"is_reserved":false,"is_disabled":false,"rental_uris":{"android":"levelo://app?vid=90a1b927-1402-4fc8-8c0c-a3c0e3db2b80","ios":"levelo://app?vid=90a1b927-1402-4fc8-8c0c-a3c0e3db2b80"},"vehicle_type_id":"4","last_reported":1743718125,"current_range_meters":14800,"station_id":"ce4bhq12rcd13ifvqhig","pricing_plan_id":"cebpf4jnsgd1na2vs0mg"},{"bike_id":"4621ad45-29bf-48cb-8077-88f2e1f7279f","system_id":"levelo_inurba_marseille","lat":43.23192,"lon":5.35552,"is_reserved":false,"is_disabled":false,"rental_uris":{"android":"levelo://app?vid=4621ad45-29bf-48cb-8077-88f2e1f7279f","ios":"levelo://app?vid=4621ad45-29bf-48cb-8077-88f2e1f7279f"},"vehicle_type_id":"4","last_reported":1743718125,"current_range_meters":15200,"station_id":"ce4bhu92rcd13ifvqi70","pricing_plan_id":"cebpf4jnsgd1na2vs0mg"},{"bike_id":"fe077144-96f1-4287-8fc2-095b4530b37b","system_id":"levelo_inurba_marseille","lat":43.29882,"lon":5.38904,"is_reserved":false,"is_disabled":false,"rental_uris":{"android":"levelo://app?vid=fe077144-96f1-4287-8fc2-095b4530b37b","ios":"levelo://app?vid=fe077144-96f1-4287-8fc2-095b4530b37b"},"vehicle_type_id":"4","last_reported":1743718125,"current_range_meters":15200,"station_id":"ce4bh392rcd13ifvqdl0","pricing_plan_id":"cebpf4jnsgd1na2vs0mg"},{"bike_id":"0fb9da56-4e09-4393-af65-b3bfc921b0fd","system_id":"levelo_inurba_marseille","lat":43.28339,"lon":5.38119,"is_reserved":false,"is_disabled":false,"rental_uris":{"android":"levelo://app?vid=0fb9da56-4e09-4393-af65-b3bfc921b0fd","ios":"levelo://app?vid=0fb9da56-4e09-4393-af65-b3bfc921b0fd"},"vehicle_type_id":"4","last_reported":1743718125,"current_range_meters":15200,"station_id":"ce4bh412rcd13ifvqdr0","pricing_plan_id":"cebpf4jnsgd1na2vs0mg"},{"bike_id":"9c1fa935-2e8f-41f5-890c-7e38faedf91a","system_id":"levelo_inurba_marseille","lat":43.29872,"lon":5.3891,"is_reserved":false,"is_disabled":false,"rental_uris":{"android":"levelo://app?vid=9c1fa935-2e8f-41f5-890c-7e38faedf91a","ios":"levelo://app?vid=9c1fa935-2e8f-41f5-890c-7e38faedf91a"},"vehicle_type_id":"4","last_reported":1743718125,"current_range_meters":15200,"station_id":"ce4bh392rcd13ifvqdl0","pricing_plan_id":"cebpf4jnsgd1na2vs0mg"},{"bike_id":"1b07f5d0-df62-4495-a42c-4a12cca8ef22","system_id":"levelo_inurba_marseille","lat":43.30248,"lon":5.40074,"is_reserved":false,"is_disabled":true,"rental_uris":{"android":"levelo://app?vid=1b07f5d0-df62-4495-a42c-4a12cca8ef22","ios":"levelo://app?vid=1b07f5d0-df62-4495-a42c-4a12cca8ef22"},"vehicle_type_id":"4","last_reported":1743718125,"current_range_meters":15200,"station_id":"ce4bgvh2rcd13ifvqcs0","pricing_plan_id":"cebpf4jnsgd1na2vs0mg"},{"bike_id":"14fd7609-1d3b-4881-a49f-82047f8b79cc","system_id":"levelo_inurba_marseille","lat":43.29793,"lon":5.40366,"is_reserved":false,"is_disabled":false,"rental_uris":{"android":"levelo://app?vid=14fd7609-1d3b-4881-a49f-82047f8b79cc","ios":"levelo://app?vid=14fd7609-1d3b-4881-a49f-82047f8b79cc"},"vehicle_type_id":"4","last_reported":1743718125,"current_range_meters":15200,"station_id":"ce4bh112rcd13ifvqd90","pricing_plan_id":"cebpf4jnsgd1na2vs0mg"},{"bike_id":"6ed8edba-d95b-4cee-9a4d-61be5b2def52","system_id":"levelo_inurba_marseille","lat":43.29557,"lon":5.4228,"is_reserved":false,"is_disabled":false,"rental_uris":{"android":"levelo://app?vid=6ed8edba-d95b-4cee-9a4d-61be5b2def52","ios":"levelo://app?vid=6ed8edba-d95b-4cee-9a4d-61be5b2def52"},"vehicle_type_id":"4","last_reported":1743718125,"current_range_meters":15200,"station_id":"ce4bhph2rcd13ifvqhdg","pricing_plan_id":"cebpf4jnsgd1na2vs0mg"},{"bike_id":"46e40aa5-72ae-444f-9358-a676d369a477","system_id":"levelo_inurba_marseille","lat":43.33028,"lon":5.43801,"is_reserved":false,"is_disabled":false,"rental_uris":{"android":"levelo://app?vid=46e40aa5-72ae-444f-9358-a676d369a477","ios":"levelo://app?vid=46e40aa5-72ae-444f-9358-a676d369a477"},"vehicle_type_id":"4","last_reported":1743718125,"current_range_meters":15200,"station_id":"","pricing_plan_id":"cebpf4jnsgd1na2vs0mg"},{"bike_id":"aedc5b1f-732b-487a-b512-4b2f211caf36","system_id":"levelo_inurba_marseille","lat":43.26683,"lon":5.382773,"is_reserved":false,"is_disabled":true,"rental_uris":{"android":"levelo://app?vid=aedc5b1f-732b-487a-b512-4b2f211caf36","ios":"levelo://app?vid=aedc5b1f-732b-487a-b512-4b2f211caf36"},"vehicle_type_id":"4","last_reported":1743718125,"current_range_meters":15200,"station_id":"ce4bhg92rcd13ifvqf90","pricing_plan_id":"cebpf4jnsgd1na2vs0mg"},{"bike_id":"73bb4328-7098-425c-b186-b7daff9629ca","system_id":"levelo_inurba_marseille","lat":43.28746,"lon":5.44872,"is_reserved":false,"is_disabled":false,"rental_uris":{"android":"levelo://app?vid=73bb4328-7098-425c-b186-b7daff9629ca","ios":"levelo://app?vid=73bb4328-7098-425c-b186-b7daff9629ca"},"vehicle_type_id":"4","last_reported":1743718125,"current_range_meters":15200,"station_id":"","pricing_plan_id":"cebpf4jnsgd1na2vs0mg"},{"bike_id":"2a5a0eb4-e4d2-4d18-9df5-d887303d5dc5","system_id":"levelo_inurba_marseille","lat":43.23963,"lon":5.36629,"is_reserved":false,"is_disabled":false,"rental_uris":{"android":"levelo://app?vid=2a5a0eb4-e4d2-4d18-9df5-d887303d5dc5","ios":"levelo://app?vid=2a5a0eb4-e4d2-4d18-9df5-d887303d5dc5"},"vehicle_type_id":"4","last_reported":1743718125,"current_range_meters":15200,"station_id":"ce4bhi12rcd13ifvqfp0","pricing_plan_id":"cebpf4jnsgd1na2vs0mg"},{"bike_id":"4caff8e0-340c-490f-8a5a-b26f15704f76","system_id":"levelo_inurba_marseille","lat":43.28569,"lon":5.38422,"is_reserved":false,"is_disabled":false,"rental_uris":{"android":"levelo://app?vid=4caff8e0-340c-490f-8a5a-b26f15704f76","ios":"levelo://app?vid=4caff8e0-340c-490f-8a5a-b26f15704f76"},"vehicle_type_id":"4","last_reported":1743718125,"current_range_meters":16000,"station_id":"","pricing_plan_id":"cebpf4jnsgd1na2vs0mg"},{"bike_id":"6fc08bb1-d85f-41e3-8e58-73f049c2866e","system_id":"levelo_inurba_marseille","lat":43.28941,"lon":5.39629,"is_reserved":false,"is_disabled":false,"rental_uris":{"android":"levelo://app?vid=6fc08bb1-d85f-41e3-8e58-73f049c2866e","ios":"levelo://app?vid=6fc08bb1-d85f-41e3-8e58-73f049c2866e"},"vehicle_type_id":"4","last_reported":1743718125,"current_range_meters":16000,"station_id":"ce4bh3h2rcd13ifvqdn0","pricing_plan_id":"cebpf4jnsgd1na2vs0mg"},{"bike_id":"c9ab5bfd-fa91-4b45-8fa2-52813c43fa45","system_id":"levelo_inurba_marseille","lat":43.23064,"lon":5.35507,"is_reserved":false,"is_disabled":false,"rental_uris":{"android":"levelo://app?vid=c9ab5bfd-fa91-4b45-8fa2-52813c43fa45","ios":"levelo://app?vid=c9ab5bfd-fa91-4b45-8fa2-52813c43fa45"},"vehicle_type_id":"4","last_reported":1743718125,"current_range_meters":16000,"station_id":"cpo3342slgdg3j2ifvpg","pricing_plan_id":"cebpf4jnsgd1na2vs0mg"},{"bike_id":"5a8f5ee5-69ef-4467-a713-2b1a8a882f99","system_id":"levelo_inurba_marseille","lat":43.29608,"lon":5.37699,"is_reserved":false,"is_disabled":true,"rental_uris":{"android":"levelo://app?vid=5a8f5ee5-69ef-4467-a713-2b1a8a882f99","ios":"levelo://app?vid=5a8f5ee5-69ef-4467-a713-2b1a8a882f99"},"vehicle_type_id":"4","last_reported":1743718125,"current_range_meters":16000,"station_id":"ce4bgi92rcd13ifvqb90","pricing_plan_id":"cebpf4jnsgd1na2vs0mg"},{"bike_id":"23cfe91d-5a2e-48e1-9f45-86b673c220ae","system_id":"levelo_inurba_marseille","lat":43.28929,"lon":5.3642,"is_reserved":false,"is_disabled":false,"rental_uris":{"android":"levelo://app?vid=23cfe91d-5a2e-48e1-9f45-86b673c220ae","ios":"levelo://app?vid=23cfe91d-5a2e-48e1-9f45-86b673c220ae"},"vehicle_type_id":"4","last_reported":1743718125,"current_range_meters":16000,"station_id":"ce4bhc92rcd13ifvqetg","pricing_plan_id":"cebpf4jnsgd1na2vs0mg"},{"bike_id":"97670a55-8f64-4dc2-9248-309693759def","system_id":"levelo_inurba_marseille","lat":43.26559,"lon":5.39013,"is_reserved":false,"is_disabled":false,"rental_uris":{"android":"levelo://app?vid=97670a55-8f64-4dc2-9248-309693759def","ios":"levelo://app?vid=97670a55-8f64-4dc2-9248-309693759def"},"vehicle_type_id":"4","last_reported":1743718125,"current_range_meters":16000,"station_id":"ce4bhe12rcd13ifvqf30","pricing_plan_id":"cebpf4jnsgd1na2vs0mg"},{"bike_id":"36623a16-d5cc-45e1-a6df-551246f18b1b","system_id":"levelo_inurba_marseille","lat":43.30875,"lon":5.39637,"is_reserved":false,"is_disabled":false,"rental_uris":{"android":"levelo://app?vid=36623a16-d5cc-45e1-a6df-551246f18b1b","ios":"levelo://app?vid=36623a16-d5cc-45e1-a6df-551246f18b1b"},"vehicle_type_id":"4","last_reported":1743718125,"current_range_meters":16000,"station_id":"ce4bh012rcd13ifvqcv0","pricing_plan_id":"cebpf4jnsgd1na2vs0mg"},{"bike_id":"4d24834d-fe19-450f-a44f-80f05a555ede","system_id":"levelo_inurba_marseille","lat":43.29888,"lon":5.38929,"is_reserved":false,"is_disabled":false,"rental_uris":{"android":"levelo://app?vid=4d24834d-fe19-450f-a44f-80f05a555ede","ios":"levelo://app?vid=4d24834d-fe19-450f-a44f-80f05a555ede"},"vehicle_type_id":"4","last_reported":1743718125,"current_range_meters":15200,"station_id":"ce4bh392rcd13ifvqdl0","pricing_plan_id":"cebpf4jnsgd1na2vs0mg"},{"bike_id":"3da40772-abd3-4427-abc4-e9c2d5e55a61","system_id":"levelo_inurba_marseille","lat":43.29269,"lon":5.40916,"is_reserved":false,"is_disabled":false,"rental_uris":{"android":"levelo://app?vid=3da40772-abd3-4427-abc4-e9c2d5e55a61","ios":"levelo://app?vid=3da40772-abd3-4427-abc4-e9c2d5e55a61"},"vehicle_type_id":"4","last_reported":1743718125,"current_range_meters":16000,"station_id":"ce4bh192rcd13ifvqdc0","pricing_plan_id":"cebpf4jnsgd1na2vs0mg"},