{"last_updated":1762085883,"ttl":60,"version":"2.2","data":{"bikes":[{"bike_id":"ac5b2824-d3ce-4324-8fac-289a178421e7","system_id":"levelo_inurba_marseille","lat":43.31004,"lon":5.38298,"is_reserved":false,"is_disabled":false,"rental_uris":{"android":"levelo://app?vid=ac5b2824-d3ce-4324-8fac-289a178421e7","ios":"levelo://app?vid=ac5b2824-d3ce-4324-8fac-289a178421e7"},"vehicle_type_id":"4","last_reported":1762085883,"current_range_meters":2800,"station_id":"","pricing_plan_id":"cebpf4jnsgd1na2vs0mg"},{"bike_id":"893a9976-867f-4ec1-be82-4fbd94bb7dbb","system_id":"levelo_inurba_marseille","lat":43.291976,"lon":5.393285,"is_reserved":false,"is_disabled":false,"rental_uris":{"android":"levelo://app?vid=893a9976-867f-4ec1-be82-4fbd94bb7dbb","ios":"levelo://app?vid=893a9976-867f-4ec1-be82-4fbd94bb7dbb"},"vehicle_type_id":"4","last_reported":1762085883,"current_range_meters":2800,"station_id":"ce4bh192rcd13ifvqdd0","pricing_plan_id":"cebpf4jnsgd1na2vs0mg"},{"bike_id":"e7e89b88-2bc8-427d-a592-08a8c399ee3e","system_id":"levelo_inurba_marseille","lat":43.29262,"lon":5.38447,"is_reserved":false,"is_disabled":false,"rental_uris":{"android":"levelo://app?vid=e7e89b88-2bc8-427d-a592-08a8c399ee3e","ios":"levelo://app?vid=e7e89b88-2bc8-427d-a592-08a8c399ee3e"},"vehicle_type_id":"4","last_reported":1762085883,"current_range_meters":2800,"station_id":"ce4bh692rcd13ifvqea0","pricing_plan_id":"cebpf4jnsgd1na2vs0mg"},{"bike_id":"ad9109f0-a47b-41ab-9a71-455a6b341dfc","system_id":"levelo_inurba_marseille","lat":43.28477,"lon":5.48398,"is_reserved":false,"is_disabled":false,"rental_uris":{"android":"levelo://app?vid=ad9109f0-a47b-41ab-9a71-455a6b341dfc","ios":"levelo://app?vid=ad9109f0-a47b-41ab-9a71-455a6b341dfc"},"vehicle_type_id":"4","last_reported":1762085883,"current_range_meters":3200,"station_id":"st_d3svhcjqgbts73a3dn0g","pricing_plan_id":"cebpf4jnsgd1na2vs0mg"},{"bike_id":"4ae82769-2f9e-4c25-a073-dec417896630","system_id":"levelo_inurba_marseille","lat":43.22562,"lon":5.4163,"is_reserved":false,"is_disabled":false,"rental_uris":{"android":"levelo://app?vid=4ae82769-2f9e-4c25-a073-dec417896630","ios":"levelo://app?vid=4ae82769-2f9e-4c25-a073-dec417896630"},"vehicle_type_id":"4","last_reported":1762085883,"current_range_meters":3200,"station_id":"st_d2o4gvlbi1j2169b742g","pricing_plan_id":"cebpf4jnsgd1na2vs0mg"},{"bike_id":"e1196ee9-9c25-4674-a5fe-d3b7ddaa8e88","system_id":"levelo_inurba_marseille","lat":43.2257,"lon":5.41655,"is_reserved":false,"is_disabled":false,"rental_uris":{"android":"levelo://app?vid=e1196ee9-9c25-4674-a5fe-d3b7ddaa8e88","ios":"levelo://app?vid=e1196ee9-9c25-4674-a5fe-d3b7ddaa8e88"},"vehicle_type_id":"4","last_reported":1762085883,"current_range_meters":3600,"station_id":"st_d2o4gvlbi1j2169b742g","pricing_plan_id":"cebpf4jnsgd1na2vs0mg"},{"bike_id":"4a7dc079-d6f4-4c6e-9dff-899cae0a6aa3","system_id":"levelo_inurba_marseille","lat":43.26552,"lon":5.372826,"is_reserved":false,"is_disabled":false,"rental_uris":{"android":"levelo://app?vid=4a7dc079-d6f4-4c6e-9dff-899cae0a6aa3","ios":"levelo://app?vid=4a7dc079-d6f4-4c6e-9dff-899cae0a6aa3"},"vehicle_type_id":"4","last_reported":1762085883,"current_range_meters":4000,"station_id":"ce4bhg12rcd13ifvqf70","pricing_plan_id":"cebpf4jnsgd1na2vs0mg"},{"bike_id":"5874dee6-53e8-4284-abe6-9531a4dd2a6f","system_id":"levelo_inurba_marseille","lat":43.29618,"lon":5.37163,"is_reserved":false,"is_disabled":false,"rental_uris":{"android":"levelo://app?vid=5874dee6-53e8-4284-abe6-9531a4dd2a6f","ios":"levelo://app?vid=5874dee6-53e8-4284-abe6-9531a4dd2a6f"},"vehicle_type_id":"4","last_reported":1762085883,"current_range_meters":4000,"station_id":"ce4bgnh2rcd13ifvqc0g","pricing_plan_id":"cebpf4jnsgd1na2vs0mg"},{"bike_id":"1f76e402-4f2f-4f24-9b99-dfe49feb1f7c","system_id":"levelo_inurba_marseille","lat":43.25584,"lon":5.38223,"is_reserved":false,"is_disabled":false,"rental_uris":{"android":"levelo://app?vid=1f76e402-4f2f-4f24-9b99-dfe49feb1f7c","ios":"levelo://app?vid=1f76e402-4f2f-4f24-9b99-dfe49feb1f7c"},"vehicle_type_id":"4","last_reported":1762085883,"current_range_meters":4000,"station_id":"ce4bhih2rcd13ifvqfs0","pricing_plan_id":"cebpf4jnsgd1na2vs0mg"},{"bike_id":"c16ca171-3e5e-49d0-a567-1645c2374376","system_id":"levelo_inurba_marseille","lat":43.305477,"lon":5.36519,"is_reserved":false,"is_disabled":true,"rental_uris":{"android":"levelo://app?vid=c16ca171-3e5e-49d0-a567-1645c2374376","ios":"levelo://app?vid=c16ca171-3e5e-49d0-a567-1645c2374376"},"vehicle_type_id":"4","last_reported":1762085883,"current_range_meters":4400,"station_id":"ce4bgs12rcd13ifvqcag","pricing_plan_id":"cebpf4jnsgd1na2vs0mg"},{"bike_id":"6906fa08-3ad2-4f61-95f3-ab91be84f31c","system_id":"levelo_inurba_marseille","lat":43.26498,"lon":5.39541,"is_reserved":false,"is_disabled":false,"rental_uris":{"android":"levelo://app?vid=6906fa08-3ad2-4f61-95f3-ab91be84f31c","ios":"levelo://app?vid=6906fa08-3ad2-4f61-95f3-ab91be84f31c"},"vehicle_type_id":"4","last_reported":1762085883,"current_range_meters":4400,"station_id":"ce4bhi12rcd13ifvqfq0","pricing_plan_id":"cebpf4jnsgd1na2vs0mg"},{"bike_id":"a4dac4fa-66e6-48be-a654-6e17cdc7ca0b","system_id":"levelo_inurba_marseille","lat":43.337571,"lon":5.374323,"is_reserved":false,"is_disabled":false,"rental_uris":{"android":"levelo://app?vid=a4dac4fa-66e6-48be-a654-6e17cdc7ca0b","ios":"levelo://app?vid=a4dac4fa-66e6-48be-a654-6e17cdc7ca0b"},"vehicle_type_id":"4","last_reported":1762085883,"current_range_meters":4800,"station_id":"","pricing_plan_id":"cebpf4jnsgd1na2vs0mg"},{"bike_id":"8a759722-19f7-4a56-9646-2c26a5e7e25d","system_id":"levelo_inurba_marseille","lat":43.28013,"lon":5.38742,"is_reserved":false,"is_disabled":true,"rental_uris":{"android":"levelo://app?vid=8a759722-19f7-4a56-9646-2c26a5e7e25d","ios":"levelo://app?vid=8a759722-19f7-4a56-9646-2c26a5e7e25d"},"vehicle_type_id":"4","last_reported":1762085883,"current_range_meters":4800,"station_id":"ce4bhg12rcd13ifvqf80","pricing_plan_id":"cebpf4jnsgd1na2vs0mg"},{"bike_id":"27abc7d1-dd85-495f-9415-aa00cef4846e","system_id":"levelo_inurba_marseille","lat":43.27773,"lon":5.39559,"is_reserved":false,"is_disabled":false,"rental_uris":{"android":"levelo://app?vid=27abc7d1-dd85-495f-9415-aa00cef4846e","ios":"levelo://app?vid=27abc7d1-dd85-495f-9415-aa00cef4846e"},"vehicle_type_id":"4","last_reported":1762085883,"current_range_meters":5600,"station_id":"","pricing_plan_id":"cebpf4jnsgd1na2vs0mg"},{"bike_id":"d62a4e30-2a8a-47de-9d7a-fd92f829db09","system_id":"levelo_inurba_marseille","lat":43.31184,"lon":5.37921,"is_reserved":false,"is_disabled":false,"rental_uris":{"android":"levelo://app?vid=d62a4e30-2a8a-47de-9d7a-fd92f829db09","ios":"levelo://app?vid=d62a4e30-2a8a-47de-9d7a-fd92f829db09"},"vehicle_type_id":"4","last_reported":1762085883,"current_range_meters":5600,"station_id":"","pricing_plan_id":"cebpf4jnsgd1na2vs0mg"},{"bike_id":"7964de6c-fad0-4fd1-8a21-0815ea287c4c","system_id":"levelo_inurba_marseille","lat":43.281495,"lon":5.426297,"is_reserved":false,"is_disabled":true,"rental_uris":{"android":"levelo://app?vid=7964de6c-fad0-4fd1-8a21-0815ea287c4c","ios":"levelo://app?vid=7964de6c-fad0-4fd1-8a21-0815ea287c4c"},"vehicle_type_id":"4","last_reported":1762085883,"current_range_meters":6000,"station_id":"ce4bhnh2rcd13ifvqgug","pricing_plan_id":"cebpf4jnsgd1na2vs0mg"},{"bike_id":"ad4fb666-5659-4c17-8631-ee60bf2e2290","system_id":"levelo_inurba_marseille","lat":43.31323,"lon":5.39696,"is_reserved":false,"is_disabled":false,"rental_uris":{"android":"levelo://app?vid=ad4fb666-5659-4c17-8631-ee60bf2e2290","ios":"levelo://app?vid=ad4fb666-5659-4c17-8631-ee60bf2e2290"},"vehicle_type_id":"4","last_reported":1762085883,"current_range_meters":6000,"station_id":"ce4bgvp2rcd13ifvqcu0","pricing_plan_id":"cebpf4jnsgd1na2vs0mg"},{"bike_id":"f703ae54-221d-4263-b3ec-00627c20e2f2","system_id":"levelo_inurba_marseille","lat":43.217455,"lon":5.346101,"is_reserved":false,"is_disabled":false,"rental_uris":{"android":"levelo://app?vid=f703ae54-221d-4263-b3ec-00627c20e2f2","ios":"levelo://app?vid=f703ae54-221d-4263-b3ec-00627c20e2f2"},"vehicle_type_id":"4","last_reported":1762085883,"current_range_meters":6000,"station_id":"","pricing_plan_id":"cebpf4jnsgd1na2vs0mg"},{"bike_id":"995c398a-192b-4e7d-923c-0e5720d4a0ab","system_id":"levelo_inurba_marseille","lat":43.21752,"lon":5.34606,"is_reserved":false,"is_disabled":false,"rental_uris":{"android":"levelo://app?vid=995c398a-192b-4e7d-923c-0e5720d4a0ab","ios":"levelo://app?vid=995c398a-192b-4e7d-923c-0e5720d4a0ab"},"vehicle_type_id":"4","last_reported":1762085883,"current_range_meters":6400,"station_id":"st_cvj6r9ubvosntc0bgbag","pricing_plan_id":"cebpf4jnsgd1na2vs0mg"},{"bike_id":"52b117f2-4c01-4f66-887d-006722496528","system_id":"levelo_inurba_marseille","lat":43.30867,"lon":5.37166,"is_reserved":false,"is_disabled":false,"rental_uris":{"android":"levelo://app?vid=52b117f2-4c01-4f66-887d-006722496528","ios":"levelo://app?vid=52b117f2-4c01-4f66-887d-006722496528"},"vehicle_type_id":"4","last_reported":1762085883,"current_range_meters":6400,"station_id":"ce4bguh2rcd13ifvqckg","pricing_plan_id":"cebpf4jnsgd1na2vs0mg"},{"bike_id":"fca252be-68c3-40cc-92d4-0eb23191f310","system_id":"levelo_inurba_marseille","lat":43.31894,"lon":5.4073,"is_reserved":false,"is_disabled":false,"rental_uris":{"android":"levelo://app?vid=fca252be-68c3-40cc-92d4-0eb23191f310","ios":"levelo://app?vid=fca252be-68c3-40cc-92d4-0eb23191f310"},"vehicle_type_id":"4","last_reported":1762085883,"current_range_meters":6400,"station_id":"ce4bhq12rcd13ifvqhig","pricing_plan_id":"cebpf4jnsgd1na2vs0mg"},{"bike_id":"17032545-3409-4b3c-8196-acc7c63125d9","system_id":"levelo_inurba_marseille","lat":43.23771,"lon":5.36635,"is_reserved":false,"is_disabled":false,"rental_uris":{"android":"levelo://app?vid=17032545-3409-4b3c-8196-acc7c63125d9","ios":"levelo://app?vid=17032545-3409-4b3c-8196-acc7c63125d9"},"vehicle_type_id":"4","last_reported":1762085883,"current_range_meters":6400,"station_id":"st_d3nk18o9ro0c73en2l3g","pricing_plan_id":"cebpf4jnsgd1na2vs0mg"},{"bike_id":"0d53681a-2462-4979-9106-982e825913ab","system_id":"levelo_inurba_marseille","lat":43.29539,"lon":5.36602,"is_reserved":false,"is_disabled":false,"rental_uris":{"android":"levelo://app?vid=0d53681a-2462-4979-9106-982e825913ab","ios":"levelo://app?vid=0d53681a-2462-4979-9106-982e825913ab"},"vehicle_type_id":"4","last_reported":1762085883,"current_range_meters":6800,"station_id":"","pricing_plan_id":"cebpf4jnsgd1na2vs0mg"},{"bike_id":"0f9dde56-0b94-4c4e-b31d-6462ab996b5e","system_id":"levelo_inurba_marseille","lat":43.265519,"lon":5.372828,"is_reserved":false,"is_disabled":false,"rental_uris":{"android":"levelo://app?vid=0f9dde56-0b94-4c4e-b31d-6462ab996b5e","ios":"levelo://app?vid=0f9dde56-0b94-4c4e-b31d-6462ab996b5e"},"vehicle_type_id":"4","last_reported":1762085883,"current_range_meters":6800,"station_id":"ce4bhg12rcd13ifvqf70","pricing_plan_id":"cebpf4jnsgd1na2vs0mg"},{"bike_id":"dcb5f4d6-a57a-45ea-b185-de3fe952058c","system_id":"levelo_inurba_marseille","lat":43.28099,"lon":5.37851,"is_reserved":false,"is_disabled":true,"rental_uris":{"android":"levelo://app?vid=dcb5f4d6-a57a-45ea-b185-de3fe952058c","ios":"levelo://app?vid=dcb5f4d6-a57a-45ea-b185-de3fe952058c"},"vehicle_type_id":"4","last_reported":1762085883,"current_range_meters":6800,"station_id":"ce4bha12rcd13ifvqee0","pricing_plan_id":"cebpf4jnsgd1na2vs0mg"},{"bike_id":"25b024a7-af90-4758-9335-abb8f7a5dce4","system_id":"levelo_inurba_marseille","lat":43.27907,"lon":5.38015,"is_reserved":false,"is_disabled":false,"rental_uris":{"android":"levelo://app?vid=25b024a7-af90-4758-9335-abb8f7a5dce4","ios":"levelo://app?vid=25b024a7-af90-4758-9335-abb8f7a5dce4"},"vehicle_type_id":"4","last_reported":1762085883,"current_range_meters":6800,"station_id":"ce4bhf92rcd13ifvqf50","pricing_plan_id":"cebpf4jnsgd1na2vs0mg"},{"bike_id":"7c4d4b41-3683-4e47-913c-ce1ccd433163","system_id":"levelo_inurba_marseille","lat":43.27683,"lon":5.38891,"is_reserved":false,"is_disabled":false,"rental_uris":{"android":"levelo://app?vid=7c4d4b41-3683-4e47-913c-ce1ccd433163","ios":"levelo://app?vid=7c4d4b41-3683-4e47-913c-ce1ccd433163"},"vehicle_type_id":"4","last_reported":1762085883,"current_range_meters":7200,"station_id":"ce4bhi12rcd13ifvqfo0","pricing_plan_id":"cebpf4jnsgd1na2vs0mg"},{"bike_id":"fe211fee-df04-4312-bc0a-d625bf6086ab","system_id":"levelo_inurba_marseille","lat":43.29176,"lon":5.40325,"is_reserved":false,"is_disabled":true,"rental_uris":{"android":"levelo://app?vid=fe211fee-df04-4312-bc0a-d625bf6086ab","ios":"levelo://app?vid=fe211fee-df04-4312-bc0a-d625bf6086ab"},"vehicle_type_id":"4","last_reported":1762085883,"current_range_meters":7200,"station_id":"","pricing_plan_id":"cebpf4jnsgd1na2vs0mg"},{"bike_id":"b1e81361-2b17-4ef1-8a58-6def5753471b","system_id":"levelo_inurba_marseille","lat":43.33753,"lon":5.37484,"is_reserved":false,"is_disabled":false,"rental_uris":{"android":"levelo://app?vid=b1e81361-2b17-4ef1-8a58-6def5753471b","ios":"levelo://app?vid=b1e81361-2b17-4ef1-8a58-6def5753471b"},"vehicle_type_id":"4","last_reported":1762085883,"current_range_meters":8000,"station_id":"","pricing_plan_id":"cebpf4jnsgd1na2vs0mg"},{"bike_id":"6d5be56b-dcd4-4071-a6f3-5a183bd62be7","system_id":"levelo_inurba_marseille","lat":43.2937,"lon":5.37864,"is_reserved":false,"is_disabled":false,"rental_uris":{"android":"levelo://app?vid=6d5be56b-dcd4-4071-a6f3-5a183bd62be7","ios":"levelo://app?vid=6d5be56b-dcd4-4071-a6f3-5a183bd62be7"},"vehicle_type_id":"4","last_reported":1762085883,"current_range_meters":8000,"station_id":"ce4bgjh2rcd13ifvqbf0","pricing_plan_id":"cebpf4jnsgd1na2vs0mg"},{"bike_id":"603f84c7-55e1-4d19-8f37-178ddadc668f","system_id":"levelo_inurba_marseille","lat":43.21188,"lon":5.35072,"is_reserved":false,"is_disabled":false,"rental_uris":{"android":"levelo://app?vid=603f84c7-55e1-4d19-8f37-178ddadc668f","ios":"levelo://app?vid=603f84c7-55e1-4d19-8f37-178ddadc668f"},"vehicle_type_id":"4","last_reported":1762085883,"current_range_meters":8400,"station_id":"st_cvj6sg6p6f1abm77japg","pricing_plan_id":"cebpf4jnsgd1na2vs0mg"},{"bike_id":"ed890a36-02ef-4914-b497-b0b60f616f2a","system_id":"levelo_inurba_marseille","lat":43.281587,"lon":5.426295,"is_reserved":false,"is_disabled":false,"rental_uris":{"android":"levelo://app?vid=ed890a36-02ef-4914-b497-b0b60f616f2a","ios":"levelo://app?vid=ed890a36-02ef-4914-b497-b0b60f616f2a"},"vehicle_type_id":"4","last_reported":1762085883,"current_range_meters":8400,"station_id":"ce4bhnh2rcd13ifvqgug","pricing_plan_id":"cebpf4jnsgd1na2vs0mg"},{"bike_id":"a8c37853-0b1d-4686-a393-5126f07eea8e","system_id":"levelo_inurba_marseille","lat":43.288147,"lon":5.391652,"is_reserved":false,"is_disabled":false,"rental_uris":{"android":"levelo://app?vid=a8c37853-0b1d-4686-a393-5126f07eea8e","ios":"levelo://app?vid=a8c37853-0b1d-4686-a393-5126f07eea8e"},"vehicle_type_id":"4","last_reported":1762085883,"current_range_meters":8400,"station_id":"","pricing_plan_id":"cebpf4jnsgd1na2vs0mg"},{"bike_id":"5c3333ac-c21a-4fa4-9ca6-541bcb00b023","system_id":"levelo_inurba_marseille","lat":43.336,"lon":5.41037,"is_reserved":false,"is_disabled":false,"rental_uris":{"android":"levelo://app?vid=5c3333ac-c21a-4fa4-9ca6-541bcb00b023","ios":"levelo://app?vid=5c3333ac-c21a-4fa4-9ca6-541bcb00b023"},"vehicle_type_id":"4","last_reported":1762085883,"current_range_meters":8800,"station_id":"ce4bhqh2rcd13ifvqhmg","pricing_plan_id":"cebpf4jnsgd1na2vs0mg"},{"bike_id":"1da56141-654f-442c-b20c-6c2bd52c2965","system_id":"levelo_inurba_marseille","lat":43.31257,"lon":5.3819,"is_reserved":false,"is_disabled":true,"rental_uris":{"android":"levelo://app?vid=1da56141-654f-442c-b20c-6c2bd52c2965","ios":"levelo://app?vid=1da56141-654f-442c-b20c-6c2bd52c2965"},"vehicle_type_id":"4","last_reported":1762085883,"current_range_meters":8800,"station_id":"","pricing_plan_id":"cebpf4jnsgd1na2vs0mg"},{"bike_id":"dff7d6bb-bace-4908-8744-855e978195b1","system_id":"levelo_inurba_marseille","lat":43.299116,"lon":5.381469,"is_reserved":false,"is_disabled":false,"rental_uris":{"android":"levelo://app?vid=dff7d6bb-bace-4908-8744-855e978195b1","ios":"levelo://app?vid=dff7d6bb-bace-4908-8744-855e978195b1"},"vehicle_type_id":"4","last_reported":1762085883,"current_range_meters":8800,"station_id":"ce4bgj12rcd13ifvqbc0","pricing_plan_id":"cebpf4jnsgd1na2vs0mg"},{"bike_id":"afba2e7c-0dbc-4820-b93f-fdd58168ba1f","system_id":"levelo_inurba_marseille","lat":43.28765,"lon":5.385455,"is_reserved":false,"is_disabled":false,"rental_uris":{"android":"levelo://app?vid=afba2e7c-0dbc-4820-b93f-fdd58168ba1f","ios":"levelo://app?vid=afba2e7c-0dbc-4820-b93f-fdd58168ba1f"},"vehicle_type_id":"4","last_reported":1762085883,"current_range_meters":8800,"station_id":"","pricing_plan_id":"cebpf4jnsgd1na2vs0mg"},{"bike_id":"77cf13d5-5c06-4119-bdad-ad1edf67fc69","system_id":"levelo_inurba_marseille","lat":43.30877,"lon":5.39638,"is_reserved":false,"is_disabled":false,"rental_uris":{"android":"levelo://app?vid=77cf13d5-5c06-4119-bdad-ad1edf67fc69","ios":"levelo://app?vid=77cf13d5-5c06-4119-bdad-ad1edf67fc69"},"vehicle_type_id":"4","last_reported":1762085883,"current_range_meters":8800,"station_id":"ce4bh012rcd13ifvqcv0","pricing_plan_id":"cebpf4jnsgd1na2vs0mg"},{"bike_id":"13f03332-ddce-42ad-82d3-6d3b2e6cbcd9","system_id":"levelo_inurba_marseille","lat":43.30696,"lon":5.43168,"is_reserved":false,"is_disabled":false,"rental_uris":{"android":"levelo://app?vid=13f03332-ddce-42ad-82d3-6d3b2e6cbcd9","ios":"levelo://app?vid=13f03332-ddce-42ad-82d3-6d3b2e6cbcd9"},"vehicle_type_id":"4","last_reported":1762085883,"current_range_meters":8800,"station_id":"","pricing_plan_id":"cebpf4jnsgd1na2vs0mg"},{"bike_id":"eb737d05-d9f2-4432-97d1-7781357ab9df","system_id":"levelo_inurba_marseille","lat":43.2707,"lon":5.42284,"is_reserved":false,"is_disabled":true,"rental_uris":{"android":"levelo://app?vid=eb737d05-d9f2-4432-97d1-7781357ab9df","ios":"levelo://app?vid=eb737d05-d9f2-4432-97d1-7781357ab9df"},"vehicle_type_id":"4","last_reported":1762085883,"current_range_meters":9200,"station_id":"ce4bhk92rcd13ifvqgb0","pricing_plan_id":"cebpf4jnsgd1na2vs0mg"},{"bike_id":"54ed41a8-0cf8-4fbf-a456-c32366c6e948","system_id":"levelo_inurba_marseille","lat":43.28034,"lon":5.36952,"is_reserved":false,"is_disabled":false,"rental_uris":{"android":"levelo://app?vid=54ed41a8-0cf8-4fbf-a456-c32366c6e948","ios":"levelo://app?vid=54ed41a8-0cf8-4fbf-a456-c32366c6e948"},"vehicle_type_id":"4","last_reported":1762085883,"current_range_meters":9200,"station_id":"ce4bha12rcd13ifvqef0","pricing_plan_id":"cebpf4jnsgd1na2vs0mg"},{"bike_id":"0c3bfe72-1bfa-4fe4-8ec1-abc531b0b6c5","system_id":"levelo_inurba_marseille","lat":43.265523,"lon":5.372898,"is_reserved":false,"is_disabled":true,"rental_uris":{"android":"levelo://app?vid=0c3bfe72-1bfa-4fe4-8ec1-abc531b0b6c5","ios":"levelo://app?vid=0c3bfe72-1bfa-4fe4-8ec1-abc531b0b6c5"},"vehicle_type_id":"4","last_reported":1762085883,"current_range_meters":9600,"station_id":"ce4bhg12rcd13ifvqf70","pricing_plan_id":"cebpf4jnsgd1na2vs0mg"},{"bike_id":"b110e993-420d-407b-946b-61452224fe39","system_id":"levelo_inurba_marseille","lat":43.231499,"lon":5.437135,"is_reserved":false,"is_disabled":false,"rental_uris":{"android":"levelo://app?vid=b110e993-420d-407b-946b-61452224fe39","ios":"levelo://app?vid=b110e993-420d-407b-946b-61452224fe39"},"vehicle_type_id":"4","last_reported":1762085883,"current_range_meters":9600,"station_id":"ce4bhmp2rcd13ifvqgog","pricing_plan_id":"cebpf4jnsgd1na2vs0mg"},{"bike_id":"e7f9c3ca-0476-4aa0-ba87-4d8ef5414da9","system_id":"levelo_inurba_marseille","lat":43.2893,"lon":5.384,"is_reserved":false,"is_disabled":false,"rental_uris":{"android":"levelo://app?vid=e7f9c3ca-0476-4aa0-ba87-4d8ef5414da9","ios":"levelo://app?vid=e7f9c3ca-0476-4aa0-ba87-4d8ef5414da9"},"vehicle_type_id":"4","last_reported":1762085883,"current_range_meters":9600,"station_id":"ce4bh612rcd13ifvqe6g","pricing_plan_id":"cebpf4jnsgd1na2vs0mg"},{"bike_id":"7fa38298-276d-455d-ac6e-74d79c58c346","system_id":"levelo_inurba_marseille","lat":43.3021,"lon":5.39475,"is_reserved":false,"is_disabled":false,"rental_uris":{"android":"levelo://app?vid=7fa38298-276d-455d-ac6e-74d79c58c346","ios":"levelo://app?vid=7fa38298-276d-455d-ac6e-74d79c58c346"},"vehicle_type_id":"4","last_reported":1762085883,"current_range_meters":10000,"station_id":"ce4bh0p2rcd13ifvqd70","pricing_plan_id":"cebpf4jnsgd1na2vs0mg"},{"bike_id":"c475d3b9-d267-42f4-9587-e5143d59c67f","system_id":"levelo_inurba_marseille","lat":43.3133,"lon":5.39688,"is_reserved":false,"is_disabled":false,"rental_uris":{"android":"levelo://app?vid=c475d3b9-d267-42f4-9587-e5143d59c67f","ios":"levelo://app?vid=c475d3b9-d267-42f4-9587-e5143d59c67f"},"vehicle_type_id":"4","last_reported":1762085883,"current_range_meters":10000,"station_id":"ce4bgvp2rcd13ifvqcu0","pricing_plan_id":"cebpf4jnsgd1na2vs0mg"},{"bike_id":"ccbb9b89-ebba-4c6c-b9fe-acafe29ddb47","system_id":"levelo_inurba_marseille","lat":43.33439,"lon":5.42845,"is_reserved":false,"is_disabled":false,"rental_uris":{"android":"levelo://app?vid=ccbb9b89-ebba-4c6c-b9fe-acafe29ddb47","ios":"levelo://app?vid=ccbb9b89-ebba-4c6c-b9fe-acafe29ddb47"},"vehicle_type_id":"4","last_reported":1762085883,"current_range_meters":10800,"station_id":"","pricing_plan_id":"cebpf4jnsgd1na2vs0mg"},{"bike_id":"92bde275-5f3a-4ae1-9acd-3c5de6e83a4d","system_id":"levelo_inurba_marseille","lat":43.281497,"lon":5.426426,"is_reserved":false,"is_disabled":false,"rental_uris":{"android":"levelo://app?vid=92bde275-5f3a-4ae1-9acd-3c5de6e83a4d","ios":"levelo://app?vid=92bde275-5f3a-4ae1-9acd-3c5de6e83a4d"},"vehicle_type_id":"4","last_reported":1762085883,"current_range_meters":10800,"station_id":"ce4bhnh2rcd13ifvqgug","pricing_plan_id":"cebpf4jnsgd1na2vs0mg"},{"bike_id":"1d29646a-da1f-4f66-b008-0838ffb2fa84","system_id":"levelo_inurba_marseille","lat":43.299925,"lon":5.372294,"is_reserved":false,"is_disabled":false,"rental_uris":{"android":"levelo://app?vid=1d29646a-da1f-4f66-b008-0838ffb2fa84","ios":"levelo://app?vid=1d29646a-da1f-4f66-b008-0838ffb2fa84"},"vehicle_type_id":"4","last_reported":1762085883,"current_range_meters":10800,"station_id":"ce4bgr92rcd13ifvqc7g","pricing_plan_id":"cebpf4jnsgd1na2vs0mg"},{"bike_id":"5477c7f8-a772-48db-a5b3-ba769641e22b","system_id":"levelo_inurba_marseille","lat":43.32478,"lon":5.3656,"is_reserved":false,"is_disabled":false,"rental_uris":{"android":"levelo://app?vid=5477c7f8-a772-48db-a5b3-ba769641e22b","ios":"levelo://app?vid=5477c7f8-a772-48db-a5b3-ba769641e22b"},"vehicle_type_id":"4","last_reported":1762085883,"current_range_meters":11200,"station_id":"ce4bhs12rcd13ifvqhvg","pricing_plan_id":"cebpf4jnsgd1na2vs0mg"},{"bike_id":"87bf0f62-f5e5-4586-abe4-d7bb497c069f","system_id":"levelo_inurba_marseille","lat":43.32318,"lon":5.36721,"is_reserved":false,"is_disabled":false,"rental_uris":{"android":"levelo://app?vid=87bf0f62-f5e5-4586-abe4-d7bb497c069f","ios":"levelo://app?vid=87bf0f62-f5e5-4586-abe4-d7bb497c069f"},"vehicle_type_id":"4","last_reported":1762085883,"current_range_meters":11600,"station_id":"ce4bhsh2rcd13ifvqi2g","pricing_plan_id":"cebpf4jnsgd1na2vs0mg"},{"bike_id":"3215364f-6e5f-4b0d-90d7-810d037ad472","system_id":"levelo_inurba_marseille","lat":43.30287,"lon":5.39218,"is_reserved":false,"is_disabled":false,"rental_uris":{"android":"levelo://app?vid=3215364f-6e5f-4b0d-90d7-810d037ad472","ios":"levelo://app?vid=3215364f-6e5f-4b0d-90d7-810d037ad472"},"vehicle_type_id":"4","last_reported":1762085883,"current_range_meters":11600,"station_id":"ce4bgkh2rcd13ifvqbk0","pricing_plan_id":"cebpf4jnsgd1na2vs0mg"},{"bike_id":"892be782-b19c-44fc-9024-6b08e2ab6e1c","system_id":"levelo_inurba_marseille","lat":43.29781,"lon":5.39334,"is_reserved":false,"is_disabled":false,"rental_uris":{"android":"levelo://app?vid=892be782-b19c-44fc-9024-6b08e2ab6e1c","ios":"levelo://app?vid=892be782-b19c-44fc-9024-6b08e2ab6e1c"},"vehicle_type_id":"4","last_reported":1762085883,"current_range_meters":11600,"station_id":"chh1huq6cuj3fo74tm60","pricing_plan_id":"cebpf4jnsgd1na2vs0mg"},{"bike_id":"45833a00-bb86-4c87-99c2-814a719ac317","system_id":"levelo_inurba_marseille","lat":43.22921,"lon":5.35378,"is_reserved":false,"is_disabled":false,"rental_uris":{"android":"levelo://app?vid=45833a00-bb86-4c87-99c2-814a719ac317","ios":"levelo://app?vid=45833a00-bb86-4c87-99c2-814a719ac317"},"vehicle_type_id":"4","last_reported":1762085883,"current_range_meters":11600,"station_id":"cpo3532slgdg3j2ikp40","pricing_plan_id":"cebpf4jnsgd1na2vs0mg"},{"bike_id":"b3cf442c-3b1e-44cb-98b9-63f79a656d81","system_id":"levelo_inurba_marseille","lat":43.260834,"lon":5.393937,"is_reserved":false,"is_disabled":false,"rental_uris":{"android":"levelo://app?vid=b3cf442c-3b1e-44cb-98b9-63f79a656d81","ios":"levelo://app?vid=b3cf442c-3b1e-44cb-98b9-63f79a656d81"},"vehicle_type_id":"4","last_reported":1762085883,"current_range_meters":11600,"station_id":"ce4bhh92rcd13ifvqfj0","pricing_plan_id":"cebpf4jnsgd1na2vs0mg"},{"bike_id":"7b0eaa70-7657-4098-8e47-f6fae1ad1d21","system_id":"levelo_inurba_marseille","lat":43.258611,"lon":5.39896,"is_reserved":false,"is_disabled":false,"rental_uris":{"android":"levelo://app?vid=7b0eaa70-7657-4098-8e47-f6fae1ad1d21","ios":"levelo://app?vid=7b0eaa70-7657-4098-8e47-f6fae1ad1d21"},"vehicle_type_id":"4","last_reported":1762085883,"current_range_meters":11600,"station_id":"ce4bhl92rcd13ifvqghg","pricing_plan_id":"cebpf4jnsgd1na2vs0mg"},{"bike_id":"41598790-345d-414f-9e87-720cb432f278","system_id":"levelo_inurba_marseille","lat":43.29477,"lon":5.36227,"is_reserved":false,"is_disabled":false,"rental_uris":{"android":"levelo://app?vid=41598790-345d-414f-9e87-720cb432f278","ios":"levelo://app?vid=41598790-345d-414f-9e87-720cb432f278"},"vehicle_type_id":"4","last_reported":1762085883,"current_range_meters":11600,"station_id":"","pricing_plan_id":"cebpf4jnsgd1na2vs0mg"},{"bike_id":"48c6c169-4c79-4128-a217-b816a2ae8564","system_id":"levelo_inurba_marseille","lat":43.29296,"lon":5.37454,"is_reserved":false,"is_disabled":false,"rental_uris":{"android":"levelo://app?vid=48c6c169-4c79-4128-a217-b816a2ae8564","ios":"levelo://app?vid=48c6c169-4c79-4128-a217-b816a2ae8564"},"vehicle_type_id":"4","last_reported":1762085883,"current_range_meters":11600,"station_id":"ce4bgi12rcd13ifvqb70","pricing_plan_id":"cebpf4jnsgd1na2vs0mg"},{"bike_id":"12a18d4a-7b67-4876-88d1-1820554fc400","system_id":"levelo_inurba_marseille","lat":43.29737,"lon":5.38115,"is_reserved":false,"is_disabled":false,"rental_uris":{"android":"levelo://app?vid=12a18d4a-7b67-4876-88d1-1820554fc400","ios":"levelo://app?vid=12a18d4a-7b67-4876-88d1-1820554fc400"},"vehicle_type_id":"4","last_reported":1762085883,"current_range_meters":12000,"station_id":"","pricing_plan_id":"cebpf4jnsgd1na2vs0mg"},{"bike_id":"1e027cd5-7542-4267-b3ee-f71de8a5c74d","system_id":"levelo_inurba_marseille","lat":43.290237,"lon":5.3815,"is_reserved":false,"is_disabled":false,"rental_uris":{"android":"levelo://app?vid=1e027cd5-7542-4267-b3ee-f71de8a5c74d","ios":"levelo://app?vid=1e027cd5-7542-4267-b3ee-f71de8a5c74d"},"vehicle_type_id":"4","last_reported":1762085883,"current_range_meters":12000,"station_id":"","pricing_plan_id":"cebpf4jnsgd1na2vs0mg"},{"bike_id":"cbf54ad8-06e8-4c83-9a47-a7554339d452","system_id":"levelo_inurba_marseille","lat":43.28401,"lon":5.37511,"is_reserved":false,"is_disabled":false,"rental_uris":{"android":"levelo://app?vid=cbf54ad8-06e8-4c83-9a47-a7554339d452","ios":"levelo://app?vid=cbf54ad8-06e8-4c83-9a47-a7554339d452"},"vehicle_type_id":"4","last_reported":1762085883,"current_range_meters":12000,"station_id":"ce4bh412rcd13ifvqds0","pricing_plan_id":"cebpf4jnsgd1na2vs0mg"},{"bike_id":"730ca9ac-fea7-459e-bf1a-e3eab4e2c977","system_id":"levelo_inurba_marseille","lat":43.246596,"lon":5.381618,"is_reserved":false,"is_disabled":false,"rental_uris":{"android":"levelo://app?vid=730ca9ac-fea7-459e-bf1a-e3eab4e2c977","ios":"levelo://app?vid=730ca9ac-fea7-459e-bf1a-e3eab4e2c977"},"vehicle_type_id":"4","last_reported":1762085883,"current_range_meters":12000,"station_id":"ce4bhih2rcd13ifvqfr0","pricing_plan_id":"cebpf4jnsgd1na2vs0mg"},{"bike_id":"3c9947a7-a7a8-4b63-94bc-8a3407eeed31","system_id":"levelo_inurba_marseille","lat":43.27967,"lon":5.38742,"is_reserved":false,"is_disabled":false,"rental_uris":{"android":"levelo://app?vid=3c9947a7-a7a8-4b63-94bc-8a3407eeed31","ios":"levelo://app?vid=3c9947a7-a7a8-4b63-94bc-8a3407eeed31"},"vehicle_type_id":"4","last_reported":1762085883,"current_range_meters":12000,"station_id":"ce4bhg12rcd13ifvqf80","pricing_plan_id":"cebpf4jnsgd1na2vs0mg"},{"bike_id":"a753117c-cfb4-4b15-9ec1-9092c4a4604d","system_id":"levelo_inurba_marseille","lat":43.317046,"lon":5.423998,"is_reserved":false,"is_disabled":false,"rental_uris":{"android":"levelo://app?vid=a753117c-cfb4-4b15-9ec1-9092c4a4604d","ios":"levelo://app?vid=a753117c-cfb4-4b15-9ec1-9092c4a4604d"},"vehicle_type_id":"4","last_reported":1762085883,"current_range_meters":12000,"station_id":"ce4bhp92rcd13ifvqhbg","pricing_plan_id":"cebpf4jnsgd1na2vs0mg"},{"bike_id":"09aa8f06-ffeb-4dc5-b1e3-4dfaaa5d105e","system_id":"levelo_inurba_marseille","lat":43.27045,"lon":5.38309,"is_reserved":false,"is_disabled":false,"rental_uris":{"android":"levelo://app?vid=09aa8f06-ffeb-4dc5-b1e3-4dfaaa5d105e","ios":"levelo://app?vid=09aa8f06-ffeb-4dc5-b1e3-4dfaaa5d105e"},"vehicle_type_id":"4","last_reported":1762085883,"current_range_meters":12000,"station_id":"st_d3n2fo6cfp8s73cte1j0","pricing_plan_id":"cebpf4jnsgd1na2vs0mg"},{"bike_id":"6fe8defd-7365-4870-9fd8-a61adc4c20bd","system_id":"levelo_inurba_marseille","lat":43.29898,"lon":5.39748,"is_reserved":false,"is_disabled":true,"rental_uris":{"android":"levelo://app?vid=6fe8defd-7365-4870-9fd8-a61adc4c20bd","ios":"levelo://app?vid=6fe8defd-7365-4870-9fd8-a61adc4c20bd"},"vehicle_type_id":"4","last_reported":1762085883,"current_range_meters":12400,"station_id":"ce4bh0h2rcd13ifvqd50","pricing_plan_id":"cebpf4jnsgd1na2vs0mg"},{"bike_id":"c4f2ef56-a448-4bb1-9320-6136c50246c9","system_id":"levelo_inurba_marseille","lat":43.24802,"lon":5.3745,"is_reserved":false,"is_disabled":true,"rental_uris":{"android":"levelo://app?vid=c4f2ef56-a448-4bb1-9320-6136c50246c9","ios":"levelo://app?vid=c4f2ef56-a448-4bb1-9320-6136c50246c9"},"vehicle_type_id":"4","last_reported":1762085883,"current_range_meters":12400,"station_id":"ce4bhgh2rcd13ifvqfb0","pricing_plan_id":"cebpf4jnsgd1na2vs0mg"},{"bike_id":"8826ede5-ae30-4091-839e-dd39c3609359","system_id":"levelo_inurba_marseille","lat":43.297851,"lon":5.393514,"is_reserved":false,"is_disabled":true,"rental_uris":{"android":"levelo://app?vid=8826ede5-ae30-4091-839e-dd39c3609359","ios":"levelo://app?vid=8826ede5-ae30-4091-839e-dd39c3609359"},"vehicle_type_id":"4","last_reported":1762085883,"current_range_meters":12400,"station_id":"chh1huq6cuj3fo74tm60","pricing_plan_id":"cebpf4jnsgd1na2vs0mg"},{"bike_id":"5f336b60-f344-4d17-8bde-3d24435f4cd0","system_id":"levelo_inurba_marseille","lat":43.2175,"lon":5.3457,"is_reserved":false,"is_disabled":false,"rental_uris":{"android":"levelo://app?vid=5f336b60-f344-4d17-8bde-3d24435f4cd0","ios":"levelo://app?vid=5f336b60-f344-4d17-8bde-3d24435f4cd0"},"vehicle_type_id":"4","last_reported":1762085883,"current_range_meters":12400,"station_id":"st_cvj6r9ubvosntc0bgbag","pricing_plan_id":"cebpf4jnsgd1na2vs0mg"},{"bike_id":"cb0ccd34-fade-44b0-bce4-fe9e999689d0","system_id":"levelo_inurba_marseille","lat":43.28154,"lon":5.42647,"is_reserved":false,"is_disabled":false,"rental_uris":{"android":"levelo://app?vid=cb0ccd34-fade-44b0-bce4-fe9e999689d0","ios":"levelo://app?vid=cb0ccd34-fade-44b0-bce4-fe9e999689d0"},"vehicle_type_id":"4","last_reported":1762085883,"current_range_meters":12400,"station_id":"ce4bhnh2rcd13ifvqgug","pricing_plan_id":"cebpf4jnsgd1na2vs0mg"},{"bike_id":"ba541a52-7e4e-4241-9791-ae6f1fb03dcd","system_id":"levelo_inurba_marseille","lat":43.32004,"lon":5.41589,"is_reserved":false,"is_disabled":false,"rental_uris":{"android":"levelo://app?vid=ba541a52-7e4e-4241-9791-ae6f1fb03dcd","ios":"levelo://app?vid=ba541a52-7e4e-4241-9791-ae6f1fb03dcd"},"vehicle_type_id":"4","last_reported":1762085883,"current_range_meters":12400,"station_id":"ce4bhq92rcd13ifvqhkg","pricing_plan_id":"cebpf4jnsgd1na2vs0mg"},{"bike_id":"193eac5d-e557-4171-9864-859d1bed4f7f","system_id":"levelo_inurba_marseille","lat":43.23772,"lon":5.36614,"is_reserved":false,"is_disabled":false,"rental_uris":{"android":"levelo://app?vid=193eac5d-e557-4171-9864-859d1bed4f7f","ios":"levelo://app?vid=193eac5d-e557-4171-9864-859d1bed4f7f"},"vehicle_type_id":"4","last_reported":1762085883,"current_range_meters":12800,"station_id":"st_d3nk18o9ro0c73en2l3g","pricing_plan_id":"cebpf4jnsgd1na2vs0mg"},{"bike_id":"e718eb19-1ff9-4674-92c2-56321ad9eee9","system_id":"levelo_inurba_marseille","lat":43.253361,"lon":5.421685,"is_reserved":false,"is_disabled":false,"rental_uris":{"android":"levelo://app?vid=e718eb19-1ff9-4674-92c2-56321ad9eee9","ios":"levelo://app?vid=e718eb19-1ff9-4674-92c2-56321ad9eee9"},"vehicle_type_id":"4","last_reported":1762085883,"current_range_meters":12800,"station_id":"st_d2m65c5bi1j21697t3ng","pricing_plan_id":"cebpf4jnsgd1na2vs0mg"},{"bike_id":"f556ad88-b0ef-4d15-8048-f36fbe8e026c","system_id":"levelo_inurba_marseille","lat":43.28537,"lon":5.4409,"is_reserved":false,"is_disabled":false,"rental_uris":{"android":"levelo://app?vid=f556ad88-b0ef-4d15-8048-f36fbe8e026c","ios":"levelo://app?vid=f556ad88-b0ef-4d15-8048-f36fbe8e026c"},"vehicle_type_id":"4","last_reported":1762085883,"current_range_meters":12800,"station_id":"st_d3j3df2ikq2c7380ej80","pricing_plan_id":"cebpf4jnsgd1na2vs0mg"},{"bike_id":"c7d57f9b-8ba9-4435-ac3b-54d333c0b4c7","system_id":"levelo_inurba_marseille","lat":43.32329,"lon":5.36711,"is_reserved":false,"is_disabled":false,"rental_uris":{"android":"levelo://app?vid=c7d57f9b-8ba9-4435-ac3b-54d333c0b4c7","ios":"levelo://app?vid=c7d57f9b-8ba9-4435-ac3b-54d333c0b4c7"},"vehicle_type_id":"4","last_reported":1762085883,"current_range_meters":12800,"station_id":"ce4bhsh2rcd13ifvqi2g","pricing_plan_id":"cebpf4jnsgd1na2vs0mg"},{"bike_id":"84f1bfac-8d21-499b-b8e1-fdc8049e10ac","system_id":"levelo_inurba_marseille","lat":43.312901,"lon":5.377528,"is_reserved":false,"is_disabled":false,"rental_uris":{"android":"levelo://app?vid=84f1bfac-8d21-499b-b8e1-fdc8049e10ac","ios":"levelo://app?vid=84f1bfac-8d21-499b-b8e1-fdc8049e10ac"},"vehicle_type_id":"4","last_reported":1762085883,"current_range_meters":12800,"station_id":"","pricing_plan_id":"cebpf4jnsgd1na2vs0mg"},{"bike_id":"63f252f3-ffdc-4384-ac89-a4e9be0dfd03","system_id":"levelo_inurba_marseille","lat":43.31182,"lon":5.39355,"is_reserved":false,"is_disabled":false,"rental_uris":{"android":"levelo://app?vid=63f252f3-ffdc-4384-ac89-a4e9be0dfd03","ios":"levelo://app?vid=63f252f3-ffdc-4384-ac89-a4e9be0dfd03"},"vehicle_type_id":"4","last_reported":1762085883,"current_range_meters":12800,"station_id":"","pricing_plan_id":"cebpf4jnsgd1na2vs0mg"},{"bike_id":"7e22b25d-d57c-4a5b-8960-675f69daacd8","system_id":"levelo_inurba_marseille","lat":43.279083,"lon":5.380124,"is_reserved":false,"is_disabled":false,"rental_uris":{"android":"levelo://app?vid=7e22b25d-d57c-4a5b-8960-675f69daacd8","ios":"levelo://app?vid=7e22b25d-d57c-4a5b-8960-675f69daacd8"},"vehicle_type_id":"4","last_reported":1762085883,"current_range_meters":12800,"station_id":"ce4bhf92rcd13ifvqf50","pricing_plan_id":"cebpf4jnsgd1na2vs0mg"},{"bike_id":"d87e8435-a903-4228-b33e-bd6d66e6673b","system_id":"levelo_inurba_marseille","lat":43.24637,"lon":5.43137,"is_reserved":false,"is_disabled":false,"rental_uris":{"android":"levelo://app?vid=d87e8435-a903-4228-b33e-bd6d66e6673b","ios":"levelo://app?vid=d87e8435-a903-4228-b33e-bd6d66e6673b"},"vehicle_type_id":"4","last_reported":1762085883,"current_range_meters":12800,"station_id":"st_d2m6c4gdas8pm72e190g","pricing_plan_id":"cebpf4jnsgd1na2vs0mg"},{"bike_id":"de0ca7a8-116a-46c8-8c50-6b445a473423","system_id":"levelo_inurba_marseille","lat":43.2886,"lon":5.42522,"is_reserved":false,"is_disabled":false,"rental_uris":{"android":"levelo://app?vid=de0ca7a8-116a-46c8-8c50-6b445a473423","ios":"levelo://app?vid=de0ca7a8-116a-46c8-8c50-6b445a473423"},"vehicle_type_id":"4","last_reported":1762085883,"current_range_meters":13600,"station_id":"st_d3b462108ojc7389ooeg","pricing_plan_id":"cebpf4jnsgd1na2vs0mg"},{"bike_id":"91891e2b-3c04-410a-b47f-e4a2d35addbb","system_id":"levelo_inurba_marseille","lat":43.24801,"lon":5.37463,"is_reserved":false,"is_disabled":false,"rental_uris":{"android":"levelo://app?vid=91891e2b-3c04-410a-b47f-e4a2d35addbb","ios":"levelo://app?vid=91891e2b-3c04-410a-b47f-e4a2d35addbb"},"vehicle_type_id":"4","last_reported":1762085883,"current_range_meters":13600,"station_id":"ce4bhgh2rcd13ifvqfb0","pricing_plan_id":"cebpf4jnsgd1na2vs0mg"},{"bike_id":"93ca5b8d-3716-4cc0-9c2b-fa25f4b4f35f","system_id":"levelo_inurba_marseille","lat":43.26569,"lon":5.39014,"is_reserved":false,"is_disabled":false,"rental_uris":{"android":"levelo://app?vid=93ca5b8d-3716-4cc0-9c2b-fa25f4b4f35f","ios":"levelo://app?vid=93ca5b8d-3716-4cc0-9c2b-fa25f4b4f35f"},"vehicle_type_id":"4","last_reported":1762085883,"current_range_meters":13600,"station_id":"ce4bhe12rcd13ifvqf30","pricing_plan_id":"cebpf4jnsgd1na2vs0mg"},{"bike_id":"c973a024-d748-4e38-8bef-cb9aaf4e7b03","system_id":"levelo_inurba_marseille","lat":43.25335,"lon":5.42173,"is_reserved":false,"is_disabled":false,"rental_uris":{"android":"levelo://app?vid=c973a024-d748-4e38-8bef-cb9aaf4e7b03","ios":"levelo://app?vid=c973a024-d748-4e38-8bef-cb9aaf4e7b03"},"vehicle_type_id":"4","last_reported":1762085883,"current_range_meters":13600,"station_id":"st_d2m65c5bi1j21697t3ng","pricing_plan_id":"cebpf4jnsgd1na2vs0mg"},{"bike_id":"079d2352-ba60-4c63-b7a4-6ec0ccf76dcc","system_id":"levelo_inurba_marseille","lat":43.25698,"lon":5.41123,"is_reserved":false,"is_disabled":false,"rental_uris":{"android":"levelo://app?vid=079d2352-ba60-4c63-b7a4-6ec0ccf76dcc","ios":"levelo://app?vid=079d2352-ba60-4c63-b7a4-6ec0ccf76dcc"},"vehicle_type_id":"4","last_reported":1762085883,"current_range_meters":14000,"station_id":"ce4bhkp2rcd13ifvqgd0","pricing_plan_id":"cebpf4jnsgd1na2vs0mg"},{"bike_id":"ebf85bdb-1a2b-49af-a88d-03e90d4c31b8","system_id":"levelo_inurba_marseille","lat":43.23955,"lon":5.36629,"is_reserved":false,"is_disabled":true,"rental_uris":{"android":"levelo://app?vid=ebf85bdb-1a2b-49af-a88d-03e90d4c31b8","ios":"levelo://app?vid=ebf85bdb-1a2b-49af-a88d-03e90d4c31b8"},"vehicle_type_id":"4","last_reported":1762085883,"current_range_meters":14000,"station_id":"ce4bhi12rcd13ifvqfp0","pricing_plan_id":"cebpf4jnsgd1na2vs0mg"},{"bike_id":"8adef542-af60-4b61-8a5b-4b604c3bcfe4","system_id":"levelo_inurba_marseille","lat":43.2464,"lon":5.431402,"is_reserved":false,"is_disabled":false,"rental_uris":{"android":"levelo://app?vid=8adef542-af60-4b61-8a5b-4b604c3bcfe4","ios":"levelo://app?vid=8adef542-af60-4b61-8a5b-4b604c3bcfe4"},"vehicle_type_id":"4","last_reported":1762085883,"current_range_meters":14000,"station_id":"st_d2m6c4gdas8pm72e190g","pricing_plan_id":"cebpf4jnsgd1na2vs0mg"},{"bike_id":"0d3e0b55-eff8-448b-8988-99ff4e704c13","system_id":"levelo_inurba_marseille","lat":43.288725,"lon":5.378889,"is_reserved":false,"is_disabled":false,"rental_uris":{"android":"levelo://app?vid=0d3e0b55-eff8-448b-8988-99ff4e704c13","ios":"levelo://app?vid=0d3e0b55-eff8-448b-8988-99ff4e704c13"},"vehicle_type_id":"4","last_reported":1762085883,"current_range_meters":14000,"station_id":"","pricing_plan_id":"cebpf4jnsgd1na2vs0mg"},{"bike_id":"77679107-31f6-4769-888c-bfa8b6d2bccd","system_id":"levelo_inurba_marseille","lat":43.28857,"lon":5.42523,"is_reserved":false,"is_disabled":false,"rental_uris":{"android":"levelo://app?vid=77679107-31f6-4769-888c-bfa8b6d2bccd","ios":"levelo://app?vid=77679107-31f6-4769-888c-bfa8b6d2bccd"},"vehicle_type_id":"4","last_reported":1762085883,"current_range_meters":14400,"station_id":"st_d3b462108ojc7389ooeg","pricing_plan_id":"cebpf4jnsgd1na2vs0mg"},{"bike_id":"25b8b9c6-92a5-43d3-8767-0700e7c7de1c","system_id":"levelo_inurba_marseille","lat":43.337661,"lon":5.374237,"is_reserved":false,"is_disabled":false,"rental_uris":{"android":"levelo://app?vid=25b8b9c6-92a5-43d3-8767-0700e7c7de1c","ios":"levelo://app?vid=25b8b9c6-92a5-43d3-8767-0700e7c7de1c"},"vehicle_type_id":"4","last_reported":1762085883,"current_range_meters":14400,"station_id":"","pricing_plan_id":"cebpf4jnsgd1na2vs0mg"},{"bike_id":"14b92a7a-0805-475a-abfd-8c979184b42b","system_id":"levelo_inurba_marseille","lat":43.309884,"lon":5.3703,"is_reserved":false,"is_disabled":false,"rental_uris":{"android":"levelo://app?vid=14b92a7a-0805-475a-abfd-8c979184b42b","ios":"levelo://app?vid=14b92a7a-0805-475a-abfd-8c979184b42b"},"vehicle_type_id":"4","last_reported":1762085883,"current_range_meters":14800,"station_id":"","pricing_plan_id":"cebpf4jnsgd1na2vs0mg"},{"bike_id":"23964231-9294-40d2-9d81-16e99ab01d5b","system_id":"levelo_inurba_marseille","lat":43.25298,"lon":5.42252,"is_reserved":false,"is_disabled":false,"rental_uris":{"android":"levelo://app?vid=23964231-9294-40d2-9d81-16e99ab01d5b","ios":"levelo://app?vid=23964231-9294-40d2-9d81-16e99ab01d5b"},"vehicle_type_id":"4","last_reported":1762085883,"current_range_meters":14800,"station_id":"","pricing_plan_id":"cebpf4jnsgd1na2vs0mg"},{"bike_id":"aad6a064-c048-4ba9-a156-1745b89548aa","system_id":"levelo_inurba_marseille","lat":43.283121,"lon":5.410994,"is_reserved":false,"is_disabled":false,"rental_uris":{"android":"levelo://app?vid=aad6a064-c048-4ba9-a156-1745b89548aa","ios":"levelo://app?vid=aad6a064-c048-4ba9-a156-1745b89548aa"},"vehicle_type_id":"4","last_reported":1762085883,"current_range_meters":14800,"station_id":"","pricing_plan_id":"cebpf4jnsgd1na2vs0mg"},{"bike_id":"423802bb-722e-4533-9018-c0f75cce34a6","system_id":"levelo_inurba_marseille","lat":43.30684,"lon":5.38157,"is_reserved":false,"is_disabled":false,"rental_uris":{"android":"levelo://app?vid=423802bb-722e-4533-9018-c0f75cce34a6","ios":"levelo://app?vid=423802bb-722e-4533-9018-c0f75cce34a6"},"vehicle_type_id":"4","last_reported":1762085883,"current_range_meters":15200,"station_id":"","pricing_plan_id":"cebpf4jnsgd1na2vs0mg"},{"bike_id":"d1a883c7-bf78-4e4c-9ee2-0c04644fb23c","system_id":"levelo_inurba_marseille","lat":43.26928,"lon":5.38916,"is_reserved":false,"is_disabled":false,"rental_uris":{"android":"levelo://app?vid=d1a883c7-bf78-4e4c-9ee2-0c04644fb23c","ios":"levelo://app?vid=d1a883c7-bf78-4e4c-9ee2-0c04644fb23c"},"vehicle_type_id":"4","last_reported":1762085883,"current_range_meters":15200,"station_id":"ce4bhhh2rcd13ifvqfl0","pricing_plan_id":"cebpf4jnsgd1na2vs0mg"},{"bike_id":"12c24c1a-5f34-4e4f-b6c0-f07cd6755b8d","system_id":"levelo_inurba_marseille","lat":43.24941,"lon":5.4049,"is_reserved":false,"is_disabled":false,"rental_uris":{"android":"levelo://app?vid=12c24c1a-5f34-4e4f-b6c0-f07cd6755b8d","ios":"levelo://app?vid=12c24c1a-5f34-4e4f-b6c0-f07cd6755b8d"},"vehicle_type_id":"4","last_reported":1762085883,"current_range_meters":15200,"station_id":"st_d2ngiaodas8pm72gd1h0","pricing_plan_id":"cebpf4jnsgd1na2vs0mg"},{"bike_id":"4bf1dc4f-c963-4e68-9bbf-e958c9e8f58a","system_id":"levelo_inurba_marseille","lat":43.29267,"lon":5.37632,"is_reserved":false,"is_disabled":false,"rental_uris":{"android":"levelo://app?vid=4bf1dc4f-c963-4e68-9bbf-e958c9e8f58a","ios":"levelo://app?vid=4bf1dc4f-c963-4e68-9bbf-e958c9e8f58a"},"vehicle_type_id":"4","last_reported":1762085883,"current_range_meters":15200,"station_id":"ce4bgi12rcd13ifvqb80","pricing_plan_id":"cebpf4jnsgd1na2vs0mg"},{"bike_id":"e2b26344-8047-452f-a135-c9163ba63ac5","system_id":"levelo_inurba_marseille","lat":43.21751,"lon":5.34579,"is_reserved":false,"is_disabled":false,"rental_uris":{"android":"levelo://app?vid=e2b26344-8047-452f-a135-c9163ba63ac5","ios":"levelo://app?vid=e2b26344-8047-452f-a135-c9163ba63ac5"},"vehicle_type_id":"4","last_reported":1762085883,"current_range_meters":15200,"station_id":"st_cvj6r9ubvosntc0bgbag","pricing_plan_id":"cebpf4jnsgd1na2vs0mg"},{"bike_id":"dd70bcc2-2e6b-447f-adc2-e0826cf93554","system_id":"levelo_inurba_marseille","lat":43.31909,"lon":5.40158,"is_reserved":false,"is_disabled":false,"rental_uris":{"android":"levelo://app?vid=dd70bcc2-2e6b-447f-adc2-e0826cf93554","ios":"levelo://app?vid=dd70bcc2-2e6b-447f-adc2-e0826cf93554"},"vehicle_type_id":"4","last_reported":1762085883,"current_range_meters":15200,"station_id":"","pricing_plan_id":"cebpf4jnsgd1na2vs0mg"},{"bike_id":"066ede02-47a2-4c83-bcb1-7eb633a370fb","system_id":"levelo_inurba_marseille","lat":43.31281,"lon":5.37759,"is_reserved":false,"is_disabled":false,"rental_uris":{"android":"levelo://app?vid=066ede02-47a2-4c83-bcb1-7eb633a370fb","ios":"levelo://app?vid=066ede02-47a2-4c83-bcb1-7eb633a370fb"},"vehicle_type_id":"4","last_reported":1762085883,"current_range_meters":16000,"station_id":"","pricing_plan_id":"cebpf4jnsgd1na2vs0mg"},{"bike_id":"525e892f-ba40-4204-91f2-c37ed32709c7","system_id":"levelo_inurba_marseille","lat":43.29621,"lon":5.37158,"is_reserved":false,"is_disabled":false,"rental_uris":{"android":"levelo://app?vid=525e892f-ba40-4204-91f2-c37ed32709c7","ios":"levelo://app?vid=525e892f-ba40-4204-91f2-c37ed32709c7"},"vehicle_type_id":"4","last_reported":1762085883,"current_range_meters":16000,"station_id":"ce4bgnh2rcd13ifvqc0g","pricing_plan_id":"cebpf4jnsgd1na2vs0mg"},{"bike_id":"04017ca4-97fd-4759-9184-7d6b0cf1d686","system_id":"levelo_inurba_marseille","lat":43.30157,"lon":5.38109,"is_reserved":false,"is_disabled":false,"rental_uris":{"android":"levelo://app?vid=04017ca4-97fd-4759-9184-7d6b0cf1d686","ios":"levelo://app?vid=04017ca4-97fd-4759-9184-7d6b0cf1d686"},"vehicle_type_id":"4","last_reported":1762085883,"current_range_meters":16000,"station_id":"ce4bgjp2rcd13ifvqbh0","pricing_plan_id":"cebpf4jnsgd1na2vs0mg"},{"bike_id":"6eb523a4-350d-4959-ac5e-1335d8f70954","system_id":"levelo_inurba_marseille","lat":43.315717,"lon":5.406423,"is_reserved":false,"is_disabled":false,"rental_uris":{"android":"levelo://app?vid=6eb523a4-350d-4959-ac5e-1335d8f70954","ios":"levelo://app?vid=6eb523a4-350d-4959-ac5e-1335d8f70954"},"vehicle_type_id":"4","last_reported":1762085883,"current_range_meters":16000,"station_id":"","pricing_plan_id":"cebpf4jnsgd1na2vs0mg"},{"bike_id":"8015b7d6-bc9b-4269-b31c-ac60ba8c2053","system_id":"levelo_inurba_marseille","lat":43.2119,"lon":5.35075,"is_reserved":false,"is_disabled":false,"rental_uris":{"android":"levelo://app?vid=8015b7d6-bc9b-4269-b31c-ac60ba8c2053","ios":"levelo://app?vid=8015b7d6-bc9b-4269-b31c-ac60ba8c2053"},"vehicle_type_id":"4","last_reported":1762085883,"current_range_meters":16400,"station_id":"st_cvj6sg6p6f1abm77japg","pricing_plan_id":"cebpf4jnsgd1na2vs0mg"},{"bike_id":"aef75ae5-d606-43b6-8ba5-d53a35c16de5","system_id":"levelo_inurba_marseille","lat":43.27436,"lon":5.39418,"is_reserved":false,"is_disabled":true,"rental_uris":{"android":"levelo://app?vid=aef75ae5-d606-43b6-8ba5-d53a35c16de5","ios":"levelo://app?vid=aef75ae5-d606-43b6-8ba5-d53a35c16de5"},"vehicle_type_id":"4","last_reported":1762085883,"current_range_meters":16400,"station_id":"ce4bhdp2rcd13ifvqf20","pricing_plan_id":"cebpf4jnsgd1na2vs0mg"},{"bike_id":"1c7e9560-2754-4a88-b1cb-cdee38fc1289","system_id":"levelo_inurba_marseille","lat":43.26943,"lon":5.402955,"is_reserved":false,"is_disabled":true,"rental_uris":{"android":"levelo://app?vid=1c7e9560-2754-4a88-b1cb-cdee38fc1289","ios":"levelo://app?vid=1c7e9560-2754-4a88-b1cb-cdee38fc1289"},"vehicle_type_id":"4","last_reported":1762085883,"current_range_meters":16400,"station_id":"cjm6bp8fraef2m0cb0m0","pricing_plan_id":"cebpf4jnsgd1na2vs0mg"},{"bike_id":"fe2272ea-7316-4280-b90c-d8c4db7bc73e","system_id":"levelo_inurba_marseille","lat":43.279466,"lon":5.392922,"is_reserved":false,"is_disabled":false,"rental_uris":{"android":"levelo://app?vid=fe2272ea-7316-4280-b90c-d8c4db7bc73e","ios":"levelo://app?vid=fe2272ea-7316-4280-b90c-d8c4db7bc73e"},"vehicle_type_id":"4","last_reported":1762085883,"current_range_meters":16400,"station_id":"","pricing_plan_id":"cebpf4jnsgd1na2vs0mg"},{"bike_id":"e577de6a-844d-41f0-8898-127a57d2f89e","system_id":"levelo_inurba_marseille","lat":43.289978,"lon":5.356274,"is_reserved":false,"is_disabled":false,"rental_uris":{"android":"levelo://app?vid=e577de6a-844d-41f0-8898-127a57d2f89e","ios":"levelo://app?vid=e577de6a-844d-41f0-8898-127a57d2f89e"},"vehicle_type_id":"4","last_reported":1762085883,"current_range_meters":16400,"station_id":"ce4bgih2rcd13ifvqba0","pricing_plan_id":"cebpf4jnsgd1na2vs0mg"},{"bike_id":"6a1cc001-3bc9-4225-8e3c-d058d9b19e8e","system_id":"levelo_inurba_marseille","lat":43.24642,"lon":5.43134,"is_reserved":false,"is_disabled":false,"rental_uris":{"android":"levelo://app?vid=6a1cc001-3bc9-4225-8e3c-d058d9b19e8e","ios":"levelo://app?vid=6a1cc001-3bc9-4225-8e3c-d058d9b19e8e"},"vehicle_type_id":"4","last_reported":1762085883,"current_range_meters":16400,"station_id":"st_d2m6c4gdas8pm72e190g","pricing_plan_id":"cebpf4jnsgd1na2vs0mg"},{"bike_id":"ea981441-de44-4e91-a60f-0f3605343256","system_id":"levelo_inurba_marseille","lat":43.32206,"lon":5.36779,"is_reserved":false,"is_disabled":false,"rental_uris":{"android":"levelo://app?vid=ea981441-de44-4e91-a60f-0f3605343256","ios":"levelo://app?vid=ea981441-de44-4e91-a60f-0f3605343256"},"vehicle_type_id":"4","last_reported":1762085883,"current_range_meters":16400,"station_id":"ce4bhrh2rcd13ifvqhug","pricing_plan_id":"cebpf4jnsgd1na2vs0mg"},{"bike_id":"02ab0480-1393-487e-95a2-314141ae01bf","system_id":"levelo_inurba_marseille","lat":43.281544,"lon":5.426416,"is_reserved":false,"is_disabled":false,"rental_uris":{"android":"levelo://app?vid=02ab0480-1393-487e-95a2-314141ae01bf","ios":"levelo://app?vid=02ab0480-1393-487e-95a2-314141ae01bf"},"vehicle_type_id":"4","last_reported":1762085883,"current_range_meters":16800,"station_id":"ce4bhnh2rcd13ifvqgug","pricing_plan_id":"cebpf4jnsgd1na2vs0mg"},{"bike_id":"85d8043d-b929-43f8-9188-ad421047c360","system_id":"levelo_inurba_marseille","lat":43.25325,"lon":5.42165,"is_reserved":false,"is_disabled":false,"rental_uris":{"android":"levelo://app?vid=85d8043d-b929-43f8-9188-ad421047c360","ios":"levelo://app?vid=85d8043d-b929-43f8-9188-ad421047c360"},"vehicle_type_id":"4","last_reported":1762085883,"current_range_meters":16800,"station_id":"st_d2m65c5bi1j21697t3ng","pricing_plan_id":"cebpf4jnsgd1na2vs0mg"},{"bike_id":"fcc7a5b9-eb88-45bf-aebf-cf96cca8c3ef","system_id":"levelo_inurba_marseille","lat":43.24663,"lon":5.38151,"is_reserved":false,"is_disabled":false,"rental_uris":{"android":"levelo://app?vid=fcc7a5b9-eb88-45bf-aebf-cf96cca8c3ef","ios":"levelo://app?vid=fcc7a5b9-eb88-45bf-aebf-cf96cca8c3ef"},"vehicle_type_id":"4","last_reported":1762085883,"current_range_meters":16800,"station_id":"ce4bhih2rcd13ifvqfr0","pricing_plan_id":"cebpf4jnsgd1na2vs0mg"},{"bike_id":"6dbae8fb-b558-4de5-931e-260b80081062","system_id":"levelo_inurba_marseille","lat":43.298986,"lon":5.436683,"is_reserved":false,"is_disabled":false,"rental_uris":{"android":"levelo://app?vid=6dbae8fb-b558-4de5-931e-260b80081062","ios":"levelo://app?vid=6dbae8fb-b558-4de5-931e-260b80081062"},"vehicle_type_id":"4","last_reported":1762085883,"current_range_meters":16800,"station_id":"ce4bhpp2rcd13ifvqhfg","pricing_plan_id":"cebpf4jnsgd1na2vs0mg"},{"bike_id":"b0f13743-8000-4cf9-9975-6d3a0b7effc8","system_id":"levelo_inurba_marseille","lat":43.30586,"lon":5.37223,"is_reserved":false,"is_disabled":false,"rental_uris":{"android":"levelo://app?vid=b0f13743-8000-4cf9-9975-6d3a0b7effc8","ios":"levelo://app?vid=b0f13743-8000-4cf9-9975-6d3a0b7effc8"},"vehicle_type_id":"4","last_reported":1762085883,"current_range_meters":16800,"station_id":"ce4bgqh2rcd13ifvqc4g","pricing_plan_id":"cebpf4jnsgd1na2vs0mg"},{"bike_id":"cc475582-0cc3-4b14-a66c-6041b0d2e976","system_id":"levelo_inurba_marseille","lat":43.29335,"lon":5.41178,"is_reserved":false,"is_disabled":false,"rental_uris":{"android":"levelo://app?vid=cc475582-0cc3-4b14-a66c-6041b0d2e976","ios":"levelo://app?vid=cc475582-0cc3-4b14-a66c-6041b0d2e976"},"vehicle_type_id":"4","last_reported":1762085883,"current_range_meters":16800,"station_id":"","pricing_plan_id":"cebpf4jnsgd1na2vs0mg"},{"bike_id":"aa56963e-5f6a-4043-b1c7-23e4d9f05d8c","system_id":"levelo_inurba_marseille","lat":43.313499,"lon":5.379119,"is_reserved":false,"is_disabled":false,"rental_uris":{"android":"levelo://app?vid=aa56963e-5f6a-4043-b1c7-23e4d9f05d8c","ios":"levelo://app?vid=aa56963e-5f6a-4043-b1c7-23e4d9f05d8c"},"vehicle_type_id":"4","last_reported":1762085883,"current_range_meters":16800,"station_id":"","pricing_plan_id":"cebpf4jnsgd1na2vs0mg"},{"bike_id":"1ea25aae-1a14-4d81-bcf2-e50f4d7cbcc7","system_id":"levelo_inurba_marseille","lat":43.28695,"lon":5.3998,"is_reserved":false,"is_disabled":false,"rental_uris":{"android":"levelo://app?vid=1ea25aae-1a14-4d81-bcf2-e50f4d7cbcc7","ios":"levelo://app?vid=1ea25aae-1a14-4d81-bcf2-e50f4d7cbcc7"},"vehicle_type_id":"4","last_reported":1762085883,"current_range_meters":16800,"station_id":"ce4bho92rcd13ifvqh3g","pricing_plan_id":"cebpf4jnsgd1na2vs0mg"},{"bike_id":"2028d4ce-ded6-40be-bc4a-6279c68b564c","system_id":"levelo_inurba_marseille","lat":43.21743,"lon":5.34605,"is_reserved":false,"is_disabled":false,"rental_uris":{"android":"levelo://app?vid=2028d4ce-ded6-40be-bc4a-6279c68b564c","ios":"levelo://app?vid=2028d4ce-ded6-40be-bc4a-6279c68b564c"},"vehicle_type_id":"4","last_reported":1762085883,"current_range_meters":16800,"station_id":"","pricing_plan_id":"cebpf4jnsgd1na2vs0mg"},{"bike_id":"65959e76-2dec-43d3-b15c-b4e7433182fd","system_id":"levelo_inurba_marseille","lat":43.293631,"lon":5.371955,"is_reserved":false,"is_disabled":false,"rental_uris":{"android":"levelo://app?vid=65959e76-2dec-43d3-b15c-b4e7433182fd","ios":"levelo://app?vid=65959e76-2dec-43d3-b15c-b4e7433182fd"},"vehicle_type_id":"4","last_reported":1762085883,"current_range_meters":17200,"station_id":"","pricing_plan_id":"cebpf4jnsgd1na2vs0mg"},{"bike_id":"5c5e9fc4-c8f2-4c00-9b16-35798c734930","system_id":"levelo_inurba_marseille","lat":43.30591,"lon":5.37216,"is_reserved":false,"is_disabled":false,"rental_uris":{"android":"levelo://app?vid=5c5e9fc4-c8f2-4c00-9b16-35798c734930","ios":"levelo://app?vid=5c5e9fc4-c8f2-4c00-9b16-35798c734930"},"vehicle_type_id":"4","last_reported":1762085883,"current_range_meters":17200,"station_id":"ce4bgqh2rcd13ifvqc4g","pricing_plan_id":"cebpf4jnsgd1na2vs0mg"},{"bike_id":"f10c1fd0-819c-4bcb-a779-837cb537741a","system_id":"levelo_inurba_marseille","lat":43.29486,"lon":5.37466,"is_reserved":false,"is_disabled":false,"rental_uris":{"android":"levelo://app?vid=f10c1fd0-819c-4bcb-a779-837cb537741a","ios":"levelo://app?vid=f10c1fd0-819c-4bcb-a779-837cb537741a"},"vehicle_type_id":"4","last_reported":1762085883,"current_range_meters":17200,"station_id":"","pricing_plan_id":"cebpf4jnsgd1na2vs0mg"},{"bike_id":"1f4bf620-5a86-4131-b1aa-491aa828d1ad","system_id":"levelo_inurba_marseille","lat":43.2508,"lon":5.39526,"is_reserved":false,"is_disabled":false,"rental_uris":{"android":"levelo://app?vid=1f4bf620-5a86-4131-b1aa-491aa828d1ad","ios":"levelo://app?vid=1f4bf620-5a86-4131-b1aa-491aa828d1ad"},"vehicle_type_id":"4","last_reported":1762085883,"current_range_meters":17600,"station_id":"ce4bhm12rcd13ifvqgkg","pricing_plan_id":"cebpf4jnsgd1na2vs0mg"},{"bike_id":"082a1fc9-fa33-4385-8dc2-797cf958a64d","system_id":"levelo_inurba_marseille","lat":43.30795,"lon":5.43537,"is_reserved":false,"is_disabled":false,"rental_uris":{"android":"levelo://app?vid=082a1fc9-fa33-4385-8dc2-797cf958a64d","ios":"levelo://app?vid=082a1fc9-fa33-4385-8dc2-797cf958a64d"},"vehicle_type_id":"4","last_reported":1762085883,"current_range_meters":17600,"station_id":"","pricing_plan_id":"cebpf4jnsgd1na2vs0mg"},{"bike_id":"e37a3e06-24f5-4130-8d50-b62005271d50","system_id":"levelo_inurba_marseille","lat":43.24156,"lon":5.36402,"is_reserved":false,"is_disabled":false,"rental_uris":{"android":"levelo://app?vid=e37a3e06-24f5-4130-8d50-b62005271d50","ios":"levelo://app?vid=e37a3e06-24f5-4130-8d50-b62005271d50"},"vehicle_type_id":"4","last_reported":1762085883,"current_range_meters":17600,"station_id":"cpo36qri1sfpv3e86is0","pricing_plan_id":"cebpf4jnsgd1na2vs0mg"},{"bike_id":"71d30f73-c7cf-460d-bade-562daa7e1043","system_id":"levelo_inurba_marseille","lat":43.273155,"lon":5.39058,"is_reserved":false,"is_disabled":false,"rental_uris":{"android":"levelo://app?vid=71d30f73-c7cf-460d-bade-562daa7e1043","ios":"levelo://app?vid=71d30f73-c7cf-460d-bade-562daa7e1043"},"vehicle_type_id":"4","last_reported":1762085883,"current_range_meters":17600,"station_id":"ce4bhmh2rcd13ifvqgmg","pricing_plan_id":"cebpf4jnsgd1na2vs0mg"},{"bike_id":"123ec047-d6a2-4308-aee4-8ec0b2bea538","system_id":"levelo_inurba_marseille","lat":43.231948,"lon":5.355529,"is_reserved":false,"is_disabled":false,"rental_uris":{"android":"levelo://app?vid=123ec047-d6a2-4308-aee4-8ec0b2bea538","ios":"levelo://app?vid=123ec047-d6a2-4308-aee4-8ec0b2bea538"},"vehicle_type_id":"4","last_reported":1762085883,"current_range_meters":17600,"station_id":"ce4bhu92rcd13ifvqi70","pricing_plan_id":"cebpf4jnsgd1na2vs0mg"},{"bike_id":"4f2560ae-c631-4e46-981e-63c5a3acd16c","system_id":"levelo_inurba_marseille","lat":43.27321,"lon":5.3906,"is_reserved":false,"is_disabled":false,"rental_uris":{"android":"levelo://app?vid=4f2560ae-c631-4e46-981e-63c5a3acd16c","ios":"levelo://app?vid=4f2560ae-c631-4e46-981e-63c5a3acd16c"},"vehicle_type_id":"4","last_reported":1762085883,"current_range_meters":18000,"station_id":"ce4bhgp2rcd13ifvqfe0","pricing_plan_id":"cebpf4jnsgd1na2vs0mg"},{"bike_id":"6dd18053-e3ac-4ec6-8544-7b6c95a61457","system_id":"levelo_inurba_marseille","lat":43.24169,"lon":5.3639,"is_reserved":false,"is_disabled":false,"rental_uris":{"android":"levelo://app?vid=6dd18053-e3ac-4ec6-8544-7b6c95a61457","ios":"levelo://app?vid=6dd18053-e3ac-4ec6-8544-7b6c95a61457"},"vehicle_type_id":"4","last_reported":1762085883,"current_range_meters":18000,"station_id":"cpo36qri1sfpv3e86is0","pricing_plan_id":"cebpf4jnsgd1na2vs0mg"},{"bike_id":"4c2e795a-4ac2-4fba-b47e-7412c196e673","system_id":"levelo_inurba_marseille","lat":43.321078,"lon":5.367676,"is_reserved":false,"is_disabled":false,"rental_uris":{"android":"levelo://app?vid=4c2e795a-4ac2-4fba-b47e-7412c196e673","ios":"levelo://app?vid=4c2e795a-4ac2-4fba-b47e-7412c196e673"},"vehicle_type_id":"4","last_reported":1762085883,"current_range_meters":18000,"station_id":"ce4bhrh2rcd13ifvqhug","pricing_plan_id":"cebpf4jnsgd1na2vs0mg"},{"bike_id":"b2514755-0f11-4833-b225-7d1f8289efa4","system_id":"levelo_inurba_marseille","lat":43.229288,"lon":5.353781,"is_reserved":false,"is_disabled":false,"rental_uris":{"android":"levelo://app?vid=b2514755-0f11-4833-b225-7d1f8289efa4","ios":"levelo://app?vid=b2514755-0f11-4833-b225-7d1f8289efa4"},"vehicle_type_id":"4","last_reported":1762085883,"current_range_meters":18000,"station_id":"cpo3532slgdg3j2ikp40","pricing_plan_id":"cebpf4jnsgd1na2vs0mg"},{"bike_id":"ac6fb5ab-2bf5-4938-b19e-f037b143495c","system_id":"levelo_inurba_marseille","lat":43.27073,"lon":5.42277,"is_reserved":false,"is_disabled":false,"rental_uris":{"android":"levelo://app?vid=ac6fb5ab-2bf5-4938-b19e-f037b143495c","ios":"levelo://app?vid=ac6fb5ab-2bf5-4938-b19e-f037b143495c"},"vehicle_type_id":"4","last_reported":1762085883,"current_range_meters":18000,"station_id":"ce4bhk92rcd13ifvqgb0","pricing_plan_id":"cebpf4jnsgd1na2vs0mg"},{"bike_id":"326f8abc-ee8f-41e2-9543-c0cc7abb80d8","system_id":"levelo_inurba_marseille","lat":43.304603,"lon":5.378958,"is_reserved":false,"is_disabled":false,"rental_uris":{"android":"levelo://app?vid=326f8abc-ee8f-41e2-9543-c0cc7abb80d8","ios":"levelo://app?vid=326f8abc-ee8f-41e2-9543-c0cc7abb80d8"},"vehicle_type_id":"4","last_reported":1762085883,"current_range_meters":18000,"station_id":"ce4bgup2rcd13ifvqcn0","pricing_plan_id":"cebpf4jnsgd1na2vs0mg"},{"bike_id":"098d7ae5-5b2b-4d49-ad2f-d14f29937957","system_id":"levelo_inurba_marseille","lat":43.28984,"lon":5.3783,"is_reserved":false,"is_disabled":true,"rental_uris":{"android":"levelo://app?vid=098d7ae5-5b2b-4d49-ad2f-d14f29937957","ios":"levelo://app?vid=098d7ae5-5b2b-4d49-ad2f-d14f29937957"},"vehicle_type_id":"4","last_reported":1762085883,"current_range_meters":18000,"station_id":"ce4bh9p2rcd13ifvqed0","pricing_plan_id":"cebpf4jnsgd1na2vs0mg"},{"bike_id":"28f5c609-94bd-4f1d-9186-f66e4c2140b5","system_id":"levelo_inurba_marseille","lat":43.30734,"lon":5.42427,"is_reserved":false,"is_disabled":false,"rental_uris":{"android":"levelo://app?vid=28f5c609-94bd-4f1d-9186-f66e4c2140b5","ios":"levelo://app?vid=28f5c609-94bd-4f1d-9186-f66e4c2140b5"},"vehicle_type_id":"4","last_reported":1762085883,"current_range_meters":18000,"station_id":"st_cvj6ca6bvosntc0bfgr0","pricing_plan_id":"cebpf4jnsgd1na2vs0mg"},{"bike_id":"bc97e72b-f479-4cfb-ba90-458ce1432bd8","system_id":"levelo_inurba_marseille","lat":43.30295,"lon":5.37696,"is_reserved":false,"is_disabled":true,"rental_uris":{"android":"levelo://app?vid=bc97e72b-f479-4cfb-ba90-458ce1432bd8","ios":"levelo://app?vid=bc97e72b-f479-4cfb-ba90-458ce1432bd8"},"vehicle_type_id":"4","last_reported":1762085883,"current_range_meters":18000,"station_id":"ce4bguh2rcd13ifvqcj0","pricing_plan_id":"cebpf4jnsgd1na2vs0mg"},{"bike_id":"9cf7e28f-7b0d-4c2c-a2b9-f3633fadfc11","system_id":"levelo_inurba_marseille","lat":43.31885,"lon":5.40741,"is_reserved":false,"is_disabled":false,"rental_uris":{"android":"levelo://app?vid=9cf7e28f-7b0d-4c2c-a2b9-f3633fadfc11","ios":"levelo://app?vid=9cf7e28f-7b0d-4c2c-a2b9-f3633fadfc11"},"vehicle_type_id":"4","last_reported":1762085883,"current_range_meters":18000,"station_id":"ce4bhq12rcd13ifvqhig","pricing_plan_id":"cebpf4jnsgd1na2vs0mg"},{"bike_id":"7a1341c1-279d-43be-95ee-668d80a475d4","system_id":"levelo_inurba_marseille","lat":43.29932,"lon":5.36533,"is_reserved":false,"is_disabled":false,"rental_uris":{"android":"levelo://app?vid=7a1341c1-279d-43be-95ee-668d80a475d4","ios":"levelo://app?vid=7a1341c1-279d-43be-95ee-668d80a475d4"},"vehicle_type_id":"4","last_reported":1762085883,"current_range_meters":18000,"station_id":"ce4bgm92rcd13ifvqbr0","pricing_plan_id":"cebpf4jnsgd1na2vs0mg"},{"bike_id":"85dce785-b2b7-4cf5-a34e-b4a9114ae38b","system_id":"levelo_inurba_marseille","lat":43.28417,"lon":5.35007,"is_reserved":false,"is_disabled":false,"rental_uris":{"android":"levelo://app?vid=85dce785-b2b7-4cf5-a34e-b4a9114ae38b","ios":"levelo://app?vid=85dce785-b2b7-4cf5-a34e-b4a9114ae38b"},"vehicle_type_id":"4","last_reported":1762085883,"current_range_meters":18800,"station_id":"ce4bhbh2rcd13ifvqepg","pricing_plan_id":"cebpf4jnsgd1na2vs0mg"},{"bike_id":"fee9f203-94b0-4e27-9dfb-d61c05870c4b","system_id":"levelo_inurba_marseille","lat":43.282172,"lon":5.390529,"is_reserved":false,"is_disabled":false,"rental_uris":{"android":"levelo://app?vid=fee9f203-94b0-4e27-9dfb-d61c05870c4b","ios":"levelo://app?vid=fee9f203-94b0-4e27-9dfb-d61c05870c4b"},"vehicle_type_id":"4","last_reported":1762085883,"current_range_meters":18800,"station_id":"ce4bhn92rcd13ifvqgsg","pricing_plan_id":"cebpf4jnsgd1na2vs0mg"},{"bike_id":"ef3051ac-87a4-400e-a432-5bfc2a83a3e3","system_id":"levelo_inurba_marseille","lat":43.32465,"lon":5.36557,"is_reserved":false,"is_disabled":false,"rental_uris":{"android":"levelo://app?vid=ef3051ac-87a4-400e-a432-5bfc2a83a3e3","ios":"levelo://app?vid=ef3051ac-87a4-400e-a432-5bfc2a83a3e3"},"vehicle_type_id":"4","last_reported":1762085883,"current_range_meters":18800,"station_id":"ce4bhs12rcd13ifvqhvg","pricing_plan_id":"cebpf4jnsgd1na2vs0mg"},{"bike_id":"054e5513-a18a-4fec-bab2-96a168188b7d","system_id":"levelo_inurba_marseille","lat":43.31178,"lon":5.3737,"is_reserved":false,"is_disabled":false,"rental_uris":{"android":"levelo://app?vid=054e5513-a18a-4fec-bab2-96a168188b7d","ios":"levelo://app?vid=054e5513-a18a-4fec-bab2-96a168188b7d"},"vehicle_type_id":"4","last_reported":1762085883,"current_range_meters":18800,"station_id":"","pricing_plan_id":"cebpf4jnsgd1na2vs0mg"},{"bike_id":"1a9255c3-f809-427d-b153-cdb99d824189","system_id":"levelo_inurba_marseille","lat":43.249521,"lon":5.404924,"is_reserved":false,"is_disabled":false,"rental_uris":{"android":"levelo://app?vid=1a9255c3-f809-427d-b153-cdb99d824189","ios":"levelo://app?vid=1a9255c3-f809-427d-b153-cdb99d824189"},"vehicle_type_id":"4","last_reported":1762085883,"current_range_meters":18800,"station_id":"st_d2ngiaodas8pm72gd1h0","pricing_plan_id":"cebpf4jnsgd1na2vs0mg"},{"bike_id":"09b89745-c041-4363-b9ab-193cbb81be39","system_id":"levelo_inurba_marseille","lat":43.28222,"lon":5.39074,"is_reserved":false,"is_disabled":false,"rental_uris":{"android":"levelo://app?vid=09b89745-c041-4363-b9ab-193cbb81be39","ios":"levelo://app?vid=09b89745-c041-4363-b9ab-193cbb81be39"},"vehicle_type_id":"4","last_reported":1762085883,"current_range_meters":18800,"station_id":"ce4bhn92rcd13ifvqgsg","pricing_plan_id":"cebpf4jnsgd1na2vs0mg"},{"bike_id":"3bd878b7-73a7-47b5-9b84-e62b459e5e81","system_id":"levelo_inurba_marseille","lat":43.31421,"lon":5.38434,"is_reserved":false,"is_disabled":false,"rental_uris":{"android":"levelo://app?vid=3bd878b7-73a7-47b5-9b84-e62b459e5e81","ios":"levelo://app?vid=3bd878b7-73a7-47b5-9b84-e62b459e5e81"},"vehicle_type_id":"4","last_reported":1762085883,"current_range_meters":19200,"station_id":"","pricing_plan_id":"cebpf4jnsgd1na2vs0mg"},{"bike_id":"2457a6da-e737-4e7a-9c85-e9723cf378b9","system_id":"levelo_inurba_marseille","lat":43.272,"lon":5.4099,"is_reserved":false,"is_disabled":false,"rental_uris":{"android":"levelo://app?vid=2457a6da-e737-4e7a-9c85-e9723cf378b9","ios":"levelo://app?vid=2457a6da-e737-4e7a-9c85-e9723cf378b9"},"vehicle_type_id":"4","last_reported":1762085883,"current_range_meters":19200,"station_id":"ce4bhl12rcd13ifvqgf0","pricing_plan_id":"cebpf4jnsgd1na2vs0mg"},{"bike_id":"75214922-1e7d-4be3-84ae-23b8d8279199","system_id":"levelo_inurba_marseille","lat":43.324668,"lon":5.36554,"is_reserved":false,"is_disabled":false,"rental_uris":{"android":"levelo://app?vid=75214922-1e7d-4be3-84ae-23b8d8279199","ios":"levelo://app?vid=75214922-1e7d-4be3-84ae-23b8d8279199"},"vehicle_type_id":"4","last_reported":1762085883,"current_range_meters":19200,"station_id":"ce4bhs12rcd13ifvqhvg","pricing_plan_id":"cebpf4jnsgd1na2vs0mg"},{"bike_id":"06756d68-f601-4313-a049-fec54d37d722","system_id":"levelo_inurba_marseille","lat":43.336107,"lon":5.410388,"is_reserved":false,"is_disabled":false,"rental_uris":{"android":"levelo://app?vid=06756d68-f601-4313-a049-fec54d37d722","ios":"levelo://app?vid=06756d68-f601-4313-a049-fec54d37d722"},"vehicle_type_id":"4","last_reported":1762085883,"current_range_meters":19200,"station_id":"ce4bhq92rcd13ifvqhkg","pricing_plan_id":"cebpf4jnsgd1na2vs0mg"},{"bike_id":"cfc27691-61f7-4b7d-9c2b-fa331c214f26","system_id":"levelo_inurba_marseille","lat":43.2803,"lon":5.36957,"is_reserved":false,"is_disabled":false,"rental_uris":{"android":"levelo://app?vid=cfc27691-61f7-4b7d-9c2b-fa331c214f26","ios":"levelo://app?vid=cfc27691-61f7-4b7d-9c2b-fa331c214f26"},"vehicle_type_id":"4","last_reported":1762085883,"current_range_meters":19200,"station_id":"ce4bha12rcd13ifvqef0","pricing_plan_id":"cebpf4jnsgd1na2vs0mg"},{"bike_id":"41a0e05b-05bf-4f74-92d2-741c85fb6fe4","system_id":"levelo_inurba_marseille","lat":43.25514,"lon":5.37651,"is_reserved":false,"is_disabled":true,"rental_uris":{"android":"levelo://app?vid=41a0e05b-05bf-4f74-92d2-741c85fb6fe4","ios":"levelo://app?vid=41a0e05b-05bf-4f74-92d2-741c85fb6fe4"},"vehicle_type_id":"4","last_reported":1762085883,"current_range_meters":19200,"station_id":"ce4bhh12rcd13ifvqff0","pricing_plan_id":"cebpf4jnsgd1na2vs0mg"},{"bike_id":"a1d40ddf-b5bf-4e28-b501-19b855936b47","system_id":"levelo_inurba_marseille","lat":43.28112,"lon":5.37835,"is_reserved":false,"is_disabled":false,"rental_uris":{"android":"levelo://app?vid=a1d40ddf-b5bf-4e28-b501-19b855936b47","ios":"levelo://app?vid=a1d40ddf-b5bf-4e28-b501-19b855936b47"},"vehicle_type_id":"4","last_reported":1762085883,"current_range_meters":19200,"station_id":"ce4bha12rcd13ifvqee0","pricing_plan_id":"cebpf4jnsgd1na2vs0mg"},{"bike_id":"4c4b8bcf-4ef8-4551-8b0c-0892f8af6559","system_id":"levelo_inurba_marseille","lat":43.22561,"lon":5.41614,"is_reserved":false,"is_disabled":false,"rental_uris":{"android":"levelo://app?vid=4c4b8bcf-4ef8-4551-8b0c-0892f8af6559","ios":"levelo://app?vid=4c4b8bcf-4ef8-4551-8b0c-0892f8af6559"},"vehicle_type_id":"4","last_reported":1762085883,"current_range_meters":19200,"station_id":"st_d2o4gvlbi1j2169b742g","pricing_plan_id":"cebpf4jnsgd1na2vs0mg"},{"bike_id":"1b1e71cc-c221-4e91-89c8-2d987f944d9c","system_id":"levelo_inurba_marseille","lat":43.24082,"lon":5.36309,"is_reserved":false,"is_disabled":true,"rental_uris":{"android":"levelo://app?vid=1b1e71cc-c221-4e91-89c8-2d987f944d9c","ios":"levelo://app?vid=1b1e71cc-c221-4e91-89c8-2d987f944d9c"},"vehicle_type_id":"4","last_reported":1762085883,"current_range_meters":19200,"station_id":"cpo36qri1sfpv3e86is0","pricing_plan_id":"cebpf4jnsgd1na2vs0mg"},{"bike_id":"45178dd9-b960-4161-871b-52bd5ff2bc66","system_id":"levelo_inurba_marseille","lat":43.2551,"lon":5.37661,"is_reserved":false,"is_disabled":false,"rental_uris":{"android":"levelo://app?vid=45178dd9-b960-4161-871b-52bd5ff2bc66","ios":"levelo://app?vid=45178dd9-b960-4161-871b-52bd5ff2bc66"},"vehicle_type_id":"4","last_reported":1762085883,"current_range_meters":19200,"station_id":"ce4bhh12rcd13ifvqff0","pricing_plan_id":"cebpf4jnsgd1na2vs0mg"},{"bike_id":"a09b7839-d620-4bdc-9e33-ea07afd23f6e","system_id":"levelo_inurba_marseille","lat":43.318895,"lon":5.407342,"is_reserved":false,"is_disabled":false,"rental_uris":{"android":"levelo://app?vid=a09b7839-d620-4bdc-9e33-ea07afd23f6e","ios":"levelo://app?vid=a09b7839-d620-4bdc-9e33-ea07afd23f6e"},"vehicle_type_id":"4","last_reported":1762085883,"current_range_meters":19200,"station_id":"ce4bhq12rcd13ifvqhig","pricing_plan_id":"cebpf4jnsgd1na2vs0mg"},{"bike_id":"d1b7e294-8ae6-48ef-89d0-e05e23f9f8e0","system_id":"levelo_inurba_marseille","lat":43.29537,"lon":5.36117,"is_reserved":false,"is_disabled":false,"rental_uris":{"android":"levelo://app?vid=d1b7e294-8ae6-48ef-89d0-e05e23f9f8e0","ios":"levelo://app?vid=d1b7e294-8ae6-48ef-89d0-e05e23f9f8e0"},"vehicle_type_id":"4","last_reported":1762085883,"current_range_meters":19200,"station_id":"","pricing_plan_id":"cebpf4jnsgd1na2vs0mg"},{"bike_id":"e0321cca-429d-4f2e-abae-abd56455804d","system_id":"levelo_inurba_marseille","lat":43.2871,"lon":5.39989,"is_reserved":false,"is_disabled":false,"rental_uris":{"android":"levelo://app?vid=e0321cca-429d-4f2e-abae-abd56455804d","ios":"levelo://app?vid=e0321cca-429d-4f2e-abae-abd56455804d"},"vehicle_type_id":"4","last_reported":1762085883,"current_range_meters":19200,"station_id":"ce4bho92rcd13ifvqh3g","pricing_plan_id":"cebpf4jnsgd1na2vs0mg"},{"bike_id":"f2634596-011c-4be3-9ce6-e77682f4a8fd","system_id":"levelo_inurba_marseille","lat":43.30869,"lon":5.39642,"is_reserved":false,"is_disabled":false,"rental_uris":{"android":"levelo://app?vid=f2634596-011c-4be3-9ce6-e77682f4a8fd","ios":"levelo://app?vid=f2634596-011c-4be3-9ce6-e77682f4a8fd"},"vehicle_type_id":"4","last_reported":1762085883,"current_range_meters":19600,"station_id":"ce4bh012rcd13ifvqcv0","pricing_plan_id":"cebpf4jnsgd1na2vs0mg"},{"bike_id":"32d4a401-7eac-4706-9e22-d4c2a7e55b17","system_id":"levelo_inurba_marseille","lat":43.24631,"lon":5.43145,"is_reserved":false,"is_disabled":false,"rental_uris":{"android":"levelo://app?vid=32d4a401-7eac-4706-9e22-d4c2a7e55b17","ios":"levelo://app?vid=32d4a401-7eac-4706-9e22-d4c2a7e55b17"},"vehicle_type_id":"4","last_reported":1762085883,"current_range_meters":19600,"station_id":"st_d2m6c4gdas8pm72e190g","pricing_plan_id":"cebpf4jnsgd1na2vs0mg"},{"bike_id":"2aa5ca15-b2b3-4ce6-9617-929a2f170c50","system_id":"levelo_inurba_marseille","lat":43.28412,"lon":5.34991,"is_reserved":false,"is_disabled":false,"rental_uris":{"android":"levelo://app?vid=2aa5ca15-b2b3-4ce6-9617-929a2f170c50","ios":"levelo://app?vid=2aa5ca15-b2b3-4ce6-9617-929a2f170c50"},"vehicle_type_id":"4","last_reported":1762085883,"current_range_meters":19600,"station_id":"ce4bhbh2rcd13ifvqepg","pricing_plan_id":"cebpf4jnsgd1na2vs0mg"},{"bike_id":"bc77ffed-2733-45b8-83e5-af5be8ba5ee6","system_id":"levelo_inurba_marseille","lat":43.29169,"lon":5.3717,"is_reserved":false,"is_disabled":false,"rental_uris":{"android":"levelo://app?vid=bc77ffed-2733-45b8-83e5-af5be8ba5ee6","ios":"levelo://app?vid=bc77ffed-2733-45b8-83e5-af5be8ba5ee6"},"vehicle_type_id":"4","last_reported":1762085883,"current_range_meters":19600,"station_id":"ce4bha92rcd13ifvqeh0","pricing_plan_id":"cebpf4jnsgd1na2vs0mg"},{"bike_id":"6d91648c-e5ff-403d-bfdd-a4dfa274490c","system_id":"levelo_inurba_marseille","lat":43.30539,"lon":5.36532,"is_reserved":false,"is_disabled":false,"rental_uris":{"android":"levelo://app?vid=6d91648c-e5ff-403d-bfdd-a4dfa274490c","ios":"levelo://app?vid=6d91648c-e5ff-403d-bfdd-a4dfa274490c"},"vehicle_type_id":"4","last_reported":1762085883,"current_range_meters":19600,"station_id":"ce4bgs12rcd13ifvqcag","pricing_plan_id":"cebpf4jnsgd1na2vs0mg"},{"bike_id":"b5949f05-5d02-4d0f-994e-856ab1c5eaf4","system_id":"levelo_inurba_marseille","lat":43.24146,"lon":5.39723,"is_reserved":false,"is_disabled":false,"rental_uris":{"android":"levelo://app?vid=b5949f05-5d02-4d0f-994e-856ab1c5eaf4","ios":"levelo://app?vid=b5949f05-5d02-4d0f-994e-856ab1c5eaf4"},"vehicle_type_id":"4","last_reported":1762085883,"current_range_meters":19600,"station_id":"ce4bhn12rcd13ifvqgpg","pricing_plan_id":"cebpf4jnsgd1na2vs0mg"},{"bike_id":"51269c00-a2ba-4283-a60c-3eda512d208a","system_id":"levelo_inurba_marseille","lat":43.301293,"lon":5.373957,"is_reserved":false,"is_disabled":false,"rental_uris":{"android":"levelo://app?vid=51269c00-a2ba-4283-a60c-3eda512d208a","ios":"levelo://app?vid=51269c00-a2ba-4283-a60c-3eda512d208a"},"vehicle_type_id":"4","last_reported":1762085883,"current_range_meters":19600,"station_id":"ce4bgs92rcd13ifvqcc0","pricing_plan_id":"cebpf4jnsgd1na2vs0mg"},{"bike_id":"b3f3f576-b1af-46a5-a68f-7d3451569350","system_id":"levelo_inurba_marseille","lat":43.286109,"lon":5.351011,"is_reserved":false,"is_disabled":false,"rental_uris":{"android":"levelo://app?vid=b3f3f576-b1af-46a5-a68f-7d3451569350","ios":"levelo://app?vid=b3f3f576-b1af-46a5-a68f-7d3451569350"},"vehicle_type_id":"4","last_reported":1762085883,"current_range_meters":19600,"station_id":"ce4bhch2rcd13ifvqeug","pricing_plan_id":"cebpf4jnsgd1na2vs0mg"},{"bike_id":"88518052-44e4-4486-a814-c8e987810fd6","system_id":"levelo_inurba_marseille","lat":43.29338,"lon":5.38235,"is_reserved":false,"is_disabled":false,"rental_uris":{"android":"levelo://app?vid=88518052-44e4-4486-a814-c8e987810fd6","ios":"levelo://app?vid=88518052-44e4-4486-a814-c8e987810fd6"},"vehicle_type_id":"4","last_reported":1762085883,"current_range_meters":19600,"station_id":"","pricing_plan_id":"cebpf4jnsgd1na2vs0mg"},{"bike_id":"3f026d9f-5d5e-4e07-8d95-e006607fa497","system_id":"levelo_inurba_marseille","lat":43.32544,"lon":5.41446,"is_reserved":false,"is_disabled":false,"rental_uris":{"android":"levelo://app?vid=3f026d9f-5d5e-4e07-8d95-e006607fa497","ios":"levelo://app?vid=3f026d9f-5d5e-4e07-8d95-e006607fa497"},"vehicle_type_id":"4","last_reported":1762085883,"current_range_meters":19600,"station_id":"ce4bhq12rcd13ifvqhhg","pricing_plan_id":"cebpf4jnsgd1na2vs0mg"},{"bike_id":"b5b418f4-b55b-4870-a08a-74c7f7b42e9b","system_id":"levelo_inurba_marseille","lat":43.21188,"lon":5.35075,"is_reserved":false,"is_disabled":false,"rental_uris":{"android":"levelo://app?vid=b5b418f4-b55b-4870-a08a-74c7f7b42e9b","ios":"levelo://app?vid=b5b418f4-b55b-4870-a08a-74c7f7b42e9b"},"vehicle_type_id":"4","last_reported":1762085883,"current_range_meters":19600,"station_id":"","pricing_plan_id":"cebpf4jnsgd1na2vs0mg"},{"bike_id":"03518348-a473-43a5-aebe-4dbf2f87920e","system_id":"levelo_inurba_marseille","lat":43.28487,"lon":5.37882,"is_reserved":false,"is_disabled":false,"rental_uris":{"android":"levelo://app?vid=03518348-a473-43a5-aebe-4dbf2f87920e","ios":"levelo://app?vid=03518348-a473-43a5-aebe-4dbf2f87920e"},"vehicle_type_id":"4","last_reported":1762085883,"current_range_meters":19600,"station_id":"","pricing_plan_id":"cebpf4jnsgd1na2vs0mg"},{"bike_id":"f45220e5-1594-41fa-ba40-bbc623680dea","system_id":"levelo_inurba_marseille","lat":43.279649,"lon":5.387307,"is_reserved":false,"is_disabled":false,"rental_uris":{"android":"levelo://app?vid=f45220e5-1594-41fa-ba40-bbc623680dea","ios":"levelo://app?vid=f45220e5-1594-41fa-ba40-bbc623680dea"},"vehicle_type_id":"4","last_reported":1762085883,"current_range_meters":19600,"station_id":"ce4bhg12rcd13ifvqf80","pricing_plan_id":"cebpf4jnsgd1na2vs0mg"},{"bike_id":"e354ed2b-01df-47b5-abca-0ddc8904e7a8","system_id":"levelo_inurba_marseille","lat":43.26551,"lon":5.40323,"is_reserved":false,"is_disabled":false,"rental_uris":{"android":"levelo://app?vid=e354ed2b-01df-47b5-abca-0ddc8904e7a8","ios":"levelo://app?vid=e354ed2b-01df-47b5-abca-0ddc8904e7a8"},"vehicle_type_id":"4","last_reported":1762085883,"current_range_meters":19600,"station_id":"ce4bhmp2rcd13ifvqgng","pricing_plan_id":"cebpf4jnsgd1na2vs0mg"},{"bike_id":"35385ef5-b4e0-4f74-9547-2a9031e588e3","system_id":"levelo_inurba_marseille","lat":43.2378,"lon":5.36619,"is_reserved":false,"is_disabled":false,"rental_uris":{"android":"levelo://app?vid=35385ef5-b4e0-4f74-9547-2a9031e588e3","ios":"levelo://app?vid=35385ef5-b4e0-4f74-9547-2a9031e588e3"},"vehicle_type_id":"4","last_reported":1762085883,"current_range_meters":20000,"station_id":"st_d3nk18o9ro0c73en2l3g","pricing_plan_id":"cebpf4jnsgd1na2vs0mg"},{"bike_id":"600594a6-be69-4e43-ad17-c2d891da9a62","system_id":"levelo_inurba_marseille","lat":43.29038,"lon":5.38137,"is_reserved":false,"is_disabled":true,"rental_uris":{"android":"levelo://app?vid=600594a6-be69-4e43-ad17-c2d891da9a62","ios":"levelo://app?vid=600594a6-be69-4e43-ad17-c2d891da9a62"},"vehicle_type_id":"4","last_reported":1762085883,"current_range_meters":20000,"station_id":"ce4bh4p2rcd13ifvqe1g","pricing_plan_id":"cebpf4jnsgd1na2vs0mg"},{"bike_id":"145adec1-02ad-4d16-a5dd-42bf80721343","system_id":"levelo_inurba_marseille","lat":43.301025,"lon":5.384439,"is_reserved":false,"is_disabled":false,"rental_uris":{"android":"levelo://app?vid=145adec1-02ad-4d16-a5dd-42bf80721343","ios":"levelo://app?vid=145adec1-02ad-4d16-a5dd-42bf80721343"},"vehicle_type_id":"4","last_reported":1762085883,"current_range_meters":20000,"station_id":"","pricing_plan_id":"cebpf4jnsgd1na2vs0mg"},{"bike_id":"9b4f8a38-bb2b-47df-869e-10b9daca81e2","system_id":"levelo_inurba_marseille","lat":43.31698,"lon":5.40434,"is_reserved":false,"is_disabled":false,"rental_uris":{"android":"levelo://app?vid=9b4f8a38-bb2b-47df-869e-10b9daca81e2","ios":"levelo://app?vid=9b4f8a38-bb2b-47df-869e-10b9daca81e2"},"vehicle_type_id":"4","last_reported":1762085883,"current_range_meters":20000,"station_id":"ce4bh012rcd13ifvqd00","pricing_plan_id":"cebpf4jnsgd1na2vs0mg"},{"bike_id":"14e0fcd6-488b-4da1-b9ec-2f06247e9652","system_id":"levelo_inurba_marseille","lat":43.30744,"lon":5.42464,"is_reserved":false,"is_disabled":false,"rental_uris":{"android":"levelo://app?vid=14e0fcd6-488b-4da1-b9ec-2f06247e9652","ios":"levelo://app?vid=14e0fcd6-488b-4da1-b9ec-2f06247e9652"},"vehicle_type_id":"4","last_reported":1762085883,"current_range_meters":20000,"station_id":"st_cvj6ca6bvosntc0bfgr0","pricing_plan_id":"cebpf4jnsgd1na2vs0mg"},{"bike_id":"7d29e189-d1a2-4543-b815-e8c8b283bc2a","system_id":"levelo_inurba_marseille","lat":43.324891,"lon":5.36583,"is_reserved":false,"is_disabled":false,"rental_uris":{"android":"levelo://app?vid=7d29e189-d1a2-4543-b815-e8c8b283bc2a","ios":"levelo://app?vid=7d29e189-d1a2-4543-b815-e8c8b283bc2a"},"vehicle_type_id":"4","last_reported":1762085883,"current_range_meters":20000,"station_id":"ce4bhs12rcd13ifvqhvg","pricing_plan_id":"cebpf4jnsgd1na2vs0mg"},{"bike_id":"af9530b9-dd7e-4485-9204-54acae1ed4ad","system_id":"levelo_inurba_marseille","lat":43.25713,"lon":5.41106,"is_reserved":false,"is_disabled":false,"rental_uris":{"android":"levelo://app?vid=af9530b9-dd7e-4485-9204-54acae1ed4ad","ios":"levelo://app?vid=af9530b9-dd7e-4485-9204-54acae1ed4ad"},"vehicle_type_id":"4","last_reported":1762085883,"current_range_meters":20000,"station_id":"ce4bhkp2rcd13ifvqgd0","pricing_plan_id":"cebpf4jnsgd1na2vs0mg"},{"bike_id":"7aef1029-9880-4ac1-bc62-5df1ae769dad","system_id":"levelo_inurba_marseille","lat":43.31001,"lon":5.3703,"is_reserved":false,"is_disabled":false,"rental_uris":{"android":"levelo://app?vid=7aef1029-9880-4ac1-bc62-5df1ae769dad","ios":"levelo://app?vid=7aef1029-9880-4ac1-bc62-5df1ae769dad"},"vehicle_type_id":"4","last_reported":1762085883,"current_range_meters":20000,"station_id":"","pricing_plan_id":"cebpf4jnsgd1na2vs0mg"},{"bike_id":"64c859db-804e-46f5-9f94-785321785082","system_id":"levelo_inurba_marseille","lat":43.279394,"lon":5.410371,"is_reserved":false,"is_disabled":false,"rental_uris":{"android":"levelo://app?vid=64c859db-804e-46f5-9f94-785321785082","ios":"levelo://app?vid=64c859db-804e-46f5-9f94-785321785082"},"vehicle_type_id":"4","last_reported":1762085883,"current_range_meters":20000,"station_id":"ce4bhnp2rcd13ifvqh0g","pricing_plan_id":"cebpf4jnsgd1na2vs0mg"},{"bike_id":"05d6a3f7-b83a-4da1-9593-ef5015b8f8ec","system_id":"levelo_inurba_marseille","lat":43.28028,"lon":5.39938,"is_reserved":false,"is_disabled":false,"rental_uris":{"android":"levelo://app?vid=05d6a3f7-b83a-4da1-9593-ef5015b8f8ec","ios":"levelo://app?vid=05d6a3f7-b83a-4da1-9593-ef5015b8f8ec"},"vehicle_type_id":"4","last_reported":1762085883,"current_range_meters":20000,"station_id":"","pricing_plan_id":"cebpf4jnsgd1na2vs0mg"},{"bike_id":"6055b89a-9e07-4bf8-8412-05e8ed7b3044","system_id":"levelo_inurba_marseille","lat":43.21189,"lon":5.35088,"is_reserved":false,"is_disabled":false,"rental_uris":{"android":"levelo://app?vid=6055b89a-9e07-4bf8-8412-05e8ed7b3044","ios":"levelo://app?vid=6055b89a-9e07-4bf8-8412-05e8ed7b3044"},"vehicle_type_id":"4","last_reported":1762085883,"current_range_meters":20400,"station_id":"","pricing_plan_id":"cebpf4jnsgd1na2vs0mg"},{"bike_id":"782a02c9-f51b-4b61-89b2-ec2ecf7d0e40","system_id":"levelo_inurba_marseille","lat":43.24947,"lon":5.40486,"is_reserved":false,"is_disabled":false,"rental_uris":{"android":"levelo://app?vid=782a02c9-f51b-4b61-89b2-ec2ecf7d0e40","ios":"levelo://app?vid=782a02c9-f51b-4b61-89b2-ec2ecf7d0e40"},"vehicle_type_id":"4","last_reported":1762085883,"current_range_meters":20400,"station_id":"st_d2ngiaodas8pm72gd1h0","pricing_plan_id":"cebpf4jnsgd1na2vs0mg"},{"bike_id":"5eb9db26-abf8-4b3a-a40c-77af04cc957e","system_id":"levelo_inurba_marseille","lat":43.241672,"lon":5.363995,"is_reserved":false,"is_disabled":false,"rental_uris":{"android":"levelo://app?vid=5eb9db26-abf8-4b3a-a40c-77af04cc957e","ios":"levelo://app?vid=5eb9db26-abf8-4b3a-a40c-77af04cc957e"},"vehicle_type_id":"4","last_reported":1762085883,"current_range_meters":20400,"station_id":"cpo36qri1sfpv3e86is0","pricing_plan_id":"cebpf4jnsgd1na2vs0mg"},{"bike_id":"647f8fc4-bc6c-4348-81e2-0685eeea0f0e","system_id":"levelo_inurba_marseille","lat":43.29622,"lon":5.37729,"is_reserved":false,"is_disabled":false,"rental_uris":{"android":"levelo://app?vid=647f8fc4-bc6c-4348-81e2-0685eeea0f0e","ios":"levelo://app?vid=647f8fc4-bc6c-4348-81e2-0685eeea0f0e"},"vehicle_type_id":"4","last_reported":1762085883,"current_range_meters":20400,"station_id":"ce4bgi92rcd13ifvqb90","pricing_plan_id":"cebpf4jnsgd1na2vs0mg"},{"bike_id":"af4f7b47-7d8e-4840-b717-1f79462c0609","system_id":"levelo_inurba_marseille","lat":43.29713,"lon":5.37837,"is_reserved":false,"is_disabled":false,"rental_uris":{"android":"levelo://app?vid=af4f7b47-7d8e-4840-b717-1f79462c0609","ios":"levelo://app?vid=af4f7b47-7d8e-4840-b717-1f79462c0609"},"vehicle_type_id":"4","last_reported":1762085883,"current_range_meters":20400,"station_id":"","pricing_plan_id":"cebpf4jnsgd1na2vs0mg"},{"bike_id":"78fd86d5-da4c-4278-affd-7283f0275d72","system_id":"levelo_inurba_marseille","lat":43.27796,"lon":5.40725,"is_reserved":false,"is_disabled":false,"rental_uris":{"android":"levelo://app?vid=78fd86d5-da4c-4278-affd-7283f0275d72","ios":"levelo://app?vid=78fd86d5-da4c-4278-affd-7283f0275d72"},"vehicle_type_id":"4","last_reported":1762085883,"current_range_meters":20400,"station_id":"ce4bhnh2rcd13ifvqgtg","pricing_plan_id":"cebpf4jnsgd1na2vs0mg"},{"bike_id":"ac2f2e0c-7f3a-4615-95a9-755ddbeafcff","system_id":"levelo_inurba_marseille","lat":43.273782,"lon":5.362534,"is_reserved":false,"is_disabled":true,"rental_uris":{"android":"levelo://app?vid=ac2f2e0c-7f3a-4615-95a9-755ddbeafcff","ios":"levelo://app?vid=ac2f2e0c-7f3a-4615-95a9-755ddbeafcff"},"vehicle_type_id":"4","last_reported":1762085883,"current_range_meters":20400,"station_id":"ce4bhbh2rcd13ifvqeo0","pricing_plan_id":"cebpf4jnsgd1na2vs0mg"},{"bike_id":"aa22c237-e3ca-42a8-bc4a-a192c77c4abb","system_id":"levelo_inurba_marseille","lat":43.229229,"lon":5.353722,"is_reserved":false,"is_disabled":false,"rental_uris":{"android":"levelo://app?vid=aa22c237-e3ca-42a8-bc4a-a192c77c4abb","ios":"levelo://app?vid=aa22c237-e3ca-42a8-bc4a-a192c77c4abb"},"vehicle_type_id":"4","last_reported":1762085883,"current_range_meters":20400,"station_id":"cpo3532slgdg3j2ikp40","pricing_plan_id":"cebpf4jnsgd1na2vs0mg"},{"bike_id":"5eee67bb-3614-4f3b-ab22-554d031d3012","system_id":"levelo_inurba_marseille","lat":43.2572,"lon":5.41136,"is_reserved":false,"is_disabled":false,"rental_uris":{"android":"levelo://app?vid=5eee67bb-3614-4f3b-ab22-554d031d3012","ios":"levelo://app?vid=5eee67bb-3614-4f3b-ab22-554d031d3012"},"vehicle_type_id":"4","last_reported":1762085883,"current_range_meters":20800,"station_id":"ce4bhkp2rcd13ifvqgd0","pricing_plan_id":"cebpf4jnsgd1na2vs0mg"},{"bike_id":"258d165a-449f-4925-b56e-beae8f481fb2","system_id":"levelo_inurba_marseille","lat":43.284004,"lon":5.349923,"is_reserved":false,"is_disabled":true,"rental_uris":{"android":"levelo://app?vid=258d165a-449f-4925-b56e-beae8f481fb2","ios":"levelo://app?vid=258d165a-449f-4925-b56e-beae8f481fb2"},"vehicle_type_id":"4","last_reported":1762085883,"current_range_meters":20800,"station_id":"","pricing_plan_id":"cebpf4jnsgd1na2vs0mg"},{"bike_id":"e8adea7e-0a90-49fd-b3a2-32134cae9db0","system_id":"levelo_inurba_marseille","lat":43.211877,"lon":5.350778,"is_reserved":false,"is_disabled":false,"rental_uris":{"android":"levelo://app?vid=e8adea7e-0a90-49fd-b3a2-32134cae9db0","ios":"levelo://app?vid=e8adea7e-0a90-49fd-b3a2-32134cae9db0"},"vehicle_type_id":"4","last_reported":1762085883,"current_range_meters":20800,"station_id":"","pricing_plan_id":"cebpf4jnsgd1na2vs0mg"},{"bike_id":"7697f83b-11c1-4978-89f1-e9d9aca50ac7","system_id":"levelo_inurba_marseille","lat":43.24673,"lon":5.38173,"is_reserved":false,"is_disabled":true,"rental_uris":{"android":"levelo://app?vid=7697f83b-11c1-4978-89f1-e9d9aca50ac7","ios":"levelo://app?vid=7697f83b-11c1-4978-89f1-e9d9aca50ac7"},"vehicle_type_id":"4","last_reported":1762085883,"current_range_meters":20800,"station_id":"ce4bhih2rcd13ifvqfr0","pricing_plan_id":"cebpf4jnsgd1na2vs0mg"},{"bike_id":"f234ad47-0901-40bf-a06a-e46adc6b907e","system_id":"levelo_inurba_marseille","lat":43.23192,"lon":5.35559,"is_reserved":false,"is_disabled":true,"rental_uris":{"android":"levelo://app?vid=f234ad47-0901-40bf-a06a-e46adc6b907e","ios":"levelo://app?vid=f234ad47-0901-40bf-a06a-e46adc6b907e"},"vehicle_type_id":"4","last_reported":1762085883,"current_range_meters":20800,"station_id":"ce4bhu92rcd13ifvqi70","pricing_plan_id":"cebpf4jnsgd1na2vs0mg"},{"bike_id":"a8d0be4c-3e38-4247-b462-6e35f9043fea","system_id":"levelo_inurba_marseille","lat":43.25725,"lon":5.41103,"is_reserved":false,"is_disabled":true,"rental_uris":{"android":"levelo://app?vid=a8d0be4c-3e38-4247-b462-6e35f9043fea","ios":"levelo://app?vid=a8d0be4c-3e38-4247-b462-6e35f9043fea"},"vehicle_type_id":"4","last_reported":1762085883,"current_range_meters":20800,"station_id":"ce4bhkp2rcd13ifvqgd0","pricing_plan_id":"cebpf4jnsgd1na2vs0mg"},{"bike_id":"51bf3cb7-470c-477e-9e73-8c565aae20cb","system_id":"levelo_inurba_marseille","lat":43.2977,"lon":5.42788,"is_reserved":false,"is_disabled":false,"rental_uris":{"android":"levelo://app?vid=51bf3cb7-470c-477e-9e73-8c565aae20cb","ios":"levelo://app?vid=51bf3cb7-470c-477e-9e73-8c565aae20cb"},"vehicle_type_id":"4","last_reported":1762085883,"current_range_meters":21600,"station_id":"st_d3md5207bmas73dh9klg","pricing_plan_id":"cebpf4jnsgd1na2vs0mg"},{"bike_id":"92d5f4b9-eb15-4b63-a186-10b2012c74f5","system_id":"levelo_inurba_marseille","lat":43.28373,"lon":5.38627,"is_reserved":false,"is_disabled":false,"rental_uris":{"android":"levelo://app?vid=92d5f4b9-eb15-4b63-a186-10b2012c74f5","ios":"levelo://app?vid=92d5f4b9-eb15-4b63-a186-10b2012c74f5"},"vehicle_type_id":"4","last_reported":1762085883,"current_range_meters":21600,"station_id":"ce4bh492rcd13ifvqdvg","pricing_plan_id":"cebpf4jnsgd1na2vs0mg"},{"bike_id":"2d7457f6-2302-48b2-9baf-754daa46d361","system_id":"levelo_inurba_marseille","lat":43.25331,"lon":5.42174,"is_reserved":false,"is_disabled":false,"rental_uris":{"android":"levelo://app?vid=2d7457f6-2302-48b2-9baf-754daa46d361","ios":"levelo://app?vid=2d7457f6-2302-48b2-9baf-754daa46d361"},"vehicle_type_id":"4","last_reported":1762085883,"current_range_meters":21600,"station_id":"st_d2m65c5bi1j21697t3ng","pricing_plan_id":"cebpf4jnsgd1na2vs0mg"},{"bike_id":"7b3ada81-0ff3-49e9-8471-eb10e4c9b7f2","system_id":"levelo_inurba_marseille","lat":43.290189,"lon":5.381331,"is_reserved":false,"is_disabled":false,"rental_uris":{"android":"levelo://app?vid=7b3ada81-0ff3-49e9-8471-eb10e4c9b7f2","ios":"levelo://app?vid=7b3ada81-0ff3-49e9-8471-eb10e4c9b7f2"},"vehicle_type_id":"4","last_reported":1762085883,"current_range_meters":21600,"station_id":"ce4bh4p2rcd13ifvqe1g","pricing_plan_id":"cebpf4jnsgd1na2vs0mg"},{"bike_id":"d832187b-0cde-49a0-bf94-c76879c710ab","system_id":"levelo_inurba_marseille","lat":43.308826,"lon":5.396408,"is_reserved":false,"is_disabled":false,"rental_uris":{"android":"levelo://app?vid=d832187b-0cde-49a0-bf94-c76879c710ab","ios":"levelo://app?vid=d832187b-0cde-49a0-bf94-c76879c710ab"},"vehicle_type_id":"4","last_reported":1762085883,"current_range_meters":21600,"station_id":"ce4bh012rcd13ifvqcv0","pricing_plan_id":"cebpf4jnsgd1na2vs0mg"},{"bike_id":"32af3d9f-2d60-42c8-ad7c-180e7fbad1cb","system_id":"levelo_inurba_marseille","lat":43.24075,"lon":5.37758,"is_reserved":false,"is_disabled":false,"rental_uris":{"android":"levelo://app?vid=32af3d9f-2d60-42c8-ad7c-180e7fbad1cb","ios":"levelo://app?vid=32af3d9f-2d60-42c8-ad7c-180e7fbad1cb"},"vehicle_type_id":"4","last_reported":1762085883,"current_range_meters":21600,"station_id":"ce4bhnp2rcd13ifvqgvg","pricing_plan_id":"cebpf4jnsgd1na2vs0mg"},{"bike_id":"7266ed46-2381-404a-9c13-a92f05fa953b","system_id":"levelo_inurba_marseille","lat":43.337608,"lon":5.374329,"is_reserved":false,"is_disabled":false,"rental_uris":{"android":"levelo://app?vid=7266ed46-2381-404a-9c13-a92f05fa953b","ios":"levelo://app?vid=7266ed46-2381-404a-9c13-a92f05fa953b"},"vehicle_type_id":"4","last_reported":1762085883,"current_range_meters":21600,"station_id":"","pricing_plan_id":"cebpf4jnsgd1na2vs0mg"},{"bike_id":"7ee96323-da9c-4c60-bbe4-d1054018acab","system_id":"levelo_inurba_marseille","lat":43.30543,"lon":5.3671,"is_reserved":false,"is_disabled":true,"rental_uris":{"android":"levelo://app?vid=7ee96323-da9c-4c60-bbe4-d1054018acab","ios":"levelo://app?vid=7ee96323-da9c-4c60-bbe4-d1054018acab"},"vehicle_type_id":"4","last_reported":1762085883,"current_range_meters":21600,"station_id":"ce4bgrp2rcd13ifvqc9g","pricing_plan_id":"cebpf4jnsgd1na2vs0mg"},{"bike_id":"35484a1f-2569-460a-bdf0-662663ddde76","system_id":"levelo_inurba_marseille","lat":43.295553,"lon":5.422777,"is_reserved":false,"is_disabled":false,"rental_uris":{"android":"levelo://app?vid=35484a1f-2569-460a-bdf0-662663ddde76","ios":"levelo://app?vid=35484a1f-2569-460a-bdf0-662663ddde76"},"vehicle_type_id":"4","last_reported":1762085883,"current_range_meters":22000,"station_id":"ce4bhph2rcd13ifvqhdg","pricing_plan_id":"cebpf4jnsgd1na2vs0mg"},{"bike_id":"50de44ed-1fa3-479a-8a72-4c19be47b6d4","system_id":"levelo_inurba_marseille","lat":43.246281,"lon":5.431459,"is_reserved":false,"is_disabled":false,"rental_uris":{"android":"levelo://app?vid=50de44ed-1fa3-479a-8a72-4c19be47b6d4","ios":"levelo://app?vid=50de44ed-1fa3-479a-8a72-4c19be47b6d4"},"vehicle_type_id":"4","last_reported":1762085883,"current_range_meters":22000,"station_id":"st_d2m6c4gdas8pm72e190g","pricing_plan_id":"cebpf4jnsgd1na2vs0mg"},{"bike_id":"b5d46701-5459-4db4-8f22-762d861e46ca","system_id":"levelo_inurba_marseille","lat":43.304918,"lon":5.367176,"is_reserved":false,"is_disabled":false,"rental_uris":{"android":"levelo://app?vid=b5d46701-5459-4db4-8f22-762d861e46ca","ios":"levelo://app?vid=b5d46701-5459-4db4-8f22-762d861e46ca"},"vehicle_type_id":"4","last_reported":1762085883,"current_range_meters":22000,"station_id":"ce4bgs12rcd13ifvqcag","pricing_plan_id":"cebpf4jnsgd1na2vs0mg"},{"bike_id":"0dcf442a-463f-49fc-a06c-4b1d953bcdf4","system_id":"levelo_inurba_marseille","lat":43.23148,"lon":5.43705,"is_reserved":false,"is_disabled":false,"rental_uris":{"android":"levelo://app?vid=0dcf442a-463f-49fc-a06c-4b1d953bcdf4","ios":"levelo://app?vid=0dcf442a-463f-49fc-a06c-4b1d953bcdf4"},"vehicle_type_id":"4","last_reported":1762085883,"current_range_meters":22000,"station_id":"ce4bhmp2rcd13ifvqgog","pricing_plan_id":"cebpf4jnsgd1na2vs0mg"},{"bike_id":"c9514cd9-7418-4ff8-bc02-9f2e47245333","system_id":"levelo_inurba_marseille","lat":43.26071,"lon":5.39375,"is_reserved":false,"is_disabled":false,"rental_uris":{"android":"levelo://app?vid=c9514cd9-7418-4ff8-bc02-9f2e47245333","ios":"levelo://app?vid=c9514cd9-7418-4ff8-bc02-9f2e47245333"},"vehicle_type_id":"4","last_reported":1762085883,"current_range_meters":22000,"station_id":"ce4bhh92rcd13ifvqfj0","pricing_plan_id":"cebpf4jnsgd1na2vs0mg"},{"bike_id":"d6e10844-3d17-4228-bea1-1df9235bfa22","system_id":"levelo_inurba_marseille","lat":43.2581,"lon":5.39432,"is_reserved":false,"is_disabled":false,"rental_uris":{"android":"levelo://app?vid=d6e10844-3d17-4228-bea1-1df9235bfa22","ios":"levelo://app?vid=d6e10844-3d17-4228-bea1-1df9235bfa22"},"vehicle_type_id":"4","last_reported":1762085883,"current_range_meters":22400,"station_id":"ce4bhip2rcd13ifvqft0","pricing_plan_id":"cebpf4jnsgd1na2vs0mg"},{"bike_id":"3c21cab0-cd21-4b1e-8ca9-ba2a3bd07ea5","system_id":"levelo_inurba_marseille","lat":43.27804,"lon":5.40726,"is_reserved":false,"is_disabled":false,"rental_uris":{"android":"levelo://app?vid=3c21cab0-cd21-4b1e-8ca9-ba2a3bd07ea5","ios":"levelo://app?vid=3c21cab0-cd21-4b1e-8ca9-ba2a3bd07ea5"},"vehicle_type_id":"4","last_reported":1762085883,"current_range_meters":22400,"station_id":"ce4bhnh2rcd13ifvqgtg","pricing_plan_id":"cebpf4jnsgd1na2vs0mg"},{"bike_id":"bc811a37-194a-4aff-9255-507350659e84","system_id":"levelo_inurba_marseille","lat":43.30552,"lon":5.36698,"is_reserved":false,"is_disabled":false,"rental_uris":{"android":"levelo://app?vid=bc811a37-194a-4aff-9255-507350659e84","ios":"levelo://app?vid=bc811a37-194a-4aff-9255-507350659e84"},"vehicle_type_id":"4","last_reported":1762085883,"current_range_meters":22400,"station_id":"ce4bgrp2rcd13ifvqc9g","pricing_plan_id":"cebpf4jnsgd1na2vs0mg"},{"bike_id":"240112e3-b4ab-4ea9-bcd3-57dbe5797946","system_id":"levelo_inurba_marseille","lat":43.32485,"lon":5.36567,"is_reserved":false,"is_disabled":false,"rental_uris":{"android":"levelo://app?vid=240112e3-b4ab-4ea9-bcd3-57dbe5797946","ios":"levelo://app?vid=240112e3-b4ab-4ea9-bcd3-57dbe5797946"},"vehicle_type_id":"4","last_reported":1762085883,"current_range_meters":22400,"station_id":"ce4bhs12rcd13ifvqhvg","pricing_plan_id":"cebpf4jnsgd1na2vs0mg"},{"bike_id":"6c28600f-4b79-4c61-b4ee-e8ec5553223d","system_id":"levelo_inurba_marseille","lat":43.28864,"lon":5.42512,"is_reserved":false,"is_disabled":false,"rental_uris":{"android":"levelo://app?vid=6c28600f-4b79-4c61-b4ee-e8ec5553223d","ios":"levelo://app?vid=6c28600f-4b79-4c61-b4ee-e8ec5553223d"},"vehicle_type_id":"4","last_reported":1762085883,"current_range_meters":22400,"station_id":"st_d3b462108ojc7389ooeg","pricing_plan_id":"cebpf4jnsgd1na2vs0mg"},{"bike_id":"18178c64-61f2-48c0-8308-9394b0885766","system_id":"levelo_inurba_marseille","lat":43.27992,"lon":5.40025,"is_reserved":false,"is_disabled":false,"rental_uris":{"android":"levelo://app?vid=18178c64-61f2-48c0-8308-9394b0885766","ios":"levelo://app?vid=18178c64-61f2-48c0-8308-9394b0885766"},"vehicle_type_id":"4","last_reported":1762085883,"current_range_meters":22400,"station_id":"ce4bho92rcd13ifvqh4g","pricing_plan_id":"cebpf4jnsgd1na2vs0mg"},{"bike_id":"c2355dc4-632d-4ba0-8bc2-f0457cf83d4c","system_id":"levelo_inurba_marseille","lat":43.292278,"lon":5.360552,"is_reserved":false,"is_disabled":false,"rental_uris":{"android":"levelo://app?vid=c2355dc4-632d-4ba0-8bc2-f0457cf83d4c","ios":"levelo://app?vid=c2355dc4-632d-4ba0-8bc2-f0457cf83d4c"},"vehicle_type_id":"4","last_reported":1762085883,"current_range_meters":22400,"station_id":"","pricing_plan_id":"cebpf4jnsgd1na2vs0mg"},{"bike_id":"2eb3b2b6-4c2f-4a6b-8516-3fce34eb8781","system_id":"levelo_inurba_marseille","lat":43.292686,"lon":5.384298,"is_reserved":false,"is_disabled":true,"rental_uris":{"android":"levelo://app?vid=2eb3b2b6-4c2f-4a6b-8516-3fce34eb8781","ios":"levelo://app?vid=2eb3b2b6-4c2f-4a6b-8516-3fce34eb8781"},"vehicle_type_id":"4","last_reported":1762085883,"current_range_meters":22400,"station_id":"","pricing_plan_id":"cebpf4jnsgd1na2vs0mg"},{"bike_id":"45df77ce-26b7-4b85-b878-935bc0c11727","system_id":"levelo_inurba_marseille","lat":43.296408,"lon":5.372412,"is_reserved":false,"is_disabled":false,"rental_uris":{"android":"levelo://app?vid=45df77ce-26b7-4b85-b878-935bc0c11727","ios":"levelo://app?vid=45df77ce-26b7-4b85-b878-935bc0c11727"},"vehicle_type_id":"4","last_reported":1762085883,"current_range_meters":22400,"station_id":"ce4bgi12rcd13ifvqb70","pricing_plan_id":"cebpf4jnsgd1na2vs0mg"},{"bike_id":"b3dc8ef0-c140-464d-b52e-78cfc56dd72e","system_id":"levelo_inurba_marseille","lat":43.25331,"lon":5.42169,"is_reserved":false,"is_disabled":false,"rental_uris":{"android":"levelo://app?vid=b3dc8ef0-c140-464d-b52e-78cfc56dd72e","ios":"levelo://app?vid=b3dc8ef0-c140-464d-b52e-78cfc56dd72e"},"vehicle_type_id":"4","last_reported":1762085883,"current_range_meters":22400,"station_id":"st_d2m65c5bi1j21697t3ng","pricing_plan_id":"cebpf4jnsgd1na2vs0mg"},{"bike_id":"ab9ccb27-b7d1-415f-aa27-c69b3b2958c9","system_id":"levelo_inurba_marseille","lat":43.28418,"lon":5.34948,"is_reserved":false,"is_disabled":false,"rental_uris":{"android":"levelo://app?vid=ab9ccb27-b7d1-415f-aa27-c69b3b2958c9","ios":"levelo://app?vid=ab9ccb27-b7d1-415f-aa27-c69b3b2958c9"},"vehicle_type_id":"4","last_reported":1762085883,"current_range_meters":22400,"station_id":"ce4bhbh2rcd13ifvqepg","pricing_plan_id":"cebpf4jnsgd1na2vs0mg"},{"bike_id":"b68bf811-01f4-4a56-9f28-91ed77763027","system_id":"levelo_inurba_marseille","lat":43.28271,"lon":5.35079,"is_reserved":false,"is_disabled":false,"rental_uris":{"android":"levelo://app?vid=b68bf811-01f4-4a56-9f28-91ed77763027","ios":"levelo://app?vid=b68bf811-01f4-4a56-9f28-91ed77763027"},"vehicle_type_id":"4","last_reported":1762085883,"current_range_meters":22800,"station_id":"ce4bhbp2rcd13ifvqerg","pricing_plan_id":"cebpf4jnsgd1na2vs0mg"},{"bike_id":"5cfd3702-7691-45d0-bc4c-dd48583392da","system_id":"levelo_inurba_marseille","lat":43.289484,"lon":5.396317,"is_reserved":false,"is_disabled":true,"rental_uris":{"android":"levelo://app?vid=5cfd3702-7691-45d0-bc4c-dd48583392da","ios":"levelo://app?vid=5cfd3702-7691-45d0-bc4c-dd48583392da"},"vehicle_type_id":"4","last_reported":1762085883,"current_range_meters":22800,"station_id":"ce4bh3h2rcd13ifvqdn0","pricing_plan_id":"cebpf4jnsgd1na2vs0mg"},