{"last_updated":1750777920,"ttl":60,"version":"2.2","data":{"bikes":[{"bike_id":"3da29fb8-fc97-44c6-b9ac-31dd456b2fd4","system_id":"levelo_inurba_marseille","lat":43.33771,"lon":5.37424,"is_reserved":false,"is_disabled":true,"rental_uris":{"android":"levelo://app?vid=3da29fb8-fc97-44c6-b9ac-31dd456b2fd4","ios":"levelo://app?vid=3da29fb8-fc97-44c6-b9ac-31dd456b2fd4"},"vehicle_type_id":"4","last_reported":1750777920,"current_range_meters":0,"station_id":"","pricing_plan_id":"cebpf4jnsgd1na2vs0mg"},{"bike_id":"01861ad8-a8d7-4be6-816e-651927c87584","system_id":"levelo_inurba_marseille","lat":43.33751,"lon":5.37456,"is_reserved":false,"is_disabled":true,"rental_uris":{"android":"levelo://app?vid=01861ad8-a8d7-4be6-816e-651927c87584","ios":"levelo://app?vid=01861ad8-a8d7-4be6-816e-651927c87584"},"vehicle_type_id":"4","last_reported":1750777920,"current_range_meters":0,"station_id":"","pricing_plan_id":"cebpf4jnsgd1na2vs0mg"},{"bike_id":"f0a1d594-9817-42ab-a8d6-aea4947e8858","system_id":"levelo_inurba_marseille","lat":43.288329,"lon":5.434368,"is_reserved":false,"is_disabled":true,"rental_uris":{"android":"levelo://app?vid=f0a1d594-9817-42ab-a8d6-aea4947e8858","ios":"levelo://app?vid=f0a1d594-9817-42ab-a8d6-aea4947e8858"},"vehicle_type_id":"4","last_reported":1750777920,"current_range_meters":0,"station_id":"","pricing_plan_id":"cebpf4jnsgd1na2vs0mg"},{"bike_id":"763475c0-a5de-4444-b5fb-a67ccd172449","system_id":"levelo_inurba_marseille","lat":43.26627,"lon":5.37288,"is_reserved":false,"is_disabled":true,"rental_uris":{"android":"levelo://app?vid=763475c0-a5de-4444-b5fb-a67ccd172449","ios":"levelo://app?vid=763475c0-a5de-4444-b5fb-a67ccd172449"},"vehicle_type_id":"4","last_reported":1750777920,"current_range_meters":0,"station_id":"","pricing_plan_id":"cebpf4jnsgd1na2vs0mg"},{"bike_id":"62a493c7-4534-4419-ad43-0582de34a72a","system_id":"levelo_inurba_marseille","lat":43.21366,"lon":5.355183,"is_reserved":false,"is_disabled":true,"rental_uris":{"android":"levelo://app?vid=62a493c7-4534-4419-ad43-0582de34a72a","ios":"levelo://app?vid=62a493c7-4534-4419-ad43-0582de34a72a"},"vehicle_type_id":"4","last_reported":1750777920,"current_range_meters":0,"station_id":"","pricing_plan_id":"cebpf4jnsgd1na2vs0mg"},{"bike_id":"139d47bd-ff87-42d8-a4c6-89da4be6f80c","system_id":"levelo_inurba_marseille","lat":43.27962,"lon":5.44252,"is_reserved":false,"is_disabled":true,"rental_uris":{"android":"levelo://app?vid=139d47bd-ff87-42d8-a4c6-89da4be6f80c","ios":"levelo://app?vid=139d47bd-ff87-42d8-a4c6-89da4be6f80c"},"vehicle_type_id":"4","last_reported":1750777920,"current_range_meters":0,"station_id":"","pricing_plan_id":"cebpf4jnsgd1na2vs0mg"},{"bike_id":"d07b07aa-5732-4368-b606-c642421b7603","system_id":"levelo_inurba_marseille","lat":43.3434,"lon":5.34903,"is_reserved":false,"is_disabled":true,"rental_uris":{"android":"levelo://app?vid=d07b07aa-5732-4368-b606-c642421b7603","ios":"levelo://app?vid=d07b07aa-5732-4368-b606-c642421b7603"},"vehicle_type_id":"4","last_reported":1750777920,"current_range_meters":0,"station_id":"","pricing_plan_id":"cebpf4jnsgd1na2vs0mg"},{"bike_id":"d6ce388f-ca76-4c7c-9e3f-e6b4d12862f1","system_id":"levelo_inurba_marseille","lat":43.24533,"lon":5.41479,"is_reserved":false,"is_disabled":true,"rental_uris":{"android":"levelo://app?vid=d6ce388f-ca76-4c7c-9e3f-e6b4d12862f1","ios":"levelo://app?vid=d6ce388f-ca76-4c7c-9e3f-e6b4d12862f1"},"vehicle_type_id":"4","last_reported":1750777920,"current_range_meters":0,"station_id":"","pricing_plan_id":"cebpf4jnsgd1na2vs0mg"},{"bike_id":"3a3a1818-f20a-442b-bfcf-0e0a18008f43","system_id":"levelo_inurba_marseille","lat":43.26612,"lon":5.37491,"is_reserved":false,"is_disabled":true,"rental_uris":{"android":"levelo://app?vid=3a3a1818-f20a-442b-bfcf-0e0a18008f43","ios":"levelo://app?vid=3a3a1818-f20a-442b-bfcf-0e0a18008f43"},"vehicle_type_id":"4","last_reported":1750777920,"current_range_meters":0,"station_id":"","pricing_plan_id":"cebpf4jnsgd1na2vs0mg"},{"bike_id":"11d160d1-34e0-4ce8-9789-9603b74a4446","system_id":"levelo_inurba_marseille","lat":43.32702,"lon":5.37511,"is_reserved":false,"is_disabled":true,"rental_uris":{"android":"levelo://app?vid=11d160d1-34e0-4ce8-9789-9603b74a4446","ios":"levelo://app?vid=11d160d1-34e0-4ce8-9789-9603b74a4446"},"vehicle_type_id":"4","last_reported":1750777920,"current_range_meters":0,"station_id":"","pricing_plan_id":"cebpf4jnsgd1na2vs0mg"},{"bike_id":"4a3b6871-8241-46bf-9ef4-8e46286432a8","system_id":"levelo_inurba_marseille","lat":43.300344,"lon":5.40166,"is_reserved":false,"is_disabled":true,"rental_uris":{"android":"levelo://app?vid=4a3b6871-8241-46bf-9ef4-8e46286432a8","ios":"levelo://app?vid=4a3b6871-8241-46bf-9ef4-8e46286432a8"},"vehicle_type_id":"4","last_reported":1750777920,"current_range_meters":0,"station_id":"","pricing_plan_id":"cebpf4jnsgd1na2vs0mg"},{"bike_id":"a224e210-3cd0-42b2-ae33-aa82113f74f0","system_id":"levelo_inurba_marseille","lat":43.28157,"lon":5.37795,"is_reserved":false,"is_disabled":true,"rental_uris":{"android":"levelo://app?vid=a224e210-3cd0-42b2-ae33-aa82113f74f0","ios":"levelo://app?vid=a224e210-3cd0-42b2-ae33-aa82113f74f0"},"vehicle_type_id":"4","last_reported":1750777920,"current_range_meters":0,"station_id":"","pricing_plan_id":"cebpf4jnsgd1na2vs0mg"},{"bike_id":"d6609b4f-333b-43c1-9ebe-8726f5e76e88","system_id":"levelo_inurba_marseille","lat":43.337444,"lon":5.374475,"is_reserved":false,"is_disabled":true,"rental_uris":{"android":"levelo://app?vid=d6609b4f-333b-43c1-9ebe-8726f5e76e88","ios":"levelo://app?vid=d6609b4f-333b-43c1-9ebe-8726f5e76e88"},"vehicle_type_id":"4","last_reported":1750777920,"current_range_meters":0,"station_id":"","pricing_plan_id":"cebpf4jnsgd1na2vs0mg"},{"bike_id":"9cb193d0-906b-4ac2-85c5-eea810b1d20f","system_id":"levelo_inurba_marseille","lat":43.29411,"lon":5.43167,"is_reserved":false,"is_disabled":true,"rental_uris":{"android":"levelo://app?vid=9cb193d0-906b-4ac2-85c5-eea810b1d20f","ios":"levelo://app?vid=9cb193d0-906b-4ac2-85c5-eea810b1d20f"},"vehicle_type_id":"4","last_reported":1750777920,"current_range_meters":0,"station_id":"","pricing_plan_id":"cebpf4jnsgd1na2vs0mg"},{"bike_id":"bd17737b-22d2-4e4f-88e8-4eb661d864c4","system_id":"levelo_inurba_marseille","lat":43.29164,"lon":5.4607,"is_reserved":false,"is_disabled":true,"rental_uris":{"android":"levelo://app?vid=bd17737b-22d2-4e4f-88e8-4eb661d864c4","ios":"levelo://app?vid=bd17737b-22d2-4e4f-88e8-4eb661d864c4"},"vehicle_type_id":"4","last_reported":1750777920,"current_range_meters":0,"station_id":"","pricing_plan_id":"cebpf4jnsgd1na2vs0mg"},{"bike_id":"0032b41f-e702-48e0-a561-160b8fb6cb78","system_id":"levelo_inurba_marseille","lat":43.28917,"lon":5.39105,"is_reserved":false,"is_disabled":true,"rental_uris":{"android":"levelo://app?vid=0032b41f-e702-48e0-a561-160b8fb6cb78","ios":"levelo://app?vid=0032b41f-e702-48e0-a561-160b8fb6cb78"},"vehicle_type_id":"4","last_reported":1750777920,"current_range_meters":0,"station_id":"","pricing_plan_id":"cebpf4jnsgd1na2vs0mg"},{"bike_id":"3d07ef76-af52-42e0-81f1-5f4963c9ee29","system_id":"levelo_inurba_marseille","lat":43.294701,"lon":5.438349,"is_reserved":false,"is_disabled":true,"rental_uris":{"android":"levelo://app?vid=3d07ef76-af52-42e0-81f1-5f4963c9ee29","ios":"levelo://app?vid=3d07ef76-af52-42e0-81f1-5f4963c9ee29"},"vehicle_type_id":"4","last_reported":1750777920,"current_range_meters":0,"station_id":"","pricing_plan_id":"cebpf4jnsgd1na2vs0mg"},{"bike_id":"0c86cdad-b64a-47bf-ba91-5b398064181c","system_id":"levelo_inurba_marseille","lat":43.384196,"lon":5.358629,"is_reserved":false,"is_disabled":true,"rental_uris":{"android":"levelo://app?vid=0c86cdad-b64a-47bf-ba91-5b398064181c","ios":"levelo://app?vid=0c86cdad-b64a-47bf-ba91-5b398064181c"},"vehicle_type_id":"4","last_reported":1750777920,"current_range_meters":0,"station_id":"","pricing_plan_id":"cebpf4jnsgd1na2vs0mg"},{"bike_id":"798ae28c-7ce6-4d47-8b1c-b63314f1f30e","system_id":"levelo_inurba_marseille","lat":43.29965,"lon":5.38491,"is_reserved":false,"is_disabled":true,"rental_uris":{"android":"levelo://app?vid=798ae28c-7ce6-4d47-8b1c-b63314f1f30e","ios":"levelo://app?vid=798ae28c-7ce6-4d47-8b1c-b63314f1f30e"},"vehicle_type_id":"4","last_reported":1750777920,"current_range_meters":0,"station_id":"ce4bgj92rcd13ifvqbd0","pricing_plan_id":"cebpf4jnsgd1na2vs0mg"},{"bike_id":"11bf42d9-83fd-4ea3-b293-4be8964b0a6d","system_id":"levelo_inurba_marseille","lat":43.304404,"lon":5.389179,"is_reserved":false,"is_disabled":true,"rental_uris":{"android":"levelo://app?vid=11bf42d9-83fd-4ea3-b293-4be8964b0a6d","ios":"levelo://app?vid=11bf42d9-83fd-4ea3-b293-4be8964b0a6d"},"vehicle_type_id":"4","last_reported":1750777920,"current_range_meters":0,"station_id":"ce4bgk12rcd13ifvqbi0","pricing_plan_id":"cebpf4jnsgd1na2vs0mg"},{"bike_id":"bf455bed-cacf-49bf-9177-1d14c5ca7d2d","system_id":"levelo_inurba_marseille","lat":43.309357,"lon":5.401451,"is_reserved":false,"is_disabled":true,"rental_uris":{"android":"levelo://app?vid=bf455bed-cacf-49bf-9177-1d14c5ca7d2d","ios":"levelo://app?vid=bf455bed-cacf-49bf-9177-1d14c5ca7d2d"},"vehicle_type_id":"4","last_reported":1750777920,"current_range_meters":0,"station_id":"ce4bgvp2rcd13ifvqct0","pricing_plan_id":"cebpf4jnsgd1na2vs0mg"},{"bike_id":"ee9b6b61-d981-41a9-acc0-aaf035ebc77e","system_id":"levelo_inurba_marseille","lat":43.2943,"lon":5.38612,"is_reserved":false,"is_disabled":true,"rental_uris":{"android":"levelo://app?vid=ee9b6b61-d981-41a9-acc0-aaf035ebc77e","ios":"levelo://app?vid=ee9b6b61-d981-41a9-acc0-aaf035ebc77e"},"vehicle_type_id":"4","last_reported":1750777920,"current_range_meters":0,"station_id":"ce4bh2h2rcd13ifvqdh0","pricing_plan_id":"cebpf4jnsgd1na2vs0mg"},{"bike_id":"3bc1fffd-1946-4496-927e-77471dd237ae","system_id":"levelo_inurba_marseille","lat":43.29421,"lon":5.38573,"is_reserved":false,"is_disabled":true,"rental_uris":{"android":"levelo://app?vid=3bc1fffd-1946-4496-927e-77471dd237ae","ios":"levelo://app?vid=3bc1fffd-1946-4496-927e-77471dd237ae"},"vehicle_type_id":"4","last_reported":1750777920,"current_range_meters":0,"station_id":"ce4bh2h2rcd13ifvqdh0","pricing_plan_id":"cebpf4jnsgd1na2vs0mg"},{"bike_id":"128ccd1f-6ebd-484b-affa-a17ae2bbcb45","system_id":"levelo_inurba_marseille","lat":43.28485,"lon":5.38575,"is_reserved":false,"is_disabled":true,"rental_uris":{"android":"levelo://app?vid=128ccd1f-6ebd-484b-affa-a17ae2bbcb45","ios":"levelo://app?vid=128ccd1f-6ebd-484b-affa-a17ae2bbcb45"},"vehicle_type_id":"4","last_reported":1750777920,"current_range_meters":0,"station_id":"ce4bh8p2rcd13ifvqeb0","pricing_plan_id":"cebpf4jnsgd1na2vs0mg"},{"bike_id":"1b144829-df26-4c03-9759-1646fb377029","system_id":"levelo_inurba_marseille","lat":43.283875,"lon":5.350035,"is_reserved":false,"is_disabled":true,"rental_uris":{"android":"levelo://app?vid=1b144829-df26-4c03-9759-1646fb377029","ios":"levelo://app?vid=1b144829-df26-4c03-9759-1646fb377029"},"vehicle_type_id":"4","last_reported":1750777920,"current_range_meters":0,"station_id":"ce4bhbh2rcd13ifvqepg","pricing_plan_id":"cebpf4jnsgd1na2vs0mg"},{"bike_id":"0544283b-5bab-4315-807a-1142e550cf76","system_id":"levelo_inurba_marseille","lat":43.28415,"lon":5.34995,"is_reserved":false,"is_disabled":true,"rental_uris":{"android":"levelo://app?vid=0544283b-5bab-4315-807a-1142e550cf76","ios":"levelo://app?vid=0544283b-5bab-4315-807a-1142e550cf76"},"vehicle_type_id":"4","last_reported":1750777920,"current_range_meters":0,"station_id":"ce4bhbh2rcd13ifvqepg","pricing_plan_id":"cebpf4jnsgd1na2vs0mg"},{"bike_id":"58bdedc3-dd16-4e7b-8cba-23af98bc9cbc","system_id":"levelo_inurba_marseille","lat":43.28627,"lon":5.35088,"is_reserved":false,"is_disabled":true,"rental_uris":{"android":"levelo://app?vid=58bdedc3-dd16-4e7b-8cba-23af98bc9cbc","ios":"levelo://app?vid=58bdedc3-dd16-4e7b-8cba-23af98bc9cbc"},"vehicle_type_id":"4","last_reported":1750777920,"current_range_meters":0,"station_id":"ce4bhch2rcd13ifvqeug","pricing_plan_id":"cebpf4jnsgd1na2vs0mg"},{"bike_id":"7c4417b7-e7d5-4a5f-ae47-54d8798ab905","system_id":"levelo_inurba_marseille","lat":43.26569,"lon":5.37282,"is_reserved":false,"is_disabled":true,"rental_uris":{"android":"levelo://app?vid=7c4417b7-e7d5-4a5f-ae47-54d8798ab905","ios":"levelo://app?vid=7c4417b7-e7d5-4a5f-ae47-54d8798ab905"},"vehicle_type_id":"4","last_reported":1750777920,"current_range_meters":0,"station_id":"ce4bhg12rcd13ifvqf70","pricing_plan_id":"cebpf4jnsgd1na2vs0mg"},{"bike_id":"8ef8efc9-48ee-4e4b-9691-254d57df73e2","system_id":"levelo_inurba_marseille","lat":43.26206,"lon":5.37441,"is_reserved":false,"is_disabled":true,"rental_uris":{"android":"levelo://app?vid=8ef8efc9-48ee-4e4b-9691-254d57df73e2","ios":"levelo://app?vid=8ef8efc9-48ee-4e4b-9691-254d57df73e2"},"vehicle_type_id":"4","last_reported":1750777920,"current_range_meters":0,"station_id":"ce4bhgp2rcd13ifvqfc0","pricing_plan_id":"cebpf4jnsgd1na2vs0mg"},{"bike_id":"ea50418f-40d9-4fc0-8b04-a3fe2da1f2ce","system_id":"levelo_inurba_marseille","lat":43.256279,"lon":5.376727,"is_reserved":false,"is_disabled":true,"rental_uris":{"android":"levelo://app?vid=ea50418f-40d9-4fc0-8b04-a3fe2da1f2ce","ios":"levelo://app?vid=ea50418f-40d9-4fc0-8b04-a3fe2da1f2ce"},"vehicle_type_id":"4","last_reported":1750777920,"current_range_meters":0,"station_id":"ce4bhh12rcd13ifvqff0","pricing_plan_id":"cebpf4jnsgd1na2vs0mg"},{"bike_id":"942df5ef-8054-4a27-91c6-114622bf9d21","system_id":"levelo_inurba_marseille","lat":43.27202,"lon":5.39183,"is_reserved":false,"is_disabled":true,"rental_uris":{"android":"levelo://app?vid=942df5ef-8054-4a27-91c6-114622bf9d21","ios":"levelo://app?vid=942df5ef-8054-4a27-91c6-114622bf9d21"},"vehicle_type_id":"4","last_reported":1750777920,"current_range_meters":0,"station_id":"ce4bhhp2rcd13ifvqfm0","pricing_plan_id":"cebpf4jnsgd1na2vs0mg"},{"bike_id":"ce710327-9e51-4e52-bdaf-2732808954a8","system_id":"levelo_inurba_marseille","lat":43.24664,"lon":5.38166,"is_reserved":false,"is_disabled":true,"rental_uris":{"android":"levelo://app?vid=ce710327-9e51-4e52-bdaf-2732808954a8","ios":"levelo://app?vid=ce710327-9e51-4e52-bdaf-2732808954a8"},"vehicle_type_id":"4","last_reported":1750777920,"current_range_meters":0,"station_id":"ce4bhih2rcd13ifvqfr0","pricing_plan_id":"cebpf4jnsgd1na2vs0mg"},{"bike_id":"0f70c2a7-12a4-4725-9ce4-83dd2ada0cee","system_id":"levelo_inurba_marseille","lat":43.25816,"lon":5.39433,"is_reserved":false,"is_disabled":true,"rental_uris":{"android":"levelo://app?vid=0f70c2a7-12a4-4725-9ce4-83dd2ada0cee","ios":"levelo://app?vid=0f70c2a7-12a4-4725-9ce4-83dd2ada0cee"},"vehicle_type_id":"4","last_reported":1750777920,"current_range_meters":0,"station_id":"ce4bhip2rcd13ifvqft0","pricing_plan_id":"cebpf4jnsgd1na2vs0mg"},{"bike_id":"9f3729c6-450a-4dbb-aad3-7b4628366eca","system_id":"levelo_inurba_marseille","lat":43.2511,"lon":5.4033,"is_reserved":false,"is_disabled":true,"rental_uris":{"android":"levelo://app?vid=9f3729c6-450a-4dbb-aad3-7b4628366eca","ios":"levelo://app?vid=9f3729c6-450a-4dbb-aad3-7b4628366eca"},"vehicle_type_id":"4","last_reported":1750777920,"current_range_meters":0,"station_id":"ce4bhlh2rcd13ifvqgig","pricing_plan_id":"cebpf4jnsgd1na2vs0mg"},{"bike_id":"7a21dc80-a1dd-45dc-bcf2-1f52e15852b3","system_id":"levelo_inurba_marseille","lat":43.24548,"lon":5.39526,"is_reserved":false,"is_disabled":true,"rental_uris":{"android":"levelo://app?vid=7a21dc80-a1dd-45dc-bcf2-1f52e15852b3","ios":"levelo://app?vid=7a21dc80-a1dd-45dc-bcf2-1f52e15852b3"},"vehicle_type_id":"4","last_reported":1750777920,"current_range_meters":0,"station_id":"ce4bhlp2rcd13ifvqgjg","pricing_plan_id":"cebpf4jnsgd1na2vs0mg"},{"bike_id":"2eb2a23e-ae8b-4426-b7a6-f0322f2229a7","system_id":"levelo_inurba_marseille","lat":43.27492,"lon":5.42454,"is_reserved":false,"is_disabled":true,"rental_uris":{"android":"levelo://app?vid=2eb2a23e-ae8b-4426-b7a6-f0322f2229a7","ios":"levelo://app?vid=2eb2a23e-ae8b-4426-b7a6-f0322f2229a7"},"vehicle_type_id":"4","last_reported":1750777920,"current_range_meters":0,"station_id":"ce4bhn92rcd13ifvqgrg","pricing_plan_id":"cebpf4jnsgd1na2vs0mg"},{"bike_id":"cb1b9dda-5dd1-4677-a9f4-5ac84c9c44c1","system_id":"levelo_inurba_marseille","lat":43.27002,"lon":5.402599,"is_reserved":false,"is_disabled":true,"rental_uris":{"android":"levelo://app?vid=cb1b9dda-5dd1-4677-a9f4-5ac84c9c44c1","ios":"levelo://app?vid=cb1b9dda-5dd1-4677-a9f4-5ac84c9c44c1"},"vehicle_type_id":"4","last_reported":1750777920,"current_range_meters":0,"station_id":"ce4bhop2rcd13ifvqh8g","pricing_plan_id":"cebpf4jnsgd1na2vs0mg"},{"bike_id":"9f3359f4-4b24-4cb1-a098-d4708cecf345","system_id":"levelo_inurba_marseille","lat":43.325386,"lon":5.41423,"is_reserved":false,"is_disabled":true,"rental_uris":{"android":"levelo://app?vid=9f3359f4-4b24-4cb1-a098-d4708cecf345","ios":"levelo://app?vid=9f3359f4-4b24-4cb1-a098-d4708cecf345"},"vehicle_type_id":"4","last_reported":1750777920,"current_range_meters":0,"station_id":"ce4bhq12rcd13ifvqhhg","pricing_plan_id":"cebpf4jnsgd1na2vs0mg"},{"bike_id":"cf0eab26-b7d1-4b13-a38a-4ab94638fe2a","system_id":"levelo_inurba_marseille","lat":43.32356,"lon":5.40616,"is_reserved":false,"is_disabled":true,"rental_uris":{"android":"levelo://app?vid=cf0eab26-b7d1-4b13-a38a-4ab94638fe2a","ios":"levelo://app?vid=cf0eab26-b7d1-4b13-a38a-4ab94638fe2a"},"vehicle_type_id":"4","last_reported":1750777920,"current_range_meters":0,"station_id":"ce4bhq92rcd13ifvqhjg","pricing_plan_id":"cebpf4jnsgd1na2vs0mg"},{"bike_id":"347099b0-b416-4972-a2ff-d4fac45c300a","system_id":"levelo_inurba_marseille","lat":43.28737,"lon":5.36074,"is_reserved":false,"is_disabled":true,"rental_uris":{"android":"levelo://app?vid=347099b0-b416-4972-a2ff-d4fac45c300a","ios":"levelo://app?vid=347099b0-b416-4972-a2ff-d4fac45c300a"},"vehicle_type_id":"4","last_reported":1750777920,"current_range_meters":0,"station_id":"cki0cbj6b192h4jlfktg","pricing_plan_id":"cebpf4jnsgd1na2vs0mg"},{"bike_id":"63667fc0-367e-4d71-b410-22d3ffbc819f","system_id":"levelo_inurba_marseille","lat":43.30121,"lon":5.37407,"is_reserved":false,"is_disabled":true,"rental_uris":{"android":"levelo://app?vid=63667fc0-367e-4d71-b410-22d3ffbc819f","ios":"levelo://app?vid=63667fc0-367e-4d71-b410-22d3ffbc819f"},"vehicle_type_id":"4","last_reported":1750777920,"current_range_meters":400,"station_id":"ce4bgs92rcd13ifvqcc0","pricing_plan_id":"cebpf4jnsgd1na2vs0mg"},{"bike_id":"f6ba1fe1-fb65-4c35-acb6-95b21a991041","system_id":"levelo_inurba_marseille","lat":43.29264,"lon":5.38434,"is_reserved":false,"is_disabled":true,"rental_uris":{"android":"levelo://app?vid=f6ba1fe1-fb65-4c35-acb6-95b21a991041","ios":"levelo://app?vid=f6ba1fe1-fb65-4c35-acb6-95b21a991041"},"vehicle_type_id":"4","last_reported":1750777920,"current_range_meters":400,"station_id":"ce4bh692rcd13ifvqea0","pricing_plan_id":"cebpf4jnsgd1na2vs0mg"},{"bike_id":"966c3118-e338-4bd3-95cd-4bbc489a0396","system_id":"levelo_inurba_marseille","lat":43.28919,"lon":5.36647,"is_reserved":false,"is_disabled":true,"rental_uris":{"android":"levelo://app?vid=966c3118-e338-4bd3-95cd-4bbc489a0396","ios":"levelo://app?vid=966c3118-e338-4bd3-95cd-4bbc489a0396"},"vehicle_type_id":"4","last_reported":1750777920,"current_range_meters":400,"station_id":"ce4bhap2rcd13ifvqek0","pricing_plan_id":"cebpf4jnsgd1na2vs0mg"},{"bike_id":"ae3a0045-4111-472b-a720-caacf1130363","system_id":"levelo_inurba_marseille","lat":43.29019,"lon":5.35611,"is_reserved":false,"is_disabled":true,"rental_uris":{"android":"levelo://app?vid=ae3a0045-4111-472b-a720-caacf1130363","ios":"levelo://app?vid=ae3a0045-4111-472b-a720-caacf1130363"},"vehicle_type_id":"4","last_reported":1750777920,"current_range_meters":400,"station_id":"ce4bhb92rcd13ifvqen0","pricing_plan_id":"cebpf4jnsgd1na2vs0mg"},{"bike_id":"03b2c1ad-0f73-4878-ad96-34f6ba2428f7","system_id":"levelo_inurba_marseille","lat":43.28617,"lon":5.35098,"is_reserved":false,"is_disabled":true,"rental_uris":{"android":"levelo://app?vid=03b2c1ad-0f73-4878-ad96-34f6ba2428f7","ios":"levelo://app?vid=03b2c1ad-0f73-4878-ad96-34f6ba2428f7"},"vehicle_type_id":"4","last_reported":1750777920,"current_range_meters":400,"station_id":"ce4bhch2rcd13ifvqeug","pricing_plan_id":"cebpf4jnsgd1na2vs0mg"},{"bike_id":"143069b7-6f8c-465b-818e-bbe28797b730","system_id":"levelo_inurba_marseille","lat":43.2718,"lon":5.40992,"is_reserved":false,"is_disabled":true,"rental_uris":{"android":"levelo://app?vid=143069b7-6f8c-465b-818e-bbe28797b730","ios":"levelo://app?vid=143069b7-6f8c-465b-818e-bbe28797b730"},"vehicle_type_id":"4","last_reported":1750777920,"current_range_meters":400,"station_id":"ce4bhl12rcd13ifvqgf0","pricing_plan_id":"cebpf4jnsgd1na2vs0mg"},{"bike_id":"ebfdf7a3-6dac-4eee-a628-b41a88554184","system_id":"levelo_inurba_marseille","lat":43.289705,"lon":5.378393,"is_reserved":false,"is_disabled":true,"rental_uris":{"android":"levelo://app?vid=ebfdf7a3-6dac-4eee-a628-b41a88554184","ios":"levelo://app?vid=ebfdf7a3-6dac-4eee-a628-b41a88554184"},"vehicle_type_id":"4","last_reported":1750777920,"current_range_meters":800,"station_id":"ce4bh9p2rcd13ifvqed0","pricing_plan_id":"cebpf4jnsgd1na2vs0mg"},{"bike_id":"41b20ce6-1a49-4c3f-a678-ed06f0dc68a5","system_id":"levelo_inurba_marseille","lat":43.29592,"lon":5.38102,"is_reserved":false,"is_disabled":true,"rental_uris":{"android":"levelo://app?vid=41b20ce6-1a49-4c3f-a678-ed06f0dc68a5","ios":"levelo://app?vid=41b20ce6-1a49-4c3f-a678-ed06f0dc68a5"},"vehicle_type_id":"4","last_reported":1750777920,"current_range_meters":1200,"station_id":"ce4bgl12rcd13ifvqbo0","pricing_plan_id":"cebpf4jnsgd1na2vs0mg"},{"bike_id":"bb96cfd8-8189-4aa7-8a21-b10b656cdc05","system_id":"levelo_inurba_marseille","lat":43.29782,"lon":5.371,"is_reserved":false,"is_disabled":true,"rental_uris":{"android":"levelo://app?vid=bb96cfd8-8189-4aa7-8a21-b10b656cdc05","ios":"levelo://app?vid=bb96cfd8-8189-4aa7-8a21-b10b656cdc05"},"vehicle_type_id":"4","last_reported":1750777920,"current_range_meters":1200,"station_id":"ce4bgop2rcd13ifvqc1g","pricing_plan_id":"cebpf4jnsgd1na2vs0mg"},{"bike_id":"9dbaef63-22f3-43ec-9877-d714983aec9d","system_id":"levelo_inurba_marseille","lat":43.30804,"lon":5.38184,"is_reserved":false,"is_disabled":true,"rental_uris":{"android":"levelo://app?vid=9dbaef63-22f3-43ec-9877-d714983aec9d","ios":"levelo://app?vid=9dbaef63-22f3-43ec-9877-d714983aec9d"},"vehicle_type_id":"4","last_reported":1750777920,"current_range_meters":1200,"station_id":"ce4bgt12rcd13ifvqce0","pricing_plan_id":"cebpf4jnsgd1na2vs0mg"},{"bike_id":"85c58f10-925d-4344-b389-09267487a6fc","system_id":"levelo_inurba_marseille","lat":43.21124,"lon":5.41927,"is_reserved":false,"is_disabled":true,"rental_uris":{"android":"levelo://app?vid=85c58f10-925d-4344-b389-09267487a6fc","ios":"levelo://app?vid=85c58f10-925d-4344-b389-09267487a6fc"},"vehicle_type_id":"4","last_reported":1750777920,"current_range_meters":1600,"station_id":"","pricing_plan_id":"cebpf4jnsgd1na2vs0mg"},{"bike_id":"05e2a034-8959-4158-8a3b-af279c84e7d4","system_id":"levelo_inurba_marseille","lat":43.31691,"lon":5.40469,"is_reserved":false,"is_disabled":true,"rental_uris":{"android":"levelo://app?vid=05e2a034-8959-4158-8a3b-af279c84e7d4","ios":"levelo://app?vid=05e2a034-8959-4158-8a3b-af279c84e7d4"},"vehicle_type_id":"4","last_reported":1750777920,"current_range_meters":1600,"station_id":"ce4bh012rcd13ifvqd00","pricing_plan_id":"cebpf4jnsgd1na2vs0mg"},{"bike_id":"564ae250-85e6-4d3c-b576-5824f82f33e8","system_id":"levelo_inurba_marseille","lat":43.29632,"lon":5.406,"is_reserved":false,"is_disabled":true,"rental_uris":{"android":"levelo://app?vid=564ae250-85e6-4d3c-b576-5824f82f33e8","ios":"levelo://app?vid=564ae250-85e6-4d3c-b576-5824f82f33e8"},"vehicle_type_id":"4","last_reported":1750777920,"current_range_meters":1600,"station_id":"ce4bh0h2rcd13ifvqd60","pricing_plan_id":"cebpf4jnsgd1na2vs0mg"},{"bike_id":"a7c5995b-1fca-44d2-adca-de06fc96ae28","system_id":"levelo_inurba_marseille","lat":43.2963,"lon":5.40596,"is_reserved":false,"is_disabled":true,"rental_uris":{"android":"levelo://app?vid=a7c5995b-1fca-44d2-adca-de06fc96ae28","ios":"levelo://app?vid=a7c5995b-1fca-44d2-adca-de06fc96ae28"},"vehicle_type_id":"4","last_reported":1750777920,"current_range_meters":1600,"station_id":"ce4bh0h2rcd13ifvqd60","pricing_plan_id":"cebpf4jnsgd1na2vs0mg"},{"bike_id":"28b46c1c-d972-4669-99ba-ca46ad1d3c7c","system_id":"levelo_inurba_marseille","lat":43.29226,"lon":5.3629,"is_reserved":false,"is_disabled":true,"rental_uris":{"android":"levelo://app?vid=28b46c1c-d972-4669-99ba-ca46ad1d3c7c","ios":"levelo://app?vid=28b46c1c-d972-4669-99ba-ca46ad1d3c7c"},"vehicle_type_id":"4","last_reported":1750777920,"current_range_meters":1600,"station_id":"ce4bhbh2rcd13ifvqeqg","pricing_plan_id":"cebpf4jnsgd1na2vs0mg"},{"bike_id":"ffbbad5a-c5ef-41b5-a2e2-0a200487f412","system_id":"levelo_inurba_marseille","lat":43.28266,"lon":5.35072,"is_reserved":false,"is_disabled":true,"rental_uris":{"android":"levelo://app?vid=ffbbad5a-c5ef-41b5-a2e2-0a200487f412","ios":"levelo://app?vid=ffbbad5a-c5ef-41b5-a2e2-0a200487f412"},"vehicle_type_id":"4","last_reported":1750777920,"current_range_meters":1600,"station_id":"ce4bhbp2rcd13ifvqerg","pricing_plan_id":"cebpf4jnsgd1na2vs0mg"},{"bike_id":"69340baf-9e3e-4b44-bb57-fa05438599fc","system_id":"levelo_inurba_marseille","lat":43.25011,"lon":5.38919,"is_reserved":false,"is_disabled":true,"rental_uris":{"android":"levelo://app?vid=69340baf-9e3e-4b44-bb57-fa05438599fc","ios":"levelo://app?vid=69340baf-9e3e-4b44-bb57-fa05438599fc"},"vehicle_type_id":"4","last_reported":1750777920,"current_range_meters":1600,"station_id":"ce4bhgp2rcd13ifvqfd0","pricing_plan_id":"cebpf4jnsgd1na2vs0mg"},{"bike_id":"05ebc3d9-4711-428a-ba8b-c5b68c136dd6","system_id":"levelo_inurba_marseille","lat":43.29875,"lon":5.384,"is_reserved":false,"is_disabled":true,"rental_uris":{"android":"levelo://app?vid=05ebc3d9-4711-428a-ba8b-c5b68c136dd6","ios":"levelo://app?vid=05ebc3d9-4711-428a-ba8b-c5b68c136dd6"},"vehicle_type_id":"4","last_reported":1750777920,"current_range_meters":2000,"station_id":"","pricing_plan_id":"cebpf4jnsgd1na2vs0mg"},{"bike_id":"7869e43b-1ab8-47bd-be37-6776dadf05b8","system_id":"levelo_inurba_marseille","lat":43.29938,"lon":5.36562,"is_reserved":false,"is_disabled":true,"rental_uris":{"android":"levelo://app?vid=7869e43b-1ab8-47bd-be37-6776dadf05b8","ios":"levelo://app?vid=7869e43b-1ab8-47bd-be37-6776dadf05b8"},"vehicle_type_id":"4","last_reported":1750777920,"current_range_meters":2000,"station_id":"ce4bgm92rcd13ifvqbr0","pricing_plan_id":"cebpf4jnsgd1na2vs0mg"},{"bike_id":"c66024c7-87fe-49e7-9cea-987546c0badf","system_id":"levelo_inurba_marseille","lat":43.30603,"lon":5.39367,"is_reserved":false,"is_disabled":false,"rental_uris":{"android":"levelo://app?vid=c66024c7-87fe-49e7-9cea-987546c0badf","ios":"levelo://app?vid=c66024c7-87fe-49e7-9cea-987546c0badf"},"vehicle_type_id":"4","last_reported":1750777920,"current_range_meters":2800,"station_id":"ce4bh012rcd13ifvqcv0","pricing_plan_id":"cebpf4jnsgd1na2vs0mg"},{"bike_id":"a8647b13-7b37-41c4-b649-372d7a8e6fb7","system_id":"levelo_inurba_marseille","lat":43.28289,"lon":5.3507,"is_reserved":false,"is_disabled":false,"rental_uris":{"android":"levelo://app?vid=a8647b13-7b37-41c4-b649-372d7a8e6fb7","ios":"levelo://app?vid=a8647b13-7b37-41c4-b649-372d7a8e6fb7"},"vehicle_type_id":"4","last_reported":1750777920,"current_range_meters":2800,"station_id":"ce4bhbp2rcd13ifvqerg","pricing_plan_id":"cebpf4jnsgd1na2vs0mg"},{"bike_id":"07068f37-0a08-4182-b01e-579922dfeeb0","system_id":"levelo_inurba_marseille","lat":43.34136,"lon":5.40905,"is_reserved":false,"is_disabled":false,"rental_uris":{"android":"levelo://app?vid=07068f37-0a08-4182-b01e-579922dfeeb0","ios":"levelo://app?vid=07068f37-0a08-4182-b01e-579922dfeeb0"},"vehicle_type_id":"4","last_reported":1750777920,"current_range_meters":2800,"station_id":"ce4bhqh2rcd13ifvqhlg","pricing_plan_id":"cebpf4jnsgd1na2vs0mg"},{"bike_id":"8c6de0c1-9eaf-4c18-8155-d956789067ae","system_id":"levelo_inurba_marseille","lat":43.2792,"lon":5.44255,"is_reserved":false,"is_disabled":false,"rental_uris":{"android":"levelo://app?vid=8c6de0c1-9eaf-4c18-8155-d956789067ae","ios":"levelo://app?vid=8c6de0c1-9eaf-4c18-8155-d956789067ae"},"vehicle_type_id":"4","last_reported":1750777920,"current_range_meters":3200,"station_id":"","pricing_plan_id":"cebpf4jnsgd1na2vs0mg"},{"bike_id":"d4779f22-119b-4f68-8f81-f48570d09220","system_id":"levelo_inurba_marseille","lat":43.27838,"lon":5.39209,"is_reserved":false,"is_disabled":false,"rental_uris":{"android":"levelo://app?vid=d4779f22-119b-4f68-8f81-f48570d09220","ios":"levelo://app?vid=d4779f22-119b-4f68-8f81-f48570d09220"},"vehicle_type_id":"4","last_reported":1750777920,"current_range_meters":3200,"station_id":"ce4bhjp2rcd13ifvqga0","pricing_plan_id":"cebpf4jnsgd1na2vs0mg"},{"bike_id":"7b15da24-abce-490d-a4cf-e65e341bd2a7","system_id":"levelo_inurba_marseille","lat":43.27491,"lon":5.42451,"is_reserved":false,"is_disabled":false,"rental_uris":{"android":"levelo://app?vid=7b15da24-abce-490d-a4cf-e65e341bd2a7","ios":"levelo://app?vid=7b15da24-abce-490d-a4cf-e65e341bd2a7"},"vehicle_type_id":"4","last_reported":1750777920,"current_range_meters":3200,"station_id":"ce4bhn92rcd13ifvqgrg","pricing_plan_id":"cebpf4jnsgd1na2vs0mg"},{"bike_id":"a9e5e555-fdaf-49c0-b286-f0f2659b17d0","system_id":"levelo_inurba_marseille","lat":43.283,"lon":5.43248,"is_reserved":false,"is_disabled":false,"rental_uris":{"android":"levelo://app?vid=a9e5e555-fdaf-49c0-b286-f0f2659b17d0","ios":"levelo://app?vid=a9e5e555-fdaf-49c0-b286-f0f2659b17d0"},"vehicle_type_id":"4","last_reported":1750777920,"current_range_meters":3600,"station_id":"","pricing_plan_id":"cebpf4jnsgd1na2vs0mg"},{"bike_id":"4b51865d-7689-4312-90ec-3578d1f30155","system_id":"levelo_inurba_marseille","lat":43.31493,"lon":5.39136,"is_reserved":false,"is_disabled":false,"rental_uris":{"android":"levelo://app?vid=4b51865d-7689-4312-90ec-3578d1f30155","ios":"levelo://app?vid=4b51865d-7689-4312-90ec-3578d1f30155"},"vehicle_type_id":"4","last_reported":1750777920,"current_range_meters":3600,"station_id":"","pricing_plan_id":"cebpf4jnsgd1na2vs0mg"},{"bike_id":"015f2b10-369f-4d7c-a148-a53ef9f1ef4d","system_id":"levelo_inurba_marseille","lat":43.31485,"lon":5.37305,"is_reserved":false,"is_disabled":false,"rental_uris":{"android":"levelo://app?vid=015f2b10-369f-4d7c-a148-a53ef9f1ef4d","ios":"levelo://app?vid=015f2b10-369f-4d7c-a148-a53ef9f1ef4d"},"vehicle_type_id":"4","last_reported":1750777920,"current_range_meters":3600,"station_id":"ce4bgt12rcd13ifvqcd0","pricing_plan_id":"cebpf4jnsgd1na2vs0mg"},{"bike_id":"997f9fe0-3d25-4a11-b2e6-dc38461e0f1c","system_id":"levelo_inurba_marseille","lat":43.30653,"lon":5.40103,"is_reserved":false,"is_disabled":false,"rental_uris":{"android":"levelo://app?vid=997f9fe0-3d25-4a11-b2e6-dc38461e0f1c","ios":"levelo://app?vid=997f9fe0-3d25-4a11-b2e6-dc38461e0f1c"},"vehicle_type_id":"4","last_reported":1750777920,"current_range_meters":3600,"station_id":"ce4bh112rcd13ifvqda0","pricing_plan_id":"cebpf4jnsgd1na2vs0mg"},{"bike_id":"c6eda156-0c37-41a5-9b4b-af2466d8f47d","system_id":"levelo_inurba_marseille","lat":43.286276,"lon":5.403575,"is_reserved":false,"is_disabled":false,"rental_uris":{"android":"levelo://app?vid=c6eda156-0c37-41a5-9b4b-af2466d8f47d","ios":"levelo://app?vid=c6eda156-0c37-41a5-9b4b-af2466d8f47d"},"vehicle_type_id":"4","last_reported":1750777920,"current_range_meters":3600,"station_id":"ce4bh3h2rcd13ifvqdo0","pricing_plan_id":"cebpf4jnsgd1na2vs0mg"},{"bike_id":"1299c371-43bb-47fb-87e6-32d2c7e85bc9","system_id":"levelo_inurba_marseille","lat":43.29522,"lon":5.39401,"is_reserved":false,"is_disabled":false,"rental_uris":{"android":"levelo://app?vid=1299c371-43bb-47fb-87e6-32d2c7e85bc9","ios":"levelo://app?vid=1299c371-43bb-47fb-87e6-32d2c7e85bc9"},"vehicle_type_id":"4","last_reported":1750777920,"current_range_meters":4000,"station_id":"ce4bh292rcd13ifvqdf0","pricing_plan_id":"cebpf4jnsgd1na2vs0mg"},{"bike_id":"3238627b-cc99-4682-851d-3c2da7d6d55b","system_id":"levelo_inurba_marseille","lat":43.28422,"lon":5.34985,"is_reserved":false,"is_disabled":false,"rental_uris":{"android":"levelo://app?vid=3238627b-cc99-4682-851d-3c2da7d6d55b","ios":"levelo://app?vid=3238627b-cc99-4682-851d-3c2da7d6d55b"},"vehicle_type_id":"4","last_reported":1750777920,"current_range_meters":4000,"station_id":"ce4bhbh2rcd13ifvqepg","pricing_plan_id":"cebpf4jnsgd1na2vs0mg"},{"bike_id":"23c13eec-00d9-4eba-b75d-a71f8b06e998","system_id":"levelo_inurba_marseille","lat":43.25862,"lon":5.39901,"is_reserved":false,"is_disabled":false,"rental_uris":{"android":"levelo://app?vid=23c13eec-00d9-4eba-b75d-a71f8b06e998","ios":"levelo://app?vid=23c13eec-00d9-4eba-b75d-a71f8b06e998"},"vehicle_type_id":"4","last_reported":1750777920,"current_range_meters":4000,"station_id":"ce4bhl92rcd13ifvqghg","pricing_plan_id":"cebpf4jnsgd1na2vs0mg"},{"bike_id":"1db3f325-e720-459d-9f82-0465eecb16d7","system_id":"levelo_inurba_marseille","lat":43.28613,"lon":5.35106,"is_reserved":false,"is_disabled":false,"rental_uris":{"android":"levelo://app?vid=1db3f325-e720-459d-9f82-0465eecb16d7","ios":"levelo://app?vid=1db3f325-e720-459d-9f82-0465eecb16d7"},"vehicle_type_id":"4","last_reported":1750777920,"current_range_meters":4400,"station_id":"ce4bhch2rcd13ifvqeug","pricing_plan_id":"cebpf4jnsgd1na2vs0mg"},{"bike_id":"d8451113-0035-49bf-88e9-8ee333dec02e","system_id":"levelo_inurba_marseille","lat":43.30896,"lon":5.40204,"is_reserved":false,"is_disabled":false,"rental_uris":{"android":"levelo://app?vid=d8451113-0035-49bf-88e9-8ee333dec02e","ios":"levelo://app?vid=d8451113-0035-49bf-88e9-8ee333dec02e"},"vehicle_type_id":"4","last_reported":1750777920,"current_range_meters":4800,"station_id":"","pricing_plan_id":"cebpf4jnsgd1na2vs0mg"},{"bike_id":"17d0afaa-6951-4dde-a43d-60017e75021c","system_id":"levelo_inurba_marseille","lat":43.291681,"lon":5.421175,"is_reserved":false,"is_disabled":false,"rental_uris":{"android":"levelo://app?vid=17d0afaa-6951-4dde-a43d-60017e75021c","ios":"levelo://app?vid=17d0afaa-6951-4dde-a43d-60017e75021c"},"vehicle_type_id":"4","last_reported":1750777920,"current_range_meters":4800,"station_id":"","pricing_plan_id":"cebpf4jnsgd1na2vs0mg"},{"bike_id":"860cd856-e30d-48e7-9d4d-56cffa65e0b0","system_id":"levelo_inurba_marseille","lat":43.262141,"lon":5.374398,"is_reserved":false,"is_disabled":false,"rental_uris":{"android":"levelo://app?vid=860cd856-e30d-48e7-9d4d-56cffa65e0b0","ios":"levelo://app?vid=860cd856-e30d-48e7-9d4d-56cffa65e0b0"},"vehicle_type_id":"4","last_reported":1750777920,"current_range_meters":4800,"station_id":"ce4bhgp2rcd13ifvqfc0","pricing_plan_id":"cebpf4jnsgd1na2vs0mg"},{"bike_id":"f4f108f2-b75d-4be6-8712-06dfb7a7facc","system_id":"levelo_inurba_marseille","lat":43.29959,"lon":5.41316,"is_reserved":false,"is_disabled":false,"rental_uris":{"android":"levelo://app?vid=f4f108f2-b75d-4be6-8712-06dfb7a7facc","ios":"levelo://app?vid=f4f108f2-b75d-4be6-8712-06dfb7a7facc"},"vehicle_type_id":"4","last_reported":1750777920,"current_range_meters":4800,"station_id":"ce4bhp12rcd13ifvqh9g","pricing_plan_id":"cebpf4jnsgd1na2vs0mg"},{"bike_id":"70764641-799a-4261-99bd-903918c1b74a","system_id":"levelo_inurba_marseille","lat":43.32907,"lon":5.38385,"is_reserved":false,"is_disabled":false,"rental_uris":{"android":"levelo://app?vid=70764641-799a-4261-99bd-903918c1b74a","ios":"levelo://app?vid=70764641-799a-4261-99bd-903918c1b74a"},"vehicle_type_id":"4","last_reported":1750777920,"current_range_meters":6400,"station_id":"","pricing_plan_id":"cebpf4jnsgd1na2vs0mg"},{"bike_id":"7610fcb9-951d-4761-bd6a-66811815af95","system_id":"levelo_inurba_marseille","lat":43.30125,"lon":5.39852,"is_reserved":false,"is_disabled":false,"rental_uris":{"android":"levelo://app?vid=7610fcb9-951d-4761-bd6a-66811815af95","ios":"levelo://app?vid=7610fcb9-951d-4761-bd6a-66811815af95"},"vehicle_type_id":"4","last_reported":1750777920,"current_range_meters":6400,"station_id":"ce4bh0h2rcd13ifvqd40","pricing_plan_id":"cebpf4jnsgd1na2vs0mg"},{"bike_id":"20942cfe-936a-46ca-b62e-9ad2167bf510","system_id":"levelo_inurba_marseille","lat":43.32099,"lon":5.36763,"is_reserved":false,"is_disabled":false,"rental_uris":{"android":"levelo://app?vid=20942cfe-936a-46ca-b62e-9ad2167bf510","ios":"levelo://app?vid=20942cfe-936a-46ca-b62e-9ad2167bf510"},"vehicle_type_id":"4","last_reported":1750777920,"current_range_meters":6400,"station_id":"ce4bhrh2rcd13ifvqhug","pricing_plan_id":"cebpf4jnsgd1na2vs0mg"},{"bike_id":"a9c99843-95c2-4677-b532-0d34b66006f7","system_id":"levelo_inurba_marseille","lat":43.2872,"lon":5.36083,"is_reserved":false,"is_disabled":false,"rental_uris":{"android":"levelo://app?vid=a9c99843-95c2-4677-b532-0d34b66006f7","ios":"levelo://app?vid=a9c99843-95c2-4677-b532-0d34b66006f7"},"vehicle_type_id":"4","last_reported":1750777920,"current_range_meters":6400,"station_id":"cki0cbj6b192h4jlfktg","pricing_plan_id":"cebpf4jnsgd1na2vs0mg"},{"bike_id":"6d668213-0511-4aaf-82c4-24a61c3be436","system_id":"levelo_inurba_marseille","lat":43.30537,"lon":5.38424,"is_reserved":false,"is_disabled":false,"rental_uris":{"android":"levelo://app?vid=6d668213-0511-4aaf-82c4-24a61c3be436","ios":"levelo://app?vid=6d668213-0511-4aaf-82c4-24a61c3be436"},"vehicle_type_id":"4","last_reported":1750777920,"current_range_meters":6800,"station_id":"ce4bgg92rcd13ifvqb30","pricing_plan_id":"cebpf4jnsgd1na2vs0mg"},{"bike_id":"cae43e91-58ae-4440-a289-0e7c55d8b14d","system_id":"levelo_inurba_marseille","lat":43.28416,"lon":5.34997,"is_reserved":false,"is_disabled":false,"rental_uris":{"android":"levelo://app?vid=cae43e91-58ae-4440-a289-0e7c55d8b14d","ios":"levelo://app?vid=cae43e91-58ae-4440-a289-0e7c55d8b14d"},"vehicle_type_id":"4","last_reported":1750777920,"current_range_meters":6800,"station_id":"ce4bhbh2rcd13ifvqepg","pricing_plan_id":"cebpf4jnsgd1na2vs0mg"},{"bike_id":"a20a2d8e-159c-44ce-8735-3e3ee7340491","system_id":"levelo_inurba_marseille","lat":43.31071,"lon":5.38355,"is_reserved":false,"is_disabled":false,"rental_uris":{"android":"levelo://app?vid=a20a2d8e-159c-44ce-8735-3e3ee7340491","ios":"levelo://app?vid=a20a2d8e-159c-44ce-8735-3e3ee7340491"},"vehicle_type_id":"4","last_reported":1750777920,"current_range_meters":7200,"station_id":"ce4bgv92rcd13ifvqcr0","pricing_plan_id":"cebpf4jnsgd1na2vs0mg"},{"bike_id":"0ba97fce-fd8d-4fbe-a7e7-6d0662a902c8","system_id":"levelo_inurba_marseille","lat":43.28396,"lon":5.37526,"is_reserved":false,"is_disabled":false,"rental_uris":{"android":"levelo://app?vid=0ba97fce-fd8d-4fbe-a7e7-6d0662a902c8","ios":"levelo://app?vid=0ba97fce-fd8d-4fbe-a7e7-6d0662a902c8"},"vehicle_type_id":"4","last_reported":1750777920,"current_range_meters":7200,"station_id":"ce4bh412rcd13ifvqds0","pricing_plan_id":"cebpf4jnsgd1na2vs0mg"},{"bike_id":"8527eef5-3a92-4bba-b4de-34be96ff921e","system_id":"levelo_inurba_marseille","lat":43.324707,"lon":5.365822,"is_reserved":false,"is_disabled":false,"rental_uris":{"android":"levelo://app?vid=8527eef5-3a92-4bba-b4de-34be96ff921e","ios":"levelo://app?vid=8527eef5-3a92-4bba-b4de-34be96ff921e"},"vehicle_type_id":"4","last_reported":1750777920,"current_range_meters":7200,"station_id":"ce4bhs12rcd13ifvqhvg","pricing_plan_id":"cebpf4jnsgd1na2vs0mg"},{"bike_id":"60e0ddc5-794e-4f17-992b-a38d3a4b9b7e","system_id":"levelo_inurba_marseille","lat":43.26197,"lon":5.37448,"is_reserved":false,"is_disabled":false,"rental_uris":{"android":"levelo://app?vid=60e0ddc5-794e-4f17-992b-a38d3a4b9b7e","ios":"levelo://app?vid=60e0ddc5-794e-4f17-992b-a38d3a4b9b7e"},"vehicle_type_id":"4","last_reported":1750777920,"current_range_meters":8000,"station_id":"ce4bhgp2rcd13ifvqfc0","pricing_plan_id":"cebpf4jnsgd1na2vs0mg"},{"bike_id":"9f7d0db1-8b7a-4525-931b-7cb1d70564b9","system_id":"levelo_inurba_marseille","lat":43.25118,"lon":5.40322,"is_reserved":false,"is_disabled":false,"rental_uris":{"android":"levelo://app?vid=9f7d0db1-8b7a-4525-931b-7cb1d70564b9","ios":"levelo://app?vid=9f7d0db1-8b7a-4525-931b-7cb1d70564b9"},"vehicle_type_id":"4","last_reported":1750777920,"current_range_meters":8000,"station_id":"ce4bhlh2rcd13ifvqgig","pricing_plan_id":"cebpf4jnsgd1na2vs0mg"},{"bike_id":"465d2323-f97d-48b0-a820-bc5fa54ae0fa","system_id":"levelo_inurba_marseille","lat":43.28382,"lon":5.45904,"is_reserved":false,"is_disabled":false,"rental_uris":{"android":"levelo://app?vid=465d2323-f97d-48b0-a820-bc5fa54ae0fa","ios":"levelo://app?vid=465d2323-f97d-48b0-a820-bc5fa54ae0fa"},"vehicle_type_id":"4","last_reported":1750777920,"current_range_meters":8400,"station_id":"","pricing_plan_id":"cebpf4jnsgd1na2vs0mg"},{"bike_id":"edd79c20-9a96-4aea-9e96-e856883aedfc","system_id":"levelo_inurba_marseille","lat":43.29004,"lon":5.35609,"is_reserved":false,"is_disabled":false,"rental_uris":{"android":"levelo://app?vid=edd79c20-9a96-4aea-9e96-e856883aedfc","ios":"levelo://app?vid=edd79c20-9a96-4aea-9e96-e856883aedfc"},"vehicle_type_id":"4","last_reported":1750777920,"current_range_meters":8400,"station_id":"ce4bhb92rcd13ifvqen0","pricing_plan_id":"cebpf4jnsgd1na2vs0mg"},{"bike_id":"be954631-bd37-4d6a-911d-8a6852830e99","system_id":"levelo_inurba_marseille","lat":43.28411,"lon":5.34988,"is_reserved":false,"is_disabled":false,"rental_uris":{"android":"levelo://app?vid=be954631-bd37-4d6a-911d-8a6852830e99","ios":"levelo://app?vid=be954631-bd37-4d6a-911d-8a6852830e99"},"vehicle_type_id":"4","last_reported":1750777920,"current_range_meters":8400,"station_id":"ce4bhbh2rcd13ifvqepg","pricing_plan_id":"cebpf4jnsgd1na2vs0mg"},{"bike_id":"3fb63801-aec5-4d7f-823e-a3464ef60a61","system_id":"levelo_inurba_marseille","lat":43.28613,"lon":5.35098,"is_reserved":false,"is_disabled":false,"rental_uris":{"android":"levelo://app?vid=3fb63801-aec5-4d7f-823e-a3464ef60a61","ios":"levelo://app?vid=3fb63801-aec5-4d7f-823e-a3464ef60a61"},"vehicle_type_id":"4","last_reported":1750777920,"current_range_meters":8400,"station_id":"ce4bhch2rcd13ifvqeug","pricing_plan_id":"cebpf4jnsgd1na2vs0mg"},{"bike_id":"588a5867-9970-4e05-8294-dd4e9469e6e5","system_id":"levelo_inurba_marseille","lat":43.26557,"lon":5.37291,"is_reserved":false,"is_disabled":false,"rental_uris":{"android":"levelo://app?vid=588a5867-9970-4e05-8294-dd4e9469e6e5","ios":"levelo://app?vid=588a5867-9970-4e05-8294-dd4e9469e6e5"},"vehicle_type_id":"4","last_reported":1750777920,"current_range_meters":8400,"station_id":"ce4bhg12rcd13ifvqf70","pricing_plan_id":"cebpf4jnsgd1na2vs0mg"},{"bike_id":"ea59d985-db53-4f29-8c73-f523181e9295","system_id":"levelo_inurba_marseille","lat":43.26202,"lon":5.37442,"is_reserved":false,"is_disabled":false,"rental_uris":{"android":"levelo://app?vid=ea59d985-db53-4f29-8c73-f523181e9295","ios":"levelo://app?vid=ea59d985-db53-4f29-8c73-f523181e9295"},"vehicle_type_id":"4","last_reported":1750777920,"current_range_meters":8400,"station_id":"ce4bhgp2rcd13ifvqfc0","pricing_plan_id":"cebpf4jnsgd1na2vs0mg"},{"bike_id":"7619cb21-d0cf-4b12-9297-fedd58220e85","system_id":"levelo_inurba_marseille","lat":43.255034,"lon":5.376308,"is_reserved":false,"is_disabled":false,"rental_uris":{"android":"levelo://app?vid=7619cb21-d0cf-4b12-9297-fedd58220e85","ios":"levelo://app?vid=7619cb21-d0cf-4b12-9297-fedd58220e85"},"vehicle_type_id":"4","last_reported":1750777920,"current_range_meters":8400,"station_id":"ce4bhh12rcd13ifvqff0","pricing_plan_id":"cebpf4jnsgd1na2vs0mg"},{"bike_id":"65db9cbd-7fb2-4cbb-9337-cd4905bc593a","system_id":"levelo_inurba_marseille","lat":43.23962,"lon":5.36641,"is_reserved":false,"is_disabled":false,"rental_uris":{"android":"levelo://app?vid=65db9cbd-7fb2-4cbb-9337-cd4905bc593a","ios":"levelo://app?vid=65db9cbd-7fb2-4cbb-9337-cd4905bc593a"},"vehicle_type_id":"4","last_reported":1750777920,"current_range_meters":8400,"station_id":"ce4bhi12rcd13ifvqfp0","pricing_plan_id":"cebpf4jnsgd1na2vs0mg"},{"bike_id":"eb8571c5-648f-4eb1-9aeb-e673dfe4dc27","system_id":"levelo_inurba_marseille","lat":43.33603,"lon":5.41028,"is_reserved":false,"is_disabled":false,"rental_uris":{"android":"levelo://app?vid=eb8571c5-648f-4eb1-9aeb-e673dfe4dc27","ios":"levelo://app?vid=eb8571c5-648f-4eb1-9aeb-e673dfe4dc27"},"vehicle_type_id":"4","last_reported":1750777920,"current_range_meters":8400,"station_id":"ce4bhqh2rcd13ifvqhmg","pricing_plan_id":"cebpf4jnsgd1na2vs0mg"},{"bike_id":"af1ee2aa-9649-4a84-92f8-a833c0e1efe3","system_id":"levelo_inurba_marseille","lat":43.3235,"lon":5.36754,"is_reserved":false,"is_disabled":false,"rental_uris":{"android":"levelo://app?vid=af1ee2aa-9649-4a84-92f8-a833c0e1efe3","ios":"levelo://app?vid=af1ee2aa-9649-4a84-92f8-a833c0e1efe3"},"vehicle_type_id":"4","last_reported":1750777920,"current_range_meters":8400,"station_id":"ce4bhsh2rcd13ifvqi2g","pricing_plan_id":"cebpf4jnsgd1na2vs0mg"},{"bike_id":"fb98db90-5c2c-4a99-b10a-f61c2f3a931d","system_id":"levelo_inurba_marseille","lat":43.28616,"lon":5.37064,"is_reserved":false,"is_disabled":false,"rental_uris":{"android":"levelo://app?vid=fb98db90-5c2c-4a99-b10a-f61c2f3a931d","ios":"levelo://app?vid=fb98db90-5c2c-4a99-b10a-f61c2f3a931d"},"vehicle_type_id":"4","last_reported":1750777920,"current_range_meters":8400,"station_id":"ce4bht12rcd13ifvqi60","pricing_plan_id":"cebpf4jnsgd1na2vs0mg"},{"bike_id":"113b198a-6e1b-46eb-8e6f-7d0d14639408","system_id":"levelo_inurba_marseille","lat":43.28856,"lon":5.36345,"is_reserved":false,"is_disabled":false,"rental_uris":{"android":"levelo://app?vid=113b198a-6e1b-46eb-8e6f-7d0d14639408","ios":"levelo://app?vid=113b198a-6e1b-46eb-8e6f-7d0d14639408"},"vehicle_type_id":"4","last_reported":1750777920,"current_range_meters":8800,"station_id":"","pricing_plan_id":"cebpf4jnsgd1na2vs0mg"},{"bike_id":"0e701dcf-2620-42ce-bfb6-3ffe713c339b","system_id":"levelo_inurba_marseille","lat":43.22715,"lon":5.34898,"is_reserved":false,"is_disabled":false,"rental_uris":{"android":"levelo://app?vid=0e701dcf-2620-42ce-bfb6-3ffe713c339b","ios":"levelo://app?vid=0e701dcf-2620-42ce-bfb6-3ffe713c339b"},"vehicle_type_id":"4","last_reported":1750777920,"current_range_meters":8800,"station_id":"","pricing_plan_id":"cebpf4jnsgd1na2vs0mg"},{"bike_id":"9d9b3a39-b86f-42db-be50-849ed08410c8","system_id":"levelo_inurba_marseille","lat":43.28355,"lon":5.38113,"is_reserved":false,"is_disabled":false,"rental_uris":{"android":"levelo://app?vid=9d9b3a39-b86f-42db-be50-849ed08410c8","ios":"levelo://app?vid=9d9b3a39-b86f-42db-be50-849ed08410c8"},"vehicle_type_id":"4","last_reported":1750777920,"current_range_meters":8800,"station_id":"ce4bh412rcd13ifvqdr0","pricing_plan_id":"cebpf4jnsgd1na2vs0mg"},{"bike_id":"9cc121d2-6f7c-4a1d-85b1-bfc468eb6b81","system_id":"levelo_inurba_marseille","lat":43.26219,"lon":5.37429,"is_reserved":false,"is_disabled":false,"rental_uris":{"android":"levelo://app?vid=9cc121d2-6f7c-4a1d-85b1-bfc468eb6b81","ios":"levelo://app?vid=9cc121d2-6f7c-4a1d-85b1-bfc468eb6b81"},"vehicle_type_id":"4","last_reported":1750777920,"current_range_meters":8800,"station_id":"ce4bhgp2rcd13ifvqfc0","pricing_plan_id":"cebpf4jnsgd1na2vs0mg"},{"bike_id":"8b964ade-b36e-4afc-b646-3414d72ed7fb","system_id":"levelo_inurba_marseille","lat":43.31729,"lon":5.42399,"is_reserved":false,"is_disabled":false,"rental_uris":{"android":"levelo://app?vid=8b964ade-b36e-4afc-b646-3414d72ed7fb","ios":"levelo://app?vid=8b964ade-b36e-4afc-b646-3414d72ed7fb"},"vehicle_type_id":"4","last_reported":1750777920,"current_range_meters":8800,"station_id":"ce4bhp92rcd13ifvqhbg","pricing_plan_id":"cebpf4jnsgd1na2vs0mg"},{"bike_id":"620085a1-968e-43e9-9bf1-9787a5d9ec4a","system_id":"levelo_inurba_marseille","lat":43.33022,"lon":5.39045,"is_reserved":false,"is_disabled":false,"rental_uris":{"android":"levelo://app?vid=620085a1-968e-43e9-9bf1-9787a5d9ec4a","ios":"levelo://app?vid=620085a1-968e-43e9-9bf1-9787a5d9ec4a"},"vehicle_type_id":"4","last_reported":1750777920,"current_range_meters":8800,"station_id":"ce4bhr92rcd13ifvqhrg","pricing_plan_id":"cebpf4jnsgd1na2vs0mg"},{"bike_id":"087f2159-7753-4646-b13a-36c8508d6b4f","system_id":"levelo_inurba_marseille","lat":43.32474,"lon":5.36552,"is_reserved":false,"is_disabled":false,"rental_uris":{"android":"levelo://app?vid=087f2159-7753-4646-b13a-36c8508d6b4f","ios":"levelo://app?vid=087f2159-7753-4646-b13a-36c8508d6b4f"},"vehicle_type_id":"4","last_reported":1750777920,"current_range_meters":8800,"station_id":"ce4bhs12rcd13ifvqhvg","pricing_plan_id":"cebpf4jnsgd1na2vs0mg"},{"bike_id":"a092c41c-0118-4d86-b43e-981a2615e33e","system_id":"levelo_inurba_marseille","lat":43.34659,"lon":5.34555,"is_reserved":false,"is_disabled":false,"rental_uris":{"android":"levelo://app?vid=a092c41c-0118-4d86-b43e-981a2615e33e","ios":"levelo://app?vid=a092c41c-0118-4d86-b43e-981a2615e33e"},"vehicle_type_id":"4","last_reported":1750777920,"current_range_meters":9200,"station_id":"","pricing_plan_id":"cebpf4jnsgd1na2vs0mg"},{"bike_id":"e127ef7e-24d3-4248-81fa-66c5e7c3e582","system_id":"levelo_inurba_marseille","lat":43.29603,"lon":5.3795,"is_reserved":false,"is_disabled":false,"rental_uris":{"android":"levelo://app?vid=e127ef7e-24d3-4248-81fa-66c5e7c3e582","ios":"levelo://app?vid=e127ef7e-24d3-4248-81fa-66c5e7c3e582"},"vehicle_type_id":"4","last_reported":1750777920,"current_range_meters":9200,"station_id":"","pricing_plan_id":"cebpf4jnsgd1na2vs0mg"},{"bike_id":"96f011d6-9709-41a4-8e18-d697e19e74e6","system_id":"levelo_inurba_marseille","lat":43.24183,"lon":5.39727,"is_reserved":false,"is_disabled":false,"rental_uris":{"android":"levelo://app?vid=96f011d6-9709-41a4-8e18-d697e19e74e6","ios":"levelo://app?vid=96f011d6-9709-41a4-8e18-d697e19e74e6"},"vehicle_type_id":"4","last_reported":1750777920,"current_range_meters":9200,"station_id":"ce4bhn12rcd13ifvqgpg","pricing_plan_id":"cebpf4jnsgd1na2vs0mg"},{"bike_id":"cf4df708-b53f-4b70-b463-a9d5f81fd205","system_id":"levelo_inurba_marseille","lat":43.3249,"lon":5.36594,"is_reserved":false,"is_disabled":false,"rental_uris":{"android":"levelo://app?vid=cf4df708-b53f-4b70-b463-a9d5f81fd205","ios":"levelo://app?vid=cf4df708-b53f-4b70-b463-a9d5f81fd205"},"vehicle_type_id":"4","last_reported":1750777920,"current_range_meters":9200,"station_id":"ce4bhs12rcd13ifvqhvg","pricing_plan_id":"cebpf4jnsgd1na2vs0mg"},{"bike_id":"f333bcb3-17e0-43f1-847f-eb3d745e3e41","system_id":"levelo_inurba_marseille","lat":43.29342,"lon":5.42831,"is_reserved":false,"is_disabled":false,"rental_uris":{"android":"levelo://app?vid=f333bcb3-17e0-43f1-847f-eb3d745e3e41","ios":"levelo://app?vid=f333bcb3-17e0-43f1-847f-eb3d745e3e41"},"vehicle_type_id":"4","last_reported":1750777920,"current_range_meters":9600,"station_id":"","pricing_plan_id":"cebpf4jnsgd1na2vs0mg"},{"bike_id":"1a5e6da0-f0b0-4546-a2bf-205777cb24be","system_id":"levelo_inurba_marseille","lat":43.26259,"lon":5.37255,"is_reserved":false,"is_disabled":false,"rental_uris":{"android":"levelo://app?vid=1a5e6da0-f0b0-4546-a2bf-205777cb24be","ios":"levelo://app?vid=1a5e6da0-f0b0-4546-a2bf-205777cb24be"},"vehicle_type_id":"4","last_reported":1750777920,"current_range_meters":9600,"station_id":"","pricing_plan_id":"cebpf4jnsgd1na2vs0mg"},{"bike_id":"f26d4825-d642-4582-b18d-431809a02766","system_id":"levelo_inurba_marseille","lat":43.307062,"lon":5.382573,"is_reserved":false,"is_disabled":false,"rental_uris":{"android":"levelo://app?vid=f26d4825-d642-4582-b18d-431809a02766","ios":"levelo://app?vid=f26d4825-d642-4582-b18d-431809a02766"},"vehicle_type_id":"4","last_reported":1750777920,"current_range_meters":9600,"station_id":"ce4bgt12rcd13ifvqce0","pricing_plan_id":"cebpf4jnsgd1na2vs0mg"},{"bike_id":"c940cda6-f203-4a99-88c0-6637ff62e74b","system_id":"levelo_inurba_marseille","lat":43.2737,"lon":5.36258,"is_reserved":false,"is_disabled":false,"rental_uris":{"android":"levelo://app?vid=c940cda6-f203-4a99-88c0-6637ff62e74b","ios":"levelo://app?vid=c940cda6-f203-4a99-88c0-6637ff62e74b"},"vehicle_type_id":"4","last_reported":1750777920,"current_range_meters":9600,"station_id":"ce4bhbh2rcd13ifvqeo0","pricing_plan_id":"cebpf4jnsgd1na2vs0mg"},{"bike_id":"4b041765-7aec-4449-a719-20564da15ef1","system_id":"levelo_inurba_marseille","lat":43.26212,"lon":5.3744,"is_reserved":false,"is_disabled":false,"rental_uris":{"android":"levelo://app?vid=4b041765-7aec-4449-a719-20564da15ef1","ios":"levelo://app?vid=4b041765-7aec-4449-a719-20564da15ef1"},"vehicle_type_id":"4","last_reported":1750777920,"current_range_meters":9600,"station_id":"ce4bhgp2rcd13ifvqfc0","pricing_plan_id":"cebpf4jnsgd1na2vs0mg"},{"bike_id":"46a39cbe-ac46-45ce-94f6-33b0eb101f25","system_id":"levelo_inurba_marseille","lat":43.26057,"lon":5.3939,"is_reserved":false,"is_disabled":false,"rental_uris":{"android":"levelo://app?vid=46a39cbe-ac46-45ce-94f6-33b0eb101f25","ios":"levelo://app?vid=46a39cbe-ac46-45ce-94f6-33b0eb101f25"},"vehicle_type_id":"4","last_reported":1750777920,"current_range_meters":9600,"station_id":"ce4bhh92rcd13ifvqfj0","pricing_plan_id":"cebpf4jnsgd1na2vs0mg"},{"bike_id":"e31067d6-9862-463c-a9cd-367ce8053730","system_id":"levelo_inurba_marseille","lat":43.243916,"lon":5.37047,"is_reserved":false,"is_disabled":false,"rental_uris":{"android":"levelo://app?vid=e31067d6-9862-463c-a9cd-367ce8053730","ios":"levelo://app?vid=e31067d6-9862-463c-a9cd-367ce8053730"},"vehicle_type_id":"4","last_reported":1750777920,"current_range_meters":9600,"station_id":"ce4bhhh2rcd13ifvqfk0","pricing_plan_id":"cebpf4jnsgd1na2vs0mg"},{"bike_id":"cada33e7-7feb-4285-bb16-b2e63d63815b","system_id":"levelo_inurba_marseille","lat":43.236714,"lon":5.391556,"is_reserved":false,"is_disabled":false,"rental_uris":{"android":"levelo://app?vid=cada33e7-7feb-4285-bb16-b2e63d63815b","ios":"levelo://app?vid=cada33e7-7feb-4285-bb16-b2e63d63815b"},"vehicle_type_id":"4","last_reported":1750777920,"current_range_meters":10000,"station_id":"","pricing_plan_id":"cebpf4jnsgd1na2vs0mg"},{"bike_id":"82daa609-66e4-4b91-8a1c-a20f4b557675","system_id":"levelo_inurba_marseille","lat":43.30336,"lon":5.36691,"is_reserved":false,"is_disabled":false,"rental_uris":{"android":"levelo://app?vid=82daa609-66e4-4b91-8a1c-a20f4b557675","ios":"levelo://app?vid=82daa609-66e4-4b91-8a1c-a20f4b557675"},"vehicle_type_id":"4","last_reported":1750777920,"current_range_meters":10000,"station_id":"","pricing_plan_id":"cebpf4jnsgd1na2vs0mg"},{"bike_id":"29210238-dfea-4a30-bf93-fb55d62ea08b","system_id":"levelo_inurba_marseille","lat":43.2815,"lon":5.4264,"is_reserved":false,"is_disabled":false,"rental_uris":{"android":"levelo://app?vid=29210238-dfea-4a30-bf93-fb55d62ea08b","ios":"levelo://app?vid=29210238-dfea-4a30-bf93-fb55d62ea08b"},"vehicle_type_id":"4","last_reported":1750777920,"current_range_meters":10000,"station_id":"ce4bhnh2rcd13ifvqgug","pricing_plan_id":"cebpf4jnsgd1na2vs0mg"},{"bike_id":"50e2cab7-4e37-4b88-b49e-a7a45720e1aa","system_id":"levelo_inurba_marseille","lat":43.28001,"lon":5.41659,"is_reserved":false,"is_disabled":false,"rental_uris":{"android":"levelo://app?vid=50e2cab7-4e37-4b88-b49e-a7a45720e1aa","ios":"levelo://app?vid=50e2cab7-4e37-4b88-b49e-a7a45720e1aa"},"vehicle_type_id":"4","last_reported":1750777920,"current_range_meters":10000,"station_id":"ce4bho12rcd13ifvqh1g","pricing_plan_id":"cebpf4jnsgd1na2vs0mg"},{"bike_id":"3b60a970-8edb-4894-ba57-cb1cfb9f9f7a","system_id":"levelo_inurba_marseille","lat":43.30902,"lon":5.37169,"is_reserved":false,"is_disabled":false,"rental_uris":{"android":"levelo://app?vid=3b60a970-8edb-4894-ba57-cb1cfb9f9f7a","ios":"levelo://app?vid=3b60a970-8edb-4894-ba57-cb1cfb9f9f7a"},"vehicle_type_id":"4","last_reported":1750777920,"current_range_meters":10800,"station_id":"ce4bguh2rcd13ifvqckg","pricing_plan_id":"cebpf4jnsgd1na2vs0mg"},{"bike_id":"b7a873e9-6846-4dd8-9773-9bd249aef275","system_id":"levelo_inurba_marseille","lat":43.30198,"lon":5.39469,"is_reserved":false,"is_disabled":false,"rental_uris":{"android":"levelo://app?vid=b7a873e9-6846-4dd8-9773-9bd249aef275","ios":"levelo://app?vid=b7a873e9-6846-4dd8-9773-9bd249aef275"},"vehicle_type_id":"4","last_reported":1750777920,"current_range_meters":10800,"station_id":"ce4bh0p2rcd13ifvqd70","pricing_plan_id":"cebpf4jnsgd1na2vs0mg"},{"bike_id":"f800ed4d-f386-46d4-8b5f-8a71086ade48","system_id":"levelo_inurba_marseille","lat":43.28404,"lon":5.3499,"is_reserved":false,"is_disabled":false,"rental_uris":{"android":"levelo://app?vid=f800ed4d-f386-46d4-8b5f-8a71086ade48","ios":"levelo://app?vid=f800ed4d-f386-46d4-8b5f-8a71086ade48"},"vehicle_type_id":"4","last_reported":1750777920,"current_range_meters":10800,"station_id":"ce4bhbh2rcd13ifvqepg","pricing_plan_id":"cebpf4jnsgd1na2vs0mg"},{"bike_id":"22837f66-2baf-482f-87b3-22a3e837003e","system_id":"levelo_inurba_marseille","lat":43.2842,"lon":5.35,"is_reserved":false,"is_disabled":false,"rental_uris":{"android":"levelo://app?vid=22837f66-2baf-482f-87b3-22a3e837003e","ios":"levelo://app?vid=22837f66-2baf-482f-87b3-22a3e837003e"},"vehicle_type_id":"4","last_reported":1750777920,"current_range_meters":10800,"station_id":"ce4bhbh2rcd13ifvqepg","pricing_plan_id":"cebpf4jnsgd1na2vs0mg"},{"bike_id":"c0dcce54-adc6-453b-9f87-ac273c80658a","system_id":"levelo_inurba_marseille","lat":43.27906,"lon":5.38012,"is_reserved":false,"is_disabled":false,"rental_uris":{"android":"levelo://app?vid=c0dcce54-adc6-453b-9f87-ac273c80658a","ios":"levelo://app?vid=c0dcce54-adc6-453b-9f87-ac273c80658a"},"vehicle_type_id":"4","last_reported":1750777920,"current_range_meters":10800,"station_id":"ce4bhf92rcd13ifvqf50","pricing_plan_id":"cebpf4jnsgd1na2vs0mg"},{"bike_id":"20ee7690-aced-4e48-9e5e-0d7fdfa26dae","system_id":"levelo_inurba_marseille","lat":43.337246,"lon":5.391923,"is_reserved":false,"is_disabled":false,"rental_uris":{"android":"levelo://app?vid=20ee7690-aced-4e48-9e5e-0d7fdfa26dae","ios":"levelo://app?vid=20ee7690-aced-4e48-9e5e-0d7fdfa26dae"},"vehicle_type_id":"4","last_reported":1750777920,"current_range_meters":10800,"station_id":"ce4bhr92rcd13ifvqhsg","pricing_plan_id":"cebpf4jnsgd1na2vs0mg"},{"bike_id":"5a3c89c2-3450-4abf-8f80-3c018505aaa7","system_id":"levelo_inurba_marseille","lat":43.32098,"lon":5.36763,"is_reserved":false,"is_disabled":false,"rental_uris":{"android":"levelo://app?vid=5a3c89c2-3450-4abf-8f80-3c018505aaa7","ios":"levelo://app?vid=5a3c89c2-3450-4abf-8f80-3c018505aaa7"},"vehicle_type_id":"4","last_reported":1750777920,"current_range_meters":10800,"station_id":"ce4bhrh2rcd13ifvqhug","pricing_plan_id":"cebpf4jnsgd1na2vs0mg"},{"bike_id":"238a0e32-cbcb-4bae-b441-47b4753ddd76","system_id":"levelo_inurba_marseille","lat":43.30463,"lon":5.37909,"is_reserved":false,"is_disabled":false,"rental_uris":{"android":"levelo://app?vid=238a0e32-cbcb-4bae-b441-47b4753ddd76","ios":"levelo://app?vid=238a0e32-cbcb-4bae-b441-47b4753ddd76"},"vehicle_type_id":"4","last_reported":1750777920,"current_range_meters":11200,"station_id":"ce4bgup2rcd13ifvqcn0","pricing_plan_id":"cebpf4jnsgd1na2vs0mg"},{"bike_id":"8d13ffb3-fcec-4759-8cc2-929e86052828","system_id":"levelo_inurba_marseille","lat":43.29864,"lon":5.39729,"is_reserved":false,"is_disabled":false,"rental_uris":{"android":"levelo://app?vid=8d13ffb3-fcec-4759-8cc2-929e86052828","ios":"levelo://app?vid=8d13ffb3-fcec-4759-8cc2-929e86052828"},"vehicle_type_id":"4","last_reported":1750777920,"current_range_meters":11200,"station_id":"ce4bh0h2rcd13ifvqd50","pricing_plan_id":"cebpf4jnsgd1na2vs0mg"},{"bike_id":"303463e7-616a-47e4-a24a-7c62a17d4b2f","system_id":"levelo_inurba_marseille","lat":43.28618,"lon":5.35104,"is_reserved":false,"is_disabled":false,"rental_uris":{"android":"levelo://app?vid=303463e7-616a-47e4-a24a-7c62a17d4b2f","ios":"levelo://app?vid=303463e7-616a-47e4-a24a-7c62a17d4b2f"},"vehicle_type_id":"4","last_reported":1750777920,"current_range_meters":11200,"station_id":"ce4bhch2rcd13ifvqeug","pricing_plan_id":"cebpf4jnsgd1na2vs0mg"},{"bike_id":"324615ab-a264-4c46-a336-73fcb839930f","system_id":"levelo_inurba_marseille","lat":43.27999,"lon":5.40008,"is_reserved":false,"is_disabled":false,"rental_uris":{"android":"levelo://app?vid=324615ab-a264-4c46-a336-73fcb839930f","ios":"levelo://app?vid=324615ab-a264-4c46-a336-73fcb839930f"},"vehicle_type_id":"4","last_reported":1750777920,"current_range_meters":11200,"station_id":"ce4bho92rcd13ifvqh4g","pricing_plan_id":"cebpf4jnsgd1na2vs0mg"},{"bike_id":"d3b4acd1-475d-43e1-bb04-3b5b22c96457","system_id":"levelo_inurba_marseille","lat":43.29894,"lon":5.43673,"is_reserved":false,"is_disabled":false,"rental_uris":{"android":"levelo://app?vid=d3b4acd1-475d-43e1-bb04-3b5b22c96457","ios":"levelo://app?vid=d3b4acd1-475d-43e1-bb04-3b5b22c96457"},"vehicle_type_id":"4","last_reported":1750777920,"current_range_meters":11200,"station_id":"ce4bhpp2rcd13ifvqhfg","pricing_plan_id":"cebpf4jnsgd1na2vs0mg"},{"bike_id":"cf537849-e501-478c-9606-85210da90d23","system_id":"levelo_inurba_marseille","lat":43.28937,"lon":5.38397,"is_reserved":false,"is_disabled":false,"rental_uris":{"android":"levelo://app?vid=cf537849-e501-478c-9606-85210da90d23","ios":"levelo://app?vid=cf537849-e501-478c-9606-85210da90d23"},"vehicle_type_id":"4","last_reported":1750777920,"current_range_meters":11600,"station_id":"ce4bh612rcd13ifvqe6g","pricing_plan_id":"cebpf4jnsgd1na2vs0mg"},{"bike_id":"b636b209-8a0d-4aef-bcad-c0a1b5800164","system_id":"levelo_inurba_marseille","lat":43.27911,"lon":5.38016,"is_reserved":false,"is_disabled":false,"rental_uris":{"android":"levelo://app?vid=b636b209-8a0d-4aef-bcad-c0a1b5800164","ios":"levelo://app?vid=b636b209-8a0d-4aef-bcad-c0a1b5800164"},"vehicle_type_id":"4","last_reported":1750777920,"current_range_meters":11600,"station_id":"ce4bhf92rcd13ifvqf50","pricing_plan_id":"cebpf4jnsgd1na2vs0mg"},{"bike_id":"76737df0-a2da-4569-bbee-7556375ac3bf","system_id":"levelo_inurba_marseille","lat":43.2508,"lon":5.39525,"is_reserved":false,"is_disabled":false,"rental_uris":{"android":"levelo://app?vid=76737df0-a2da-4569-bbee-7556375ac3bf","ios":"levelo://app?vid=76737df0-a2da-4569-bbee-7556375ac3bf"},"vehicle_type_id":"4","last_reported":1750777920,"current_range_meters":11600,"station_id":"ce4bhm12rcd13ifvqgkg","pricing_plan_id":"cebpf4jnsgd1na2vs0mg"},{"bike_id":"51dcb3e1-2b07-4a2e-9a2b-e4ec75156f6c","system_id":"levelo_inurba_marseille","lat":43.22934,"lon":5.35376,"is_reserved":false,"is_disabled":false,"rental_uris":{"android":"levelo://app?vid=51dcb3e1-2b07-4a2e-9a2b-e4ec75156f6c","ios":"levelo://app?vid=51dcb3e1-2b07-4a2e-9a2b-e4ec75156f6c"},"vehicle_type_id":"4","last_reported":1750777920,"current_range_meters":11600,"station_id":"cpo3532slgdg3j2ikp40","pricing_plan_id":"cebpf4jnsgd1na2vs0mg"},{"bike_id":"095eabd1-5dcf-4106-9219-bdac4470d970","system_id":"levelo_inurba_marseille","lat":43.32806,"lon":5.43418,"is_reserved":false,"is_disabled":false,"rental_uris":{"android":"levelo://app?vid=095eabd1-5dcf-4106-9219-bdac4470d970","ios":"levelo://app?vid=095eabd1-5dcf-4106-9219-bdac4470d970"},"vehicle_type_id":"4","last_reported":1750777920,"current_range_meters":12000,"station_id":"","pricing_plan_id":"cebpf4jnsgd1na2vs0mg"},{"bike_id":"ea58c5af-7e24-472a-9042-4626112e91cb","system_id":"levelo_inurba_marseille","lat":43.291979,"lon":5.358054,"is_reserved":false,"is_disabled":false,"rental_uris":{"android":"levelo://app?vid=ea58c5af-7e24-472a-9042-4626112e91cb","ios":"levelo://app?vid=ea58c5af-7e24-472a-9042-4626112e91cb"},"vehicle_type_id":"4","last_reported":1750777920,"current_range_meters":12000,"station_id":"","pricing_plan_id":"cebpf4jnsgd1na2vs0mg"},{"bike_id":"e1b50ac2-6f53-440a-9280-d44caa50f707","system_id":"levelo_inurba_marseille","lat":43.30926,"lon":5.40145,"is_reserved":false,"is_disabled":false,"rental_uris":{"android":"levelo://app?vid=e1b50ac2-6f53-440a-9280-d44caa50f707","ios":"levelo://app?vid=e1b50ac2-6f53-440a-9280-d44caa50f707"},"vehicle_type_id":"4","last_reported":1750777920,"current_range_meters":12000,"station_id":"ce4bgvp2rcd13ifvqct0","pricing_plan_id":"cebpf4jnsgd1na2vs0mg"},{"bike_id":"487010c5-476e-4cc4-b00e-a67aaf62af25","system_id":"levelo_inurba_marseille","lat":43.28857,"lon":5.3583,"is_reserved":false,"is_disabled":false,"rental_uris":{"android":"levelo://app?vid=487010c5-476e-4cc4-b00e-a67aaf62af25","ios":"levelo://app?vid=487010c5-476e-4cc4-b00e-a67aaf62af25"},"vehicle_type_id":"4","last_reported":1750777920,"current_range_meters":12000,"station_id":"ce4bhb12rcd13ifvqem0","pricing_plan_id":"cebpf4jnsgd1na2vs0mg"},{"bike_id":"4ea81869-22a1-4d42-a179-0e8d28091f20","system_id":"levelo_inurba_marseille","lat":43.26208,"lon":5.37445,"is_reserved":false,"is_disabled":false,"rental_uris":{"android":"levelo://app?vid=4ea81869-22a1-4d42-a179-0e8d28091f20","ios":"levelo://app?vid=4ea81869-22a1-4d42-a179-0e8d28091f20"},"vehicle_type_id":"4","last_reported":1750777920,"current_range_meters":12000,"station_id":"ce4bhgp2rcd13ifvqfc0","pricing_plan_id":"cebpf4jnsgd1na2vs0mg"},{"bike_id":"d4314e46-ddd9-4777-8e95-5e961c218a4a","system_id":"levelo_inurba_marseille","lat":43.26209,"lon":5.37444,"is_reserved":false,"is_disabled":false,"rental_uris":{"android":"levelo://app?vid=d4314e46-ddd9-4777-8e95-5e961c218a4a","ios":"levelo://app?vid=d4314e46-ddd9-4777-8e95-5e961c218a4a"},"vehicle_type_id":"4","last_reported":1750777920,"current_range_meters":12000,"station_id":"ce4bhgp2rcd13ifvqfc0","pricing_plan_id":"cebpf4jnsgd1na2vs0mg"},{"bike_id":"3e0f5345-cfae-479a-9b41-9237c8726756","system_id":"levelo_inurba_marseille","lat":43.29682,"lon":5.36331,"is_reserved":false,"is_disabled":false,"rental_uris":{"android":"levelo://app?vid=3e0f5345-cfae-479a-9b41-9237c8726756","ios":"levelo://app?vid=3e0f5345-cfae-479a-9b41-9237c8726756"},"vehicle_type_id":"4","last_reported":1750777920,"current_range_meters":12400,"station_id":"","pricing_plan_id":"cebpf4jnsgd1na2vs0mg"},{"bike_id":"07bb8264-f4f2-4204-9150-009af8e16126","system_id":"levelo_inurba_marseille","lat":43.337444,"lon":5.374475,"is_reserved":false,"is_disabled":false,"rental_uris":{"android":"levelo://app?vid=07bb8264-f4f2-4204-9150-009af8e16126","ios":"levelo://app?vid=07bb8264-f4f2-4204-9150-009af8e16126"},"vehicle_type_id":"4","last_reported":1750777920,"current_range_meters":12400,"station_id":"","pricing_plan_id":"cebpf4jnsgd1na2vs0mg"},{"bike_id":"e12d25ad-6a34-4f7d-a8b9-169850127fad","system_id":"levelo_inurba_marseille","lat":43.32698,"lon":5.40287,"is_reserved":false,"is_disabled":false,"rental_uris":{"android":"levelo://app?vid=e12d25ad-6a34-4f7d-a8b9-169850127fad","ios":"levelo://app?vid=e12d25ad-6a34-4f7d-a8b9-169850127fad"},"vehicle_type_id":"4","last_reported":1750777920,"current_range_meters":12400,"station_id":"","pricing_plan_id":"cebpf4jnsgd1na2vs0mg"},{"bike_id":"164c7a34-df19-47c5-ae04-5b4c4fb4d924","system_id":"levelo_inurba_marseille","lat":43.26211,"lon":5.37436,"is_reserved":false,"is_disabled":false,"rental_uris":{"android":"levelo://app?vid=164c7a34-df19-47c5-ae04-5b4c4fb4d924","ios":"levelo://app?vid=164c7a34-df19-47c5-ae04-5b4c4fb4d924"},"vehicle_type_id":"4","last_reported":1750777920,"current_range_meters":12400,"station_id":"ce4bhgp2rcd13ifvqfc0","pricing_plan_id":"cebpf4jnsgd1na2vs0mg"},{"bike_id":"7105bc66-7832-4150-89b2-1044dd9fb88d","system_id":"levelo_inurba_marseille","lat":43.264968,"lon":5.395355,"is_reserved":false,"is_disabled":false,"rental_uris":{"android":"levelo://app?vid=7105bc66-7832-4150-89b2-1044dd9fb88d","ios":"levelo://app?vid=7105bc66-7832-4150-89b2-1044dd9fb88d"},"vehicle_type_id":"4","last_reported":1750777920,"current_range_meters":12400,"station_id":"ce4bhi12rcd13ifvqfq0","pricing_plan_id":"cebpf4jnsgd1na2vs0mg"},{"bike_id":"1c3235dd-e781-4776-8c6d-807bc35b99da","system_id":"levelo_inurba_marseille","lat":43.25831,"lon":5.394387,"is_reserved":false,"is_disabled":false,"rental_uris":{"android":"levelo://app?vid=1c3235dd-e781-4776-8c6d-807bc35b99da","ios":"levelo://app?vid=1c3235dd-e781-4776-8c6d-807bc35b99da"},"vehicle_type_id":"4","last_reported":1750777920,"current_range_meters":12400,"station_id":"ce4bhip2rcd13ifvqft0","pricing_plan_id":"cebpf4jnsgd1na2vs0mg"},{"bike_id":"21d227fc-3e83-4583-93c4-66bceb5ce4d9","system_id":"levelo_inurba_marseille","lat":43.28728,"lon":5.36083,"is_reserved":false,"is_disabled":false,"rental_uris":{"android":"levelo://app?vid=21d227fc-3e83-4583-93c4-66bceb5ce4d9","ios":"levelo://app?vid=21d227fc-3e83-4583-93c4-66bceb5ce4d9"},"vehicle_type_id":"4","last_reported":1750777920,"current_range_meters":12400,"station_id":"cki0cbj6b192h4jlfktg","pricing_plan_id":"cebpf4jnsgd1na2vs0mg"},{"bike_id":"b6b861fa-fd27-43ad-89fb-4be1a264be92","system_id":"levelo_inurba_marseille","lat":43.25307,"lon":5.37497,"is_reserved":false,"is_disabled":false,"rental_uris":{"android":"levelo://app?vid=b6b861fa-fd27-43ad-89fb-4be1a264be92","ios":"levelo://app?vid=b6b861fa-fd27-43ad-89fb-4be1a264be92"},"vehicle_type_id":"4","last_reported":1750777920,"current_range_meters":12800,"station_id":"","pricing_plan_id":"cebpf4jnsgd1na2vs0mg"},{"bike_id":"7c3f6852-4f29-42a9-a8c1-e2b82bb43fcf","system_id":"levelo_inurba_marseille","lat":43.29253,"lon":5.42684,"is_reserved":false,"is_disabled":false,"rental_uris":{"android":"levelo://app?vid=7c3f6852-4f29-42a9-a8c1-e2b82bb43fcf","ios":"levelo://app?vid=7c3f6852-4f29-42a9-a8c1-e2b82bb43fcf"},"vehicle_type_id":"4","last_reported":1750777920,"current_range_meters":12800,"station_id":"","pricing_plan_id":"cebpf4jnsgd1na2vs0mg"},{"bike_id":"8fcf9235-d0d4-440b-86ef-f82f3e99a6ba","system_id":"levelo_inurba_marseille","lat":43.287026,"lon":5.373764,"is_reserved":false,"is_disabled":false,"rental_uris":{"android":"levelo://app?vid=8fcf9235-d0d4-440b-86ef-f82f3e99a6ba","ios":"levelo://app?vid=8fcf9235-d0d4-440b-86ef-f82f3e99a6ba"},"vehicle_type_id":"4","last_reported":1750777920,"current_range_meters":12800,"station_id":"ce4bh3p2rcd13ifvqdq0","pricing_plan_id":"cebpf4jnsgd1na2vs0mg"},{"bike_id":"a23f790a-1a5e-4e66-b1ab-8996a6723a62","system_id":"levelo_inurba_marseille","lat":43.24651,"lon":5.38895,"is_reserved":false,"is_disabled":false,"rental_uris":{"android":"levelo://app?vid=a23f790a-1a5e-4e66-b1ab-8996a6723a62","ios":"levelo://app?vid=a23f790a-1a5e-4e66-b1ab-8996a6723a62"},"vehicle_type_id":"4","last_reported":1750777920,"current_range_meters":12800,"station_id":"ce4bhg12rcd13ifvqf60","pricing_plan_id":"cebpf4jnsgd1na2vs0mg"},{"bike_id":"11ebf4fb-e752-44af-81e3-7d28e8eee9cc","system_id":"levelo_inurba_marseille","lat":43.28106,"lon":5.43219,"is_reserved":false,"is_disabled":false,"rental_uris":{"android":"levelo://app?vid=11ebf4fb-e752-44af-81e3-7d28e8eee9cc","ios":"levelo://app?vid=11ebf4fb-e752-44af-81e3-7d28e8eee9cc"},"vehicle_type_id":"4","last_reported":1750777920,"current_range_meters":13600,"station_id":"","pricing_plan_id":"cebpf4jnsgd1na2vs0mg"},{"bike_id":"f7d21a52-3225-4396-9d12-a1ed5d91e907","system_id":"levelo_inurba_marseille","lat":43.29308,"lon":5.38555,"is_reserved":false,"is_disabled":false,"rental_uris":{"android":"levelo://app?vid=f7d21a52-3225-4396-9d12-a1ed5d91e907","ios":"levelo://app?vid=f7d21a52-3225-4396-9d12-a1ed5d91e907"},"vehicle_type_id":"4","last_reported":1750777920,"current_range_meters":13600,"station_id":"","pricing_plan_id":"cebpf4jnsgd1na2vs0mg"},{"bike_id":"2dc9003c-bc9e-40b4-acff-a7afec988adc","system_id":"levelo_inurba_marseille","lat":43.28411,"lon":5.34978,"is_reserved":false,"is_disabled":false,"rental_uris":{"android":"levelo://app?vid=2dc9003c-bc9e-40b4-acff-a7afec988adc","ios":"levelo://app?vid=2dc9003c-bc9e-40b4-acff-a7afec988adc"},"vehicle_type_id":"4","last_reported":1750777920,"current_range_meters":13600,"station_id":"","pricing_plan_id":"cebpf4jnsgd1na2vs0mg"},{"bike_id":"82c0051f-b10d-40e1-b983-476d0722413d","system_id":"levelo_inurba_marseille","lat":43.21758,"lon":5.34591,"is_reserved":false,"is_disabled":false,"rental_uris":{"android":"levelo://app?vid=82c0051f-b10d-40e1-b983-476d0722413d","ios":"levelo://app?vid=82c0051f-b10d-40e1-b983-476d0722413d"},"vehicle_type_id":"4","last_reported":1750777920,"current_range_meters":13600,"station_id":"st_cvj6r9ubvosntc0bgbag","pricing_plan_id":"cebpf4jnsgd1na2vs0mg"},{"bike_id":"d73e9bbc-c090-470a-8032-f86234a90165","system_id":"levelo_inurba_marseille","lat":43.28933,"lon":5.363108,"is_reserved":false,"is_disabled":false,"rental_uris":{"android":"levelo://app?vid=d73e9bbc-c090-470a-8032-f86234a90165","ios":"levelo://app?vid=d73e9bbc-c090-470a-8032-f86234a90165"},"vehicle_type_id":"4","last_reported":1750777920,"current_range_meters":14000,"station_id":"","pricing_plan_id":"cebpf4jnsgd1na2vs0mg"},{"bike_id":"a1f29b14-dc91-4a0d-8142-aa8ed1b7f8a4","system_id":"levelo_inurba_marseille","lat":43.28411,"lon":5.34995,"is_reserved":false,"is_disabled":false,"rental_uris":{"android":"levelo://app?vid=a1f29b14-dc91-4a0d-8142-aa8ed1b7f8a4","ios":"levelo://app?vid=a1f29b14-dc91-4a0d-8142-aa8ed1b7f8a4"},"vehicle_type_id":"4","last_reported":1750777920,"current_range_meters":14000,"station_id":"ce4bhbh2rcd13ifvqepg","pricing_plan_id":"cebpf4jnsgd1na2vs0mg"},{"bike_id":"62b2305d-3051-4302-888a-45a51ecdbd72","system_id":"levelo_inurba_marseille","lat":43.28617,"lon":5.35105,"is_reserved":false,"is_disabled":false,"rental_uris":{"android":"levelo://app?vid=62b2305d-3051-4302-888a-45a51ecdbd72","ios":"levelo://app?vid=62b2305d-3051-4302-888a-45a51ecdbd72"},"vehicle_type_id":"4","last_reported":1750777920,"current_range_meters":14000,"station_id":"ce4bhch2rcd13ifvqeug","pricing_plan_id":"cebpf4jnsgd1na2vs0mg"},{"bike_id":"cef721fd-afe4-48d0-89b0-0777a634e87f","system_id":"levelo_inurba_marseille","lat":43.244,"lon":5.37109,"is_reserved":false,"is_disabled":false,"rental_uris":{"android":"levelo://app?vid=cef721fd-afe4-48d0-89b0-0777a634e87f","ios":"levelo://app?vid=cef721fd-afe4-48d0-89b0-0777a634e87f"},"vehicle_type_id":"4","last_reported":1750777920,"current_range_meters":14000,"station_id":"ce4bhhh2rcd13ifvqfk0","pricing_plan_id":"cebpf4jnsgd1na2vs0mg"},{"bike_id":"07dead3e-fced-4a36-b1c0-dda7dd873caf","system_id":"levelo_inurba_marseille","lat":43.23194,"lon":5.35553,"is_reserved":false,"is_disabled":false,"rental_uris":{"android":"levelo://app?vid=07dead3e-fced-4a36-b1c0-dda7dd873caf","ios":"levelo://app?vid=07dead3e-fced-4a36-b1c0-dda7dd873caf"},"vehicle_type_id":"4","last_reported":1750777920,"current_range_meters":14000,"station_id":"ce4bhu92rcd13ifvqi70","pricing_plan_id":"cebpf4jnsgd1na2vs0mg"},{"bike_id":"f30b7e2c-e6a8-47ac-9582-47bca9aac1bf","system_id":"levelo_inurba_marseille","lat":43.33171,"lon":5.38193,"is_reserved":false,"is_disabled":false,"rental_uris":{"android":"levelo://app?vid=f30b7e2c-e6a8-47ac-9582-47bca9aac1bf","ios":"levelo://app?vid=f30b7e2c-e6a8-47ac-9582-47bca9aac1bf"},"vehicle_type_id":"4","last_reported":1750777920,"current_range_meters":14400,"station_id":"","pricing_plan_id":"cebpf4jnsgd1na2vs0mg"},{"bike_id":"86931ec4-49da-4ff4-8850-22b2e3757b60","system_id":"levelo_inurba_marseille","lat":43.29693,"lon":5.37697,"is_reserved":false,"is_disabled":false,"rental_uris":{"android":"levelo://app?vid=86931ec4-49da-4ff4-8850-22b2e3757b60","ios":"levelo://app?vid=86931ec4-49da-4ff4-8850-22b2e3757b60"},"vehicle_type_id":"4","last_reported":1750777920,"current_range_meters":14400,"station_id":"ce4bgkh2rcd13ifvqbl0","pricing_plan_id":"cebpf4jnsgd1na2vs0mg"},{"bike_id":"cc1d4dd9-4e03-4866-b18b-0f17e577a4bf","system_id":"levelo_inurba_marseille","lat":43.31073,"lon":5.3835,"is_reserved":false,"is_disabled":false,"rental_uris":{"android":"levelo://app?vid=cc1d4dd9-4e03-4866-b18b-0f17e577a4bf","ios":"levelo://app?vid=cc1d4dd9-4e03-4866-b18b-0f17e577a4bf"},"vehicle_type_id":"4","last_reported":1750777920,"current_range_meters":14400,"station_id":"ce4bgv92rcd13ifvqcr0","pricing_plan_id":"cebpf4jnsgd1na2vs0mg"},{"bike_id":"e084ca49-6e8e-4bf0-b2bf-2a1e339dc7a3","system_id":"levelo_inurba_marseille","lat":43.29568,"lon":5.3997,"is_reserved":false,"is_disabled":false,"rental_uris":{"android":"levelo://app?vid=e084ca49-6e8e-4bf0-b2bf-2a1e339dc7a3","ios":"levelo://app?vid=e084ca49-6e8e-4bf0-b2bf-2a1e339dc7a3"},"vehicle_type_id":"4","last_reported":1750777920,"current_range_meters":14400,"station_id":"ce4bh312rcd13ifvqdj0","pricing_plan_id":"cebpf4jnsgd1na2vs0mg"},{"bike_id":"36b8d534-3492-401a-a3e5-861eb38cf118","system_id":"levelo_inurba_marseille","lat":43.2621,"lon":5.37439,"is_reserved":false,"is_disabled":false,"rental_uris":{"android":"levelo://app?vid=36b8d534-3492-401a-a3e5-861eb38cf118","ios":"levelo://app?vid=36b8d534-3492-401a-a3e5-861eb38cf118"},"vehicle_type_id":"4","last_reported":1750777920,"current_range_meters":14400,"station_id":"ce4bhgp2rcd13ifvqfc0","pricing_plan_id":"cebpf4jnsgd1na2vs0mg"},{"bike_id":"536dbaef-a376-4d28-8671-d8bd4e353395","system_id":"levelo_inurba_marseille","lat":43.26788,"lon":5.39411,"is_reserved":false,"is_disabled":false,"rental_uris":{"android":"levelo://app?vid=536dbaef-a376-4d28-8671-d8bd4e353395","ios":"levelo://app?vid=536dbaef-a376-4d28-8671-d8bd4e353395"},"vehicle_type_id":"4","last_reported":1750777920,"current_range_meters":14400,"station_id":"ce4bhh12rcd13ifvqfg0","pricing_plan_id":"cebpf4jnsgd1na2vs0mg"},{"bike_id":"96607977-b652-466f-8667-f8cf60ae4583","system_id":"levelo_inurba_marseille","lat":43.31176,"lon":5.38722,"is_reserved":false,"is_disabled":false,"rental_uris":{"android":"levelo://app?vid=96607977-b652-466f-8667-f8cf60ae4583","ios":"levelo://app?vid=96607977-b652-466f-8667-f8cf60ae4583"},"vehicle_type_id":"4","last_reported":1750777920,"current_range_meters":14800,"station_id":"ce4bgv12rcd13ifvqcp0","pricing_plan_id":"cebpf4jnsgd1na2vs0mg"},{"bike_id":"42c30b9e-1557-4809-911b-aa587146d14e","system_id":"levelo_inurba_marseille","lat":43.26212,"lon":5.37442,"is_reserved":false,"is_disabled":false,"rental_uris":{"android":"levelo://app?vid=42c30b9e-1557-4809-911b-aa587146d14e","ios":"levelo://app?vid=42c30b9e-1557-4809-911b-aa587146d14e"},"vehicle_type_id":"4","last_reported":1750777920,"current_range_meters":14800,"station_id":"ce4bhgp2rcd13ifvqfc0","pricing_plan_id":"cebpf4jnsgd1na2vs0mg"},{"bike_id":"35b14479-4a4d-4383-83de-c7fea66894b3","system_id":"levelo_inurba_marseille","lat":43.29904,"lon":5.43662,"is_reserved":false,"is_disabled":false,"rental_uris":{"android":"levelo://app?vid=35b14479-4a4d-4383-83de-c7fea66894b3","ios":"levelo://app?vid=35b14479-4a4d-4383-83de-c7fea66894b3"},"vehicle_type_id":"4","last_reported":1750777920,"current_range_meters":14800,"station_id":"ce4bhpp2rcd13ifvqhfg","pricing_plan_id":"cebpf4jnsgd1na2vs0mg"},{"bike_id":"7ea3c9bd-f9bd-438e-b9e1-cdbe4f91c60d","system_id":"levelo_inurba_marseille","lat":43.22895,"lon":5.35264,"is_reserved":false,"is_disabled":false,"rental_uris":{"android":"levelo://app?vid=7ea3c9bd-f9bd-438e-b9e1-cdbe4f91c60d","ios":"levelo://app?vid=7ea3c9bd-f9bd-438e-b9e1-cdbe4f91c60d"},"vehicle_type_id":"4","last_reported":1750777920,"current_range_meters":15200,"station_id":"","pricing_plan_id":"cebpf4jnsgd1na2vs0mg"},{"bike_id":"51b217be-9488-41c1-b083-6d728251b280","system_id":"levelo_inurba_marseille","lat":43.243421,"lon":5.368819,"is_reserved":false,"is_disabled":false,"rental_uris":{"android":"levelo://app?vid=51b217be-9488-41c1-b083-6d728251b280","ios":"levelo://app?vid=51b217be-9488-41c1-b083-6d728251b280"},"vehicle_type_id":"4","last_reported":1750777920,"current_range_meters":15200,"station_id":"","pricing_plan_id":"cebpf4jnsgd1na2vs0mg"},{"bike_id":"24eb3635-87d1-4a4d-8da5-21324b604983","system_id":"levelo_inurba_marseille","lat":43.30459,"lon":5.37903,"is_reserved":false,"is_disabled":false,"rental_uris":{"android":"levelo://app?vid=24eb3635-87d1-4a4d-8da5-21324b604983","ios":"levelo://app?vid=24eb3635-87d1-4a4d-8da5-21324b604983"},"vehicle_type_id":"4","last_reported":1750777920,"current_range_meters":15200,"station_id":"ce4bgup2rcd13ifvqcn0","pricing_plan_id":"cebpf4jnsgd1na2vs0mg"},{"bike_id":"23d89cc1-7661-479b-8778-11d627843fca","system_id":"levelo_inurba_marseille","lat":43.27355,"lon":5.36238,"is_reserved":false,"is_disabled":false,"rental_uris":{"android":"levelo://app?vid=23d89cc1-7661-479b-8778-11d627843fca","ios":"levelo://app?vid=23d89cc1-7661-479b-8778-11d627843fca"},"vehicle_type_id":"4","last_reported":1750777920,"current_range_meters":15200,"station_id":"ce4bhbh2rcd13ifvqeo0","pricing_plan_id":"cebpf4jnsgd1na2vs0mg"},{"bike_id":"5d090bba-9c0d-48b4-aa12-b623ae359bb9","system_id":"levelo_inurba_marseille","lat":43.26807,"lon":5.4027,"is_reserved":false,"is_disabled":false,"rental_uris":{"android":"levelo://app?vid=5d090bba-9c0d-48b4-aa12-b623ae359bb9","ios":"levelo://app?vid=5d090bba-9c0d-48b4-aa12-b623ae359bb9"},"vehicle_type_id":"4","last_reported":1750777920,"current_range_meters":15200,"station_id":"ce501612rcd8frsf0b60","pricing_plan_id":"cebpf4jnsgd1na2vs0mg"},{"bike_id":"37639598-87cb-49f2-bb28-e8116a49605f","system_id":"levelo_inurba_marseille","lat":43.22516,"lon":5.34792,"is_reserved":false,"is_disabled":false,"rental_uris":{"android":"levelo://app?vid=37639598-87cb-49f2-bb28-e8116a49605f","ios":"levelo://app?vid=37639598-87cb-49f2-bb28-e8116a49605f"},"vehicle_type_id":"4","last_reported":1750777920,"current_range_meters":16000,"station_id":"","pricing_plan_id":"cebpf4jnsgd1na2vs0mg"},{"bike_id":"9d17ba94-28b9-4307-96c9-7a19692d51f0","system_id":"levelo_inurba_marseille","lat":43.33103,"lon":5.393719,"is_reserved":false,"is_disabled":false,"rental_uris":{"android":"levelo://app?vid=9d17ba94-28b9-4307-96c9-7a19692d51f0","ios":"levelo://app?vid=9d17ba94-28b9-4307-96c9-7a19692d51f0"},"vehicle_type_id":"4","last_reported":1750777920,"current_range_meters":16000,"station_id":"","pricing_plan_id":"cebpf4jnsgd1na2vs0mg"},{"bike_id":"ff1500cc-ac8f-45c9-881c-9fd6595094a3","system_id":"levelo_inurba_marseille","lat":43.31842,"lon":5.40182,"is_reserved":false,"is_disabled":false,"rental_uris":{"android":"levelo://app?vid=ff1500cc-ac8f-45c9-881c-9fd6595094a3","ios":"levelo://app?vid=ff1500cc-ac8f-45c9-881c-9fd6595094a3"},"vehicle_type_id":"4","last_reported":1750777920,"current_range_meters":16000,"station_id":"","pricing_plan_id":"cebpf4jnsgd1na2vs0mg"},{"bike_id":"8fb61887-2084-4616-8022-a2c5a198647f","system_id":"levelo_inurba_marseille","lat":43.27622,"lon":5.36103,"is_reserved":false,"is_disabled":false,"rental_uris":{"android":"levelo://app?vid=8fb61887-2084-4616-8022-a2c5a198647f","ios":"levelo://app?vid=8fb61887-2084-4616-8022-a2c5a198647f"},"vehicle_type_id":"4","last_reported":1750777920,"current_range_meters":16000,"station_id":"ce4bgj92rcd13ifvqbe0","pricing_plan_id":"cebpf4jnsgd1na2vs0mg"},{"bike_id":"1d90c153-bdd9-476e-af18-a0a6a0453eb8","system_id":"levelo_inurba_marseille","lat":43.29541,"lon":5.39397,"is_reserved":false,"is_disabled":false,"rental_uris":{"android":"levelo://app?vid=1d90c153-bdd9-476e-af18-a0a6a0453eb8","ios":"levelo://app?vid=1d90c153-bdd9-476e-af18-a0a6a0453eb8"},"vehicle_type_id":"4","last_reported":1750777920,"current_range_meters":16000,"station_id":"ce4bh292rcd13ifvqdf0","pricing_plan_id":"cebpf4jnsgd1na2vs0mg"},{"bike_id":"bbe69393-66a9-4b3a-9288-4266e303263a","system_id":"levelo_inurba_marseille","lat":43.32656,"lon":5.40985,"is_reserved":false,"is_disabled":false,"rental_uris":{"android":"levelo://app?vid=bbe69393-66a9-4b3a-9288-4266e303263a","ios":"levelo://app?vid=bbe69393-66a9-4b3a-9288-4266e303263a"},"vehicle_type_id":"4","last_reported":1750777920,"current_range_meters":16000,"station_id":"ce4bhpp2rcd13ifvqhgg","pricing_plan_id":"cebpf4jnsgd1na2vs0mg"},{"bike_id":"af112b62-19de-41d4-b8d7-e14d0172315d","system_id":"levelo_inurba_marseille","lat":43.327011,"lon":5.392236,"is_reserved":false,"is_disabled":false,"rental_uris":{"android":"levelo://app?vid=af112b62-19de-41d4-b8d7-e14d0172315d","ios":"levelo://app?vid=af112b62-19de-41d4-b8d7-e14d0172315d"},"vehicle_type_id":"4","last_reported":1750777920,"current_range_meters":16400,"station_id":"","pricing_plan_id":"cebpf4jnsgd1na2vs0mg"},{"bike_id":"5884fe4c-9df5-482f-9f2a-30cf5f273d63","system_id":"levelo_inurba_marseille","lat":43.31475,"lon":5.37307,"is_reserved":false,"is_disabled":false,"rental_uris":{"android":"levelo://app?vid=5884fe4c-9df5-482f-9f2a-30cf5f273d63","ios":"levelo://app?vid=5884fe4c-9df5-482f-9f2a-30cf5f273d63"},"vehicle_type_id":"4","last_reported":1750777920,"current_range_meters":16400,"station_id":"ce4bgt12rcd13ifvqcd0","pricing_plan_id":"cebpf4jnsgd1na2vs0mg"},{"bike_id":"83052986-f706-49a9-b6d4-e10641dfa04a","system_id":"levelo_inurba_marseille","lat":43.29527,"lon":5.39032,"is_reserved":false,"is_disabled":false,"rental_uris":{"android":"levelo://app?vid=83052986-f706-49a9-b6d4-e10641dfa04a","ios":"levelo://app?vid=83052986-f706-49a9-b6d4-e10641dfa04a"},"vehicle_type_id":"4","last_reported":1750777920,"current_range_meters":16400,"station_id":"ce4bh3p2rcd13ifvqdp0","pricing_plan_id":"cebpf4jnsgd1na2vs0mg"},{"bike_id":"a2795f7d-7cbc-4e4c-a22f-2a7dcbd8eef6","system_id":"levelo_inurba_marseille","lat":43.28415,"lon":5.34987,"is_reserved":false,"is_disabled":false,"rental_uris":{"android":"levelo://app?vid=a2795f7d-7cbc-4e4c-a22f-2a7dcbd8eef6","ios":"levelo://app?vid=a2795f7d-7cbc-4e4c-a22f-2a7dcbd8eef6"},"vehicle_type_id":"4","last_reported":1750777920,"current_range_meters":16400,"station_id":"ce4bhbh2rcd13ifvqepg","pricing_plan_id":"cebpf4jnsgd1na2vs0mg"},{"bike_id":"6da0d080-b7af-4ec5-9975-c8710b868cdc","system_id":"levelo_inurba_marseille","lat":43.24386,"lon":5.37062,"is_reserved":false,"is_disabled":false,"rental_uris":{"android":"levelo://app?vid=6da0d080-b7af-4ec5-9975-c8710b868cdc","ios":"levelo://app?vid=6da0d080-b7af-4ec5-9975-c8710b868cdc"},"vehicle_type_id":"4","last_reported":1750777920,"current_range_meters":16400,"station_id":"ce4bhhh2rcd13ifvqfk0","pricing_plan_id":"cebpf4jnsgd1na2vs0mg"},{"bike_id":"b8ce578d-7cf5-4a38-bd36-6a6897c9f454","system_id":"levelo_inurba_marseille","lat":43.29902,"lon":5.43668,"is_reserved":false,"is_disabled":false,"rental_uris":{"android":"levelo://app?vid=b8ce578d-7cf5-4a38-bd36-6a6897c9f454","ios":"levelo://app?vid=b8ce578d-7cf5-4a38-bd36-6a6897c9f454"},"vehicle_type_id":"4","last_reported":1750777920,"current_range_meters":16400,"station_id":"ce4bhpp2rcd13ifvqhfg","pricing_plan_id":"cebpf4jnsgd1na2vs0mg"},{"bike_id":"5c688b96-e3fe-486b-9ce9-17ae9f68ba6e","system_id":"levelo_inurba_marseille","lat":43.28709,"lon":5.36083,"is_reserved":false,"is_disabled":false,"rental_uris":{"android":"levelo://app?vid=5c688b96-e3fe-486b-9ce9-17ae9f68ba6e","ios":"levelo://app?vid=5c688b96-e3fe-486b-9ce9-17ae9f68ba6e"},"vehicle_type_id":"4","last_reported":1750777920,"current_range_meters":16400,"station_id":"cki0cbj6b192h4jlfktg","pricing_plan_id":"cebpf4jnsgd1na2vs0mg"},{"bike_id":"24bec0ac-4c6c-4842-80e7-9983c2b33e58","system_id":"levelo_inurba_marseille","lat":43.211921,"lon":5.350694,"is_reserved":false,"is_disabled":false,"rental_uris":{"android":"levelo://app?vid=24bec0ac-4c6c-4842-80e7-9983c2b33e58","ios":"levelo://app?vid=24bec0ac-4c6c-4842-80e7-9983c2b33e58"},"vehicle_type_id":"4","last_reported":1750777920,"current_range_meters":16800,"station_id":"","pricing_plan_id":"cebpf4jnsgd1na2vs0mg"},{"bike_id":"26a14eba-87a9-47b8-9607-30bd0042d428","system_id":"levelo_inurba_marseille","lat":43.314524,"lon":5.394413,"is_reserved":false,"is_disabled":false,"rental_uris":{"android":"levelo://app?vid=26a14eba-87a9-47b8-9607-30bd0042d428","ios":"levelo://app?vid=26a14eba-87a9-47b8-9607-30bd0042d428"},"vehicle_type_id":"4","last_reported":1750777920,"current_range_meters":16800,"station_id":"","pricing_plan_id":"cebpf4jnsgd1na2vs0mg"},{"bike_id":"159dddcf-5c79-4710-8e77-79c359e9c669","system_id":"levelo_inurba_marseille","lat":43.28462,"lon":5.35885,"is_reserved":false,"is_disabled":false,"rental_uris":{"android":"levelo://app?vid=159dddcf-5c79-4710-8e77-79c359e9c669","ios":"levelo://app?vid=159dddcf-5c79-4710-8e77-79c359e9c669"},"vehicle_type_id":"4","last_reported":1750777920,"current_range_meters":16800,"station_id":"ce4bhah2rcd13ifvqei0","pricing_plan_id":"cebpf4jnsgd1na2vs0mg"},{"bike_id":"b661e39b-4538-41ad-8526-3c320e3612d3","system_id":"levelo_inurba_marseille","lat":43.28411,"lon":5.34988,"is_reserved":false,"is_disabled":false,"rental_uris":{"android":"levelo://app?vid=b661e39b-4538-41ad-8526-3c320e3612d3","ios":"levelo://app?vid=b661e39b-4538-41ad-8526-3c320e3612d3"},"vehicle_type_id":"4","last_reported":1750777920,"current_range_meters":16800,"station_id":"ce4bhbh2rcd13ifvqepg","pricing_plan_id":"cebpf4jnsgd1na2vs0mg"},{"bike_id":"586aed93-1277-46a0-9368-3b841e69f48b","system_id":"levelo_inurba_marseille","lat":43.27566,"lon":5.38422,"is_reserved":false,"is_disabled":false,"rental_uris":{"android":"levelo://app?vid=586aed93-1277-46a0-9368-3b841e69f48b","ios":"levelo://app?vid=586aed93-1277-46a0-9368-3b841e69f48b"},"vehicle_type_id":"4","last_reported":1750777920,"current_range_meters":16800,"station_id":"ce4bhh92rcd13ifvqfi0","pricing_plan_id":"cebpf4jnsgd1na2vs0mg"},{"bike_id":"cf6aa8a7-06c9-4d77-b73e-4b46f1548a20","system_id":"levelo_inurba_marseille","lat":43.299233,"lon":5.413163,"is_reserved":false,"is_disabled":false,"rental_uris":{"android":"levelo://app?vid=cf6aa8a7-06c9-4d77-b73e-4b46f1548a20","ios":"levelo://app?vid=cf6aa8a7-06c9-4d77-b73e-4b46f1548a20"},"vehicle_type_id":"4","last_reported":1750777920,"current_range_meters":16800,"station_id":"ce4bhp12rcd13ifvqh9g","pricing_plan_id":"cebpf4jnsgd1na2vs0mg"},{"bike_id":"a49aa821-9808-45d8-a334-66b4d91bc9c1","system_id":"levelo_inurba_marseille","lat":43.23199,"lon":5.35551,"is_reserved":false,"is_disabled":false,"rental_uris":{"android":"levelo://app?vid=a49aa821-9808-45d8-a334-66b4d91bc9c1","ios":"levelo://app?vid=a49aa821-9808-45d8-a334-66b4d91bc9c1"},"vehicle_type_id":"4","last_reported":1750777920,"current_range_meters":16800,"station_id":"ce4bhu92rcd13ifvqi70","pricing_plan_id":"cebpf4jnsgd1na2vs0mg"},{"bike_id":"71abc83b-c14f-4751-a72e-be32890fd6c9","system_id":"levelo_inurba_marseille","lat":43.29703,"lon":5.377021,"is_reserved":false,"is_disabled":false,"rental_uris":{"android":"levelo://app?vid=71abc83b-c14f-4751-a72e-be32890fd6c9","ios":"levelo://app?vid=71abc83b-c14f-4751-a72e-be32890fd6c9"},"vehicle_type_id":"4","last_reported":1750777920,"current_range_meters":17200,"station_id":"ce4bgkh2rcd13ifvqbl0","pricing_plan_id":"cebpf4jnsgd1na2vs0mg"},{"bike_id":"86fe17c6-6d81-4e9d-ac40-293a6921945e","system_id":"levelo_inurba_marseille","lat":43.231849,"lon":5.399985,"is_reserved":false,"is_disabled":false,"rental_uris":{"android":"levelo://app?vid=86fe17c6-6d81-4e9d-ac40-293a6921945e","ios":"levelo://app?vid=86fe17c6-6d81-4e9d-ac40-293a6921945e"},"vehicle_type_id":"4","last_reported":1750777920,"current_range_meters":17200,"station_id":"ce4bhn12rcd13ifvqgqg","pricing_plan_id":"cebpf4jnsgd1na2vs0mg"},{"bike_id":"a3c92f75-9e9e-4097-b455-246ce7658f0d","system_id":"levelo_inurba_marseille","lat":43.30794,"lon":5.43525,"is_reserved":false,"is_disabled":false,"rental_uris":{"android":"levelo://app?vid=a3c92f75-9e9e-4097-b455-246ce7658f0d","ios":"levelo://app?vid=a3c92f75-9e9e-4097-b455-246ce7658f0d"},"vehicle_type_id":"4","last_reported":1750777920,"current_range_meters":17200,"station_id":"ce4bhph2rcd13ifvqheg","pricing_plan_id":"cebpf4jnsgd1na2vs0mg"},{"bike_id":"0bb426e2-1744-4563-8975-bf817cd92ef7","system_id":"levelo_inurba_marseille","lat":43.32367,"lon":5.38886,"is_reserved":false,"is_disabled":false,"rental_uris":{"android":"levelo://app?vid=0bb426e2-1744-4563-8975-bf817cd92ef7","ios":"levelo://app?vid=0bb426e2-1744-4563-8975-bf817cd92ef7"},"vehicle_type_id":"4","last_reported":1750777920,"current_range_meters":17200,"station_id":"ce4bhqp2rcd13ifvqhog","pricing_plan_id":"cebpf4jnsgd1na2vs0mg"},{"bike_id":"602ab407-a79a-4fc2-8a9b-df3168b09d43","system_id":"levelo_inurba_marseille","lat":43.32384,"lon":5.36742,"is_reserved":false,"is_disabled":false,"rental_uris":{"android":"levelo://app?vid=602ab407-a79a-4fc2-8a9b-df3168b09d43","ios":"levelo://app?vid=602ab407-a79a-4fc2-8a9b-df3168b09d43"},"vehicle_type_id":"4","last_reported":1750777920,"current_range_meters":17200,"station_id":"ce4bhsh2rcd13ifvqi2g","pricing_plan_id":"cebpf4jnsgd1na2vs0mg"},{"bike_id":"6d66f760-917a-49b1-b200-d585832e6166","system_id":"levelo_inurba_marseille","lat":43.22911,"lon":5.35396,"is_reserved":false,"is_disabled":false,"rental_uris":{"android":"levelo://app?vid=6d66f760-917a-49b1-b200-d585832e6166","ios":"levelo://app?vid=6d66f760-917a-49b1-b200-d585832e6166"},"vehicle_type_id":"4","last_reported":1750777920,"current_range_meters":17200,"station_id":"cpo3532slgdg3j2ikp40","pricing_plan_id":"cebpf4jnsgd1na2vs0mg"},{"bike_id":"ec1bbb20-efbe-404b-8beb-e922e0200c0c","system_id":"levelo_inurba_marseille","lat":43.29958,"lon":5.37017,"is_reserved":false,"is_disabled":false,"rental_uris":{"android":"levelo://app?vid=ec1bbb20-efbe-404b-8beb-e922e0200c0c","ios":"levelo://app?vid=ec1bbb20-efbe-404b-8beb-e922e0200c0c"},"vehicle_type_id":"4","last_reported":1750777920,"current_range_meters":17600,"station_id":"","pricing_plan_id":"cebpf4jnsgd1na2vs0mg"},{"bike_id":"d280bcf7-1b53-490a-aa05-99ae083479a1","system_id":"levelo_inurba_marseille","lat":43.24405,"lon":5.37112,"is_reserved":false,"is_disabled":false,"rental_uris":{"android":"levelo://app?vid=d280bcf7-1b53-490a-aa05-99ae083479a1","ios":"levelo://app?vid=d280bcf7-1b53-490a-aa05-99ae083479a1"},"vehicle_type_id":"4","last_reported":1750777920,"current_range_meters":17600,"station_id":"ce4bhhh2rcd13ifvqfk0","pricing_plan_id":"cebpf4jnsgd1na2vs0mg"},{"bike_id":"070395e1-9d2f-45d2-8585-9639af3da834","system_id":"levelo_inurba_marseille","lat":43.25575,"lon":5.38242,"is_reserved":false,"is_disabled":false,"rental_uris":{"android":"levelo://app?vid=070395e1-9d2f-45d2-8585-9639af3da834","ios":"levelo://app?vid=070395e1-9d2f-45d2-8585-9639af3da834"},"vehicle_type_id":"4","last_reported":1750777920,"current_range_meters":17600,"station_id":"ce4bhih2rcd13ifvqfs0","pricing_plan_id":"cebpf4jnsgd1na2vs0mg"},{"bike_id":"e3cbe31d-3f2f-4c4c-a959-3bdba55d2dad","system_id":"levelo_inurba_marseille","lat":43.229251,"lon":5.353833,"is_reserved":false,"is_disabled":false,"rental_uris":{"android":"levelo://app?vid=e3cbe31d-3f2f-4c4c-a959-3bdba55d2dad","ios":"levelo://app?vid=e3cbe31d-3f2f-4c4c-a959-3bdba55d2dad"},"vehicle_type_id":"4","last_reported":1750777920,"current_range_meters":17600,"station_id":"cpo3532slgdg3j2ikp40","pricing_plan_id":"cebpf4jnsgd1na2vs0mg"},{"bike_id":"8fcb85f5-1c32-420d-b47a-da50b371b726","system_id":"levelo_inurba_marseille","lat":43.22929,"lon":5.35377,"is_reserved":false,"is_disabled":false,"rental_uris":{"android":"levelo://app?vid=8fcb85f5-1c32-420d-b47a-da50b371b726","ios":"levelo://app?vid=8fcb85f5-1c32-420d-b47a-da50b371b726"},"vehicle_type_id":"4","last_reported":1750777920,"current_range_meters":17600,"station_id":"cpo3532slgdg3j2ikp40","pricing_plan_id":"cebpf4jnsgd1na2vs0mg"},{"bike_id":"3b951d47-daef-4f47-9b11-1cb55583c0cc","system_id":"levelo_inurba_marseille","lat":43.21192,"lon":5.35071,"is_reserved":false,"is_disabled":false,"rental_uris":{"android":"levelo://app?vid=3b951d47-daef-4f47-9b11-1cb55583c0cc","ios":"levelo://app?vid=3b951d47-daef-4f47-9b11-1cb55583c0cc"},"vehicle_type_id":"4","last_reported":1750777920,"current_range_meters":17600,"station_id":"st_cvj6sg6p6f1abm77japg","pricing_plan_id":"cebpf4jnsgd1na2vs0mg"},{"bike_id":"9322934c-0224-413c-aaae-7433ebd943ed","system_id":"levelo_inurba_marseille","lat":43.28264,"lon":5.35065,"is_reserved":false,"is_disabled":false,"rental_uris":{"android":"levelo://app?vid=9322934c-0224-413c-aaae-7433ebd943ed","ios":"levelo://app?vid=9322934c-0224-413c-aaae-7433ebd943ed"},"vehicle_type_id":"4","last_reported":1750777920,"current_range_meters":18000,"station_id":"ce4bhbp2rcd13ifvqerg","pricing_plan_id":"cebpf4jnsgd1na2vs0mg"},{"bike_id":"62c0ae9e-9e5d-4757-b598-f1bb6b049cd5","system_id":"levelo_inurba_marseille","lat":43.26214,"lon":5.37441,"is_reserved":false,"is_disabled":false,"rental_uris":{"android":"levelo://app?vid=62c0ae9e-9e5d-4757-b598-f1bb6b049cd5","ios":"levelo://app?vid=62c0ae9e-9e5d-4757-b598-f1bb6b049cd5"},"vehicle_type_id":"4","last_reported":1750777920,"current_range_meters":18000,"station_id":"ce4bhgp2rcd13ifvqfc0","pricing_plan_id":"cebpf4jnsgd1na2vs0mg"},{"bike_id":"8703a0b9-0d09-48b3-938b-800a9ab674ba","system_id":"levelo_inurba_marseille","lat":43.239639,"lon":5.366307,"is_reserved":false,"is_disabled":false,"rental_uris":{"android":"levelo://app?vid=8703a0b9-0d09-48b3-938b-800a9ab674ba","ios":"levelo://app?vid=8703a0b9-0d09-48b3-938b-800a9ab674ba"},"vehicle_type_id":"4","last_reported":1750777920,"current_range_meters":18000,"station_id":"ce4bhi12rcd13ifvqfp0","pricing_plan_id":"cebpf4jnsgd1na2vs0mg"},{"bike_id":"3b92bc40-d3b5-4060-b3a7-d807cf614ab4","system_id":"levelo_inurba_marseille","lat":43.22925,"lon":5.3538,"is_reserved":false,"is_disabled":false,"rental_uris":{"android":"levelo://app?vid=3b92bc40-d3b5-4060-b3a7-d807cf614ab4","ios":"levelo://app?vid=3b92bc40-d3b5-4060-b3a7-d807cf614ab4"},"vehicle_type_id":"4","last_reported":1750777920,"current_range_meters":18000,"station_id":"cpo3532slgdg3j2ikp40","pricing_plan_id":"cebpf4jnsgd1na2vs0mg"},{"bike_id":"fc1021d2-7bd8-41cc-a566-5df5c9bc4ea6","system_id":"levelo_inurba_marseille","lat":43.21188,"lon":5.35079,"is_reserved":false,"is_disabled":false,"rental_uris":{"android":"levelo://app?vid=fc1021d2-7bd8-41cc-a566-5df5c9bc4ea6","ios":"levelo://app?vid=fc1021d2-7bd8-41cc-a566-5df5c9bc4ea6"},"vehicle_type_id":"4","last_reported":1750777920,"current_range_meters":18000,"station_id":"st_cvj6sg6p6f1abm77japg","pricing_plan_id":"cebpf4jnsgd1na2vs0mg"},{"bike_id":"e2f5b300-4a63-4778-aada-c29a8a0ea1e8","system_id":"levelo_inurba_marseille","lat":43.32825,"lon":5.39158,"is_reserved":false,"is_disabled":false,"rental_uris":{"android":"levelo://app?vid=e2f5b300-4a63-4778-aada-c29a8a0ea1e8","ios":"levelo://app?vid=e2f5b300-4a63-4778-aada-c29a8a0ea1e8"},"vehicle_type_id":"4","last_reported":1750777920,"current_range_meters":18800,"station_id":"","pricing_plan_id":"cebpf4jnsgd1na2vs0mg"},{"bike_id":"51b9029c-a8b4-49be-88a9-639814edcae4","system_id":"levelo_inurba_marseille","lat":43.28411,"lon":5.35008,"is_reserved":false,"is_disabled":false,"rental_uris":{"android":"levelo://app?vid=51b9029c-a8b4-49be-88a9-639814edcae4","ios":"levelo://app?vid=51b9029c-a8b4-49be-88a9-639814edcae4"},"vehicle_type_id":"4","last_reported":1750777920,"current_range_meters":18800,"station_id":"ce4bhbh2rcd13ifvqepg","pricing_plan_id":"cebpf4jnsgd1na2vs0mg"},{"bike_id":"1d2cf426-5ad2-437c-9da3-14184b9f9a38","system_id":"levelo_inurba_marseille","lat":43.26549,"lon":5.37287,"is_reserved":false,"is_disabled":false,"rental_uris":{"android":"levelo://app?vid=1d2cf426-5ad2-437c-9da3-14184b9f9a38","ios":"levelo://app?vid=1d2cf426-5ad2-437c-9da3-14184b9f9a38"},"vehicle_type_id":"4","last_reported":1750777920,"current_range_meters":18800,"station_id":"ce4bhg12rcd13ifvqf70","pricing_plan_id":"cebpf4jnsgd1na2vs0mg"},{"bike_id":"98bf659d-1d57-4a5f-ad26-ad18821d34f1","system_id":"levelo_inurba_marseille","lat":43.26543,"lon":5.37304,"is_reserved":false,"is_disabled":false,"rental_uris":{"android":"levelo://app?vid=98bf659d-1d57-4a5f-ad26-ad18821d34f1","ios":"levelo://app?vid=98bf659d-1d57-4a5f-ad26-ad18821d34f1"},"vehicle_type_id":"4","last_reported":1750777920,"current_range_meters":18800,"station_id":"ce4bhg12rcd13ifvqf70","pricing_plan_id":"cebpf4jnsgd1na2vs0mg"},{"bike_id":"73003e5e-1157-4cf0-aafe-d13c75118280","system_id":"levelo_inurba_marseille","lat":43.26191,"lon":5.37432,"is_reserved":false,"is_disabled":false,"rental_uris":{"android":"levelo://app?vid=73003e5e-1157-4cf0-aafe-d13c75118280","ios":"levelo://app?vid=73003e5e-1157-4cf0-aafe-d13c75118280"},"vehicle_type_id":"4","last_reported":1750777920,"current_range_meters":18800,"station_id":"ce4bhgp2rcd13ifvqfc0","pricing_plan_id":"cebpf4jnsgd1na2vs0mg"},{"bike_id":"8fc36912-d7a7-4c5e-bf3c-ae03694d6ba3","system_id":"levelo_inurba_marseille","lat":43.21171,"lon":5.3506,"is_reserved":false,"is_disabled":false,"rental_uris":{"android":"levelo://app?vid=8fc36912-d7a7-4c5e-bf3c-ae03694d6ba3","ios":"levelo://app?vid=8fc36912-d7a7-4c5e-bf3c-ae03694d6ba3"},"vehicle_type_id":"4","last_reported":1750777920,"current_range_meters":18800,"station_id":"st_cvj6sg6p6f1abm77japg","pricing_plan_id":"cebpf4jnsgd1na2vs0mg"},{"bike_id":"5b0059f2-5a2a-41ce-b903-1f956adfdd24","system_id":"levelo_inurba_marseille","lat":43.29784,"lon":5.43574,"is_reserved":false,"is_disabled":false,"rental_uris":{"android":"levelo://app?vid=5b0059f2-5a2a-41ce-b903-1f956adfdd24","ios":"levelo://app?vid=5b0059f2-5a2a-41ce-b903-1f956adfdd24"},