{"last_updated":1768345897,"ttl":60,"version":"2.2","data":{"bikes":[{"bike_id":"4ccf5df6-38fa-46c4-ae58-5671706983df","system_id":"levelo_inurba_marseille","lat":43.32345,"lon":5.36745,"is_reserved":false,"is_disabled":false,"rental_uris":{"android":"levelo://app?vid=4ccf5df6-38fa-46c4-ae58-5671706983df","ios":"levelo://app?vid=4ccf5df6-38fa-46c4-ae58-5671706983df"},"vehicle_type_id":"4","last_reported":1768345897,"current_range_meters":2800,"station_id":"ce4bhsh2rcd13ifvqi2g","pricing_plan_id":"cebpf4jnsgd1na2vs0mg"},{"bike_id":"348a7616-c475-4feb-93b6-e7e3eba9b2e9","system_id":"levelo_inurba_marseille","lat":43.24991,"lon":5.38943,"is_reserved":false,"is_disabled":false,"rental_uris":{"android":"levelo://app?vid=348a7616-c475-4feb-93b6-e7e3eba9b2e9","ios":"levelo://app?vid=348a7616-c475-4feb-93b6-e7e3eba9b2e9"},"vehicle_type_id":"4","last_reported":1768345897,"current_range_meters":2800,"station_id":"ce4bhgp2rcd13ifvqfd0","pricing_plan_id":"cebpf4jnsgd1na2vs0mg"},{"bike_id":"674485da-6375-4a1e-850b-d935815daaad","system_id":"levelo_inurba_marseille","lat":43.23774,"lon":5.36636,"is_reserved":false,"is_disabled":false,"rental_uris":{"android":"levelo://app?vid=674485da-6375-4a1e-850b-d935815daaad","ios":"levelo://app?vid=674485da-6375-4a1e-850b-d935815daaad"},"vehicle_type_id":"4","last_reported":1768345897,"current_range_meters":2800,"station_id":"st_d3nk18o9ro0c73en2l3g","pricing_plan_id":"cebpf4jnsgd1na2vs0mg"},{"bike_id":"628970a0-ff80-45e2-9573-0b40ef110956","system_id":"levelo_inurba_marseille","lat":43.30927,"lon":5.40148,"is_reserved":false,"is_disabled":false,"rental_uris":{"android":"levelo://app?vid=628970a0-ff80-45e2-9573-0b40ef110956","ios":"levelo://app?vid=628970a0-ff80-45e2-9573-0b40ef110956"},"vehicle_type_id":"4","last_reported":1768345897,"current_range_meters":2800,"station_id":"ce4bgvp2rcd13ifvqct0","pricing_plan_id":"cebpf4jnsgd1na2vs0mg"},{"bike_id":"5ad52785-0823-41c2-87b5-2779a76f0e53","system_id":"levelo_inurba_marseille","lat":43.24594,"lon":5.38385,"is_reserved":false,"is_disabled":false,"rental_uris":{"android":"levelo://app?vid=5ad52785-0823-41c2-87b5-2779a76f0e53","ios":"levelo://app?vid=5ad52785-0823-41c2-87b5-2779a76f0e53"},"vehicle_type_id":"4","last_reported":1768345897,"current_range_meters":2800,"station_id":"","pricing_plan_id":"cebpf4jnsgd1na2vs0mg"},{"bike_id":"533cb83c-e8dd-42bc-9375-30430a43b393","system_id":"levelo_inurba_marseille","lat":43.25509,"lon":5.3766,"is_reserved":false,"is_disabled":false,"rental_uris":{"android":"levelo://app?vid=533cb83c-e8dd-42bc-9375-30430a43b393","ios":"levelo://app?vid=533cb83c-e8dd-42bc-9375-30430a43b393"},"vehicle_type_id":"4","last_reported":1768345897,"current_range_meters":2800,"station_id":"ce4bhh12rcd13ifvqff0","pricing_plan_id":"cebpf4jnsgd1na2vs0mg"},{"bike_id":"392a2514-cab7-424b-9b2f-965070f0b2db","system_id":"levelo_inurba_marseille","lat":43.291975,"lon":5.393179,"is_reserved":false,"is_disabled":false,"rental_uris":{"android":"levelo://app?vid=392a2514-cab7-424b-9b2f-965070f0b2db","ios":"levelo://app?vid=392a2514-cab7-424b-9b2f-965070f0b2db"},"vehicle_type_id":"4","last_reported":1768345897,"current_range_meters":2800,"station_id":"ce4bh192rcd13ifvqdd0","pricing_plan_id":"cebpf4jnsgd1na2vs0mg"},{"bike_id":"b3365a79-4e93-4ced-801f-9c3754c77da0","system_id":"levelo_inurba_marseille","lat":43.24384,"lon":5.3708,"is_reserved":false,"is_disabled":false,"rental_uris":{"android":"levelo://app?vid=b3365a79-4e93-4ced-801f-9c3754c77da0","ios":"levelo://app?vid=b3365a79-4e93-4ced-801f-9c3754c77da0"},"vehicle_type_id":"4","last_reported":1768345897,"current_range_meters":2800,"station_id":"ce4bhhh2rcd13ifvqfk0","pricing_plan_id":"cebpf4jnsgd1na2vs0mg"},{"bike_id":"82b87168-267f-432c-a609-70f7b40ac901","system_id":"levelo_inurba_marseille","lat":43.27945,"lon":5.41031,"is_reserved":false,"is_disabled":false,"rental_uris":{"android":"levelo://app?vid=82b87168-267f-432c-a609-70f7b40ac901","ios":"levelo://app?vid=82b87168-267f-432c-a609-70f7b40ac901"},"vehicle_type_id":"4","last_reported":1768345897,"current_range_meters":2800,"station_id":"","pricing_plan_id":"cebpf4jnsgd1na2vs0mg"},{"bike_id":"5cd0348c-c053-42c0-b52c-0fd30637dd40","system_id":"levelo_inurba_marseille","lat":43.29898,"lon":5.37797,"is_reserved":false,"is_disabled":false,"rental_uris":{"android":"levelo://app?vid=5cd0348c-c053-42c0-b52c-0fd30637dd40","ios":"levelo://app?vid=5cd0348c-c053-42c0-b52c-0fd30637dd40"},"vehicle_type_id":"4","last_reported":1768345897,"current_range_meters":2800,"station_id":"","pricing_plan_id":"cebpf4jnsgd1na2vs0mg"},{"bike_id":"50d6cb25-e8c5-49dd-88b4-e56e19cdc111","system_id":"levelo_inurba_marseille","lat":43.29035,"lon":5.37075,"is_reserved":false,"is_disabled":false,"rental_uris":{"android":"levelo://app?vid=50d6cb25-e8c5-49dd-88b4-e56e19cdc111","ios":"levelo://app?vid=50d6cb25-e8c5-49dd-88b4-e56e19cdc111"},"vehicle_type_id":"4","last_reported":1768345897,"current_range_meters":2800,"station_id":"","pricing_plan_id":"cebpf4jnsgd1na2vs0mg"},{"bike_id":"a22146b8-4b05-4651-b6b4-a1a63e612e7d","system_id":"levelo_inurba_marseille","lat":43.26059,"lon":5.3943,"is_reserved":false,"is_disabled":false,"rental_uris":{"android":"levelo://app?vid=a22146b8-4b05-4651-b6b4-a1a63e612e7d","ios":"levelo://app?vid=a22146b8-4b05-4651-b6b4-a1a63e612e7d"},"vehicle_type_id":"4","last_reported":1768345897,"current_range_meters":2800,"station_id":"ce4bhh92rcd13ifvqfj0","pricing_plan_id":"cebpf4jnsgd1na2vs0mg"},{"bike_id":"e63df9e0-af8f-4554-a6e1-61250e5af1c1","system_id":"levelo_inurba_marseille","lat":43.23182,"lon":5.39982,"is_reserved":false,"is_disabled":false,"rental_uris":{"android":"levelo://app?vid=e63df9e0-af8f-4554-a6e1-61250e5af1c1","ios":"levelo://app?vid=e63df9e0-af8f-4554-a6e1-61250e5af1c1"},"vehicle_type_id":"4","last_reported":1768345897,"current_range_meters":2800,"station_id":"ce4bhn12rcd13ifvqgqg","pricing_plan_id":"cebpf4jnsgd1na2vs0mg"},{"bike_id":"fa3af731-1a6f-401f-acb2-68e79198be37","system_id":"levelo_inurba_marseille","lat":43.25471,"lon":5.37617,"is_reserved":false,"is_disabled":false,"rental_uris":{"android":"levelo://app?vid=fa3af731-1a6f-401f-acb2-68e79198be37","ios":"levelo://app?vid=fa3af731-1a6f-401f-acb2-68e79198be37"},"vehicle_type_id":"4","last_reported":1768345897,"current_range_meters":2800,"station_id":"ce4bhh12rcd13ifvqff0","pricing_plan_id":"cebpf4jnsgd1na2vs0mg"},{"bike_id":"cd122465-4bd8-4111-a501-746f52ad2f74","system_id":"levelo_inurba_marseille","lat":43.25425,"lon":5.37616,"is_reserved":false,"is_disabled":false,"rental_uris":{"android":"levelo://app?vid=cd122465-4bd8-4111-a501-746f52ad2f74","ios":"levelo://app?vid=cd122465-4bd8-4111-a501-746f52ad2f74"},"vehicle_type_id":"4","last_reported":1768345897,"current_range_meters":2800,"station_id":"ce4bhh12rcd13ifvqff0","pricing_plan_id":"cebpf4jnsgd1na2vs0mg"},{"bike_id":"e550fc9a-3d68-4b17-9669-6894900f7416","system_id":"levelo_inurba_marseille","lat":43.30652,"lon":5.40505,"is_reserved":false,"is_disabled":false,"rental_uris":{"android":"levelo://app?vid=e550fc9a-3d68-4b17-9669-6894900f7416","ios":"levelo://app?vid=e550fc9a-3d68-4b17-9669-6894900f7416"},"vehicle_type_id":"4","last_reported":1768345897,"current_range_meters":2800,"station_id":"ce4bh112rcd13ifvqda0","pricing_plan_id":"cebpf4jnsgd1na2vs0mg"},{"bike_id":"93420a80-8e35-472b-9a22-41b99ae8b801","system_id":"levelo_inurba_marseille","lat":43.24166,"lon":5.36396,"is_reserved":false,"is_disabled":false,"rental_uris":{"android":"levelo://app?vid=93420a80-8e35-472b-9a22-41b99ae8b801","ios":"levelo://app?vid=93420a80-8e35-472b-9a22-41b99ae8b801"},"vehicle_type_id":"4","last_reported":1768345897,"current_range_meters":3200,"station_id":"cpo36qri1sfpv3e86is0","pricing_plan_id":"cebpf4jnsgd1na2vs0mg"},{"bike_id":"91f830b5-135b-4e75-8a53-49de6ef86e8b","system_id":"levelo_inurba_marseille","lat":43.309352,"lon":5.39026,"is_reserved":false,"is_disabled":false,"rental_uris":{"android":"levelo://app?vid=91f830b5-135b-4e75-8a53-49de6ef86e8b","ios":"levelo://app?vid=91f830b5-135b-4e75-8a53-49de6ef86e8b"},"vehicle_type_id":"4","last_reported":1768345897,"current_range_meters":3200,"station_id":"","pricing_plan_id":"cebpf4jnsgd1na2vs0mg"},{"bike_id":"0ca727f1-22a9-4d29-b4b0-403b274e760f","system_id":"levelo_inurba_marseille","lat":43.29102,"lon":5.39893,"is_reserved":false,"is_disabled":false,"rental_uris":{"android":"levelo://app?vid=0ca727f1-22a9-4d29-b4b0-403b274e760f","ios":"levelo://app?vid=0ca727f1-22a9-4d29-b4b0-403b274e760f"},"vehicle_type_id":"4","last_reported":1768345897,"current_range_meters":3200,"station_id":"","pricing_plan_id":"cebpf4jnsgd1na2vs0mg"},{"bike_id":"90374415-cbc3-4952-a2cb-bda17d2a3e8f","system_id":"levelo_inurba_marseille","lat":43.31329,"lon":5.38424,"is_reserved":false,"is_disabled":false,"rental_uris":{"android":"levelo://app?vid=90374415-cbc3-4952-a2cb-bda17d2a3e8f","ios":"levelo://app?vid=90374415-cbc3-4952-a2cb-bda17d2a3e8f"},"vehicle_type_id":"4","last_reported":1768345897,"current_range_meters":3200,"station_id":"","pricing_plan_id":"cebpf4jnsgd1na2vs0mg"},{"bike_id":"017368ae-a8ef-4ad6-bc9a-d16935d6312f","system_id":"levelo_inurba_marseille","lat":43.23514,"lon":5.3593,"is_reserved":false,"is_disabled":false,"rental_uris":{"android":"levelo://app?vid=017368ae-a8ef-4ad6-bc9a-d16935d6312f","ios":"levelo://app?vid=017368ae-a8ef-4ad6-bc9a-d16935d6312f"},"vehicle_type_id":"4","last_reported":1768345897,"current_range_meters":3200,"station_id":"","pricing_plan_id":"cebpf4jnsgd1na2vs0mg"},{"bike_id":"5b8302cb-d6a5-4483-b477-0ec5d1c212e3","system_id":"levelo_inurba_marseille","lat":43.2557,"lon":5.38255,"is_reserved":false,"is_disabled":false,"rental_uris":{"android":"levelo://app?vid=5b8302cb-d6a5-4483-b477-0ec5d1c212e3","ios":"levelo://app?vid=5b8302cb-d6a5-4483-b477-0ec5d1c212e3"},"vehicle_type_id":"4","last_reported":1768345897,"current_range_meters":3200,"station_id":"ce4bhih2rcd13ifvqfs0","pricing_plan_id":"cebpf4jnsgd1na2vs0mg"},{"bike_id":"d4f3bd37-a943-479b-98c1-66fc15a01b59","system_id":"levelo_inurba_marseille","lat":43.32357,"lon":5.36752,"is_reserved":false,"is_disabled":false,"rental_uris":{"android":"levelo://app?vid=d4f3bd37-a943-479b-98c1-66fc15a01b59","ios":"levelo://app?vid=d4f3bd37-a943-479b-98c1-66fc15a01b59"},"vehicle_type_id":"4","last_reported":1768345897,"current_range_meters":3200,"station_id":"ce4bhsh2rcd13ifvqi2g","pricing_plan_id":"cebpf4jnsgd1na2vs0mg"},{"bike_id":"77648d21-2eba-4733-a182-ee140dc2d61a","system_id":"levelo_inurba_marseille","lat":43.2319,"lon":5.35533,"is_reserved":false,"is_disabled":false,"rental_uris":{"android":"levelo://app?vid=77648d21-2eba-4733-a182-ee140dc2d61a","ios":"levelo://app?vid=77648d21-2eba-4733-a182-ee140dc2d61a"},"vehicle_type_id":"4","last_reported":1768345897,"current_range_meters":3200,"station_id":"ce4bhu92rcd13ifvqi70","pricing_plan_id":"cebpf4jnsgd1na2vs0mg"},{"bike_id":"f7f88b46-dbdb-4eec-ae80-111e1c78c9ec","system_id":"levelo_inurba_marseille","lat":43.26922,"lon":5.40255,"is_reserved":false,"is_disabled":false,"rental_uris":{"android":"levelo://app?vid=f7f88b46-dbdb-4eec-ae80-111e1c78c9ec","ios":"levelo://app?vid=f7f88b46-dbdb-4eec-ae80-111e1c78c9ec"},"vehicle_type_id":"4","last_reported":1768345897,"current_range_meters":3200,"station_id":"cjm6bp8fraef2m0cb0m0","pricing_plan_id":"cebpf4jnsgd1na2vs0mg"},{"bike_id":"fcc631d1-df94-4f25-9fad-22f1bede125e","system_id":"levelo_inurba_marseille","lat":43.28597,"lon":5.44133,"is_reserved":false,"is_disabled":false,"rental_uris":{"android":"levelo://app?vid=fcc631d1-df94-4f25-9fad-22f1bede125e","ios":"levelo://app?vid=fcc631d1-df94-4f25-9fad-22f1bede125e"},"vehicle_type_id":"4","last_reported":1768345897,"current_range_meters":3200,"station_id":"st_d3j3df2ikq2c7380ej80","pricing_plan_id":"cebpf4jnsgd1na2vs0mg"},{"bike_id":"affed72c-cd8c-45cc-a144-46145cf4b5be","system_id":"levelo_inurba_marseille","lat":43.22562,"lon":5.4163,"is_reserved":false,"is_disabled":false,"rental_uris":{"android":"levelo://app?vid=affed72c-cd8c-45cc-a144-46145cf4b5be","ios":"levelo://app?vid=affed72c-cd8c-45cc-a144-46145cf4b5be"},"vehicle_type_id":"4","last_reported":1768345897,"current_range_meters":3200,"station_id":"st_d2o4gvlbi1j2169b742g","pricing_plan_id":"cebpf4jnsgd1na2vs0mg"},{"bike_id":"e5104f30-0e90-4f22-8c18-b760d2036175","system_id":"levelo_inurba_marseille","lat":43.28403,"lon":5.37517,"is_reserved":false,"is_disabled":false,"rental_uris":{"android":"levelo://app?vid=e5104f30-0e90-4f22-8c18-b760d2036175","ios":"levelo://app?vid=e5104f30-0e90-4f22-8c18-b760d2036175"},"vehicle_type_id":"4","last_reported":1768345897,"current_range_meters":3600,"station_id":"ce4bh412rcd13ifvqds0","pricing_plan_id":"cebpf4jnsgd1na2vs0mg"},{"bike_id":"173e874a-bef3-47f8-8f65-3e423bb125d3","system_id":"levelo_inurba_marseille","lat":43.25928,"lon":5.40904,"is_reserved":false,"is_disabled":false,"rental_uris":{"android":"levelo://app?vid=173e874a-bef3-47f8-8f65-3e423bb125d3","ios":"levelo://app?vid=173e874a-bef3-47f8-8f65-3e423bb125d3"},"vehicle_type_id":"4","last_reported":1768345897,"current_range_meters":3600,"station_id":"ce4bhm92rcd13ifvqglg","pricing_plan_id":"cebpf4jnsgd1na2vs0mg"},{"bike_id":"f5d19579-dfd3-4245-9a3c-40f0995461f4","system_id":"levelo_inurba_marseille","lat":43.323491,"lon":5.367303,"is_reserved":false,"is_disabled":false,"rental_uris":{"android":"levelo://app?vid=f5d19579-dfd3-4245-9a3c-40f0995461f4","ios":"levelo://app?vid=f5d19579-dfd3-4245-9a3c-40f0995461f4"},"vehicle_type_id":"4","last_reported":1768345897,"current_range_meters":3600,"station_id":"ce4bhsh2rcd13ifvqi2g","pricing_plan_id":"cebpf4jnsgd1na2vs0mg"},{"bike_id":"ea93187f-28bc-4a38-9d6b-780c5bfa6ae8","system_id":"levelo_inurba_marseille","lat":43.28951,"lon":5.39624,"is_reserved":false,"is_disabled":false,"rental_uris":{"android":"levelo://app?vid=ea93187f-28bc-4a38-9d6b-780c5bfa6ae8","ios":"levelo://app?vid=ea93187f-28bc-4a38-9d6b-780c5bfa6ae8"},"vehicle_type_id":"4","last_reported":1768345897,"current_range_meters":3600,"station_id":"ce4bh3h2rcd13ifvqdn0","pricing_plan_id":"cebpf4jnsgd1na2vs0mg"},{"bike_id":"4c634be7-9818-49f5-8d71-63e4d896f34f","system_id":"levelo_inurba_marseille","lat":43.30601,"lon":5.37236,"is_reserved":false,"is_disabled":false,"rental_uris":{"android":"levelo://app?vid=4c634be7-9818-49f5-8d71-63e4d896f34f","ios":"levelo://app?vid=4c634be7-9818-49f5-8d71-63e4d896f34f"},"vehicle_type_id":"4","last_reported":1768345897,"current_range_meters":3600,"station_id":"ce4bgqh2rcd13ifvqc4g","pricing_plan_id":"cebpf4jnsgd1na2vs0mg"},{"bike_id":"56086777-d961-4483-841e-d68e415670fd","system_id":"levelo_inurba_marseille","lat":43.24465,"lon":5.42533,"is_reserved":false,"is_disabled":false,"rental_uris":{"android":"levelo://app?vid=56086777-d961-4483-841e-d68e415670fd","ios":"levelo://app?vid=56086777-d961-4483-841e-d68e415670fd"},"vehicle_type_id":"4","last_reported":1768345897,"current_range_meters":3600,"station_id":"st_d4a3vfp97mjs738cd8kg","pricing_plan_id":"cebpf4jnsgd1na2vs0mg"},{"bike_id":"d926f6df-bb6d-4c22-9c30-1d92a2769c5e","system_id":"levelo_inurba_marseille","lat":43.22926,"lon":5.35384,"is_reserved":false,"is_disabled":false,"rental_uris":{"android":"levelo://app?vid=d926f6df-bb6d-4c22-9c30-1d92a2769c5e","ios":"levelo://app?vid=d926f6df-bb6d-4c22-9c30-1d92a2769c5e"},"vehicle_type_id":"4","last_reported":1768345897,"current_range_meters":3600,"station_id":"cpo3532slgdg3j2ikp40","pricing_plan_id":"cebpf4jnsgd1na2vs0mg"},{"bike_id":"6b098de5-e62d-488e-baa6-1549952aa5bd","system_id":"levelo_inurba_marseille","lat":43.29285,"lon":5.38599,"is_reserved":false,"is_disabled":false,"rental_uris":{"android":"levelo://app?vid=6b098de5-e62d-488e-baa6-1549952aa5bd","ios":"levelo://app?vid=6b098de5-e62d-488e-baa6-1549952aa5bd"},"vehicle_type_id":"4","last_reported":1768345897,"current_range_meters":3600,"station_id":"","pricing_plan_id":"cebpf4jnsgd1na2vs0mg"},{"bike_id":"9e3f8b43-110a-4683-808c-c8bd643c9f41","system_id":"levelo_inurba_marseille","lat":43.2418,"lon":5.36375,"is_reserved":false,"is_disabled":false,"rental_uris":{"android":"levelo://app?vid=9e3f8b43-110a-4683-808c-c8bd643c9f41","ios":"levelo://app?vid=9e3f8b43-110a-4683-808c-c8bd643c9f41"},"vehicle_type_id":"4","last_reported":1768345897,"current_range_meters":3600,"station_id":"cpo36qri1sfpv3e86is0","pricing_plan_id":"cebpf4jnsgd1na2vs0mg"},{"bike_id":"46176179-a00d-401c-94b5-1c9d9288d47b","system_id":"levelo_inurba_marseille","lat":43.27371,"lon":5.36264,"is_reserved":false,"is_disabled":false,"rental_uris":{"android":"levelo://app?vid=46176179-a00d-401c-94b5-1c9d9288d47b","ios":"levelo://app?vid=46176179-a00d-401c-94b5-1c9d9288d47b"},"vehicle_type_id":"4","last_reported":1768345897,"current_range_meters":3600,"station_id":"ce4bhbh2rcd13ifvqeo0","pricing_plan_id":"cebpf4jnsgd1na2vs0mg"},{"bike_id":"ba7654d7-92e8-4e9b-a5b9-8f820e72ab5d","system_id":"levelo_inurba_marseille","lat":43.32361,"lon":5.3678,"is_reserved":false,"is_disabled":false,"rental_uris":{"android":"levelo://app?vid=ba7654d7-92e8-4e9b-a5b9-8f820e72ab5d","ios":"levelo://app?vid=ba7654d7-92e8-4e9b-a5b9-8f820e72ab5d"},"vehicle_type_id":"4","last_reported":1768345897,"current_range_meters":4000,"station_id":"ce4bhsh2rcd13ifvqi2g","pricing_plan_id":"cebpf4jnsgd1na2vs0mg"},{"bike_id":"6c7331ca-2f80-4d9d-95d8-79e61536f2b8","system_id":"levelo_inurba_marseille","lat":43.29626,"lon":5.40593,"is_reserved":false,"is_disabled":false,"rental_uris":{"android":"levelo://app?vid=6c7331ca-2f80-4d9d-95d8-79e61536f2b8","ios":"levelo://app?vid=6c7331ca-2f80-4d9d-95d8-79e61536f2b8"},"vehicle_type_id":"4","last_reported":1768345897,"current_range_meters":4000,"station_id":"ce4bh0h2rcd13ifvqd60","pricing_plan_id":"cebpf4jnsgd1na2vs0mg"},{"bike_id":"b7892a70-5f83-4107-a2a7-638e77c743b4","system_id":"levelo_inurba_marseille","lat":43.28433,"lon":5.39183,"is_reserved":false,"is_disabled":false,"rental_uris":{"android":"levelo://app?vid=b7892a70-5f83-4107-a2a7-638e77c743b4","ios":"levelo://app?vid=b7892a70-5f83-4107-a2a7-638e77c743b4"},"vehicle_type_id":"4","last_reported":1768345897,"current_range_meters":4000,"station_id":"ce4bhoh2rcd13ifvqh5g","pricing_plan_id":"cebpf4jnsgd1na2vs0mg"},{"bike_id":"2f99225a-79f1-409f-9e95-ffcbefa828f6","system_id":"levelo_inurba_marseille","lat":43.27567,"lon":5.38389,"is_reserved":false,"is_disabled":false,"rental_uris":{"android":"levelo://app?vid=2f99225a-79f1-409f-9e95-ffcbefa828f6","ios":"levelo://app?vid=2f99225a-79f1-409f-9e95-ffcbefa828f6"},"vehicle_type_id":"4","last_reported":1768345897,"current_range_meters":4000,"station_id":"ce4bhh92rcd13ifvqfi0","pricing_plan_id":"cebpf4jnsgd1na2vs0mg"},{"bike_id":"f34ce2e5-33b6-4187-bd26-bd7acd5eae89","system_id":"levelo_inurba_marseille","lat":43.26552,"lon":5.372818,"is_reserved":false,"is_disabled":false,"rental_uris":{"android":"levelo://app?vid=f34ce2e5-33b6-4187-bd26-bd7acd5eae89","ios":"levelo://app?vid=f34ce2e5-33b6-4187-bd26-bd7acd5eae89"},"vehicle_type_id":"4","last_reported":1768345897,"current_range_meters":4000,"station_id":"ce4bhg12rcd13ifvqf70","pricing_plan_id":"cebpf4jnsgd1na2vs0mg"},{"bike_id":"c99e908e-7a32-4d1f-800f-603e38b74fa5","system_id":"levelo_inurba_marseille","lat":43.241593,"lon":5.364043,"is_reserved":false,"is_disabled":false,"rental_uris":{"android":"levelo://app?vid=c99e908e-7a32-4d1f-800f-603e38b74fa5","ios":"levelo://app?vid=c99e908e-7a32-4d1f-800f-603e38b74fa5"},"vehicle_type_id":"4","last_reported":1768345897,"current_range_meters":4000,"station_id":"cpo36qri1sfpv3e86is0","pricing_plan_id":"cebpf4jnsgd1na2vs0mg"},{"bike_id":"f7aff76b-700e-45dd-a693-2e94c385cbfa","system_id":"levelo_inurba_marseille","lat":43.2846,"lon":5.35894,"is_reserved":false,"is_disabled":false,"rental_uris":{"android":"levelo://app?vid=f7aff76b-700e-45dd-a693-2e94c385cbfa","ios":"levelo://app?vid=f7aff76b-700e-45dd-a693-2e94c385cbfa"},"vehicle_type_id":"4","last_reported":1768345897,"current_range_meters":4000,"station_id":"ce4bhah2rcd13ifvqei0","pricing_plan_id":"cebpf4jnsgd1na2vs0mg"},{"bike_id":"bf1ed8ba-261f-4b27-99bf-e883bc0fd445","system_id":"levelo_inurba_marseille","lat":43.25336,"lon":5.42164,"is_reserved":false,"is_disabled":false,"rental_uris":{"android":"levelo://app?vid=bf1ed8ba-261f-4b27-99bf-e883bc0fd445","ios":"levelo://app?vid=bf1ed8ba-261f-4b27-99bf-e883bc0fd445"},"vehicle_type_id":"4","last_reported":1768345897,"current_range_meters":4000,"station_id":"st_d2m65c5bi1j21697t3ng","pricing_plan_id":"cebpf4jnsgd1na2vs0mg"},{"bike_id":"a0ffd216-f3e6-4a47-8965-98b2dc3c3d76","system_id":"levelo_inurba_marseille","lat":43.24461,"lon":5.42537,"is_reserved":false,"is_disabled":false,"rental_uris":{"android":"levelo://app?vid=a0ffd216-f3e6-4a47-8965-98b2dc3c3d76","ios":"levelo://app?vid=a0ffd216-f3e6-4a47-8965-98b2dc3c3d76"},"vehicle_type_id":"4","last_reported":1768345897,"current_range_meters":4000,"station_id":"st_d4a3vfp97mjs738cd8kg","pricing_plan_id":"cebpf4jnsgd1na2vs0mg"},{"bike_id":"a7e7d4d2-8184-4e14-a5ad-a9ec30b05bd9","system_id":"levelo_inurba_marseille","lat":43.30207,"lon":5.39454,"is_reserved":false,"is_disabled":false,"rental_uris":{"android":"levelo://app?vid=a7e7d4d2-8184-4e14-a5ad-a9ec30b05bd9","ios":"levelo://app?vid=a7e7d4d2-8184-4e14-a5ad-a9ec30b05bd9"},"vehicle_type_id":"4","last_reported":1768345897,"current_range_meters":4000,"station_id":"ce4bh0p2rcd13ifvqd70","pricing_plan_id":"cebpf4jnsgd1na2vs0mg"},{"bike_id":"066c6ede-2e00-4b82-b8c4-c24bdc063f22","system_id":"levelo_inurba_marseille","lat":43.23842,"lon":5.36647,"is_reserved":false,"is_disabled":false,"rental_uris":{"android":"levelo://app?vid=066c6ede-2e00-4b82-b8c4-c24bdc063f22","ios":"levelo://app?vid=066c6ede-2e00-4b82-b8c4-c24bdc063f22"},"vehicle_type_id":"4","last_reported":1768345897,"current_range_meters":4000,"station_id":"","pricing_plan_id":"cebpf4jnsgd1na2vs0mg"},{"bike_id":"c30ddd3d-eb89-4d34-8288-3094e0546695","system_id":"levelo_inurba_marseille","lat":43.27573,"lon":5.38409,"is_reserved":false,"is_disabled":false,"rental_uris":{"android":"levelo://app?vid=c30ddd3d-eb89-4d34-8288-3094e0546695","ios":"levelo://app?vid=c30ddd3d-eb89-4d34-8288-3094e0546695"},"vehicle_type_id":"4","last_reported":1768345897,"current_range_meters":4000,"station_id":"ce4bhh92rcd13ifvqfi0","pricing_plan_id":"cebpf4jnsgd1na2vs0mg"},{"bike_id":"3c91a548-2cc3-4705-ab80-5230129be485","system_id":"levelo_inurba_marseille","lat":43.29831,"lon":5.37655,"is_reserved":false,"is_disabled":false,"rental_uris":{"android":"levelo://app?vid=3c91a548-2cc3-4705-ab80-5230129be485","ios":"levelo://app?vid=3c91a548-2cc3-4705-ab80-5230129be485"},"vehicle_type_id":"4","last_reported":1768345897,"current_range_meters":4000,"station_id":"","pricing_plan_id":"cebpf4jnsgd1na2vs0mg"},{"bike_id":"04ec84f1-706e-4524-95a4-7d82b4caa1ab","system_id":"levelo_inurba_marseille","lat":43.29484,"lon":5.43296,"is_reserved":false,"is_disabled":false,"rental_uris":{"android":"levelo://app?vid=04ec84f1-706e-4524-95a4-7d82b4caa1ab","ios":"levelo://app?vid=04ec84f1-706e-4524-95a4-7d82b4caa1ab"},"vehicle_type_id":"4","last_reported":1768345897,"current_range_meters":4400,"station_id":"st_d3j5ugp08ojc73fj9d10","pricing_plan_id":"cebpf4jnsgd1na2vs0mg"},{"bike_id":"5af3242c-9133-4734-9374-77f1f4f62acf","system_id":"levelo_inurba_marseille","lat":43.24162,"lon":5.36399,"is_reserved":false,"is_disabled":false,"rental_uris":{"android":"levelo://app?vid=5af3242c-9133-4734-9374-77f1f4f62acf","ios":"levelo://app?vid=5af3242c-9133-4734-9374-77f1f4f62acf"},"vehicle_type_id":"4","last_reported":1768345897,"current_range_meters":4400,"station_id":"cpo36qri1sfpv3e86is0","pricing_plan_id":"cebpf4jnsgd1na2vs0mg"},{"bike_id":"dedc092e-5a64-44c2-8d92-91df13a8a88e","system_id":"levelo_inurba_marseille","lat":43.27806,"lon":5.40704,"is_reserved":false,"is_disabled":false,"rental_uris":{"android":"levelo://app?vid=dedc092e-5a64-44c2-8d92-91df13a8a88e","ios":"levelo://app?vid=dedc092e-5a64-44c2-8d92-91df13a8a88e"},"vehicle_type_id":"4","last_reported":1768345897,"current_range_meters":4400,"station_id":"ce4bhnh2rcd13ifvqgtg","pricing_plan_id":"cebpf4jnsgd1na2vs0mg"},{"bike_id":"f860c8b8-497b-43f2-a98f-2f283c2531e1","system_id":"levelo_inurba_marseille","lat":43.2845,"lon":5.3753,"is_reserved":false,"is_disabled":false,"rental_uris":{"android":"levelo://app?vid=f860c8b8-497b-43f2-a98f-2f283c2531e1","ios":"levelo://app?vid=f860c8b8-497b-43f2-a98f-2f283c2531e1"},"vehicle_type_id":"4","last_reported":1768345897,"current_range_meters":4400,"station_id":"","pricing_plan_id":"cebpf4jnsgd1na2vs0mg"},{"bike_id":"7d8b4a96-12ec-44ee-9ebd-48ad324b1e13","system_id":"levelo_inurba_marseille","lat":43.282324,"lon":5.3907,"is_reserved":false,"is_disabled":false,"rental_uris":{"android":"levelo://app?vid=7d8b4a96-12ec-44ee-9ebd-48ad324b1e13","ios":"levelo://app?vid=7d8b4a96-12ec-44ee-9ebd-48ad324b1e13"},"vehicle_type_id":"4","last_reported":1768345897,"current_range_meters":4400,"station_id":"ce4bhn92rcd13ifvqgsg","pricing_plan_id":"cebpf4jnsgd1na2vs0mg"},{"bike_id":"bef34aee-f84b-4c66-a552-fab0c4b61e79","system_id":"levelo_inurba_marseille","lat":43.31165,"lon":5.36816,"is_reserved":false,"is_disabled":false,"rental_uris":{"android":"levelo://app?vid=bef34aee-f84b-4c66-a552-fab0c4b61e79","ios":"levelo://app?vid=bef34aee-f84b-4c66-a552-fab0c4b61e79"},"vehicle_type_id":"4","last_reported":1768345897,"current_range_meters":4400,"station_id":"ce4bgl92rcd13ifvqbq0","pricing_plan_id":"cebpf4jnsgd1na2vs0mg"},{"bike_id":"f7edb647-926c-4dfc-a318-e14c8ce272fc","system_id":"levelo_inurba_marseille","lat":43.30536,"lon":5.36539,"is_reserved":false,"is_disabled":false,"rental_uris":{"android":"levelo://app?vid=f7edb647-926c-4dfc-a318-e14c8ce272fc","ios":"levelo://app?vid=f7edb647-926c-4dfc-a318-e14c8ce272fc"},"vehicle_type_id":"4","last_reported":1768345897,"current_range_meters":4400,"station_id":"ce4bgs12rcd13ifvqcag","pricing_plan_id":"cebpf4jnsgd1na2vs0mg"},{"bike_id":"383b2479-4503-401f-93ed-feb22cd6912e","system_id":"levelo_inurba_marseille","lat":43.24156,"lon":5.36392,"is_reserved":false,"is_disabled":false,"rental_uris":{"android":"levelo://app?vid=383b2479-4503-401f-93ed-feb22cd6912e","ios":"levelo://app?vid=383b2479-4503-401f-93ed-feb22cd6912e"},"vehicle_type_id":"4","last_reported":1768345897,"current_range_meters":4400,"station_id":"cpo36qri1sfpv3e86is0","pricing_plan_id":"cebpf4jnsgd1na2vs0mg"},{"bike_id":"4c68eacc-2d63-41f4-bcd0-18cc9a25ae57","system_id":"levelo_inurba_marseille","lat":43.24171,"lon":5.36397,"is_reserved":false,"is_disabled":false,"rental_uris":{"android":"levelo://app?vid=4c68eacc-2d63-41f4-bcd0-18cc9a25ae57","ios":"levelo://app?vid=4c68eacc-2d63-41f4-bcd0-18cc9a25ae57"},"vehicle_type_id":"4","last_reported":1768345897,"current_range_meters":4400,"station_id":"cpo36qri1sfpv3e86is0","pricing_plan_id":"cebpf4jnsgd1na2vs0mg"},{"bike_id":"4c171aec-60f9-4710-8657-317b51a39b9e","system_id":"levelo_inurba_marseille","lat":43.3236,"lon":5.36745,"is_reserved":false,"is_disabled":false,"rental_uris":{"android":"levelo://app?vid=4c171aec-60f9-4710-8657-317b51a39b9e","ios":"levelo://app?vid=4c171aec-60f9-4710-8657-317b51a39b9e"},"vehicle_type_id":"4","last_reported":1768345897,"current_range_meters":4400,"station_id":"ce4bhsh2rcd13ifvqi2g","pricing_plan_id":"cebpf4jnsgd1na2vs0mg"},{"bike_id":"f702331a-93dd-48cd-8a96-4400c0df1b3c","system_id":"levelo_inurba_marseille","lat":43.25114,"lon":5.40322,"is_reserved":false,"is_disabled":false,"rental_uris":{"android":"levelo://app?vid=f702331a-93dd-48cd-8a96-4400c0df1b3c","ios":"levelo://app?vid=f702331a-93dd-48cd-8a96-4400c0df1b3c"},"vehicle_type_id":"4","last_reported":1768345897,"current_range_meters":4800,"station_id":"ce4bhlh2rcd13ifvqgig","pricing_plan_id":"cebpf4jnsgd1na2vs0mg"},{"bike_id":"91dbe188-56c8-4fce-a414-d6e43ed9eb6b","system_id":"levelo_inurba_marseille","lat":43.26694,"lon":5.39943,"is_reserved":false,"is_disabled":false,"rental_uris":{"android":"levelo://app?vid=91dbe188-56c8-4fce-a414-d6e43ed9eb6b","ios":"levelo://app?vid=91dbe188-56c8-4fce-a414-d6e43ed9eb6b"},"vehicle_type_id":"4","last_reported":1768345897,"current_range_meters":4800,"station_id":"","pricing_plan_id":"cebpf4jnsgd1na2vs0mg"},{"bike_id":"a1e38a14-b1c3-4dcd-b05e-bb11c73657bc","system_id":"levelo_inurba_marseille","lat":43.25107,"lon":5.4033,"is_reserved":false,"is_disabled":false,"rental_uris":{"android":"levelo://app?vid=a1e38a14-b1c3-4dcd-b05e-bb11c73657bc","ios":"levelo://app?vid=a1e38a14-b1c3-4dcd-b05e-bb11c73657bc"},"vehicle_type_id":"4","last_reported":1768345897,"current_range_meters":4800,"station_id":"ce4bhlh2rcd13ifvqgig","pricing_plan_id":"cebpf4jnsgd1na2vs0mg"},{"bike_id":"479d04b3-091e-4637-ab2f-f901b6f36a36","system_id":"levelo_inurba_marseille","lat":43.24169,"lon":5.364,"is_reserved":false,"is_disabled":false,"rental_uris":{"android":"levelo://app?vid=479d04b3-091e-4637-ab2f-f901b6f36a36","ios":"levelo://app?vid=479d04b3-091e-4637-ab2f-f901b6f36a36"},"vehicle_type_id":"4","last_reported":1768345897,"current_range_meters":4800,"station_id":"cpo36qri1sfpv3e86is0","pricing_plan_id":"cebpf4jnsgd1na2vs0mg"},{"bike_id":"abcd74ad-91b3-4bfb-baff-2442ed322096","system_id":"levelo_inurba_marseille","lat":43.315151,"lon":5.380328,"is_reserved":false,"is_disabled":false,"rental_uris":{"android":"levelo://app?vid=abcd74ad-91b3-4bfb-baff-2442ed322096","ios":"levelo://app?vid=abcd74ad-91b3-4bfb-baff-2442ed322096"},"vehicle_type_id":"4","last_reported":1768345897,"current_range_meters":4800,"station_id":"ce4bghh2rcd13ifvqb60","pricing_plan_id":"cebpf4jnsgd1na2vs0mg"},{"bike_id":"37b6285c-1755-4567-b4b9-0875bf81ff0b","system_id":"levelo_inurba_marseille","lat":43.29028,"lon":5.35882,"is_reserved":false,"is_disabled":false,"rental_uris":{"android":"levelo://app?vid=37b6285c-1755-4567-b4b9-0875bf81ff0b","ios":"levelo://app?vid=37b6285c-1755-4567-b4b9-0875bf81ff0b"},"vehicle_type_id":"4","last_reported":1768345897,"current_range_meters":4800,"station_id":"ce4bha92rcd13ifvqeg0","pricing_plan_id":"cebpf4jnsgd1na2vs0mg"},{"bike_id":"00ecf178-30a7-43b8-9a77-5308a08cf29e","system_id":"levelo_inurba_marseille","lat":43.24941,"lon":5.40487,"is_reserved":false,"is_disabled":false,"rental_uris":{"android":"levelo://app?vid=00ecf178-30a7-43b8-9a77-5308a08cf29e","ios":"levelo://app?vid=00ecf178-30a7-43b8-9a77-5308a08cf29e"},"vehicle_type_id":"4","last_reported":1768345897,"current_range_meters":4800,"station_id":"st_d2ngiaodas8pm72gd1h0","pricing_plan_id":"cebpf4jnsgd1na2vs0mg"},{"bike_id":"3502b945-707a-499e-b3af-6caf8e3903bc","system_id":"levelo_inurba_marseille","lat":43.28469,"lon":5.4839,"is_reserved":false,"is_disabled":false,"rental_uris":{"android":"levelo://app?vid=3502b945-707a-499e-b3af-6caf8e3903bc","ios":"levelo://app?vid=3502b945-707a-499e-b3af-6caf8e3903bc"},"vehicle_type_id":"4","last_reported":1768345897,"current_range_meters":4800,"station_id":"","pricing_plan_id":"cebpf4jnsgd1na2vs0mg"},{"bike_id":"3baba2c0-4f24-4a38-b8ab-5c34d0caf874","system_id":"levelo_inurba_marseille","lat":43.30888,"lon":5.39646,"is_reserved":false,"is_disabled":false,"rental_uris":{"android":"levelo://app?vid=3baba2c0-4f24-4a38-b8ab-5c34d0caf874","ios":"levelo://app?vid=3baba2c0-4f24-4a38-b8ab-5c34d0caf874"},"vehicle_type_id":"4","last_reported":1768345897,"current_range_meters":4800,"station_id":"ce4bh012rcd13ifvqcv0","pricing_plan_id":"cebpf4jnsgd1na2vs0mg"},{"bike_id":"84395230-17a0-4801-81be-563fe2e8d1e3","system_id":"levelo_inurba_marseille","lat":43.28664,"lon":5.36343,"is_reserved":false,"is_disabled":false,"rental_uris":{"android":"levelo://app?vid=84395230-17a0-4801-81be-563fe2e8d1e3","ios":"levelo://app?vid=84395230-17a0-4801-81be-563fe2e8d1e3"},"vehicle_type_id":"4","last_reported":1768345897,"current_range_meters":4800,"station_id":"ce4bhah2rcd13ifvqej0","pricing_plan_id":"cebpf4jnsgd1na2vs0mg"},{"bike_id":"a2d976b2-4930-45bf-896b-10cb61922490","system_id":"levelo_inurba_marseille","lat":43.23191,"lon":5.35558,"is_reserved":false,"is_disabled":false,"rental_uris":{"android":"levelo://app?vid=a2d976b2-4930-45bf-896b-10cb61922490","ios":"levelo://app?vid=a2d976b2-4930-45bf-896b-10cb61922490"},"vehicle_type_id":"4","last_reported":1768345897,"current_range_meters":4800,"station_id":"ce4bhu92rcd13ifvqi70","pricing_plan_id":"cebpf4jnsgd1na2vs0mg"},{"bike_id":"e81eb905-09b1-4753-bb4f-8434dc51b91d","system_id":"levelo_inurba_marseille","lat":43.26942,"lon":5.40265,"is_reserved":false,"is_disabled":false,"rental_uris":{"android":"levelo://app?vid=e81eb905-09b1-4753-bb4f-8434dc51b91d","ios":"levelo://app?vid=e81eb905-09b1-4753-bb4f-8434dc51b91d"},"vehicle_type_id":"4","last_reported":1768345897,"current_range_meters":5600,"station_id":"cjm6bp8fraef2m0cb0m0","pricing_plan_id":"cebpf4jnsgd1na2vs0mg"},{"bike_id":"40605c34-b337-4575-a1c5-013cd1cf905d","system_id":"levelo_inurba_marseille","lat":43.299612,"lon":5.384737,"is_reserved":false,"is_disabled":false,"rental_uris":{"android":"levelo://app?vid=40605c34-b337-4575-a1c5-013cd1cf905d","ios":"levelo://app?vid=40605c34-b337-4575-a1c5-013cd1cf905d"},"vehicle_type_id":"4","last_reported":1768345897,"current_range_meters":5600,"station_id":"ce4bhg12rcd13ifvqf70","pricing_plan_id":"cebpf4jnsgd1na2vs0mg"},{"bike_id":"48395e8e-6aaf-45af-8e4f-2e84f998f576","system_id":"levelo_inurba_marseille","lat":43.31646,"lon":5.38319,"is_reserved":false,"is_disabled":false,"rental_uris":{"android":"levelo://app?vid=48395e8e-6aaf-45af-8e4f-2e84f998f576","ios":"levelo://app?vid=48395e8e-6aaf-45af-8e4f-2e84f998f576"},"vehicle_type_id":"4","last_reported":1768345897,"current_range_meters":5600,"station_id":"","pricing_plan_id":"cebpf4jnsgd1na2vs0mg"},{"bike_id":"3db0fcf7-9abc-4be1-b3b7-ce569865437a","system_id":"levelo_inurba_marseille","lat":43.249521,"lon":5.404902,"is_reserved":false,"is_disabled":false,"rental_uris":{"android":"levelo://app?vid=3db0fcf7-9abc-4be1-b3b7-ce569865437a","ios":"levelo://app?vid=3db0fcf7-9abc-4be1-b3b7-ce569865437a"},"vehicle_type_id":"4","last_reported":1768345897,"current_range_meters":5600,"station_id":"st_d2ngiaodas8pm72gd1h0","pricing_plan_id":"cebpf4jnsgd1na2vs0mg"},{"bike_id":"be1f0b3a-ac9d-47b9-92a9-a3b327a6cb9e","system_id":"levelo_inurba_marseille","lat":43.24806,"lon":5.37454,"is_reserved":false,"is_disabled":false,"rental_uris":{"android":"levelo://app?vid=be1f0b3a-ac9d-47b9-92a9-a3b327a6cb9e","ios":"levelo://app?vid=be1f0b3a-ac9d-47b9-92a9-a3b327a6cb9e"},"vehicle_type_id":"4","last_reported":1768345897,"current_range_meters":5600,"station_id":"ce4bhgh2rcd13ifvqfb0","pricing_plan_id":"cebpf4jnsgd1na2vs0mg"},{"bike_id":"5335de27-5e88-4333-8998-b7e9ee9f6042","system_id":"levelo_inurba_marseille","lat":43.24812,"lon":5.37464,"is_reserved":false,"is_disabled":false,"rental_uris":{"android":"levelo://app?vid=5335de27-5e88-4333-8998-b7e9ee9f6042","ios":"levelo://app?vid=5335de27-5e88-4333-8998-b7e9ee9f6042"},"vehicle_type_id":"4","last_reported":1768345897,"current_range_meters":5600,"station_id":"ce4bhgh2rcd13ifvqfb0","pricing_plan_id":"cebpf4jnsgd1na2vs0mg"},{"bike_id":"36406dc4-d4db-42ea-9e54-90825aaf3b0b","system_id":"levelo_inurba_marseille","lat":43.25335,"lon":5.42175,"is_reserved":false,"is_disabled":false,"rental_uris":{"android":"levelo://app?vid=36406dc4-d4db-42ea-9e54-90825aaf3b0b","ios":"levelo://app?vid=36406dc4-d4db-42ea-9e54-90825aaf3b0b"},"vehicle_type_id":"4","last_reported":1768345897,"current_range_meters":5600,"station_id":"st_d2m65c5bi1j21697t3ng","pricing_plan_id":"cebpf4jnsgd1na2vs0mg"},{"bike_id":"435db267-3d15-44f5-8420-37d50b585844","system_id":"levelo_inurba_marseille","lat":43.2967,"lon":5.37311,"is_reserved":false,"is_disabled":false,"rental_uris":{"android":"levelo://app?vid=435db267-3d15-44f5-8420-37d50b585844","ios":"levelo://app?vid=435db267-3d15-44f5-8420-37d50b585844"},"vehicle_type_id":"4","last_reported":1768345897,"current_range_meters":5600,"station_id":"ce4bgk12rcd13ifvqbj0","pricing_plan_id":"cebpf4jnsgd1na2vs0mg"},{"bike_id":"6f340d65-8a96-4245-a37f-c84a4e9a1d07","system_id":"levelo_inurba_marseille","lat":43.3235,"lon":5.36725,"is_reserved":false,"is_disabled":false,"rental_uris":{"android":"levelo://app?vid=6f340d65-8a96-4245-a37f-c84a4e9a1d07","ios":"levelo://app?vid=6f340d65-8a96-4245-a37f-c84a4e9a1d07"},"vehicle_type_id":"4","last_reported":1768345897,"current_range_meters":5600,"station_id":"ce4bhsh2rcd13ifvqi2g","pricing_plan_id":"cebpf4jnsgd1na2vs0mg"},{"bike_id":"4027d1cb-ad1c-45a8-bf1d-57fe43f8c304","system_id":"levelo_inurba_marseille","lat":43.28989,"lon":5.3904,"is_reserved":false,"is_disabled":false,"rental_uris":{"android":"levelo://app?vid=4027d1cb-ad1c-45a8-bf1d-57fe43f8c304","ios":"levelo://app?vid=4027d1cb-ad1c-45a8-bf1d-57fe43f8c304"},"vehicle_type_id":"4","last_reported":1768345897,"current_range_meters":5600,"station_id":"","pricing_plan_id":"cebpf4jnsgd1na2vs0mg"},{"bike_id":"35849305-954b-4864-bd14-c9f086ede345","system_id":"levelo_inurba_marseille","lat":43.28272,"lon":5.3507,"is_reserved":false,"is_disabled":false,"rental_uris":{"android":"levelo://app?vid=35849305-954b-4864-bd14-c9f086ede345","ios":"levelo://app?vid=35849305-954b-4864-bd14-c9f086ede345"},"vehicle_type_id":"4","last_reported":1768345897,"current_range_meters":5600,"station_id":"ce4bhbp2rcd13ifvqerg","pricing_plan_id":"cebpf4jnsgd1na2vs0mg"},{"bike_id":"eb384781-afa8-484f-852e-25e105da12d7","system_id":"levelo_inurba_marseille","lat":43.319968,"lon":5.381663,"is_reserved":false,"is_disabled":false,"rental_uris":{"android":"levelo://app?vid=eb384781-afa8-484f-852e-25e105da12d7","ios":"levelo://app?vid=eb384781-afa8-484f-852e-25e105da12d7"},"vehicle_type_id":"4","last_reported":1768345897,"current_range_meters":5600,"station_id":"ce4bhr12rcd13ifvqhpg","pricing_plan_id":"cebpf4jnsgd1na2vs0mg"},{"bike_id":"7e40e0ef-d6ef-4fe4-9234-47330d6d1062","system_id":"levelo_inurba_marseille","lat":43.28721,"lon":5.36095,"is_reserved":false,"is_disabled":false,"rental_uris":{"android":"levelo://app?vid=7e40e0ef-d6ef-4fe4-9234-47330d6d1062","ios":"levelo://app?vid=7e40e0ef-d6ef-4fe4-9234-47330d6d1062"},"vehicle_type_id":"4","last_reported":1768345897,"current_range_meters":5600,"station_id":"cki0cbj6b192h4jlfktg","pricing_plan_id":"cebpf4jnsgd1na2vs0mg"},{"bike_id":"bee2231a-aedd-4f8a-ae11-883f123d575e","system_id":"levelo_inurba_marseille","lat":43.31221,"lon":5.38168,"is_reserved":false,"is_disabled":false,"rental_uris":{"android":"levelo://app?vid=bee2231a-aedd-4f8a-ae11-883f123d575e","ios":"levelo://app?vid=bee2231a-aedd-4f8a-ae11-883f123d575e"},"vehicle_type_id":"4","last_reported":1768345897,"current_range_meters":5600,"station_id":"","pricing_plan_id":"cebpf4jnsgd1na2vs0mg"},{"bike_id":"55babbbe-89a8-4f92-96cf-6569fc3f4c24","system_id":"levelo_inurba_marseille","lat":43.24395,"lon":5.3706,"is_reserved":false,"is_disabled":false,"rental_uris":{"android":"levelo://app?vid=55babbbe-89a8-4f92-96cf-6569fc3f4c24","ios":"levelo://app?vid=55babbbe-89a8-4f92-96cf-6569fc3f4c24"},"vehicle_type_id":"4","last_reported":1768345897,"current_range_meters":6000,"station_id":"ce4bhhh2rcd13ifvqfk0","pricing_plan_id":"cebpf4jnsgd1na2vs0mg"},{"bike_id":"a947621c-cc32-4c57-86c8-37a227c68519","system_id":"levelo_inurba_marseille","lat":43.25856,"lon":5.39913,"is_reserved":false,"is_disabled":false,"rental_uris":{"android":"levelo://app?vid=a947621c-cc32-4c57-86c8-37a227c68519","ios":"levelo://app?vid=a947621c-cc32-4c57-86c8-37a227c68519"},"vehicle_type_id":"4","last_reported":1768345897,"current_range_meters":6000,"station_id":"ce4bhl92rcd13ifvqghg","pricing_plan_id":"cebpf4jnsgd1na2vs0mg"},{"bike_id":"9af6439d-78fa-4b0d-a1a0-dc05ff49244a","system_id":"levelo_inurba_marseille","lat":43.237848,"lon":5.366379,"is_reserved":false,"is_disabled":false,"rental_uris":{"android":"levelo://app?vid=9af6439d-78fa-4b0d-a1a0-dc05ff49244a","ios":"levelo://app?vid=9af6439d-78fa-4b0d-a1a0-dc05ff49244a"},"vehicle_type_id":"4","last_reported":1768345897,"current_range_meters":6000,"station_id":"st_d3nk18o9ro0c73en2l3g","pricing_plan_id":"cebpf4jnsgd1na2vs0mg"},{"bike_id":"ffcf206e-2a6e-4fc2-8998-7e22064b3e4e","system_id":"levelo_inurba_marseille","lat":43.295294,"lon":5.385488,"is_reserved":false,"is_disabled":false,"rental_uris":{"android":"levelo://app?vid=ffcf206e-2a6e-4fc2-8998-7e22064b3e4e","ios":"levelo://app?vid=ffcf206e-2a6e-4fc2-8998-7e22064b3e4e"},"vehicle_type_id":"4","last_reported":1768345897,"current_range_meters":6000,"station_id":"ce4bgih2rcd13ifvqba0","pricing_plan_id":"cebpf4jnsgd1na2vs0mg"},{"bike_id":"f38b4217-e7ce-4441-9531-2f1d1a856441","system_id":"levelo_inurba_marseille","lat":43.28331,"lon":5.38091,"is_reserved":false,"is_disabled":true,"rental_uris":{"android":"levelo://app?vid=f38b4217-e7ce-4441-9531-2f1d1a856441","ios":"levelo://app?vid=f38b4217-e7ce-4441-9531-2f1d1a856441"},"vehicle_type_id":"4","last_reported":1768345897,"current_range_meters":6000,"station_id":"ce4bh412rcd13ifvqdr0","pricing_plan_id":"cebpf4jnsgd1na2vs0mg"},{"bike_id":"20a71bbc-f3d8-4605-becc-461242584462","system_id":"levelo_inurba_marseille","lat":43.286115,"lon":5.351002,"is_reserved":false,"is_disabled":false,"rental_uris":{"android":"levelo://app?vid=20a71bbc-f3d8-4605-becc-461242584462","ios":"levelo://app?vid=20a71bbc-f3d8-4605-becc-461242584462"},"vehicle_type_id":"4","last_reported":1768345897,"current_range_meters":6000,"station_id":"ce4bhbh2rcd13ifvqepg","pricing_plan_id":"cebpf4jnsgd1na2vs0mg"},{"bike_id":"9b8d0707-b8a7-4fce-85db-4e69cfe95e28","system_id":"levelo_inurba_marseille","lat":43.29535,"lon":5.38561,"is_reserved":false,"is_disabled":false,"rental_uris":{"android":"levelo://app?vid=9b8d0707-b8a7-4fce-85db-4e69cfe95e28","ios":"levelo://app?vid=9b8d0707-b8a7-4fce-85db-4e69cfe95e28"},"vehicle_type_id":"4","last_reported":1768345897,"current_range_meters":6000,"station_id":"ce4bgih2rcd13ifvqba0","pricing_plan_id":"cebpf4jnsgd1na2vs0mg"},{"bike_id":"34809879-5c78-46b9-8640-8f0f333de3ff","system_id":"levelo_inurba_marseille","lat":43.2319,"lon":5.39996,"is_reserved":false,"is_disabled":false,"rental_uris":{"android":"levelo://app?vid=34809879-5c78-46b9-8640-8f0f333de3ff","ios":"levelo://app?vid=34809879-5c78-46b9-8640-8f0f333de3ff"},"vehicle_type_id":"4","last_reported":1768345897,"current_range_meters":6000,"station_id":"ce4bhn12rcd13ifvqgqg","pricing_plan_id":"cebpf4jnsgd1na2vs0mg"},{"bike_id":"ebb10861-12ff-4141-8d3f-f237f2035add","system_id":"levelo_inurba_marseille","lat":43.29973,"lon":5.37178,"is_reserved":false,"is_disabled":false,"rental_uris":{"android":"levelo://app?vid=ebb10861-12ff-4141-8d3f-f237f2035add","ios":"levelo://app?vid=ebb10861-12ff-4141-8d3f-f237f2035add"},"vehicle_type_id":"4","last_reported":1768345897,"current_range_meters":6000,"station_id":"ce4bgr92rcd13ifvqc7g","pricing_plan_id":"cebpf4jnsgd1na2vs0mg"},{"bike_id":"cafe9508-7db5-496a-a0cd-bcd349231be5","system_id":"levelo_inurba_marseille","lat":43.25501,"lon":5.37652,"is_reserved":false,"is_disabled":false,"rental_uris":{"android":"levelo://app?vid=cafe9508-7db5-496a-a0cd-bcd349231be5","ios":"levelo://app?vid=cafe9508-7db5-496a-a0cd-bcd349231be5"},"vehicle_type_id":"4","last_reported":1768345897,"current_range_meters":6000,"station_id":"ce4bhh12rcd13ifvqff0","pricing_plan_id":"cebpf4jnsgd1na2vs0mg"},{"bike_id":"406480d1-2e46-4200-b341-2710e906f838","system_id":"levelo_inurba_marseille","lat":43.29528,"lon":5.39396,"is_reserved":false,"is_disabled":false,"rental_uris":{"android":"levelo://app?vid=406480d1-2e46-4200-b341-2710e906f838","ios":"levelo://app?vid=406480d1-2e46-4200-b341-2710e906f838"},"vehicle_type_id":"4","last_reported":1768345897,"current_range_meters":6000,"station_id":"ce4bh292rcd13ifvqdf0","pricing_plan_id":"cebpf4jnsgd1na2vs0mg"},{"bike_id":"6688a629-7822-4dde-a1b1-aa24df94d1e6","system_id":"levelo_inurba_marseille","lat":43.31354,"lon":5.36705,"is_reserved":false,"is_disabled":true,"rental_uris":{"android":"levelo://app?vid=6688a629-7822-4dde-a1b1-aa24df94d1e6","ios":"levelo://app?vid=6688a629-7822-4dde-a1b1-aa24df94d1e6"},"vehicle_type_id":"4","last_reported":1768345897,"current_range_meters":6000,"station_id":"ce4bgr92rcd13ifvqc6g","pricing_plan_id":"cebpf4jnsgd1na2vs0mg"},{"bike_id":"1832814b-829e-495a-95fd-ec8a1973894a","system_id":"levelo_inurba_marseille","lat":43.25338,"lon":5.42133,"is_reserved":false,"is_disabled":false,"rental_uris":{"android":"levelo://app?vid=1832814b-829e-495a-95fd-ec8a1973894a","ios":"levelo://app?vid=1832814b-829e-495a-95fd-ec8a1973894a"},"vehicle_type_id":"4","last_reported":1768345897,"current_range_meters":6000,"station_id":"st_d2m65c5bi1j21697t3ng","pricing_plan_id":"cebpf4jnsgd1na2vs0mg"},{"bike_id":"e5bed33a-c967-4582-b052-7b806f8e7dff","system_id":"levelo_inurba_marseille","lat":43.28269,"lon":5.35072,"is_reserved":false,"is_disabled":false,"rental_uris":{"android":"levelo://app?vid=e5bed33a-c967-4582-b052-7b806f8e7dff","ios":"levelo://app?vid=e5bed33a-c967-4582-b052-7b806f8e7dff"},"vehicle_type_id":"4","last_reported":1768345897,"current_range_meters":6000,"station_id":"ce4bhbp2rcd13ifvqerg","pricing_plan_id":"cebpf4jnsgd1na2vs0mg"},{"bike_id":"cb7af7b5-a138-4db4-a330-74ad640aa6ec","system_id":"levelo_inurba_marseille","lat":43.27833,"lon":5.40756,"is_reserved":false,"is_disabled":false,"rental_uris":{"android":"levelo://app?vid=cb7af7b5-a138-4db4-a330-74ad640aa6ec","ios":"levelo://app?vid=cb7af7b5-a138-4db4-a330-74ad640aa6ec"},"vehicle_type_id":"4","last_reported":1768345897,"current_range_meters":6000,"station_id":"ce4bhnh2rcd13ifvqgtg","pricing_plan_id":"cebpf4jnsgd1na2vs0mg"},{"bike_id":"877508b3-9095-4431-8056-dd6da7db4ee4","system_id":"levelo_inurba_marseille","lat":43.28529,"lon":5.44135,"is_reserved":false,"is_disabled":false,"rental_uris":{"android":"levelo://app?vid=877508b3-9095-4431-8056-dd6da7db4ee4","ios":"levelo://app?vid=877508b3-9095-4431-8056-dd6da7db4ee4"},"vehicle_type_id":"4","last_reported":1768345897,"current_range_meters":6000,"station_id":"st_d3j3df2ikq2c7380ej80","pricing_plan_id":"cebpf4jnsgd1na2vs0mg"},{"bike_id":"d97e0ede-3940-40ea-9e91-339dcd403227","system_id":"levelo_inurba_marseille","lat":43.25726,"lon":5.41105,"is_reserved":false,"is_disabled":false,"rental_uris":{"android":"levelo://app?vid=d97e0ede-3940-40ea-9e91-339dcd403227","ios":"levelo://app?vid=d97e0ede-3940-40ea-9e91-339dcd403227"},"vehicle_type_id":"4","last_reported":1768345897,"current_range_meters":6000,"station_id":"ce4bhkp2rcd13ifvqgd0","pricing_plan_id":"cebpf4jnsgd1na2vs0mg"},{"bike_id":"fc4fcff7-fb7c-4f38-b895-208ac0f092fe","system_id":"levelo_inurba_marseille","lat":43.26924,"lon":5.38915,"is_reserved":false,"is_disabled":false,"rental_uris":{"android":"levelo://app?vid=fc4fcff7-fb7c-4f38-b895-208ac0f092fe","ios":"levelo://app?vid=fc4fcff7-fb7c-4f38-b895-208ac0f092fe"},"vehicle_type_id":"4","last_reported":1768345897,"current_range_meters":6000,"station_id":"ce4bhhh2rcd13ifvqfl0","pricing_plan_id":"cebpf4jnsgd1na2vs0mg"},{"bike_id":"37f478a4-02ba-45f2-a4d6-fdcdc6b39bc8","system_id":"levelo_inurba_marseille","lat":43.28824,"lon":5.42629,"is_reserved":false,"is_disabled":false,"rental_uris":{"android":"levelo://app?vid=37f478a4-02ba-45f2-a4d6-fdcdc6b39bc8","ios":"levelo://app?vid=37f478a4-02ba-45f2-a4d6-fdcdc6b39bc8"},"vehicle_type_id":"4","last_reported":1768345897,"current_range_meters":6000,"station_id":"","pricing_plan_id":"cebpf4jnsgd1na2vs0mg"},{"bike_id":"7dabb483-c18f-4d4c-a34b-d8d68c7b623e","system_id":"levelo_inurba_marseille","lat":43.27817,"lon":5.40705,"is_reserved":false,"is_disabled":false,"rental_uris":{"android":"levelo://app?vid=7dabb483-c18f-4d4c-a34b-d8d68c7b623e","ios":"levelo://app?vid=7dabb483-c18f-4d4c-a34b-d8d68c7b623e"},"vehicle_type_id":"4","last_reported":1768345897,"current_range_meters":6000,"station_id":"ce4bhnh2rcd13ifvqgtg","pricing_plan_id":"cebpf4jnsgd1na2vs0mg"},{"bike_id":"d12a5c37-df8a-440d-b99b-49d121d9a484","system_id":"levelo_inurba_marseille","lat":43.22932,"lon":5.35384,"is_reserved":false,"is_disabled":false,"rental_uris":{"android":"levelo://app?vid=d12a5c37-df8a-440d-b99b-49d121d9a484","ios":"levelo://app?vid=d12a5c37-df8a-440d-b99b-49d121d9a484"},"vehicle_type_id":"4","last_reported":1768345897,"current_range_meters":6000,"station_id":"cpo3532slgdg3j2ikp40","pricing_plan_id":"cebpf4jnsgd1na2vs0mg"},{"bike_id":"922fbe22-d248-4b3a-be8e-b639220b9a60","system_id":"levelo_inurba_marseille","lat":43.295301,"lon":5.385531,"is_reserved":false,"is_disabled":false,"rental_uris":{"android":"levelo://app?vid=922fbe22-d248-4b3a-be8e-b639220b9a60","ios":"levelo://app?vid=922fbe22-d248-4b3a-be8e-b639220b9a60"},"vehicle_type_id":"4","last_reported":1768345897,"current_range_meters":6000,"station_id":"","pricing_plan_id":"cebpf4jnsgd1na2vs0mg"},{"bike_id":"b18ac3c9-14e5-4efa-9da9-02ee070d0040","system_id":"levelo_inurba_marseille","lat":43.30889,"lon":5.39647,"is_reserved":false,"is_disabled":false,"rental_uris":{"android":"levelo://app?vid=b18ac3c9-14e5-4efa-9da9-02ee070d0040","ios":"levelo://app?vid=b18ac3c9-14e5-4efa-9da9-02ee070d0040"},"vehicle_type_id":"4","last_reported":1768345897,"current_range_meters":6000,"station_id":"ce4bh012rcd13ifvqcv0","pricing_plan_id":"cebpf4jnsgd1na2vs0mg"},{"bike_id":"6ef5d41b-b55b-4026-8fd2-59af13c1070d","system_id":"levelo_inurba_marseille","lat":43.25084,"lon":5.39506,"is_reserved":false,"is_disabled":false,"rental_uris":{"android":"levelo://app?vid=6ef5d41b-b55b-4026-8fd2-59af13c1070d","ios":"levelo://app?vid=6ef5d41b-b55b-4026-8fd2-59af13c1070d"},"vehicle_type_id":"4","last_reported":1768345897,"current_range_meters":6000,"station_id":"ce4bhm12rcd13ifvqgkg","pricing_plan_id":"cebpf4jnsgd1na2vs0mg"},{"bike_id":"f44e7fc0-57ad-4c5c-87c8-d57ce9d37a8a","system_id":"levelo_inurba_marseille","lat":43.26208,"lon":5.37466,"is_reserved":false,"is_disabled":false,"rental_uris":{"android":"levelo://app?vid=f44e7fc0-57ad-4c5c-87c8-d57ce9d37a8a","ios":"levelo://app?vid=f44e7fc0-57ad-4c5c-87c8-d57ce9d37a8a"},"vehicle_type_id":"4","last_reported":1768345897,"current_range_meters":6000,"station_id":"ce4bhgp2rcd13ifvqfc0","pricing_plan_id":"cebpf4jnsgd1na2vs0mg"},{"bike_id":"a9ceab4f-7363-474c-a0e0-4e83cf033539","system_id":"levelo_inurba_marseille","lat":43.28915,"lon":5.36602,"is_reserved":false,"is_disabled":false,"rental_uris":{"android":"levelo://app?vid=a9ceab4f-7363-474c-a0e0-4e83cf033539","ios":"levelo://app?vid=a9ceab4f-7363-474c-a0e0-4e83cf033539"},"vehicle_type_id":"4","last_reported":1768345897,"current_range_meters":6400,"station_id":"ce4bhap2rcd13ifvqek0","pricing_plan_id":"cebpf4jnsgd1na2vs0mg"},{"bike_id":"7aebede3-29e7-422e-9949-e6406848b636","system_id":"levelo_inurba_marseille","lat":43.25107,"lon":5.40346,"is_reserved":false,"is_disabled":false,"rental_uris":{"android":"levelo://app?vid=7aebede3-29e7-422e-9949-e6406848b636","ios":"levelo://app?vid=7aebede3-29e7-422e-9949-e6406848b636"},"vehicle_type_id":"4","last_reported":1768345897,"current_range_meters":6400,"station_id":"ce4bhlh2rcd13ifvqgig","pricing_plan_id":"cebpf4jnsgd1na2vs0mg"},{"bike_id":"1801c6f9-0c65-4e78-bbf2-c91fed55b8f3","system_id":"levelo_inurba_marseille","lat":43.26213,"lon":5.37457,"is_reserved":false,"is_disabled":false,"rental_uris":{"android":"levelo://app?vid=1801c6f9-0c65-4e78-bbf2-c91fed55b8f3","ios":"levelo://app?vid=1801c6f9-0c65-4e78-bbf2-c91fed55b8f3"},"vehicle_type_id":"4","last_reported":1768345897,"current_range_meters":6400,"station_id":"ce4bhgp2rcd13ifvqfc0","pricing_plan_id":"cebpf4jnsgd1na2vs0mg"},{"bike_id":"d5631623-b7c5-441a-88be-2ea0b237f4ae","system_id":"levelo_inurba_marseille","lat":43.280943,"lon":5.378253,"is_reserved":false,"is_disabled":false,"rental_uris":{"android":"levelo://app?vid=d5631623-b7c5-441a-88be-2ea0b237f4ae","ios":"levelo://app?vid=d5631623-b7c5-441a-88be-2ea0b237f4ae"},"vehicle_type_id":"4","last_reported":1768345897,"current_range_meters":6400,"station_id":"ce4bha12rcd13ifvqee0","pricing_plan_id":"cebpf4jnsgd1na2vs0mg"},{"bike_id":"d3adc42d-0576-4954-8492-720260568653","system_id":"levelo_inurba_marseille","lat":43.246418,"lon":5.388921,"is_reserved":false,"is_disabled":false,"rental_uris":{"android":"levelo://app?vid=d3adc42d-0576-4954-8492-720260568653","ios":"levelo://app?vid=d3adc42d-0576-4954-8492-720260568653"},"vehicle_type_id":"4","last_reported":1768345897,"current_range_meters":6400,"station_id":"ce4bhg12rcd13ifvqf60","pricing_plan_id":"cebpf4jnsgd1na2vs0mg"},{"bike_id":"af70d5d8-cc8e-41b6-9eb9-8713fe60ffd1","system_id":"levelo_inurba_marseille","lat":43.24991,"lon":5.3894,"is_reserved":false,"is_disabled":false,"rental_uris":{"android":"levelo://app?vid=af70d5d8-cc8e-41b6-9eb9-8713fe60ffd1","ios":"levelo://app?vid=af70d5d8-cc8e-41b6-9eb9-8713fe60ffd1"},"vehicle_type_id":"4","last_reported":1768345897,"current_range_meters":6400,"station_id":"ce4bhgp2rcd13ifvqfd0","pricing_plan_id":"cebpf4jnsgd1na2vs0mg"},{"bike_id":"8a7b85d3-c7d2-4196-b1ab-690364287dcf","system_id":"levelo_inurba_marseille","lat":43.31353,"lon":5.36722,"is_reserved":false,"is_disabled":false,"rental_uris":{"android":"levelo://app?vid=8a7b85d3-c7d2-4196-b1ab-690364287dcf","ios":"levelo://app?vid=8a7b85d3-c7d2-4196-b1ab-690364287dcf"},"vehicle_type_id":"4","last_reported":1768345897,"current_range_meters":6400,"station_id":"ce4bgr92rcd13ifvqc6g","pricing_plan_id":"cebpf4jnsgd1na2vs0mg"},{"bike_id":"b945bd28-a3b4-4961-a0bf-743fe57cc1a5","system_id":"levelo_inurba_marseille","lat":43.29899,"lon":5.4365,"is_reserved":false,"is_disabled":false,"rental_uris":{"android":"levelo://app?vid=b945bd28-a3b4-4961-a0bf-743fe57cc1a5","ios":"levelo://app?vid=b945bd28-a3b4-4961-a0bf-743fe57cc1a5"},"vehicle_type_id":"4","last_reported":1768345897,"current_range_meters":6400,"station_id":"ce4bhpp2rcd13ifvqhfg","pricing_plan_id":"cebpf4jnsgd1na2vs0mg"},{"bike_id":"237139e5-7cf5-40f4-8479-c845f3ba6a43","system_id":"levelo_inurba_marseille","lat":43.29439,"lon":5.38618,"is_reserved":false,"is_disabled":false,"rental_uris":{"android":"levelo://app?vid=237139e5-7cf5-40f4-8479-c845f3ba6a43","ios":"levelo://app?vid=237139e5-7cf5-40f4-8479-c845f3ba6a43"},"vehicle_type_id":"4","last_reported":1768345897,"current_range_meters":6400,"station_id":"","pricing_plan_id":"cebpf4jnsgd1na2vs0mg"},{"bike_id":"b41f9551-ae47-4da7-a60d-f3352e00b4ad","system_id":"levelo_inurba_marseille","lat":43.28481,"lon":5.48382,"is_reserved":false,"is_disabled":false,"rental_uris":{"android":"levelo://app?vid=b41f9551-ae47-4da7-a60d-f3352e00b4ad","ios":"levelo://app?vid=b41f9551-ae47-4da7-a60d-f3352e00b4ad"},"vehicle_type_id":"4","last_reported":1768345897,"current_range_meters":6400,"station_id":"","pricing_plan_id":"cebpf4jnsgd1na2vs0mg"},{"bike_id":"0b7fcce3-5957-4ba3-a942-4767ab10e88d","system_id":"levelo_inurba_marseille","lat":43.30131,"lon":5.39891,"is_reserved":false,"is_disabled":false,"rental_uris":{"android":"levelo://app?vid=0b7fcce3-5957-4ba3-a942-4767ab10e88d","ios":"levelo://app?vid=0b7fcce3-5957-4ba3-a942-4767ab10e88d"},"vehicle_type_id":"4","last_reported":1768345897,"current_range_meters":6400,"station_id":"ce4bh0h2rcd13ifvqd40","pricing_plan_id":"cebpf4jnsgd1na2vs0mg"},{"bike_id":"19acb0d9-5641-4610-b2b2-7ba868c5f563","system_id":"levelo_inurba_marseille","lat":43.23955,"lon":5.36631,"is_reserved":false,"is_disabled":false,"rental_uris":{"android":"levelo://app?vid=19acb0d9-5641-4610-b2b2-7ba868c5f563","ios":"levelo://app?vid=19acb0d9-5641-4610-b2b2-7ba868c5f563"},"vehicle_type_id":"4","last_reported":1768345897,"current_range_meters":6400,"station_id":"ce4bhi12rcd13ifvqfp0","pricing_plan_id":"cebpf4jnsgd1na2vs0mg"},{"bike_id":"68ea345c-c604-444c-8946-fc15ca6e3748","system_id":"levelo_inurba_marseille","lat":43.2817,"lon":5.42668,"is_reserved":false,"is_disabled":false,"rental_uris":{"android":"levelo://app?vid=68ea345c-c604-444c-8946-fc15ca6e3748","ios":"levelo://app?vid=68ea345c-c604-444c-8946-fc15ca6e3748"},"vehicle_type_id":"4","last_reported":1768345897,"current_range_meters":6400,"station_id":"ce4bhnh2rcd13ifvqgug","pricing_plan_id":"cebpf4jnsgd1na2vs0mg"},{"bike_id":"39becb68-37d2-4fe5-af83-65d5813b987b","system_id":"levelo_inurba_marseille","lat":43.32509,"lon":5.36871,"is_reserved":false,"is_disabled":false,"rental_uris":{"android":"levelo://app?vid=39becb68-37d2-4fe5-af83-65d5813b987b","ios":"levelo://app?vid=39becb68-37d2-4fe5-af83-65d5813b987b"},"vehicle_type_id":"4","last_reported":1768345897,"current_range_meters":6400,"station_id":"","pricing_plan_id":"cebpf4jnsgd1na2vs0mg"},{"bike_id":"3655a9f7-901b-4885-8038-e7046951f14d","system_id":"levelo_inurba_marseille","lat":43.29751,"lon":5.42773,"is_reserved":false,"is_disabled":false,"rental_uris":{"android":"levelo://app?vid=3655a9f7-901b-4885-8038-e7046951f14d","ios":"levelo://app?vid=3655a9f7-901b-4885-8038-e7046951f14d"},"vehicle_type_id":"4","last_reported":1768345897,"current_range_meters":6400,"station_id":"st_d3md5207bmas73dh9klg","pricing_plan_id":"cebpf4jnsgd1na2vs0mg"},{"bike_id":"1f93f595-e601-4fc1-8ef1-644d261550d1","system_id":"levelo_inurba_marseille","lat":43.28436,"lon":5.39189,"is_reserved":false,"is_disabled":false,"rental_uris":{"android":"levelo://app?vid=1f93f595-e601-4fc1-8ef1-644d261550d1","ios":"levelo://app?vid=1f93f595-e601-4fc1-8ef1-644d261550d1"},"vehicle_type_id":"4","last_reported":1768345897,"current_range_meters":6400,"station_id":"ce4bhoh2rcd13ifvqh5g","pricing_plan_id":"cebpf4jnsgd1na2vs0mg"},{"bike_id":"1104f587-3777-4d17-9b58-b6d053090d96","system_id":"levelo_inurba_marseille","lat":43.23195,"lon":5.35564,"is_reserved":false,"is_disabled":false,"rental_uris":{"android":"levelo://app?vid=1104f587-3777-4d17-9b58-b6d053090d96","ios":"levelo://app?vid=1104f587-3777-4d17-9b58-b6d053090d96"},"vehicle_type_id":"4","last_reported":1768345897,"current_range_meters":6400,"station_id":"ce4bhu92rcd13ifvqi70","pricing_plan_id":"cebpf4jnsgd1na2vs0mg"},{"bike_id":"b2bb753f-6afc-43e0-b7c9-3ff5664e8b82","system_id":"levelo_inurba_marseille","lat":43.31165,"lon":5.38711,"is_reserved":false,"is_disabled":false,"rental_uris":{"android":"levelo://app?vid=b2bb753f-6afc-43e0-b7c9-3ff5664e8b82","ios":"levelo://app?vid=b2bb753f-6afc-43e0-b7c9-3ff5664e8b82"},"vehicle_type_id":"4","last_reported":1768345897,"current_range_meters":6400,"station_id":"ce4bgv12rcd13ifvqcp0","pricing_plan_id":"cebpf4jnsgd1na2vs0mg"},{"bike_id":"a8ecfe7d-195f-47f3-8f55-54974257ce75","system_id":"levelo_inurba_marseille","lat":43.26569,"lon":5.40316,"is_reserved":false,"is_disabled":false,"rental_uris":{"android":"levelo://app?vid=a8ecfe7d-195f-47f3-8f55-54974257ce75","ios":"levelo://app?vid=a8ecfe7d-195f-47f3-8f55-54974257ce75"},"vehicle_type_id":"4","last_reported":1768345897,"current_range_meters":6800,"station_id":"ce4bhmp2rcd13ifvqgng","pricing_plan_id":"cebpf4jnsgd1na2vs0mg"},{"bike_id":"46a89555-92a9-479b-942c-d81d038efa06","system_id":"levelo_inurba_marseille","lat":43.284627,"lon":5.358913,"is_reserved":false,"is_disabled":false,"rental_uris":{"android":"levelo://app?vid=46a89555-92a9-479b-942c-d81d038efa06","ios":"levelo://app?vid=46a89555-92a9-479b-942c-d81d038efa06"},"vehicle_type_id":"4","last_reported":1768345897,"current_range_meters":6800,"station_id":"ce4bhah2rcd13ifvqei0","pricing_plan_id":"cebpf4jnsgd1na2vs0mg"},{"bike_id":"2f317efe-a01b-468a-9036-21dfc4cc3358","system_id":"levelo_inurba_marseille","lat":43.25826,"lon":5.39441,"is_reserved":false,"is_disabled":false,"rental_uris":{"android":"levelo://app?vid=2f317efe-a01b-468a-9036-21dfc4cc3358","ios":"levelo://app?vid=2f317efe-a01b-468a-9036-21dfc4cc3358"},"vehicle_type_id":"4","last_reported":1768345897,"current_range_meters":6800,"station_id":"ce4bhip2rcd13ifvqft0","pricing_plan_id":"cebpf4jnsgd1na2vs0mg"},{"bike_id":"7aaa5463-7c58-4e08-89ff-e62dd5259471","system_id":"levelo_inurba_marseille","lat":43.24804,"lon":5.37453,"is_reserved":false,"is_disabled":false,"rental_uris":{"android":"levelo://app?vid=7aaa5463-7c58-4e08-89ff-e62dd5259471","ios":"levelo://app?vid=7aaa5463-7c58-4e08-89ff-e62dd5259471"},"vehicle_type_id":"4","last_reported":1768345897,"current_range_meters":6800,"station_id":"ce4bhgh2rcd13ifvqfb0","pricing_plan_id":"cebpf4jnsgd1na2vs0mg"},{"bike_id":"23f90f90-4766-44cf-a3ad-ecda2307978a","system_id":"levelo_inurba_marseille","lat":43.26053,"lon":5.39394,"is_reserved":false,"is_disabled":false,"rental_uris":{"android":"levelo://app?vid=23f90f90-4766-44cf-a3ad-ecda2307978a","ios":"levelo://app?vid=23f90f90-4766-44cf-a3ad-ecda2307978a"},"vehicle_type_id":"4","last_reported":1768345897,"current_range_meters":6800,"station_id":"ce4bhh92rcd13ifvqfj0","pricing_plan_id":"cebpf4jnsgd1na2vs0mg"},{"bike_id":"ea9769ab-39d8-4325-b701-f75eef547046","system_id":"levelo_inurba_marseille","lat":43.22533,"lon":5.34839,"is_reserved":false,"is_disabled":false,"rental_uris":{"android":"levelo://app?vid=ea9769ab-39d8-4325-b701-f75eef547046","ios":"levelo://app?vid=ea9769ab-39d8-4325-b701-f75eef547046"},"vehicle_type_id":"4","last_reported":1768345897,"current_range_meters":6800,"station_id":"st_cvj5dfep6f1abm77gieg","pricing_plan_id":"cebpf4jnsgd1na2vs0mg"},{"bike_id":"8a689e49-1449-46e9-9d9f-6cee66305474","system_id":"levelo_inurba_marseille","lat":43.292566,"lon":5.409238,"is_reserved":false,"is_disabled":true,"rental_uris":{"android":"levelo://app?vid=8a689e49-1449-46e9-9d9f-6cee66305474","ios":"levelo://app?vid=8a689e49-1449-46e9-9d9f-6cee66305474"},"vehicle_type_id":"4","last_reported":1768345897,"current_range_meters":6800,"station_id":"ce4bh192rcd13ifvqdc0","pricing_plan_id":"cebpf4jnsgd1na2vs0mg"},{"bike_id":"0b0bd9e8-0e91-4cd7-8087-c13549508128","system_id":"levelo_inurba_marseille","lat":43.28537,"lon":5.44096,"is_reserved":false,"is_disabled":false,"rental_uris":{"android":"levelo://app?vid=0b0bd9e8-0e91-4cd7-8087-c13549508128","ios":"levelo://app?vid=0b0bd9e8-0e91-4cd7-8087-c13549508128"},"vehicle_type_id":"4","last_reported":1768345897,"current_range_meters":6800,"station_id":"st_d3j3df2ikq2c7380ej80","pricing_plan_id":"cebpf4jnsgd1na2vs0mg"},{"bike_id":"c7abc581-c1e2-4eb4-888d-9d1cf33dbdd8","system_id":"levelo_inurba_marseille","lat":43.250879,"lon":5.395081,"is_reserved":false,"is_disabled":false,"rental_uris":{"android":"levelo://app?vid=c7abc581-c1e2-4eb4-888d-9d1cf33dbdd8","ios":"levelo://app?vid=c7abc581-c1e2-4eb4-888d-9d1cf33dbdd8"},"vehicle_type_id":"4","last_reported":1768345897,"current_range_meters":6800,"station_id":"ce4bhm12rcd13ifvqgkg","pricing_plan_id":"cebpf4jnsgd1na2vs0mg"},{"bike_id":"c378b607-06dc-4c96-8bb4-a2eab49c97bb","system_id":"levelo_inurba_marseille","lat":43.26692,"lon":5.38268,"is_reserved":false,"is_disabled":false,"rental_uris":{"android":"levelo://app?vid=c378b607-06dc-4c96-8bb4-a2eab49c97bb","ios":"levelo://app?vid=c378b607-06dc-4c96-8bb4-a2eab49c97bb"},"vehicle_type_id":"4","last_reported":1768345897,"current_range_meters":6800,"station_id":"ce4bhg92rcd13ifvqf90","pricing_plan_id":"cebpf4jnsgd1na2vs0mg"},{"bike_id":"8095316e-1f14-4289-a6c9-f7c766e6f4c5","system_id":"levelo_inurba_marseille","lat":43.28454,"lon":5.35885,"is_reserved":false,"is_disabled":false,"rental_uris":{"android":"levelo://app?vid=8095316e-1f14-4289-a6c9-f7c766e6f4c5","ios":"levelo://app?vid=8095316e-1f14-4289-a6c9-f7c766e6f4c5"},"vehicle_type_id":"4","last_reported":1768345897,"current_range_meters":6800,"station_id":"ce4bhah2rcd13ifvqei0","pricing_plan_id":"cebpf4jnsgd1na2vs0mg"},{"bike_id":"4623e1d7-b2a6-4b7e-8d1b-a9f013794edc","system_id":"levelo_inurba_marseille","lat":43.28148,"lon":5.42643,"is_reserved":false,"is_disabled":false,"rental_uris":{"android":"levelo://app?vid=4623e1d7-b2a6-4b7e-8d1b-a9f013794edc","ios":"levelo://app?vid=4623e1d7-b2a6-4b7e-8d1b-a9f013794edc"},"vehicle_type_id":"4","last_reported":1768345897,"current_range_meters":6800,"station_id":"ce4bhnh2rcd13ifvqgug","pricing_plan_id":"cebpf4jnsgd1na2vs0mg"},{"bike_id":"7af13e9c-1761-41d0-87e5-35c03d8aedd1","system_id":"levelo_inurba_marseille","lat":43.310552,"lon":5.371659,"is_reserved":false,"is_disabled":false,"rental_uris":{"android":"levelo://app?vid=7af13e9c-1761-41d0-87e5-35c03d8aedd1","ios":"levelo://app?vid=7af13e9c-1761-41d0-87e5-35c03d8aedd1"},"vehicle_type_id":"4","last_reported":1768345897,"current_range_meters":6800,"station_id":"","pricing_plan_id":"cebpf4jnsgd1na2vs0mg"},{"bike_id":"7565d9e4-5737-444e-a6cb-70b726a9685a","system_id":"levelo_inurba_marseille","lat":43.24403,"lon":5.37078,"is_reserved":false,"is_disabled":false,"rental_uris":{"android":"levelo://app?vid=7565d9e4-5737-444e-a6cb-70b726a9685a","ios":"levelo://app?vid=7565d9e4-5737-444e-a6cb-70b726a9685a"},"vehicle_type_id":"4","last_reported":1768345897,"current_range_meters":6800,"station_id":"ce4bhhh2rcd13ifvqfk0","pricing_plan_id":"cebpf4jnsgd1na2vs0mg"},{"bike_id":"1a58bed3-1661-4da4-8d4b-ecee0c3b8636","system_id":"levelo_inurba_marseille","lat":43.30298,"lon":5.39208,"is_reserved":false,"is_disabled":false,"rental_uris":{"android":"levelo://app?vid=1a58bed3-1661-4da4-8d4b-ecee0c3b8636","ios":"levelo://app?vid=1a58bed3-1661-4da4-8d4b-ecee0c3b8636"},"vehicle_type_id":"4","last_reported":1768345897,"current_range_meters":6800,"station_id":"ce4bgkh2rcd13ifvqbk0","pricing_plan_id":"cebpf4jnsgd1na2vs0mg"},{"bike_id":"68765091-0d7e-498b-839d-d7fbbbb567bd","system_id":"levelo_inurba_marseille","lat":43.27911,"lon":5.39584,"is_reserved":false,"is_disabled":false,"rental_uris":{"android":"levelo://app?vid=68765091-0d7e-498b-839d-d7fbbbb567bd","ios":"levelo://app?vid=68765091-0d7e-498b-839d-d7fbbbb567bd"},"vehicle_type_id":"4","last_reported":1768345897,"current_range_meters":6800,"station_id":"ce4bhf92rcd13ifvqf40","pricing_plan_id":"cebpf4jnsgd1na2vs0mg"},{"bike_id":"99eb6c51-7f0f-4137-8b85-23f4caea2333","system_id":"levelo_inurba_marseille","lat":43.29893,"lon":5.3969,"is_reserved":false,"is_disabled":false,"rental_uris":{"android":"levelo://app?vid=99eb6c51-7f0f-4137-8b85-23f4caea2333","ios":"levelo://app?vid=99eb6c51-7f0f-4137-8b85-23f4caea2333"},"vehicle_type_id":"4","last_reported":1768345897,"current_range_meters":6800,"station_id":"ce4bh0h2rcd13ifvqd50","pricing_plan_id":"cebpf4jnsgd1na2vs0mg"},{"bike_id":"5d21c596-50a9-4a98-8678-377ed372531b","system_id":"levelo_inurba_marseille","lat":43.23805,"lon":5.36631,"is_reserved":false,"is_disabled":false,"rental_uris":{"android":"levelo://app?vid=5d21c596-50a9-4a98-8678-377ed372531b","ios":"levelo://app?vid=5d21c596-50a9-4a98-8678-377ed372531b"},"vehicle_type_id":"4","last_reported":1768345897,"current_range_meters":6800,"station_id":"st_d3nk18o9ro0c73en2l3g","pricing_plan_id":"cebpf4jnsgd1na2vs0mg"},{"bike_id":"a6e3d21f-46ea-4701-a3b7-6e4041520897","system_id":"levelo_inurba_marseille","lat":43.3132,"lon":5.39698,"is_reserved":false,"is_disabled":false,"rental_uris":{"android":"levelo://app?vid=a6e3d21f-46ea-4701-a3b7-6e4041520897","ios":"levelo://app?vid=a6e3d21f-46ea-4701-a3b7-6e4041520897"},"vehicle_type_id":"4","last_reported":1768345897,"current_range_meters":6800,"station_id":"ce4bgvp2rcd13ifvqcu0","pricing_plan_id":"cebpf4jnsgd1na2vs0mg"},{"bike_id":"e0f65779-938e-4872-9667-1bf32fb3d3b4","system_id":"levelo_inurba_marseille","lat":43.28449,"lon":5.3588,"is_reserved":false,"is_disabled":false,"rental_uris":{"android":"levelo://app?vid=e0f65779-938e-4872-9667-1bf32fb3d3b4","ios":"levelo://app?vid=e0f65779-938e-4872-9667-1bf32fb3d3b4"},"vehicle_type_id":"4","last_reported":1768345897,"current_range_meters":6800,"station_id":"ce4bhah2rcd13ifvqei0","pricing_plan_id":"cebpf4jnsgd1na2vs0mg"},{"bike_id":"dce34ae9-6b54-4567-9cc3-a453de46352f","system_id":"levelo_inurba_marseille","lat":43.23786,"lon":5.36648,"is_reserved":false,"is_disabled":false,"rental_uris":{"android":"levelo://app?vid=dce34ae9-6b54-4567-9cc3-a453de46352f","ios":"levelo://app?vid=dce34ae9-6b54-4567-9cc3-a453de46352f"},"vehicle_type_id":"4","last_reported":1768345897,"current_range_meters":6800,"station_id":"st_d3nk18o9ro0c73en2l3g","pricing_plan_id":"cebpf4jnsgd1na2vs0mg"},{"bike_id":"ec6556c0-8771-44be-b1ce-12b0d62b8bfb","system_id":"levelo_inurba_marseille","lat":43.32908,"lon":5.39154,"is_reserved":false,"is_disabled":false,"rental_uris":{"android":"levelo://app?vid=ec6556c0-8771-44be-b1ce-12b0d62b8bfb","ios":"levelo://app?vid=ec6556c0-8771-44be-b1ce-12b0d62b8bfb"},"vehicle_type_id":"4","last_reported":1768345897,"current_range_meters":6800,"station_id":"","pricing_plan_id":"cebpf4jnsgd1na2vs0mg"},{"bike_id":"b523c110-d25e-4af1-b7ea-2ae80dfe757b","system_id":"levelo_inurba_marseille","lat":43.23776,"lon":5.36596,"is_reserved":false,"is_disabled":false,"rental_uris":{"android":"levelo://app?vid=b523c110-d25e-4af1-b7ea-2ae80dfe757b","ios":"levelo://app?vid=b523c110-d25e-4af1-b7ea-2ae80dfe757b"},"vehicle_type_id":"4","last_reported":1768345897,"current_range_meters":7200,"station_id":"st_d3nk18o9ro0c73en2l3g","pricing_plan_id":"cebpf4jnsgd1na2vs0mg"},{"bike_id":"18e7aed4-7cab-4e5f-b147-5c98f8a1e192","system_id":"levelo_inurba_marseille","lat":43.32353,"lon":5.3674,"is_reserved":false,"is_disabled":false,"rental_uris":{"android":"levelo://app?vid=18e7aed4-7cab-4e5f-b147-5c98f8a1e192","ios":"levelo://app?vid=18e7aed4-7cab-4e5f-b147-5c98f8a1e192"},"vehicle_type_id":"4","last_reported":1768345897,"current_range_meters":7200,"station_id":"ce4bhsh2rcd13ifvqi2g","pricing_plan_id":"cebpf4jnsgd1na2vs0mg"},{"bike_id":"4da4b9b5-8e34-4a21-a7eb-76e6a1792527","system_id":"levelo_inurba_marseille","lat":43.28245,"lon":5.43034,"is_reserved":false,"is_disabled":false,"rental_uris":{"android":"levelo://app?vid=4da4b9b5-8e34-4a21-a7eb-76e6a1792527","ios":"levelo://app?vid=4da4b9b5-8e34-4a21-a7eb-76e6a1792527"},"vehicle_type_id":"4","last_reported":1768345897,"current_range_meters":7200,"station_id":"","pricing_plan_id":"cebpf4jnsgd1na2vs0mg"},{"bike_id":"b7f4c54f-f481-4643-9c7b-e12e55533981","system_id":"levelo_inurba_marseille","lat":43.28439,"lon":5.37529,"is_reserved":false,"is_disabled":false,"rental_uris":{"android":"levelo://app?vid=b7f4c54f-f481-4643-9c7b-e12e55533981","ios":"levelo://app?vid=b7f4c54f-f481-4643-9c7b-e12e55533981"},"vehicle_type_id":"4","last_reported":1768345897,"current_range_meters":7200,"station_id":"ce4bh412rcd13ifvqds0","pricing_plan_id":"cebpf4jnsgd1na2vs0mg"},{"bike_id":"3dd7b7d9-0b0e-4881-8d48-ebe3f32e1b84","system_id":"levelo_inurba_marseille","lat":43.29877,"lon":5.39717,"is_reserved":false,"is_disabled":false,"rental_uris":{"android":"levelo://app?vid=3dd7b7d9-0b0e-4881-8d48-ebe3f32e1b84","ios":"levelo://app?vid=3dd7b7d9-0b0e-4881-8d48-ebe3f32e1b84"},"vehicle_type_id":"4","last_reported":1768345897,"current_range_meters":7200,"station_id":"ce4bh0h2rcd13ifvqd50","pricing_plan_id":"cebpf4jnsgd1na2vs0mg"},{"bike_id":"f9d9cca3-d351-4af5-a088-69fbf6da6e19","system_id":"levelo_inurba_marseille","lat":43.30481,"lon":5.38916,"is_reserved":false,"is_disabled":false,"rental_uris":{"android":"levelo://app?vid=f9d9cca3-d351-4af5-a088-69fbf6da6e19","ios":"levelo://app?vid=f9d9cca3-d351-4af5-a088-69fbf6da6e19"},"vehicle_type_id":"4","last_reported":1768345897,"current_range_meters":7200,"station_id":"","pricing_plan_id":"cebpf4jnsgd1na2vs0mg"},{"bike_id":"03161749-86db-45ff-8793-2e6b95b69b7a","system_id":"levelo_inurba_marseille","lat":43.25086,"lon":5.39511,"is_reserved":false,"is_disabled":false,"rental_uris":{"android":"levelo://app?vid=03161749-86db-45ff-8793-2e6b95b69b7a","ios":"levelo://app?vid=03161749-86db-45ff-8793-2e6b95b69b7a"},"vehicle_type_id":"4","last_reported":1768345897,"current_range_meters":7200,"station_id":"ce4bhm12rcd13ifvqgkg","pricing_plan_id":"cebpf4jnsgd1na2vs0mg"},{"bike_id":"bbb74105-3be2-48fe-95ba-d328ecd4aedb","system_id":"levelo_inurba_marseille","lat":43.246451,"lon":5.3889,"is_reserved":false,"is_disabled":false,"rental_uris":{"android":"levelo://app?vid=bbb74105-3be2-48fe-95ba-d328ecd4aedb","ios":"levelo://app?vid=bbb74105-3be2-48fe-95ba-d328ecd4aedb"},"vehicle_type_id":"4","last_reported":1768345897,"current_range_meters":7200,"station_id":"ce4bhg12rcd13ifvqf60","pricing_plan_id":"cebpf4jnsgd1na2vs0mg"},{"bike_id":"2aa88b9d-9dea-421d-9316-f9eede645848","system_id":"levelo_inurba_marseille","lat":43.24432,"lon":5.3709,"is_reserved":false,"is_disabled":false,"rental_uris":{"android":"levelo://app?vid=2aa88b9d-9dea-421d-9316-f9eede645848","ios":"levelo://app?vid=2aa88b9d-9dea-421d-9316-f9eede645848"},"vehicle_type_id":"4","last_reported":1768345897,"current_range_meters":7200,"station_id":"ce4bhhh2rcd13ifvqfk0","pricing_plan_id":"cebpf4jnsgd1na2vs0mg"},{"bike_id":"38f680ff-8497-4c90-904c-285114b4f7fb","system_id":"levelo_inurba_marseille","lat":43.3079,"lon":5.4352,"is_reserved":false,"is_disabled":false,"rental_uris":{"android":"levelo://app?vid=38f680ff-8497-4c90-904c-285114b4f7fb","ios":"levelo://app?vid=38f680ff-8497-4c90-904c-285114b4f7fb"},"vehicle_type_id":"4","last_reported":1768345897,"current_range_meters":7200,"station_id":"","pricing_plan_id":"cebpf4jnsgd1na2vs0mg"},{"bike_id":"edcf3188-4a6b-46e2-aa32-dc6a17ca3c7d","system_id":"levelo_inurba_marseille","lat":43.25583,"lon":5.38237,"is_reserved":false,"is_disabled":false,"rental_uris":{"android":"levelo://app?vid=edcf3188-4a6b-46e2-aa32-dc6a17ca3c7d","ios":"levelo://app?vid=edcf3188-4a6b-46e2-aa32-dc6a17ca3c7d"},"vehicle_type_id":"4","last_reported":1768345897,"current_range_meters":7200,"station_id":"ce4bhih2rcd13ifvqfs0","pricing_plan_id":"cebpf4jnsgd1na2vs0mg"},{"bike_id":"d9e8d64d-749f-4ce9-b275-b723d4415519","system_id":"levelo_inurba_marseille","lat":43.23183,"lon":5.39998,"is_reserved":false,"is_disabled":false,"rental_uris":{"android":"levelo://app?vid=d9e8d64d-749f-4ce9-b275-b723d4415519","ios":"levelo://app?vid=d9e8d64d-749f-4ce9-b275-b723d4415519"},"vehicle_type_id":"4","last_reported":1768345897,"current_range_meters":7200,"station_id":"ce4bhn12rcd13ifvqgqg","pricing_plan_id":"cebpf4jnsgd1na2vs0mg"},{"bike_id":"20dfd869-45e6-4006-9159-9978d938bbe1","system_id":"levelo_inurba_marseille","lat":43.337444,"lon":5.374475,"is_reserved":false,"is_disabled":false,"rental_uris":{"android":"levelo://app?vid=20dfd869-45e6-4006-9159-9978d938bbe1","ios":"levelo://app?vid=20dfd869-45e6-4006-9159-9978d938bbe1"},"vehicle_type_id":"4","last_reported":1768345897,"current_range_meters":7200,"station_id":"","pricing_plan_id":"cebpf4jnsgd1na2vs0mg"},{"bike_id":"3c3da866-b2d6-427c-b158-dfa88daa4967","system_id":"levelo_inurba_marseille","lat":43.30225,"lon":5.40036,"is_reserved":false,"is_disabled":false,"rental_uris":{"android":"levelo://app?vid=3c3da866-b2d6-427c-b158-dfa88daa4967","ios":"levelo://app?vid=3c3da866-b2d6-427c-b158-dfa88daa4967"},"vehicle_type_id":"4","last_reported":1768345897,"current_range_meters":7200,"station_id":"ce4bgvh2rcd13ifvqcs0","pricing_plan_id":"cebpf4jnsgd1na2vs0mg"},{"bike_id":"e2f7f7db-8117-41c3-8922-7691d948953c","system_id":"levelo_inurba_marseille","lat":43.31329,"lon":5.39701,"is_reserved":false,"is_disabled":false,"rental_uris":{"android":"levelo://app?vid=e2f7f7db-8117-41c3-8922-7691d948953c","ios":"levelo://app?vid=e2f7f7db-8117-41c3-8922-7691d948953c"},"vehicle_type_id":"4","last_reported":1768345897,"current_range_meters":7200,"station_id":"ce4bgvp2rcd13ifvqcu0","pricing_plan_id":"cebpf4jnsgd1na2vs0mg"},{"bike_id":"b924e7ec-3f26-4b20-8c98-f483bc56f156","system_id":"levelo_inurba_marseille","lat":43.34137,"lon":5.40893,"is_reserved":false,"is_disabled":false,"rental_uris":{"android":"levelo://app?vid=b924e7ec-3f26-4b20-8c98-f483bc56f156","ios":"levelo://app?vid=b924e7ec-3f26-4b20-8c98-f483bc56f156"},"vehicle_type_id":"4","last_reported":1768345897,"current_range_meters":7200,"station_id":"ce4bhqh2rcd13ifvqhlg","pricing_plan_id":"cebpf4jnsgd1na2vs0mg"},{"bike_id":"a31c8f9e-9708-4ea2-9e5d-05e3441bc85f","system_id":"levelo_inurba_marseille","lat":43.284775,"lon":5.484072,"is_reserved":false,"is_disabled":false,"rental_uris":{"android":"levelo://app?vid=a31c8f9e-9708-4ea2-9e5d-05e3441bc85f","ios":"levelo://app?vid=a31c8f9e-9708-4ea2-9e5d-05e3441bc85f"},"vehicle_type_id":"4","last_reported":1768345897,"current_range_meters":7200,"station_id":"","pricing_plan_id":"cebpf4jnsgd1na2vs0mg"},{"bike_id":"675fb3d9-7a46-4063-828e-03c3629d0f7f","system_id":"levelo_inurba_marseille","lat":43.31225,"lon":5.36855,"is_reserved":false,"is_disabled":false,"rental_uris":{"android":"levelo://app?vid=675fb3d9-7a46-4063-828e-03c3629d0f7f","ios":"levelo://app?vid=675fb3d9-7a46-4063-828e-03c3629d0f7f"},"vehicle_type_id":"4","last_reported":1768345897,"current_range_meters":7200,"station_id":"ce4bgl92rcd13ifvqbq0","pricing_plan_id":"cebpf4jnsgd1na2vs0mg"},{"bike_id":"5f3f7816-15b2-42e6-8301-73c7c01ce517","system_id":"levelo_inurba_marseille","lat":43.28456,"lon":5.37515,"is_reserved":false,"is_disabled":false,"rental_uris":{"android":"levelo://app?vid=5f3f7816-15b2-42e6-8301-73c7c01ce517","ios":"levelo://app?vid=5f3f7816-15b2-42e6-8301-73c7c01ce517"},"vehicle_type_id":"4","last_reported":1768345897,"current_range_meters":7200,"station_id":"ce4bh412rcd13ifvqds0","pricing_plan_id":"cebpf4jnsgd1na2vs0mg"},{"bike_id":"b4107cba-c1b7-4d06-81e6-bff689a5b7ef","system_id":"levelo_inurba_marseille","lat":43.29572,"lon":5.37506,"is_reserved":false,"is_disabled":false,"rental_uris":{"android":"levelo://app?vid=b4107cba-c1b7-4d06-81e6-bff689a5b7ef","ios":"levelo://app?vid=b4107cba-c1b7-4d06-81e6-bff689a5b7ef"},"vehicle_type_id":"4","last_reported":1768345897,"current_range_meters":8000,"station_id":"ce4bgh92rcd13ifvqb50","pricing_plan_id":"cebpf4jnsgd1na2vs0mg"},{"bike_id":"d8b52035-9107-4203-ba3b-8ab85229defc","system_id":"levelo_inurba_marseille","lat":43.25885,"lon":5.39923,"is_reserved":false,"is_disabled":true,"rental_uris":{"android":"levelo://app?vid=d8b52035-9107-4203-ba3b-8ab85229defc","ios":"levelo://app?vid=d8b52035-9107-4203-ba3b-8ab85229defc"},"vehicle_type_id":"4","last_reported":1768345897,"current_range_meters":8000,"station_id":"ce4bhl92rcd13ifvqghg","pricing_plan_id":"cebpf4jnsgd1na2vs0mg"},{"bike_id":"cff36d3a-a2a6-4fcb-ac92-f47e8ea4afef","system_id":"levelo_inurba_marseille","lat":43.28861,"lon":5.42512,"is_reserved":false,"is_disabled":false,"rental_uris":{"android":"levelo://app?vid=cff36d3a-a2a6-4fcb-ac92-f47e8ea4afef","ios":"levelo://app?vid=cff36d3a-a2a6-4fcb-ac92-f47e8ea4afef"},"vehicle_type_id":"4","last_reported":1768345897,"current_range_meters":8000,"station_id":"st_d3b462108ojc7389ooeg","pricing_plan_id":"cebpf4jnsgd1na2vs0mg"},{"bike_id":"3bc29ce5-0f8f-4c3f-b272-38b5a5740b30","system_id":"levelo_inurba_marseille","lat":43.29248,"lon":5.40903,"is_reserved":false,"is_disabled":false,"rental_uris":{"android":"levelo://app?vid=3bc29ce5-0f8f-4c3f-b272-38b5a5740b30","ios":"levelo://app?vid=3bc29ce5-0f8f-4c3f-b272-38b5a5740b30"},"vehicle_type_id":"4","last_reported":1768345897,"current_range_meters":8000,"station_id":"ce4bh192rcd13ifvqdc0","pricing_plan_id":"cebpf4jnsgd1na2vs0mg"},{"bike_id":"25c87b78-5b26-4fe6-a9bc-748ac1fc6751","system_id":"levelo_inurba_marseille","lat":43.280034,"lon":5.417236,"is_reserved":false,"is_disabled":false,"rental_uris":{"android":"levelo://app?vid=25c87b78-5b26-4fe6-a9bc-748ac1fc6751","ios":"levelo://app?vid=25c87b78-5b26-4fe6-a9bc-748ac1fc6751"},"vehicle_type_id":"4","last_reported":1768345897,"current_range_meters":8000,"station_id":"ce4bho12rcd13ifvqh1g","pricing_plan_id":"cebpf4jnsgd1na2vs0mg"},{"bike_id":"264ac823-d396-41a5-bfa4-93f6607b88fa","system_id":"levelo_inurba_marseille","lat":43.29481,"lon":5.38601,"is_reserved":false,"is_disabled":false,"rental_uris":{"android":"levelo://app?vid=264ac823-d396-41a5-bfa4-93f6607b88fa","ios":"levelo://app?vid=264ac823-d396-41a5-bfa4-93f6607b88fa"},"vehicle_type_id":"4","last_reported":1768345897,"current_range_meters":8000,"station_id":"","pricing_plan_id":"cebpf4jnsgd1na2vs0mg"},{"bike_id":"f49d0ce0-6e6e-47a1-947f-3b3cc7ef6c5b","system_id":"levelo_inurba_marseille","lat":43.30649,"lon":5.40072,"is_reserved":false,"is_disabled":false,"rental_uris":{"android":"levelo://app?vid=f49d0ce0-6e6e-47a1-947f-3b3cc7ef6c5b","ios":"levelo://app?vid=f49d0ce0-6e6e-47a1-947f-3b3cc7ef6c5b"},"vehicle_type_id":"4","last_reported":1768345897,"current_range_meters":8000,"station_id":"ce4bh112rcd13ifvqda0","pricing_plan_id":"cebpf4jnsgd1na2vs0mg"},{"bike_id":"5d753472-8af1-40a8-b93c-6901afeb049e","system_id":"levelo_inurba_marseille","lat":43.23746,"lon":5.3664,"is_reserved":false,"is_disabled":false,"rental_uris":{"android":"levelo://app?vid=5d753472-8af1-40a8-b93c-6901afeb049e","ios":"levelo://app?vid=5d753472-8af1-40a8-b93c-6901afeb049e"},"vehicle_type_id":"4","last_reported":1768345897,"current_range_meters":8000,"station_id":"st_d3nk18o9ro0c73en2l3g","pricing_plan_id":"cebpf4jnsgd1na2vs0mg"},{"bike_id":"83625783-81cb-462e-ba3a-883121be7b87","system_id":"levelo_inurba_marseille","lat":43.30796,"lon":5.38157,"is_reserved":false,"is_disabled":false,"rental_uris":{"android":"levelo://app?vid=83625783-81cb-462e-ba3a-883121be7b87","ios":"levelo://app?vid=83625783-81cb-462e-ba3a-883121be7b87"},"vehicle_type_id":"4","last_reported":1768345897,"current_range_meters":8000,"station_id":"ce4bgt12rcd13ifvqce0","pricing_plan_id":"cebpf4jnsgd1na2vs0mg"},{"bike_id":"8d8991c2-b7a5-408c-8480-5cec87d700c8","system_id":"levelo_inurba_marseille","lat":43.278,"lon":5.40677,"is_reserved":false,"is_disabled":false,"rental_uris":{"android":"levelo://app?vid=8d8991c2-b7a5-408c-8480-5cec87d700c8","ios":"levelo://app?vid=8d8991c2-b7a5-408c-8480-5cec87d700c8"},"vehicle_type_id":"4","last_reported":1768345897,"current_range_meters":8000,"station_id":"ce4bhnh2rcd13ifvqgtg","pricing_plan_id":"cebpf4jnsgd1na2vs0mg"},{"bike_id":"b4cd75b4-a1c3-475b-8113-d2eeee83c135","system_id":"levelo_inurba_marseille","lat":43.31317,"lon":5.39702,"is_reserved":false,"is_disabled":false,"rental_uris":{"android":"levelo://app?vid=b4cd75b4-a1c3-475b-8113-d2eeee83c135","ios":"levelo://app?vid=b4cd75b4-a1c3-475b-8113-d2eeee83c135"},"vehicle_type_id":"4","last_reported":1768345897,"current_range_meters":8000,"station_id":"ce4bgvp2rcd13ifvqcu0","pricing_plan_id":"cebpf4jnsgd1na2vs0mg"},{"bike_id":"54a665b1-efb8-4a74-a5c5-3658aaf489a2","system_id":"levelo_inurba_marseille","lat":43.28512,"lon":5.48417,"is_reserved":false,"is_disabled":false,"rental_uris":{"android":"levelo://app?vid=54a665b1-efb8-4a74-a5c5-3658aaf489a2","ios":"levelo://app?vid=54a665b1-efb8-4a74-a5c5-3658aaf489a2"},"vehicle_type_id":"4","last_reported":1768345897,"current_range_meters":8000,"station_id":"","pricing_plan_id":"cebpf4jnsgd1na2vs0mg"},{"bike_id":"3cfd68a5-fd4b-4f58-b394-9caf522446e0","system_id":"levelo_inurba_marseille","lat":43.287004,"lon":5.399823,"is_reserved":false,"is_disabled":false,"rental_uris":{"android":"levelo://app?vid=3cfd68a5-fd4b-4f58-b394-9caf522446e0","ios":"levelo://app?vid=3cfd68a5-fd4b-4f58-b394-9caf522446e0"},"vehicle_type_id":"4","last_reported":1768345897,"current_range_meters":8000,"station_id":"ce4bho92rcd13ifvqh3g","pricing_plan_id":"cebpf4jnsgd1na2vs0mg"},{"bike_id":"53e022ad-e5c5-4539-8c53-cc2b0aa06d27","system_id":"levelo_inurba_marseille","lat":43.28327,"lon":5.38846,"is_reserved":false,"is_disabled":true,"rental_uris":{"android":"levelo://app?vid=53e022ad-e5c5-4539-8c53-cc2b0aa06d27","ios":"levelo://app?vid=53e022ad-e5c5-4539-8c53-cc2b0aa06d27"},"vehicle_type_id":"4","last_reported":1768345897,"current_range_meters":8000,"station_id":"ce4bh492rcd13ifvqdvg","pricing_plan_id":"cebpf4jnsgd1na2vs0mg"},{"bike_id":"9deafb92-9293-47db-b696-81fef639ab5e","system_id":"levelo_inurba_marseille","lat":43.29965,"lon":5.38482,"is_reserved":false,"is_disabled":true,"rental_uris":{"android":"levelo://app?vid=9deafb92-9293-47db-b696-81fef639ab5e","ios":"levelo://app?vid=9deafb92-9293-47db-b696-81fef639ab5e"},"vehicle_type_id":"4","last_reported":1768345897,"current_range_meters":8000,"station_id":"ce4bgj92rcd13ifvqbd0","pricing_plan_id":"cebpf4jnsgd1na2vs0mg"},{"bike_id":"f33ec7ec-72cb-4f76-bfae-29fc17d216f4","system_id":"levelo_inurba_marseille","lat":43.32485,"lon":5.36211,"is_reserved":false,"is_disabled":false,"rental_uris":{"android":"levelo://app?vid=f33ec7ec-72cb-4f76-bfae-29fc17d216f4","ios":"levelo://app?vid=f33ec7ec-72cb-4f76-bfae-29fc17d216f4"},"vehicle_type_id":"4","last_reported":1768345897,"current_range_meters":8400,"station_id":"","pricing_plan_id":"cebpf4jnsgd1na2vs0mg"},{"bike_id":"724de8c9-2883-4455-a458-126b64737fa0","system_id":"levelo_inurba_marseille","lat":43.28536,"lon":5.44111,"is_reserved":false,"is_disabled":false,"rental_uris":{"android":"levelo://app?vid=724de8c9-2883-4455-a458-126b64737fa0","ios":"levelo://app?vid=724de8c9-2883-4455-a458-126b64737fa0"},"vehicle_type_id":"4","last_reported":1768345897,"current_range_meters":8400,"station_id":"","pricing_plan_id":"cebpf4jnsgd1na2vs0mg"},{"bike_id":"14adbf01-ed8b-4190-baad-fa0d709b5866","system_id":"levelo_inurba_marseille","lat":43.27955,"lon":5.41055,"is_reserved":false,"is_disabled":false,"rental_uris":{"android":"levelo://app?vid=14adbf01-ed8b-4190-baad-fa0d709b5866","ios":"levelo://app?vid=14adbf01-ed8b-4190-baad-fa0d709b5866"},"vehicle_type_id":"4","last_reported":1768345897,"current_range_meters":8400,"station_id":"ce4bhnp2rcd13ifvqh0g","pricing_plan_id":"cebpf4jnsgd1na2vs0mg"},{"bike_id":"43738401-0000-4ed6-a69e-b6ebffac4bdb","system_id":"levelo_inurba_marseille","lat":43.25114,"lon":5.4033,"is_reserved":false,"is_disabled":false,"rental_uris":{"android":"levelo://app?vid=43738401-0000-4ed6-a69e-b6ebffac4bdb","ios":"levelo://app?vid=43738401-0000-4ed6-a69e-b6ebffac4bdb"},"vehicle_type_id":"4","last_reported":1768345897,"current_range_meters":8400,"station_id":"ce4bhlh2rcd13ifvqgig","pricing_plan_id":"cebpf4jnsgd1na2vs0mg"},{"bike_id":"81ad07a9-7b07-4cd3-9a75-2e2aebb896a9","system_id":"levelo_inurba_marseille","lat":43.309175,"lon":5.368447,"is_reserved":false,"is_disabled":false,"rental_uris":{"android":"levelo://app?vid=81ad07a9-7b07-4cd3-9a75-2e2aebb896a9","ios":"levelo://app?vid=81ad07a9-7b07-4cd3-9a75-2e2aebb896a9"},"vehicle_type_id":"4","last_reported":1768345897,"current_range_meters":8400,"station_id":"ce4bgn92rcd13ifvqbvg","pricing_plan_id":"cebpf4jnsgd1na2vs0mg"},{"bike_id":"5bf0944c-5eb9-4021-9226-344e9953c183","system_id":"levelo_inurba_marseille","lat":43.23193,"lon":5.40007,"is_reserved":false,"is_disabled":false,"rental_uris":{"android":"levelo://app?vid=5bf0944c-5eb9-4021-9226-344e9953c183","ios":"levelo://app?vid=5bf0944c-5eb9-4021-9226-344e9953c183"},"vehicle_type_id":"4","last_reported":1768345897,"current_range_meters":8400,"station_id":"ce4bhn12rcd13ifvqgqg","pricing_plan_id":"cebpf4jnsgd1na2vs0mg"},{"bike_id":"dccf6443-2690-4508-8f9a-a0435732725f","system_id":"levelo_inurba_marseille","lat":43.25548,"lon":5.3769,"is_reserved":false,"is_disabled":false,"rental_uris":{"android":"levelo://app?vid=dccf6443-2690-4508-8f9a-a0435732725f","ios":"levelo://app?vid=dccf6443-2690-4508-8f9a-a0435732725f"},"vehicle_type_id":"4","last_reported":1768345897,"current_range_meters":8400,"station_id":"","pricing_plan_id":"cebpf4jnsgd1na2vs0mg"},{"bike_id":"edae41ff-efa7-45e8-b9af-a8202fc573da","system_id":"levelo_inurba_marseille","lat":43.249925,"lon":5.389349,"is_reserved":false,"is_disabled":false,"rental_uris":{"android":"levelo://app?vid=edae41ff-efa7-45e8-b9af-a8202fc573da","ios":"levelo://app?vid=edae41ff-efa7-45e8-b9af-a8202fc573da"},"vehicle_type_id":"4","last_reported":1768345897,"current_range_meters":8400,"station_id":"ce4bhgp2rcd13ifvqfd0","pricing_plan_id":"cebpf4jnsgd1na2vs0mg"},{"bike_id":"394dcc9d-e3b6-4891-8e2c-d135a534b7b4","system_id":"levelo_inurba_marseille","lat":43.30931,"lon":5.40147,"is_reserved":false,"is_disabled":false,"rental_uris":{"android":"levelo://app?vid=394dcc9d-e3b6-4891-8e2c-d135a534b7b4","ios":"levelo://app?vid=394dcc9d-e3b6-4891-8e2c-d135a534b7b4"},"vehicle_type_id":"4","last_reported":1768345897,"current_range_meters":8400,"station_id":"ce4bgvp2rcd13ifvqct0","pricing_plan_id":"cebpf4jnsgd1na2vs0mg"},{"bike_id":"20a9aac7-5f21-407c-9582-b4295f08f600","system_id":"levelo_inurba_marseille","lat":43.27829,"lon":5.40726,"is_reserved":false,"is_disabled":false,"rental_uris":{"android":"levelo://app?vid=20a9aac7-5f21-407c-9582-b4295f08f600","ios":"levelo://app?vid=20a9aac7-5f21-407c-9582-b4295f08f600"},"vehicle_type_id":"4","last_reported":1768345897,"current_range_meters":8400,"station_id":"ce4bhnh2rcd13ifvqgtg","pricing_plan_id":"cebpf4jnsgd1na2vs0mg"},{"bike_id":"fbe88db2-416a-478a-ac7c-29c397f79fa0","system_id":"levelo_inurba_marseille","lat":43.24633,"lon":5.3888,"is_reserved":false,"is_disabled":false,"rental_uris":{"android":"levelo://app?vid=fbe88db2-416a-478a-ac7c-29c397f79fa0","ios":"levelo://app?vid=fbe88db2-416a-478a-ac7c-29c397f79fa0"},"vehicle_type_id":"4","last_reported":1768345897,"current_range_meters":8400,"station_id":"ce4bhg12rcd13ifvqf60","pricing_plan_id":"cebpf4jnsgd1na2vs0mg"},{"bike_id":"7e09f6aa-6a01-490d-a5d4-56de9c0277ad","system_id":"levelo_inurba_marseille","lat":43.28537,"lon":5.441,"is_reserved":false,"is_disabled":false,"rental_uris":{"android":"levelo://app?vid=7e09f6aa-6a01-490d-a5d4-56de9c0277ad","ios":"levelo://app?vid=7e09f6aa-6a01-490d-a5d4-56de9c0277ad"},"vehicle_type_id":"4","last_reported":1768345897,"current_range_meters":8800,"station_id":"st_d3j3df2ikq2c7380ej80","pricing_plan_id":"cebpf4jnsgd1na2vs0mg"},{"bike_id":"27ea8170-0361-438d-b591-2ebcd05d2dfe","system_id":"levelo_inurba_marseille","lat":43.28409,"lon":5.34996,"is_reserved":false,"is_disabled":false,"rental_uris":{"android":"levelo://app?vid=27ea8170-0361-438d-b591-2ebcd05d2dfe","ios":"levelo://app?vid=27ea8170-0361-438d-b591-2ebcd05d2dfe"},"vehicle_type_id":"4","last_reported":1768345897,"current_range_meters":8800,"station_id":"ce4bhbh2rcd13ifvqepg","pricing_plan_id":"cebpf4jnsgd1na2vs0mg"},{"bike_id":"937c8a1a-ca4f-441f-b0aa-48acb560d58a","system_id":"levelo_inurba_marseille","lat":43.28746,"lon":5.37935,"is_reserved":false,"is_disabled":false,"rental_uris":{"android":"levelo://app?vid=937c8a1a-ca4f-441f-b0aa-48acb560d58a","ios":"levelo://app?vid=937c8a1a-ca4f-441f-b0aa-48acb560d58a"},"vehicle_type_id":"4","last_reported":1768345897,"current_range_meters":8800,"station_id":"ce4bh9p2rcd13ifvqec0","pricing_plan_id":"cebpf4jnsgd1na2vs0mg"},{"bike_id":"2ee0fab5-7040-4975-9414-0b1e23a72b5b","system_id":"levelo_inurba_marseille","lat":43.32348,"lon":5.36737,"is_reserved":false,"is_disabled":false,"rental_uris":{"android":"levelo://app?vid=2ee0fab5-7040-4975-9414-0b1e23a72b5b","ios":"levelo://app?vid=2ee0fab5-7040-4975-9414-0b1e23a72b5b"},"vehicle_type_id":"4","last_reported":1768345897,"current_range_meters":8800,"station_id":"ce4bhsh2rcd13ifvqi2g","pricing_plan_id":"cebpf4jnsgd1na2vs0mg"},{"bike_id":"57944fc3-912e-43e1-a504-acbc96841325","system_id":"levelo_inurba_marseille","lat":43.30142,"lon":5.39868,"is_reserved":false,"is_disabled":false,"rental_uris":{"android":"levelo://app?vid=57944fc3-912e-43e1-a504-acbc96841325","ios":"levelo://app?vid=57944fc3-912e-43e1-a504-acbc96841325"},"vehicle_type_id":"4","last_reported":1768345897,"current_range_meters":8800,"station_id":"ce4bh0h2rcd13ifvqd40","pricing_plan_id":"cebpf4jnsgd1na2vs0mg"},{"bike_id":"b462b4d0-17a8-49fd-9c2f-bc4394674109","system_id":"levelo_inurba_marseille","lat":43.29252,"lon":5.40908,"is_reserved":false,"is_disabled":false,"rental_uris":{"android":"levelo://app?vid=b462b4d0-17a8-49fd-9c2f-bc4394674109","ios":"levelo://app?vid=b462b4d0-17a8-49fd-9c2f-bc4394674109"},"vehicle_type_id":"4","last_reported":1768345897,"current_range_meters":8800,"station_id":"ce4bh192rcd13ifvqdc0","pricing_plan_id":"cebpf4jnsgd1na2vs0mg"},{"bike_id":"1621444e-17e7-4c3c-bee0-067ccd01ec41","system_id":"levelo_inurba_marseille","lat":43.28164,"lon":5.42684,"is_reserved":false,"is_disabled":false,"rental_uris":{"android":"levelo://app?vid=1621444e-17e7-4c3c-bee0-067ccd01ec41","ios":"levelo://app?vid=1621444e-17e7-4c3c-bee0-067ccd01ec41"},"vehicle_type_id":"4","last_reported":1768345897,"current_range_meters":8800,"station_id":"ce4bhnh2rcd13ifvqgug","pricing_plan_id":"cebpf4jnsgd1na2vs0mg"},{"bike_id":"b56713af-f00e-4869-8063-775f8dc178bd","system_id":"levelo_inurba_marseille","lat":43.27986,"lon":5.41657,"is_reserved":false,"is_disabled":true,"rental_uris":{"android":"levelo://app?vid=b56713af-f00e-4869-8063-775f8dc178bd","ios":"levelo://app?vid=b56713af-f00e-4869-8063-775f8dc178bd"},"vehicle_type_id":"4","last_reported":1768345897,"current_range_meters":8800,"station_id":"ce4bho12rcd13ifvqh1g","pricing_plan_id":"cebpf4jnsgd1na2vs0mg"},{"bike_id":"b3eeec84-705d-4e4a-a4c5-ee6137953d87","system_id":"levelo_inurba_marseille","lat":43.27489,"lon":5.42441,"is_reserved":false,"is_disabled":false,"rental_uris":{"android":"levelo://app?vid=b3eeec84-705d-4e4a-a4c5-ee6137953d87","ios":"levelo://app?vid=b3eeec84-705d-4e4a-a4c5-ee6137953d87"},"vehicle_type_id":"4","last_reported":1768345897,"current_range_meters":8800,"station_id":"ce4bhn92rcd13ifvqgrg","pricing_plan_id":"cebpf4jnsgd1na2vs0mg"},{"bike_id":"5b18981c-eb74-4370-aa72-d8d6f3c3d193","system_id":"levelo_inurba_marseille","lat":43.24958,"lon":5.40474,"is_reserved":false,"is_disabled":false,"rental_uris":{"android":"levelo://app?vid=5b18981c-eb74-4370-aa72-d8d6f3c3d193","ios":"levelo://app?vid=5b18981c-eb74-4370-aa72-d8d6f3c3d193"},"vehicle_type_id":"4","last_reported":1768345897,"current_range_meters":8800,"station_id":"st_d2ngiaodas8pm72gd1h0","pricing_plan_id":"cebpf4jnsgd1na2vs0mg"},{"bike_id":"f680f50c-74ae-434a-9907-5a62e8f7d3ec","system_id":"levelo_inurba_marseille","lat":43.30528,"lon":5.36691,"is_reserved":false,"is_disabled":false,"rental_uris":{"android":"levelo://app?vid=f680f50c-74ae-434a-9907-5a62e8f7d3ec","ios":"levelo://app?vid=f680f50c-74ae-434a-9907-5a62e8f7d3ec"},"vehicle_type_id":"4","last_reported":1768345897,"current_range_meters":8800,"station_id":"ce4bgrp2rcd13ifvqc9g","pricing_plan_id":"cebpf4jnsgd1na2vs0mg"},{"bike_id":"f779cea2-2439-4f21-8a92-51321276319a","system_id":"levelo_inurba_marseille","lat":43.2682,"lon":5.4022,"is_reserved":false,"is_disabled":false,"rental_uris":{"android":"levelo://app?vid=f779cea2-2439-4f21-8a92-51321276319a","ios":"levelo://app?vid=f779cea2-2439-4f21-8a92-51321276319a"},"vehicle_type_id":"4","last_reported":1768345897,"current_range_meters":8800,"station_id":"ce501612rcd8frsf0b60","pricing_plan_id":"cebpf4jnsgd1na2vs0mg"},{"bike_id":"164dedac-69e7-43d0-960c-35138b9d44a9","system_id":"levelo_inurba_marseille","lat":43.26601,"lon":5.39055,"is_reserved":false,"is_disabled":false,"rental_uris":{"android":"levelo://app?vid=164dedac-69e7-43d0-960c-35138b9d44a9","ios":"levelo://app?vid=164dedac-69e7-43d0-960c-35138b9d44a9"},"vehicle_type_id":"4","last_reported":1768345897,"current_range_meters":8800,"station_id":"","pricing_plan_id":"cebpf4jnsgd1na2vs0mg"},{"bike_id":"6fa11f81-435a-4bcd-884f-792aac365db4","system_id":"levelo_inurba_marseille","lat":43.24676,"lon":5.38206,"is_reserved":false,"is_disabled":false,"rental_uris":{"android":"levelo://app?vid=6fa11f81-435a-4bcd-884f-792aac365db4","ios":"levelo://app?vid=6fa11f81-435a-4bcd-884f-792aac365db4"},"vehicle_type_id":"4","last_reported":1768345897,"current_range_meters":8800,"station_id":"ce4bhih2rcd13ifvqfr0","pricing_plan_id":"cebpf4jnsgd1na2vs0mg"},{"bike_id":"b0591438-4f8b-458b-95d3-396e832bb098","system_id":"levelo_inurba_marseille","lat":43.2255,"lon":5.41627,"is_reserved":false,"is_disabled":false,"rental_uris":{"android":"levelo://app?vid=b0591438-4f8b-458b-95d3-396e832bb098","ios":"levelo://app?vid=b0591438-4f8b-458b-95d3-396e832bb098"},"vehicle_type_id":"4","last_reported":1768345897,"current_range_meters":8800,"station_id":"st_d2o4gvlbi1j2169b742g","pricing_plan_id":"cebpf4jnsgd1na2vs0mg"},{"bike_id":"d10c3e03-17c1-4a18-84d3-e167ce7531e2","system_id":"levelo_inurba_marseille","lat":43.32353,"lon":5.36747,"is_reserved":false,"is_disabled":false,"rental_uris":{"android":"levelo://app?vid=d10c3e03-17c1-4a18-84d3-e167ce7531e2","ios":"levelo://app?vid=d10c3e03-17c1-4a18-84d3-e167ce7531e2"},"vehicle_type_id":"4","last_reported":1768345897,"current_range_meters":8800,"station_id":"ce4bhsh2rcd13ifvqi2g","pricing_plan_id":"cebpf4jnsgd1na2vs0mg"},{"bike_id":"68d4000c-fa0a-44f5-b60f-183540711a1f","system_id":"levelo_inurba_marseille","lat":43.28934,"lon":5.36633,"is_reserved":false,"is_disabled":false,"rental_uris":{"android":"levelo://app?vid=68d4000c-fa0a-44f5-b60f-183540711a1f","ios":"levelo://app?vid=68d4000c-fa0a-44f5-b60f-183540711a1f"},"vehicle_type_id":"4","last_reported":1768345897,"current_range_meters":8800,"station_id":"ce4bhap2rcd13ifvqek0","pricing_plan_id":"cebpf4jnsgd1na2vs0mg"},{"bike_id":"7e462796-986f-433c-92bd-40c4d53fc4b5","system_id":"levelo_inurba_marseille","lat":43.30941,"lon":5.39033,"is_reserved":false,"is_disabled":false,"rental_uris":{"android":"levelo://app?vid=7e462796-986f-433c-92bd-40c4d53fc4b5","ios":"levelo://app?vid=7e462796-986f-433c-92bd-40c4d53fc4b5"},"vehicle_type_id":"4","last_reported":1768345897,"current_range_meters":8800,"station_id":"ce4bgup2rcd13ifvqco0","pricing_plan_id":"cebpf4jnsgd1na2vs0mg"},{"bike_id":"f46e8896-f60b-49f2-b8ac-80520c0162b1","system_id":"levelo_inurba_marseille","lat":43.29007,"lon":5.37441,"is_reserved":false,"is_disabled":false,"rental_uris":{"android":"levelo://app?vid=f46e8896-f60b-49f2-b8ac-80520c0162b1","ios":"levelo://app?vid=f46e8896-f60b-49f2-b8ac-80520c0162b1"},"vehicle_type_id":"4","last_reported":1768345897,"current_range_meters":8800,"station_id":"","pricing_plan_id":"cebpf4jnsgd1na2vs0mg"},{"bike_id":"c6c69f6e-3401-41a3-8f77-9ad00cda4af7","system_id":"levelo_inurba_marseille","lat":43.28072,"lon":5.39614,"is_reserved":false,"is_disabled":false,"rental_uris":{"android":"levelo://app?vid=c6c69f6e-3401-41a3-8f77-9ad00cda4af7","ios":"levelo://app?vid=c6c69f6e-3401-41a3-8f77-9ad00cda4af7"},"vehicle_type_id":"4","last_reported":1768345897,"current_range_meters":8800,"station_id":"ce4bho12rcd13ifvqh2g","pricing_plan_id":"cebpf4jnsgd1na2vs0mg"},{"bike_id":"23428b4f-9284-453f-9dea-04f46e9128b0","system_id":"levelo_inurba_marseille","lat":43.28643,"lon":5.35122,"is_reserved":false,"is_disabled":false,"rental_uris":{"android":"levelo://app?vid=23428b4f-9284-453f-9dea-04f46e9128b0","ios":"levelo://app?vid=23428b4f-9284-453f-9dea-04f46e9128b0"},"vehicle_type_id":"4","last_reported":1768345897,"current_range_meters":8800,"station_id":"ce4bhch2rcd13ifvqeug","pricing_plan_id":"cebpf4jnsgd1na2vs0mg"},{"bike_id":"c5ca41df-a10b-4946-8859-f377e5e5fca6","system_id":"levelo_inurba_marseille","lat":43.32525,"lon":5.41474,"is_reserved":false,"is_disabled":false,"rental_uris":{"android":"levelo://app?vid=c5ca41df-a10b-4946-8859-f377e5e5fca6","ios":"levelo://app?vid=c5ca41df-a10b-4946-8859-f377e5e5fca6"},"vehicle_type_id":"4","last_reported":1768345897,"current_range_meters":8800,"station_id":"ce4bhq12rcd13ifvqhhg","pricing_plan_id":"cebpf4jnsgd1na2vs0mg"},{"bike_id":"410a1137-9229-4f54-a38f-983e2fa3f29b","system_id":"levelo_inurba_marseille","lat":43.26915,"lon":5.3889,"is_reserved":false,"is_disabled":false,"rental_uris":{"android":"levelo://app?vid=410a1137-9229-4f54-a38f-983e2fa3f29b","ios":"levelo://app?vid=410a1137-9229-4f54-a38f-983e2fa3f29b"},"vehicle_type_id":"4","last_reported":1768345897,"current_range_meters":9200,"station_id":"ce4bhhh2rcd13ifvqfl0","pricing_plan_id":"cebpf4jnsgd1na2vs0mg"},{"bike_id":"80e1cacf-c38d-4e99-beb6-97caf9f5d5a5","system_id":"levelo_inurba_marseille","lat":43.28225,"lon":5.39074,"is_reserved":false,"is_disabled":false,"rental_uris":{"android":"levelo://app?vid=80e1cacf-c38d-4e99-beb6-97caf9f5d5a5","ios":"levelo://app?vid=80e1cacf-c38d-4e99-beb6-97caf9f5d5a5"},"vehicle_type_id":"4","last_reported":1768345897,"current_range_meters":9200,"station_id":"ce4bhn92rcd13ifvqgsg","pricing_plan_id":"cebpf4jnsgd1na2vs0mg"},{"bike_id":"794f162f-97ce-41a5-a715-29d2690bc658","system_id":"levelo_inurba_marseille","lat":43.28679,"lon":5.38701,"is_reserved":false,"is_disabled":false,"rental_uris":{"android":"levelo://app?vid=794f162f-97ce-41a5-a715-29d2690bc658","ios":"levelo://app?vid=794f162f-97ce-41a5-a715-29d2690bc658"},"vehicle_type_id":"4","last_reported":1768345897,"current_range_meters":9200,"station_id":"ce4bh492rcd13ifvqdug","pricing_plan_id":"cebpf4jnsgd1na2vs0mg"},