{"last_updated":1770395520,"ttl":60,"version":"2.2","data":{"bikes":[{"bike_id":"76049b0e-ed42-4f47-aed4-893ccaccc764","system_id":"levelo_inurba_marseille","lat":43.31119,"lon":5.37744,"is_reserved":false,"is_disabled":false,"rental_uris":{"android":"levelo://app?vid=76049b0e-ed42-4f47-aed4-893ccaccc764","ios":"levelo://app?vid=76049b0e-ed42-4f47-aed4-893ccaccc764"},"vehicle_type_id":"4","last_reported":1770395521,"current_range_meters":2800,"station_id":"ce4bgt92rcd13ifvqcg0","pricing_plan_id":"cebpf4jnsgd1na2vs0mg"},{"bike_id":"b53f497c-0cdf-42a8-ab5a-d6dc45b07b09","system_id":"levelo_inurba_marseille","lat":43.241675,"lon":5.363979,"is_reserved":false,"is_disabled":false,"rental_uris":{"android":"levelo://app?vid=b53f497c-0cdf-42a8-ab5a-d6dc45b07b09","ios":"levelo://app?vid=b53f497c-0cdf-42a8-ab5a-d6dc45b07b09"},"vehicle_type_id":"4","last_reported":1770395521,"current_range_meters":2800,"station_id":"cpo36qri1sfpv3e86is0","pricing_plan_id":"cebpf4jnsgd1na2vs0mg"},{"bike_id":"49708cc9-8ac4-485c-9a89-ea53039adda1","system_id":"levelo_inurba_marseille","lat":43.25103,"lon":5.40329,"is_reserved":false,"is_disabled":false,"rental_uris":{"android":"levelo://app?vid=49708cc9-8ac4-485c-9a89-ea53039adda1","ios":"levelo://app?vid=49708cc9-8ac4-485c-9a89-ea53039adda1"},"vehicle_type_id":"4","last_reported":1770395521,"current_range_meters":2800,"station_id":"ce4bhlh2rcd13ifvqgig","pricing_plan_id":"cebpf4jnsgd1na2vs0mg"},{"bike_id":"3fe9d7b3-7610-4763-865c-7440b55b0ef0","system_id":"levelo_inurba_marseille","lat":43.26682,"lon":5.38268,"is_reserved":false,"is_disabled":false,"rental_uris":{"android":"levelo://app?vid=3fe9d7b3-7610-4763-865c-7440b55b0ef0","ios":"levelo://app?vid=3fe9d7b3-7610-4763-865c-7440b55b0ef0"},"vehicle_type_id":"4","last_reported":1770395521,"current_range_meters":2800,"station_id":"ce4bhg92rcd13ifvqf90","pricing_plan_id":"cebpf4jnsgd1na2vs0mg"},{"bike_id":"a5c2a871-95cc-4088-9549-08dce77a36d3","system_id":"levelo_inurba_marseille","lat":43.29429,"lon":5.37536,"is_reserved":false,"is_disabled":false,"rental_uris":{"android":"levelo://app?vid=a5c2a871-95cc-4088-9549-08dce77a36d3","ios":"levelo://app?vid=a5c2a871-95cc-4088-9549-08dce77a36d3"},"vehicle_type_id":"4","last_reported":1770395521,"current_range_meters":2800,"station_id":"","pricing_plan_id":"cebpf4jnsgd1na2vs0mg"},{"bike_id":"8f4d5a26-f1fe-4139-a749-f4668f7bf478","system_id":"levelo_inurba_marseille","lat":43.22536,"lon":5.34825,"is_reserved":false,"is_disabled":false,"rental_uris":{"android":"levelo://app?vid=8f4d5a26-f1fe-4139-a749-f4668f7bf478","ios":"levelo://app?vid=8f4d5a26-f1fe-4139-a749-f4668f7bf478"},"vehicle_type_id":"4","last_reported":1770395521,"current_range_meters":2800,"station_id":"","pricing_plan_id":"cebpf4jnsgd1na2vs0mg"},{"bike_id":"bb880f1f-722b-4fd6-9519-be8748a683e2","system_id":"levelo_inurba_marseille","lat":43.30428,"lon":5.38892,"is_reserved":false,"is_disabled":false,"rental_uris":{"android":"levelo://app?vid=bb880f1f-722b-4fd6-9519-be8748a683e2","ios":"levelo://app?vid=bb880f1f-722b-4fd6-9519-be8748a683e2"},"vehicle_type_id":"4","last_reported":1770395521,"current_range_meters":2800,"station_id":"ce4bgk12rcd13ifvqbi0","pricing_plan_id":"cebpf4jnsgd1na2vs0mg"},{"bike_id":"c3f43aa2-1ae1-41b3-a072-0f15c8d488c0","system_id":"levelo_inurba_marseille","lat":43.28465,"lon":5.43722,"is_reserved":false,"is_disabled":false,"rental_uris":{"android":"levelo://app?vid=c3f43aa2-1ae1-41b3-a072-0f15c8d488c0","ios":"levelo://app?vid=c3f43aa2-1ae1-41b3-a072-0f15c8d488c0"},"vehicle_type_id":"4","last_reported":1770395521,"current_range_meters":2800,"station_id":"","pricing_plan_id":"cebpf4jnsgd1na2vs0mg"},{"bike_id":"f5f38fce-45eb-4306-9fb0-0305eb46c2f1","system_id":"levelo_inurba_marseille","lat":43.28571,"lon":5.39474,"is_reserved":false,"is_disabled":false,"rental_uris":{"android":"levelo://app?vid=f5f38fce-45eb-4306-9fb0-0305eb46c2f1","ios":"levelo://app?vid=f5f38fce-45eb-4306-9fb0-0305eb46c2f1"},"vehicle_type_id":"4","last_reported":1770395521,"current_range_meters":2800,"station_id":"ce4bh292rcd13ifvqdg0","pricing_plan_id":"cebpf4jnsgd1na2vs0mg"},{"bike_id":"f5564683-78de-4568-b070-acbac9749ab2","system_id":"levelo_inurba_marseille","lat":43.26214,"lon":5.37443,"is_reserved":false,"is_disabled":false,"rental_uris":{"android":"levelo://app?vid=f5564683-78de-4568-b070-acbac9749ab2","ios":"levelo://app?vid=f5564683-78de-4568-b070-acbac9749ab2"},"vehicle_type_id":"4","last_reported":1770395521,"current_range_meters":2800,"station_id":"ce4bhgp2rcd13ifvqfc0","pricing_plan_id":"cebpf4jnsgd1na2vs0mg"},{"bike_id":"d72ec66a-db3f-41c7-8ed5-45387a7e4906","system_id":"levelo_inurba_marseille","lat":43.31723,"lon":5.42399,"is_reserved":false,"is_disabled":false,"rental_uris":{"android":"levelo://app?vid=d72ec66a-db3f-41c7-8ed5-45387a7e4906","ios":"levelo://app?vid=d72ec66a-db3f-41c7-8ed5-45387a7e4906"},"vehicle_type_id":"4","last_reported":1770395521,"current_range_meters":3200,"station_id":"ce4bhp92rcd13ifvqhbg","pricing_plan_id":"cebpf4jnsgd1na2vs0mg"},{"bike_id":"49bc0ac4-ec4c-46b4-bcba-c5b87d948aa1","system_id":"levelo_inurba_marseille","lat":43.23963,"lon":5.36612,"is_reserved":false,"is_disabled":false,"rental_uris":{"android":"levelo://app?vid=49bc0ac4-ec4c-46b4-bcba-c5b87d948aa1","ios":"levelo://app?vid=49bc0ac4-ec4c-46b4-bcba-c5b87d948aa1"},"vehicle_type_id":"4","last_reported":1770395521,"current_range_meters":3200,"station_id":"ce4bhi12rcd13ifvqfp0","pricing_plan_id":"cebpf4jnsgd1na2vs0mg"},{"bike_id":"52874b5a-cdcb-4061-8380-e8884b9a43c0","system_id":"levelo_inurba_marseille","lat":43.29984,"lon":5.37179,"is_reserved":false,"is_disabled":false,"rental_uris":{"android":"levelo://app?vid=52874b5a-cdcb-4061-8380-e8884b9a43c0","ios":"levelo://app?vid=52874b5a-cdcb-4061-8380-e8884b9a43c0"},"vehicle_type_id":"4","last_reported":1770395521,"current_range_meters":3200,"station_id":"ce4bgr92rcd13ifvqc7g","pricing_plan_id":"cebpf4jnsgd1na2vs0mg"},{"bike_id":"40819fca-9f18-4e89-b31c-5ad4505052c8","system_id":"levelo_inurba_marseille","lat":43.231961,"lon":5.355531,"is_reserved":false,"is_disabled":false,"rental_uris":{"android":"levelo://app?vid=40819fca-9f18-4e89-b31c-5ad4505052c8","ios":"levelo://app?vid=40819fca-9f18-4e89-b31c-5ad4505052c8"},"vehicle_type_id":"4","last_reported":1770395521,"current_range_meters":3200,"station_id":"ce4bhu92rcd13ifvqi70","pricing_plan_id":"cebpf4jnsgd1na2vs0mg"},{"bike_id":"e88b591c-3998-4dd7-9fc9-570d17612deb","system_id":"levelo_inurba_marseille","lat":43.27369,"lon":5.3626,"is_reserved":false,"is_disabled":false,"rental_uris":{"android":"levelo://app?vid=e88b591c-3998-4dd7-9fc9-570d17612deb","ios":"levelo://app?vid=e88b591c-3998-4dd7-9fc9-570d17612deb"},"vehicle_type_id":"4","last_reported":1770395521,"current_range_meters":3200,"station_id":"ce4bhbh2rcd13ifvqeo0","pricing_plan_id":"cebpf4jnsgd1na2vs0mg"},{"bike_id":"2d0f8c41-31b1-402c-bf19-2941f046c32a","system_id":"levelo_inurba_marseille","lat":43.23143,"lon":5.43723,"is_reserved":false,"is_disabled":false,"rental_uris":{"android":"levelo://app?vid=2d0f8c41-31b1-402c-bf19-2941f046c32a","ios":"levelo://app?vid=2d0f8c41-31b1-402c-bf19-2941f046c32a"},"vehicle_type_id":"4","last_reported":1770395521,"current_range_meters":3200,"station_id":"ce4bhmp2rcd13ifvqgog","pricing_plan_id":"cebpf4jnsgd1na2vs0mg"},{"bike_id":"1fbc3da0-3055-4ae7-b65e-3cb66e6afc59","system_id":"levelo_inurba_marseille","lat":43.29577,"lon":5.3751,"is_reserved":false,"is_disabled":false,"rental_uris":{"android":"levelo://app?vid=1fbc3da0-3055-4ae7-b65e-3cb66e6afc59","ios":"levelo://app?vid=1fbc3da0-3055-4ae7-b65e-3cb66e6afc59"},"vehicle_type_id":"4","last_reported":1770395521,"current_range_meters":3200,"station_id":"ce4bgh92rcd13ifvqb50","pricing_plan_id":"cebpf4jnsgd1na2vs0mg"},{"bike_id":"f19552e5-b8be-4ac0-bab3-b1e24771cb0c","system_id":"levelo_inurba_marseille","lat":43.32107,"lon":5.36773,"is_reserved":false,"is_disabled":false,"rental_uris":{"android":"levelo://app?vid=f19552e5-b8be-4ac0-bab3-b1e24771cb0c","ios":"levelo://app?vid=f19552e5-b8be-4ac0-bab3-b1e24771cb0c"},"vehicle_type_id":"4","last_reported":1770395521,"current_range_meters":3200,"station_id":"ce4bhrh2rcd13ifvqhug","pricing_plan_id":"cebpf4jnsgd1na2vs0mg"},{"bike_id":"dd5e3dab-c0ce-45e5-a2d1-555ab9872774","system_id":"levelo_inurba_marseille","lat":43.284149,"lon":5.349851,"is_reserved":false,"is_disabled":false,"rental_uris":{"android":"levelo://app?vid=dd5e3dab-c0ce-45e5-a2d1-555ab9872774","ios":"levelo://app?vid=dd5e3dab-c0ce-45e5-a2d1-555ab9872774"},"vehicle_type_id":"4","last_reported":1770395521,"current_range_meters":3200,"station_id":"ce4bhbh2rcd13ifvqepg","pricing_plan_id":"cebpf4jnsgd1na2vs0mg"},{"bike_id":"a52b5e84-7a43-4c96-b9c2-bec9d2e7c3d7","system_id":"levelo_inurba_marseille","lat":43.28426,"lon":5.37506,"is_reserved":false,"is_disabled":false,"rental_uris":{"android":"levelo://app?vid=a52b5e84-7a43-4c96-b9c2-bec9d2e7c3d7","ios":"levelo://app?vid=a52b5e84-7a43-4c96-b9c2-bec9d2e7c3d7"},"vehicle_type_id":"4","last_reported":1770395521,"current_range_meters":3600,"station_id":"ce4bh412rcd13ifvqds0","pricing_plan_id":"cebpf4jnsgd1na2vs0mg"},{"bike_id":"c64f1078-b496-4d63-b230-fc8b7996f1c0","system_id":"levelo_inurba_marseille","lat":43.265503,"lon":5.372857,"is_reserved":false,"is_disabled":false,"rental_uris":{"android":"levelo://app?vid=c64f1078-b496-4d63-b230-fc8b7996f1c0","ios":"levelo://app?vid=c64f1078-b496-4d63-b230-fc8b7996f1c0"},"vehicle_type_id":"4","last_reported":1770395521,"current_range_meters":3600,"station_id":"ce4bhg12rcd13ifvqf70","pricing_plan_id":"cebpf4jnsgd1na2vs0mg"},{"bike_id":"da76f900-b17d-4248-b9ba-2a8067b473bd","system_id":"levelo_inurba_marseille","lat":43.31721,"lon":5.42393,"is_reserved":false,"is_disabled":false,"rental_uris":{"android":"levelo://app?vid=da76f900-b17d-4248-b9ba-2a8067b473bd","ios":"levelo://app?vid=da76f900-b17d-4248-b9ba-2a8067b473bd"},"vehicle_type_id":"4","last_reported":1770395521,"current_range_meters":3600,"station_id":"ce4bhp92rcd13ifvqhbg","pricing_plan_id":"cebpf4jnsgd1na2vs0mg"},{"bike_id":"867ba3a4-0a50-4a56-9807-60548b4e9837","system_id":"levelo_inurba_marseille","lat":43.30591,"lon":5.3936,"is_reserved":false,"is_disabled":false,"rental_uris":{"android":"levelo://app?vid=867ba3a4-0a50-4a56-9807-60548b4e9837","ios":"levelo://app?vid=867ba3a4-0a50-4a56-9807-60548b4e9837"},"vehicle_type_id":"4","last_reported":1770395521,"current_range_meters":3600,"station_id":"ce4bh0p2rcd13ifvqd80","pricing_plan_id":"cebpf4jnsgd1na2vs0mg"},{"bike_id":"2239e703-a02d-4b20-8171-19496fd39ac9","system_id":"levelo_inurba_marseille","lat":43.298003,"lon":5.381031,"is_reserved":false,"is_disabled":false,"rental_uris":{"android":"levelo://app?vid=2239e703-a02d-4b20-8171-19496fd39ac9","ios":"levelo://app?vid=2239e703-a02d-4b20-8171-19496fd39ac9"},"vehicle_type_id":"4","last_reported":1770395521,"current_range_meters":3600,"station_id":"","pricing_plan_id":"cebpf4jnsgd1na2vs0mg"},{"bike_id":"2f9dbda9-2fb5-43fe-ab35-a6e6a40c9ed7","system_id":"levelo_inurba_marseille","lat":43.28614,"lon":5.39874,"is_reserved":false,"is_disabled":false,"rental_uris":{"android":"levelo://app?vid=2f9dbda9-2fb5-43fe-ab35-a6e6a40c9ed7","ios":"levelo://app?vid=2f9dbda9-2fb5-43fe-ab35-a6e6a40c9ed7"},"vehicle_type_id":"4","last_reported":1770395521,"current_range_meters":3600,"station_id":"st_d4a7ka997mjs738ck50g","pricing_plan_id":"cebpf4jnsgd1na2vs0mg"},{"bike_id":"6ff2011b-99a9-48c9-bfa2-58b8c5baccc0","system_id":"levelo_inurba_marseille","lat":43.29235,"lon":5.36056,"is_reserved":false,"is_disabled":false,"rental_uris":{"android":"levelo://app?vid=6ff2011b-99a9-48c9-bfa2-58b8c5baccc0","ios":"levelo://app?vid=6ff2011b-99a9-48c9-bfa2-58b8c5baccc0"},"vehicle_type_id":"4","last_reported":1770395521,"current_range_meters":3600,"station_id":"ce4bhbh2rcd13ifvqeqg","pricing_plan_id":"cebpf4jnsgd1na2vs0mg"},{"bike_id":"fc2c90cf-2964-4375-8969-fcfe5234c035","system_id":"levelo_inurba_marseille","lat":43.27696,"lon":5.38915,"is_reserved":false,"is_disabled":false,"rental_uris":{"android":"levelo://app?vid=fc2c90cf-2964-4375-8969-fcfe5234c035","ios":"levelo://app?vid=fc2c90cf-2964-4375-8969-fcfe5234c035"},"vehicle_type_id":"4","last_reported":1770395521,"current_range_meters":3600,"station_id":"ce4bhi12rcd13ifvqfo0","pricing_plan_id":"cebpf4jnsgd1na2vs0mg"},{"bike_id":"fee0750a-8d27-43e0-94f7-17675fd554cc","system_id":"levelo_inurba_marseille","lat":43.23193,"lon":5.35551,"is_reserved":false,"is_disabled":false,"rental_uris":{"android":"levelo://app?vid=fee0750a-8d27-43e0-94f7-17675fd554cc","ios":"levelo://app?vid=fee0750a-8d27-43e0-94f7-17675fd554cc"},"vehicle_type_id":"4","last_reported":1770395521,"current_range_meters":3600,"station_id":"ce4bhu92rcd13ifvqi70","pricing_plan_id":"cebpf4jnsgd1na2vs0mg"},{"bike_id":"e04d7957-2695-4c2a-bb1b-5e0e64401da0","system_id":"levelo_inurba_marseille","lat":43.29304,"lon":5.37462,"is_reserved":false,"is_disabled":false,"rental_uris":{"android":"levelo://app?vid=e04d7957-2695-4c2a-bb1b-5e0e64401da0","ios":"levelo://app?vid=e04d7957-2695-4c2a-bb1b-5e0e64401da0"},"vehicle_type_id":"4","last_reported":1770395521,"current_range_meters":3600,"station_id":"ce4bgi12rcd13ifvqb70","pricing_plan_id":"cebpf4jnsgd1na2vs0mg"},{"bike_id":"b175d1ec-b576-4cf1-99a2-acb3b6a624ed","system_id":"levelo_inurba_marseille","lat":43.26542,"lon":5.37296,"is_reserved":false,"is_disabled":false,"rental_uris":{"android":"levelo://app?vid=b175d1ec-b576-4cf1-99a2-acb3b6a624ed","ios":"levelo://app?vid=b175d1ec-b576-4cf1-99a2-acb3b6a624ed"},"vehicle_type_id":"4","last_reported":1770395521,"current_range_meters":3600,"station_id":"ce4bhg12rcd13ifvqf70","pricing_plan_id":"cebpf4jnsgd1na2vs0mg"},{"bike_id":"5309610c-bf76-4542-a232-389bbf17cbff","system_id":"levelo_inurba_marseille","lat":43.3355,"lon":5.37442,"is_reserved":false,"is_disabled":false,"rental_uris":{"android":"levelo://app?vid=5309610c-bf76-4542-a232-389bbf17cbff","ios":"levelo://app?vid=5309610c-bf76-4542-a232-389bbf17cbff"},"vehicle_type_id":"4","last_reported":1770395521,"current_range_meters":4000,"station_id":"st_d46tts09ee8s73dlu43g","pricing_plan_id":"cebpf4jnsgd1na2vs0mg"},{"bike_id":"bf716aa5-5db6-4f44-aa24-9167a51e58ca","system_id":"levelo_inurba_marseille","lat":43.31748,"lon":5.42409,"is_reserved":false,"is_disabled":false,"rental_uris":{"android":"levelo://app?vid=bf716aa5-5db6-4f44-aa24-9167a51e58ca","ios":"levelo://app?vid=bf716aa5-5db6-4f44-aa24-9167a51e58ca"},"vehicle_type_id":"4","last_reported":1770395521,"current_range_meters":4000,"station_id":"ce4bhp92rcd13ifvqhbg","pricing_plan_id":"cebpf4jnsgd1na2vs0mg"},{"bike_id":"0f89d917-71ef-437b-ba7e-068f36a3eb29","system_id":"levelo_inurba_marseille","lat":43.26556,"lon":5.37279,"is_reserved":false,"is_disabled":false,"rental_uris":{"android":"levelo://app?vid=0f89d917-71ef-437b-ba7e-068f36a3eb29","ios":"levelo://app?vid=0f89d917-71ef-437b-ba7e-068f36a3eb29"},"vehicle_type_id":"4","last_reported":1770395521,"current_range_meters":4000,"station_id":"ce4bhg12rcd13ifvqf70","pricing_plan_id":"cebpf4jnsgd1na2vs0mg"},{"bike_id":"f69cc029-bbb9-4b64-a98c-7044a350dd65","system_id":"levelo_inurba_marseille","lat":43.255756,"lon":5.38226,"is_reserved":false,"is_disabled":false,"rental_uris":{"android":"levelo://app?vid=f69cc029-bbb9-4b64-a98c-7044a350dd65","ios":"levelo://app?vid=f69cc029-bbb9-4b64-a98c-7044a350dd65"},"vehicle_type_id":"4","last_reported":1770395521,"current_range_meters":4000,"station_id":"ce4bhih2rcd13ifvqfs0","pricing_plan_id":"cebpf4jnsgd1na2vs0mg"},{"bike_id":"f4c62522-4c72-4c9a-8646-b09f0fb12b1e","system_id":"levelo_inurba_marseille","lat":43.26686,"lon":5.38249,"is_reserved":false,"is_disabled":false,"rental_uris":{"android":"levelo://app?vid=f4c62522-4c72-4c9a-8646-b09f0fb12b1e","ios":"levelo://app?vid=f4c62522-4c72-4c9a-8646-b09f0fb12b1e"},"vehicle_type_id":"4","last_reported":1770395521,"current_range_meters":4000,"station_id":"ce4bhg92rcd13ifvqf90","pricing_plan_id":"cebpf4jnsgd1na2vs0mg"},{"bike_id":"26c7d084-f293-4153-a077-9f7b2608d7ab","system_id":"levelo_inurba_marseille","lat":43.2849,"lon":5.38421,"is_reserved":false,"is_disabled":false,"rental_uris":{"android":"levelo://app?vid=26c7d084-f293-4153-a077-9f7b2608d7ab","ios":"levelo://app?vid=26c7d084-f293-4153-a077-9f7b2608d7ab"},"vehicle_type_id":"4","last_reported":1770395521,"current_range_meters":4000,"station_id":"ce4bh512rcd13ifvqe3g","pricing_plan_id":"cebpf4jnsgd1na2vs0mg"},{"bike_id":"ae0eb4a0-49ee-4a02-b7ab-da66be7d9573","system_id":"levelo_inurba_marseille","lat":43.26222,"lon":5.40466,"is_reserved":false,"is_disabled":false,"rental_uris":{"android":"levelo://app?vid=ae0eb4a0-49ee-4a02-b7ab-da66be7d9573","ios":"levelo://app?vid=ae0eb4a0-49ee-4a02-b7ab-da66be7d9573"},"vehicle_type_id":"4","last_reported":1770395521,"current_range_meters":4000,"station_id":"ce4bhmh2rcd13ifvqgmg","pricing_plan_id":"cebpf4jnsgd1na2vs0mg"},{"bike_id":"c1141524-5343-4555-9ca5-2692a3456421","system_id":"levelo_inurba_marseille","lat":43.22931,"lon":5.3537,"is_reserved":false,"is_disabled":false,"rental_uris":{"android":"levelo://app?vid=c1141524-5343-4555-9ca5-2692a3456421","ios":"levelo://app?vid=c1141524-5343-4555-9ca5-2692a3456421"},"vehicle_type_id":"4","last_reported":1770395521,"current_range_meters":4000,"station_id":"cpo3532slgdg3j2ikp40","pricing_plan_id":"cebpf4jnsgd1na2vs0mg"},{"bike_id":"a6977f2a-cd72-455e-be1c-672172e04f38","system_id":"levelo_inurba_marseille","lat":43.24658,"lon":5.38167,"is_reserved":false,"is_disabled":false,"rental_uris":{"android":"levelo://app?vid=a6977f2a-cd72-455e-be1c-672172e04f38","ios":"levelo://app?vid=a6977f2a-cd72-455e-be1c-672172e04f38"},"vehicle_type_id":"4","last_reported":1770395521,"current_range_meters":4000,"station_id":"ce4bhih2rcd13ifvqfr0","pricing_plan_id":"cebpf4jnsgd1na2vs0mg"},{"bike_id":"66843164-e6dd-46fc-8743-26489dd47f53","system_id":"levelo_inurba_marseille","lat":43.31361,"lon":5.36724,"is_reserved":false,"is_disabled":false,"rental_uris":{"android":"levelo://app?vid=66843164-e6dd-46fc-8743-26489dd47f53","ios":"levelo://app?vid=66843164-e6dd-46fc-8743-26489dd47f53"},"vehicle_type_id":"4","last_reported":1770395521,"current_range_meters":4000,"station_id":"ce4bgr92rcd13ifvqc6g","pricing_plan_id":"cebpf4jnsgd1na2vs0mg"},{"bike_id":"c8692fc2-ddd3-44a2-a822-fff63dbdf803","system_id":"levelo_inurba_marseille","lat":43.31232,"lon":5.36838,"is_reserved":false,"is_disabled":false,"rental_uris":{"android":"levelo://app?vid=c8692fc2-ddd3-44a2-a822-fff63dbdf803","ios":"levelo://app?vid=c8692fc2-ddd3-44a2-a822-fff63dbdf803"},"vehicle_type_id":"4","last_reported":1770395521,"current_range_meters":4000,"station_id":"ce4bgl92rcd13ifvqbq0","pricing_plan_id":"cebpf4jnsgd1na2vs0mg"},{"bike_id":"666ae4b0-78b8-4bfd-8d57-b1fb492c689f","system_id":"levelo_inurba_marseille","lat":43.28252,"lon":5.35071,"is_reserved":false,"is_disabled":false,"rental_uris":{"android":"levelo://app?vid=666ae4b0-78b8-4bfd-8d57-b1fb492c689f","ios":"levelo://app?vid=666ae4b0-78b8-4bfd-8d57-b1fb492c689f"},"vehicle_type_id":"4","last_reported":1770395521,"current_range_meters":4400,"station_id":"ce4bhbp2rcd13ifvqerg","pricing_plan_id":"cebpf4jnsgd1na2vs0mg"},{"bike_id":"0db5263f-df2b-4f20-a0cc-dbdb43d27b50","system_id":"levelo_inurba_marseille","lat":43.28689,"lon":5.39978,"is_reserved":false,"is_disabled":false,"rental_uris":{"android":"levelo://app?vid=0db5263f-df2b-4f20-a0cc-dbdb43d27b50","ios":"levelo://app?vid=0db5263f-df2b-4f20-a0cc-dbdb43d27b50"},"vehicle_type_id":"4","last_reported":1770395521,"current_range_meters":4400,"station_id":"ce4bho92rcd13ifvqh3g","pricing_plan_id":"cebpf4jnsgd1na2vs0mg"},{"bike_id":"6a424415-2a25-499c-a701-0eb308322fe5","system_id":"levelo_inurba_marseille","lat":43.29801,"lon":5.38092,"is_reserved":false,"is_disabled":false,"rental_uris":{"android":"levelo://app?vid=6a424415-2a25-499c-a701-0eb308322fe5","ios":"levelo://app?vid=6a424415-2a25-499c-a701-0eb308322fe5"},"vehicle_type_id":"4","last_reported":1770395521,"current_range_meters":4400,"station_id":"ce4bgip2rcd13ifvqbb0","pricing_plan_id":"cebpf4jnsgd1na2vs0mg"},{"bike_id":"7a9437dc-9620-4e4d-ac55-f97780f81760","system_id":"levelo_inurba_marseille","lat":43.24812,"lon":5.37462,"is_reserved":false,"is_disabled":false,"rental_uris":{"android":"levelo://app?vid=7a9437dc-9620-4e4d-ac55-f97780f81760","ios":"levelo://app?vid=7a9437dc-9620-4e4d-ac55-f97780f81760"},"vehicle_type_id":"4","last_reported":1770395521,"current_range_meters":4400,"station_id":"ce4bhgh2rcd13ifvqfb0","pricing_plan_id":"cebpf4jnsgd1na2vs0mg"},{"bike_id":"b3da51f1-3959-4461-a2db-5ccced52aa40","system_id":"levelo_inurba_marseille","lat":43.29041,"lon":5.35897,"is_reserved":false,"is_disabled":false,"rental_uris":{"android":"levelo://app?vid=b3da51f1-3959-4461-a2db-5ccced52aa40","ios":"levelo://app?vid=b3da51f1-3959-4461-a2db-5ccced52aa40"},"vehicle_type_id":"4","last_reported":1770395521,"current_range_meters":4400,"station_id":"ce4bha92rcd13ifvqeg0","pricing_plan_id":"cebpf4jnsgd1na2vs0mg"},{"bike_id":"c57801d2-2bdd-4aad-940d-26c86ea08fea","system_id":"levelo_inurba_marseille","lat":43.300485,"lon":5.380824,"is_reserved":false,"is_disabled":false,"rental_uris":{"android":"levelo://app?vid=c57801d2-2bdd-4aad-940d-26c86ea08fea","ios":"levelo://app?vid=c57801d2-2bdd-4aad-940d-26c86ea08fea"},"vehicle_type_id":"4","last_reported":1770395521,"current_range_meters":4400,"station_id":"ce4bh692rcd13ifvqea0","pricing_plan_id":"cebpf4jnsgd1na2vs0mg"},{"bike_id":"68c4dda3-2dd7-4d6b-bf4d-22aadf33abb0","system_id":"levelo_inurba_marseille","lat":43.284036,"lon":5.375003,"is_reserved":false,"is_disabled":false,"rental_uris":{"android":"levelo://app?vid=68c4dda3-2dd7-4d6b-bf4d-22aadf33abb0","ios":"levelo://app?vid=68c4dda3-2dd7-4d6b-bf4d-22aadf33abb0"},"vehicle_type_id":"4","last_reported":1770395521,"current_range_meters":4400,"station_id":"ce4bh412rcd13ifvqds0","pricing_plan_id":"cebpf4jnsgd1na2vs0mg"},{"bike_id":"e31a71db-35c9-4e05-a23e-dc33218194b8","system_id":"levelo_inurba_marseille","lat":43.29173,"lon":5.37154,"is_reserved":false,"is_disabled":false,"rental_uris":{"android":"levelo://app?vid=e31a71db-35c9-4e05-a23e-dc33218194b8","ios":"levelo://app?vid=e31a71db-35c9-4e05-a23e-dc33218194b8"},"vehicle_type_id":"4","last_reported":1770395521,"current_range_meters":4400,"station_id":"ce4bha92rcd13ifvqeh0","pricing_plan_id":"cebpf4jnsgd1na2vs0mg"},{"bike_id":"7137914f-7559-4d56-83ec-95e08b42ddd1","system_id":"levelo_inurba_marseille","lat":43.27335,"lon":5.39061,"is_reserved":false,"is_disabled":false,"rental_uris":{"android":"levelo://app?vid=7137914f-7559-4d56-83ec-95e08b42ddd1","ios":"levelo://app?vid=7137914f-7559-4d56-83ec-95e08b42ddd1"},"vehicle_type_id":"4","last_reported":1770395521,"current_range_meters":4400,"station_id":"ce4bhgp2rcd13ifvqfe0","pricing_plan_id":"cebpf4jnsgd1na2vs0mg"},{"bike_id":"8c792da0-ce48-4a04-8400-c2f7a5620331","system_id":"levelo_inurba_marseille","lat":43.24808,"lon":5.37458,"is_reserved":false,"is_disabled":false,"rental_uris":{"android":"levelo://app?vid=8c792da0-ce48-4a04-8400-c2f7a5620331","ios":"levelo://app?vid=8c792da0-ce48-4a04-8400-c2f7a5620331"},"vehicle_type_id":"4","last_reported":1770395521,"current_range_meters":4400,"station_id":"ce4bhgh2rcd13ifvqfb0","pricing_plan_id":"cebpf4jnsgd1na2vs0mg"},{"bike_id":"0ff7d1fc-c942-4e04-bb24-6b30b880d197","system_id":"levelo_inurba_marseille","lat":43.315341,"lon":5.368761,"is_reserved":false,"is_disabled":false,"rental_uris":{"android":"levelo://app?vid=0ff7d1fc-c942-4e04-bb24-6b30b880d197","ios":"levelo://app?vid=0ff7d1fc-c942-4e04-bb24-6b30b880d197"},"vehicle_type_id":"4","last_reported":1770395521,"current_range_meters":4400,"station_id":"","pricing_plan_id":"cebpf4jnsgd1na2vs0mg"},{"bike_id":"f962822c-06bc-4486-a477-eaae1a981a6b","system_id":"levelo_inurba_marseille","lat":43.27523,"lon":5.3847,"is_reserved":false,"is_disabled":false,"rental_uris":{"android":"levelo://app?vid=f962822c-06bc-4486-a477-eaae1a981a6b","ios":"levelo://app?vid=f962822c-06bc-4486-a477-eaae1a981a6b"},"vehicle_type_id":"4","last_reported":1770395521,"current_range_meters":4400,"station_id":"","pricing_plan_id":"cebpf4jnsgd1na2vs0mg"},{"bike_id":"d1be7ff1-dd6d-4a87-ba4a-89b163961305","system_id":"levelo_inurba_marseille","lat":43.289433,"lon":5.364024,"is_reserved":false,"is_disabled":false,"rental_uris":{"android":"levelo://app?vid=d1be7ff1-dd6d-4a87-ba4a-89b163961305","ios":"levelo://app?vid=d1be7ff1-dd6d-4a87-ba4a-89b163961305"},"vehicle_type_id":"4","last_reported":1770395521,"current_range_meters":4400,"station_id":"ce4bhc92rcd13ifvqetg","pricing_plan_id":"cebpf4jnsgd1na2vs0mg"},{"bike_id":"5c553f9c-fd85-46cd-b3d7-a48feccd8924","system_id":"levelo_inurba_marseille","lat":43.246483,"lon":5.388967,"is_reserved":false,"is_disabled":false,"rental_uris":{"android":"levelo://app?vid=5c553f9c-fd85-46cd-b3d7-a48feccd8924","ios":"levelo://app?vid=5c553f9c-fd85-46cd-b3d7-a48feccd8924"},"vehicle_type_id":"4","last_reported":1770395521,"current_range_meters":4400,"station_id":"ce4bhg12rcd13ifvqf60","pricing_plan_id":"cebpf4jnsgd1na2vs0mg"},{"bike_id":"6c706595-1835-4ddf-8d94-5e35d4a0f5cb","system_id":"levelo_inurba_marseille","lat":43.31197,"lon":5.36823,"is_reserved":false,"is_disabled":false,"rental_uris":{"android":"levelo://app?vid=6c706595-1835-4ddf-8d94-5e35d4a0f5cb","ios":"levelo://app?vid=6c706595-1835-4ddf-8d94-5e35d4a0f5cb"},"vehicle_type_id":"4","last_reported":1770395521,"current_range_meters":4800,"station_id":"ce4bgl92rcd13ifvqbq0","pricing_plan_id":"cebpf4jnsgd1na2vs0mg"},{"bike_id":"c0bcc2b4-0c21-4712-82e8-d7d1de58590b","system_id":"levelo_inurba_marseille","lat":43.2637,"lon":5.41051,"is_reserved":false,"is_disabled":true,"rental_uris":{"android":"levelo://app?vid=c0bcc2b4-0c21-4712-82e8-d7d1de58590b","ios":"levelo://app?vid=c0bcc2b4-0c21-4712-82e8-d7d1de58590b"},"vehicle_type_id":"4","last_reported":1770395521,"current_range_meters":4800,"station_id":"","pricing_plan_id":"cebpf4jnsgd1na2vs0mg"},{"bike_id":"7ce3271c-9e28-4d5e-b3b1-77311e5df5d7","system_id":"levelo_inurba_marseille","lat":43.31488,"lon":5.38089,"is_reserved":false,"is_disabled":false,"rental_uris":{"android":"levelo://app?vid=7ce3271c-9e28-4d5e-b3b1-77311e5df5d7","ios":"levelo://app?vid=7ce3271c-9e28-4d5e-b3b1-77311e5df5d7"},"vehicle_type_id":"4","last_reported":1770395521,"current_range_meters":4800,"station_id":"","pricing_plan_id":"cebpf4jnsgd1na2vs0mg"},{"bike_id":"ed0b7b07-9c38-4fb9-bc30-93ba90939795","system_id":"levelo_inurba_marseille","lat":43.33164,"lon":5.37719,"is_reserved":false,"is_disabled":false,"rental_uris":{"android":"levelo://app?vid=ed0b7b07-9c38-4fb9-bc30-93ba90939795","ios":"levelo://app?vid=ed0b7b07-9c38-4fb9-bc30-93ba90939795"},"vehicle_type_id":"4","last_reported":1770395521,"current_range_meters":4800,"station_id":"st_d46cu089ee8s73dldbu0","pricing_plan_id":"cebpf4jnsgd1na2vs0mg"},{"bike_id":"c79d63d7-0dac-478e-9523-659b3a13c6c7","system_id":"levelo_inurba_marseille","lat":43.257187,"lon":5.411053,"is_reserved":false,"is_disabled":false,"rental_uris":{"android":"levelo://app?vid=c79d63d7-0dac-478e-9523-659b3a13c6c7","ios":"levelo://app?vid=c79d63d7-0dac-478e-9523-659b3a13c6c7"},"vehicle_type_id":"4","last_reported":1770395521,"current_range_meters":4800,"station_id":"ce4bhkp2rcd13ifvqgd0","pricing_plan_id":"cebpf4jnsgd1na2vs0mg"},{"bike_id":"9f8a5de8-e6c8-425f-ae58-d128efb77aa0","system_id":"levelo_inurba_marseille","lat":43.2988,"lon":5.38891,"is_reserved":false,"is_disabled":false,"rental_uris":{"android":"levelo://app?vid=9f8a5de8-e6c8-425f-ae58-d128efb77aa0","ios":"levelo://app?vid=9f8a5de8-e6c8-425f-ae58-d128efb77aa0"},"vehicle_type_id":"4","last_reported":1770395521,"current_range_meters":4800,"station_id":"ce4bh392rcd13ifvqdl0","pricing_plan_id":"cebpf4jnsgd1na2vs0mg"},{"bike_id":"a32e2519-3fda-418b-8281-9e699514eeeb","system_id":"levelo_inurba_marseille","lat":43.31547,"lon":5.38046,"is_reserved":false,"is_disabled":false,"rental_uris":{"android":"levelo://app?vid=a32e2519-3fda-418b-8281-9e699514eeeb","ios":"levelo://app?vid=a32e2519-3fda-418b-8281-9e699514eeeb"},"vehicle_type_id":"4","last_reported":1770395521,"current_range_meters":4800,"station_id":"ce4bhsp2rcd13ifvqi50","pricing_plan_id":"cebpf4jnsgd1na2vs0mg"},{"bike_id":"fbab9589-eea8-4832-bb1f-41096b1f1609","system_id":"levelo_inurba_marseille","lat":43.28605,"lon":5.3706,"is_reserved":false,"is_disabled":false,"rental_uris":{"android":"levelo://app?vid=fbab9589-eea8-4832-bb1f-41096b1f1609","ios":"levelo://app?vid=fbab9589-eea8-4832-bb1f-41096b1f1609"},"vehicle_type_id":"4","last_reported":1770395521,"current_range_meters":4800,"station_id":"ce4bht12rcd13ifvqi60","pricing_plan_id":"cebpf4jnsgd1na2vs0mg"},{"bike_id":"e9ec8e1d-fa7b-461e-a003-5e1ecc899837","system_id":"levelo_inurba_marseille","lat":43.29568,"lon":5.39968,"is_reserved":false,"is_disabled":false,"rental_uris":{"android":"levelo://app?vid=e9ec8e1d-fa7b-461e-a003-5e1ecc899837","ios":"levelo://app?vid=e9ec8e1d-fa7b-461e-a003-5e1ecc899837"},"vehicle_type_id":"4","last_reported":1770395521,"current_range_meters":4800,"station_id":"ce4bh312rcd13ifvqdj0","pricing_plan_id":"cebpf4jnsgd1na2vs0mg"},{"bike_id":"ebcf28bf-24cb-46fe-87ce-175aba8533e8","system_id":"levelo_inurba_marseille","lat":43.29006,"lon":5.35606,"is_reserved":false,"is_disabled":false,"rental_uris":{"android":"levelo://app?vid=ebcf28bf-24cb-46fe-87ce-175aba8533e8","ios":"levelo://app?vid=ebcf28bf-24cb-46fe-87ce-175aba8533e8"},"vehicle_type_id":"4","last_reported":1770395521,"current_range_meters":5600,"station_id":"ce4bhb92rcd13ifvqen0","pricing_plan_id":"cebpf4jnsgd1na2vs0mg"},{"bike_id":"7ac9e4f1-43bc-4824-844d-47c509ca22f7","system_id":"levelo_inurba_marseille","lat":43.2957,"lon":5.3998,"is_reserved":false,"is_disabled":false,"rental_uris":{"android":"levelo://app?vid=7ac9e4f1-43bc-4824-844d-47c509ca22f7","ios":"levelo://app?vid=7ac9e4f1-43bc-4824-844d-47c509ca22f7"},"vehicle_type_id":"4","last_reported":1770395521,"current_range_meters":5600,"station_id":"ce4bh312rcd13ifvqdj0","pricing_plan_id":"cebpf4jnsgd1na2vs0mg"},{"bike_id":"e828d527-8440-48a4-bdb9-e5a401bbd1aa","system_id":"levelo_inurba_marseille","lat":43.31538,"lon":5.38033,"is_reserved":false,"is_disabled":false,"rental_uris":{"android":"levelo://app?vid=e828d527-8440-48a4-bdb9-e5a401bbd1aa","ios":"levelo://app?vid=e828d527-8440-48a4-bdb9-e5a401bbd1aa"},"vehicle_type_id":"4","last_reported":1770395521,"current_range_meters":5600,"station_id":"ce4bhsp2rcd13ifvqi50","pricing_plan_id":"cebpf4jnsgd1na2vs0mg"},{"bike_id":"f0d45e46-9d23-4329-92a4-e4ddc618e990","system_id":"levelo_inurba_marseille","lat":43.2293,"lon":5.35375,"is_reserved":false,"is_disabled":false,"rental_uris":{"android":"levelo://app?vid=f0d45e46-9d23-4329-92a4-e4ddc618e990","ios":"levelo://app?vid=f0d45e46-9d23-4329-92a4-e4ddc618e990"},"vehicle_type_id":"4","last_reported":1770395521,"current_range_meters":5600,"station_id":"cpo3532slgdg3j2ikp40","pricing_plan_id":"cebpf4jnsgd1na2vs0mg"},{"bike_id":"0c0204e9-2e2c-4854-9498-c261c0135345","system_id":"levelo_inurba_marseille","lat":43.23783,"lon":5.36638,"is_reserved":false,"is_disabled":false,"rental_uris":{"android":"levelo://app?vid=0c0204e9-2e2c-4854-9498-c261c0135345","ios":"levelo://app?vid=0c0204e9-2e2c-4854-9498-c261c0135345"},"vehicle_type_id":"4","last_reported":1770395521,"current_range_meters":5600,"station_id":"st_d3nk18o9ro0c73en2l3g","pricing_plan_id":"cebpf4jnsgd1na2vs0mg"},{"bike_id":"4f7d41e3-f9d8-470b-99d3-80dafc768b1e","system_id":"levelo_inurba_marseille","lat":43.29006,"lon":5.35618,"is_reserved":false,"is_disabled":false,"rental_uris":{"android":"levelo://app?vid=4f7d41e3-f9d8-470b-99d3-80dafc768b1e","ios":"levelo://app?vid=4f7d41e3-f9d8-470b-99d3-80dafc768b1e"},"vehicle_type_id":"4","last_reported":1770395521,"current_range_meters":5600,"station_id":"ce4bhb92rcd13ifvqen0","pricing_plan_id":"cebpf4jnsgd1na2vs0mg"},{"bike_id":"ac551100-dc22-4913-9a52-4829a5f95f35","system_id":"levelo_inurba_marseille","lat":43.28614,"lon":5.39881,"is_reserved":false,"is_disabled":true,"rental_uris":{"android":"levelo://app?vid=ac551100-dc22-4913-9a52-4829a5f95f35","ios":"levelo://app?vid=ac551100-dc22-4913-9a52-4829a5f95f35"},"vehicle_type_id":"4","last_reported":1770395521,"current_range_meters":5600,"station_id":"st_d4a7ka997mjs738ck50g","pricing_plan_id":"cebpf4jnsgd1na2vs0mg"},{"bike_id":"9348a908-aec0-4119-8774-48db105c0d12","system_id":"levelo_inurba_marseille","lat":43.290039,"lon":5.356138,"is_reserved":false,"is_disabled":false,"rental_uris":{"android":"levelo://app?vid=9348a908-aec0-4119-8774-48db105c0d12","ios":"levelo://app?vid=9348a908-aec0-4119-8774-48db105c0d12"},"vehicle_type_id":"4","last_reported":1770395521,"current_range_meters":5600,"station_id":"ce4bhb92rcd13ifvqen0","pricing_plan_id":"cebpf4jnsgd1na2vs0mg"},{"bike_id":"6e841bf6-5397-4553-8cf2-e04c1ae59db0","system_id":"levelo_inurba_marseille","lat":43.28996,"lon":5.35612,"is_reserved":false,"is_disabled":true,"rental_uris":{"android":"levelo://app?vid=6e841bf6-5397-4553-8cf2-e04c1ae59db0","ios":"levelo://app?vid=6e841bf6-5397-4553-8cf2-e04c1ae59db0"},"vehicle_type_id":"4","last_reported":1770395521,"current_range_meters":6000,"station_id":"ce4bhb92rcd13ifvqen0","pricing_plan_id":"cebpf4jnsgd1na2vs0mg"},{"bike_id":"f1bff026-bd99-4af5-9efa-17efa0f261ab","system_id":"levelo_inurba_marseille","lat":43.30534,"lon":5.36537,"is_reserved":false,"is_disabled":false,"rental_uris":{"android":"levelo://app?vid=f1bff026-bd99-4af5-9efa-17efa0f261ab","ios":"levelo://app?vid=f1bff026-bd99-4af5-9efa-17efa0f261ab"},"vehicle_type_id":"4","last_reported":1770395521,"current_range_meters":6000,"station_id":"ce4bgs12rcd13ifvqcag","pricing_plan_id":"cebpf4jnsgd1na2vs0mg"},{"bike_id":"b0795cc3-993f-4fc4-a8c9-4fe660053a43","system_id":"levelo_inurba_marseille","lat":43.291225,"lon":5.382813,"is_reserved":false,"is_disabled":false,"rental_uris":{"android":"levelo://app?vid=b0795cc3-993f-4fc4-a8c9-4fe660053a43","ios":"levelo://app?vid=b0795cc3-993f-4fc4-a8c9-4fe660053a43"},"vehicle_type_id":"4","last_reported":1770395521,"current_range_meters":6000,"station_id":"ce4bh192rcd13ifvqdd0","pricing_plan_id":"cebpf4jnsgd1na2vs0mg"},{"bike_id":"63b5e7ff-784a-44cb-b53d-dd43a84f5930","system_id":"levelo_inurba_marseille","lat":43.24164,"lon":5.36398,"is_reserved":false,"is_disabled":false,"rental_uris":{"android":"levelo://app?vid=63b5e7ff-784a-44cb-b53d-dd43a84f5930","ios":"levelo://app?vid=63b5e7ff-784a-44cb-b53d-dd43a84f5930"},"vehicle_type_id":"4","last_reported":1770395521,"current_range_meters":6000,"station_id":"cpo36qri1sfpv3e86is0","pricing_plan_id":"cebpf4jnsgd1na2vs0mg"},{"bike_id":"3b5364ee-bb51-463a-bdaf-2cdff4206eea","system_id":"levelo_inurba_marseille","lat":43.28267,"lon":5.35065,"is_reserved":false,"is_disabled":false,"rental_uris":{"android":"levelo://app?vid=3b5364ee-bb51-463a-bdaf-2cdff4206eea","ios":"levelo://app?vid=3b5364ee-bb51-463a-bdaf-2cdff4206eea"},"vehicle_type_id":"4","last_reported":1770395521,"current_range_meters":6000,"station_id":"ce4bhbp2rcd13ifvqerg","pricing_plan_id":"cebpf4jnsgd1na2vs0mg"},{"bike_id":"ff4ea7e2-7381-432f-8f1f-c9fc273428a9","system_id":"levelo_inurba_marseille","lat":43.290017,"lon":5.356185,"is_reserved":false,"is_disabled":false,"rental_uris":{"android":"levelo://app?vid=ff4ea7e2-7381-432f-8f1f-c9fc273428a9","ios":"levelo://app?vid=ff4ea7e2-7381-432f-8f1f-c9fc273428a9"},"vehicle_type_id":"4","last_reported":1770395521,"current_range_meters":6000,"station_id":"ce4bhb92rcd13ifvqen0","pricing_plan_id":"cebpf4jnsgd1na2vs0mg"},{"bike_id":"de6536c6-12b6-4b78-9e49-9ee04df7bc19","system_id":"levelo_inurba_marseille","lat":43.21739,"lon":5.346,"is_reserved":false,"is_disabled":false,"rental_uris":{"android":"levelo://app?vid=de6536c6-12b6-4b78-9e49-9ee04df7bc19","ios":"levelo://app?vid=de6536c6-12b6-4b78-9e49-9ee04df7bc19"},"vehicle_type_id":"4","last_reported":1770395521,"current_range_meters":6000,"station_id":"st_cvj6r9ubvosntc0bgbag","pricing_plan_id":"cebpf4jnsgd1na2vs0mg"},{"bike_id":"787224db-6dd7-44dc-92e5-cc8ca7dd3b8e","system_id":"levelo_inurba_marseille","lat":43.298019,"lon":5.395535,"is_reserved":false,"is_disabled":false,"rental_uris":{"android":"levelo://app?vid=787224db-6dd7-44dc-92e5-cc8ca7dd3b8e","ios":"levelo://app?vid=787224db-6dd7-44dc-92e5-cc8ca7dd3b8e"},"vehicle_type_id":"4","last_reported":1770395521,"current_range_meters":6000,"station_id":"chh1huq6cuj3fo74tm60","pricing_plan_id":"cebpf4jnsgd1na2vs0mg"},{"bike_id":"0388f24a-b566-45b1-a38a-12fb5d338f89","system_id":"levelo_inurba_marseille","lat":43.31652,"lon":5.37647,"is_reserved":false,"is_disabled":false,"rental_uris":{"android":"levelo://app?vid=0388f24a-b566-45b1-a38a-12fb5d338f89","ios":"levelo://app?vid=0388f24a-b566-45b1-a38a-12fb5d338f89"},"vehicle_type_id":"4","last_reported":1770395521,"current_range_meters":6000,"station_id":"","pricing_plan_id":"cebpf4jnsgd1na2vs0mg"},{"bike_id":"eb1aee22-66f7-40e1-8d42-129f37193ad0","system_id":"levelo_inurba_marseille","lat":43.29229,"lon":5.39909,"is_reserved":false,"is_disabled":false,"rental_uris":{"android":"levelo://app?vid=eb1aee22-66f7-40e1-8d42-129f37193ad0","ios":"levelo://app?vid=eb1aee22-66f7-40e1-8d42-129f37193ad0"},"vehicle_type_id":"4","last_reported":1770395521,"current_range_meters":6000,"station_id":"","pricing_plan_id":"cebpf4jnsgd1na2vs0mg"},{"bike_id":"b837567d-4fa3-4142-957d-bd46f977e765","system_id":"levelo_inurba_marseille","lat":43.23888,"lon":5.39742,"is_reserved":false,"is_disabled":false,"rental_uris":{"android":"levelo://app?vid=b837567d-4fa3-4142-957d-bd46f977e765","ios":"levelo://app?vid=b837567d-4fa3-4142-957d-bd46f977e765"},"vehicle_type_id":"4","last_reported":1770395521,"current_range_meters":6000,"station_id":"","pricing_plan_id":"cebpf4jnsgd1na2vs0mg"},{"bike_id":"cb93fb1a-f0d4-445b-842d-15fd7dd09e5e","system_id":"levelo_inurba_marseille","lat":43.2953,"lon":5.38533,"is_reserved":false,"is_disabled":false,"rental_uris":{"android":"levelo://app?vid=cb93fb1a-f0d4-445b-842d-15fd7dd09e5e","ios":"levelo://app?vid=cb93fb1a-f0d4-445b-842d-15fd7dd09e5e"},"vehicle_type_id":"4","last_reported":1770395521,"current_range_meters":6000,"station_id":"ce4bgih2rcd13ifvqba0","pricing_plan_id":"cebpf4jnsgd1na2vs0mg"},{"bike_id":"626603c2-92a2-4df1-9e11-9ecbae52874c","system_id":"levelo_inurba_marseille","lat":43.29201,"lon":5.35819,"is_reserved":false,"is_disabled":false,"rental_uris":{"android":"levelo://app?vid=626603c2-92a2-4df1-9e11-9ecbae52874c","ios":"levelo://app?vid=626603c2-92a2-4df1-9e11-9ecbae52874c"},"vehicle_type_id":"4","last_reported":1770395521,"current_range_meters":6000,"station_id":"ce4bhb12rcd13ifvqel0","pricing_plan_id":"cebpf4jnsgd1na2vs0mg"},{"bike_id":"375e9bcb-b945-4768-82d3-b05471dcf5fd","system_id":"levelo_inurba_marseille","lat":43.28919,"lon":5.46025,"is_reserved":false,"is_disabled":false,"rental_uris":{"android":"levelo://app?vid=375e9bcb-b945-4768-82d3-b05471dcf5fd","ios":"levelo://app?vid=375e9bcb-b945-4768-82d3-b05471dcf5fd"},"vehicle_type_id":"4","last_reported":1770395521,"current_range_meters":6400,"station_id":"","pricing_plan_id":"cebpf4jnsgd1na2vs0mg"},{"bike_id":"5638c18f-ee6c-4ee5-b21a-789fc9850573","system_id":"levelo_inurba_marseille","lat":43.31279,"lon":5.4017,"is_reserved":false,"is_disabled":false,"rental_uris":{"android":"levelo://app?vid=5638c18f-ee6c-4ee5-b21a-789fc9850573","ios":"levelo://app?vid=5638c18f-ee6c-4ee5-b21a-789fc9850573"},"vehicle_type_id":"4","last_reported":1770395521,"current_range_meters":6400,"station_id":"ce4bh092rcd13ifvqd30","pricing_plan_id":"cebpf4jnsgd1na2vs0mg"},{"bike_id":"86ef6d29-a1ae-4ad3-85ee-72ede19038e6","system_id":"levelo_inurba_marseille","lat":43.321084,"lon":5.367749,"is_reserved":false,"is_disabled":false,"rental_uris":{"android":"levelo://app?vid=86ef6d29-a1ae-4ad3-85ee-72ede19038e6","ios":"levelo://app?vid=86ef6d29-a1ae-4ad3-85ee-72ede19038e6"},"vehicle_type_id":"4","last_reported":1770395521,"current_range_meters":6400,"station_id":"ce4bhrh2rcd13ifvqhug","pricing_plan_id":"cebpf4jnsgd1na2vs0mg"},{"bike_id":"6e866478-bb02-4bbe-920b-4ea9680c0797","system_id":"levelo_inurba_marseille","lat":43.27231,"lon":5.39188,"is_reserved":false,"is_disabled":false,"rental_uris":{"android":"levelo://app?vid=6e866478-bb02-4bbe-920b-4ea9680c0797","ios":"levelo://app?vid=6e866478-bb02-4bbe-920b-4ea9680c0797"},"vehicle_type_id":"4","last_reported":1770395521,"current_range_meters":6400,"station_id":"ce4bhhp2rcd13ifvqfm0","pricing_plan_id":"cebpf4jnsgd1na2vs0mg"},{"bike_id":"ef79007e-ef6d-4e7f-a3ae-3ed5ead69e87","system_id":"levelo_inurba_marseille","lat":43.23188,"lon":5.35556,"is_reserved":false,"is_disabled":false,"rental_uris":{"android":"levelo://app?vid=ef79007e-ef6d-4e7f-a3ae-3ed5ead69e87","ios":"levelo://app?vid=ef79007e-ef6d-4e7f-a3ae-3ed5ead69e87"},"vehicle_type_id":"4","last_reported":1770395521,"current_range_meters":6400,"station_id":"ce4bhu92rcd13ifvqi70","pricing_plan_id":"cebpf4jnsgd1na2vs0mg"},{"bike_id":"ce42e7f7-46f5-4db3-9bac-ce86f1010cc5","system_id":"levelo_inurba_marseille","lat":43.23384,"lon":5.4124,"is_reserved":false,"is_disabled":false,"rental_uris":{"android":"levelo://app?vid=ce42e7f7-46f5-4db3-9bac-ce86f1010cc5","ios":"levelo://app?vid=ce42e7f7-46f5-4db3-9bac-ce86f1010cc5"},"vehicle_type_id":"4","last_reported":1770395521,"current_range_meters":6400,"station_id":"","pricing_plan_id":"cebpf4jnsgd1na2vs0mg"},{"bike_id":"94b44417-a21a-4d69-bb88-2cb88dfc3dca","system_id":"levelo_inurba_marseille","lat":43.30123,"lon":5.43115,"is_reserved":false,"is_disabled":false,"rental_uris":{"android":"levelo://app?vid=94b44417-a21a-4d69-bb88-2cb88dfc3dca","ios":"levelo://app?vid=94b44417-a21a-4d69-bb88-2cb88dfc3dca"},"vehicle_type_id":"4","last_reported":1770395521,"current_range_meters":6400,"station_id":"st_d3js3co5814s73ftftug","pricing_plan_id":"cebpf4jnsgd1na2vs0mg"},{"bike_id":"ea394ce4-561e-40c3-b5d8-13958e8a40d6","system_id":"levelo_inurba_marseille","lat":43.23189,"lon":5.35557,"is_reserved":false,"is_disabled":false,"rental_uris":{"android":"levelo://app?vid=ea394ce4-561e-40c3-b5d8-13958e8a40d6","ios":"levelo://app?vid=ea394ce4-561e-40c3-b5d8-13958e8a40d6"},"vehicle_type_id":"4","last_reported":1770395521,"current_range_meters":6400,"station_id":"ce4bhu92rcd13ifvqi70","pricing_plan_id":"cebpf4jnsgd1na2vs0mg"},{"bike_id":"04c96415-a444-4a52-a17e-1511a7e97b88","system_id":"levelo_inurba_marseille","lat":43.29263,"lon":5.40895,"is_reserved":false,"is_disabled":false,"rental_uris":{"android":"levelo://app?vid=04c96415-a444-4a52-a17e-1511a7e97b88","ios":"levelo://app?vid=04c96415-a444-4a52-a17e-1511a7e97b88"},"vehicle_type_id":"4","last_reported":1770395521,"current_range_meters":6400,"station_id":"ce4bh192rcd13ifvqdc0","pricing_plan_id":"cebpf4jnsgd1na2vs0mg"},{"bike_id":"90e59ac1-cd46-446b-b3a8-2b22481380d2","system_id":"levelo_inurba_marseille","lat":43.30887,"lon":5.37193,"is_reserved":false,"is_disabled":false,"rental_uris":{"android":"levelo://app?vid=90e59ac1-cd46-446b-b3a8-2b22481380d2","ios":"levelo://app?vid=90e59ac1-cd46-446b-b3a8-2b22481380d2"},"vehicle_type_id":"4","last_reported":1770395521,"current_range_meters":6400,"station_id":"ce4bguh2rcd13ifvqckg","pricing_plan_id":"cebpf4jnsgd1na2vs0mg"},{"bike_id":"14a0bfe2-9ad8-41a2-8100-306572082be4","system_id":"levelo_inurba_marseille","lat":43.24657,"lon":5.38897,"is_reserved":false,"is_disabled":false,"rental_uris":{"android":"levelo://app?vid=14a0bfe2-9ad8-41a2-8100-306572082be4","ios":"levelo://app?vid=14a0bfe2-9ad8-41a2-8100-306572082be4"},"vehicle_type_id":"4","last_reported":1770395521,"current_range_meters":6400,"station_id":"ce4bhg12rcd13ifvqf60","pricing_plan_id":"cebpf4jnsgd1na2vs0mg"},{"bike_id":"00d94e2b-496f-4d3a-b88d-aa873d20c11e","system_id":"levelo_inurba_marseille","lat":43.289752,"lon":5.366467,"is_reserved":false,"is_disabled":false,"rental_uris":{"android":"levelo://app?vid=00d94e2b-496f-4d3a-b88d-aa873d20c11e","ios":"levelo://app?vid=00d94e2b-496f-4d3a-b88d-aa873d20c11e"},"vehicle_type_id":"4","last_reported":1770395521,"current_range_meters":6400,"station_id":"ce4bh412rcd13ifvqds0","pricing_plan_id":"cebpf4jnsgd1na2vs0mg"},{"bike_id":"c8aff1fe-5f04-4fd7-864c-64d4b266f9d6","system_id":"levelo_inurba_marseille","lat":43.302065,"lon":5.36618,"is_reserved":false,"is_disabled":false,"rental_uris":{"android":"levelo://app?vid=c8aff1fe-5f04-4fd7-864c-64d4b266f9d6","ios":"levelo://app?vid=c8aff1fe-5f04-4fd7-864c-64d4b266f9d6"},"vehicle_type_id":"4","last_reported":1770395521,"current_range_meters":6400,"station_id":"ce4bgrh2rcd13ifvqc8g","pricing_plan_id":"cebpf4jnsgd1na2vs0mg"},{"bike_id":"7ac831d0-c233-423c-a19f-b6dd1aae8bbf","system_id":"levelo_inurba_marseille","lat":43.27371,"lon":5.36259,"is_reserved":false,"is_disabled":false,"rental_uris":{"android":"levelo://app?vid=7ac831d0-c233-423c-a19f-b6dd1aae8bbf","ios":"levelo://app?vid=7ac831d0-c233-423c-a19f-b6dd1aae8bbf"},"vehicle_type_id":"4","last_reported":1770395521,"current_range_meters":6400,"station_id":"ce4bhbh2rcd13ifvqeo0","pricing_plan_id":"cebpf4jnsgd1na2vs0mg"},{"bike_id":"604de93c-158a-4faa-a9a0-c122757555b7","system_id":"levelo_inurba_marseille","lat":43.30214,"lon":5.39485,"is_reserved":false,"is_disabled":false,"rental_uris":{"android":"levelo://app?vid=604de93c-158a-4faa-a9a0-c122757555b7","ios":"levelo://app?vid=604de93c-158a-4faa-a9a0-c122757555b7"},"vehicle_type_id":"4","last_reported":1770395521,"current_range_meters":6400,"station_id":"ce4bh0p2rcd13ifvqd70","pricing_plan_id":"cebpf4jnsgd1na2vs0mg"},{"bike_id":"02682e2b-1e64-42fc-a10e-66b961c1b761","system_id":"levelo_inurba_marseille","lat":43.26567,"lon":5.39009,"is_reserved":false,"is_disabled":false,"rental_uris":{"android":"levelo://app?vid=02682e2b-1e64-42fc-a10e-66b961c1b761","ios":"levelo://app?vid=02682e2b-1e64-42fc-a10e-66b961c1b761"},"vehicle_type_id":"4","last_reported":1770395521,"current_range_meters":6400,"station_id":"ce4bhe12rcd13ifvqf30","pricing_plan_id":"cebpf4jnsgd1na2vs0mg"},{"bike_id":"8bfda268-9090-497f-a486-12ea6e745a02","system_id":"levelo_inurba_marseille","lat":43.26357,"lon":5.41061,"is_reserved":false,"is_disabled":false,"rental_uris":{"android":"levelo://app?vid=8bfda268-9090-497f-a486-12ea6e745a02","ios":"levelo://app?vid=8bfda268-9090-497f-a486-12ea6e745a02"},"vehicle_type_id":"4","last_reported":1770395521,"current_range_meters":6400,"station_id":"st_d4e5ca6na9uc73bfl5fg","pricing_plan_id":"cebpf4jnsgd1na2vs0mg"},{"bike_id":"b02fbb60-e23e-4658-8f76-7a7c1172a579","system_id":"levelo_inurba_marseille","lat":43.26548,"lon":5.37273,"is_reserved":false,"is_disabled":false,"rental_uris":{"android":"levelo://app?vid=b02fbb60-e23e-4658-8f76-7a7c1172a579","ios":"levelo://app?vid=b02fbb60-e23e-4658-8f76-7a7c1172a579"},"vehicle_type_id":"4","last_reported":1770395521,"current_range_meters":6400,"station_id":"ce4bhg12rcd13ifvqf70","pricing_plan_id":"cebpf4jnsgd1na2vs0mg"},{"bike_id":"36af6b9c-3b6f-432b-8541-51b5e2f4a92f","system_id":"levelo_inurba_marseille","lat":43.25006,"lon":5.38916,"is_reserved":false,"is_disabled":false,"rental_uris":{"android":"levelo://app?vid=36af6b9c-3b6f-432b-8541-51b5e2f4a92f","ios":"levelo://app?vid=36af6b9c-3b6f-432b-8541-51b5e2f4a92f"},"vehicle_type_id":"4","last_reported":1770395521,"current_range_meters":6400,"station_id":"ce4bhgp2rcd13ifvqfd0","pricing_plan_id":"cebpf4jnsgd1na2vs0mg"},{"bike_id":"b0cec839-9044-416d-92eb-61b8dee05fdc","system_id":"levelo_inurba_marseille","lat":43.28039,"lon":5.36944,"is_reserved":false,"is_disabled":false,"rental_uris":{"android":"levelo://app?vid=b0cec839-9044-416d-92eb-61b8dee05fdc","ios":"levelo://app?vid=b0cec839-9044-416d-92eb-61b8dee05fdc"},"vehicle_type_id":"4","last_reported":1770395521,"current_range_meters":6400,"station_id":"ce4bha12rcd13ifvqef0","pricing_plan_id":"cebpf4jnsgd1na2vs0mg"},{"bike_id":"17e94ce0-c9ad-43ac-ba77-0a9881ef1e2f","system_id":"levelo_inurba_marseille","lat":43.28476,"lon":5.384375,"is_reserved":false,"is_disabled":false,"rental_uris":{"android":"levelo://app?vid=17e94ce0-c9ad-43ac-ba77-0a9881ef1e2f","ios":"levelo://app?vid=17e94ce0-c9ad-43ac-ba77-0a9881ef1e2f"},"vehicle_type_id":"4","last_reported":1770395521,"current_range_meters":6400,"station_id":"ce4bh512rcd13ifvqe3g","pricing_plan_id":"cebpf4jnsgd1na2vs0mg"},{"bike_id":"2b358923-c030-4481-a0eb-830aa62ff249","system_id":"levelo_inurba_marseille","lat":43.273798,"lon":5.362556,"is_reserved":false,"is_disabled":false,"rental_uris":{"android":"levelo://app?vid=2b358923-c030-4481-a0eb-830aa62ff249","ios":"levelo://app?vid=2b358923-c030-4481-a0eb-830aa62ff249"},"vehicle_type_id":"4","last_reported":1770395521,"current_range_meters":6400,"station_id":"ce4bhbh2rcd13ifvqeo0","pricing_plan_id":"cebpf4jnsgd1na2vs0mg"},{"bike_id":"711c2daf-3fb1-422b-aa3c-f34a01f9ab2a","system_id":"levelo_inurba_marseille","lat":43.23147,"lon":5.43722,"is_reserved":false,"is_disabled":false,"rental_uris":{"android":"levelo://app?vid=711c2daf-3fb1-422b-aa3c-f34a01f9ab2a","ios":"levelo://app?vid=711c2daf-3fb1-422b-aa3c-f34a01f9ab2a"},"vehicle_type_id":"4","last_reported":1770395521,"current_range_meters":6400,"station_id":"ce4bhmp2rcd13ifvqgog","pricing_plan_id":"cebpf4jnsgd1na2vs0mg"},{"bike_id":"621d9870-7717-46da-ada2-338c2808ca2d","system_id":"levelo_inurba_marseille","lat":43.30305,"lon":5.39226,"is_reserved":false,"is_disabled":false,"rental_uris":{"android":"levelo://app?vid=621d9870-7717-46da-ada2-338c2808ca2d","ios":"levelo://app?vid=621d9870-7717-46da-ada2-338c2808ca2d"},"vehicle_type_id":"4","last_reported":1770395521,"current_range_meters":6400,"station_id":"ce4bgkh2rcd13ifvqbk0","pricing_plan_id":"cebpf4jnsgd1na2vs0mg"},{"bike_id":"14a5e4ea-87e1-4359-8e44-d712ca3468ea","system_id":"levelo_inurba_marseille","lat":43.27375,"lon":5.36259,"is_reserved":false,"is_disabled":false,"rental_uris":{"android":"levelo://app?vid=14a5e4ea-87e1-4359-8e44-d712ca3468ea","ios":"levelo://app?vid=14a5e4ea-87e1-4359-8e44-d712ca3468ea"},"vehicle_type_id":"4","last_reported":1770395521,"current_range_meters":6800,"station_id":"ce4bhbh2rcd13ifvqeo0","pricing_plan_id":"cebpf4jnsgd1na2vs0mg"},{"bike_id":"f2251f8f-476c-490a-a2da-0d724c30184f","system_id":"levelo_inurba_marseille","lat":43.31208,"lon":5.36826,"is_reserved":false,"is_disabled":false,"rental_uris":{"android":"levelo://app?vid=f2251f8f-476c-490a-a2da-0d724c30184f","ios":"levelo://app?vid=f2251f8f-476c-490a-a2da-0d724c30184f"},"vehicle_type_id":"4","last_reported":1770395521,"current_range_meters":6800,"station_id":"ce4bgl92rcd13ifvqbq0","pricing_plan_id":"cebpf4jnsgd1na2vs0mg"},{"bike_id":"4fb6aea1-2b17-4cfc-9731-d03fa2453842","system_id":"levelo_inurba_marseille","lat":43.29044,"lon":5.3995,"is_reserved":false,"is_disabled":false,"rental_uris":{"android":"levelo://app?vid=4fb6aea1-2b17-4cfc-9731-d03fa2453842","ios":"levelo://app?vid=4fb6aea1-2b17-4cfc-9731-d03fa2453842"},"vehicle_type_id":"4","last_reported":1770395521,"current_range_meters":6800,"station_id":"ce4bh392rcd13ifvqdm0","pricing_plan_id":"cebpf4jnsgd1na2vs0mg"},{"bike_id":"4179f537-2cfc-410e-a7a4-8df3db3202ca","system_id":"levelo_inurba_marseille","lat":43.284067,"lon":5.349913,"is_reserved":false,"is_disabled":false,"rental_uris":{"android":"levelo://app?vid=4179f537-2cfc-410e-a7a4-8df3db3202ca","ios":"levelo://app?vid=4179f537-2cfc-410e-a7a4-8df3db3202ca"},"vehicle_type_id":"4","last_reported":1770395521,"current_range_meters":6800,"station_id":"ce4bhbh2rcd13ifvqepg","pricing_plan_id":"cebpf4jnsgd1na2vs0mg"},{"bike_id":"0c5d72e1-f2d7-4b03-918e-7934a1aebfc3","system_id":"levelo_inurba_marseille","lat":43.280005,"lon":5.40011,"is_reserved":false,"is_disabled":false,"rental_uris":{"android":"levelo://app?vid=0c5d72e1-f2d7-4b03-918e-7934a1aebfc3","ios":"levelo://app?vid=0c5d72e1-f2d7-4b03-918e-7934a1aebfc3"},"vehicle_type_id":"4","last_reported":1770395521,"current_range_meters":6800,"station_id":"ce4bho92rcd13ifvqh4g","pricing_plan_id":"cebpf4jnsgd1na2vs0mg"},{"bike_id":"d16a386e-bde4-4662-89de-a396de363d0b","system_id":"levelo_inurba_marseille","lat":43.26193,"lon":5.37446,"is_reserved":false,"is_disabled":false,"rental_uris":{"android":"levelo://app?vid=d16a386e-bde4-4662-89de-a396de363d0b","ios":"levelo://app?vid=d16a386e-bde4-4662-89de-a396de363d0b"},"vehicle_type_id":"4","last_reported":1770395521,"current_range_meters":6800,"station_id":"ce4bhgp2rcd13ifvqfc0","pricing_plan_id":"cebpf4jnsgd1na2vs0mg"},{"bike_id":"88de999f-78fd-498c-86b8-c0b83e9a1087","system_id":"levelo_inurba_marseille","lat":43.25935,"lon":5.40902,"is_reserved":false,"is_disabled":false,"rental_uris":{"android":"levelo://app?vid=88de999f-78fd-498c-86b8-c0b83e9a1087","ios":"levelo://app?vid=88de999f-78fd-498c-86b8-c0b83e9a1087"},"vehicle_type_id":"4","last_reported":1770395521,"current_range_meters":6800,"station_id":"ce4bhm92rcd13ifvqglg","pricing_plan_id":"cebpf4jnsgd1na2vs0mg"},{"bike_id":"15250344-db40-4db8-b0c9-19733389e808","system_id":"levelo_inurba_marseille","lat":43.27368,"lon":5.3625,"is_reserved":false,"is_disabled":false,"rental_uris":{"android":"levelo://app?vid=15250344-db40-4db8-b0c9-19733389e808","ios":"levelo://app?vid=15250344-db40-4db8-b0c9-19733389e808"},"vehicle_type_id":"4","last_reported":1770395521,"current_range_meters":6800,"station_id":"ce4bhbh2rcd13ifvqeo0","pricing_plan_id":"cebpf4jnsgd1na2vs0mg"},{"bike_id":"3b986d99-7b42-471f-993a-11fde28f3c51","system_id":"levelo_inurba_marseille","lat":43.22561,"lon":5.4162,"is_reserved":false,"is_disabled":false,"rental_uris":{"android":"levelo://app?vid=3b986d99-7b42-471f-993a-11fde28f3c51","ios":"levelo://app?vid=3b986d99-7b42-471f-993a-11fde28f3c51"},"vehicle_type_id":"4","last_reported":1770395521,"current_range_meters":6800,"station_id":"st_d2o4gvlbi1j2169b742g","pricing_plan_id":"cebpf4jnsgd1na2vs0mg"},{"bike_id":"a844e401-3f4d-4caf-b160-d753e378ce6c","system_id":"levelo_inurba_marseille","lat":43.26548,"lon":5.37282,"is_reserved":false,"is_disabled":false,"rental_uris":{"android":"levelo://app?vid=a844e401-3f4d-4caf-b160-d753e378ce6c","ios":"levelo://app?vid=a844e401-3f4d-4caf-b160-d753e378ce6c"},"vehicle_type_id":"4","last_reported":1770395521,"current_range_meters":6800,"station_id":"ce4bhg12rcd13ifvqf70","pricing_plan_id":"cebpf4jnsgd1na2vs0mg"},{"bike_id":"a26f1412-1415-4ccd-b26f-b2ed4e64f27b","system_id":"levelo_inurba_marseille","lat":43.2902,"lon":5.38126,"is_reserved":false,"is_disabled":false,"rental_uris":{"android":"levelo://app?vid=a26f1412-1415-4ccd-b26f-b2ed4e64f27b","ios":"levelo://app?vid=a26f1412-1415-4ccd-b26f-b2ed4e64f27b"},"vehicle_type_id":"4","last_reported":1770395521,"current_range_meters":6800,"station_id":"ce4bh4p2rcd13ifvqe1g","pricing_plan_id":"cebpf4jnsgd1na2vs0mg"},{"bike_id":"63475d76-2088-43f9-8566-7b8607e123f8","system_id":"levelo_inurba_marseille","lat":43.27213,"lon":5.39185,"is_reserved":false,"is_disabled":false,"rental_uris":{"android":"levelo://app?vid=63475d76-2088-43f9-8566-7b8607e123f8","ios":"levelo://app?vid=63475d76-2088-43f9-8566-7b8607e123f8"},"vehicle_type_id":"4","last_reported":1770395521,"current_range_meters":6800,"station_id":"ce4bhhp2rcd13ifvqfm0","pricing_plan_id":"cebpf4jnsgd1na2vs0mg"},{"bike_id":"e92c52a2-6b35-4ea9-9829-1eb9501c85fc","system_id":"levelo_inurba_marseille","lat":43.31165,"lon":5.39358,"is_reserved":false,"is_disabled":false,"rental_uris":{"android":"levelo://app?vid=e92c52a2-6b35-4ea9-9829-1eb9501c85fc","ios":"levelo://app?vid=e92c52a2-6b35-4ea9-9829-1eb9501c85fc"},"vehicle_type_id":"4","last_reported":1770395521,"current_range_meters":6800,"station_id":"","pricing_plan_id":"cebpf4jnsgd1na2vs0mg"},{"bike_id":"14d6be96-6118-475f-bb4c-95f106b2945c","system_id":"levelo_inurba_marseille","lat":43.31751,"lon":5.39012,"is_reserved":false,"is_disabled":false,"rental_uris":{"android":"levelo://app?vid=14d6be96-6118-475f-bb4c-95f106b2945c","ios":"levelo://app?vid=14d6be96-6118-475f-bb4c-95f106b2945c"},"vehicle_type_id":"4","last_reported":1770395521,"current_range_meters":6800,"station_id":"ce4bhqp2rcd13ifvqhng","pricing_plan_id":"cebpf4jnsgd1na2vs0mg"},{"bike_id":"7913ecf5-95cc-46db-ad1a-05494005e5b1","system_id":"levelo_inurba_marseille","lat":43.25665,"lon":5.41839,"is_reserved":false,"is_disabled":false,"rental_uris":{"android":"levelo://app?vid=7913ecf5-95cc-46db-ad1a-05494005e5b1","ios":"levelo://app?vid=7913ecf5-95cc-46db-ad1a-05494005e5b1"},"vehicle_type_id":"4","last_reported":1770395521,"current_range_meters":6800,"station_id":"","pricing_plan_id":"cebpf4jnsgd1na2vs0mg"},{"bike_id":"1aa6d23a-50bd-4e6d-826d-3b933211fd4d","system_id":"levelo_inurba_marseille","lat":43.299593,"lon":5.365098,"is_reserved":false,"is_disabled":false,"rental_uris":{"android":"levelo://app?vid=1aa6d23a-50bd-4e6d-826d-3b933211fd4d","ios":"levelo://app?vid=1aa6d23a-50bd-4e6d-826d-3b933211fd4d"},"vehicle_type_id":"4","last_reported":1770395521,"current_range_meters":6800,"station_id":"ce4bh3p2rcd13ifvqdq0","pricing_plan_id":"cebpf4jnsgd1na2vs0mg"},{"bike_id":"29568cb5-48e1-4afd-96a8-69d8393592fe","system_id":"levelo_inurba_marseille","lat":43.28478,"lon":5.48398,"is_reserved":false,"is_disabled":false,"rental_uris":{"android":"levelo://app?vid=29568cb5-48e1-4afd-96a8-69d8393592fe","ios":"levelo://app?vid=29568cb5-48e1-4afd-96a8-69d8393592fe"},"vehicle_type_id":"4","last_reported":1770395521,"current_range_meters":6800,"station_id":"","pricing_plan_id":"cebpf4jnsgd1na2vs0mg"},{"bike_id":"5dea93d7-2b00-4423-81b5-9e768d42cacb","system_id":"levelo_inurba_marseille","lat":43.29019,"lon":5.38642,"is_reserved":false,"is_disabled":true,"rental_uris":{"android":"levelo://app?vid=5dea93d7-2b00-4423-81b5-9e768d42cacb","ios":"levelo://app?vid=5dea93d7-2b00-4423-81b5-9e768d42cacb"},"vehicle_type_id":"4","last_reported":1770395521,"current_range_meters":7200,"station_id":"ce4bh4p2rcd13ifvqe0g","pricing_plan_id":"cebpf4jnsgd1na2vs0mg"},{"bike_id":"1dd6f4de-6a4a-4fa1-b038-a756a6cbac96","system_id":"levelo_inurba_marseille","lat":43.23208,"lon":5.35558,"is_reserved":false,"is_disabled":false,"rental_uris":{"android":"levelo://app?vid=1dd6f4de-6a4a-4fa1-b038-a756a6cbac96","ios":"levelo://app?vid=1dd6f4de-6a4a-4fa1-b038-a756a6cbac96"},"vehicle_type_id":"4","last_reported":1770395521,"current_range_meters":7200,"station_id":"ce4bhu92rcd13ifvqi70","pricing_plan_id":"cebpf4jnsgd1na2vs0mg"},{"bike_id":"8dc7f6b0-53e8-42d1-b483-f5b2c8a4f04c","system_id":"levelo_inurba_marseille","lat":43.27567,"lon":5.3843,"is_reserved":false,"is_disabled":false,"rental_uris":{"android":"levelo://app?vid=8dc7f6b0-53e8-42d1-b483-f5b2c8a4f04c","ios":"levelo://app?vid=8dc7f6b0-53e8-42d1-b483-f5b2c8a4f04c"},"vehicle_type_id":"4","last_reported":1770395521,"current_range_meters":7200,"station_id":"ce4bhh92rcd13ifvqfi0","pricing_plan_id":"cebpf4jnsgd1na2vs0mg"},{"bike_id":"ed893eda-4c58-48b4-bf63-60333d7ae950","system_id":"levelo_inurba_marseille","lat":43.25086,"lon":5.39524,"is_reserved":false,"is_disabled":false,"rental_uris":{"android":"levelo://app?vid=ed893eda-4c58-48b4-bf63-60333d7ae950","ios":"levelo://app?vid=ed893eda-4c58-48b4-bf63-60333d7ae950"},"vehicle_type_id":"4","last_reported":1770395521,"current_range_meters":7200,"station_id":"ce4bhm12rcd13ifvqgkg","pricing_plan_id":"cebpf4jnsgd1na2vs0mg"},{"bike_id":"b874a599-af96-4cda-a563-9ec46779dac7","system_id":"levelo_inurba_marseille","lat":43.31325,"lon":5.39696,"is_reserved":false,"is_disabled":false,"rental_uris":{"android":"levelo://app?vid=b874a599-af96-4cda-a563-9ec46779dac7","ios":"levelo://app?vid=b874a599-af96-4cda-a563-9ec46779dac7"},"vehicle_type_id":"4","last_reported":1770395521,"current_range_meters":7200,"station_id":"ce4bgvp2rcd13ifvqcu0","pricing_plan_id":"cebpf4jnsgd1na2vs0mg"},{"bike_id":"3d84fed5-838b-48d2-8748-2602c6a0034f","system_id":"levelo_inurba_marseille","lat":43.28625,"lon":5.35118,"is_reserved":false,"is_disabled":false,"rental_uris":{"android":"levelo://app?vid=3d84fed5-838b-48d2-8748-2602c6a0034f","ios":"levelo://app?vid=3d84fed5-838b-48d2-8748-2602c6a0034f"},"vehicle_type_id":"4","last_reported":1770395521,"current_range_meters":7200,"station_id":"ce4bhch2rcd13ifvqeug","pricing_plan_id":"cebpf4jnsgd1na2vs0mg"},{"bike_id":"79d8f037-82e9-4a67-89e5-00f7e2da0c07","system_id":"levelo_inurba_marseille","lat":43.28475,"lon":5.38419,"is_reserved":false,"is_disabled":false,"rental_uris":{"android":"levelo://app?vid=79d8f037-82e9-4a67-89e5-00f7e2da0c07","ios":"levelo://app?vid=79d8f037-82e9-4a67-89e5-00f7e2da0c07"},"vehicle_type_id":"4","last_reported":1770395521,"current_range_meters":7200,"station_id":"ce4bh512rcd13ifvqe3g","pricing_plan_id":"cebpf4jnsgd1na2vs0mg"},{"bike_id":"66cbb72d-9be4-43c1-9cca-84449eeb1231","system_id":"levelo_inurba_marseille","lat":43.299724,"lon":5.384885,"is_reserved":false,"is_disabled":false,"rental_uris":{"android":"levelo://app?vid=66cbb72d-9be4-43c1-9cca-84449eeb1231","ios":"levelo://app?vid=66cbb72d-9be4-43c1-9cca-84449eeb1231"},"vehicle_type_id":"4","last_reported":1770395521,"current_range_meters":7200,"station_id":"ce4bgj92rcd13ifvqbd0","pricing_plan_id":"cebpf4jnsgd1na2vs0mg"},{"bike_id":"c6782d87-e485-4a2c-b62b-9a52105fb0ef","system_id":"levelo_inurba_marseille","lat":43.25018,"lon":5.38932,"is_reserved":false,"is_disabled":false,"rental_uris":{"android":"levelo://app?vid=c6782d87-e485-4a2c-b62b-9a52105fb0ef","ios":"levelo://app?vid=c6782d87-e485-4a2c-b62b-9a52105fb0ef"},"vehicle_type_id":"4","last_reported":1770395521,"current_range_meters":7200,"station_id":"ce4bhgp2rcd13ifvqfd0","pricing_plan_id":"cebpf4jnsgd1na2vs0mg"},{"bike_id":"6809d87e-7242-4772-8526-bd1f9e441f49","system_id":"levelo_inurba_marseille","lat":43.337307,"lon":5.39171,"is_reserved":false,"is_disabled":false,"rental_uris":{"android":"levelo://app?vid=6809d87e-7242-4772-8526-bd1f9e441f49","ios":"levelo://app?vid=6809d87e-7242-4772-8526-bd1f9e441f49"},"vehicle_type_id":"4","last_reported":1770395521,"current_range_meters":7200,"station_id":"ce4bhr92rcd13ifvqhsg","pricing_plan_id":"cebpf4jnsgd1na2vs0mg"},{"bike_id":"394ade89-8fcf-4ddd-9147-7933d90d199b","system_id":"levelo_inurba_marseille","lat":43.30123,"lon":5.39865,"is_reserved":false,"is_disabled":false,"rental_uris":{"android":"levelo://app?vid=394ade89-8fcf-4ddd-9147-7933d90d199b","ios":"levelo://app?vid=394ade89-8fcf-4ddd-9147-7933d90d199b"},"vehicle_type_id":"4","last_reported":1770395521,"current_range_meters":7200,"station_id":"ce4bh0h2rcd13ifvqd40","pricing_plan_id":"cebpf4jnsgd1na2vs0mg"},{"bike_id":"5b51c4ea-ebad-4648-a4a1-56b9e8ab1de9","system_id":"levelo_inurba_marseille","lat":43.284909,"lon":5.483816,"is_reserved":false,"is_disabled":false,"rental_uris":{"android":"levelo://app?vid=5b51c4ea-ebad-4648-a4a1-56b9e8ab1de9","ios":"levelo://app?vid=5b51c4ea-ebad-4648-a4a1-56b9e8ab1de9"},"vehicle_type_id":"4","last_reported":1770395521,"current_range_meters":7200,"station_id":"st_d3svhcjqgbts73a3dn0g","pricing_plan_id":"cebpf4jnsgd1na2vs0mg"},{"bike_id":"2a4aae63-2af0-4ad1-841e-bffe04f05080","system_id":"levelo_inurba_marseille","lat":43.24385,"lon":5.37072,"is_reserved":false,"is_disabled":false,"rental_uris":{"android":"levelo://app?vid=2a4aae63-2af0-4ad1-841e-bffe04f05080","ios":"levelo://app?vid=2a4aae63-2af0-4ad1-841e-bffe04f05080"},"vehicle_type_id":"4","last_reported":1770395521,"current_range_meters":7200,"station_id":"ce4bhhh2rcd13ifvqfk0","pricing_plan_id":"cebpf4jnsgd1na2vs0mg"},{"bike_id":"968a1130-5ab4-497c-b27f-cb61b0d6cd96","system_id":"levelo_inurba_marseille","lat":43.3024,"lon":5.37725,"is_reserved":false,"is_disabled":false,"rental_uris":{"android":"levelo://app?vid=968a1130-5ab4-497c-b27f-cb61b0d6cd96","ios":"levelo://app?vid=968a1130-5ab4-497c-b27f-cb61b0d6cd96"},"vehicle_type_id":"4","last_reported":1770395521,"current_range_meters":7200,"station_id":"ce4bguh2rcd13ifvqcj0","pricing_plan_id":"cebpf4jnsgd1na2vs0mg"},{"bike_id":"01062f2f-dd54-4974-a791-7400e4693fbc","system_id":"levelo_inurba_marseille","lat":43.30466,"lon":5.37901,"is_reserved":false,"is_disabled":false,"rental_uris":{"android":"levelo://app?vid=01062f2f-dd54-4974-a791-7400e4693fbc","ios":"levelo://app?vid=01062f2f-dd54-4974-a791-7400e4693fbc"},"vehicle_type_id":"4","last_reported":1770395521,"current_range_meters":8000,"station_id":"ce4bgup2rcd13ifvqcn0","pricing_plan_id":"cebpf4jnsgd1na2vs0mg"},{"bike_id":"372bbd8d-62b2-4f4a-836e-166aa90f244b","system_id":"levelo_inurba_marseille","lat":43.30156,"lon":5.3805,"is_reserved":false,"is_disabled":false,"rental_uris":{"android":"levelo://app?vid=372bbd8d-62b2-4f4a-836e-166aa90f244b","ios":"levelo://app?vid=372bbd8d-62b2-4f4a-836e-166aa90f244b"},"vehicle_type_id":"4","last_reported":1770395521,"current_range_meters":8000,"station_id":"ce4bgjp2rcd13ifvqbh0","pricing_plan_id":"cebpf4jnsgd1na2vs0mg"},{"bike_id":"18c25fbc-2070-404c-b5c7-733e8316a610","system_id":"levelo_inurba_marseille","lat":43.30299,"lon":5.39213,"is_reserved":false,"is_disabled":false,"rental_uris":{"android":"levelo://app?vid=18c25fbc-2070-404c-b5c7-733e8316a610","ios":"levelo://app?vid=18c25fbc-2070-404c-b5c7-733e8316a610"},"vehicle_type_id":"4","last_reported":1770395521,"current_range_meters":8000,"station_id":"ce4bgkh2rcd13ifvqbk0","pricing_plan_id":"cebpf4jnsgd1na2vs0mg"},{"bike_id":"251429a0-5225-404e-a2c3-13f499b83151","system_id":"levelo_inurba_marseille","lat":43.30459,"lon":5.37902,"is_reserved":false,"is_disabled":false,"rental_uris":{"android":"levelo://app?vid=251429a0-5225-404e-a2c3-13f499b83151","ios":"levelo://app?vid=251429a0-5225-404e-a2c3-13f499b83151"},"vehicle_type_id":"4","last_reported":1770395521,"current_range_meters":8000,"station_id":"ce4bgup2rcd13ifvqcn0","pricing_plan_id":"cebpf4jnsgd1na2vs0mg"},{"bike_id":"0e8426bc-bfb2-4d5a-833c-8d0870f5bdff","system_id":"levelo_inurba_marseille","lat":43.32487,"lon":5.38286,"is_reserved":false,"is_disabled":false,"rental_uris":{"android":"levelo://app?vid=0e8426bc-bfb2-4d5a-833c-8d0870f5bdff","ios":"levelo://app?vid=0e8426bc-bfb2-4d5a-833c-8d0870f5bdff"},"vehicle_type_id":"4","last_reported":1770395521,"current_range_meters":8000,"station_id":"st_d4asgbiv49dc73anf9m0","pricing_plan_id":"cebpf4jnsgd1na2vs0mg"},{"bike_id":"34b0e592-5a12-495a-a81b-b7a9e8350c09","system_id":"levelo_inurba_marseille","lat":43.28414,"lon":5.34997,"is_reserved":false,"is_disabled":false,"rental_uris":{"android":"levelo://app?vid=34b0e592-5a12-495a-a81b-b7a9e8350c09","ios":"levelo://app?vid=34b0e592-5a12-495a-a81b-b7a9e8350c09"},"vehicle_type_id":"4","last_reported":1770395521,"current_range_meters":8000,"station_id":"ce4bhbh2rcd13ifvqepg","pricing_plan_id":"cebpf4jnsgd1na2vs0mg"},{"bike_id":"0021dfeb-7740-4573-8499-f6f759d75632","system_id":"levelo_inurba_marseille","lat":43.26958,"lon":5.38623,"is_reserved":false,"is_disabled":false,"rental_uris":{"android":"levelo://app?vid=0021dfeb-7740-4573-8499-f6f759d75632","ios":"levelo://app?vid=0021dfeb-7740-4573-8499-f6f759d75632"},"vehicle_type_id":"4","last_reported":1770395521,"current_range_meters":8000,"station_id":"ce4bhh92rcd13ifvqfh0","pricing_plan_id":"cebpf4jnsgd1na2vs0mg"},{"bike_id":"b50718b1-4f47-4866-8738-5a2978ca6909","system_id":"levelo_inurba_marseille","lat":43.3133,"lon":5.3663,"is_reserved":false,"is_disabled":false,"rental_uris":{"android":"levelo://app?vid=b50718b1-4f47-4866-8738-5a2978ca6909","ios":"levelo://app?vid=b50718b1-4f47-4866-8738-5a2978ca6909"},"vehicle_type_id":"4","last_reported":1770395521,"current_range_meters":8000,"station_id":"","pricing_plan_id":"cebpf4jnsgd1na2vs0mg"},{"bike_id":"6c826141-83c8-450c-bb51-8b69baba0bf3","system_id":"levelo_inurba_marseille","lat":43.26689,"lon":5.40783,"is_reserved":false,"is_disabled":false,"rental_uris":{"android":"levelo://app?vid=6c826141-83c8-450c-bb51-8b69baba0bf3","ios":"levelo://app?vid=6c826141-83c8-450c-bb51-8b69baba0bf3"},"vehicle_type_id":"4","last_reported":1770395521,"current_range_meters":8000,"station_id":"","pricing_plan_id":"cebpf4jnsgd1na2vs0mg"},{"bike_id":"4022598c-6605-421d-929f-d80b4ad79dcf","system_id":"levelo_inurba_marseille","lat":43.2466,"lon":5.38153,"is_reserved":false,"is_disabled":false,"rental_uris":{"android":"levelo://app?vid=4022598c-6605-421d-929f-d80b4ad79dcf","ios":"levelo://app?vid=4022598c-6605-421d-929f-d80b4ad79dcf"},"vehicle_type_id":"4","last_reported":1770395521,"current_range_meters":8000,"station_id":"ce4bhih2rcd13ifvqfr0","pricing_plan_id":"cebpf4jnsgd1na2vs0mg"},{"bike_id":"723bf88e-8128-4028-a2c1-eeb668d835e0","system_id":"levelo_inurba_marseille","lat":43.21208,"lon":5.35072,"is_reserved":false,"is_disabled":false,"rental_uris":{"android":"levelo://app?vid=723bf88e-8128-4028-a2c1-eeb668d835e0","ios":"levelo://app?vid=723bf88e-8128-4028-a2c1-eeb668d835e0"},"vehicle_type_id":"4","last_reported":1770395521,"current_range_meters":8000,"station_id":"st_cvj6sg6p6f1abm77japg","pricing_plan_id":"cebpf4jnsgd1na2vs0mg"},{"bike_id":"b8930ff7-8ce5-4f8d-9e8d-e85cd2415d7d","system_id":"levelo_inurba_marseille","lat":43.31345,"lon":5.36652,"is_reserved":false,"is_disabled":false,"rental_uris":{"android":"levelo://app?vid=b8930ff7-8ce5-4f8d-9e8d-e85cd2415d7d","ios":"levelo://app?vid=b8930ff7-8ce5-4f8d-9e8d-e85cd2415d7d"},"vehicle_type_id":"4","last_reported":1770395521,"current_range_meters":8000,"station_id":"ce4bgr92rcd13ifvqc6g","pricing_plan_id":"cebpf4jnsgd1na2vs0mg"},{"bike_id":"142a21c2-9a29-466a-92f6-5ab3ecc5b60d","system_id":"levelo_inurba_marseille","lat":43.23793,"lon":5.36628,"is_reserved":false,"is_disabled":false,"rental_uris":{"android":"levelo://app?vid=142a21c2-9a29-466a-92f6-5ab3ecc5b60d","ios":"levelo://app?vid=142a21c2-9a29-466a-92f6-5ab3ecc5b60d"},"vehicle_type_id":"4","last_reported":1770395521,"current_range_meters":8000,"station_id":"st_d3nk18o9ro0c73en2l3g","pricing_plan_id":"cebpf4jnsgd1na2vs0mg"},{"bike_id":"98b89a63-b3c9-4748-8f93-0ccb5ab9560d","system_id":"levelo_inurba_marseille","lat":43.26538,"lon":5.37299,"is_reserved":false,"is_disabled":false,"rental_uris":{"android":"levelo://app?vid=98b89a63-b3c9-4748-8f93-0ccb5ab9560d","ios":"levelo://app?vid=98b89a63-b3c9-4748-8f93-0ccb5ab9560d"},"vehicle_type_id":"4","last_reported":1770395521,"current_range_meters":8000,"station_id":"ce4bhg12rcd13ifvqf70","pricing_plan_id":"cebpf4jnsgd1na2vs0mg"},{"bike_id":"80921967-0205-4b63-9ad3-3f330568f044","system_id":"levelo_inurba_marseille","lat":43.28662,"lon":5.38669,"is_reserved":false,"is_disabled":false,"rental_uris":{"android":"levelo://app?vid=80921967-0205-4b63-9ad3-3f330568f044","ios":"levelo://app?vid=80921967-0205-4b63-9ad3-3f330568f044"},"vehicle_type_id":"4","last_reported":1770395521,"current_range_meters":8000,"station_id":"ce4bh492rcd13ifvqdug","pricing_plan_id":"cebpf4jnsgd1na2vs0mg"},{"bike_id":"dd437957-0aff-4547-95a7-4714be39c933","system_id":"levelo_inurba_marseille","lat":43.28814,"lon":5.38927,"is_reserved":false,"is_disabled":false,"rental_uris":{"android":"levelo://app?vid=dd437957-0aff-4547-95a7-4714be39c933","ios":"levelo://app?vid=dd437957-0aff-4547-95a7-4714be39c933"},"vehicle_type_id":"4","last_reported":1770395521,"current_range_meters":8000,"station_id":"ce4bho92rcd13ifvqh4g","pricing_plan_id":"cebpf4jnsgd1na2vs0mg"},{"bike_id":"bd830301-856a-4947-bbd9-0c9aae46f8c5","system_id":"levelo_inurba_marseille","lat":43.28858,"lon":5.42518,"is_reserved":false,"is_disabled":false,"rental_uris":{"android":"levelo://app?vid=bd830301-856a-4947-bbd9-0c9aae46f8c5","ios":"levelo://app?vid=bd830301-856a-4947-bbd9-0c9aae46f8c5"},"vehicle_type_id":"4","last_reported":1770395521,"current_range_meters":8000,"station_id":"st_d3b462108ojc7389ooeg","pricing_plan_id":"cebpf4jnsgd1na2vs0mg"},{"bike_id":"d7f66d62-6ab9-4b03-8c2c-3df4acf0b4b7","system_id":"levelo_inurba_marseille","lat":43.253438,"lon":5.421694,"is_reserved":false,"is_disabled":false,"rental_uris":{"android":"levelo://app?vid=d7f66d62-6ab9-4b03-8c2c-3df4acf0b4b7","ios":"levelo://app?vid=d7f66d62-6ab9-4b03-8c2c-3df4acf0b4b7"},"vehicle_type_id":"4","last_reported":1770395521,"current_range_meters":8000,"station_id":"st_d2m65c5bi1j21697t3ng","pricing_plan_id":"cebpf4jnsgd1na2vs0mg"},{"bike_id":"f5da9401-db7e-426f-9a0f-2330a30b8658","system_id":"levelo_inurba_marseille","lat":43.24391,"lon":5.370766,"is_reserved":false,"is_disabled":true,"rental_uris":{"android":"levelo://app?vid=f5da9401-db7e-426f-9a0f-2330a30b8658","ios":"levelo://app?vid=f5da9401-db7e-426f-9a0f-2330a30b8658"},"vehicle_type_id":"4","last_reported":1770395521,"current_range_meters":8000,"station_id":"ce4bhhh2rcd13ifvqfk0","pricing_plan_id":"cebpf4jnsgd1na2vs0mg"},{"bike_id":"1937492d-117f-487c-8c08-5e82e3f3720b","system_id":"levelo_inurba_marseille","lat":43.313714,"lon":5.36711,"is_reserved":false,"is_disabled":false,"rental_uris":{"android":"levelo://app?vid=1937492d-117f-487c-8c08-5e82e3f3720b","ios":"levelo://app?vid=1937492d-117f-487c-8c08-5e82e3f3720b"},"vehicle_type_id":"4","last_reported":1770395521,"current_range_meters":8000,"station_id":"ce4bgr92rcd13ifvqc6g","pricing_plan_id":"cebpf4jnsgd1na2vs0mg"},{"bike_id":"5f182a32-85ec-4eca-8ee7-ebbed161cae2","system_id":"levelo_inurba_marseille","lat":43.26207,"lon":5.37449,"is_reserved":false,"is_disabled":false,"rental_uris":{"android":"levelo://app?vid=5f182a32-85ec-4eca-8ee7-ebbed161cae2","ios":"levelo://app?vid=5f182a32-85ec-4eca-8ee7-ebbed161cae2"},"vehicle_type_id":"4","last_reported":1770395521,"current_range_meters":8000,"station_id":"ce4bhgp2rcd13ifvqfc0","pricing_plan_id":"cebpf4jnsgd1na2vs0mg"},{"bike_id":"728b8739-abf6-4ecd-b814-bff7af063d91","system_id":"levelo_inurba_marseille","lat":43.30083,"lon":5.39095,"is_reserved":false,"is_disabled":false,"rental_uris":{"android":"levelo://app?vid=728b8739-abf6-4ecd-b814-bff7af063d91","ios":"levelo://app?vid=728b8739-abf6-4ecd-b814-bff7af063d91"},"vehicle_type_id":"4","last_reported":1770395521,"current_range_meters":8000,"station_id":"ce4bh192rcd13ifvqdb0","pricing_plan_id":"cebpf4jnsgd1na2vs0mg"},{"bike_id":"4573242e-b265-4331-b57e-964b4ba015f2","system_id":"levelo_inurba_marseille","lat":43.26211,"lon":5.37445,"is_reserved":false,"is_disabled":false,"rental_uris":{"android":"levelo://app?vid=4573242e-b265-4331-b57e-964b4ba015f2","ios":"levelo://app?vid=4573242e-b265-4331-b57e-964b4ba015f2"},"vehicle_type_id":"4","last_reported":1770395521,"current_range_meters":8000,"station_id":"ce4bhgp2rcd13ifvqfc0","pricing_plan_id":"cebpf4jnsgd1na2vs0mg"},{"bike_id":"88e08699-5487-44b2-af39-249133d81916","system_id":"levelo_inurba_marseille","lat":43.2582,"lon":5.39435,"is_reserved":false,"is_disabled":false,"rental_uris":{"android":"levelo://app?vid=88e08699-5487-44b2-af39-249133d81916","ios":"levelo://app?vid=88e08699-5487-44b2-af39-249133d81916"},"vehicle_type_id":"4","last_reported":1770395521,"current_range_meters":8000,"station_id":"ce4bhip2rcd13ifvqft0","pricing_plan_id":"cebpf4jnsgd1na2vs0mg"},{"bike_id":"28e49d7b-8148-4eab-af59-78525bc84683","system_id":"levelo_inurba_marseille","lat":43.28999,"lon":5.35607,"is_reserved":false,"is_disabled":false,"rental_uris":{"android":"levelo://app?vid=28e49d7b-8148-4eab-af59-78525bc84683","ios":"levelo://app?vid=28e49d7b-8148-4eab-af59-78525bc84683"},"vehicle_type_id":"4","last_reported":1770395521,"current_range_meters":8000,"station_id":"ce4bhb92rcd13ifvqen0","pricing_plan_id":"cebpf4jnsgd1na2vs0mg"},{"bike_id":"66ac484a-7a0c-4d64-bcea-4a863811aeba","system_id":"levelo_inurba_marseille","lat":43.299049,"lon":5.436633,"is_reserved":false,"is_disabled":true,"rental_uris":{"android":"levelo://app?vid=66ac484a-7a0c-4d64-bcea-4a863811aeba","ios":"levelo://app?vid=66ac484a-7a0c-4d64-bcea-4a863811aeba"},"vehicle_type_id":"4","last_reported":1770395521,"current_range_meters":8000,"station_id":"ce4bhpp2rcd13ifvqhfg","pricing_plan_id":"cebpf4jnsgd1na2vs0mg"},{"bike_id":"fb754cb3-3a9a-4855-81b9-2137810237b3","system_id":"levelo_inurba_marseille","lat":43.29273,"lon":5.40121,"is_reserved":false,"is_disabled":false,"rental_uris":{"android":"levelo://app?vid=fb754cb3-3a9a-4855-81b9-2137810237b3","ios":"levelo://app?vid=fb754cb3-3a9a-4855-81b9-2137810237b3"},"vehicle_type_id":"4","last_reported":1770395521,"current_range_meters":8000,"station_id":"ce4bh312rcd13ifvqdk0","pricing_plan_id":"cebpf4jnsgd1na2vs0mg"},{"bike_id":"efbe792f-1198-41b4-852b-4a2323f0ee78","system_id":"levelo_inurba_marseille","lat":43.24995,"lon":5.38931,"is_reserved":false,"is_disabled":false,"rental_uris":{"android":"levelo://app?vid=efbe792f-1198-41b4-852b-4a2323f0ee78","ios":"levelo://app?vid=efbe792f-1198-41b4-852b-4a2323f0ee78"},"vehicle_type_id":"4","last_reported":1770395521,"current_range_meters":8000,"station_id":"ce4bhgp2rcd13ifvqfd0","pricing_plan_id":"cebpf4jnsgd1na2vs0mg"},{"bike_id":"071937d3-6d39-428f-88a6-e135b0e61119","system_id":"levelo_inurba_marseille","lat":43.310627,"lon":5.371799,"is_reserved":false,"is_disabled":false,"rental_uris":{"android":"levelo://app?vid=071937d3-6d39-428f-88a6-e135b0e61119","ios":"levelo://app?vid=071937d3-6d39-428f-88a6-e135b0e61119"},"vehicle_type_id":"4","last_reported":1770395521,"current_range_meters":8400,"station_id":"st_d4kl2rp97mjs73e7tdfg","pricing_plan_id":"cebpf4jnsgd1na2vs0mg"},{"bike_id":"5e9d7b89-ee8f-42bc-87df-a5a05a1d1db8","system_id":"levelo_inurba_marseille","lat":43.24261,"lon":5.39688,"is_reserved":false,"is_disabled":false,"rental_uris":{"android":"levelo://app?vid=5e9d7b89-ee8f-42bc-87df-a5a05a1d1db8","ios":"levelo://app?vid=5e9d7b89-ee8f-42bc-87df-a5a05a1d1db8"},"vehicle_type_id":"4","last_reported":1770395521,"current_range_meters":8400,"station_id":"","pricing_plan_id":"cebpf4jnsgd1na2vs0mg"},{"bike_id":"379685d2-9e90-4f9b-bb24-a80a4545550e","system_id":"levelo_inurba_marseille","lat":43.29818,"lon":5.44066,"is_reserved":false,"is_disabled":false,"rental_uris":{"android":"levelo://app?vid=379685d2-9e90-4f9b-bb24-a80a4545550e","ios":"levelo://app?vid=379685d2-9e90-4f9b-bb24-a80a4545550e"},"vehicle_type_id":"4","last_reported":1770395521,"current_range_meters":8400,"station_id":"st_d3jp68qikq2c7381ktn0","pricing_plan_id":"cebpf4jnsgd1na2vs0mg"},{"bike_id":"55a3e5df-b789-4cf1-ba23-0812f1879205","system_id":"levelo_inurba_marseille","lat":43.30299,"lon":5.39218,"is_reserved":false,"is_disabled":false,"rental_uris":{"android":"levelo://app?vid=55a3e5df-b789-4cf1-ba23-0812f1879205","ios":"levelo://app?vid=55a3e5df-b789-4cf1-ba23-0812f1879205"},"vehicle_type_id":"4","last_reported":1770395521,"current_range_meters":8400,"station_id":"ce4bgkh2rcd13ifvqbk0","pricing_plan_id":"cebpf4jnsgd1na2vs0mg"},{"bike_id":"5ed27c19-2416-4a52-95b3-6524a67bbd6a","system_id":"levelo_inurba_marseille","lat":43.29537,"lon":5.38547,"is_reserved":false,"is_disabled":false,"rental_uris":{"android":"levelo://app?vid=5ed27c19-2416-4a52-95b3-6524a67bbd6a","ios":"levelo://app?vid=5ed27c19-2416-4a52-95b3-6524a67bbd6a"},"vehicle_type_id":"4","last_reported":1770395521,"current_range_meters":8400,"station_id":"ce4bgih2rcd13ifvqba0","pricing_plan_id":"cebpf4jnsgd1na2vs0mg"},{"bike_id":"5514686a-b854-4db2-9779-3506b95972b1","system_id":"levelo_inurba_marseille","lat":43.23142,"lon":5.43712,"is_reserved":false,"is_disabled":false,"rental_uris":{"android":"levelo://app?vid=5514686a-b854-4db2-9779-3506b95972b1","ios":"levelo://app?vid=5514686a-b854-4db2-9779-3506b95972b1"},"vehicle_type_id":"4","last_reported":1770395521,"current_range_meters":8400,"station_id":"ce4bhmp2rcd13ifvqgog","pricing_plan_id":"cebpf4jnsgd1na2vs0mg"},{"bike_id":"675ec433-caf3-4517-83f9-75769cd57605","system_id":"levelo_inurba_marseille","lat":43.32103,"lon":5.36771,"is_reserved":false,"is_disabled":false,"rental_uris":{"android":"levelo://app?vid=675ec433-caf3-4517-83f9-75769cd57605","ios":"levelo://app?vid=675ec433-caf3-4517-83f9-75769cd57605"},"vehicle_type_id":"4","last_reported":1770395521,"current_range_meters":8400,"station_id":"ce4bhrh2rcd13ifvqhug","pricing_plan_id":"cebpf4jnsgd1na2vs0mg"},{"bike_id":"4fd33ec2-191e-42f6-b2f1-474419accee2","system_id":"levelo_inurba_marseille","lat":43.26054,"lon":5.39405,"is_reserved":false,"is_disabled":false,"rental_uris":{"android":"levelo://app?vid=4fd33ec2-191e-42f6-b2f1-474419accee2","ios":"levelo://app?vid=4fd33ec2-191e-42f6-b2f1-474419accee2"},"vehicle_type_id":"4","last_reported":1770395521,"current_range_meters":8400,"station_id":"ce4bhh92rcd13ifvqfj0","pricing_plan_id":"cebpf4jnsgd1na2vs0mg"},{"bike_id":"ad19da49-6146-4764-a8ac-bdaff36e39b8","system_id":"levelo_inurba_marseille","lat":43.28726,"lon":5.36087,"is_reserved":false,"is_disabled":false,"rental_uris":{"android":"levelo://app?vid=ad19da49-6146-4764-a8ac-bdaff36e39b8","ios":"levelo://app?vid=ad19da49-6146-4764-a8ac-bdaff36e39b8"},"vehicle_type_id":"4","last_reported":1770395521,"current_range_meters":8400,"station_id":"cki0cbj6b192h4jlfktg","pricing_plan_id":"cebpf4jnsgd1na2vs0mg"},{"bike_id":"651a1f03-9041-47f3-9a0b-971a8399b544","system_id":"levelo_inurba_marseille","lat":43.31188,"lon":5.38721,"is_reserved":false,"is_disabled":true,"rental_uris":{"android":"levelo://app?vid=651a1f03-9041-47f3-9a0b-971a8399b544","ios":"levelo://app?vid=651a1f03-9041-47f3-9a0b-971a8399b544"},"vehicle_type_id":"4","last_reported":1770395521,"current_range_meters":8400,"station_id":"ce4bgv12rcd13ifvqcp0","pricing_plan_id":"cebpf4jnsgd1na2vs0mg"},{"bike_id":"0c612691-dc2e-4b8c-a828-2dec429e0473","system_id":"levelo_inurba_marseille","lat":43.22929,"lon":5.35362,"is_reserved":false,"is_disabled":false,"rental_uris":{"android":"levelo://app?vid=0c612691-dc2e-4b8c-a828-2dec429e0473","ios":"levelo://app?vid=0c612691-dc2e-4b8c-a828-2dec429e0473"},"vehicle_type_id":"4","last_reported":1770395521,"current_range_meters":8400,"station_id":"cpo3532slgdg3j2ikp40","pricing_plan_id":"cebpf4jnsgd1na2vs0mg"},{"bike_id":"b53a7d14-2e51-421a-988d-b8ea59b98909","system_id":"levelo_inurba_marseille","lat":43.273584,"lon":5.36224,"is_reserved":false,"is_disabled":false,"rental_uris":{"android":"levelo://app?vid=b53a7d14-2e51-421a-988d-b8ea59b98909","ios":"levelo://app?vid=b53a7d14-2e51-421a-988d-b8ea59b98909"},"vehicle_type_id":"4","last_reported":1770395521,"current_range_meters":8400,"station_id":"ce4bhbh2rcd13ifvqeo0","pricing_plan_id":"cebpf4jnsgd1na2vs0mg"},{"bike_id":"c65ee838-9f7d-4c27-9ebf-55f173988146","system_id":"levelo_inurba_marseille","lat":43.24808,"lon":5.37458,"is_reserved":false,"is_disabled":false,"rental_uris":{"android":"levelo://app?vid=c65ee838-9f7d-4c27-9ebf-55f173988146","ios":"levelo://app?vid=c65ee838-9f7d-4c27-9ebf-55f173988146"},"vehicle_type_id":"4","last_reported":1770395521,"current_range_meters":8400,"station_id":"ce4bhgh2rcd13ifvqfb0","pricing_plan_id":"cebpf4jnsgd1na2vs0mg"},{"bike_id":"29554745-e0e5-4276-b587-71d331cae345","system_id":"levelo_inurba_marseille","lat":43.29511,"lon":5.39031,"is_reserved":false,"is_disabled":true,"rental_uris":{"android":"levelo://app?vid=29554745-e0e5-4276-b587-71d331cae345","ios":"levelo://app?vid=29554745-e0e5-4276-b587-71d331cae345"},"vehicle_type_id":"4","last_reported":1770395521,"current_range_meters":8400,"station_id":"ce4bh3p2rcd13ifvqdp0","pricing_plan_id":"cebpf4jnsgd1na2vs0mg"},{"bike_id":"346787f4-b208-43b3-a13c-6d535139ef57","system_id":"levelo_inurba_marseille","lat":43.299,"lon":5.43668,"is_reserved":false,"is_disabled":false,"rental_uris":{"android":"levelo://app?vid=346787f4-b208-43b3-a13c-6d535139ef57","ios":"levelo://app?vid=346787f4-b208-43b3-a13c-6d535139ef57"},"vehicle_type_id":"4","last_reported":1770395521,"current_range_meters":8800,"station_id":"ce4bhpp2rcd13ifvqhfg","pricing_plan_id":"cebpf4jnsgd1na2vs0mg"},{"bike_id":"15a3e00a-e415-4bc9-8ff7-ed96b5a8614d","system_id":"levelo_inurba_marseille","lat":43.30205,"lon":5.38281,"is_reserved":false,"is_disabled":false,"rental_uris":{"android":"levelo://app?vid=15a3e00a-e415-4bc9-8ff7-ed96b5a8614d","ios":"levelo://app?vid=15a3e00a-e415-4bc9-8ff7-ed96b5a8614d"},"vehicle_type_id":"4","last_reported":1770395521,"current_range_meters":8800,"station_id":"","pricing_plan_id":"cebpf4jnsgd1na2vs0mg"},{"bike_id":"d1c18459-8912-48b2-9ab2-628926a6221e","system_id":"levelo_inurba_marseille","lat":43.297914,"lon":5.39345,"is_reserved":false,"is_disabled":false,"rental_uris":{"android":"levelo://app?vid=d1c18459-8912-48b2-9ab2-628926a6221e","ios":"levelo://app?vid=d1c18459-8912-48b2-9ab2-628926a6221e"},"vehicle_type_id":"4","last_reported":1770395521,"current_range_meters":8800,"station_id":"chh1huq6cuj3fo74tm60","pricing_plan_id":"cebpf4jnsgd1na2vs0mg"},{"bike_id":"c6e25874-c646-4223-9fb1-4a2c71cb2059","system_id":"levelo_inurba_marseille","lat":43.31239,"lon":5.36852,"is_reserved":false,"is_disabled":false,"rental_uris":{"android":"levelo://app?vid=c6e25874-c646-4223-9fb1-4a2c71cb2059","ios":"levelo://app?vid=c6e25874-c646-4223-9fb1-4a2c71cb2059"},"vehicle_type_id":"4","last_reported":1770395521,"current_range_meters":8800,"station_id":"ce4bgl92rcd13ifvqbq0","pricing_plan_id":"cebpf4jnsgd1na2vs0mg"},{"bike_id":"8337b65d-17c0-4b57-8442-e6d360aa1c7d","system_id":"levelo_inurba_marseille","lat":43.23381,"lon":5.4126,"is_reserved":false,"is_disabled":false,"rental_uris":{"android":"levelo://app?vid=8337b65d-17c0-4b57-8442-e6d360aa1c7d","ios":"levelo://app?vid=8337b65d-17c0-4b57-8442-e6d360aa1c7d"},"vehicle_type_id":"4","last_reported":1770395521,"current_range_meters":8800,"station_id":"","pricing_plan_id":"cebpf4jnsgd1na2vs0mg"},{"bike_id":"9fa9d039-7a94-4d00-a9d7-bbf31c9a4d0c","system_id":"levelo_inurba_marseille","lat":43.27211,"lon":5.3919,"is_reserved":false,"is_disabled":false,"rental_uris":{"android":"levelo://app?vid=9fa9d039-7a94-4d00-a9d7-bbf31c9a4d0c","ios":"levelo://app?vid=9fa9d039-7a94-4d00-a9d7-bbf31c9a4d0c"},"vehicle_type_id":"4","last_reported":1770395521,"current_range_meters":8800,"station_id":"ce4bhhp2rcd13ifvqfm0","pricing_plan_id":"cebpf4jnsgd1na2vs0mg"},{"bike_id":"1e4df930-d044-402b-87ab-bcfcaeb07abf","system_id":"levelo_inurba_marseille","lat":43.299587,"lon":5.413187,"is_reserved":false,"is_disabled":false,"rental_uris":{"android":"levelo://app?vid=1e4df930-d044-402b-87ab-bcfcaeb07abf","ios":"levelo://app?vid=1e4df930-d044-402b-87ab-bcfcaeb07abf"},"vehicle_type_id":"4","last_reported":1770395521,"current_range_meters":8800,"station_id":"ce4bhp12rcd13ifvqh9g","pricing_plan_id":"cebpf4jnsgd1na2vs0mg"},{"bike_id":"9d9ada7e-8bfb-4948-82e1-5314689a8b39","system_id":"levelo_inurba_marseille","lat":43.335428,"lon":5.374688,"is_reserved":false,"is_disabled":false,"rental_uris":{"android":"levelo://app?vid=9d9ada7e-8bfb-4948-82e1-5314689a8b39","ios":"levelo://app?vid=9d9ada7e-8bfb-4948-82e1-5314689a8b39"},"vehicle_type_id":"4","last_reported":1770395521,"current_range_meters":8800,"station_id":"st_d46tts09ee8s73dlu43g","pricing_plan_id":"cebpf4jnsgd1na2vs0mg"},{"bike_id":"11d4fc98-b1e1-4ce2-a0d6-e5f916889f2b","system_id":"levelo_inurba_marseille","lat":43.2846,"lon":5.35887,"is_reserved":false,"is_disabled":false,"rental_uris":{"android":"levelo://app?vid=11d4fc98-b1e1-4ce2-a0d6-e5f916889f2b","ios":"levelo://app?vid=11d4fc98-b1e1-4ce2-a0d6-e5f916889f2b"},"vehicle_type_id":"4","last_reported":1770395521,"current_range_meters":8800,"station_id":"ce4bhah2rcd13ifvqei0","pricing_plan_id":"cebpf4jnsgd1na2vs0mg"},{"bike_id":"a5faf7a6-7f2f-419a-b628-e8f939b70083","system_id":"levelo_inurba_marseille","lat":43.28547,"lon":5.44074,"is_reserved":false,"is_disabled":false,"rental_uris":{"android":"levelo://app?vid=a5faf7a6-7f2f-419a-b628-e8f939b70083","ios":"levelo://app?vid=a5faf7a6-7f2f-419a-b628-e8f939b70083"},"vehicle_type_id":"4","last_reported":1770395521,"current_range_meters":8800,"station_id":"st_d3j3df2ikq2c7380ej80","pricing_plan_id":"cebpf4jnsgd1na2vs0mg"},{"bike_id":"47062a1a-8ea5-495b-bc3f-987a0bc86c78","system_id":"levelo_inurba_marseille","lat":43.31342,"lon":5.36724,"is_reserved":false,"is_disabled":false,"rental_uris":{"android":"levelo://app?vid=47062a1a-8ea5-495b-bc3f-987a0bc86c78","ios":"levelo://app?vid=47062a1a-8ea5-495b-bc3f-987a0bc86c78"},"vehicle_type_id":"4","last_reported":1770395521,"current_range_meters":8800,"station_id":"ce4bgr92rcd13ifvqc6g","pricing_plan_id":"cebpf4jnsgd1na2vs0mg"},{"bike_id":"731447a5-bd31-4208-aa2f-c0645944403a","system_id":"levelo_inurba_marseille","lat":43.246266,"lon":5.431462,"is_reserved":false,"is_disabled":false,"rental_uris":{"android":"levelo://app?vid=731447a5-bd31-4208-aa2f-c0645944403a","ios":"levelo://app?vid=731447a5-bd31-4208-aa2f-c0645944403a"},"vehicle_type_id":"4","last_reported":1770395521,"current_range_meters":8800,"station_id":"st_d2m6c4gdas8pm72e190g","pricing_plan_id":"cebpf4jnsgd1na2vs0mg"},{"bike_id":"b0c3d441-fa9a-4312-858a-e0f5eaf46fd5","system_id":"levelo_inurba_marseille","lat":43.32113,"lon":5.36783,"is_reserved":false,"is_disabled":false,"rental_uris":{"android":"levelo://app?vid=b0c3d441-fa9a-4312-858a-e0f5eaf46fd5","ios":"levelo://app?vid=b0c3d441-fa9a-4312-858a-e0f5eaf46fd5"},"vehicle_type_id":"4","last_reported":1770395521,"current_range_meters":8800,"station_id":"ce4bhrh2rcd13ifvqhug","pricing_plan_id":"cebpf4jnsgd1na2vs0mg"},{"bike_id":"10d746aa-a7b4-43c1-803b-a61317693b26","system_id":"levelo_inurba_marseille","lat":43.299698,"lon":5.37174,"is_reserved":false,"is_disabled":false,"rental_uris":{"android":"levelo://app?vid=10d746aa-a7b4-43c1-803b-a61317693b26","ios":"levelo://app?vid=10d746aa-a7b4-43c1-803b-a61317693b26"},"vehicle_type_id":"4","last_reported":1770395521,"current_range_meters":8800,"station_id":"ce4bgr92rcd13ifvqc7g","pricing_plan_id":"cebpf4jnsgd1na2vs0mg"},{"bike_id":"695a138c-9117-4798-9030-e462ffee3fe5","system_id":"levelo_inurba_marseille","lat":43.248017,"lon":5.374663,"is_reserved":false,"is_disabled":false,"rental_uris":{"android":"levelo://app?vid=695a138c-9117-4798-9030-e462ffee3fe5","ios":"levelo://app?vid=695a138c-9117-4798-9030-e462ffee3fe5"},"vehicle_type_id":"4","last_reported":1770395521,"current_range_meters":8800,"station_id":"ce4bhgh2rcd13ifvqfb0","pricing_plan_id":"cebpf4jnsgd1na2vs0mg"},{"bike_id":"596e8b7d-7cb7-4bce-bed5-c069c5df7df0","system_id":"levelo_inurba_marseille","lat":43.241703,"lon":5.364013,"is_reserved":false,"is_disabled":false,"rental_uris":{"android":"levelo://app?vid=596e8b7d-7cb7-4bce-bed5-c069c5df7df0","ios":"levelo://app?vid=596e8b7d-7cb7-4bce-bed5-c069c5df7df0"},"vehicle_type_id":"4","last_reported":1770395521,"current_range_meters":8800,"station_id":"cpo36qri1sfpv3e86is0","pricing_plan_id":"cebpf4jnsgd1na2vs0mg"},{"bike_id":"90e746c4-3c68-4b0d-b714-80cbcf9e7ffe","system_id":"levelo_inurba_marseille","lat":43.255774,"lon":5.382407,"is_reserved":false,"is_disabled":false,"rental_uris":{"android":"levelo://app?vid=90e746c4-3c68-4b0d-b714-80cbcf9e7ffe","ios":"levelo://app?vid=90e746c4-3c68-4b0d-b714-80cbcf9e7ffe"},"vehicle_type_id":"4","last_reported":1770395521,"current_range_meters":8800,"station_id":"ce4bhih2rcd13ifvqfs0","pricing_plan_id":"cebpf4jnsgd1na2vs0mg"},{"bike_id":"9d567770-2df7-46fb-b31b-fe605a553076","system_id":"levelo_inurba_marseille","lat":43.29033,"lon":5.37565,"is_reserved":false,"is_disabled":false,"rental_uris":{"android":"levelo://app?vid=9d567770-2df7-46fb-b31b-fe605a553076","ios":"levelo://app?vid=9d567770-2df7-46fb-b31b-fe605a553076"},"vehicle_type_id":"4","last_reported":1770395521,"current_range_meters":9200,"station_id":"ce4bh692rcd13ifvqe90","pricing_plan_id":"cebpf4jnsgd1na2vs0mg"},{"bike_id":"b25947ff-289f-44f1-ab40-f0a9000db63d","system_id":"levelo_inurba_marseille","lat":43.29009,"lon":5.35608,"is_reserved":false,"is_disabled":false,"rental_uris":{"android":"levelo://app?vid=b25947ff-289f-44f1-ab40-f0a9000db63d","ios":"levelo://app?vid=b25947ff-289f-44f1-ab40-f0a9000db63d"},"vehicle_type_id":"4","last_reported":1770395521,"current_range_meters":9200,"station_id":"ce4bhb92rcd13ifvqen0","pricing_plan_id":"cebpf4jnsgd1na2vs0mg"},{"bike_id":"1d0ef12e-4bb8-4d8d-9509-0260b1aa5347","system_id":"levelo_inurba_marseille","lat":43.24391,"lon":5.37054,"is_reserved":false,"is_disabled":false,"rental_uris":{"android":"levelo://app?vid=1d0ef12e-4bb8-4d8d-9509-0260b1aa5347","ios":"levelo://app?vid=1d0ef12e-4bb8-4d8d-9509-0260b1aa5347"},"vehicle_type_id":"4","last_reported":1770395521,"current_range_meters":9200,"station_id":"ce4bhhh2rcd13ifvqfk0","pricing_plan_id":"cebpf4jnsgd1na2vs0mg"},{"bike_id":"f0dac137-50d5-4eb1-9995-1f22e4820184","system_id":"levelo_inurba_marseille","lat":43.25103,"lon":5.40324,"is_reserved":false,"is_disabled":false,"rental_uris":{"android":"levelo://app?vid=f0dac137-50d5-4eb1-9995-1f22e4820184","ios":"levelo://app?vid=f0dac137-50d5-4eb1-9995-1f22e4820184"},"vehicle_type_id":"4","last_reported":1770395521,"current_range_meters":9200,"station_id":"ce4bhlh2rcd13ifvqgig","pricing_plan_id":"cebpf4jnsgd1na2vs0mg"},{"bike_id":"4553b9ae-95be-4d03-9d86-2a4c79a4ffcc","system_id":"levelo_inurba_marseille","lat":43.28911,"lon":5.39844,"is_reserved":false,"is_disabled":false,"rental_uris":{"android":"levelo://app?vid=4553b9ae-95be-4d03-9d86-2a4c79a4ffcc","ios":"levelo://app?vid=4553b9ae-95be-4d03-9d86-2a4c79a4ffcc"},"vehicle_type_id":"4","last_reported":1770395521,"current_range_meters":9200,"station_id":"","pricing_plan_id":"cebpf4jnsgd1na2vs0mg"},{"bike_id":"460c9c1e-514b-4ed9-a1a5-220c95d4e7af","system_id":"levelo_inurba_marseille","lat":43.29584,"lon":5.37514,"is_reserved":false,"is_disabled":false,"rental_uris":{"android":"levelo://app?vid=460c9c1e-514b-4ed9-a1a5-220c95d4e7af","ios":"levelo://app?vid=460c9c1e-514b-4ed9-a1a5-220c95d4e7af"},"vehicle_type_id":"4","last_reported":1770395521,"current_range_meters":9200,"station_id":"ce4bgh92rcd13ifvqb50","pricing_plan_id":"cebpf4jnsgd1na2vs0mg"},{"bike_id":"152aab5a-1f0e-441e-b1f1-9112c01f295e","system_id":"levelo_inurba_marseille","lat":43.290038,"lon":5.356175,"is_reserved":false,"is_disabled":false,"rental_uris":{"android":"levelo://app?vid=152aab5a-1f0e-441e-b1f1-9112c01f295e","ios":"levelo://app?vid=152aab5a-1f0e-441e-b1f1-9112c01f295e"},"vehicle_type_id":"4","last_reported":1770395521,"current_range_meters":9200,"station_id":"ce4bhb92rcd13ifvqen0","pricing_plan_id":"cebpf4jnsgd1na2vs0mg"},{"bike_id":"c6f3c761-de0f-456d-aad1-843601547135","system_id":"levelo_inurba_marseille","lat":43.2842,"lon":5.34988,"is_reserved":false,"is_disabled":false,"rental_uris":{"android":"levelo://app?vid=c6f3c761-de0f-456d-aad1-843601547135","ios":"levelo://app?vid=c6f3c761-de0f-456d-aad1-843601547135"},"vehicle_type_id":"4","last_reported":1770395521,"current_range_meters":9200,"station_id":"ce4bhbh2rcd13ifvqepg","pricing_plan_id":"cebpf4jnsgd1na2vs0mg"},{"bike_id":"20af7b6f-d4c2-48a2-8e58-e774ef6c208b","system_id":"levelo_inurba_marseille","lat":43.26946,"lon":5.40262,"is_reserved":false,"is_disabled":false,"rental_uris":{"android":"levelo://app?vid=20af7b6f-d4c2-48a2-8e58-e774ef6c208b","ios":"levelo://app?vid=20af7b6f-d4c2-48a2-8e58-e774ef6c208b"},"vehicle_type_id":"4","last_reported":1770395521,"current_range_meters":9200,"station_id":"cjm6bp8fraef2m0cb0m0","pricing_plan_id":"cebpf4jnsgd1na2vs0mg"},{"bike_id":"ef73f63b-4b6f-4a26-861e-5d0a62f96211","system_id":"levelo_inurba_marseille","lat":43.29194,"lon":5.35812,"is_reserved":false,"is_disabled":false,"rental_uris":{"android":"levelo://app?vid=ef73f63b-4b6f-4a26-861e-5d0a62f96211","ios":"levelo://app?vid=ef73f63b-4b6f-4a26-861e-5d0a62f96211"},"vehicle_type_id":"4","last_reported":1770395521,"current_range_meters":9200,"station_id":"ce4bhb12rcd13ifvqel0","pricing_plan_id":"cebpf4jnsgd1na2vs0mg"},{"bike_id":"4308129b-6751-4273-bbe8-20208f30cb65","system_id":"levelo_inurba_marseille","lat":43.22934,"lon":5.35381,"is_reserved":false,"is_disabled":false,"rental_uris":{"android":"levelo://app?vid=4308129b-6751-4273-bbe8-20208f30cb65","ios":"levelo://app?vid=4308129b-6751-4273-bbe8-20208f30cb65"},"vehicle_type_id":"4","last_reported":1770395521,"current_range_meters":9200,"station_id":"cpo3532slgdg3j2ikp40","pricing_plan_id":"cebpf4jnsgd1na2vs0mg"},{"bike_id":"ca56e68f-7e24-4681-a422-a463b8716c7e","system_id":"levelo_inurba_marseille","lat":43.28613,"lon":5.37082,"is_reserved":false,"is_disabled":false,"rental_uris":{"android":"levelo://app?vid=ca56e68f-7e24-4681-a422-a463b8716c7e","ios":"levelo://app?vid=ca56e68f-7e24-4681-a422-a463b8716c7e"},"vehicle_type_id":"4","last_reported":1770395521,"current_range_meters":9200,"station_id":"ce4bht12rcd13ifvqi60","pricing_plan_id":"cebpf4jnsgd1na2vs0mg"},{"bike_id":"6e2d1a54-f084-44cc-a67a-f0f41a4e8f3a","system_id":"levelo_inurba_marseille","lat":43.28616,"lon":5.35106,"is_reserved":false,"is_disabled":false,"rental_uris":{"android":"levelo://app?vid=6e2d1a54-f084-44cc-a67a-f0f41a4e8f3a","ios":"levelo://app?vid=6e2d1a54-f084-44cc-a67a-f0f41a4e8f3a"},"vehicle_type_id":"4","last_reported":1770395521,"current_range_meters":9200,"station_id":"ce4bhch2rcd13ifvqeug","pricing_plan_id":"cebpf4jnsgd1na2vs0mg"},{"bike_id":"a154aa4d-f770-4b03-80cb-82928a08d283","system_id":"levelo_inurba_marseille","lat":43.26229,"lon":5.40445,"is_reserved":false,"is_disabled":false,"rental_uris":{"android":"levelo://app?vid=a154aa4d-f770-4b03-80cb-82928a08d283","ios":"levelo://app?vid=a154aa4d-f770-4b03-80cb-82928a08d283"},"vehicle_type_id":"4","last_reported":1770395521,"current_range_meters":9200,"station_id":"ce4bhmh2rcd13ifvqgmg","pricing_plan_id":"cebpf4jnsgd1na2vs0mg"},{"bike_id":"0de14261-5fb4-4169-8e43-f299c06cc39a","system_id":"levelo_inurba_marseille","lat":43.30376,"lon":5.42493,"is_reserved":false,"is_disabled":false,"rental_uris":{"android":"levelo://app?vid=0de14261-5fb4-4169-8e43-f299c06cc39a","ios":"levelo://app?vid=0de14261-5fb4-4169-8e43-f299c06cc39a"},"vehicle_type_id":"4","last_reported":1770395521,"current_range_meters":9200,"station_id":"ce4bhoh2rcd13ifvqh6g","pricing_plan_id":"cebpf4jnsgd1na2vs0mg"},{"bike_id":"762d17af-af27-45ae-8011-3c290ff80fd9","system_id":"levelo_inurba_marseille","lat":43.24167,"lon":5.36394,"is_reserved":false,"is_disabled":false,"rental_uris":{"android":"levelo://app?vid=762d17af-af27-45ae-8011-3c290ff80fd9","ios":"levelo://app?vid=762d17af-af27-45ae-8011-3c290ff80fd9"},"vehicle_type_id":"4","last_reported":1770395521,"current_range_meters":9200,"station_id":"cpo36qri1sfpv3e86is0","pricing_plan_id":"cebpf4jnsgd1na2vs0mg"},{"bike_id":"dab2d3b4-29e1-42a0-bcd5-1cde7a3252af","system_id":"levelo_inurba_marseille","lat":43.32352,"lon":5.36732,"is_reserved":false,"is_disabled":false,"rental_uris":{"android":"levelo://app?vid=dab2d3b4-29e1-42a0-bcd5-1cde7a3252af","ios":"levelo://app?vid=dab2d3b4-29e1-42a0-bcd5-1cde7a3252af"},"vehicle_type_id":"4","last_reported":1770395521,"current_range_meters":9200,"station_id":"ce4bhsh2rcd13ifvqi2g","pricing_plan_id":"cebpf4jnsgd1na2vs0mg"},{"bike_id":"852f78ad-93a5-4d2f-8a0b-832f5bbdbd7f","system_id":"levelo_inurba_marseille","lat":43.23157,"lon":5.43716,"is_reserved":false,"is_disabled":false,"rental_uris":{"android":"levelo://app?vid=852f78ad-93a5-4d2f-8a0b-832f5bbdbd7f","ios":"levelo://app?vid=852f78ad-93a5-4d2f-8a0b-832f5bbdbd7f"},"vehicle_type_id":"4","last_reported":1770395521,"current_range_meters":9600,"station_id":"ce4bhmp2rcd13ifvqgog","pricing_plan_id":"cebpf4jnsgd1na2vs0mg"},{"bike_id":"4940192c-cd9e-43b0-a8dd-fd4c04e7805e","system_id":"levelo_inurba_marseille","lat":43.22554,"lon":5.4163,"is_reserved":false,"is_disabled":false,"rental_uris":{"android":"levelo://app?vid=4940192c-cd9e-43b0-a8dd-fd4c04e7805e","ios":"levelo://app?vid=4940192c-cd9e-43b0-a8dd-fd4c04e7805e"},"vehicle_type_id":"4","last_reported":1770395521,"current_range_meters":9600,"station_id":"st_d2o4gvlbi1j2169b742g","pricing_plan_id":"cebpf4jnsgd1na2vs0mg"},{"bike_id":"fedf1ddc-d4ff-4676-8580-a80efc2690f5","system_id":"levelo_inurba_marseille","lat":43.29004,"lon":5.35613,"is_reserved":false,"is_disabled":false,"rental_uris":{"android":"levelo://app?vid=fedf1ddc-d4ff-4676-8580-a80efc2690f5","ios":"levelo://app?vid=fedf1ddc-d4ff-4676-8580-a80efc2690f5"},"vehicle_type_id":"4","last_reported":1770395521,"current_range_meters":9600,"station_id":"ce4bhb92rcd13ifvqen0","pricing_plan_id":"cebpf4jnsgd1na2vs0mg"},{"bike_id":"1e7c3180-6ae4-4366-ad5c-c5f688076456","system_id":"levelo_inurba_marseille","lat":43.24383,"lon":5.37059,"is_reserved":false,"is_disabled":false,"rental_uris":{"android":"levelo://app?vid=1e7c3180-6ae4-4366-ad5c-c5f688076456","ios":"levelo://app?vid=1e7c3180-6ae4-4366-ad5c-c5f688076456"},