{"last_updated":1745766539,"ttl":60,"version":"2.2","data":{"bikes":[{"bike_id":"55cde3a6-19e5-42fb-b7db-b9b8a6e5ed03","system_id":"levelo_inurba_marseille","lat":43.29972,"lon":5.385,"is_reserved":false,"is_disabled":false,"rental_uris":{"android":"levelo://app?vid=55cde3a6-19e5-42fb-b7db-b9b8a6e5ed03","ios":"levelo://app?vid=55cde3a6-19e5-42fb-b7db-b9b8a6e5ed03"},"vehicle_type_id":"4","last_reported":1745766539,"current_range_meters":2800,"station_id":"ce4bgj92rcd13ifvqbd0","pricing_plan_id":"cebpf4jnsgd1na2vs0mg"},{"bike_id":"cd914b55-a4c3-4b39-8335-8d7ceb4cb7f3","system_id":"levelo_inurba_marseille","lat":43.29421,"lon":5.38624,"is_reserved":false,"is_disabled":false,"rental_uris":{"android":"levelo://app?vid=cd914b55-a4c3-4b39-8335-8d7ceb4cb7f3","ios":"levelo://app?vid=cd914b55-a4c3-4b39-8335-8d7ceb4cb7f3"},"vehicle_type_id":"4","last_reported":1745766539,"current_range_meters":3200,"station_id":"ce4bh2h2rcd13ifvqdh0","pricing_plan_id":"cebpf4jnsgd1na2vs0mg"},{"bike_id":"5943e8f4-e1de-4463-9e28-163bd28745b2","system_id":"levelo_inurba_marseille","lat":43.29065,"lon":5.35919,"is_reserved":false,"is_disabled":false,"rental_uris":{"android":"levelo://app?vid=5943e8f4-e1de-4463-9e28-163bd28745b2","ios":"levelo://app?vid=5943e8f4-e1de-4463-9e28-163bd28745b2"},"vehicle_type_id":"4","last_reported":1745766539,"current_range_meters":3200,"station_id":"ce4bha92rcd13ifvqeg0","pricing_plan_id":"cebpf4jnsgd1na2vs0mg"},{"bike_id":"4c1c4c49-b06a-44b6-9fa5-c0175cd8e033","system_id":"levelo_inurba_marseille","lat":43.26922,"lon":5.4025,"is_reserved":false,"is_disabled":false,"rental_uris":{"android":"levelo://app?vid=4c1c4c49-b06a-44b6-9fa5-c0175cd8e033","ios":"levelo://app?vid=4c1c4c49-b06a-44b6-9fa5-c0175cd8e033"},"vehicle_type_id":"4","last_reported":1745766539,"current_range_meters":3600,"station_id":"cjm6bp8fraef2m0cb0m0","pricing_plan_id":"cebpf4jnsgd1na2vs0mg"},{"bike_id":"7ab53e51-43ce-42d4-8b57-5c79e4985eeb","system_id":"levelo_inurba_marseille","lat":43.2732,"lon":5.39067,"is_reserved":false,"is_disabled":false,"rental_uris":{"android":"levelo://app?vid=7ab53e51-43ce-42d4-8b57-5c79e4985eeb","ios":"levelo://app?vid=7ab53e51-43ce-42d4-8b57-5c79e4985eeb"},"vehicle_type_id":"4","last_reported":1745766539,"current_range_meters":3600,"station_id":"ce4bhgp2rcd13ifvqfe0","pricing_plan_id":"cebpf4jnsgd1na2vs0mg"},{"bike_id":"049e53d5-4753-49f0-b47d-e475cffdb2c7","system_id":"levelo_inurba_marseille","lat":43.2418,"lon":5.39732,"is_reserved":false,"is_disabled":false,"rental_uris":{"android":"levelo://app?vid=049e53d5-4753-49f0-b47d-e475cffdb2c7","ios":"levelo://app?vid=049e53d5-4753-49f0-b47d-e475cffdb2c7"},"vehicle_type_id":"4","last_reported":1745766539,"current_range_meters":4000,"station_id":"ce4bhn12rcd13ifvqgpg","pricing_plan_id":"cebpf4jnsgd1na2vs0mg"},{"bike_id":"837b078e-256e-4a12-af17-3aaba6d928b5","system_id":"levelo_inurba_marseille","lat":43.27251,"lon":5.39175,"is_reserved":false,"is_disabled":false,"rental_uris":{"android":"levelo://app?vid=837b078e-256e-4a12-af17-3aaba6d928b5","ios":"levelo://app?vid=837b078e-256e-4a12-af17-3aaba6d928b5"},"vehicle_type_id":"4","last_reported":1745766539,"current_range_meters":4400,"station_id":"ce4bhhp2rcd13ifvqfm0","pricing_plan_id":"cebpf4jnsgd1na2vs0mg"},{"bike_id":"7c077549-6efb-4642-9e07-386824439cdb","system_id":"levelo_inurba_marseille","lat":43.29427,"lon":5.38578,"is_reserved":false,"is_disabled":false,"rental_uris":{"android":"levelo://app?vid=7c077549-6efb-4642-9e07-386824439cdb","ios":"levelo://app?vid=7c077549-6efb-4642-9e07-386824439cdb"},"vehicle_type_id":"4","last_reported":1745766539,"current_range_meters":4400,"station_id":"ce4bh2h2rcd13ifvqdh0","pricing_plan_id":"cebpf4jnsgd1na2vs0mg"},{"bike_id":"0e61e71c-6fbe-4c8f-a276-2c23cf783597","system_id":"levelo_inurba_marseille","lat":43.29263,"lon":5.37617,"is_reserved":false,"is_disabled":false,"rental_uris":{"android":"levelo://app?vid=0e61e71c-6fbe-4c8f-a276-2c23cf783597","ios":"levelo://app?vid=0e61e71c-6fbe-4c8f-a276-2c23cf783597"},"vehicle_type_id":"4","last_reported":1745766539,"current_range_meters":4800,"station_id":"ce4bgi12rcd13ifvqb80","pricing_plan_id":"cebpf4jnsgd1na2vs0mg"},{"bike_id":"d48770ea-271d-480f-a83f-8620fe6a1833","system_id":"levelo_inurba_marseille","lat":43.28176,"lon":5.40462,"is_reserved":false,"is_disabled":true,"rental_uris":{"android":"levelo://app?vid=d48770ea-271d-480f-a83f-8620fe6a1833","ios":"levelo://app?vid=d48770ea-271d-480f-a83f-8620fe6a1833"},"vehicle_type_id":"4","last_reported":1745766539,"current_range_meters":4800,"station_id":"","pricing_plan_id":"cebpf4jnsgd1na2vs0mg"},{"bike_id":"51649345-d9f9-45eb-b010-e100663609ea","system_id":"levelo_inurba_marseille","lat":43.28612,"lon":5.37065,"is_reserved":false,"is_disabled":false,"rental_uris":{"android":"levelo://app?vid=51649345-d9f9-45eb-b010-e100663609ea","ios":"levelo://app?vid=51649345-d9f9-45eb-b010-e100663609ea"},"vehicle_type_id":"4","last_reported":1745766539,"current_range_meters":4800,"station_id":"ce4bht12rcd13ifvqi60","pricing_plan_id":"cebpf4jnsgd1na2vs0mg"},{"bike_id":"e585694f-d81e-48ae-87be-7657a786a131","system_id":"levelo_inurba_marseille","lat":43.2886,"lon":5.35832,"is_reserved":false,"is_disabled":true,"rental_uris":{"android":"levelo://app?vid=e585694f-d81e-48ae-87be-7657a786a131","ios":"levelo://app?vid=e585694f-d81e-48ae-87be-7657a786a131"},"vehicle_type_id":"4","last_reported":1745766539,"current_range_meters":4800,"station_id":"ce4bhb12rcd13ifvqem0","pricing_plan_id":"cebpf4jnsgd1na2vs0mg"},{"bike_id":"4cd3f9c5-ff6b-4b66-a225-079db23dbe4a","system_id":"levelo_inurba_marseille","lat":43.29265,"lon":5.38439,"is_reserved":false,"is_disabled":false,"rental_uris":{"android":"levelo://app?vid=4cd3f9c5-ff6b-4b66-a225-079db23dbe4a","ios":"levelo://app?vid=4cd3f9c5-ff6b-4b66-a225-079db23dbe4a"},"vehicle_type_id":"4","last_reported":1745766539,"current_range_meters":5600,"station_id":"ce4bh692rcd13ifvqea0","pricing_plan_id":"cebpf4jnsgd1na2vs0mg"},{"bike_id":"8f454a75-ef92-496a-b218-baa377f18c34","system_id":"levelo_inurba_marseille","lat":43.31984,"lon":5.38134,"is_reserved":false,"is_disabled":false,"rental_uris":{"android":"levelo://app?vid=8f454a75-ef92-496a-b218-baa377f18c34","ios":"levelo://app?vid=8f454a75-ef92-496a-b218-baa377f18c34"},"vehicle_type_id":"4","last_reported":1745766539,"current_range_meters":5600,"station_id":"ce4bhr12rcd13ifvqhpg","pricing_plan_id":"cebpf4jnsgd1na2vs0mg"},{"bike_id":"3c8f88a1-d294-464f-b58d-aed7a032a0e8","system_id":"levelo_inurba_marseille","lat":43.29626,"lon":5.37731,"is_reserved":false,"is_disabled":false,"rental_uris":{"android":"levelo://app?vid=3c8f88a1-d294-464f-b58d-aed7a032a0e8","ios":"levelo://app?vid=3c8f88a1-d294-464f-b58d-aed7a032a0e8"},"vehicle_type_id":"4","last_reported":1745766539,"current_range_meters":5600,"station_id":"ce4bgi92rcd13ifvqb90","pricing_plan_id":"cebpf4jnsgd1na2vs0mg"},{"bike_id":"c327693b-ad74-4c42-8509-22927e58d883","system_id":"levelo_inurba_marseille","lat":43.30642,"lon":5.40084,"is_reserved":false,"is_disabled":false,"rental_uris":{"android":"levelo://app?vid=c327693b-ad74-4c42-8509-22927e58d883","ios":"levelo://app?vid=c327693b-ad74-4c42-8509-22927e58d883"},"vehicle_type_id":"4","last_reported":1745766539,"current_range_meters":5600,"station_id":"ce4bh112rcd13ifvqda0","pricing_plan_id":"cebpf4jnsgd1na2vs0mg"},{"bike_id":"cf067776-851a-4953-95cd-83a245ad544b","system_id":"levelo_inurba_marseille","lat":43.29574,"lon":5.37517,"is_reserved":false,"is_disabled":false,"rental_uris":{"android":"levelo://app?vid=cf067776-851a-4953-95cd-83a245ad544b","ios":"levelo://app?vid=cf067776-851a-4953-95cd-83a245ad544b"},"vehicle_type_id":"4","last_reported":1745766539,"current_range_meters":6000,"station_id":"ce4bgh92rcd13ifvqb50","pricing_plan_id":"cebpf4jnsgd1na2vs0mg"},{"bike_id":"dfc48e30-6678-4c1e-8e38-d5189551cb27","system_id":"levelo_inurba_marseille","lat":43.26557,"lon":5.38996,"is_reserved":false,"is_disabled":false,"rental_uris":{"android":"levelo://app?vid=dfc48e30-6678-4c1e-8e38-d5189551cb27","ios":"levelo://app?vid=dfc48e30-6678-4c1e-8e38-d5189551cb27"},"vehicle_type_id":"4","last_reported":1745766539,"current_range_meters":6400,"station_id":"ce4bhe12rcd13ifvqf30","pricing_plan_id":"cebpf4jnsgd1na2vs0mg"},{"bike_id":"b9d9721d-c534-4190-b885-afd25bc0dc94","system_id":"levelo_inurba_marseille","lat":43.29265,"lon":5.37632,"is_reserved":false,"is_disabled":false,"rental_uris":{"android":"levelo://app?vid=b9d9721d-c534-4190-b885-afd25bc0dc94","ios":"levelo://app?vid=b9d9721d-c534-4190-b885-afd25bc0dc94"},"vehicle_type_id":"4","last_reported":1745766539,"current_range_meters":6400,"station_id":"ce4bgi12rcd13ifvqb80","pricing_plan_id":"cebpf4jnsgd1na2vs0mg"},{"bike_id":"04d70716-1e19-4e8d-930b-643cd3956115","system_id":"levelo_inurba_marseille","lat":43.29843,"lon":5.36274,"is_reserved":false,"is_disabled":false,"rental_uris":{"android":"levelo://app?vid=04d70716-1e19-4e8d-930b-643cd3956115","ios":"levelo://app?vid=04d70716-1e19-4e8d-930b-643cd3956115"},"vehicle_type_id":"4","last_reported":1745766539,"current_range_meters":6400,"station_id":"ce4bgpp2rcd13ifvqc3g","pricing_plan_id":"cebpf4jnsgd1na2vs0mg"},{"bike_id":"f481d52d-ff99-4ff4-bdef-b3c96f72c25a","system_id":"levelo_inurba_marseille","lat":43.28703,"lon":5.39976,"is_reserved":false,"is_disabled":false,"rental_uris":{"android":"levelo://app?vid=f481d52d-ff99-4ff4-bdef-b3c96f72c25a","ios":"levelo://app?vid=f481d52d-ff99-4ff4-bdef-b3c96f72c25a"},"vehicle_type_id":"4","last_reported":1745766539,"current_range_meters":6400,"station_id":"ce4bho92rcd13ifvqh3g","pricing_plan_id":"cebpf4jnsgd1na2vs0mg"},{"bike_id":"afaa9e0d-b96d-4abe-80aa-9014492f0493","system_id":"levelo_inurba_marseille","lat":43.31207,"lon":5.36881,"is_reserved":false,"is_disabled":false,"rental_uris":{"android":"levelo://app?vid=afaa9e0d-b96d-4abe-80aa-9014492f0493","ios":"levelo://app?vid=afaa9e0d-b96d-4abe-80aa-9014492f0493"},"vehicle_type_id":"4","last_reported":1745766539,"current_range_meters":6800,"station_id":"ce4bgl92rcd13ifvqbq0","pricing_plan_id":"cebpf4jnsgd1na2vs0mg"},{"bike_id":"b4b0266c-631d-4bc0-b722-43b22c86c85f","system_id":"levelo_inurba_marseille","lat":43.30988,"lon":5.41738,"is_reserved":false,"is_disabled":false,"rental_uris":{"android":"levelo://app?vid=b4b0266c-631d-4bc0-b722-43b22c86c85f","ios":"levelo://app?vid=b4b0266c-631d-4bc0-b722-43b22c86c85f"},"vehicle_type_id":"4","last_reported":1745766539,"current_range_meters":6800,"station_id":"","pricing_plan_id":"cebpf4jnsgd1na2vs0mg"},{"bike_id":"82016555-1022-467f-b7e9-084b6d838aac","system_id":"levelo_inurba_marseille","lat":43.25527,"lon":5.37635,"is_reserved":false,"is_disabled":false,"rental_uris":{"android":"levelo://app?vid=82016555-1022-467f-b7e9-084b6d838aac","ios":"levelo://app?vid=82016555-1022-467f-b7e9-084b6d838aac"},"vehicle_type_id":"4","last_reported":1745766539,"current_range_meters":7200,"station_id":"ce4bhh12rcd13ifvqff0","pricing_plan_id":"cebpf4jnsgd1na2vs0mg"},{"bike_id":"571880c0-0712-439e-9fee-1111267484d9","system_id":"levelo_inurba_marseille","lat":43.2871,"lon":5.37924,"is_reserved":false,"is_disabled":true,"rental_uris":{"android":"levelo://app?vid=571880c0-0712-439e-9fee-1111267484d9","ios":"levelo://app?vid=571880c0-0712-439e-9fee-1111267484d9"},"vehicle_type_id":"4","last_reported":1745766539,"current_range_meters":7200,"station_id":"ce4bh9p2rcd13ifvqec0","pricing_plan_id":"cebpf4jnsgd1na2vs0mg"},{"bike_id":"e768aa58-f78c-4d48-862b-93a92cf87bd8","system_id":"levelo_inurba_marseille","lat":43.321,"lon":5.3679,"is_reserved":false,"is_disabled":false,"rental_uris":{"android":"levelo://app?vid=e768aa58-f78c-4d48-862b-93a92cf87bd8","ios":"levelo://app?vid=e768aa58-f78c-4d48-862b-93a92cf87bd8"},"vehicle_type_id":"4","last_reported":1745766539,"current_range_meters":7200,"station_id":"ce4bhrh2rcd13ifvqhug","pricing_plan_id":"cebpf4jnsgd1na2vs0mg"},{"bike_id":"042a36cf-a68c-4f02-8fbe-a3d4f36fa492","system_id":"levelo_inurba_marseille","lat":43.21228,"lon":5.35054,"is_reserved":false,"is_disabled":false,"rental_uris":{"android":"levelo://app?vid=042a36cf-a68c-4f02-8fbe-a3d4f36fa492","ios":"levelo://app?vid=042a36cf-a68c-4f02-8fbe-a3d4f36fa492"},"vehicle_type_id":"4","last_reported":1745766539,"current_range_meters":7200,"station_id":"st_cvj6sg6p6f1abm77japg","pricing_plan_id":"cebpf4jnsgd1na2vs0mg"},{"bike_id":"54c1d5eb-0cf2-41c8-a80d-d8dd74e806af","system_id":"levelo_inurba_marseille","lat":43.21759,"lon":5.34604,"is_reserved":false,"is_disabled":false,"rental_uris":{"android":"levelo://app?vid=54c1d5eb-0cf2-41c8-a80d-d8dd74e806af","ios":"levelo://app?vid=54c1d5eb-0cf2-41c8-a80d-d8dd74e806af"},"vehicle_type_id":"4","last_reported":1745766539,"current_range_meters":7200,"station_id":"st_cvj6r9ubvosntc0bgbag","pricing_plan_id":"cebpf4jnsgd1na2vs0mg"},{"bike_id":"070f7ee1-1b23-4402-96a5-c69fa55fa9f4","system_id":"levelo_inurba_marseille","lat":43.28947,"lon":5.36397,"is_reserved":false,"is_disabled":false,"rental_uris":{"android":"levelo://app?vid=070f7ee1-1b23-4402-96a5-c69fa55fa9f4","ios":"levelo://app?vid=070f7ee1-1b23-4402-96a5-c69fa55fa9f4"},"vehicle_type_id":"4","last_reported":1745766539,"current_range_meters":7200,"station_id":"ce4bhc92rcd13ifvqetg","pricing_plan_id":"cebpf4jnsgd1na2vs0mg"},{"bike_id":"8f25a6ca-766a-43c2-ac78-18c2f4b17643","system_id":"levelo_inurba_marseille","lat":43.27811,"lon":5.40709,"is_reserved":false,"is_disabled":false,"rental_uris":{"android":"levelo://app?vid=8f25a6ca-766a-43c2-ac78-18c2f4b17643","ios":"levelo://app?vid=8f25a6ca-766a-43c2-ac78-18c2f4b17643"},"vehicle_type_id":"4","last_reported":1745766539,"current_range_meters":7200,"station_id":"ce4bhnh2rcd13ifvqgtg","pricing_plan_id":"cebpf4jnsgd1na2vs0mg"},{"bike_id":"c1b1b433-bcb9-4a7d-8963-3218bcdcba1e","system_id":"levelo_inurba_marseille","lat":43.23392,"lon":5.36056,"is_reserved":false,"is_disabled":false,"rental_uris":{"android":"levelo://app?vid=c1b1b433-bcb9-4a7d-8963-3218bcdcba1e","ios":"levelo://app?vid=c1b1b433-bcb9-4a7d-8963-3218bcdcba1e"},"vehicle_type_id":"4","last_reported":1745766539,"current_range_meters":7200,"station_id":"","pricing_plan_id":"cebpf4jnsgd1na2vs0mg"},{"bike_id":"a1fda7b9-5017-4843-bec2-cd69eb978fd4","system_id":"levelo_inurba_marseille","lat":43.23961,"lon":5.36635,"is_reserved":false,"is_disabled":false,"rental_uris":{"android":"levelo://app?vid=a1fda7b9-5017-4843-bec2-cd69eb978fd4","ios":"levelo://app?vid=a1fda7b9-5017-4843-bec2-cd69eb978fd4"},"vehicle_type_id":"4","last_reported":1745766539,"current_range_meters":7200,"station_id":"ce4bhi12rcd13ifvqfp0","pricing_plan_id":"cebpf4jnsgd1na2vs0mg"},{"bike_id":"308ce0d7-54d5-4aec-879f-da2149307f93","system_id":"levelo_inurba_marseille","lat":43.22527,"lon":5.34787,"is_reserved":false,"is_disabled":true,"rental_uris":{"android":"levelo://app?vid=308ce0d7-54d5-4aec-879f-da2149307f93","ios":"levelo://app?vid=308ce0d7-54d5-4aec-879f-da2149307f93"},"vehicle_type_id":"4","last_reported":1745766539,"current_range_meters":8000,"station_id":"st_cvj5dfep6f1abm77gieg","pricing_plan_id":"cebpf4jnsgd1na2vs0mg"},{"bike_id":"aa7dd23a-c50c-4359-a4fa-3d29c4576751","system_id":"levelo_inurba_marseille","lat":43.24156,"lon":5.36439,"is_reserved":false,"is_disabled":false,"rental_uris":{"android":"levelo://app?vid=aa7dd23a-c50c-4359-a4fa-3d29c4576751","ios":"levelo://app?vid=aa7dd23a-c50c-4359-a4fa-3d29c4576751"},"vehicle_type_id":"4","last_reported":1745766539,"current_range_meters":8000,"station_id":"cpo36qri1sfpv3e86is0","pricing_plan_id":"cebpf4jnsgd1na2vs0mg"},{"bike_id":"251f97e3-0bed-4ba6-b8d0-eb9a6ccd0b06","system_id":"levelo_inurba_marseille","lat":43.27991,"lon":5.41656,"is_reserved":false,"is_disabled":false,"rental_uris":{"android":"levelo://app?vid=251f97e3-0bed-4ba6-b8d0-eb9a6ccd0b06","ios":"levelo://app?vid=251f97e3-0bed-4ba6-b8d0-eb9a6ccd0b06"},"vehicle_type_id":"4","last_reported":1745766539,"current_range_meters":8000,"station_id":"ce4bho12rcd13ifvqh1g","pricing_plan_id":"cebpf4jnsgd1na2vs0mg"},{"bike_id":"b203106f-15ad-4224-a9bb-aef6d708468c","system_id":"levelo_inurba_marseille","lat":43.27492,"lon":5.42454,"is_reserved":false,"is_disabled":false,"rental_uris":{"android":"levelo://app?vid=b203106f-15ad-4224-a9bb-aef6d708468c","ios":"levelo://app?vid=b203106f-15ad-4224-a9bb-aef6d708468c"},"vehicle_type_id":"4","last_reported":1745766539,"current_range_meters":8000,"station_id":"ce4bhn92rcd13ifvqgrg","pricing_plan_id":"cebpf4jnsgd1na2vs0mg"},{"bike_id":"5cff25b1-1ddd-40a8-9158-ed9c1198bc0a","system_id":"levelo_inurba_marseille","lat":43.27319,"lon":5.39115,"is_reserved":false,"is_disabled":false,"rental_uris":{"android":"levelo://app?vid=5cff25b1-1ddd-40a8-9158-ed9c1198bc0a","ios":"levelo://app?vid=5cff25b1-1ddd-40a8-9158-ed9c1198bc0a"},"vehicle_type_id":"4","last_reported":1745766539,"current_range_meters":8000,"station_id":"ce4bhgp2rcd13ifvqfe0","pricing_plan_id":"cebpf4jnsgd1na2vs0mg"},{"bike_id":"4a5edcf1-6727-4c60-8f88-19c6d2a1f8fa","system_id":"levelo_inurba_marseille","lat":43.22929,"lon":5.3537,"is_reserved":false,"is_disabled":false,"rental_uris":{"android":"levelo://app?vid=4a5edcf1-6727-4c60-8f88-19c6d2a1f8fa","ios":"levelo://app?vid=4a5edcf1-6727-4c60-8f88-19c6d2a1f8fa"},"vehicle_type_id":"4","last_reported":1745766539,"current_range_meters":8000,"station_id":"cpo3532slgdg3j2ikp40","pricing_plan_id":"cebpf4jnsgd1na2vs0mg"},{"bike_id":"2d4820d4-569a-4ec0-b000-e82a960dd30b","system_id":"levelo_inurba_marseille","lat":43.23134,"lon":5.35562,"is_reserved":false,"is_disabled":false,"rental_uris":{"android":"levelo://app?vid=2d4820d4-569a-4ec0-b000-e82a960dd30b","ios":"levelo://app?vid=2d4820d4-569a-4ec0-b000-e82a960dd30b"},"vehicle_type_id":"4","last_reported":1745766539,"current_range_meters":8400,"station_id":"","pricing_plan_id":"cebpf4jnsgd1na2vs0mg"},{"bike_id":"81159e63-3b35-42d5-8e59-a6400c53568e","system_id":"levelo_inurba_marseille","lat":43.21748,"lon":5.34598,"is_reserved":false,"is_disabled":false,"rental_uris":{"android":"levelo://app?vid=81159e63-3b35-42d5-8e59-a6400c53568e","ios":"levelo://app?vid=81159e63-3b35-42d5-8e59-a6400c53568e"},"vehicle_type_id":"4","last_reported":1745766539,"current_range_meters":8400,"station_id":"st_cvj6r9ubvosntc0bgbag","pricing_plan_id":"cebpf4jnsgd1na2vs0mg"},{"bike_id":"2acf3b39-f175-4cd9-ba06-32ce3b214a0c","system_id":"levelo_inurba_marseille","lat":43.3205,"lon":5.41555,"is_reserved":false,"is_disabled":false,"rental_uris":{"android":"levelo://app?vid=2acf3b39-f175-4cd9-ba06-32ce3b214a0c","ios":"levelo://app?vid=2acf3b39-f175-4cd9-ba06-32ce3b214a0c"},"vehicle_type_id":"4","last_reported":1745766539,"current_range_meters":8400,"station_id":"ce4bhq92rcd13ifvqhkg","pricing_plan_id":"cebpf4jnsgd1na2vs0mg"},{"bike_id":"3f8e74df-4b8a-4fe8-9f20-4fbe47605119","system_id":"levelo_inurba_marseille","lat":43.29041,"lon":5.37561,"is_reserved":false,"is_disabled":true,"rental_uris":{"android":"levelo://app?vid=3f8e74df-4b8a-4fe8-9f20-4fbe47605119","ios":"levelo://app?vid=3f8e74df-4b8a-4fe8-9f20-4fbe47605119"},"vehicle_type_id":"4","last_reported":1745766539,"current_range_meters":8400,"station_id":"ce4bh692rcd13ifvqe90","pricing_plan_id":"cebpf4jnsgd1na2vs0mg"},{"bike_id":"53d01398-6662-4f30-afa3-87fe6b07bcf3","system_id":"levelo_inurba_marseille","lat":43.31794,"lon":5.38076,"is_reserved":false,"is_disabled":false,"rental_uris":{"android":"levelo://app?vid=53d01398-6662-4f30-afa3-87fe6b07bcf3","ios":"levelo://app?vid=53d01398-6662-4f30-afa3-87fe6b07bcf3"},"vehicle_type_id":"4","last_reported":1745766539,"current_range_meters":8400,"station_id":"","pricing_plan_id":"cebpf4jnsgd1na2vs0mg"},{"bike_id":"eb3464c6-ffd6-4969-a080-91b7f3e70e93","system_id":"levelo_inurba_marseille","lat":43.30782,"lon":5.38171,"is_reserved":false,"is_disabled":false,"rental_uris":{"android":"levelo://app?vid=eb3464c6-ffd6-4969-a080-91b7f3e70e93","ios":"levelo://app?vid=eb3464c6-ffd6-4969-a080-91b7f3e70e93"},"vehicle_type_id":"4","last_reported":1745766539,"current_range_meters":8800,"station_id":"ce4bgt12rcd13ifvqce0","pricing_plan_id":"cebpf4jnsgd1na2vs0mg"},{"bike_id":"c596ab54-4f89-4649-a442-12778ac8adc4","system_id":"levelo_inurba_marseille","lat":43.31722,"lon":5.43713,"is_reserved":false,"is_disabled":true,"rental_uris":{"android":"levelo://app?vid=c596ab54-4f89-4649-a442-12778ac8adc4","ios":"levelo://app?vid=c596ab54-4f89-4649-a442-12778ac8adc4"},"vehicle_type_id":"4","last_reported":1745766539,"current_range_meters":8800,"station_id":"ce4bhp92rcd13ifvqhcg","pricing_plan_id":"cebpf4jnsgd1na2vs0mg"},{"bike_id":"f9c4da92-e6ba-4082-b9ef-35fa2738e162","system_id":"levelo_inurba_marseille","lat":43.21755,"lon":5.34596,"is_reserved":false,"is_disabled":false,"rental_uris":{"android":"levelo://app?vid=f9c4da92-e6ba-4082-b9ef-35fa2738e162","ios":"levelo://app?vid=f9c4da92-e6ba-4082-b9ef-35fa2738e162"},"vehicle_type_id":"4","last_reported":1745766539,"current_range_meters":8800,"station_id":"st_cvj6r9ubvosntc0bgbag","pricing_plan_id":"cebpf4jnsgd1na2vs0mg"},{"bike_id":"0a3a4a05-fecf-4b09-8da4-d17c17e575d0","system_id":"levelo_inurba_marseille","lat":43.24066,"lon":5.37829,"is_reserved":false,"is_disabled":false,"rental_uris":{"android":"levelo://app?vid=0a3a4a05-fecf-4b09-8da4-d17c17e575d0","ios":"levelo://app?vid=0a3a4a05-fecf-4b09-8da4-d17c17e575d0"},"vehicle_type_id":"4","last_reported":1745766539,"current_range_meters":8800,"station_id":"ce4bhnp2rcd13ifvqgvg","pricing_plan_id":"cebpf4jnsgd1na2vs0mg"},{"bike_id":"50567301-7660-45e4-9314-78fdd7ddbf96","system_id":"levelo_inurba_marseille","lat":43.30784,"lon":5.40999,"is_reserved":false,"is_disabled":false,"rental_uris":{"android":"levelo://app?vid=50567301-7660-45e4-9314-78fdd7ddbf96","ios":"levelo://app?vid=50567301-7660-45e4-9314-78fdd7ddbf96"},"vehicle_type_id":"4","last_reported":1745766539,"current_range_meters":8800,"station_id":"","pricing_plan_id":"cebpf4jnsgd1na2vs0mg"},{"bike_id":"374695c7-05ae-441b-90bd-19811cb2defe","system_id":"levelo_inurba_marseille","lat":43.30785,"lon":5.42467,"is_reserved":false,"is_disabled":false,"rental_uris":{"android":"levelo://app?vid=374695c7-05ae-441b-90bd-19811cb2defe","ios":"levelo://app?vid=374695c7-05ae-441b-90bd-19811cb2defe"},"vehicle_type_id":"4","last_reported":1745766539,"current_range_meters":8800,"station_id":"st_cvj6ca6bvosntc0bfgr0","pricing_plan_id":"cebpf4jnsgd1na2vs0mg"},{"bike_id":"4e09e2f3-6329-4563-9a1f-79c5001029cb","system_id":"levelo_inurba_marseille","lat":43.32373,"lon":5.38899,"is_reserved":false,"is_disabled":false,"rental_uris":{"android":"levelo://app?vid=4e09e2f3-6329-4563-9a1f-79c5001029cb","ios":"levelo://app?vid=4e09e2f3-6329-4563-9a1f-79c5001029cb"},"vehicle_type_id":"4","last_reported":1745766539,"current_range_meters":8800,"station_id":"ce4bhqp2rcd13ifvqhog","pricing_plan_id":"cebpf4jnsgd1na2vs0mg"},{"bike_id":"5ddba1f1-1747-4179-b91f-b8778028cd60","system_id":"levelo_inurba_marseille","lat":43.25638,"lon":5.41213,"is_reserved":false,"is_disabled":false,"rental_uris":{"android":"levelo://app?vid=5ddba1f1-1747-4179-b91f-b8778028cd60","ios":"levelo://app?vid=5ddba1f1-1747-4179-b91f-b8778028cd60"},"vehicle_type_id":"4","last_reported":1745766539,"current_range_meters":8800,"station_id":"","pricing_plan_id":"cebpf4jnsgd1na2vs0mg"},{"bike_id":"9d1e3168-6a65-4476-8197-6982c318d80f","system_id":"levelo_inurba_marseille","lat":43.27493,"lon":5.42448,"is_reserved":false,"is_disabled":false,"rental_uris":{"android":"levelo://app?vid=9d1e3168-6a65-4476-8197-6982c318d80f","ios":"levelo://app?vid=9d1e3168-6a65-4476-8197-6982c318d80f"},"vehicle_type_id":"4","last_reported":1745766539,"current_range_meters":9200,"station_id":"ce4bhn92rcd13ifvqgrg","pricing_plan_id":"cebpf4jnsgd1na2vs0mg"},{"bike_id":"7d727c0a-6c28-48dc-bed3-bc7b1f3ba7ba","system_id":"levelo_inurba_marseille","lat":43.29253,"lon":5.36473,"is_reserved":false,"is_disabled":true,"rental_uris":{"android":"levelo://app?vid=7d727c0a-6c28-48dc-bed3-bc7b1f3ba7ba","ios":"levelo://app?vid=7d727c0a-6c28-48dc-bed3-bc7b1f3ba7ba"},"vehicle_type_id":"4","last_reported":1745766539,"current_range_meters":9200,"station_id":"","pricing_plan_id":"cebpf4jnsgd1na2vs0mg"},{"bike_id":"721ac694-ddc1-45a4-93fe-2aef08d4b564","system_id":"levelo_inurba_marseille","lat":43.24168,"lon":5.364,"is_reserved":false,"is_disabled":false,"rental_uris":{"android":"levelo://app?vid=721ac694-ddc1-45a4-93fe-2aef08d4b564","ios":"levelo://app?vid=721ac694-ddc1-45a4-93fe-2aef08d4b564"},"vehicle_type_id":"4","last_reported":1745766539,"current_range_meters":9200,"station_id":"cpo36qri1sfpv3e86is0","pricing_plan_id":"cebpf4jnsgd1na2vs0mg"},{"bike_id":"4687fd2d-7baa-4733-8a26-9d049b90190a","system_id":"levelo_inurba_marseille","lat":43.307831,"lon":5.403727,"is_reserved":false,"is_disabled":false,"rental_uris":{"android":"levelo://app?vid=4687fd2d-7baa-4733-8a26-9d049b90190a","ios":"levelo://app?vid=4687fd2d-7baa-4733-8a26-9d049b90190a"},"vehicle_type_id":"4","last_reported":1745766539,"current_range_meters":9200,"station_id":"ce4bh192rcd13ifvqdb0","pricing_plan_id":"cebpf4jnsgd1na2vs0mg"},{"bike_id":"d1db9f13-b3b3-4982-a762-4844e808134e","system_id":"levelo_inurba_marseille","lat":43.29254,"lon":5.40918,"is_reserved":false,"is_disabled":false,"rental_uris":{"android":"levelo://app?vid=d1db9f13-b3b3-4982-a762-4844e808134e","ios":"levelo://app?vid=d1db9f13-b3b3-4982-a762-4844e808134e"},"vehicle_type_id":"4","last_reported":1745766539,"current_range_meters":9200,"station_id":"ce4bh192rcd13ifvqdc0","pricing_plan_id":"cebpf4jnsgd1na2vs0mg"},{"bike_id":"736ee7d5-708e-48bd-8281-35bb85d0bc7d","system_id":"levelo_inurba_marseille","lat":43.29025,"lon":5.35604,"is_reserved":false,"is_disabled":true,"rental_uris":{"android":"levelo://app?vid=736ee7d5-708e-48bd-8281-35bb85d0bc7d","ios":"levelo://app?vid=736ee7d5-708e-48bd-8281-35bb85d0bc7d"},"vehicle_type_id":"4","last_reported":1745766539,"current_range_meters":9200,"station_id":"ce4bhb92rcd13ifvqen0","pricing_plan_id":"cebpf4jnsgd1na2vs0mg"},{"bike_id":"adf68e42-348d-4078-820f-f845b10a2179","system_id":"levelo_inurba_marseille","lat":43.31171,"lon":5.38721,"is_reserved":false,"is_disabled":false,"rental_uris":{"android":"levelo://app?vid=adf68e42-348d-4078-820f-f845b10a2179","ios":"levelo://app?vid=adf68e42-348d-4078-820f-f845b10a2179"},"vehicle_type_id":"4","last_reported":1745766539,"current_range_meters":9200,"station_id":"ce4bgv12rcd13ifvqcp0","pricing_plan_id":"cebpf4jnsgd1na2vs0mg"},{"bike_id":"10823016-539c-472b-ba07-b91945ddaf33","system_id":"levelo_inurba_marseille","lat":43.28946,"lon":5.39648,"is_reserved":false,"is_disabled":false,"rental_uris":{"android":"levelo://app?vid=10823016-539c-472b-ba07-b91945ddaf33","ios":"levelo://app?vid=10823016-539c-472b-ba07-b91945ddaf33"},"vehicle_type_id":"4","last_reported":1745766539,"current_range_meters":9200,"station_id":"ce4bh3h2rcd13ifvqdn0","pricing_plan_id":"cebpf4jnsgd1na2vs0mg"},{"bike_id":"c7a590ff-8f8a-4925-9637-72539fe77464","system_id":"levelo_inurba_marseille","lat":43.28729,"lon":5.36079,"is_reserved":false,"is_disabled":false,"rental_uris":{"android":"levelo://app?vid=c7a590ff-8f8a-4925-9637-72539fe77464","ios":"levelo://app?vid=c7a590ff-8f8a-4925-9637-72539fe77464"},"vehicle_type_id":"4","last_reported":1745766539,"current_range_meters":9600,"station_id":"cki0cbj6b192h4jlfktg","pricing_plan_id":"cebpf4jnsgd1na2vs0mg"},{"bike_id":"9152b465-475e-49ac-b583-bb032e45bf5f","system_id":"levelo_inurba_marseille","lat":43.30539,"lon":5.36703,"is_reserved":false,"is_disabled":false,"rental_uris":{"android":"levelo://app?vid=9152b465-475e-49ac-b583-bb032e45bf5f","ios":"levelo://app?vid=9152b465-475e-49ac-b583-bb032e45bf5f"},"vehicle_type_id":"4","last_reported":1745766539,"current_range_meters":9600,"station_id":"ce4bgrp2rcd13ifvqc9g","pricing_plan_id":"cebpf4jnsgd1na2vs0mg"},{"bike_id":"d4db7f43-ee1b-4640-aa6b-7ad17ef31bae","system_id":"levelo_inurba_marseille","lat":43.2929,"lon":5.3684,"is_reserved":false,"is_disabled":false,"rental_uris":{"android":"levelo://app?vid=d4db7f43-ee1b-4640-aa6b-7ad17ef31bae","ios":"levelo://app?vid=d4db7f43-ee1b-4640-aa6b-7ad17ef31bae"},"vehicle_type_id":"4","last_reported":1745766539,"current_range_meters":9600,"station_id":"ce4bhbp2rcd13ifvqesg","pricing_plan_id":"cebpf4jnsgd1na2vs0mg"},{"bike_id":"cecf372e-f99d-4092-9fb9-aba0fb187411","system_id":"levelo_inurba_marseille","lat":43.32417,"lon":5.39099,"is_reserved":false,"is_disabled":false,"rental_uris":{"android":"levelo://app?vid=cecf372e-f99d-4092-9fb9-aba0fb187411","ios":"levelo://app?vid=cecf372e-f99d-4092-9fb9-aba0fb187411"},"vehicle_type_id":"4","last_reported":1745766539,"current_range_meters":9600,"station_id":"","pricing_plan_id":"cebpf4jnsgd1na2vs0mg"},{"bike_id":"d1356b5f-d0d2-492f-ae4c-f50d2df86cb9","system_id":"levelo_inurba_marseille","lat":43.30151,"lon":5.39866,"is_reserved":false,"is_disabled":false,"rental_uris":{"android":"levelo://app?vid=d1356b5f-d0d2-492f-ae4c-f50d2df86cb9","ios":"levelo://app?vid=d1356b5f-d0d2-492f-ae4c-f50d2df86cb9"},"vehicle_type_id":"4","last_reported":1745766539,"current_range_meters":9600,"station_id":"ce4bh0h2rcd13ifvqd40","pricing_plan_id":"cebpf4jnsgd1na2vs0mg"},{"bike_id":"49f5d3d2-49f4-4f67-8355-9847fa5a1bc5","system_id":"levelo_inurba_marseille","lat":43.26563,"lon":5.39,"is_reserved":false,"is_disabled":false,"rental_uris":{"android":"levelo://app?vid=49f5d3d2-49f4-4f67-8355-9847fa5a1bc5","ios":"levelo://app?vid=49f5d3d2-49f4-4f67-8355-9847fa5a1bc5"},"vehicle_type_id":"4","last_reported":1745766539,"current_range_meters":9600,"station_id":"ce4bhe12rcd13ifvqf30","pricing_plan_id":"cebpf4jnsgd1na2vs0mg"},{"bike_id":"6f9efa22-6701-48b6-9dac-71701c013e89","system_id":"levelo_inurba_marseille","lat":43.27996,"lon":5.40042,"is_reserved":false,"is_disabled":false,"rental_uris":{"android":"levelo://app?vid=6f9efa22-6701-48b6-9dac-71701c013e89","ios":"levelo://app?vid=6f9efa22-6701-48b6-9dac-71701c013e89"},"vehicle_type_id":"4","last_reported":1745766539,"current_range_meters":9600,"station_id":"ce4bho92rcd13ifvqh4g","pricing_plan_id":"cebpf4jnsgd1na2vs0mg"},{"bike_id":"b6ee8081-ac48-472f-a72d-0c544d3d6a11","system_id":"levelo_inurba_marseille","lat":43.296692,"lon":5.36734,"is_reserved":false,"is_disabled":false,"rental_uris":{"android":"levelo://app?vid=b6ee8081-ac48-472f-a72d-0c544d3d6a11","ios":"levelo://app?vid=b6ee8081-ac48-472f-a72d-0c544d3d6a11"},"vehicle_type_id":"4","last_reported":1745766539,"current_range_meters":9600,"station_id":"ce4bh092rcd13ifvqd20","pricing_plan_id":"cebpf4jnsgd1na2vs0mg"},{"bike_id":"dea15188-c098-4794-90f6-0fc4b187f745","system_id":"levelo_inurba_marseille","lat":43.30803,"lon":5.43524,"is_reserved":false,"is_disabled":false,"rental_uris":{"android":"levelo://app?vid=dea15188-c098-4794-90f6-0fc4b187f745","ios":"levelo://app?vid=dea15188-c098-4794-90f6-0fc4b187f745"},"vehicle_type_id":"4","last_reported":1745766539,"current_range_meters":9600,"station_id":"ce4bhph2rcd13ifvqheg","pricing_plan_id":"cebpf4jnsgd1na2vs0mg"},{"bike_id":"dd2814f0-ad3a-42f3-80a2-1bbd2a4a0ffe","system_id":"levelo_inurba_marseille","lat":43.28721,"lon":5.3608,"is_reserved":false,"is_disabled":false,"rental_uris":{"android":"levelo://app?vid=dd2814f0-ad3a-42f3-80a2-1bbd2a4a0ffe","ios":"levelo://app?vid=dd2814f0-ad3a-42f3-80a2-1bbd2a4a0ffe"},"vehicle_type_id":"4","last_reported":1745766539,"current_range_meters":9600,"station_id":"cki0cbj6b192h4jlfktg","pricing_plan_id":"cebpf4jnsgd1na2vs0mg"},{"bike_id":"a299a65c-2d8d-48f9-af3a-21ed257c404d","system_id":"levelo_inurba_marseille","lat":43.28853,"lon":5.35858,"is_reserved":false,"is_disabled":false,"rental_uris":{"android":"levelo://app?vid=a299a65c-2d8d-48f9-af3a-21ed257c404d","ios":"levelo://app?vid=a299a65c-2d8d-48f9-af3a-21ed257c404d"},"vehicle_type_id":"4","last_reported":1745766539,"current_range_meters":10000,"station_id":"ce4bhb12rcd13ifvqem0","pricing_plan_id":"cebpf4jnsgd1na2vs0mg"},{"bike_id":"574c21c3-5de9-4bfa-a3aa-ac4e3698f0a7","system_id":"levelo_inurba_marseille","lat":43.27204,"lon":5.39191,"is_reserved":false,"is_disabled":true,"rental_uris":{"android":"levelo://app?vid=574c21c3-5de9-4bfa-a3aa-ac4e3698f0a7","ios":"levelo://app?vid=574c21c3-5de9-4bfa-a3aa-ac4e3698f0a7"},"vehicle_type_id":"4","last_reported":1745766539,"current_range_meters":10000,"station_id":"ce4bhhp2rcd13ifvqfm0","pricing_plan_id":"cebpf4jnsgd1na2vs0mg"},{"bike_id":"4cd4f3d9-495e-4f71-8643-dcb1e191699b","system_id":"levelo_inurba_marseille","lat":43.29622,"lon":5.37712,"is_reserved":false,"is_disabled":false,"rental_uris":{"android":"levelo://app?vid=4cd4f3d9-495e-4f71-8643-dcb1e191699b","ios":"levelo://app?vid=4cd4f3d9-495e-4f71-8643-dcb1e191699b"},"vehicle_type_id":"4","last_reported":1745766539,"current_range_meters":9600,"station_id":"ce4bgi92rcd13ifvqb90","pricing_plan_id":"cebpf4jnsgd1na2vs0mg"},{"bike_id":"15c44727-8626-4854-a59e-cc7ffcc0d0b3","system_id":"levelo_inurba_marseille","lat":43.298401,"lon":5.362686,"is_reserved":false,"is_disabled":false,"rental_uris":{"android":"levelo://app?vid=15c44727-8626-4854-a59e-cc7ffcc0d0b3","ios":"levelo://app?vid=15c44727-8626-4854-a59e-cc7ffcc0d0b3"},"vehicle_type_id":"4","last_reported":1745766539,"current_range_meters":10800,"station_id":"","pricing_plan_id":"cebpf4jnsgd1na2vs0mg"},{"bike_id":"0053b840-de47-4900-98aa-cc8575176b05","system_id":"levelo_inurba_marseille","lat":43.24172,"lon":5.36405,"is_reserved":false,"is_disabled":true,"rental_uris":{"android":"levelo://app?vid=0053b840-de47-4900-98aa-cc8575176b05","ios":"levelo://app?vid=0053b840-de47-4900-98aa-cc8575176b05"},"vehicle_type_id":"4","last_reported":1745766539,"current_range_meters":10800,"station_id":"cpo36qri1sfpv3e86is0","pricing_plan_id":"cebpf4jnsgd1na2vs0mg"},{"bike_id":"ae1d96a0-b0a2-41e1-be14-e78907f9338a","system_id":"levelo_inurba_marseille","lat":43.29535,"lon":5.39413,"is_reserved":false,"is_disabled":true,"rental_uris":{"android":"levelo://app?vid=ae1d96a0-b0a2-41e1-be14-e78907f9338a","ios":"levelo://app?vid=ae1d96a0-b0a2-41e1-be14-e78907f9338a"},"vehicle_type_id":"4","last_reported":1745766539,"current_range_meters":10800,"station_id":"ce4bh292rcd13ifvqdf0","pricing_plan_id":"cebpf4jnsgd1na2vs0mg"},{"bike_id":"2a56d006-e483-4b6b-ac98-33995f8ccead","system_id":"levelo_inurba_marseille","lat":43.28372,"lon":5.38629,"is_reserved":false,"is_disabled":false,"rental_uris":{"android":"levelo://app?vid=2a56d006-e483-4b6b-ac98-33995f8ccead","ios":"levelo://app?vid=2a56d006-e483-4b6b-ac98-33995f8ccead"},"vehicle_type_id":"4","last_reported":1745766539,"current_range_meters":10800,"station_id":"ce4bh492rcd13ifvqdvg","pricing_plan_id":"cebpf4jnsgd1na2vs0mg"},{"bike_id":"9c4094dc-f1c2-4f95-a895-497d9e86a89a","system_id":"levelo_inurba_marseille","lat":43.30259,"lon":5.4008,"is_reserved":false,"is_disabled":false,"rental_uris":{"android":"levelo://app?vid=9c4094dc-f1c2-4f95-a895-497d9e86a89a","ios":"levelo://app?vid=9c4094dc-f1c2-4f95-a895-497d9e86a89a"},"vehicle_type_id":"4","last_reported":1745766539,"current_range_meters":10800,"station_id":"ce4bgvh2rcd13ifvqcs0","pricing_plan_id":"cebpf4jnsgd1na2vs0mg"},{"bike_id":"9c11351b-6d33-476e-a8cb-9503ab8a6236","system_id":"levelo_inurba_marseille","lat":43.312863,"lon":5.38264,"is_reserved":false,"is_disabled":false,"rental_uris":{"android":"levelo://app?vid=9c11351b-6d33-476e-a8cb-9503ab8a6236","ios":"levelo://app?vid=9c11351b-6d33-476e-a8cb-9503ab8a6236"},"vehicle_type_id":"4","last_reported":1745766539,"current_range_meters":10800,"station_id":"","pricing_plan_id":"cebpf4jnsgd1na2vs0mg"},{"bike_id":"21a5b78b-6652-49fa-a8ee-70531791ccf1","system_id":"levelo_inurba_marseille","lat":43.2488,"lon":5.42513,"is_reserved":false,"is_disabled":false,"rental_uris":{"android":"levelo://app?vid=21a5b78b-6652-49fa-a8ee-70531791ccf1","ios":"levelo://app?vid=21a5b78b-6652-49fa-a8ee-70531791ccf1"},"vehicle_type_id":"4","last_reported":1745766539,"current_range_meters":10800,"station_id":"","pricing_plan_id":"cebpf4jnsgd1na2vs0mg"},{"bike_id":"66c89bb7-3b13-49ff-b8c5-0823b0bd91cb","system_id":"levelo_inurba_marseille","lat":43.26191,"lon":5.37459,"is_reserved":false,"is_disabled":true,"rental_uris":{"android":"levelo://app?vid=66c89bb7-3b13-49ff-b8c5-0823b0bd91cb","ios":"levelo://app?vid=66c89bb7-3b13-49ff-b8c5-0823b0bd91cb"},"vehicle_type_id":"4","last_reported":1745766539,"current_range_meters":10800,"station_id":"ce4bhgp2rcd13ifvqfc0","pricing_plan_id":"cebpf4jnsgd1na2vs0mg"},{"bike_id":"91474842-32bf-45c2-856a-80fd91d22aa5","system_id":"levelo_inurba_marseille","lat":43.21214,"lon":5.35082,"is_reserved":false,"is_disabled":false,"rental_uris":{"android":"levelo://app?vid=91474842-32bf-45c2-856a-80fd91d22aa5","ios":"levelo://app?vid=91474842-32bf-45c2-856a-80fd91d22aa5"},"vehicle_type_id":"4","last_reported":1745766539,"current_range_meters":10800,"station_id":"st_cvj6sg6p6f1abm77japg","pricing_plan_id":"cebpf4jnsgd1na2vs0mg"},{"bike_id":"30288cb7-e849-4b02-8ab1-96deccfd974f","system_id":"levelo_inurba_marseille","lat":43.2396,"lon":5.36629,"is_reserved":false,"is_disabled":false,"rental_uris":{"android":"levelo://app?vid=30288cb7-e849-4b02-8ab1-96deccfd974f","ios":"levelo://app?vid=30288cb7-e849-4b02-8ab1-96deccfd974f"},"vehicle_type_id":"4","last_reported":1745766539,"current_range_meters":11200,"station_id":"ce4bhi12rcd13ifvqfp0","pricing_plan_id":"cebpf4jnsgd1na2vs0mg"},{"bike_id":"44530a1d-b48a-47f5-a929-63b20a3c24dc","system_id":"levelo_inurba_marseille","lat":43.24151,"lon":5.36433,"is_reserved":false,"is_disabled":false,"rental_uris":{"android":"levelo://app?vid=44530a1d-b48a-47f5-a929-63b20a3c24dc","ios":"levelo://app?vid=44530a1d-b48a-47f5-a929-63b20a3c24dc"},"vehicle_type_id":"4","last_reported":1745766539,"current_range_meters":11200,"station_id":"cpo36qri1sfpv3e86is0","pricing_plan_id":"cebpf4jnsgd1na2vs0mg"},{"bike_id":"af4a97e0-dded-4da0-9eba-7bcd01c44383","system_id":"levelo_inurba_marseille","lat":43.30286,"lon":5.39199,"is_reserved":false,"is_disabled":true,"rental_uris":{"android":"levelo://app?vid=af4a97e0-dded-4da0-9eba-7bcd01c44383","ios":"levelo://app?vid=af4a97e0-dded-4da0-9eba-7bcd01c44383"},"vehicle_type_id":"4","last_reported":1745766539,"current_range_meters":11200,"station_id":"ce4bgkh2rcd13ifvqbk0","pricing_plan_id":"cebpf4jnsgd1na2vs0mg"},{"bike_id":"554c7222-d609-4841-a832-33adb157bebb","system_id":"levelo_inurba_marseille","lat":43.21192,"lon":5.35072,"is_reserved":false,"is_disabled":false,"rental_uris":{"android":"levelo://app?vid=554c7222-d609-4841-a832-33adb157bebb","ios":"levelo://app?vid=554c7222-d609-4841-a832-33adb157bebb"},"vehicle_type_id":"4","last_reported":1745766539,"current_range_meters":11200,"station_id":"st_cvj6sg6p6f1abm77japg","pricing_plan_id":"cebpf4jnsgd1na2vs0mg"},{"bike_id":"8840b7d1-badd-45b4-91db-50feaeb6b7ed","system_id":"levelo_inurba_marseille","lat":43.31086,"lon":5.36731,"is_reserved":false,"is_disabled":false,"rental_uris":{"android":"levelo://app?vid=8840b7d1-badd-45b4-91db-50feaeb6b7ed","ios":"levelo://app?vid=8840b7d1-badd-45b4-91db-50feaeb6b7ed"},"vehicle_type_id":"4","last_reported":1745766539,"current_range_meters":11200,"station_id":"","pricing_plan_id":"cebpf4jnsgd1na2vs0mg"},{"bike_id":"d6cb0bf3-b5ed-4e39-abc4-3946efa46e6d","system_id":"levelo_inurba_marseille","lat":43.26574,"lon":5.38993,"is_reserved":false,"is_disabled":false,"rental_uris":{"android":"levelo://app?vid=d6cb0bf3-b5ed-4e39-abc4-3946efa46e6d","ios":"levelo://app?vid=d6cb0bf3-b5ed-4e39-abc4-3946efa46e6d"},"vehicle_type_id":"4","last_reported":1745766539,"current_range_meters":11600,"station_id":"ce4bhe12rcd13ifvqf30","pricing_plan_id":"cebpf4jnsgd1na2vs0mg"},{"bike_id":"c04863fd-b8e8-489a-9f80-6fae4670cf54","system_id":"levelo_inurba_marseille","lat":43.26937,"lon":5.40258,"is_reserved":false,"is_disabled":false,"rental_uris":{"android":"levelo://app?vid=c04863fd-b8e8-489a-9f80-6fae4670cf54","ios":"levelo://app?vid=c04863fd-b8e8-489a-9f80-6fae4670cf54"},"vehicle_type_id":"4","last_reported":1745766539,"current_range_meters":11600,"station_id":"cjm6bp8fraef2m0cb0m0","pricing_plan_id":"cebpf4jnsgd1na2vs0mg"},{"bike_id":"a08e6535-7d97-4f82-b424-5e6daf2d2362","system_id":"levelo_inurba_marseille","lat":43.29504,"lon":5.39423,"is_reserved":false,"is_disabled":true,"rental_uris":{"android":"levelo://app?vid=a08e6535-7d97-4f82-b424-5e6daf2d2362","ios":"levelo://app?vid=a08e6535-7d97-4f82-b424-5e6daf2d2362"},"vehicle_type_id":"4","last_reported":1745766539,"current_range_meters":11600,"station_id":"ce4bh292rcd13ifvqdf0","pricing_plan_id":"cebpf4jnsgd1na2vs0mg"},{"bike_id":"652ce9c9-f69d-4007-9f86-c7481a02fbe3","system_id":"levelo_inurba_marseille","lat":43.30611,"lon":5.37234,"is_reserved":false,"is_disabled":false,"rental_uris":{"android":"levelo://app?vid=652ce9c9-f69d-4007-9f86-c7481a02fbe3","ios":"levelo://app?vid=652ce9c9-f69d-4007-9f86-c7481a02fbe3"},"vehicle_type_id":"4","last_reported":1745766539,"current_range_meters":12000,"station_id":"ce4bgqh2rcd13ifvqc4g","pricing_plan_id":"cebpf4jnsgd1na2vs0mg"},{"bike_id":"27426b30-0a0c-4abc-9e26-a6951da519b5","system_id":"levelo_inurba_marseille","lat":43.23197,"lon":5.35546,"is_reserved":false,"is_disabled":false,"rental_uris":{"android":"levelo://app?vid=27426b30-0a0c-4abc-9e26-a6951da519b5","ios":"levelo://app?vid=27426b30-0a0c-4abc-9e26-a6951da519b5"},"vehicle_type_id":"4","last_reported":1745766539,"current_range_meters":12000,"station_id":"ce4bhu92rcd13ifvqi70","pricing_plan_id":"cebpf4jnsgd1na2vs0mg"},{"bike_id":"de5e49d8-6dae-4db9-aacb-f1bb6726a8a3","system_id":"levelo_inurba_marseille","lat":43.32288,"lon":5.38274,"is_reserved":false,"is_disabled":false,"rental_uris":{"android":"levelo://app?vid=de5e49d8-6dae-4db9-aacb-f1bb6726a8a3","ios":"levelo://app?vid=de5e49d8-6dae-4db9-aacb-f1bb6726a8a3"},"vehicle_type_id":"4","last_reported":1745766539,"current_range_meters":11600,"station_id":"ce4bhr12rcd13ifvqhqg","pricing_plan_id":"cebpf4jnsgd1na2vs0mg"},{"bike_id":"470edaf9-a553-441b-a6e6-e7b3f6f03c02","system_id":"levelo_inurba_marseille","lat":43.26925,"lon":5.38671,"is_reserved":false,"is_disabled":false,"rental_uris":{"android":"levelo://app?vid=470edaf9-a553-441b-a6e6-e7b3f6f03c02","ios":"levelo://app?vid=470edaf9-a553-441b-a6e6-e7b3f6f03c02"},"vehicle_type_id":"4","last_reported":1745766539,"current_range_meters":12000,"station_id":"ce4bhhh2rcd13ifvqfl0","pricing_plan_id":"cebpf4jnsgd1na2vs0mg"},{"bike_id":"3cc85a64-f4bb-4a43-bc12-9b4305530caa","system_id":"levelo_inurba_marseille","lat":43.29022,"lon":5.38147,"is_reserved":false,"is_disabled":false,"rental_uris":{"android":"levelo://app?vid=3cc85a64-f4bb-4a43-bc12-9b4305530caa","ios":"levelo://app?vid=3cc85a64-f4bb-4a43-bc12-9b4305530caa"},"vehicle_type_id":"4","last_reported":1745766539,"current_range_meters":12000,"station_id":"ce4bh4p2rcd13ifvqe1g","pricing_plan_id":"cebpf4jnsgd1na2vs0mg"},{"bike_id":"356b76a1-af1a-4bef-951e-98e5b057a721","system_id":"levelo_inurba_marseille","lat":43.292529,"lon":5.384278,"is_reserved":false,"is_disabled":true,"rental_uris":{"android":"levelo://app?vid=356b76a1-af1a-4bef-951e-98e5b057a721","ios":"levelo://app?vid=356b76a1-af1a-4bef-951e-98e5b057a721"},"vehicle_type_id":"4","last_reported":1745766539,"current_range_meters":12400,"station_id":"ce4bh692rcd13ifvqea0","pricing_plan_id":"cebpf4jnsgd1na2vs0mg"},{"bike_id":"8338af84-ea4b-4869-9b2f-d3a452093ce0","system_id":"levelo_inurba_marseille","lat":43.30559,"lon":5.36517,"is_reserved":false,"is_disabled":false,"rental_uris":{"android":"levelo://app?vid=8338af84-ea4b-4869-9b2f-d3a452093ce0","ios":"levelo://app?vid=8338af84-ea4b-4869-9b2f-d3a452093ce0"},"vehicle_type_id":"4","last_reported":1745766539,"current_range_meters":12400,"station_id":"ce4bgs12rcd13ifvqcag","pricing_plan_id":"cebpf4jnsgd1na2vs0mg"},{"bike_id":"7ee6b0cf-2928-4055-b146-b7c7c34be12d","system_id":"levelo_inurba_marseille","lat":43.30955,"lon":5.39036,"is_reserved":false,"is_disabled":false,"rental_uris":{"android":"levelo://app?vid=7ee6b0cf-2928-4055-b146-b7c7c34be12d","ios":"levelo://app?vid=7ee6b0cf-2928-4055-b146-b7c7c34be12d"},"vehicle_type_id":"4","last_reported":1745766539,"current_range_meters":12400,"station_id":"ce4bgup2rcd13ifvqco0","pricing_plan_id":"cebpf4jnsgd1na2vs0mg"},{"bike_id":"560f12bb-1614-4d7c-b78e-ccf5bdec9ea6","system_id":"levelo_inurba_marseille","lat":43.28474,"lon":5.35921,"is_reserved":false,"is_disabled":true,"rental_uris":{"android":"levelo://app?vid=560f12bb-1614-4d7c-b78e-ccf5bdec9ea6","ios":"levelo://app?vid=560f12bb-1614-4d7c-b78e-ccf5bdec9ea6"},"vehicle_type_id":"4","last_reported":1745766539,"current_range_meters":12400,"station_id":"ce4bhah2rcd13ifvqei0","pricing_plan_id":"cebpf4jnsgd1na2vs0mg"},{"bike_id":"717cabec-6d1e-4fbd-94f4-9e9366fab599","system_id":"levelo_inurba_marseille","lat":43.22509,"lon":5.34779,"is_reserved":false,"is_disabled":true,"rental_uris":{"android":"levelo://app?vid=717cabec-6d1e-4fbd-94f4-9e9366fab599","ios":"levelo://app?vid=717cabec-6d1e-4fbd-94f4-9e9366fab599"},"vehicle_type_id":"4","last_reported":1745766539,"current_range_meters":12800,"station_id":"st_cvj5dfep6f1abm77gieg","pricing_plan_id":"cebpf4jnsgd1na2vs0mg"},{"bike_id":"d575b163-abdf-42d0-94a1-e88c5c37b7e2","system_id":"levelo_inurba_marseille","lat":43.295842,"lon":5.376016,"is_reserved":false,"is_disabled":false,"rental_uris":{"android":"levelo://app?vid=d575b163-abdf-42d0-94a1-e88c5c37b7e2","ios":"levelo://app?vid=d575b163-abdf-42d0-94a1-e88c5c37b7e2"},"vehicle_type_id":"4","last_reported":1745766539,"current_range_meters":12800,"station_id":"ce4bhop2rcd13ifvqh7g","pricing_plan_id":"cebpf4jnsgd1na2vs0mg"},{"bike_id":"c4d5a72e-c1b0-4928-b118-0ce9b8e2da80","system_id":"levelo_inurba_marseille","lat":43.29962,"lon":5.37175,"is_reserved":false,"is_disabled":false,"rental_uris":{"android":"levelo://app?vid=c4d5a72e-c1b0-4928-b118-0ce9b8e2da80","ios":"levelo://app?vid=c4d5a72e-c1b0-4928-b118-0ce9b8e2da80"},"vehicle_type_id":"4","last_reported":1745766539,"current_range_meters":12800,"station_id":"ce4bgr92rcd13ifvqc7g","pricing_plan_id":"cebpf4jnsgd1na2vs0mg"},{"bike_id":"9111363c-e358-4cc0-9632-937d6be3578a","system_id":"levelo_inurba_marseille","lat":43.27995,"lon":5.40001,"is_reserved":false,"is_disabled":false,"rental_uris":{"android":"levelo://app?vid=9111363c-e358-4cc0-9632-937d6be3578a","ios":"levelo://app?vid=9111363c-e358-4cc0-9632-937d6be3578a"},"vehicle_type_id":"4","last_reported":1745766539,"current_range_meters":12800,"station_id":"ce4bho92rcd13ifvqh4g","pricing_plan_id":"cebpf4jnsgd1na2vs0mg"},{"bike_id":"8f68bb74-1898-403b-b00d-72085ad123e1","system_id":"levelo_inurba_marseille","lat":43.31669,"lon":5.4047,"is_reserved":false,"is_disabled":false,"rental_uris":{"android":"levelo://app?vid=8f68bb74-1898-403b-b00d-72085ad123e1","ios":"levelo://app?vid=8f68bb74-1898-403b-b00d-72085ad123e1"},"vehicle_type_id":"4","last_reported":1745766539,"current_range_meters":12800,"station_id":"ce4bh012rcd13ifvqd00","pricing_plan_id":"cebpf4jnsgd1na2vs0mg"},{"bike_id":"5c98674a-cea2-4f6b-a04a-735c9591cdc1","system_id":"levelo_inurba_marseille","lat":43.2894,"lon":5.39616,"is_reserved":false,"is_disabled":false,"rental_uris":{"android":"levelo://app?vid=5c98674a-cea2-4f6b-a04a-735c9591cdc1","ios":"levelo://app?vid=5c98674a-cea2-4f6b-a04a-735c9591cdc1"},"vehicle_type_id":"4","last_reported":1745766539,"current_range_meters":12800,"station_id":"ce4bh3h2rcd13ifvqdn0","pricing_plan_id":"cebpf4jnsgd1na2vs0mg"},{"bike_id":"580b1d34-c9e4-447e-bb37-9bff7aaa2fbb","system_id":"levelo_inurba_marseille","lat":43.32289,"lon":5.38271,"is_reserved":false,"is_disabled":false,"rental_uris":{"android":"levelo://app?vid=580b1d34-c9e4-447e-bb37-9bff7aaa2fbb","ios":"levelo://app?vid=580b1d34-c9e4-447e-bb37-9bff7aaa2fbb"},"vehicle_type_id":"4","last_reported":1745766539,"current_range_meters":12800,"station_id":"ce4bhr12rcd13ifvqhqg","pricing_plan_id":"cebpf4jnsgd1na2vs0mg"},{"bike_id":"d2d69f18-d590-4879-bb76-6add1c317138","system_id":"levelo_inurba_marseille","lat":43.29787,"lon":5.39334,"is_reserved":false,"is_disabled":false,"rental_uris":{"android":"levelo://app?vid=d2d69f18-d590-4879-bb76-6add1c317138","ios":"levelo://app?vid=d2d69f18-d590-4879-bb76-6add1c317138"},"vehicle_type_id":"4","last_reported":1745766539,"current_range_meters":12800,"station_id":"chh1huq6cuj3fo74tm60","pricing_plan_id":"cebpf4jnsgd1na2vs0mg"},{"bike_id":"3c57ab5a-61a3-4c4b-b0d7-66db054ba9ae","system_id":"levelo_inurba_marseille","lat":43.30459,"lon":5.37904,"is_reserved":false,"is_disabled":false,"rental_uris":{"android":"levelo://app?vid=3c57ab5a-61a3-4c4b-b0d7-66db054ba9ae","ios":"levelo://app?vid=3c57ab5a-61a3-4c4b-b0d7-66db054ba9ae"},"vehicle_type_id":"4","last_reported":1745766539,"current_range_meters":13600,"station_id":"ce4bgup2rcd13ifvqcn0","pricing_plan_id":"cebpf4jnsgd1na2vs0mg"},{"bike_id":"5d39116d-c3c4-4d10-8545-a263326619a2","system_id":"levelo_inurba_marseille","lat":43.2372,"lon":5.36323,"is_reserved":false,"is_disabled":false,"rental_uris":{"android":"levelo://app?vid=5d39116d-c3c4-4d10-8545-a263326619a2","ios":"levelo://app?vid=5d39116d-c3c4-4d10-8545-a263326619a2"},"vehicle_type_id":"4","last_reported":1745766539,"current_range_meters":13600,"station_id":"","pricing_plan_id":"cebpf4jnsgd1na2vs0mg"},{"bike_id":"30c454cb-c671-49a0-8993-6d440886e286","system_id":"levelo_inurba_marseille","lat":43.318933,"lon":5.433979,"is_reserved":false,"is_disabled":false,"rental_uris":{"android":"levelo://app?vid=30c454cb-c671-49a0-8993-6d440886e286","ios":"levelo://app?vid=30c454cb-c671-49a0-8993-6d440886e286"},"vehicle_type_id":"4","last_reported":1745766539,"current_range_meters":13600,"station_id":"ce4bhp92rcd13ifvqhcg","pricing_plan_id":"cebpf4jnsgd1na2vs0mg"},{"bike_id":"57ebd52c-bbc8-4a4d-8d80-2da8f6250dbd","system_id":"levelo_inurba_marseille","lat":43.27824,"lon":5.40714,"is_reserved":false,"is_disabled":true,"rental_uris":{"android":"levelo://app?vid=57ebd52c-bbc8-4a4d-8d80-2da8f6250dbd","ios":"levelo://app?vid=57ebd52c-bbc8-4a4d-8d80-2da8f6250dbd"},"vehicle_type_id":"4","last_reported":1745766539,"current_range_meters":13600,"station_id":"ce4bhnh2rcd13ifvqgtg","pricing_plan_id":"cebpf4jnsgd1na2vs0mg"},{"bike_id":"e2ebe0b4-27e2-4f46-bdf4-e1916df46672","system_id":"levelo_inurba_marseille","lat":43.31804,"lon":5.40597,"is_reserved":false,"is_disabled":false,"rental_uris":{"android":"levelo://app?vid=e2ebe0b4-27e2-4f46-bdf4-e1916df46672","ios":"levelo://app?vid=e2ebe0b4-27e2-4f46-bdf4-e1916df46672"},"vehicle_type_id":"4","last_reported":1745766539,"current_range_meters":13600,"station_id":"","pricing_plan_id":"cebpf4jnsgd1na2vs0mg"},{"bike_id":"26c611a3-921b-4d77-91b6-8c3a7573990a","system_id":"levelo_inurba_marseille","lat":43.30414,"lon":5.41273,"is_reserved":false,"is_disabled":false,"rental_uris":{"android":"levelo://app?vid=26c611a3-921b-4d77-91b6-8c3a7573990a","ios":"levelo://app?vid=26c611a3-921b-4d77-91b6-8c3a7573990a"},"vehicle_type_id":"4","last_reported":1745766539,"current_range_meters":14000,"station_id":"ce4bhop2rcd13ifvqh8g","pricing_plan_id":"cebpf4jnsgd1na2vs0mg"},{"bike_id":"04830c10-cbf6-4742-bfe5-b214927efcda","system_id":"levelo_inurba_marseille","lat":43.30598,"lon":5.3717,"is_reserved":false,"is_disabled":false,"rental_uris":{"android":"levelo://app?vid=04830c10-cbf6-4742-bfe5-b214927efcda","ios":"levelo://app?vid=04830c10-cbf6-4742-bfe5-b214927efcda"},"vehicle_type_id":"4","last_reported":1745766539,"current_range_meters":14000,"station_id":"ce4bgqh2rcd13ifvqc4g","pricing_plan_id":"cebpf4jnsgd1na2vs0mg"},{"bike_id":"6bcd0585-4361-4a0d-bd81-45e997be9a22","system_id":"levelo_inurba_marseille","lat":43.2997,"lon":5.38489,"is_reserved":false,"is_disabled":false,"rental_uris":{"android":"levelo://app?vid=6bcd0585-4361-4a0d-bd81-45e997be9a22","ios":"levelo://app?vid=6bcd0585-4361-4a0d-bd81-45e997be9a22"},"vehicle_type_id":"4","last_reported":1745766539,"current_range_meters":14000,"station_id":"ce4bgj92rcd13ifvqbd0","pricing_plan_id":"cebpf4jnsgd1na2vs0mg"},{"bike_id":"a7198c19-fdc9-4a7a-95e0-a894ca54152c","system_id":"levelo_inurba_marseille","lat":43.309848,"lon":5.417115,"is_reserved":false,"is_disabled":false,"rental_uris":{"android":"levelo://app?vid=a7198c19-fdc9-4a7a-95e0-a894ca54152c","ios":"levelo://app?vid=a7198c19-fdc9-4a7a-95e0-a894ca54152c"},"vehicle_type_id":"4","last_reported":1745766539,"current_range_meters":14400,"station_id":"","pricing_plan_id":"cebpf4jnsgd1na2vs0mg"},{"bike_id":"16b75a5c-0fa3-4253-85ed-5154531053c0","system_id":"levelo_inurba_marseille","lat":43.21215,"lon":5.35059,"is_reserved":false,"is_disabled":false,"rental_uris":{"android":"levelo://app?vid=16b75a5c-0fa3-4253-85ed-5154531053c0","ios":"levelo://app?vid=16b75a5c-0fa3-4253-85ed-5154531053c0"},"vehicle_type_id":"4","last_reported":1745766539,"current_range_meters":14400,"station_id":"ce4bhe12rcd13ifvqf30","pricing_plan_id":"cebpf4jnsgd1na2vs0mg"},{"bike_id":"be15c758-7add-4faa-98ab-8a2eceffc70c","system_id":"levelo_inurba_marseille","lat":43.27616,"lon":5.36103,"is_reserved":false,"is_disabled":false,"rental_uris":{"android":"levelo://app?vid=be15c758-7add-4faa-98ab-8a2eceffc70c","ios":"levelo://app?vid=be15c758-7add-4faa-98ab-8a2eceffc70c"},"vehicle_type_id":"4","last_reported":1745766539,"current_range_meters":14400,"station_id":"ce4bgj92rcd13ifvqbe0","pricing_plan_id":"cebpf4jnsgd1na2vs0mg"},{"bike_id":"b330c3b4-8203-49c9-a4bf-5485d09a1d2d","system_id":"levelo_inurba_marseille","lat":43.30204,"lon":5.39499,"is_reserved":false,"is_disabled":true,"rental_uris":{"android":"levelo://app?vid=b330c3b4-8203-49c9-a4bf-5485d09a1d2d","ios":"levelo://app?vid=b330c3b4-8203-49c9-a4bf-5485d09a1d2d"},"vehicle_type_id":"4","last_reported":1745766539,"current_range_meters":14400,"station_id":"ce4bh0p2rcd13ifvqd70","pricing_plan_id":"cebpf4jnsgd1na2vs0mg"},{"bike_id":"27355fcc-9867-4dc5-a357-ce39721b1936","system_id":"levelo_inurba_marseille","lat":43.30325,"lon":5.40429,"is_reserved":false,"is_disabled":false,"rental_uris":{"android":"levelo://app?vid=27355fcc-9867-4dc5-a357-ce39721b1936","ios":"levelo://app?vid=27355fcc-9867-4dc5-a357-ce39721b1936"},"vehicle_type_id":"4","last_reported":1745766539,"current_range_meters":14400,"station_id":"ce4bh012rcd13ifvqd10","pricing_plan_id":"cebpf4jnsgd1na2vs0mg"},{"bike_id":"846529c7-490c-4984-a0e9-df8cf448057f","system_id":"levelo_inurba_marseille","lat":43.3054,"lon":5.36533,"is_reserved":false,"is_disabled":false,"rental_uris":{"android":"levelo://app?vid=846529c7-490c-4984-a0e9-df8cf448057f","ios":"levelo://app?vid=846529c7-490c-4984-a0e9-df8cf448057f"},"vehicle_type_id":"4","last_reported":1745766539,"current_range_meters":14400,"station_id":"ce4bgs12rcd13ifvqcag","pricing_plan_id":"cebpf4jnsgd1na2vs0mg"},{"bike_id":"edb7787a-c68b-4c3c-a204-0dcc8d513b0d","system_id":"levelo_inurba_marseille","lat":43.24671,"lon":5.38168,"is_reserved":false,"is_disabled":false,"rental_uris":{"android":"levelo://app?vid=edb7787a-c68b-4c3c-a204-0dcc8d513b0d","ios":"levelo://app?vid=edb7787a-c68b-4c3c-a204-0dcc8d513b0d"},"vehicle_type_id":"4","last_reported":1745766539,"current_range_meters":14800,"station_id":"ce4bhih2rcd13ifvqfr0","pricing_plan_id":"cebpf4jnsgd1na2vs0mg"},{"bike_id":"148205fa-5235-44e6-b32e-83f50eadc804","system_id":"levelo_inurba_marseille","lat":43.30538,"lon":5.36515,"is_reserved":false,"is_disabled":false,"rental_uris":{"android":"levelo://app?vid=148205fa-5235-44e6-b32e-83f50eadc804","ios":"levelo://app?vid=148205fa-5235-44e6-b32e-83f50eadc804"},"vehicle_type_id":"4","last_reported":1745766539,"current_range_meters":14800,"station_id":"ce4bgs12rcd13ifvqcag","pricing_plan_id":"cebpf4jnsgd1na2vs0mg"},{"bike_id":"0d777af5-4166-475a-a6b9-6a0197032592","system_id":"levelo_inurba_marseille","lat":43.23254,"lon":5.35239,"is_reserved":false,"is_disabled":false,"rental_uris":{"android":"levelo://app?vid=0d777af5-4166-475a-a6b9-6a0197032592","ios":"levelo://app?vid=0d777af5-4166-475a-a6b9-6a0197032592"},"vehicle_type_id":"4","last_reported":1745766539,"current_range_meters":14800,"station_id":"","pricing_plan_id":"cebpf4jnsgd1na2vs0mg"},{"bike_id":"3d934169-6946-46cc-87a4-ce5d03b77075","system_id":"levelo_inurba_marseille","lat":43.21776,"lon":5.34606,"is_reserved":false,"is_disabled":false,"rental_uris":{"android":"levelo://app?vid=3d934169-6946-46cc-87a4-ce5d03b77075","ios":"levelo://app?vid=3d934169-6946-46cc-87a4-ce5d03b77075"},"vehicle_type_id":"4","last_reported":1745766539,"current_range_meters":14800,"station_id":"st_cvj6r9ubvosntc0bgbag","pricing_plan_id":"cebpf4jnsgd1na2vs0mg"},{"bike_id":"a6ef5e73-9c2a-4c3a-b853-48e28d6dc161","system_id":"levelo_inurba_marseille","lat":43.317083,"lon":5.436835,"is_reserved":false,"is_disabled":true,"rental_uris":{"android":"levelo://app?vid=a6ef5e73-9c2a-4c3a-b853-48e28d6dc161","ios":"levelo://app?vid=a6ef5e73-9c2a-4c3a-b853-48e28d6dc161"},"vehicle_type_id":"4","last_reported":1745766539,"current_range_meters":14800,"station_id":"ce4bhp92rcd13ifvqhcg","pricing_plan_id":"cebpf4jnsgd1na2vs0mg"},{"bike_id":"1fe84233-d6e6-400c-ba7e-765c53207954","system_id":"levelo_inurba_marseille","lat":43.26074,"lon":5.39385,"is_reserved":false,"is_disabled":false,"rental_uris":{"android":"levelo://app?vid=1fe84233-d6e6-400c-ba7e-765c53207954","ios":"levelo://app?vid=1fe84233-d6e6-400c-ba7e-765c53207954"},"vehicle_type_id":"4","last_reported":1745766539,"current_range_meters":14800,"station_id":"ce4bhh92rcd13ifvqfj0","pricing_plan_id":"cebpf4jnsgd1na2vs0mg"},{"bike_id":"99be1414-58ff-4752-826b-d0dcc4401711","system_id":"levelo_inurba_marseille","lat":43.24836,"lon":5.37446,"is_reserved":false,"is_disabled":true,"rental_uris":{"android":"levelo://app?vid=99be1414-58ff-4752-826b-d0dcc4401711","ios":"levelo://app?vid=99be1414-58ff-4752-826b-d0dcc4401711"},"vehicle_type_id":"4","last_reported":1745766539,"current_range_meters":14800,"station_id":"ce4bhgh2rcd13ifvqfb0","pricing_plan_id":"cebpf4jnsgd1na2vs0mg"},{"bike_id":"89e7ab08-7fc9-416d-a96f-130de8b43266","system_id":"levelo_inurba_marseille","lat":43.33729,"lon":5.39195,"is_reserved":false,"is_disabled":false,"rental_uris":{"android":"levelo://app?vid=89e7ab08-7fc9-416d-a96f-130de8b43266","ios":"levelo://app?vid=89e7ab08-7fc9-416d-a96f-130de8b43266"},"vehicle_type_id":"4","last_reported":1745766539,"current_range_meters":15200,"station_id":"ce4bhr92rcd13ifvqhsg","pricing_plan_id":"cebpf4jnsgd1na2vs0mg"},{"bike_id":"2854030f-4435-4f6c-a22c-3e1447f3bf2d","system_id":"levelo_inurba_marseille","lat":43.30556,"lon":5.36537,"is_reserved":false,"is_disabled":false,"rental_uris":{"android":"levelo://app?vid=2854030f-4435-4f6c-a22c-3e1447f3bf2d","ios":"levelo://app?vid=2854030f-4435-4f6c-a22c-3e1447f3bf2d"},"vehicle_type_id":"4","last_reported":1745766539,"current_range_meters":15200,"station_id":"ce4bgs12rcd13ifvqcag","pricing_plan_id":"cebpf4jnsgd1na2vs0mg"},{"bike_id":"389fa13e-9fb8-4551-94cc-3437e858ed36","system_id":"levelo_inurba_marseille","lat":43.24161,"lon":5.36411,"is_reserved":false,"is_disabled":false,"rental_uris":{"android":"levelo://app?vid=389fa13e-9fb8-4551-94cc-3437e858ed36","ios":"levelo://app?vid=389fa13e-9fb8-4551-94cc-3437e858ed36"},"vehicle_type_id":"4","last_reported":1745766539,"current_range_meters":15200,"station_id":"cpo36qri1sfpv3e86is0","pricing_plan_id":"cebpf4jnsgd1na2vs0mg"},{"bike_id":"6d593226-0a2e-46d4-8de3-9c8bd9d3e674","system_id":"levelo_inurba_marseille","lat":43.29682,"lon":5.37877,"is_reserved":false,"is_disabled":true,"rental_uris":{"android":"levelo://app?vid=6d593226-0a2e-46d4-8de3-9c8bd9d3e674","ios":"levelo://app?vid=6d593226-0a2e-46d4-8de3-9c8bd9d3e674"},"vehicle_type_id":"4","last_reported":1745766539,"current_range_meters":15200,"station_id":"","pricing_plan_id":"cebpf4jnsgd1na2vs0mg"},{"bike_id":"392b506d-b874-4f26-9226-84183da44c61","system_id":"levelo_inurba_marseille","lat":43.29284,"lon":5.40123,"is_reserved":false,"is_disabled":false,"rental_uris":{"android":"levelo://app?vid=392b506d-b874-4f26-9226-84183da44c61","ios":"levelo://app?vid=392b506d-b874-4f26-9226-84183da44c61"},"vehicle_type_id":"4","last_reported":1745766539,"current_range_meters":15200,"station_id":"ce4bh312rcd13ifvqdk0","pricing_plan_id":"cebpf4jnsgd1na2vs0mg"},{"bike_id":"41c09c79-9dc6-41d2-a6de-d35a3b11f0e4","system_id":"levelo_inurba_marseille","lat":43.23967,"lon":5.36621,"is_reserved":false,"is_disabled":false,"rental_uris":{"android":"levelo://app?vid=41c09c79-9dc6-41d2-a6de-d35a3b11f0e4","ios":"levelo://app?vid=41c09c79-9dc6-41d2-a6de-d35a3b11f0e4"},"vehicle_type_id":"4","last_reported":1745766539,"current_range_meters":16000,"station_id":"ce4bhi12rcd13ifvqfp0","pricing_plan_id":"cebpf4jnsgd1na2vs0mg"},{"bike_id":"11786d35-4c38-4c5e-a2fc-3dd0232076fa","system_id":"levelo_inurba_marseille","lat":43.30954,"lon":5.39041,"is_reserved":false,"is_disabled":false,"rental_uris":{"android":"levelo://app?vid=11786d35-4c38-4c5e-a2fc-3dd0232076fa","ios":"levelo://app?vid=11786d35-4c38-4c5e-a2fc-3dd0232076fa"},"vehicle_type_id":"4","last_reported":1745766539,"current_range_meters":12800,"station_id":"ce4bgup2rcd13ifvqco0","pricing_plan_id":"cebpf4jnsgd1na2vs0mg"},{"bike_id":"480d016c-d81a-4d35-af93-cc186058060e","system_id":"levelo_inurba_marseille","lat":43.281525,"lon":5.426417,"is_reserved":false,"is_disabled":false,"rental_uris":{"android":"levelo://app?vid=480d016c-d81a-4d35-af93-cc186058060e","ios":"levelo://app?vid=480d016c-d81a-4d35-af93-cc186058060e"},"vehicle_type_id":"4","last_reported":1745766539,"current_range_meters":16000,"station_id":"ce4bhnh2rcd13ifvqgug","pricing_plan_id":"cebpf4jnsgd1na2vs0mg"},{"bike_id":"0841a9da-ba39-4c06-a0df-a5d650842993","system_id":"levelo_inurba_marseille","lat":43.26565,"lon":5.39009,"is_reserved":false,"is_disabled":false,"rental_uris":{"android":"levelo://app?vid=0841a9da-ba39-4c06-a0df-a5d650842993","ios":"levelo://app?vid=0841a9da-ba39-4c06-a0df-a5d650842993"},"vehicle_type_id":"4","last_reported":1745766539,"current_range_meters":16000,"station_id":"ce4bhe12rcd13ifvqf30","pricing_plan_id":"cebpf4jnsgd1na2vs0mg"},{"bike_id":"b84768dc-ea27-42e3-8f11-aa2a489ff023","system_id":"levelo_inurba_marseille","lat":43.29277,"lon":5.38431,"is_reserved":false,"is_disabled":false,"rental_uris":{"android":"levelo://app?vid=b84768dc-ea27-42e3-8f11-aa2a489ff023","ios":"levelo://app?vid=b84768dc-ea27-42e3-8f11-aa2a489ff023"},"vehicle_type_id":"4","last_reported":1745766539,"current_range_meters":16000,"station_id":"ce4bh692rcd13ifvqea0","pricing_plan_id":"cebpf4jnsgd1na2vs0mg"},{"bike_id":"3c98511c-3598-4d33-bb84-4f752018e583","system_id":"levelo_inurba_marseille","lat":43.29322,"lon":5.36828,"is_reserved":false,"is_disabled":false,"rental_uris":{"android":"levelo://app?vid=3c98511c-3598-4d33-bb84-4f752018e583","ios":"levelo://app?vid=3c98511c-3598-4d33-bb84-4f752018e583"},"vehicle_type_id":"4","last_reported":1745766539,"current_range_meters":16000,"station_id":"ce4bhbp2rcd13ifvqesg","pricing_plan_id":"cebpf4jnsgd1na2vs0mg"},{"bike_id":"647355cc-822f-41e4-b0fe-856d5a69a337","system_id":"levelo_inurba_marseille","lat":43.21176,"lon":5.35083,"is_reserved":false,"is_disabled":false,"rental_uris":{"android":"levelo://app?vid=647355cc-822f-41e4-b0fe-856d5a69a337","ios":"levelo://app?vid=647355cc-822f-41e4-b0fe-856d5a69a337"},"vehicle_type_id":"4","last_reported":1745766539,"current_range_meters":16400,"station_id":"st_cvj6sg6p6f1abm77japg","pricing_plan_id":"cebpf4jnsgd1na2vs0mg"},{"bike_id":"8efd3606-6323-4bad-8f10-3a3a29d2ed8c","system_id":"levelo_inurba_marseille","lat":43.32094,"lon":5.36794,"is_reserved":false,"is_disabled":false,"rental_uris":{"android":"levelo://app?vid=8efd3606-6323-4bad-8f10-3a3a29d2ed8c","ios":"levelo://app?vid=8efd3606-6323-4bad-8f10-3a3a29d2ed8c"},"vehicle_type_id":"4","last_reported":1745766539,"current_range_meters":16400,"station_id":"ce4bhrh2rcd13ifvqhug","pricing_plan_id":"cebpf4jnsgd1na2vs0mg"},{"bike_id":"4046a82f-66e8-4b55-bd0a-356edea772d8","system_id":"levelo_inurba_marseille","lat":43.30577,"lon":5.38151,"is_reserved":false,"is_disabled":false,"rental_uris":{"android":"levelo://app?vid=4046a82f-66e8-4b55-bd0a-356edea772d8","ios":"levelo://app?vid=4046a82f-66e8-4b55-bd0a-356edea772d8"},"vehicle_type_id":"4","last_reported":1745766539,"current_range_meters":16400,"station_id":"","pricing_plan_id":"cebpf4jnsgd1na2vs0mg"},{"bike_id":"8ae777e8-7062-42b2-984e-d68ad22bedcc","system_id":"levelo_inurba_marseille","lat":43.25113,"lon":5.40319,"is_reserved":false,"is_disabled":false,"rental_uris":{"android":"levelo://app?vid=8ae777e8-7062-42b2-984e-d68ad22bedcc","ios":"levelo://app?vid=8ae777e8-7062-42b2-984e-d68ad22bedcc"},"vehicle_type_id":"4","last_reported":1745766539,"current_range_meters":16400,"station_id":"ce4bhlh2rcd13ifvqgig","pricing_plan_id":"cebpf4jnsgd1na2vs0mg"},{"bike_id":"f360aaad-e350-49e9-8191-58ce4616eb13","system_id":"levelo_inurba_marseille","lat":43.21218,"lon":5.35095,"is_reserved":false,"is_disabled":true,"rental_uris":{"android":"levelo://app?vid=f360aaad-e350-49e9-8191-58ce4616eb13","ios":"levelo://app?vid=f360aaad-e350-49e9-8191-58ce4616eb13"},"vehicle_type_id":"4","last_reported":1745766539,"current_range_meters":16400,"station_id":"st_cvj6sg6p6f1abm77japg","pricing_plan_id":"cebpf4jnsgd1na2vs0mg"},{"bike_id":"b3dc7a90-c4ee-4c52-9e58-1068c3e1dcd6","system_id":"levelo_inurba_marseille","lat":43.2815,"lon":5.42644,"is_reserved":false,"is_disabled":false,"rental_uris":{"android":"levelo://app?vid=b3dc7a90-c4ee-4c52-9e58-1068c3e1dcd6","ios":"levelo://app?vid=b3dc7a90-c4ee-4c52-9e58-1068c3e1dcd6"},"vehicle_type_id":"4","last_reported":1745766539,"current_range_meters":16400,"station_id":"ce4bhnh2rcd13ifvqgug","pricing_plan_id":"cebpf4jnsgd1na2vs0mg"},{"bike_id":"9f5bee60-296f-43cc-95e6-f8c6356ac604","system_id":"levelo_inurba_marseille","lat":43.29332,"lon":5.36859,"is_reserved":false,"is_disabled":false,"rental_uris":{"android":"levelo://app?vid=9f5bee60-296f-43cc-95e6-f8c6356ac604","ios":"levelo://app?vid=9f5bee60-296f-43cc-95e6-f8c6356ac604"},"vehicle_type_id":"4","last_reported":1745766539,"current_range_meters":16400,"station_id":"ce4bhbp2rcd13ifvqesg","pricing_plan_id":"cebpf4jnsgd1na2vs0mg"},{"bike_id":"3eb263e5-5900-4190-b71d-84a0e8e02d23","system_id":"levelo_inurba_marseille","lat":43.31226,"lon":5.36852,"is_reserved":false,"is_disabled":false,"rental_uris":{"android":"levelo://app?vid=3eb263e5-5900-4190-b71d-84a0e8e02d23","ios":"levelo://app?vid=3eb263e5-5900-4190-b71d-84a0e8e02d23"},"vehicle_type_id":"4","last_reported":1745766539,"current_range_meters":16400,"station_id":"ce4bgl92rcd13ifvqbq0","pricing_plan_id":"cebpf4jnsgd1na2vs0mg"},{"bike_id":"0c39ce71-c4e6-42bb-a129-a5cd799f3cc5","system_id":"levelo_inurba_marseille","lat":43.29264,"lon":5.36845,"is_reserved":false,"is_disabled":false,"rental_uris":{"android":"levelo://app?vid=0c39ce71-c4e6-42bb-a129-a5cd799f3cc5","ios":"levelo://app?vid=0c39ce71-c4e6-42bb-a129-a5cd799f3cc5"},"vehicle_type_id":"4","last_reported":1745766539,"current_range_meters":16800,"station_id":"ce4bhbp2rcd13ifvqesg","pricing_plan_id":"cebpf4jnsgd1na2vs0mg"},{"bike_id":"11a5a115-212e-4c0c-98fc-97cd610a7f5f","system_id":"levelo_inurba_marseille","lat":43.27907,"lon":5.38009,"is_reserved":false,"is_disabled":false,"rental_uris":{"android":"levelo://app?vid=11a5a115-212e-4c0c-98fc-97cd610a7f5f","ios":"levelo://app?vid=11a5a115-212e-4c0c-98fc-97cd610a7f5f"},"vehicle_type_id":"4","last_reported":1745766539,"current_range_meters":16400,"station_id":"ce4bhf92rcd13ifvqf50","pricing_plan_id":"cebpf4jnsgd1na2vs0mg"},{"bike_id":"b45a9d0e-dc19-4cef-9e55-0aca558c2e15","system_id":"levelo_inurba_marseille","lat":43.28698,"lon":5.39987,"is_reserved":false,"is_disabled":false,"rental_uris":{"android":"levelo://app?vid=b45a9d0e-dc19-4cef-9e55-0aca558c2e15","ios":"levelo://app?vid=b45a9d0e-dc19-4cef-9e55-0aca558c2e15"},"vehicle_type_id":"4","last_reported":1745766539,"current_range_meters":16800,"station_id":"ce4bho92rcd13ifvqh3g","pricing_plan_id":"cebpf4jnsgd1na2vs0mg"},{"bike_id":"d8e186e0-8d9f-4c16-bb12-3c50f63fd666","system_id":"levelo_inurba_marseille","lat":43.27508,"lon":5.42474,"is_reserved":false,"is_disabled":false,"rental_uris":{"android":"levelo://app?vid=d8e186e0-8d9f-4c16-bb12-3c50f63fd666","ios":"levelo://app?vid=d8e186e0-8d9f-4c16-bb12-3c50f63fd666"},"vehicle_type_id":"4","last_reported":1745766539,"current_range_meters":16800,"station_id":"ce4bhn92rcd13ifvqgrg","pricing_plan_id":"cebpf4jnsgd1na2vs0mg"},{"bike_id":"97f36b89-3f79-4d54-80b9-0001fe6da6bb","system_id":"levelo_inurba_marseille","lat":43.32445,"lon":5.39134,"is_reserved":false,"is_disabled":true,"rental_uris":{"android":"levelo://app?vid=97f36b89-3f79-4d54-80b9-0001fe6da6bb","ios":"levelo://app?vid=97f36b89-3f79-4d54-80b9-0001fe6da6bb"},"vehicle_type_id":"4","last_reported":1745766539,"current_range_meters":16800,"station_id":"","pricing_plan_id":"cebpf4jnsgd1na2vs0mg"},{"bike_id":"a1300fa1-43f7-47bc-be68-1621591c429e","system_id":"levelo_inurba_marseille","lat":43.25028,"lon":5.38947,"is_reserved":false,"is_disabled":true,"rental_uris":{"android":"levelo://app?vid=a1300fa1-43f7-47bc-be68-1621591c429e","ios":"levelo://app?vid=a1300fa1-43f7-47bc-be68-1621591c429e"},"vehicle_type_id":"4","last_reported":1745766539,"current_range_meters":16800,"station_id":"ce4bhgp2rcd13ifvqfd0","pricing_plan_id":"cebpf4jnsgd1na2vs0mg"},{"bike_id":"fd5f64c5-0b3a-4d04-8c87-a7c776439dd1","system_id":"levelo_inurba_marseille","lat":43.27976,"lon":5.38744,"is_reserved":false,"is_disabled":false,"rental_uris":{"android":"levelo://app?vid=fd5f64c5-0b3a-4d04-8c87-a7c776439dd1","ios":"levelo://app?vid=fd5f64c5-0b3a-4d04-8c87-a7c776439dd1"},"vehicle_type_id":"4","last_reported":1745766539,"current_range_meters":16800,"station_id":"ce4bhg12rcd13ifvqf80","pricing_plan_id":"cebpf4jnsgd1na2vs0mg"},{"bike_id":"3f5f2c9a-9e49-4b78-9b1b-0708da9fec39","system_id":"levelo_inurba_marseille","lat":43.22502,"lon":5.34787,"is_reserved":false,"is_disabled":false,"rental_uris":{"android":"levelo://app?vid=3f5f2c9a-9e49-4b78-9b1b-0708da9fec39","ios":"levelo://app?vid=3f5f2c9a-9e49-4b78-9b1b-0708da9fec39"},"vehicle_type_id":"4","last_reported":1745766539,"current_range_meters":17200,"station_id":"st_cvj5dfep6f1abm77gieg","pricing_plan_id":"cebpf4jnsgd1na2vs0mg"},{"bike_id":"cf8e8805-1051-49c7-bd6b-6e754042f410","system_id":"levelo_inurba_marseille","lat":43.30961,"lon":5.39054,"is_reserved":false,"is_disabled":false,"rental_uris":{"android":"levelo://app?vid=cf8e8805-1051-49c7-bd6b-6e754042f410","ios":"levelo://app?vid=cf8e8805-1051-49c7-bd6b-6e754042f410"},"vehicle_type_id":"4","last_reported":1745766539,"current_range_meters":17200,"station_id":"ce4bgup2rcd13ifvqco0","pricing_plan_id":"cebpf4jnsgd1na2vs0mg"},{"bike_id":"5bebb5ec-255c-43b7-b39f-526013f16f76","system_id":"levelo_inurba_marseille","lat":43.30543,"lon":5.36535,"is_reserved":false,"is_disabled":false,"rental_uris":{"android":"levelo://app?vid=5bebb5ec-255c-43b7-b39f-526013f16f76","ios":"levelo://app?vid=5bebb5ec-255c-43b7-b39f-526013f16f76"},"vehicle_type_id":"4","last_reported":1745766539,"current_range_meters":17200,"station_id":"ce4bgs12rcd13ifvqcag","pricing_plan_id":"cebpf4jnsgd1na2vs0mg"},{"bike_id":"e492037e-60a9-4864-84d6-2fe9ea031f90","system_id":"levelo_inurba_marseille","lat":43.28006,"lon":5.38782,"is_reserved":false,"is_disabled":false,"rental_uris":{"android":"levelo://app?vid=e492037e-60a9-4864-84d6-2fe9ea031f90","ios":"levelo://app?vid=e492037e-60a9-4864-84d6-2fe9ea031f90"},"vehicle_type_id":"4","last_reported":1745766539,"current_range_meters":17200,"station_id":"ce4bhg12rcd13ifvqf80","pricing_plan_id":"cebpf4jnsgd1na2vs0mg"},{"bike_id":"97fd7a4c-36e8-401d-b12d-1b4015a01ebe","system_id":"levelo_inurba_marseille","lat":43.26596,"lon":5.42098,"is_reserved":false,"is_disabled":false,"rental_uris":{"android":"levelo://app?vid=97fd7a4c-36e8-401d-b12d-1b4015a01ebe","ios":"levelo://app?vid=97fd7a4c-36e8-401d-b12d-1b4015a01ebe"},"vehicle_type_id":"4","last_reported":1745766539,"current_range_meters":17200,"station_id":"","pricing_plan_id":"cebpf4jnsgd1na2vs0mg"},{"bike_id":"b532cbc6-d603-4b6c-8eb1-6da63ec873ab","system_id":"levelo_inurba_marseille","lat":43.270697,"lon":5.402983,"is_reserved":false,"is_disabled":false,"rental_uris":{"android":"levelo://app?vid=b532cbc6-d603-4b6c-8eb1-6da63ec873ab","ios":"levelo://app?vid=b532cbc6-d603-4b6c-8eb1-6da63ec873ab"},"vehicle_type_id":"4","last_reported":1745766539,"current_range_meters":17200,"station_id":"ce4bhk92rcd13ifvqgc0","pricing_plan_id":"cebpf4jnsgd1na2vs0mg"},{"bike_id":"04330282-4b26-4fac-8b80-fb290df513f5","system_id":"levelo_inurba_marseille","lat":43.25128,"lon":5.40323,"is_reserved":false,"is_disabled":false,"rental_uris":{"android":"levelo://app?vid=04330282-4b26-4fac-8b80-fb290df513f5","ios":"levelo://app?vid=04330282-4b26-4fac-8b80-fb290df513f5"},"vehicle_type_id":"4","last_reported":1745766539,"current_range_meters":17200,"station_id":"ce4bhlh2rcd13ifvqgig","pricing_plan_id":"cebpf4jnsgd1na2vs0mg"},{"bike_id":"7cb17432-a062-465f-85a4-b60c350ddacd","system_id":"levelo_inurba_marseille","lat":43.29606,"lon":5.37468,"is_reserved":false,"is_disabled":true,"rental_uris":{"android":"levelo://app?vid=7cb17432-a062-465f-85a4-b60c350ddacd","ios":"levelo://app?vid=7cb17432-a062-465f-85a4-b60c350ddacd"},"vehicle_type_id":"4","last_reported":1745766539,"current_range_meters":17200,"station_id":"","pricing_plan_id":"cebpf4jnsgd1na2vs0mg"},{"bike_id":"2e7ac15a-983b-44da-a8d0-533b1e803195","system_id":"levelo_inurba_marseille","lat":43.25578,"lon":5.38238,"is_reserved":false,"is_disabled":false,"rental_uris":{"android":"levelo://app?vid=2e7ac15a-983b-44da-a8d0-533b1e803195","ios":"levelo://app?vid=2e7ac15a-983b-44da-a8d0-533b1e803195"},"vehicle_type_id":"4","last_reported":1745766539,"current_range_meters":17600,"station_id":"ce4bhih2rcd13ifvqfs0","pricing_plan_id":"cebpf4jnsgd1na2vs0mg"},{"bike_id":"94c15021-409d-4859-9cbd-f2897516165d","system_id":"levelo_inurba_marseille","lat":43.23963,"lon":5.36625,"is_reserved":false,"is_disabled":false,"rental_uris":{"android":"levelo://app?vid=94c15021-409d-4859-9cbd-f2897516165d","ios":"levelo://app?vid=94c15021-409d-4859-9cbd-f2897516165d"},"vehicle_type_id":"4","last_reported":1745766539,"current_range_meters":17600,"station_id":"ce4bhi12rcd13ifvqfp0","pricing_plan_id":"cebpf4jnsgd1na2vs0mg"},{"bike_id":"137f8ec6-6c18-401c-9994-80b00ff40ef3","system_id":"levelo_inurba_marseille","lat":43.29843,"lon":5.36266,"is_reserved":false,"is_disabled":false,"rental_uris":{"android":"levelo://app?vid=137f8ec6-6c18-401c-9994-80b00ff40ef3","ios":"levelo://app?vid=137f8ec6-6c18-401c-9994-80b00ff40ef3"},"vehicle_type_id":"4","last_reported":1745766539,"current_range_meters":17600,"station_id":"ce4bgpp2rcd13ifvqc3g","pricing_plan_id":"cebpf4jnsgd1na2vs0mg"},{"bike_id":"678d346a-649b-4f22-8947-c6f619d19e05","system_id":"levelo_inurba_marseille","lat":43.30429,"lon":5.38886,"is_reserved":false,"is_disabled":false,"rental_uris":{"android":"levelo://app?vid=678d346a-649b-4f22-8947-c6f619d19e05","ios":"levelo://app?vid=678d346a-649b-4f22-8947-c6f619d19e05"},"vehicle_type_id":"4","last_reported":1745766539,"current_range_meters":17600,"station_id":"ce4bgk12rcd13ifvqbi0","pricing_plan_id":"cebpf4jnsgd1na2vs0mg"},{"bike_id":"44328506-1cb3-447c-b9cc-eb92533bd0c8","system_id":"levelo_inurba_marseille","lat":43.29269,"lon":5.36846,"is_reserved":false,"is_disabled":false,"rental_uris":{"android":"levelo://app?vid=44328506-1cb3-447c-b9cc-eb92533bd0c8","ios":"levelo://app?vid=44328506-1cb3-447c-b9cc-eb92533bd0c8"},"vehicle_type_id":"4","last_reported":1745766539,"current_range_meters":17600,"station_id":"ce4bhbp2rcd13ifvqesg","pricing_plan_id":"cebpf4jnsgd1na2vs0mg"},{"bike_id":"7d67083d-bc50-4c0f-9358-a9886db9d07c","system_id":"levelo_inurba_marseille","lat":43.27926,"lon":5.4105,"is_reserved":false,"is_disabled":false,"rental_uris":{"android":"levelo://app?vid=7d67083d-bc50-4c0f-9358-a9886db9d07c","ios":"levelo://app?vid=7d67083d-bc50-4c0f-9358-a9886db9d07c"},"vehicle_type_id":"4","last_reported":1745766539,"current_range_meters":17600,"station_id":"ce4bhnp2rcd13ifvqh0g","pricing_plan_id":"cebpf4jnsgd1na2vs0mg"},{"bike_id":"4d4b5f61-e3dc-4b08-8550-5a853ebadb9d","system_id":"levelo_inurba_marseille","lat":43.26805,"lon":5.40261,"is_reserved":false,"is_disabled":false,"rental_uris":{"android":"levelo://app?vid=4d4b5f61-e3dc-4b08-8550-5a853ebadb9d","ios":"levelo://app?vid=4d4b5f61-e3dc-4b08-8550-5a853ebadb9d"},"vehicle_type_id":"4","last_reported":1745766539,"current_range_meters":17600,"station_id":"ce501612rcd8frsf0b60","pricing_plan_id":"cebpf4jnsgd1na2vs0mg"},{"bike_id":"683b45fe-d6d7-4560-ae22-95bdbf4d269a","system_id":"levelo_inurba_marseille","lat":43.21746,"lon":5.34601,"is_reserved":false,"is_disabled":false,"rental_uris":{"android":"levelo://app?vid=683b45fe-d6d7-4560-ae22-95bdbf4d269a","ios":"levelo://app?vid=683b45fe-d6d7-4560-ae22-95bdbf4d269a"},"vehicle_type_id":"4","last_reported":1745766539,"current_range_meters":17600,"station_id":"st_cvj6r9ubvosntc0bgbag","pricing_plan_id":"cebpf4jnsgd1na2vs0mg"},{"bike_id":"84d413cf-7679-49fb-89e3-56963ed03ff8","system_id":"levelo_inurba_marseille","lat":43.33108,"lon":5.3822,"is_reserved":false,"is_disabled":false,"rental_uris":{"android":"levelo://app?vid=84d413cf-7679-49fb-89e3-56963ed03ff8","ios":"levelo://app?vid=84d413cf-7679-49fb-89e3-56963ed03ff8"},"vehicle_type_id":"4","last_reported":1745766539,"current_range_meters":17600,"station_id":"","pricing_plan_id":"cebpf4jnsgd1na2vs0mg"},{"bike_id":"181ed326-b471-49b5-9f00-acd48cb5b299","system_id":"levelo_inurba_marseille","lat":43.28284,"lon":5.35058,"is_reserved":false,"is_disabled":true,"rental_uris":{"android":"levelo://app?vid=181ed326-b471-49b5-9f00-acd48cb5b299","ios":"levelo://app?vid=181ed326-b471-49b5-9f00-acd48cb5b299"},"vehicle_type_id":"4","last_reported":1745766539,"current_range_meters":17600,"station_id":"ce4bhbp2rcd13ifvqerg","pricing_plan_id":"cebpf4jnsgd1na2vs0mg"},{"bike_id":"f8b82dd5-2d85-4846-8b9d-5afc30043cf6","system_id":"levelo_inurba_marseille","lat":43.225,"lon":5.34794,"is_reserved":false,"is_disabled":false,"rental_uris":{"android":"levelo://app?vid=f8b82dd5-2d85-4846-8b9d-5afc30043cf6","ios":"levelo://app?vid=f8b82dd5-2d85-4846-8b9d-5afc30043cf6"},"vehicle_type_id":"4","last_reported":1745766539,"current_range_meters":17600,"station_id":"st_cvj5dfep6f1abm77gieg","pricing_plan_id":"cebpf4jnsgd1na2vs0mg"},{"bike_id":"b1aed193-c3b2-46dd-83c9-3dcf96b98765","system_id":"levelo_inurba_marseille","lat":43.290306,"lon":5.399582,"is_reserved":false,"is_disabled":false,"rental_uris":{"android":"levelo://app?vid=b1aed193-c3b2-46dd-83c9-3dcf96b98765","ios":"levelo://app?vid=b1aed193-c3b2-46dd-83c9-3dcf96b98765"},"vehicle_type_id":"4","last_reported":1745766539,"current_range_meters":17200,"station_id":"ce4bh392rcd13ifvqdm0","pricing_plan_id":"cebpf4jnsgd1na2vs0mg"},{"bike_id":"0fa0d35c-5f1d-4090-ac0b-83c1fb2bda03","system_id":"levelo_inurba_marseille","lat":43.29261,"lon":5.40924,"is_reserved":false,"is_disabled":false,"rental_uris":{"android":"levelo://app?vid=0fa0d35c-5f1d-4090-ac0b-83c1fb2bda03","ios":"levelo://app?vid=0fa0d35c-5f1d-4090-ac0b-83c1fb2bda03"},"vehicle_type_id":"4","last_reported":1745766539,"current_range_meters":18000,"station_id":"ce4bh192rcd13ifvqdc0","pricing_plan_id":"cebpf4jnsgd1na2vs0mg"},{"bike_id":"1c549b55-b500-4808-ab76-bf95b833044d","system_id":"levelo_inurba_marseille","lat":43.31066,"lon":5.38364,"is_reserved":false,"is_disabled":false,"rental_uris":{"android":"levelo://app?vid=1c549b55-b500-4808-ab76-bf95b833044d","ios":"levelo://app?vid=1c549b55-b500-4808-ab76-bf95b833044d"},"vehicle_type_id":"4","last_reported":1745766539,"current_range_meters":18000,"station_id":"ce4bgv92rcd13ifvqcr0","pricing_plan_id":"cebpf4jnsgd1na2vs0mg"},{"bike_id":"18171bd2-7806-4f11-bede-eb959afef833","system_id":"levelo_inurba_marseille","lat":43.30809,"lon":5.38172,"is_reserved":false,"is_disabled":false,"rental_uris":{"android":"levelo://app?vid=18171bd2-7806-4f11-bede-eb959afef833","ios":"levelo://app?vid=18171bd2-7806-4f11-bede-eb959afef833"},"vehicle_type_id":"4","last_reported":1745766539,"current_range_meters":18000,"station_id":"ce4bgt12rcd13ifvqce0","pricing_plan_id":"cebpf4jnsgd1na2vs0mg"},{"bike_id":"1a95ba2b-3f52-4651-9530-6037ada5a396","system_id":"levelo_inurba_marseille","lat":43.302005,"lon":5.382892,"is_reserved":false,"is_disabled":false,"rental_uris":{"android":"levelo://app?vid=1a95ba2b-3f52-4651-9530-6037ada5a396","ios":"levelo://app?vid=1a95ba2b-3f52-4651-9530-6037ada5a396"},"vehicle_type_id":"4","last_reported":1745766539,"current_range_meters":18000,"station_id":"ce4bh312rcd13ifvqdj0","pricing_plan_id":"cebpf4jnsgd1na2vs0mg"},{"bike_id":"9275afeb-620b-4a3c-83d1-31bc14709d93","system_id":"levelo_inurba_marseille","lat":43.2885,"lon":5.35904,"is_reserved":false,"is_disabled":true,"rental_uris":{"android":"levelo://app?vid=9275afeb-620b-4a3c-83d1-31bc14709d93","ios":"levelo://app?vid=9275afeb-620b-4a3c-83d1-31bc14709d93"},"vehicle_type_id":"4","last_reported":1745766539,"current_range_meters":18000,"station_id":"","pricing_plan_id":"cebpf4jnsgd1na2vs0mg"},{"bike_id":"3e66886d-8abd-4403-8071-0ba087b37b63","system_id":"levelo_inurba_marseille","lat":43.30609,"lon":5.37227,"is_reserved":false,"is_disabled":false,"rental_uris":{"android":"levelo://app?vid=3e66886d-8abd-4403-8071-0ba087b37b63","ios":"levelo://app?vid=3e66886d-8abd-4403-8071-0ba087b37b63"},"vehicle_type_id":"4","last_reported":1745766539,"current_range_meters":18000,"station_id":"ce4bgqh2rcd13ifvqc4g","pricing_plan_id":"cebpf4jnsgd1na2vs0mg"},{"bike_id":"b665b433-35cd-4d1c-9c99-8a62ae315b2d","system_id":"levelo_inurba_marseille","lat":43.296814,"lon":5.366971,"is_reserved":false,"is_disabled":false,"rental_uris":{"android":"levelo://app?vid=b665b433-35cd-4d1c-9c99-8a62ae315b2d","ios":"levelo://app?vid=b665b433-35cd-4d1c-9c99-8a62ae315b2d"},"vehicle_type_id":"4","last_reported":1745766539,"current_range_meters":18000,"station_id":"ce4bgn12rcd13ifvqbt0","pricing_plan_id":"cebpf4jnsgd1na2vs0mg"},{"bike_id":"c40893b9-c354-4696-8a1d-3132c4bf29dc","system_id":"levelo_inurba_marseille","lat":43.30327,"lon":5.36899,"is_reserved":false,"is_disabled":false,"rental_uris":{"android":"levelo://app?vid=c40893b9-c354-4696-8a1d-3132c4bf29dc","ios":"levelo://app?vid=c40893b9-c354-4696-8a1d-3132c4bf29dc"},"vehicle_type_id":"4","last_reported":1745766539,"current_range_meters":18000,"station_id":"ce4bgqh2rcd13ifvqc5g","pricing_plan_id":"cebpf4jnsgd1na2vs0mg"},{"bike_id":"5e29bb99-7a29-4bbf-a514-99195c8fa20f","system_id":"levelo_inurba_marseille","lat":43.29894,"lon":5.43655,"is_reserved":false,"is_disabled":false,"rental_uris":{"android":"levelo://app?vid=5e29bb99-7a29-4bbf-a514-99195c8fa20f","ios":"levelo://app?vid=5e29bb99-7a29-4bbf-a514-99195c8fa20f"},"vehicle_type_id":"4","last_reported":1745766539,"current_range_meters":18000,"station_id":"ce4bhpp2rcd13ifvqhfg","pricing_plan_id":"cebpf4jnsgd1na2vs0mg"},{"bike_id":"6a3ad0ca-897c-414f-a69a-aae8b2ea7b61","system_id":"levelo_inurba_marseille","lat":43.21777,"lon":5.3464,"is_reserved":false,"is_disabled":false,"rental_uris":{"android":"levelo://app?vid=6a3ad0ca-897c-414f-a69a-aae8b2ea7b61","ios":"levelo://app?vid=6a3ad0ca-897c-414f-a69a-aae8b2ea7b61"},"vehicle_type_id":"4","last_reported":1745766539,"current_range_meters":18000,"station_id":"","pricing_plan_id":"cebpf4jnsgd1na2vs0mg"},{"bike_id":"7d356f9a-963b-4cde-a7b3-f08d9076445a","system_id":"levelo_inurba_marseille","lat":43.301889,"lon":5.366101,"is_reserved":false,"is_disabled":false,"rental_uris":{"android":"levelo://app?vid=7d356f9a-963b-4cde-a7b3-f08d9076445a","ios":"levelo://app?vid=7d356f9a-963b-4cde-a7b3-f08d9076445a"},"vehicle_type_id":"4","last_reported":1745766539,"current_range_meters":18000,"station_id":"ce4bgrh2rcd13ifvqc8g","pricing_plan_id":"cebpf4jnsgd1na2vs0mg"},{"bike_id":"929ede0a-bede-4f2c-98c5-5586d05b6a66","system_id":"levelo_inurba_marseille","lat":43.21746,"lon":5.34614,"is_reserved":false,"is_disabled":false,"rental_uris":{"android":"levelo://app?vid=929ede0a-bede-4f2c-98c5-5586d05b6a66","ios":"levelo://app?vid=929ede0a-bede-4f2c-98c5-5586d05b6a66"},"vehicle_type_id":"4","last_reported":1745766539,"current_range_meters":18800,"station_id":"st_cvj6r9ubvosntc0bgbag","pricing_plan_id":"cebpf4jnsgd1na2vs0mg"},{"bike_id":"99fa63ac-2e98-4ebd-893a-6b25124c94cc","system_id":"levelo_inurba_marseille","lat":43.32364,"lon":5.38886,"is_reserved":false,"is_disabled":false,"rental_uris":{"android":"levelo://app?vid=99fa63ac-2e98-4ebd-893a-6b25124c94cc","ios":"levelo://app?vid=99fa63ac-2e98-4ebd-893a-6b25124c94cc"},"vehicle_type_id":"4","last_reported":1745766539,"current_range_meters":18800,"station_id":"ce4bhqp2rcd13ifvqhog","pricing_plan_id":"cebpf4jnsgd1na2vs0mg"},{"bike_id":"24403cac-5e6c-475d-99cf-a6c99454a4f5","system_id":"levelo_inurba_marseille","lat":43.29865,"lon":5.36238,"is_reserved":false,"is_disabled":false,"rental_uris":{"android":"levelo://app?vid=24403cac-5e6c-475d-99cf-a6c99454a4f5","ios":"levelo://app?vid=24403cac-5e6c-475d-99cf-a6c99454a4f5"},"vehicle_type_id":"4","last_reported":1745766539,"current_range_meters":18800,"station_id":"ce4bgpp2rcd13ifvqc3g","pricing_plan_id":"cebpf4jnsgd1na2vs0mg"},{"bike_id":"6a52e380-5101-4565-a1d6-f9481bc96cef","system_id":"levelo_inurba_marseille","lat":43.30933,"lon":5.40149,"is_reserved":false,"is_disabled":false,"rental_uris":{"android":"levelo://app?vid=6a52e380-5101-4565-a1d6-f9481bc96cef","ios":"levelo://app?vid=6a52e380-5101-4565-a1d6-f9481bc96cef"},"vehicle_type_id":"4","last_reported":1745766539,"current_range_meters":18800,"station_id":"ce4bgvp2rcd13ifvqct0","pricing_plan_id":"cebpf4jnsgd1na2vs0mg"},{"bike_id":"db9128d4-fa4b-4b3d-b5d8-0462404fa361","system_id":"levelo_inurba_marseille","lat":43.32088,"lon":5.3684,"is_reserved":false,"is_disabled":false,"rental_uris":{"android":"levelo://app?vid=db9128d4-fa4b-4b3d-b5d8-0462404fa361","ios":"levelo://app?vid=db9128d4-fa4b-4b3d-b5d8-0462404fa361"},"vehicle_type_id":"4","last_reported":1745766539,"current_range_meters":18800,"station_id":"ce4bhrh2rcd13ifvqhug","pricing_plan_id":"cebpf4jnsgd1na2vs0mg"},{"bike_id":"988d3e51-0f81-4d05-9256-41d5bf2a54ae","system_id":"levelo_inurba_marseille","lat":43.29717,"lon":5.36603,"is_reserved":false,"is_disabled":true,"rental_uris":{"android":"levelo://app?vid=988d3e51-0f81-4d05-9256-41d5bf2a54ae","ios":"levelo://app?vid=988d3e51-0f81-4d05-9256-41d5bf2a54ae"},"vehicle_type_id":"4","last_reported":1745766539,"current_range_meters":18800,"station_id":"ce4bgn12rcd13ifvqbt0","pricing_plan_id":"cebpf4jnsgd1na2vs0mg"},{"bike_id":"61d04456-bd63-48d3-a7dd-7f26bb420d05","system_id":"levelo_inurba_marseille","lat":43.30091,"lon":5.39078,"is_reserved":false,"is_disabled":false,"rental_uris":{"android":"levelo://app?vid=61d04456-bd63-48d3-a7dd-7f26bb420d05","ios":"levelo://app?vid=61d04456-bd63-48d3-a7dd-7f26bb420d05"},"vehicle_type_id":"4","last_reported":1745766539,"current_range_meters":18800,"station_id":"ce4bh192rcd13ifvqdb0","pricing_plan_id":"cebpf4jnsgd1na2vs0mg"},{"bike_id":"a746ef2f-64b8-4519-98b4-3bde1c4b39eb","system_id":"levelo_inurba_marseille","lat":43.27059,"lon":5.40289,"is_reserved":false,"is_disabled":false,"rental_uris":{"android":"levelo://app?vid=a746ef2f-64b8-4519-98b4-3bde1c4b39eb","ios":"levelo://app?vid=a746ef2f-64b8-4519-98b4-3bde1c4b39eb"},"vehicle_type_id":"4","last_reported":1745766539,"current_range_meters":19200,"station_id":"ce4bhk92rcd13ifvqgc0","pricing_plan_id":"cebpf4jnsgd1na2vs0mg"},{"bike_id":"5d80cec4-cf0d-4b75-87cc-4649871dd5da","system_id":"levelo_inurba_marseille","lat":43.27492,"lon":5.42466,"is_reserved":false,"is_disabled":false,"rental_uris":{"android":"levelo://app?vid=5d80cec4-cf0d-4b75-87cc-4649871dd5da","ios":"levelo://app?vid=5d80cec4-cf0d-4b75-87cc-4649871dd5da"},"vehicle_type_id":"4","last_reported":1745766539,"current_range_meters":19200,"station_id":"ce4bhn92rcd13ifvqgrg","pricing_plan_id":"cebpf4jnsgd1na2vs0mg"},{"bike_id":"f783abc4-d8ae-4f7e-918e-b7275d1131c5","system_id":"levelo_inurba_marseille","lat":43.29053,"lon":5.35927,"is_reserved":false,"is_disabled":false,"rental_uris":{"android":"levelo://app?vid=f783abc4-d8ae-4f7e-918e-b7275d1131c5","ios":"levelo://app?vid=f783abc4-d8ae-4f7e-918e-b7275d1131c5"},"vehicle_type_id":"4","last_reported":1745766539,"current_range_meters":18800,"station_id":"ce4bha92rcd13ifvqeg0","pricing_plan_id":"cebpf4jnsgd1na2vs0mg"},{"bike_id":"b45721df-1911-4bd0-96bb-0c84adb69cfd","system_id":"levelo_inurba_marseille","lat":43.23965,"lon":5.36669,"is_reserved":false,"is_disabled":false,"rental_uris":{"android":"levelo://app?vid=b45721df-1911-4bd0-96bb-0c84adb69cfd","ios":"levelo://app?vid=b45721df-1911-4bd0-96bb-0c84adb69cfd"},"vehicle_type_id":"4","last_reported":1745766539,"current_range_meters":19200,"station_id":"ce4bhi12rcd13ifvqfp0","pricing_plan_id":"cebpf4jnsgd1na2vs0mg"},{"bike_id":"fc8468de-dd69-49bb-8b90-bef883b11d23","system_id":"levelo_inurba_marseille","lat":43.292557,"lon":5.409073,"is_reserved":false,"is_disabled":false,"rental_uris":{"android":"levelo://app?vid=fc8468de-dd69-49bb-8b90-bef883b11d23","ios":"levelo://app?vid=fc8468de-dd69-49bb-8b90-bef883b11d23"},"vehicle_type_id":"4","last_reported":1745766539,"current_range_meters":19200,"station_id":"ce4bh192rcd13ifvqdc0","pricing_plan_id":"cebpf4jnsgd1na2vs0mg"},{"bike_id":"e82ee261-5477-483b-8de9-71869476a59d","system_id":"levelo_inurba_marseille","lat":43.27218,"lon":5.391836,"is_reserved":false,"is_disabled":false,"rental_uris":{"android":"levelo://app?vid=e82ee261-5477-483b-8de9-71869476a59d","ios":"levelo://app?vid=e82ee261-5477-483b-8de9-71869476a59d"},"vehicle_type_id":"4","last_reported":1745766539,"current_range_meters":19200,"station_id":"ce4bhhp2rcd13ifvqfm0","pricing_plan_id":"cebpf4jnsgd1na2vs0mg"},{"bike_id":"05fa2b0a-e8b1-4f58-a70f-c5fe083e5a46","system_id":"levelo_inurba_marseille","lat":43.29275,"lon":5.4014,"is_reserved":false,"is_disabled":false,"rental_uris":{"android":"levelo://app?vid=05fa2b0a-e8b1-4f58-a70f-c5fe083e5a46","ios":"levelo://app?vid=05fa2b0a-e8b1-4f58-a70f-c5fe083e5a46"},"vehicle_type_id":"4","last_reported":1745766539,"current_range_meters":19200,"station_id":"ce4bh312rcd13ifvqdk0","pricing_plan_id":"cebpf4jnsgd1na2vs0mg"},{"bike_id":"e111005f-0797-4fd0-a4ad-3229ba5b961b","system_id":"levelo_inurba_marseille","lat":43.298486,"lon":5.36276,"is_reserved":false,"is_disabled":false,"rental_uris":{"android":"levelo://app?vid=e111005f-0797-4fd0-a4ad-3229ba5b961b","ios":"levelo://app?vid=e111005f-0797-4fd0-a4ad-3229ba5b961b"},"vehicle_type_id":"4","last_reported":1745766539,"current_range_meters":19600,"station_id":"ce4bgpp2rcd13ifvqc3g","pricing_plan_id":"cebpf4jnsgd1na2vs0mg"},{"bike_id":"d990800c-7668-432d-86e6-a365bfbdb946","system_id":"levelo_inurba_marseille","lat":43.2972,"lon":5.37698,"is_reserved":false,"is_disabled":false,"rental_uris":{"android":"levelo://app?vid=d990800c-7668-432d-86e6-a365bfbdb946","ios":"levelo://app?vid=d990800c-7668-432d-86e6-a365bfbdb946"},"vehicle_type_id":"4","last_reported":1745766539,"current_range_meters":19200,"station_id":"ce4bgkh2rcd13ifvqbl0","pricing_plan_id":"cebpf4jnsgd1na2vs0mg"},{"bike_id":"6ad84135-27b8-4421-ad4e-6fd81628784c","system_id":"levelo_inurba_marseille","lat":43.30542,"lon":5.36563,"is_reserved":false,"is_disabled":false,"rental_uris":{"android":"levelo://app?vid=6ad84135-27b8-4421-ad4e-6fd81628784c","ios":"levelo://app?vid=6ad84135-27b8-4421-ad4e-6fd81628784c"},"vehicle_type_id":"4","last_reported":1745766539,"current_range_meters":19600,"station_id":"ce4bgs12rcd13ifvqcag","pricing_plan_id":"cebpf4jnsgd1na2vs0mg"},{"bike_id":"5f363fb2-65d6-4f54-a7e8-9f0969c18dcf","system_id":"levelo_inurba_marseille","lat":43.3054,"lon":5.36524,"is_reserved":false,"is_disabled":true,"rental_uris":{"android":"levelo://app?vid=5f363fb2-65d6-4f54-a7e8-9f0969c18dcf","ios":"levelo://app?vid=5f363fb2-65d6-4f54-a7e8-9f0969c18dcf"},"vehicle_type_id":"4","last_reported":1745766539,"current_range_meters":19600,"station_id":"ce4bgs12rcd13ifvqcag","pricing_plan_id":"cebpf4jnsgd1na2vs0mg"},{"bike_id":"8a273500-0cab-4e8a-9871-95484cf69383","system_id":"levelo_inurba_marseille","lat":43.3122,"lon":5.36855,"is_reserved":false,"is_disabled":false,"rental_uris":{"android":"levelo://app?vid=8a273500-0cab-4e8a-9871-95484cf69383","ios":"levelo://app?vid=8a273500-0cab-4e8a-9871-95484cf69383"},"vehicle_type_id":"4","last_reported":1745766539,"current_range_meters":19600,"station_id":"ce4bgl92rcd13ifvqbq0","pricing_plan_id":"cebpf4jnsgd1na2vs0mg"},{"bike_id":"d5792b96-81ae-4816-accb-680dcd29aa8e","system_id":"levelo_inurba_marseille","lat":43.24682,"lon":5.38166,"is_reserved":false,"is_disabled":true,"rental_uris":{"android":"levelo://app?vid=d5792b96-81ae-4816-accb-680dcd29aa8e","ios":"levelo://app?vid=d5792b96-81ae-4816-accb-680dcd29aa8e"},"vehicle_type_id":"4","last_reported":1745766539,"current_range_meters":19600,"station_id":"ce4bhih2rcd13ifvqfr0","pricing_plan_id":"cebpf4jnsgd1na2vs0mg"},{"bike_id":"3abedbf8-67e3-4cff-b8d8-f7c4c1df6766","system_id":"levelo_inurba_marseille","lat":43.2658,"lon":5.39001,"is_reserved":false,"is_disabled":false,"rental_uris":{"android":"levelo://app?vid=3abedbf8-67e3-4cff-b8d8-f7c4c1df6766","ios":"levelo://app?vid=3abedbf8-67e3-4cff-b8d8-f7c4c1df6766"},"vehicle_type_id":"4","last_reported":1745766539,"current_range_meters":19600,"station_id":"ce4bhe12rcd13ifvqf30","pricing_plan_id":"cebpf4jnsgd1na2vs0mg"},{"bike_id":"1e81c315-7808-4f5d-baf7-448813b1a9aa","system_id":"levelo_inurba_marseille","lat":43.21757,"lon":5.34583,"is_reserved":false,"is_disabled":false,"rental_uris":{"android":"levelo://app?vid=1e81c315-7808-4f5d-baf7-448813b1a9aa","ios":"levelo://app?vid=1e81c315-7808-4f5d-baf7-448813b1a9aa"},"vehicle_type_id":"4","last_reported":1745766539,"current_range_meters":19600,"station_id":"st_cvj6r9ubvosntc0bgbag","pricing_plan_id":"cebpf4jnsgd1na2vs0mg"},{"bike_id":"854b6f67-ca9a-45bb-a87f-9accf64bf40e","system_id":"levelo_inurba_marseille","lat":43.27577,"lon":5.38465,"is_reserved":false,"is_disabled":true,"rental_uris":{"android":"levelo://app?vid=854b6f67-ca9a-45bb-a87f-9accf64bf40e","ios":"levelo://app?vid=854b6f67-ca9a-45bb-a87f-9accf64bf40e"},"vehicle_type_id":"4","last_reported":1745766539,"current_range_meters":20000,"station_id":"ce4bhh92rcd13ifvqfi0","pricing_plan_id":"cebpf4jnsgd1na2vs0mg"},{"bike_id":"daa5fb12-4e0b-4bce-a6b1-6719a5e359ca","system_id":"levelo_inurba_marseille","lat":43.23119,"lon":5.43805,"is_reserved":false,"is_disabled":false,"rental_uris":{"android":"levelo://app?vid=daa5fb12-4e0b-4bce-a6b1-6719a5e359ca","ios":"levelo://app?vid=daa5fb12-4e0b-4bce-a6b1-6719a5e359ca"},"vehicle_type_id":"4","last_reported":1745766539,"current_range_meters":20000,"station_id":"ce4bhmp2rcd13ifvqgog","pricing_plan_id":"cebpf4jnsgd1na2vs0mg"},{"bike_id":"59a0b6b0-43c4-42fb-a2a5-4361152d1c6a","system_id":"levelo_inurba_marseille","lat":43.283447,"lon":5.381119,"is_reserved":false,"is_disabled":false,"rental_uris":{"android":"levelo://app?vid=59a0b6b0-43c4-42fb-a2a5-4361152d1c6a","ios":"levelo://app?vid=59a0b6b0-43c4-42fb-a2a5-4361152d1c6a"},"vehicle_type_id":"4","last_reported":1745766539,"current_range_meters":20000,"station_id":"ce4bhc92rcd13ifvqetg","pricing_plan_id":"cebpf4jnsgd1na2vs0mg"},{"bike_id":"9b2aa63f-19c5-4bb2-b58d-ae476741cc93","system_id":"levelo_inurba_marseille","lat":43.29265,"lon":5.36843,"is_reserved":false,"is_disabled":false,"rental_uris":{"android":"levelo://app?vid=9b2aa63f-19c5-4bb2-b58d-ae476741cc93","ios":"levelo://app?vid=9b2aa63f-19c5-4bb2-b58d-ae476741cc93"},"vehicle_type_id":"4","last_reported":1745766539,"current_range_meters":20000,"station_id":"ce4bhbp2rcd13ifvqesg","pricing_plan_id":"cebpf4jnsgd1na2vs0mg"},{"bike_id":"2281d97e-dd78-49be-ab42-7c2968aa04e9","system_id":"levelo_inurba_marseille","lat":43.29265,"lon":5.38464,"is_reserved":false,"is_disabled":false,"rental_uris":{"android":"levelo://app?vid=2281d97e-dd78-49be-ab42-7c2968aa04e9","ios":"levelo://app?vid=2281d97e-dd78-49be-ab42-7c2968aa04e9"},"vehicle_type_id":"4","last_reported":1745766539,"current_range_meters":20400,"station_id":"ce4bh692rcd13ifvqea0","pricing_plan_id":"cebpf4jnsgd1na2vs0mg"},{"bike_id":"47e2c928-2bc8-4733-9fba-9a7369c8b9db","system_id":"levelo_inurba_marseille","lat":43.31994,"lon":5.38159,"is_reserved":false,"is_disabled":false,"rental_uris":{"android":"levelo://app?vid=47e2c928-2bc8-4733-9fba-9a7369c8b9db","ios":"levelo://app?vid=47e2c928-2bc8-4733-9fba-9a7369c8b9db"},"vehicle_type_id":"4","last_reported":1745766539,"current_range_meters":20400,"station_id":"ce4bhr12rcd13ifvqhpg","pricing_plan_id":"cebpf4jnsgd1na2vs0mg"},{"bike_id":"26e2563a-5614-46af-9839-4e09e7d33768","system_id":"levelo_inurba_marseille","lat":43.33613,"lon":5.41027,"is_reserved":false,"is_disabled":false,"rental_uris":{"android":"levelo://app?vid=26e2563a-5614-46af-9839-4e09e7d33768","ios":"levelo://app?vid=26e2563a-5614-46af-9839-4e09e7d33768"},"vehicle_type_id":"4","last_reported":1745766539,"current_range_meters":20400,"station_id":"ce4bhqh2rcd13ifvqhmg","pricing_plan_id":"cebpf4jnsgd1na2vs0mg"},{"bike_id":"7ee810bf-b498-4347-bbd8-d0ed25eca962","system_id":"levelo_inurba_marseille","lat":43.2678,"lon":5.39427,"is_reserved":false,"is_disabled":false,"rental_uris":{"android":"levelo://app?vid=7ee810bf-b498-4347-bbd8-d0ed25eca962","ios":"levelo://app?vid=7ee810bf-b498-4347-bbd8-d0ed25eca962"},"vehicle_type_id":"4","last_reported":1745766539,"current_range_meters":20400,"station_id":"ce4bhh12rcd13ifvqfg0","pricing_plan_id":"cebpf4jnsgd1na2vs0mg"},{"bike_id":"52373317-8138-4ba1-a71d-7079b6dec1c9","system_id":"levelo_inurba_marseille","lat":43.29856,"lon":5.36273,"is_reserved":false,"is_disabled":false,"rental_uris":{"android":"levelo://app?vid=52373317-8138-4ba1-a71d-7079b6dec1c9","ios":"levelo://app?vid=52373317-8138-4ba1-a71d-7079b6dec1c9"},"vehicle_type_id":"4","last_reported":1745766539,"current_range_meters":20400,"station_id":"ce4bgpp2rcd13ifvqc3g","pricing_plan_id":"cebpf4jnsgd1na2vs0mg"},{"bike_id":"e31e07a6-69c4-4f0a-9471-cd8bfe63b012","system_id":"levelo_inurba_marseille","lat":43.23197,"lon":5.355527,"is_reserved":false,"is_disabled":false,"rental_uris":{"android":"levelo://app?vid=e31e07a6-69c4-4f0a-9471-cd8bfe63b012","ios":"levelo://app?vid=e31e07a6-69c4-4f0a-9471-cd8bfe63b012"},"vehicle_type_id":"4","last_reported":1745766539,"current_range_meters":20400,"station_id":"ce4bhu92rcd13ifvqi70","pricing_plan_id":"cebpf4jnsgd1na2vs0mg"},{"bike_id":"04fcb488-1dd4-4c63-a7e5-530f7eda080b","system_id":"levelo_inurba_marseille","lat":43.29442,"lon":5.39748,"is_reserved":false,"is_disabled":false,"rental_uris":{"android":"levelo://app?vid=04fcb488-1dd4-4c63-a7e5-530f7eda080b","ios":"levelo://app?vid=04fcb488-1dd4-4c63-a7e5-530f7eda080b"},"vehicle_type_id":"4","last_reported":1745766539,"current_range_meters":20000,"station_id":"ce4bh3h2rcd13ifvqdo0","pricing_plan_id":"cebpf4jnsgd1na2vs0mg"},{"bike_id":"f8b251d8-6427-42eb-b92a-13c120835d9b","system_id":"levelo_inurba_marseille","lat":43.29271,"lon":5.36853,"is_reserved":false,"is_disabled":false,"rental_uris":{"android":"levelo://app?vid=f8b251d8-6427-42eb-b92a-13c120835d9b","ios":"levelo://app?vid=f8b251d8-6427-42eb-b92a-13c120835d9b"},"vehicle_type_id":"4","last_reported":1745766539,"current_range_meters":20800,"station_id":"ce4bhbp2rcd13ifvqesg","pricing_plan_id":"cebpf4jnsgd1na2vs0mg"},{"bike_id":"ac30880a-a1a7-4b95-bf6c-63973cd00d71","system_id":"levelo_inurba_marseille","lat":43.29526,"lon":5.3852,"is_reserved":false,"is_disabled":false,"rental_uris":{"android":"levelo://app?vid=ac30880a-a1a7-4b95-bf6c-63973cd00d71","ios":"levelo://app?vid=ac30880a-a1a7-4b95-bf6c-63973cd00d71"},"vehicle_type_id":"4","last_reported":1745766539,"current_range_meters":20800,"station_id":"ce4bgih2rcd13ifvqba0","pricing_plan_id":"cebpf4jnsgd1na2vs0mg"},{"bike_id":"2420ad39-a5b7-4ea3-b775-69cf92e1a47f","system_id":"levelo_inurba_marseille","lat":43.25899,"lon":5.40925,"is_reserved":false,"is_disabled":false,"rental_uris":{"android":"levelo://app?vid=2420ad39-a5b7-4ea3-b775-69cf92e1a47f","ios":"levelo://app?vid=2420ad39-a5b7-4ea3-b775-69cf92e1a47f"},