{"last_updated":1745417424,"ttl":60,"version":"2.2","data":{"bikes":[{"bike_id":"565deb6f-7502-4abe-bbec-9228efda735a","system_id":"levelo_inurba_marseille","lat":43.29017,"lon":5.38635,"is_reserved":false,"is_disabled":false,"rental_uris":{"android":"levelo://app?vid=565deb6f-7502-4abe-bbec-9228efda735a","ios":"levelo://app?vid=565deb6f-7502-4abe-bbec-9228efda735a"},"vehicle_type_id":"4","last_reported":1745417424,"current_range_meters":2800,"station_id":"ce4bh4p2rcd13ifvqe0g","pricing_plan_id":"cebpf4jnsgd1na2vs0mg"},{"bike_id":"f55e462f-3db3-47fc-92e4-121fc7b4f89d","system_id":"levelo_inurba_marseille","lat":43.29611,"lon":5.37412,"is_reserved":false,"is_disabled":false,"rental_uris":{"android":"levelo://app?vid=f55e462f-3db3-47fc-92e4-121fc7b4f89d","ios":"levelo://app?vid=f55e462f-3db3-47fc-92e4-121fc7b4f89d"},"vehicle_type_id":"4","last_reported":1745417424,"current_range_meters":2800,"station_id":"","pricing_plan_id":"cebpf4jnsgd1na2vs0mg"},{"bike_id":"e9bf06d7-6ee4-45bf-9e42-ccee2e2b6709","system_id":"levelo_inurba_marseille","lat":43.24157,"lon":5.36378,"is_reserved":false,"is_disabled":false,"rental_uris":{"android":"levelo://app?vid=e9bf06d7-6ee4-45bf-9e42-ccee2e2b6709","ios":"levelo://app?vid=e9bf06d7-6ee4-45bf-9e42-ccee2e2b6709"},"vehicle_type_id":"4","last_reported":1745417424,"current_range_meters":3200,"station_id":"cpo36qri1sfpv3e86is0","pricing_plan_id":"cebpf4jnsgd1na2vs0mg"},{"bike_id":"149b2fce-1f56-4978-a451-36260f98acfd","system_id":"levelo_inurba_marseille","lat":43.30532,"lon":5.3656,"is_reserved":false,"is_disabled":false,"rental_uris":{"android":"levelo://app?vid=149b2fce-1f56-4978-a451-36260f98acfd","ios":"levelo://app?vid=149b2fce-1f56-4978-a451-36260f98acfd"},"vehicle_type_id":"4","last_reported":1745417424,"current_range_meters":3200,"station_id":"ce4bgs12rcd13ifvqcag","pricing_plan_id":"cebpf4jnsgd1na2vs0mg"},{"bike_id":"322fb907-d562-429a-b282-a9770b46eff1","system_id":"levelo_inurba_marseille","lat":43.29853,"lon":5.36282,"is_reserved":false,"is_disabled":false,"rental_uris":{"android":"levelo://app?vid=322fb907-d562-429a-b282-a9770b46eff1","ios":"levelo://app?vid=322fb907-d562-429a-b282-a9770b46eff1"},"vehicle_type_id":"4","last_reported":1745417424,"current_range_meters":3200,"station_id":"ce4bgpp2rcd13ifvqc3g","pricing_plan_id":"cebpf4jnsgd1na2vs0mg"},{"bike_id":"679e1d98-fca2-455a-9fb9-e7e9d77f4aba","system_id":"levelo_inurba_marseille","lat":43.2621,"lon":5.37448,"is_reserved":false,"is_disabled":false,"rental_uris":{"android":"levelo://app?vid=679e1d98-fca2-455a-9fb9-e7e9d77f4aba","ios":"levelo://app?vid=679e1d98-fca2-455a-9fb9-e7e9d77f4aba"},"vehicle_type_id":"4","last_reported":1745417424,"current_range_meters":3200,"station_id":"ce4bhgp2rcd13ifvqfc0","pricing_plan_id":"cebpf4jnsgd1na2vs0mg"},{"bike_id":"cbd8d7e0-2ea4-4d21-a3e4-16beba8f762a","system_id":"levelo_inurba_marseille","lat":43.23055,"lon":5.35495,"is_reserved":false,"is_disabled":false,"rental_uris":{"android":"levelo://app?vid=cbd8d7e0-2ea4-4d21-a3e4-16beba8f762a","ios":"levelo://app?vid=cbd8d7e0-2ea4-4d21-a3e4-16beba8f762a"},"vehicle_type_id":"4","last_reported":1745417424,"current_range_meters":3200,"station_id":"cpo3342slgdg3j2ifvpg","pricing_plan_id":"cebpf4jnsgd1na2vs0mg"},{"bike_id":"957fa71e-8db8-4a76-a819-d0f2fb1bdf93","system_id":"levelo_inurba_marseille","lat":43.28261,"lon":5.35066,"is_reserved":false,"is_disabled":false,"rental_uris":{"android":"levelo://app?vid=957fa71e-8db8-4a76-a819-d0f2fb1bdf93","ios":"levelo://app?vid=957fa71e-8db8-4a76-a819-d0f2fb1bdf93"},"vehicle_type_id":"4","last_reported":1745417424,"current_range_meters":2800,"station_id":"ce4bhbp2rcd13ifvqerg","pricing_plan_id":"cebpf4jnsgd1na2vs0mg"},{"bike_id":"cac5818e-9e35-46dc-be67-1c0f78258b4f","system_id":"levelo_inurba_marseille","lat":43.28617,"lon":5.35096,"is_reserved":false,"is_disabled":false,"rental_uris":{"android":"levelo://app?vid=cac5818e-9e35-46dc-be67-1c0f78258b4f","ios":"levelo://app?vid=cac5818e-9e35-46dc-be67-1c0f78258b4f"},"vehicle_type_id":"4","last_reported":1745417424,"current_range_meters":3600,"station_id":"ce4bhch2rcd13ifvqeug","pricing_plan_id":"cebpf4jnsgd1na2vs0mg"},{"bike_id":"9fa0e85b-ff6c-4b84-ab24-7ff24d82d972","system_id":"levelo_inurba_marseille","lat":43.2886,"lon":5.35855,"is_reserved":false,"is_disabled":false,"rental_uris":{"android":"levelo://app?vid=9fa0e85b-ff6c-4b84-ab24-7ff24d82d972","ios":"levelo://app?vid=9fa0e85b-ff6c-4b84-ab24-7ff24d82d972"},"vehicle_type_id":"4","last_reported":1745417424,"current_range_meters":400,"station_id":"ce4bhb12rcd13ifvqem0","pricing_plan_id":"cebpf4jnsgd1na2vs0mg"},{"bike_id":"5cb6f01d-eea4-4b80-bb7f-d5f06e45dc3d","system_id":"levelo_inurba_marseille","lat":43.29225,"lon":5.36072,"is_reserved":false,"is_disabled":false,"rental_uris":{"android":"levelo://app?vid=5cb6f01d-eea4-4b80-bb7f-d5f06e45dc3d","ios":"levelo://app?vid=5cb6f01d-eea4-4b80-bb7f-d5f06e45dc3d"},"vehicle_type_id":"4","last_reported":1745417424,"current_range_meters":3600,"station_id":"ce4bhbh2rcd13ifvqeqg","pricing_plan_id":"cebpf4jnsgd1na2vs0mg"},{"bike_id":"35ca16e2-99a8-4cab-87b8-cdc863f8af8a","system_id":"levelo_inurba_marseille","lat":43.24169,"lon":5.36387,"is_reserved":false,"is_disabled":false,"rental_uris":{"android":"levelo://app?vid=35ca16e2-99a8-4cab-87b8-cdc863f8af8a","ios":"levelo://app?vid=35ca16e2-99a8-4cab-87b8-cdc863f8af8a"},"vehicle_type_id":"4","last_reported":1745417424,"current_range_meters":3600,"station_id":"cpo36qri1sfpv3e86is0","pricing_plan_id":"cebpf4jnsgd1na2vs0mg"},{"bike_id":"0aa5bf58-7814-4998-acec-9d0b86579f77","system_id":"levelo_inurba_marseille","lat":43.2826,"lon":5.35079,"is_reserved":false,"is_disabled":false,"rental_uris":{"android":"levelo://app?vid=0aa5bf58-7814-4998-acec-9d0b86579f77","ios":"levelo://app?vid=0aa5bf58-7814-4998-acec-9d0b86579f77"},"vehicle_type_id":"4","last_reported":1745417424,"current_range_meters":3600,"station_id":"ce4bhbp2rcd13ifvqerg","pricing_plan_id":"cebpf4jnsgd1na2vs0mg"},{"bike_id":"34c614d5-1e78-4af9-bbc7-3ebce54fbdb1","system_id":"levelo_inurba_marseille","lat":43.30192,"lon":5.39356,"is_reserved":false,"is_disabled":false,"rental_uris":{"android":"levelo://app?vid=34c614d5-1e78-4af9-bbc7-3ebce54fbdb1","ios":"levelo://app?vid=34c614d5-1e78-4af9-bbc7-3ebce54fbdb1"},"vehicle_type_id":"4","last_reported":1745417424,"current_range_meters":3600,"station_id":"","pricing_plan_id":"cebpf4jnsgd1na2vs0mg"},{"bike_id":"9e524972-bd42-46fd-9282-e6753b46446b","system_id":"levelo_inurba_marseille","lat":43.304334,"lon":5.39744,"is_reserved":false,"is_disabled":false,"rental_uris":{"android":"levelo://app?vid=9e524972-bd42-46fd-9282-e6753b46446b","ios":"levelo://app?vid=9e524972-bd42-46fd-9282-e6753b46446b"},"vehicle_type_id":"4","last_reported":1745417424,"current_range_meters":3200,"station_id":"ce4bh092rcd13ifvqd20","pricing_plan_id":"cebpf4jnsgd1na2vs0mg"},{"bike_id":"b6a102bd-fd6e-4437-9af6-dba02f365db5","system_id":"levelo_inurba_marseille","lat":43.29895,"lon":5.43664,"is_reserved":false,"is_disabled":false,"rental_uris":{"android":"levelo://app?vid=b6a102bd-fd6e-4437-9af6-dba02f365db5","ios":"levelo://app?vid=b6a102bd-fd6e-4437-9af6-dba02f365db5"},"vehicle_type_id":"4","last_reported":1745417424,"current_range_meters":3600,"station_id":"ce4bhpp2rcd13ifvqhfg","pricing_plan_id":"cebpf4jnsgd1na2vs0mg"},{"bike_id":"bbcde0f2-ca33-490f-a00c-088dce4f1edb","system_id":"levelo_inurba_marseille","lat":43.25585,"lon":5.38224,"is_reserved":false,"is_disabled":false,"rental_uris":{"android":"levelo://app?vid=bbcde0f2-ca33-490f-a00c-088dce4f1edb","ios":"levelo://app?vid=bbcde0f2-ca33-490f-a00c-088dce4f1edb"},"vehicle_type_id":"4","last_reported":1745417424,"current_range_meters":4000,"station_id":"ce4bhih2rcd13ifvqfs0","pricing_plan_id":"cebpf4jnsgd1na2vs0mg"},{"bike_id":"202f582b-96ea-468f-af09-eae4ce1e0537","system_id":"levelo_inurba_marseille","lat":43.28409,"lon":5.34992,"is_reserved":false,"is_disabled":false,"rental_uris":{"android":"levelo://app?vid=202f582b-96ea-468f-af09-eae4ce1e0537","ios":"levelo://app?vid=202f582b-96ea-468f-af09-eae4ce1e0537"},"vehicle_type_id":"4","last_reported":1745417424,"current_range_meters":4000,"station_id":"ce4bhbh2rcd13ifvqepg","pricing_plan_id":"cebpf4jnsgd1na2vs0mg"},{"bike_id":"59f3e7ba-d3bb-45f4-b572-1f7df8606159","system_id":"levelo_inurba_marseille","lat":43.28852,"lon":5.39348,"is_reserved":false,"is_disabled":false,"rental_uris":{"android":"levelo://app?vid=59f3e7ba-d3bb-45f4-b572-1f7df8606159","ios":"levelo://app?vid=59f3e7ba-d3bb-45f4-b572-1f7df8606159"},"vehicle_type_id":"4","last_reported":1745417424,"current_range_meters":3600,"station_id":"ce4bh2p2rcd13ifvqdi0","pricing_plan_id":"cebpf4jnsgd1na2vs0mg"},{"bike_id":"c0911f3b-04ba-4d9e-b403-a44b16ce2052","system_id":"levelo_inurba_marseille","lat":43.283478,"lon":5.381011,"is_reserved":false,"is_disabled":false,"rental_uris":{"android":"levelo://app?vid=c0911f3b-04ba-4d9e-b403-a44b16ce2052","ios":"levelo://app?vid=c0911f3b-04ba-4d9e-b403-a44b16ce2052"},"vehicle_type_id":"4","last_reported":1745417424,"current_range_meters":4000,"station_id":"ce4bh412rcd13ifvqdr0","pricing_plan_id":"cebpf4jnsgd1na2vs0mg"},{"bike_id":"0ea092b5-cfcf-4fc0-b210-5a1075e4e2ba","system_id":"levelo_inurba_marseille","lat":43.25109,"lon":5.40319,"is_reserved":false,"is_disabled":false,"rental_uris":{"android":"levelo://app?vid=0ea092b5-cfcf-4fc0-b210-5a1075e4e2ba","ios":"levelo://app?vid=0ea092b5-cfcf-4fc0-b210-5a1075e4e2ba"},"vehicle_type_id":"4","last_reported":1745417424,"current_range_meters":4800,"station_id":"ce4bhlh2rcd13ifvqgig","pricing_plan_id":"cebpf4jnsgd1na2vs0mg"},{"bike_id":"82d8f804-5969-4529-8d66-73219b83f27e","system_id":"levelo_inurba_marseille","lat":43.29196,"lon":5.39318,"is_reserved":false,"is_disabled":false,"rental_uris":{"android":"levelo://app?vid=82d8f804-5969-4529-8d66-73219b83f27e","ios":"levelo://app?vid=82d8f804-5969-4529-8d66-73219b83f27e"},"vehicle_type_id":"4","last_reported":1745417424,"current_range_meters":4000,"station_id":"","pricing_plan_id":"cebpf4jnsgd1na2vs0mg"},{"bike_id":"ceca6199-c8e3-4e9e-ba84-db5659f110fb","system_id":"levelo_inurba_marseille","lat":43.26564,"lon":5.39012,"is_reserved":false,"is_disabled":false,"rental_uris":{"android":"levelo://app?vid=ceca6199-c8e3-4e9e-ba84-db5659f110fb","ios":"levelo://app?vid=ceca6199-c8e3-4e9e-ba84-db5659f110fb"},"vehicle_type_id":"4","last_reported":1745417424,"current_range_meters":4400,"station_id":"ce4bhe12rcd13ifvqf30","pricing_plan_id":"cebpf4jnsgd1na2vs0mg"},{"bike_id":"acb1bd87-e484-456c-b985-a5b8c7de20e7","system_id":"levelo_inurba_marseille","lat":43.23181,"lon":5.39983,"is_reserved":false,"is_disabled":false,"rental_uris":{"android":"levelo://app?vid=acb1bd87-e484-456c-b985-a5b8c7de20e7","ios":"levelo://app?vid=acb1bd87-e484-456c-b985-a5b8c7de20e7"},"vehicle_type_id":"4","last_reported":1745417424,"current_range_meters":4400,"station_id":"ce4bhn12rcd13ifvqgqg","pricing_plan_id":"cebpf4jnsgd1na2vs0mg"},{"bike_id":"d69b4840-a48c-46aa-8de4-1073f19f4178","system_id":"levelo_inurba_marseille","lat":43.28269,"lon":5.35071,"is_reserved":false,"is_disabled":true,"rental_uris":{"android":"levelo://app?vid=d69b4840-a48c-46aa-8de4-1073f19f4178","ios":"levelo://app?vid=d69b4840-a48c-46aa-8de4-1073f19f4178"},"vehicle_type_id":"4","last_reported":1745417424,"current_range_meters":4400,"station_id":"ce4bhbp2rcd13ifvqerg","pricing_plan_id":"cebpf4jnsgd1na2vs0mg"},{"bike_id":"15441116-b26b-425e-95df-fcfeef3e72e0","system_id":"levelo_inurba_marseille","lat":43.295532,"lon":5.422995,"is_reserved":false,"is_disabled":false,"rental_uris":{"android":"levelo://app?vid=15441116-b26b-425e-95df-fcfeef3e72e0","ios":"levelo://app?vid=15441116-b26b-425e-95df-fcfeef3e72e0"},"vehicle_type_id":"4","last_reported":1745417424,"current_range_meters":4400,"station_id":"ce4bhph2rcd13ifvqhdg","pricing_plan_id":"cebpf4jnsgd1na2vs0mg"},{"bike_id":"86e1ab91-cb7c-4eb7-9e48-f28b11666460","system_id":"levelo_inurba_marseille","lat":43.29576,"lon":5.36735,"is_reserved":false,"is_disabled":false,"rental_uris":{"android":"levelo://app?vid=86e1ab91-cb7c-4eb7-9e48-f28b11666460","ios":"levelo://app?vid=86e1ab91-cb7c-4eb7-9e48-f28b11666460"},"vehicle_type_id":"4","last_reported":1745417424,"current_range_meters":4400,"station_id":"ce4bgph2rcd13ifvqc2g","pricing_plan_id":"cebpf4jnsgd1na2vs0mg"},{"bike_id":"cfd67097-9585-44c1-9689-43253389b5ae","system_id":"levelo_inurba_marseille","lat":43.29873,"lon":5.36288,"is_reserved":false,"is_disabled":false,"rental_uris":{"android":"levelo://app?vid=cfd67097-9585-44c1-9689-43253389b5ae","ios":"levelo://app?vid=cfd67097-9585-44c1-9689-43253389b5ae"},"vehicle_type_id":"4","last_reported":1745417424,"current_range_meters":4400,"station_id":"ce4bgpp2rcd13ifvqc3g","pricing_plan_id":"cebpf4jnsgd1na2vs0mg"},{"bike_id":"72d02f1c-5e2a-4671-81c4-0888d0b52a97","system_id":"levelo_inurba_marseille","lat":43.25579,"lon":5.38228,"is_reserved":false,"is_disabled":false,"rental_uris":{"android":"levelo://app?vid=72d02f1c-5e2a-4671-81c4-0888d0b52a97","ios":"levelo://app?vid=72d02f1c-5e2a-4671-81c4-0888d0b52a97"},"vehicle_type_id":"4","last_reported":1745417424,"current_range_meters":4800,"station_id":"ce4bhih2rcd13ifvqfs0","pricing_plan_id":"cebpf4jnsgd1na2vs0mg"},{"bike_id":"1f1cd737-6eae-43dc-8024-1a01dfa6f0c3","system_id":"levelo_inurba_marseille","lat":43.27829,"lon":5.3921,"is_reserved":false,"is_disabled":false,"rental_uris":{"android":"levelo://app?vid=1f1cd737-6eae-43dc-8024-1a01dfa6f0c3","ios":"levelo://app?vid=1f1cd737-6eae-43dc-8024-1a01dfa6f0c3"},"vehicle_type_id":"4","last_reported":1745417424,"current_range_meters":4800,"station_id":"ce4bhjp2rcd13ifvqga0","pricing_plan_id":"cebpf4jnsgd1na2vs0mg"},{"bike_id":"a2d2eaa1-b8a5-4719-8e0c-1b901fc45dde","system_id":"levelo_inurba_marseille","lat":43.26209,"lon":5.37927,"is_reserved":false,"is_disabled":false,"rental_uris":{"android":"levelo://app?vid=a2d2eaa1-b8a5-4719-8e0c-1b901fc45dde","ios":"levelo://app?vid=a2d2eaa1-b8a5-4719-8e0c-1b901fc45dde"},"vehicle_type_id":"4","last_reported":1745417424,"current_range_meters":4800,"station_id":"ce4bhjp2rcd13ifvqg90","pricing_plan_id":"cebpf4jnsgd1na2vs0mg"},{"bike_id":"43e06f72-236d-409f-8be0-fb578e7f14fc","system_id":"levelo_inurba_marseille","lat":43.30645,"lon":5.40091,"is_reserved":false,"is_disabled":false,"rental_uris":{"android":"levelo://app?vid=43e06f72-236d-409f-8be0-fb578e7f14fc","ios":"levelo://app?vid=43e06f72-236d-409f-8be0-fb578e7f14fc"},"vehicle_type_id":"4","last_reported":1745417424,"current_range_meters":4400,"station_id":"ce4bho92rcd13ifvqh3g","pricing_plan_id":"cebpf4jnsgd1na2vs0mg"},{"bike_id":"86ef9aa8-53f4-42af-aea5-9384b33dac8b","system_id":"levelo_inurba_marseille","lat":43.23146,"lon":5.4372,"is_reserved":false,"is_disabled":false,"rental_uris":{"android":"levelo://app?vid=86ef9aa8-53f4-42af-aea5-9384b33dac8b","ios":"levelo://app?vid=86ef9aa8-53f4-42af-aea5-9384b33dac8b"},"vehicle_type_id":"4","last_reported":1745417424,"current_range_meters":4800,"station_id":"ce4bhmp2rcd13ifvqgog","pricing_plan_id":"cebpf4jnsgd1na2vs0mg"},{"bike_id":"154f2ad5-4e5a-42e7-9f6c-79e83e84ef53","system_id":"levelo_inurba_marseille","lat":43.28604,"lon":5.35099,"is_reserved":false,"is_disabled":false,"rental_uris":{"android":"levelo://app?vid=154f2ad5-4e5a-42e7-9f6c-79e83e84ef53","ios":"levelo://app?vid=154f2ad5-4e5a-42e7-9f6c-79e83e84ef53"},"vehicle_type_id":"4","last_reported":1745417424,"current_range_meters":4800,"station_id":"ce4bhch2rcd13ifvqeug","pricing_plan_id":"cebpf4jnsgd1na2vs0mg"},{"bike_id":"dfc84df2-6e62-47d5-a8b6-2af656a1a07e","system_id":"levelo_inurba_marseille","lat":43.31689,"lon":5.40465,"is_reserved":false,"is_disabled":false,"rental_uris":{"android":"levelo://app?vid=dfc84df2-6e62-47d5-a8b6-2af656a1a07e","ios":"levelo://app?vid=dfc84df2-6e62-47d5-a8b6-2af656a1a07e"},"vehicle_type_id":"4","last_reported":1745417424,"current_range_meters":5600,"station_id":"ce4bh012rcd13ifvqd00","pricing_plan_id":"cebpf4jnsgd1na2vs0mg"},{"bike_id":"4058dd94-1e03-4d3d-be78-a04dc77b88f2","system_id":"levelo_inurba_marseille","lat":43.29931,"lon":5.36551,"is_reserved":false,"is_disabled":false,"rental_uris":{"android":"levelo://app?vid=4058dd94-1e03-4d3d-be78-a04dc77b88f2","ios":"levelo://app?vid=4058dd94-1e03-4d3d-be78-a04dc77b88f2"},"vehicle_type_id":"4","last_reported":1745417424,"current_range_meters":6000,"station_id":"ce4bgm92rcd13ifvqbr0","pricing_plan_id":"cebpf4jnsgd1na2vs0mg"},{"bike_id":"990b4c60-3018-45ad-be60-f87ac9b9cf68","system_id":"levelo_inurba_marseille","lat":43.26547,"lon":5.37289,"is_reserved":false,"is_disabled":false,"rental_uris":{"android":"levelo://app?vid=990b4c60-3018-45ad-be60-f87ac9b9cf68","ios":"levelo://app?vid=990b4c60-3018-45ad-be60-f87ac9b9cf68"},"vehicle_type_id":"4","last_reported":1745417424,"current_range_meters":6000,"station_id":"ce4bhg12rcd13ifvqf70","pricing_plan_id":"cebpf4jnsgd1na2vs0mg"},{"bike_id":"a97bb07f-780a-48cf-8dcb-dcd129c55b08","system_id":"levelo_inurba_marseille","lat":43.28422,"lon":5.3497,"is_reserved":false,"is_disabled":false,"rental_uris":{"android":"levelo://app?vid=a97bb07f-780a-48cf-8dcb-dcd129c55b08","ios":"levelo://app?vid=a97bb07f-780a-48cf-8dcb-dcd129c55b08"},"vehicle_type_id":"4","last_reported":1745417424,"current_range_meters":6000,"station_id":"ce4bhbh2rcd13ifvqepg","pricing_plan_id":"cebpf4jnsgd1na2vs0mg"},{"bike_id":"1c669c54-8354-4f7d-8129-5a8fa96536a9","system_id":"levelo_inurba_marseille","lat":43.25864,"lon":5.39895,"is_reserved":false,"is_disabled":false,"rental_uris":{"android":"levelo://app?vid=1c669c54-8354-4f7d-8129-5a8fa96536a9","ios":"levelo://app?vid=1c669c54-8354-4f7d-8129-5a8fa96536a9"},"vehicle_type_id":"4","last_reported":1745417424,"current_range_meters":6000,"station_id":"ce4bhl92rcd13ifvqghg","pricing_plan_id":"cebpf4jnsgd1na2vs0mg"},{"bike_id":"6c688826-92e2-47e5-8732-9437547bdd7c","system_id":"levelo_inurba_marseille","lat":43.28696,"lon":5.37384,"is_reserved":false,"is_disabled":false,"rental_uris":{"android":"levelo://app?vid=6c688826-92e2-47e5-8732-9437547bdd7c","ios":"levelo://app?vid=6c688826-92e2-47e5-8732-9437547bdd7c"},"vehicle_type_id":"4","last_reported":1745417424,"current_range_meters":6000,"station_id":"ce4bh3p2rcd13ifvqdq0","pricing_plan_id":"cebpf4jnsgd1na2vs0mg"},{"bike_id":"afdc8634-67a0-4955-a5b4-a8d5d4cae8e4","system_id":"levelo_inurba_marseille","lat":43.26553,"lon":5.37288,"is_reserved":false,"is_disabled":false,"rental_uris":{"android":"levelo://app?vid=afdc8634-67a0-4955-a5b4-a8d5d4cae8e4","ios":"levelo://app?vid=afdc8634-67a0-4955-a5b4-a8d5d4cae8e4"},"vehicle_type_id":"4","last_reported":1745417424,"current_range_meters":6400,"station_id":"ce4bhg12rcd13ifvqf70","pricing_plan_id":"cebpf4jnsgd1na2vs0mg"},{"bike_id":"c6d0f491-f948-4932-bedb-ee8b2eb5e1cf","system_id":"levelo_inurba_marseille","lat":43.29026,"lon":5.38637,"is_reserved":false,"is_disabled":false,"rental_uris":{"android":"levelo://app?vid=c6d0f491-f948-4932-bedb-ee8b2eb5e1cf","ios":"levelo://app?vid=c6d0f491-f948-4932-bedb-ee8b2eb5e1cf"},"vehicle_type_id":"4","last_reported":1745417424,"current_range_meters":6400,"station_id":"ce4bh4p2rcd13ifvqe0g","pricing_plan_id":"cebpf4jnsgd1na2vs0mg"},{"bike_id":"7587c2e2-5948-4238-9dbe-81c75eb7e987","system_id":"levelo_inurba_marseille","lat":43.26786,"lon":5.3941,"is_reserved":false,"is_disabled":false,"rental_uris":{"android":"levelo://app?vid=7587c2e2-5948-4238-9dbe-81c75eb7e987","ios":"levelo://app?vid=7587c2e2-5948-4238-9dbe-81c75eb7e987"},"vehicle_type_id":"4","last_reported":1745417424,"current_range_meters":6400,"station_id":"ce4bhh12rcd13ifvqfg0","pricing_plan_id":"cebpf4jnsgd1na2vs0mg"},{"bike_id":"53e76e69-542e-498c-be3c-54ee74e28889","system_id":"levelo_inurba_marseille","lat":43.2971,"lon":5.36615,"is_reserved":false,"is_disabled":true,"rental_uris":{"android":"levelo://app?vid=53e76e69-542e-498c-be3c-54ee74e28889","ios":"levelo://app?vid=53e76e69-542e-498c-be3c-54ee74e28889"},"vehicle_type_id":"4","last_reported":1745417424,"current_range_meters":6400,"station_id":"ce4bgn12rcd13ifvqbt0","pricing_plan_id":"cebpf4jnsgd1na2vs0mg"},{"bike_id":"04cb011b-cb60-4711-9c6a-23a90dcf62c6","system_id":"levelo_inurba_marseille","lat":43.24392,"lon":5.37031,"is_reserved":false,"is_disabled":false,"rental_uris":{"android":"levelo://app?vid=04cb011b-cb60-4711-9c6a-23a90dcf62c6","ios":"levelo://app?vid=04cb011b-cb60-4711-9c6a-23a90dcf62c6"},"vehicle_type_id":"4","last_reported":1745417424,"current_range_meters":6800,"station_id":"ce4bhhh2rcd13ifvqfk0","pricing_plan_id":"cebpf4jnsgd1na2vs0mg"},{"bike_id":"2f5509d5-fffd-455c-a6d9-db369b09d458","system_id":"levelo_inurba_marseille","lat":43.297359,"lon":5.369227,"is_reserved":false,"is_disabled":false,"rental_uris":{"android":"levelo://app?vid=2f5509d5-fffd-455c-a6d9-db369b09d458","ios":"levelo://app?vid=2f5509d5-fffd-455c-a6d9-db369b09d458"},"vehicle_type_id":"4","last_reported":1745417424,"current_range_meters":6800,"station_id":"ce4bgn12rcd13ifvqbt0","pricing_plan_id":"cebpf4jnsgd1na2vs0mg"},{"bike_id":"8d2789be-d356-436f-bee5-111c80e6604e","system_id":"levelo_inurba_marseille","lat":43.24168,"lon":5.36388,"is_reserved":false,"is_disabled":false,"rental_uris":{"android":"levelo://app?vid=8d2789be-d356-436f-bee5-111c80e6604e","ios":"levelo://app?vid=8d2789be-d356-436f-bee5-111c80e6604e"},"vehicle_type_id":"4","last_reported":1745417424,"current_range_meters":6800,"station_id":"cpo36qri1sfpv3e86is0","pricing_plan_id":"cebpf4jnsgd1na2vs0mg"},{"bike_id":"6f722c4a-3212-47c4-acd6-a449725f08bc","system_id":"levelo_inurba_marseille","lat":43.298451,"lon":5.362769,"is_reserved":false,"is_disabled":false,"rental_uris":{"android":"levelo://app?vid=6f722c4a-3212-47c4-acd6-a449725f08bc","ios":"levelo://app?vid=6f722c4a-3212-47c4-acd6-a449725f08bc"},"vehicle_type_id":"4","last_reported":1745417424,"current_range_meters":6800,"station_id":"ce4bgpp2rcd13ifvqc3g","pricing_plan_id":"cebpf4jnsgd1na2vs0mg"},{"bike_id":"c94e26c1-7575-4802-86ec-0bd6f82482cc","system_id":"levelo_inurba_marseille","lat":43.28622,"lon":5.37079,"is_reserved":false,"is_disabled":false,"rental_uris":{"android":"levelo://app?vid=c94e26c1-7575-4802-86ec-0bd6f82482cc","ios":"levelo://app?vid=c94e26c1-7575-4802-86ec-0bd6f82482cc"},"vehicle_type_id":"4","last_reported":1745417424,"current_range_meters":7200,"station_id":"ce4bht12rcd13ifvqi60","pricing_plan_id":"cebpf4jnsgd1na2vs0mg"},{"bike_id":"79ffea3f-960f-40bf-bf54-3b4ac427e309","system_id":"levelo_inurba_marseille","lat":43.245443,"lon":5.395268,"is_reserved":false,"is_disabled":false,"rental_uris":{"android":"levelo://app?vid=79ffea3f-960f-40bf-bf54-3b4ac427e309","ios":"levelo://app?vid=79ffea3f-960f-40bf-bf54-3b4ac427e309"},"vehicle_type_id":"4","last_reported":1745417424,"current_range_meters":7200,"station_id":"ce4bhlp2rcd13ifvqgjg","pricing_plan_id":"cebpf4jnsgd1na2vs0mg"},{"bike_id":"5df5ff52-3ef6-4346-8698-d7f4cdb19443","system_id":"levelo_inurba_marseille","lat":43.29873,"lon":5.397208,"is_reserved":false,"is_disabled":false,"rental_uris":{"android":"levelo://app?vid=5df5ff52-3ef6-4346-8698-d7f4cdb19443","ios":"levelo://app?vid=5df5ff52-3ef6-4346-8698-d7f4cdb19443"},"vehicle_type_id":"4","last_reported":1745417424,"current_range_meters":10800,"station_id":"ce4bh0h2rcd13ifvqd50","pricing_plan_id":"cebpf4jnsgd1na2vs0mg"},{"bike_id":"b9f1cd0f-1572-499d-829d-feba804260c1","system_id":"levelo_inurba_marseille","lat":43.30376,"lon":5.42487,"is_reserved":false,"is_disabled":false,"rental_uris":{"android":"levelo://app?vid=b9f1cd0f-1572-499d-829d-feba804260c1","ios":"levelo://app?vid=b9f1cd0f-1572-499d-829d-feba804260c1"},"vehicle_type_id":"4","last_reported":1745417424,"current_range_meters":7200,"station_id":"ce4bhoh2rcd13ifvqh6g","pricing_plan_id":"cebpf4jnsgd1na2vs0mg"},{"bike_id":"8d3d203c-c49c-4deb-a007-2f93fb4b57dd","system_id":"levelo_inurba_marseille","lat":43.299,"lon":5.43666,"is_reserved":false,"is_disabled":false,"rental_uris":{"android":"levelo://app?vid=8d3d203c-c49c-4deb-a007-2f93fb4b57dd","ios":"levelo://app?vid=8d3d203c-c49c-4deb-a007-2f93fb4b57dd"},"vehicle_type_id":"4","last_reported":1745417424,"current_range_meters":7200,"station_id":"ce4bhpp2rcd13ifvqhfg","pricing_plan_id":"cebpf4jnsgd1na2vs0mg"},{"bike_id":"ca2cc504-b4fb-4074-a8d0-74959471610d","system_id":"levelo_inurba_marseille","lat":43.32485,"lon":5.36564,"is_reserved":false,"is_disabled":false,"rental_uris":{"android":"levelo://app?vid=ca2cc504-b4fb-4074-a8d0-74959471610d","ios":"levelo://app?vid=ca2cc504-b4fb-4074-a8d0-74959471610d"},"vehicle_type_id":"4","last_reported":1745417424,"current_range_meters":7200,"station_id":"ce4bhs12rcd13ifvqhvg","pricing_plan_id":"cebpf4jnsgd1na2vs0mg"},{"bike_id":"51acf6c4-373e-4e95-95a1-cc88813eeeef","system_id":"levelo_inurba_marseille","lat":43.27356,"lon":5.36248,"is_reserved":false,"is_disabled":false,"rental_uris":{"android":"levelo://app?vid=51acf6c4-373e-4e95-95a1-cc88813eeeef","ios":"levelo://app?vid=51acf6c4-373e-4e95-95a1-cc88813eeeef"},"vehicle_type_id":"4","last_reported":1745417424,"current_range_meters":7200,"station_id":"ce4bhbh2rcd13ifvqeo0","pricing_plan_id":"cebpf4jnsgd1na2vs0mg"},{"bike_id":"49f26039-908e-49e8-bafd-d0e1f8c74636","system_id":"levelo_inurba_marseille","lat":43.29673,"lon":5.37931,"is_reserved":false,"is_disabled":false,"rental_uris":{"android":"levelo://app?vid=49f26039-908e-49e8-bafd-d0e1f8c74636","ios":"levelo://app?vid=49f26039-908e-49e8-bafd-d0e1f8c74636"},"vehicle_type_id":"4","last_reported":1745417424,"current_range_meters":7200,"station_id":"","pricing_plan_id":"cebpf4jnsgd1na2vs0mg"},{"bike_id":"e88ac0aa-172e-418f-9134-2e3c247b5863","system_id":"levelo_inurba_marseille","lat":43.23972,"lon":5.36639,"is_reserved":false,"is_disabled":false,"rental_uris":{"android":"levelo://app?vid=e88ac0aa-172e-418f-9134-2e3c247b5863","ios":"levelo://app?vid=e88ac0aa-172e-418f-9134-2e3c247b5863"},"vehicle_type_id":"4","last_reported":1745417424,"current_range_meters":8000,"station_id":"ce4bhi12rcd13ifvqfp0","pricing_plan_id":"cebpf4jnsgd1na2vs0mg"},{"bike_id":"8c2f9e89-2fca-4fe9-8a6c-853b8e4fbff2","system_id":"levelo_inurba_marseille","lat":43.26192,"lon":5.37936,"is_reserved":false,"is_disabled":false,"rental_uris":{"android":"levelo://app?vid=8c2f9e89-2fca-4fe9-8a6c-853b8e4fbff2","ios":"levelo://app?vid=8c2f9e89-2fca-4fe9-8a6c-853b8e4fbff2"},"vehicle_type_id":"4","last_reported":1745417424,"current_range_meters":7200,"station_id":"ce4bhjp2rcd13ifvqg90","pricing_plan_id":"cebpf4jnsgd1na2vs0mg"},{"bike_id":"610a3e5d-c19b-422c-8dcf-c5eb1d7b082b","system_id":"levelo_inurba_marseille","lat":43.28408,"lon":5.37508,"is_reserved":false,"is_disabled":false,"rental_uris":{"android":"levelo://app?vid=610a3e5d-c19b-422c-8dcf-c5eb1d7b082b","ios":"levelo://app?vid=610a3e5d-c19b-422c-8dcf-c5eb1d7b082b"},"vehicle_type_id":"4","last_reported":1745417424,"current_range_meters":8000,"station_id":"ce4bh412rcd13ifvqds0","pricing_plan_id":"cebpf4jnsgd1na2vs0mg"},{"bike_id":"48230dd0-b8d0-41ca-a291-11036dfe3bb2","system_id":"levelo_inurba_marseille","lat":43.31706,"lon":5.40453,"is_reserved":false,"is_disabled":false,"rental_uris":{"android":"levelo://app?vid=48230dd0-b8d0-41ca-a291-11036dfe3bb2","ios":"levelo://app?vid=48230dd0-b8d0-41ca-a291-11036dfe3bb2"},"vehicle_type_id":"4","last_reported":1745417424,"current_range_meters":8000,"station_id":"ce4bh012rcd13ifvqd00","pricing_plan_id":"cebpf4jnsgd1na2vs0mg"},{"bike_id":"203edac6-808a-418e-a924-a5a89c94880e","system_id":"levelo_inurba_marseille","lat":43.28134,"lon":5.378632,"is_reserved":false,"is_disabled":false,"rental_uris":{"android":"levelo://app?vid=203edac6-808a-418e-a924-a5a89c94880e","ios":"levelo://app?vid=203edac6-808a-418e-a924-a5a89c94880e"},"vehicle_type_id":"4","last_reported":1745417424,"current_range_meters":8400,"station_id":"ce4bha12rcd13ifvqee0","pricing_plan_id":"cebpf4jnsgd1na2vs0mg"},{"bike_id":"395fa63e-79f4-4653-ba80-6d81ec907af6","system_id":"levelo_inurba_marseille","lat":43.2804,"lon":5.36941,"is_reserved":false,"is_disabled":false,"rental_uris":{"android":"levelo://app?vid=395fa63e-79f4-4653-ba80-6d81ec907af6","ios":"levelo://app?vid=395fa63e-79f4-4653-ba80-6d81ec907af6"},"vehicle_type_id":"4","last_reported":1745417424,"current_range_meters":8400,"station_id":"ce4bha12rcd13ifvqef0","pricing_plan_id":"cebpf4jnsgd1na2vs0mg"},{"bike_id":"de00bd23-31d7-47c3-9c50-49bc1b0baf60","system_id":"levelo_inurba_marseille","lat":43.29851,"lon":5.36284,"is_reserved":false,"is_disabled":false,"rental_uris":{"android":"levelo://app?vid=de00bd23-31d7-47c3-9c50-49bc1b0baf60","ios":"levelo://app?vid=de00bd23-31d7-47c3-9c50-49bc1b0baf60"},"vehicle_type_id":"4","last_reported":1745417424,"current_range_meters":8400,"station_id":"ce4bgpp2rcd13ifvqc3g","pricing_plan_id":"cebpf4jnsgd1na2vs0mg"},{"bike_id":"b0adf757-07de-4737-b77c-af15182024d8","system_id":"levelo_inurba_marseille","lat":43.24167,"lon":5.39726,"is_reserved":false,"is_disabled":false,"rental_uris":{"android":"levelo://app?vid=b0adf757-07de-4737-b77c-af15182024d8","ios":"levelo://app?vid=b0adf757-07de-4737-b77c-af15182024d8"},"vehicle_type_id":"4","last_reported":1745417424,"current_range_meters":8400,"station_id":"ce4bhn12rcd13ifvqgpg","pricing_plan_id":"cebpf4jnsgd1na2vs0mg"},{"bike_id":"45bc5ac5-411a-446e-8f36-60b9c5b5278b","system_id":"levelo_inurba_marseille","lat":43.2315,"lon":5.43716,"is_reserved":false,"is_disabled":false,"rental_uris":{"android":"levelo://app?vid=45bc5ac5-411a-446e-8f36-60b9c5b5278b","ios":"levelo://app?vid=45bc5ac5-411a-446e-8f36-60b9c5b5278b"},"vehicle_type_id":"4","last_reported":1745417424,"current_range_meters":8400,"station_id":"ce4bhmp2rcd13ifvqgog","pricing_plan_id":"cebpf4jnsgd1na2vs0mg"},{"bike_id":"b5f1a7bc-8cf0-4e16-871f-0f72536309f6","system_id":"levelo_inurba_marseille","lat":43.26789,"lon":5.39411,"is_reserved":false,"is_disabled":false,"rental_uris":{"android":"levelo://app?vid=b5f1a7bc-8cf0-4e16-871f-0f72536309f6","ios":"levelo://app?vid=b5f1a7bc-8cf0-4e16-871f-0f72536309f6"},"vehicle_type_id":"4","last_reported":1745417424,"current_range_meters":8400,"station_id":"ce4bhh12rcd13ifvqfg0","pricing_plan_id":"cebpf4jnsgd1na2vs0mg"},{"bike_id":"1b18c42e-a58f-4366-be3f-280b31d3078c","system_id":"levelo_inurba_marseille","lat":43.28288,"lon":5.35078,"is_reserved":false,"is_disabled":false,"rental_uris":{"android":"levelo://app?vid=1b18c42e-a58f-4366-be3f-280b31d3078c","ios":"levelo://app?vid=1b18c42e-a58f-4366-be3f-280b31d3078c"},"vehicle_type_id":"4","last_reported":1745417424,"current_range_meters":8400,"station_id":"ce4bhbp2rcd13ifvqerg","pricing_plan_id":"cebpf4jnsgd1na2vs0mg"},{"bike_id":"23c77b6c-8616-4ef9-8a1b-ab33345c619c","system_id":"levelo_inurba_marseille","lat":43.2845,"lon":5.35899,"is_reserved":false,"is_disabled":false,"rental_uris":{"android":"levelo://app?vid=23c77b6c-8616-4ef9-8a1b-ab33345c619c","ios":"levelo://app?vid=23c77b6c-8616-4ef9-8a1b-ab33345c619c"},"vehicle_type_id":"4","last_reported":1745417424,"current_range_meters":8400,"station_id":"ce4bhah2rcd13ifvqei0","pricing_plan_id":"cebpf4jnsgd1na2vs0mg"},{"bike_id":"da001b00-712e-45e3-ad10-7695441bb299","system_id":"levelo_inurba_marseille","lat":43.24543,"lon":5.39538,"is_reserved":false,"is_disabled":false,"rental_uris":{"android":"levelo://app?vid=da001b00-712e-45e3-ad10-7695441bb299","ios":"levelo://app?vid=da001b00-712e-45e3-ad10-7695441bb299"},"vehicle_type_id":"4","last_reported":1745417424,"current_range_meters":8400,"station_id":"ce4bhlp2rcd13ifvqgjg","pricing_plan_id":"cebpf4jnsgd1na2vs0mg"},{"bike_id":"db890755-7b93-4479-9191-7809827a1c23","system_id":"levelo_inurba_marseille","lat":43.30912,"lon":5.36844,"is_reserved":false,"is_disabled":false,"rental_uris":{"android":"levelo://app?vid=db890755-7b93-4479-9191-7809827a1c23","ios":"levelo://app?vid=db890755-7b93-4479-9191-7809827a1c23"},"vehicle_type_id":"4","last_reported":1745417424,"current_range_meters":8800,"station_id":"ce4bgn92rcd13ifvqbvg","pricing_plan_id":"cebpf4jnsgd1na2vs0mg"},{"bike_id":"9d7cd68a-0b0d-4018-85fc-05b542aed804","system_id":"levelo_inurba_marseille","lat":43.31168,"lon":5.36844,"is_reserved":false,"is_disabled":false,"rental_uris":{"android":"levelo://app?vid=9d7cd68a-0b0d-4018-85fc-05b542aed804","ios":"levelo://app?vid=9d7cd68a-0b0d-4018-85fc-05b542aed804"},"vehicle_type_id":"4","last_reported":1745417424,"current_range_meters":8800,"station_id":"","pricing_plan_id":"cebpf4jnsgd1na2vs0mg"},{"bike_id":"ad890711-96af-460f-889b-baab1672ec45","system_id":"levelo_inurba_marseille","lat":43.27372,"lon":5.3625,"is_reserved":false,"is_disabled":false,"rental_uris":{"android":"levelo://app?vid=ad890711-96af-460f-889b-baab1672ec45","ios":"levelo://app?vid=ad890711-96af-460f-889b-baab1672ec45"},"vehicle_type_id":"4","last_reported":1745417424,"current_range_meters":8800,"station_id":"ce4bhbh2rcd13ifvqeo0","pricing_plan_id":"cebpf4jnsgd1na2vs0mg"},{"bike_id":"ac0ee0da-d15f-4518-8e4f-b1e83f133487","system_id":"levelo_inurba_marseille","lat":43.28614,"lon":5.35101,"is_reserved":false,"is_disabled":false,"rental_uris":{"android":"levelo://app?vid=ac0ee0da-d15f-4518-8e4f-b1e83f133487","ios":"levelo://app?vid=ac0ee0da-d15f-4518-8e4f-b1e83f133487"},"vehicle_type_id":"4","last_reported":1745417424,"current_range_meters":8800,"station_id":"ce4bhch2rcd13ifvqeug","pricing_plan_id":"cebpf4jnsgd1na2vs0mg"},{"bike_id":"47bc677a-6b26-4ad2-9242-cec39b070081","system_id":"levelo_inurba_marseille","lat":43.29966,"lon":5.36356,"is_reserved":false,"is_disabled":false,"rental_uris":{"android":"levelo://app?vid=47bc677a-6b26-4ad2-9242-cec39b070081","ios":"levelo://app?vid=47bc677a-6b26-4ad2-9242-cec39b070081"},"vehicle_type_id":"4","last_reported":1745417424,"current_range_meters":8800,"station_id":"","pricing_plan_id":"cebpf4jnsgd1na2vs0mg"},{"bike_id":"ee91e548-1632-45f8-b13b-70f572bb9bfc","system_id":"levelo_inurba_marseille","lat":43.28955,"lon":5.36387,"is_reserved":false,"is_disabled":false,"rental_uris":{"android":"levelo://app?vid=ee91e548-1632-45f8-b13b-70f572bb9bfc","ios":"levelo://app?vid=ee91e548-1632-45f8-b13b-70f572bb9bfc"},"vehicle_type_id":"4","last_reported":1745417424,"current_range_meters":8800,"station_id":"ce4bhc92rcd13ifvqetg","pricing_plan_id":"cebpf4jnsgd1na2vs0mg"},{"bike_id":"da194f9d-1acc-4cac-84ac-607303ebb968","system_id":"levelo_inurba_marseille","lat":43.23185,"lon":5.35542,"is_reserved":false,"is_disabled":false,"rental_uris":{"android":"levelo://app?vid=da194f9d-1acc-4cac-84ac-607303ebb968","ios":"levelo://app?vid=da194f9d-1acc-4cac-84ac-607303ebb968"},"vehicle_type_id":"4","last_reported":1745417424,"current_range_meters":9200,"station_id":"ce4bhu92rcd13ifvqi70","pricing_plan_id":"cebpf4jnsgd1na2vs0mg"},{"bike_id":"49c0f902-eac7-4a79-adf0-d142aff51e11","system_id":"levelo_inurba_marseille","lat":43.241675,"lon":5.363959,"is_reserved":false,"is_disabled":false,"rental_uris":{"android":"levelo://app?vid=49c0f902-eac7-4a79-adf0-d142aff51e11","ios":"levelo://app?vid=49c0f902-eac7-4a79-adf0-d142aff51e11"},"vehicle_type_id":"4","last_reported":1745417424,"current_range_meters":9200,"station_id":"cpo36qri1sfpv3e86is0","pricing_plan_id":"cebpf4jnsgd1na2vs0mg"},{"bike_id":"5717a1c7-e151-4553-b844-e9fc249a74bf","system_id":"levelo_inurba_marseille","lat":43.28418,"lon":5.34984,"is_reserved":false,"is_disabled":false,"rental_uris":{"android":"levelo://app?vid=5717a1c7-e151-4553-b844-e9fc249a74bf","ios":"levelo://app?vid=5717a1c7-e151-4553-b844-e9fc249a74bf"},"vehicle_type_id":"4","last_reported":1745417424,"current_range_meters":9200,"station_id":"ce4bhbh2rcd13ifvqepg","pricing_plan_id":"cebpf4jnsgd1na2vs0mg"},{"bike_id":"7d7c18c3-1ea2-4e11-9fa4-78c666046a95","system_id":"levelo_inurba_marseille","lat":43.29028,"lon":5.38643,"is_reserved":false,"is_disabled":false,"rental_uris":{"android":"levelo://app?vid=7d7c18c3-1ea2-4e11-9fa4-78c666046a95","ios":"levelo://app?vid=7d7c18c3-1ea2-4e11-9fa4-78c666046a95"},"vehicle_type_id":"4","last_reported":1745417424,"current_range_meters":9600,"station_id":"ce4bh4p2rcd13ifvqe0g","pricing_plan_id":"cebpf4jnsgd1na2vs0mg"},{"bike_id":"d3410bea-f4a7-4479-99a3-7256a1fb9103","system_id":"levelo_inurba_marseille","lat":43.27377,"lon":5.36257,"is_reserved":false,"is_disabled":false,"rental_uris":{"android":"levelo://app?vid=d3410bea-f4a7-4479-99a3-7256a1fb9103","ios":"levelo://app?vid=d3410bea-f4a7-4479-99a3-7256a1fb9103"},"vehicle_type_id":"4","last_reported":1745417424,"current_range_meters":9600,"station_id":"ce4bhbh2rcd13ifvqeo0","pricing_plan_id":"cebpf4jnsgd1na2vs0mg"},{"bike_id":"d6eab50f-20c4-4a2d-ae1d-77fdec44a426","system_id":"levelo_inurba_marseille","lat":43.23147,"lon":5.43722,"is_reserved":false,"is_disabled":false,"rental_uris":{"android":"levelo://app?vid=d6eab50f-20c4-4a2d-ae1d-77fdec44a426","ios":"levelo://app?vid=d6eab50f-20c4-4a2d-ae1d-77fdec44a426"},"vehicle_type_id":"4","last_reported":1745417424,"current_range_meters":9600,"station_id":"ce4bhmp2rcd13ifvqgog","pricing_plan_id":"cebpf4jnsgd1na2vs0mg"},{"bike_id":"9487251a-c17e-4de8-b21d-7ace0ed06601","system_id":"levelo_inurba_marseille","lat":43.28717,"lon":5.3998,"is_reserved":false,"is_disabled":false,"rental_uris":{"android":"levelo://app?vid=9487251a-c17e-4de8-b21d-7ace0ed06601","ios":"levelo://app?vid=9487251a-c17e-4de8-b21d-7ace0ed06601"},"vehicle_type_id":"4","last_reported":1745417424,"current_range_meters":9600,"station_id":"ce4bho92rcd13ifvqh3g","pricing_plan_id":"cebpf4jnsgd1na2vs0mg"},{"bike_id":"fbb6be43-75ac-4697-af84-df6581464ee0","system_id":"levelo_inurba_marseille","lat":43.23965,"lon":5.36634,"is_reserved":false,"is_disabled":false,"rental_uris":{"android":"levelo://app?vid=fbb6be43-75ac-4697-af84-df6581464ee0","ios":"levelo://app?vid=fbb6be43-75ac-4697-af84-df6581464ee0"},"vehicle_type_id":"4","last_reported":1745417424,"current_range_meters":9600,"station_id":"ce4bhi12rcd13ifvqfp0","pricing_plan_id":"cebpf4jnsgd1na2vs0mg"},{"bike_id":"1780b1fd-113e-4b95-a483-e0cb2074c4c6","system_id":"levelo_inurba_marseille","lat":43.2984,"lon":5.36267,"is_reserved":false,"is_disabled":false,"rental_uris":{"android":"levelo://app?vid=1780b1fd-113e-4b95-a483-e0cb2074c4c6","ios":"levelo://app?vid=1780b1fd-113e-4b95-a483-e0cb2074c4c6"},"vehicle_type_id":"4","last_reported":1745417424,"current_range_meters":9600,"station_id":"ce4bgpp2rcd13ifvqc3g","pricing_plan_id":"cebpf4jnsgd1na2vs0mg"},{"bike_id":"03fe7337-3909-42a6-bc50-0e982a4d53cf","system_id":"levelo_inurba_marseille","lat":43.2656,"lon":5.37279,"is_reserved":false,"is_disabled":false,"rental_uris":{"android":"levelo://app?vid=03fe7337-3909-42a6-bc50-0e982a4d53cf","ios":"levelo://app?vid=03fe7337-3909-42a6-bc50-0e982a4d53cf"},"vehicle_type_id":"4","last_reported":1745417424,"current_range_meters":10000,"station_id":"ce4bhg12rcd13ifvqf70","pricing_plan_id":"cebpf4jnsgd1na2vs0mg"},{"bike_id":"46deeb45-9e0a-4b30-bac2-9bccefe401ed","system_id":"levelo_inurba_marseille","lat":43.27367,"lon":5.36253,"is_reserved":false,"is_disabled":false,"rental_uris":{"android":"levelo://app?vid=46deeb45-9e0a-4b30-bac2-9bccefe401ed","ios":"levelo://app?vid=46deeb45-9e0a-4b30-bac2-9bccefe401ed"},"vehicle_type_id":"4","last_reported":1745417424,"current_range_meters":10000,"station_id":"ce4bhbh2rcd13ifvqeo0","pricing_plan_id":"cebpf4jnsgd1na2vs0mg"},{"bike_id":"2444db48-73b9-4f67-9dc6-6e8bcceff093","system_id":"levelo_inurba_marseille","lat":43.29775,"lon":5.38096,"is_reserved":false,"is_disabled":true,"rental_uris":{"android":"levelo://app?vid=2444db48-73b9-4f67-9dc6-6e8bcceff093","ios":"levelo://app?vid=2444db48-73b9-4f67-9dc6-6e8bcceff093"},"vehicle_type_id":"4","last_reported":1745417424,"current_range_meters":10000,"station_id":"ce4bgip2rcd13ifvqbb0","pricing_plan_id":"cebpf4jnsgd1na2vs0mg"},{"bike_id":"d9da006a-90ea-4313-8d21-b9b126c4c08e","system_id":"levelo_inurba_marseille","lat":43.26801,"lon":5.40257,"is_reserved":false,"is_disabled":false,"rental_uris":{"android":"levelo://app?vid=d9da006a-90ea-4313-8d21-b9b126c4c08e","ios":"levelo://app?vid=d9da006a-90ea-4313-8d21-b9b126c4c08e"},"vehicle_type_id":"4","last_reported":1745417424,"current_range_meters":10000,"station_id":"ce501612rcd8frsf0b60","pricing_plan_id":"cebpf4jnsgd1na2vs0mg"},{"bike_id":"b2c2e80e-a248-472e-8e62-6356d6511653","system_id":"levelo_inurba_marseille","lat":43.289084,"lon":5.35505,"is_reserved":false,"is_disabled":false,"rental_uris":{"android":"levelo://app?vid=b2c2e80e-a248-472e-8e62-6356d6511653","ios":"levelo://app?vid=b2c2e80e-a248-472e-8e62-6356d6511653"},"vehicle_type_id":"4","last_reported":1745417424,"current_range_meters":10000,"station_id":"ce4bhbh2rcd13ifvqepg","pricing_plan_id":"cebpf4jnsgd1na2vs0mg"},{"bike_id":"48ce74e1-6850-4823-a787-fe81cb19ef4d","system_id":"levelo_inurba_marseille","lat":43.27842,"lon":5.39201,"is_reserved":false,"is_disabled":false,"rental_uris":{"android":"levelo://app?vid=48ce74e1-6850-4823-a787-fe81cb19ef4d","ios":"levelo://app?vid=48ce74e1-6850-4823-a787-fe81cb19ef4d"},"vehicle_type_id":"4","last_reported":1745417424,"current_range_meters":10800,"station_id":"ce4bhjp2rcd13ifvqga0","pricing_plan_id":"cebpf4jnsgd1na2vs0mg"},{"bike_id":"13ad5c2c-618c-41e7-8952-8411e5eda18e","system_id":"levelo_inurba_marseille","lat":43.32343,"lon":5.38864,"is_reserved":false,"is_disabled":false,"rental_uris":{"android":"levelo://app?vid=13ad5c2c-618c-41e7-8952-8411e5eda18e","ios":"levelo://app?vid=13ad5c2c-618c-41e7-8952-8411e5eda18e"},"vehicle_type_id":"4","last_reported":1745417424,"current_range_meters":10800,"station_id":"ce4bhqp2rcd13ifvqhog","pricing_plan_id":"cebpf4jnsgd1na2vs0mg"},{"bike_id":"e433d9bb-db2b-4197-a4b8-daa49ef20b77","system_id":"levelo_inurba_marseille","lat":43.31076,"lon":5.38355,"is_reserved":false,"is_disabled":false,"rental_uris":{"android":"levelo://app?vid=e433d9bb-db2b-4197-a4b8-daa49ef20b77","ios":"levelo://app?vid=e433d9bb-db2b-4197-a4b8-daa49ef20b77"},"vehicle_type_id":"4","last_reported":1745417424,"current_range_meters":10800,"station_id":"ce4bgv92rcd13ifvqcr0","pricing_plan_id":"cebpf4jnsgd1na2vs0mg"},{"bike_id":"d89a07f2-fb66-4b2b-8a73-3672708ff0a6","system_id":"levelo_inurba_marseille","lat":43.21199,"lon":5.35086,"is_reserved":false,"is_disabled":false,"rental_uris":{"android":"levelo://app?vid=d89a07f2-fb66-4b2b-8a73-3672708ff0a6","ios":"levelo://app?vid=d89a07f2-fb66-4b2b-8a73-3672708ff0a6"},"vehicle_type_id":"4","last_reported":1745417424,"current_range_meters":10800,"station_id":"st_cvj6sg6p6f1abm77japg","pricing_plan_id":"cebpf4jnsgd1na2vs0mg"},{"bike_id":"69bc9301-e2ad-4b3a-b1c1-c9c234839014","system_id":"levelo_inurba_marseille","lat":43.26552,"lon":5.37276,"is_reserved":false,"is_disabled":false,"rental_uris":{"android":"levelo://app?vid=69bc9301-e2ad-4b3a-b1c1-c9c234839014","ios":"levelo://app?vid=69bc9301-e2ad-4b3a-b1c1-c9c234839014"},"vehicle_type_id":"4","last_reported":1745417424,"current_range_meters":10800,"station_id":"ce4bhg12rcd13ifvqf70","pricing_plan_id":"cebpf4jnsgd1na2vs0mg"},{"bike_id":"ec350b30-9b32-4c5f-aa22-3a10fc683fe2","system_id":"levelo_inurba_marseille","lat":43.29331,"lon":5.43453,"is_reserved":false,"is_disabled":false,"rental_uris":{"android":"levelo://app?vid=ec350b30-9b32-4c5f-aa22-3a10fc683fe2","ios":"levelo://app?vid=ec350b30-9b32-4c5f-aa22-3a10fc683fe2"},"vehicle_type_id":"4","last_reported":1745417424,"current_range_meters":10800,"station_id":"","pricing_plan_id":"cebpf4jnsgd1na2vs0mg"},{"bike_id":"29557cd6-e30c-4193-97f9-eb19785da0d9","system_id":"levelo_inurba_marseille","lat":43.30904,"lon":5.36849,"is_reserved":false,"is_disabled":false,"rental_uris":{"android":"levelo://app?vid=29557cd6-e30c-4193-97f9-eb19785da0d9","ios":"levelo://app?vid=29557cd6-e30c-4193-97f9-eb19785da0d9"},"vehicle_type_id":"4","last_reported":1745417424,"current_range_meters":10800,"station_id":"ce4bgn92rcd13ifvqbvg","pricing_plan_id":"cebpf4jnsgd1na2vs0mg"},{"bike_id":"65cdff96-7700-459c-ba97-3b5be90256b5","system_id":"levelo_inurba_marseille","lat":43.3091,"lon":5.3685,"is_reserved":false,"is_disabled":false,"rental_uris":{"android":"levelo://app?vid=65cdff96-7700-459c-ba97-3b5be90256b5","ios":"levelo://app?vid=65cdff96-7700-459c-ba97-3b5be90256b5"},"vehicle_type_id":"4","last_reported":1745417424,"current_range_meters":10800,"station_id":"ce4bgn92rcd13ifvqbvg","pricing_plan_id":"cebpf4jnsgd1na2vs0mg"},{"bike_id":"5546f93c-c7eb-4a36-b1e9-022b7fc99074","system_id":"levelo_inurba_marseille","lat":43.23189,"lon":5.35542,"is_reserved":false,"is_disabled":false,"rental_uris":{"android":"levelo://app?vid=5546f93c-c7eb-4a36-b1e9-022b7fc99074","ios":"levelo://app?vid=5546f93c-c7eb-4a36-b1e9-022b7fc99074"},"vehicle_type_id":"4","last_reported":1745417424,"current_range_meters":11200,"station_id":"ce4bhu92rcd13ifvqi70","pricing_plan_id":"cebpf4jnsgd1na2vs0mg"},{"bike_id":"733c9c80-69b1-492c-9da4-bcd1879a7400","system_id":"levelo_inurba_marseille","lat":43.28616,"lon":5.35104,"is_reserved":false,"is_disabled":false,"rental_uris":{"android":"levelo://app?vid=733c9c80-69b1-492c-9da4-bcd1879a7400","ios":"levelo://app?vid=733c9c80-69b1-492c-9da4-bcd1879a7400"},"vehicle_type_id":"4","last_reported":1745417424,"current_range_meters":11200,"station_id":"ce4bhch2rcd13ifvqeug","pricing_plan_id":"cebpf4jnsgd1na2vs0mg"},{"bike_id":"688caaf3-ab91-4e9e-b3ad-9be627bd4609","system_id":"levelo_inurba_marseille","lat":43.23154,"lon":5.43725,"is_reserved":false,"is_disabled":false,"rental_uris":{"android":"levelo://app?vid=688caaf3-ab91-4e9e-b3ad-9be627bd4609","ios":"levelo://app?vid=688caaf3-ab91-4e9e-b3ad-9be627bd4609"},"vehicle_type_id":"4","last_reported":1745417424,"current_range_meters":11200,"station_id":"ce4bhmp2rcd13ifvqgog","pricing_plan_id":"cebpf4jnsgd1na2vs0mg"},{"bike_id":"67131355-bc71-4d54-9739-c36701821609","system_id":"levelo_inurba_marseille","lat":43.24801,"lon":5.3744,"is_reserved":false,"is_disabled":false,"rental_uris":{"android":"levelo://app?vid=67131355-bc71-4d54-9739-c36701821609","ios":"levelo://app?vid=67131355-bc71-4d54-9739-c36701821609"},"vehicle_type_id":"4","last_reported":1745417424,"current_range_meters":11200,"station_id":"ce4bhgh2rcd13ifvqfb0","pricing_plan_id":"cebpf4jnsgd1na2vs0mg"},{"bike_id":"f31bee90-1c13-4189-9679-0326782d9854","system_id":"levelo_inurba_marseille","lat":43.31771,"lon":5.39012,"is_reserved":false,"is_disabled":false,"rental_uris":{"android":"levelo://app?vid=f31bee90-1c13-4189-9679-0326782d9854","ios":"levelo://app?vid=f31bee90-1c13-4189-9679-0326782d9854"},"vehicle_type_id":"4","last_reported":1745417424,"current_range_meters":11600,"station_id":"ce4bhqp2rcd13ifvqhng","pricing_plan_id":"cebpf4jnsgd1na2vs0mg"},{"bike_id":"9c325fd4-f154-4a48-857e-569f4cc367f9","system_id":"levelo_inurba_marseille","lat":43.2293,"lon":5.3538,"is_reserved":false,"is_disabled":false,"rental_uris":{"android":"levelo://app?vid=9c325fd4-f154-4a48-857e-569f4cc367f9","ios":"levelo://app?vid=9c325fd4-f154-4a48-857e-569f4cc367f9"},"vehicle_type_id":"4","last_reported":1745417424,"current_range_meters":11600,"station_id":"cpo3532slgdg3j2ikp40","pricing_plan_id":"cebpf4jnsgd1na2vs0mg"},{"bike_id":"2cea532b-66a5-4e7c-a3a9-1f6ba1fc79b6","system_id":"levelo_inurba_marseille","lat":43.28462,"lon":5.35883,"is_reserved":false,"is_disabled":false,"rental_uris":{"android":"levelo://app?vid=2cea532b-66a5-4e7c-a3a9-1f6ba1fc79b6","ios":"levelo://app?vid=2cea532b-66a5-4e7c-a3a9-1f6ba1fc79b6"},"vehicle_type_id":"4","last_reported":1745417424,"current_range_meters":11600,"station_id":"ce4bhah2rcd13ifvqei0","pricing_plan_id":"cebpf4jnsgd1na2vs0mg"},{"bike_id":"78d30ac0-5e5a-40f8-8e84-741f4a6cfacf","system_id":"levelo_inurba_marseille","lat":43.23145,"lon":5.43717,"is_reserved":false,"is_disabled":false,"rental_uris":{"android":"levelo://app?vid=78d30ac0-5e5a-40f8-8e84-741f4a6cfacf","ios":"levelo://app?vid=78d30ac0-5e5a-40f8-8e84-741f4a6cfacf"},"vehicle_type_id":"4","last_reported":1745417424,"current_range_meters":12000,"station_id":"ce4bhmp2rcd13ifvqgog","pricing_plan_id":"cebpf4jnsgd1na2vs0mg"},{"bike_id":"bfc57060-bf96-4e1e-978c-0c15aaef2b8b","system_id":"levelo_inurba_marseille","lat":43.29897,"lon":5.43669,"is_reserved":false,"is_disabled":false,"rental_uris":{"android":"levelo://app?vid=bfc57060-bf96-4e1e-978c-0c15aaef2b8b","ios":"levelo://app?vid=bfc57060-bf96-4e1e-978c-0c15aaef2b8b"},"vehicle_type_id":"4","last_reported":1745417424,"current_range_meters":12000,"station_id":"ce4bhpp2rcd13ifvqhfg","pricing_plan_id":"cebpf4jnsgd1na2vs0mg"},{"bike_id":"abd226a8-d003-4133-b9d2-b7c952b7ead1","system_id":"levelo_inurba_marseille","lat":43.23054,"lon":5.35489,"is_reserved":false,"is_disabled":false,"rental_uris":{"android":"levelo://app?vid=abd226a8-d003-4133-b9d2-b7c952b7ead1","ios":"levelo://app?vid=abd226a8-d003-4133-b9d2-b7c952b7ead1"},"vehicle_type_id":"4","last_reported":1745417424,"current_range_meters":12000,"station_id":"cpo3342slgdg3j2ifvpg","pricing_plan_id":"cebpf4jnsgd1na2vs0mg"},{"bike_id":"f36d089e-788c-4bd3-9198-e8cacf91e002","system_id":"levelo_inurba_marseille","lat":43.31215,"lon":5.36876,"is_reserved":false,"is_disabled":false,"rental_uris":{"android":"levelo://app?vid=f36d089e-788c-4bd3-9198-e8cacf91e002","ios":"levelo://app?vid=f36d089e-788c-4bd3-9198-e8cacf91e002"},"vehicle_type_id":"4","last_reported":1745417424,"current_range_meters":12000,"station_id":"ce4bgl92rcd13ifvqbq0","pricing_plan_id":"cebpf4jnsgd1na2vs0mg"},{"bike_id":"5654bb20-d7f4-42f3-a804-9e5bdd351297","system_id":"levelo_inurba_marseille","lat":43.23964,"lon":5.36641,"is_reserved":false,"is_disabled":false,"rental_uris":{"android":"levelo://app?vid=5654bb20-d7f4-42f3-a804-9e5bdd351297","ios":"levelo://app?vid=5654bb20-d7f4-42f3-a804-9e5bdd351297"},"vehicle_type_id":"4","last_reported":1745417424,"current_range_meters":12000,"station_id":"ce4bhi12rcd13ifvqfp0","pricing_plan_id":"cebpf4jnsgd1na2vs0mg"},{"bike_id":"b96d48d5-fc65-423b-9a30-5d2c864e8939","system_id":"levelo_inurba_marseille","lat":43.22537,"lon":5.3479,"is_reserved":false,"is_disabled":false,"rental_uris":{"android":"levelo://app?vid=b96d48d5-fc65-423b-9a30-5d2c864e8939","ios":"levelo://app?vid=b96d48d5-fc65-423b-9a30-5d2c864e8939"},"vehicle_type_id":"4","last_reported":1745417424,"current_range_meters":12400,"station_id":"st_cvj5dfep6f1abm77gieg","pricing_plan_id":"cebpf4jnsgd1na2vs0mg"},{"bike_id":"4bc10b86-ad31-450c-a972-bf3a5ce21b3a","system_id":"levelo_inurba_marseille","lat":43.31176,"lon":5.38709,"is_reserved":false,"is_disabled":false,"rental_uris":{"android":"levelo://app?vid=4bc10b86-ad31-450c-a972-bf3a5ce21b3a","ios":"levelo://app?vid=4bc10b86-ad31-450c-a972-bf3a5ce21b3a"},"vehicle_type_id":"4","last_reported":1745417424,"current_range_meters":12400,"station_id":"ce4bgv12rcd13ifvqcp0","pricing_plan_id":"cebpf4jnsgd1na2vs0mg"},{"bike_id":"9ddda165-0b8e-4ac0-a722-8eff98d0ce1c","system_id":"levelo_inurba_marseille","lat":43.26037,"lon":5.37542,"is_reserved":false,"is_disabled":false,"rental_uris":{"android":"levelo://app?vid=9ddda165-0b8e-4ac0-a722-8eff98d0ce1c","ios":"levelo://app?vid=9ddda165-0b8e-4ac0-a722-8eff98d0ce1c"},"vehicle_type_id":"4","last_reported":1745417424,"current_range_meters":12400,"station_id":"ce4bhgh2rcd13ifvqfa0","pricing_plan_id":"cebpf4jnsgd1na2vs0mg"},{"bike_id":"fe0fcfc5-47a0-477c-b5cc-2c14aa9d8b39","system_id":"levelo_inurba_marseille","lat":43.27917,"lon":5.39575,"is_reserved":false,"is_disabled":false,"rental_uris":{"android":"levelo://app?vid=fe0fcfc5-47a0-477c-b5cc-2c14aa9d8b39","ios":"levelo://app?vid=fe0fcfc5-47a0-477c-b5cc-2c14aa9d8b39"},"vehicle_type_id":"4","last_reported":1745417424,"current_range_meters":12400,"station_id":"ce4bhf92rcd13ifvqf40","pricing_plan_id":"cebpf4jnsgd1na2vs0mg"},{"bike_id":"fa80a99b-8d2a-46fb-8d82-c6bec013678c","system_id":"levelo_inurba_marseille","lat":43.30902,"lon":5.36839,"is_reserved":false,"is_disabled":false,"rental_uris":{"android":"levelo://app?vid=fa80a99b-8d2a-46fb-8d82-c6bec013678c","ios":"levelo://app?vid=fa80a99b-8d2a-46fb-8d82-c6bec013678c"},"vehicle_type_id":"4","last_reported":1745417424,"current_range_meters":12400,"station_id":"ce4bgn92rcd13ifvqbvg","pricing_plan_id":"cebpf4jnsgd1na2vs0mg"},{"bike_id":"0cfeedce-c032-4d07-bf22-e7bcc94d57ef","system_id":"levelo_inurba_marseille","lat":43.29846,"lon":5.36284,"is_reserved":false,"is_disabled":false,"rental_uris":{"android":"levelo://app?vid=0cfeedce-c032-4d07-bf22-e7bcc94d57ef","ios":"levelo://app?vid=0cfeedce-c032-4d07-bf22-e7bcc94d57ef"},"vehicle_type_id":"4","last_reported":1745417424,"current_range_meters":12400,"station_id":"ce4bgpp2rcd13ifvqc3g","pricing_plan_id":"cebpf4jnsgd1na2vs0mg"},{"bike_id":"fc95c022-5d99-4883-976b-3e014c5a3389","system_id":"levelo_inurba_marseille","lat":43.23122,"lon":5.43811,"is_reserved":false,"is_disabled":false,"rental_uris":{"android":"levelo://app?vid=fc95c022-5d99-4883-976b-3e014c5a3389","ios":"levelo://app?vid=fc95c022-5d99-4883-976b-3e014c5a3389"},"vehicle_type_id":"4","last_reported":1745417424,"current_range_meters":12400,"station_id":"ce4bhmp2rcd13ifvqgog","pricing_plan_id":"cebpf4jnsgd1na2vs0mg"},{"bike_id":"1722a673-2297-42bc-8c04-e0ec249871b0","system_id":"levelo_inurba_marseille","lat":43.29928,"lon":5.3652,"is_reserved":false,"is_disabled":false,"rental_uris":{"android":"levelo://app?vid=1722a673-2297-42bc-8c04-e0ec249871b0","ios":"levelo://app?vid=1722a673-2297-42bc-8c04-e0ec249871b0"},"vehicle_type_id":"4","last_reported":1745417424,"current_range_meters":12800,"station_id":"ce4bgm92rcd13ifvqbr0","pricing_plan_id":"cebpf4jnsgd1na2vs0mg"},{"bike_id":"05f4edb7-a67b-49ff-a94b-e6bb3c01276d","system_id":"levelo_inurba_marseille","lat":43.31164,"lon":5.38719,"is_reserved":false,"is_disabled":false,"rental_uris":{"android":"levelo://app?vid=05f4edb7-a67b-49ff-a94b-e6bb3c01276d","ios":"levelo://app?vid=05f4edb7-a67b-49ff-a94b-e6bb3c01276d"},"vehicle_type_id":"4","last_reported":1745417424,"current_range_meters":12800,"station_id":"ce4bgv12rcd13ifvqcp0","pricing_plan_id":"cebpf4jnsgd1na2vs0mg"},{"bike_id":"015557e7-069b-4f55-a9f8-0ea5b102b147","system_id":"levelo_inurba_marseille","lat":43.30458,"lon":5.37901,"is_reserved":false,"is_disabled":false,"rental_uris":{"android":"levelo://app?vid=015557e7-069b-4f55-a9f8-0ea5b102b147","ios":"levelo://app?vid=015557e7-069b-4f55-a9f8-0ea5b102b147"},"vehicle_type_id":"4","last_reported":1745417424,"current_range_meters":12800,"station_id":"ce4bgup2rcd13ifvqcn0","pricing_plan_id":"cebpf4jnsgd1na2vs0mg"},{"bike_id":"ae2607c9-27d0-4814-bc50-d40a7c41d115","system_id":"levelo_inurba_marseille","lat":43.30186,"lon":5.39335,"is_reserved":false,"is_disabled":false,"rental_uris":{"android":"levelo://app?vid=ae2607c9-27d0-4814-bc50-d40a7c41d115","ios":"levelo://app?vid=ae2607c9-27d0-4814-bc50-d40a7c41d115"},"vehicle_type_id":"4","last_reported":1745417424,"current_range_meters":13600,"station_id":"","pricing_plan_id":"cebpf4jnsgd1na2vs0mg"},{"bike_id":"498d5c9c-74b7-4af8-9134-59f00d0917b8","system_id":"levelo_inurba_marseille","lat":43.26937,"lon":5.40247,"is_reserved":false,"is_disabled":false,"rental_uris":{"android":"levelo://app?vid=498d5c9c-74b7-4af8-9134-59f00d0917b8","ios":"levelo://app?vid=498d5c9c-74b7-4af8-9134-59f00d0917b8"},"vehicle_type_id":"4","last_reported":1745417424,"current_range_meters":13600,"station_id":"cjm6bp8fraef2m0cb0m0","pricing_plan_id":"cebpf4jnsgd1na2vs0mg"},{"bike_id":"1b8b7145-49a7-4fe1-96a2-72a1d6e84a54","system_id":"levelo_inurba_marseille","lat":43.2306,"lon":5.35493,"is_reserved":false,"is_disabled":false,"rental_uris":{"android":"levelo://app?vid=1b8b7145-49a7-4fe1-96a2-72a1d6e84a54","ios":"levelo://app?vid=1b8b7145-49a7-4fe1-96a2-72a1d6e84a54"},"vehicle_type_id":"4","last_reported":1745417424,"current_range_meters":13600,"station_id":"cpo3342slgdg3j2ifvpg","pricing_plan_id":"cebpf4jnsgd1na2vs0mg"},{"bike_id":"c1973247-da65-417e-b3cd-5c8761009385","system_id":"levelo_inurba_marseille","lat":43.3061,"lon":5.37221,"is_reserved":false,"is_disabled":false,"rental_uris":{"android":"levelo://app?vid=c1973247-da65-417e-b3cd-5c8761009385","ios":"levelo://app?vid=c1973247-da65-417e-b3cd-5c8761009385"},"vehicle_type_id":"4","last_reported":1745417424,"current_range_meters":14000,"station_id":"ce4bgqh2rcd13ifvqc4g","pricing_plan_id":"cebpf4jnsgd1na2vs0mg"},{"bike_id":"4b8921bc-5aaf-4418-89cf-4d61eddbd7dc","system_id":"levelo_inurba_marseille","lat":43.29588,"lon":5.3674,"is_reserved":false,"is_disabled":false,"rental_uris":{"android":"levelo://app?vid=4b8921bc-5aaf-4418-89cf-4d61eddbd7dc","ios":"levelo://app?vid=4b8921bc-5aaf-4418-89cf-4d61eddbd7dc"},"vehicle_type_id":"4","last_reported":1745417424,"current_range_meters":14000,"station_id":"ce4bgph2rcd13ifvqc2g","pricing_plan_id":"cebpf4jnsgd1na2vs0mg"},{"bike_id":"2a28d19f-28ef-46a1-ac1e-0568dccede2a","system_id":"levelo_inurba_marseille","lat":43.21181,"lon":5.35066,"is_reserved":false,"is_disabled":false,"rental_uris":{"android":"levelo://app?vid=2a28d19f-28ef-46a1-ac1e-0568dccede2a","ios":"levelo://app?vid=2a28d19f-28ef-46a1-ac1e-0568dccede2a"},"vehicle_type_id":"4","last_reported":1745417424,"current_range_meters":14000,"station_id":"st_cvj6sg6p6f1abm77japg","pricing_plan_id":"cebpf4jnsgd1na2vs0mg"},{"bike_id":"527ab9af-1602-4e3b-a3d5-77f5acec1ebf","system_id":"levelo_inurba_marseille","lat":43.26192,"lon":5.3745,"is_reserved":false,"is_disabled":true,"rental_uris":{"android":"levelo://app?vid=527ab9af-1602-4e3b-a3d5-77f5acec1ebf","ios":"levelo://app?vid=527ab9af-1602-4e3b-a3d5-77f5acec1ebf"},"vehicle_type_id":"4","last_reported":1745417424,"current_range_meters":14000,"station_id":"ce4bhgp2rcd13ifvqfc0","pricing_plan_id":"cebpf4jnsgd1na2vs0mg"},{"bike_id":"9504ada7-0a31-49e7-9528-002a318352c4","system_id":"levelo_inurba_marseille","lat":43.26062,"lon":5.39395,"is_reserved":false,"is_disabled":false,"rental_uris":{"android":"levelo://app?vid=9504ada7-0a31-49e7-9528-002a318352c4","ios":"levelo://app?vid=9504ada7-0a31-49e7-9528-002a318352c4"},"vehicle_type_id":"4","last_reported":1745417424,"current_range_meters":14000,"station_id":"ce4bhh92rcd13ifvqfj0","pricing_plan_id":"cebpf4jnsgd1na2vs0mg"},{"bike_id":"e61f5775-7bf1-41f8-8d64-3b3911c7737c","system_id":"levelo_inurba_marseille","lat":43.28611,"lon":5.35102,"is_reserved":false,"is_disabled":false,"rental_uris":{"android":"levelo://app?vid=e61f5775-7bf1-41f8-8d64-3b3911c7737c","ios":"levelo://app?vid=e61f5775-7bf1-41f8-8d64-3b3911c7737c"},"vehicle_type_id":"4","last_reported":1745417424,"current_range_meters":14400,"station_id":"ce4bhch2rcd13ifvqeug","pricing_plan_id":"cebpf4jnsgd1na2vs0mg"},{"bike_id":"ece84852-7d2a-4875-8929-79898d06e002","system_id":"levelo_inurba_marseille","lat":43.24808,"lon":5.37451,"is_reserved":false,"is_disabled":false,"rental_uris":{"android":"levelo://app?vid=ece84852-7d2a-4875-8929-79898d06e002","ios":"levelo://app?vid=ece84852-7d2a-4875-8929-79898d06e002"},"vehicle_type_id":"4","last_reported":1745417424,"current_range_meters":14400,"station_id":"ce4bhgh2rcd13ifvqfb0","pricing_plan_id":"cebpf4jnsgd1na2vs0mg"},{"bike_id":"4b21e6b5-e274-4f26-8a5e-476592c09084","system_id":"levelo_inurba_marseille","lat":43.27916,"lon":5.39593,"is_reserved":false,"is_disabled":false,"rental_uris":{"android":"levelo://app?vid=4b21e6b5-e274-4f26-8a5e-476592c09084","ios":"levelo://app?vid=4b21e6b5-e274-4f26-8a5e-476592c09084"},"vehicle_type_id":"4","last_reported":1745417424,"current_range_meters":14400,"station_id":"ce4bhf92rcd13ifvqf40","pricing_plan_id":"cebpf4jnsgd1na2vs0mg"},{"bike_id":"daf442ce-5346-4d40-a0b5-203393fcc7ea","system_id":"levelo_inurba_marseille","lat":43.32651,"lon":5.40992,"is_reserved":false,"is_disabled":false,"rental_uris":{"android":"levelo://app?vid=daf442ce-5346-4d40-a0b5-203393fcc7ea","ios":"levelo://app?vid=daf442ce-5346-4d40-a0b5-203393fcc7ea"},"vehicle_type_id":"4","last_reported":1745417424,"current_range_meters":14400,"station_id":"ce4bhpp2rcd13ifvqhgg","pricing_plan_id":"cebpf4jnsgd1na2vs0mg"},{"bike_id":"3f5bb908-8ac8-4fb2-a093-6b929f9ca79a","system_id":"levelo_inurba_marseille","lat":43.27372,"lon":5.36251,"is_reserved":false,"is_disabled":false,"rental_uris":{"android":"levelo://app?vid=3f5bb908-8ac8-4fb2-a093-6b929f9ca79a","ios":"levelo://app?vid=3f5bb908-8ac8-4fb2-a093-6b929f9ca79a"},"vehicle_type_id":"4","last_reported":1745417424,"current_range_meters":14400,"station_id":"ce4bhbh2rcd13ifvqeo0","pricing_plan_id":"cebpf4jnsgd1na2vs0mg"},{"bike_id":"fa062a87-826a-466f-a99d-3e3cf98e9d93","system_id":"levelo_inurba_marseille","lat":43.28271,"lon":5.35074,"is_reserved":false,"is_disabled":false,"rental_uris":{"android":"levelo://app?vid=fa062a87-826a-466f-a99d-3e3cf98e9d93","ios":"levelo://app?vid=fa062a87-826a-466f-a99d-3e3cf98e9d93"},"vehicle_type_id":"4","last_reported":1745417424,"current_range_meters":14400,"station_id":"ce4bhbp2rcd13ifvqerg","pricing_plan_id":"cebpf4jnsgd1na2vs0mg"},{"bike_id":"7cb503d8-a3ee-4291-8d4b-648ba2f1137c","system_id":"levelo_inurba_marseille","lat":43.24172,"lon":5.36402,"is_reserved":false,"is_disabled":false,"rental_uris":{"android":"levelo://app?vid=7cb503d8-a3ee-4291-8d4b-648ba2f1137c","ios":"levelo://app?vid=7cb503d8-a3ee-4291-8d4b-648ba2f1137c"},"vehicle_type_id":"4","last_reported":1745417424,"current_range_meters":14400,"station_id":"cpo36qri1sfpv3e86is0","pricing_plan_id":"cebpf4jnsgd1na2vs0mg"},{"bike_id":"22d01123-49c8-4009-8009-ebb5bbc995be","system_id":"levelo_inurba_marseille","lat":43.32867,"lon":5.39785,"is_reserved":false,"is_disabled":false,"rental_uris":{"android":"levelo://app?vid=22d01123-49c8-4009-8009-ebb5bbc995be","ios":"levelo://app?vid=22d01123-49c8-4009-8009-ebb5bbc995be"},"vehicle_type_id":"4","last_reported":1745417424,"current_range_meters":15200,"station_id":"","pricing_plan_id":"cebpf4jnsgd1na2vs0mg"},{"bike_id":"cd88269b-dc00-4d47-8ca9-bf11958c0ed4","system_id":"levelo_inurba_marseille","lat":43.30268,"lon":5.37697,"is_reserved":false,"is_disabled":false,"rental_uris":{"android":"levelo://app?vid=cd88269b-dc00-4d47-8ca9-bf11958c0ed4","ios":"levelo://app?vid=cd88269b-dc00-4d47-8ca9-bf11958c0ed4"},"vehicle_type_id":"4","last_reported":1745417424,"current_range_meters":14800,"station_id":"ce4bguh2rcd13ifvqcj0","pricing_plan_id":"cebpf4jnsgd1na2vs0mg"},{"bike_id":"ac9bebdb-d4a6-4b09-8175-bbc5cbbebca7","system_id":"levelo_inurba_marseille","lat":43.24814,"lon":5.37462,"is_reserved":false,"is_disabled":false,"rental_uris":{"android":"levelo://app?vid=ac9bebdb-d4a6-4b09-8175-bbc5cbbebca7","ios":"levelo://app?vid=ac9bebdb-d4a6-4b09-8175-bbc5cbbebca7"},"vehicle_type_id":"4","last_reported":1745417424,"current_range_meters":14800,"station_id":"ce4bhgh2rcd13ifvqfb0","pricing_plan_id":"cebpf4jnsgd1na2vs0mg"},{"bike_id":"89226a86-c982-4201-b83d-9e83c7ead383","system_id":"levelo_inurba_marseille","lat":43.22926,"lon":5.35385,"is_reserved":false,"is_disabled":false,"rental_uris":{"android":"levelo://app?vid=89226a86-c982-4201-b83d-9e83c7ead383","ios":"levelo://app?vid=89226a86-c982-4201-b83d-9e83c7ead383"},"vehicle_type_id":"4","last_reported":1745417424,"current_range_meters":14800,"station_id":"cpo3532slgdg3j2ikp40","pricing_plan_id":"cebpf4jnsgd1na2vs0mg"},{"bike_id":"3e629eb5-16d7-424d-a3df-f8eb27afa112","system_id":"levelo_inurba_marseille","lat":43.29894,"lon":5.38914,"is_reserved":false,"is_disabled":false,"rental_uris":{"android":"levelo://app?vid=3e629eb5-16d7-424d-a3df-f8eb27afa112","ios":"levelo://app?vid=3e629eb5-16d7-424d-a3df-f8eb27afa112"},"vehicle_type_id":"4","last_reported":1745417424,"current_range_meters":14800,"station_id":"ce4bh392rcd13ifvqdl0","pricing_plan_id":"cebpf4jnsgd1na2vs0mg"},{"bike_id":"d621ef04-09a9-40e5-9650-1af7e97299d9","system_id":"levelo_inurba_marseille","lat":43.28859,"lon":5.3585,"is_reserved":false,"is_disabled":false,"rental_uris":{"android":"levelo://app?vid=d621ef04-09a9-40e5-9650-1af7e97299d9","ios":"levelo://app?vid=d621ef04-09a9-40e5-9650-1af7e97299d9"},"vehicle_type_id":"4","last_reported":1745417424,"current_range_meters":14800,"station_id":"ce4bhb12rcd13ifvqem0","pricing_plan_id":"cebpf4jnsgd1na2vs0mg"},{"bike_id":"aebfb5ae-bf07-4ae3-9b08-2434047d6949","system_id":"levelo_inurba_marseille","lat":43.2979,"lon":5.37716,"is_reserved":false,"is_disabled":false,"rental_uris":{"android":"levelo://app?vid=aebfb5ae-bf07-4ae3-9b08-2434047d6949","ios":"levelo://app?vid=aebfb5ae-bf07-4ae3-9b08-2434047d6949"},"vehicle_type_id":"4","last_reported":1745417424,"current_range_meters":15200,"station_id":"","pricing_plan_id":"cebpf4jnsgd1na2vs0mg"},{"bike_id":"6c610ca6-2303-4608-a3d8-aafaa36776de","system_id":"levelo_inurba_marseille","lat":43.29845,"lon":5.3628,"is_reserved":false,"is_disabled":false,"rental_uris":{"android":"levelo://app?vid=6c610ca6-2303-4608-a3d8-aafaa36776de","ios":"levelo://app?vid=6c610ca6-2303-4608-a3d8-aafaa36776de"},"vehicle_type_id":"4","last_reported":1745417424,"current_range_meters":15200,"station_id":"ce4bgpp2rcd13ifvqc3g","pricing_plan_id":"cebpf4jnsgd1na2vs0mg"},{"bike_id":"46374c49-3adc-4c5a-8966-e00f056c0d57","system_id":"levelo_inurba_marseille","lat":43.27846,"lon":5.35442,"is_reserved":false,"is_disabled":false,"rental_uris":{"android":"levelo://app?vid=46374c49-3adc-4c5a-8966-e00f056c0d57","ios":"levelo://app?vid=46374c49-3adc-4c5a-8966-e00f056c0d57"},"vehicle_type_id":"4","last_reported":1745417424,"current_range_meters":16000,"station_id":"","pricing_plan_id":"cebpf4jnsgd1na2vs0mg"},{"bike_id":"33a9af04-a88c-43d0-b82e-bb86ae987a55","system_id":"levelo_inurba_marseille","lat":43.30602,"lon":5.37208,"is_reserved":false,"is_disabled":false,"rental_uris":{"android":"levelo://app?vid=33a9af04-a88c-43d0-b82e-bb86ae987a55","ios":"levelo://app?vid=33a9af04-a88c-43d0-b82e-bb86ae987a55"},"vehicle_type_id":"4","last_reported":1745417424,"current_range_meters":16000,"station_id":"ce4bgqh2rcd13ifvqc4g","pricing_plan_id":"cebpf4jnsgd1na2vs0mg"},{"bike_id":"d30abb48-2889-43ff-b4e8-cab592d0c072","system_id":"levelo_inurba_marseille","lat":43.28615,"lon":5.35102,"is_reserved":false,"is_disabled":false,"rental_uris":{"android":"levelo://app?vid=d30abb48-2889-43ff-b4e8-cab592d0c072","ios":"levelo://app?vid=d30abb48-2889-43ff-b4e8-cab592d0c072"},"vehicle_type_id":"4","last_reported":1745417424,"current_range_meters":16000,"station_id":"ce4bhch2rcd13ifvqeug","pricing_plan_id":"cebpf4jnsgd1na2vs0mg"},{"bike_id":"4f5a736a-ebfa-4262-b3c5-2ab40ec2f53a","system_id":"levelo_inurba_marseille","lat":43.27814,"lon":5.40711,"is_reserved":false,"is_disabled":false,"rental_uris":{"android":"levelo://app?vid=4f5a736a-ebfa-4262-b3c5-2ab40ec2f53a","ios":"levelo://app?vid=4f5a736a-ebfa-4262-b3c5-2ab40ec2f53a"},"vehicle_type_id":"4","last_reported":1745417424,"current_range_meters":16000,"station_id":"ce4bhnh2rcd13ifvqgtg","pricing_plan_id":"cebpf4jnsgd1na2vs0mg"},{"bike_id":"183fa1c6-8b51-4f1e-9257-f78acac91fdf","system_id":"levelo_inurba_marseille","lat":43.30098,"lon":5.37493,"is_reserved":false,"is_disabled":false,"rental_uris":{"android":"levelo://app?vid=183fa1c6-8b51-4f1e-9257-f78acac91fdf","ios":"levelo://app?vid=183fa1c6-8b51-4f1e-9257-f78acac91fdf"},"vehicle_type_id":"4","last_reported":1745417424,"current_range_meters":16400,"station_id":"ce4bgs92rcd13ifvqcc0","pricing_plan_id":"cebpf4jnsgd1na2vs0mg"},{"bike_id":"162104c9-c9c3-41e8-9022-0f16a6a968c6","system_id":"levelo_inurba_marseille","lat":43.33013,"lon":5.39047,"is_reserved":false,"is_disabled":false,"rental_uris":{"android":"levelo://app?vid=162104c9-c9c3-41e8-9022-0f16a6a968c6","ios":"levelo://app?vid=162104c9-c9c3-41e8-9022-0f16a6a968c6"},"vehicle_type_id":"4","last_reported":1745417424,"current_range_meters":16400,"station_id":"ce4bhr92rcd13ifvqhrg","pricing_plan_id":"cebpf4jnsgd1na2vs0mg"},{"bike_id":"11ce02ec-5de1-4d28-b35b-b9d2498a4135","system_id":"levelo_inurba_marseille","lat":43.23065,"lon":5.35491,"is_reserved":false,"is_disabled":false,"rental_uris":{"android":"levelo://app?vid=11ce02ec-5de1-4d28-b35b-b9d2498a4135","ios":"levelo://app?vid=11ce02ec-5de1-4d28-b35b-b9d2498a4135"},"vehicle_type_id":"4","last_reported":1745417424,"current_range_meters":16400,"station_id":"cpo3342slgdg3j2ifvpg","pricing_plan_id":"cebpf4jnsgd1na2vs0mg"},{"bike_id":"0e27a841-3dd9-4cd5-949b-3c178843c438","system_id":"levelo_inurba_marseille","lat":43.25491,"lon":5.37643,"is_reserved":false,"is_disabled":false,"rental_uris":{"android":"levelo://app?vid=0e27a841-3dd9-4cd5-949b-3c178843c438","ios":"levelo://app?vid=0e27a841-3dd9-4cd5-949b-3c178843c438"},"vehicle_type_id":"4","last_reported":1745417424,"current_range_meters":16000,"station_id":"ce4bhh12rcd13ifvqff0","pricing_plan_id":"cebpf4jnsgd1na2vs0mg"},{"bike_id":"739ade22-4213-4635-9c50-89d35ecb333e","system_id":"levelo_inurba_marseille","lat":43.29918,"lon":5.37474,"is_reserved":false,"is_disabled":false,"rental_uris":{"android":"levelo://app?vid=739ade22-4213-4635-9c50-89d35ecb333e","ios":"levelo://app?vid=739ade22-4213-4635-9c50-89d35ecb333e"},"vehicle_type_id":"4","last_reported":1745417424,"current_range_meters":16400,"station_id":"ce4bgjh2rcd13ifvqbg0","pricing_plan_id":"cebpf4jnsgd1na2vs0mg"},{"bike_id":"9ec49457-910a-4a25-9cd0-b82d5625cff5","system_id":"levelo_inurba_marseille","lat":43.23139,"lon":5.43713,"is_reserved":false,"is_disabled":false,"rental_uris":{"android":"levelo://app?vid=9ec49457-910a-4a25-9cd0-b82d5625cff5","ios":"levelo://app?vid=9ec49457-910a-4a25-9cd0-b82d5625cff5"},"vehicle_type_id":"4","last_reported":1745417424,"current_range_meters":16400,"station_id":"ce4bhmp2rcd13ifvqgog","pricing_plan_id":"cebpf4jnsgd1na2vs0mg"},{"bike_id":"bceb8cba-0252-464f-a7c9-f9b4548f7a27","system_id":"levelo_inurba_marseille","lat":43.28068,"lon":5.3965,"is_reserved":false,"is_disabled":false,"rental_uris":{"android":"levelo://app?vid=bceb8cba-0252-464f-a7c9-f9b4548f7a27","ios":"levelo://app?vid=bceb8cba-0252-464f-a7c9-f9b4548f7a27"},"vehicle_type_id":"4","last_reported":1745417424,"current_range_meters":16400,"station_id":"ce4bho12rcd13ifvqh2g","pricing_plan_id":"cebpf4jnsgd1na2vs0mg"},{"bike_id":"a3e87c56-6ff1-4ca4-b463-5de9413ee781","system_id":"levelo_inurba_marseille","lat":43.289479,"lon":5.363968,"is_reserved":false,"is_disabled":false,"rental_uris":{"android":"levelo://app?vid=a3e87c56-6ff1-4ca4-b463-5de9413ee781","ios":"levelo://app?vid=a3e87c56-6ff1-4ca4-b463-5de9413ee781"},"vehicle_type_id":"4","last_reported":1745417424,"current_range_meters":16800,"station_id":"ce4bhc92rcd13ifvqetg","pricing_plan_id":"cebpf4jnsgd1na2vs0mg"},{"bike_id":"b5703c46-3a7f-4c2d-88f6-e483f426603b","system_id":"levelo_inurba_marseille","lat":43.23196,"lon":5.35554,"is_reserved":false,"is_disabled":false,"rental_uris":{"android":"levelo://app?vid=b5703c46-3a7f-4c2d-88f6-e483f426603b","ios":"levelo://app?vid=b5703c46-3a7f-4c2d-88f6-e483f426603b"},"vehicle_type_id":"4","last_reported":1745417424,"current_range_meters":16800,"station_id":"ce4bhu92rcd13ifvqi70","pricing_plan_id":"cebpf4jnsgd1na2vs0mg"},{"bike_id":"25ac7a10-2bb9-4938-81cf-f01007d092ac","system_id":"levelo_inurba_marseille","lat":43.24988,"lon":5.38937,"is_reserved":false,"is_disabled":false,"rental_uris":{"android":"levelo://app?vid=25ac7a10-2bb9-4938-81cf-f01007d092ac","ios":"levelo://app?vid=25ac7a10-2bb9-4938-81cf-f01007d092ac"},"vehicle_type_id":"4","last_reported":1745417424,"current_range_meters":16800,"station_id":"ce4bhgp2rcd13ifvqfd0","pricing_plan_id":"cebpf4jnsgd1na2vs0mg"},{"bike_id":"977c3b2a-5c94-4b68-b726-c1ea4f56ac66","system_id":"levelo_inurba_marseille","lat":43.28611,"lon":5.37061,"is_reserved":false,"is_disabled":false,"rental_uris":{"android":"levelo://app?vid=977c3b2a-5c94-4b68-b726-c1ea4f56ac66","ios":"levelo://app?vid=977c3b2a-5c94-4b68-b726-c1ea4f56ac66"},"vehicle_type_id":"4","last_reported":1745417424,"current_range_meters":16800,"station_id":"ce4bht12rcd13ifvqi60","pricing_plan_id":"cebpf4jnsgd1na2vs0mg"},{"bike_id":"e74b7f13-f590-45e0-b15c-6eb5e48a77a9","system_id":"levelo_inurba_marseille","lat":43.28272,"lon":5.35076,"is_reserved":false,"is_disabled":false,"rental_uris":{"android":"levelo://app?vid=e74b7f13-f590-45e0-b15c-6eb5e48a77a9","ios":"levelo://app?vid=e74b7f13-f590-45e0-b15c-6eb5e48a77a9"},"vehicle_type_id":"4","last_reported":1745417424,"current_range_meters":16800,"station_id":"ce4bhbp2rcd13ifvqerg","pricing_plan_id":"cebpf4jnsgd1na2vs0mg"},{"bike_id":"9966e2c4-c438-4020-9570-af75c54f7699","system_id":"levelo_inurba_marseille","lat":43.2515,"lon":5.40247,"is_reserved":false,"is_disabled":false,"rental_uris":{"android":"levelo://app?vid=9966e2c4-c438-4020-9570-af75c54f7699","ios":"levelo://app?vid=9966e2c4-c438-4020-9570-af75c54f7699"},"vehicle_type_id":"4","last_reported":1745417424,"current_range_meters":16800,"station_id":"","pricing_plan_id":"cebpf4jnsgd1na2vs0mg"},{"bike_id":"2b30d130-759e-4ac9-b3b9-9d751eb27ae4","system_id":"levelo_inurba_marseille","lat":43.2842,"lon":5.37523,"is_reserved":false,"is_disabled":false,"rental_uris":{"android":"levelo://app?vid=2b30d130-759e-4ac9-b3b9-9d751eb27ae4","ios":"levelo://app?vid=2b30d130-759e-4ac9-b3b9-9d751eb27ae4"},"vehicle_type_id":"4","last_reported":1745417424,"current_range_meters":17200,"station_id":"ce4bh412rcd13ifvqds0","pricing_plan_id":"cebpf4jnsgd1na2vs0mg"},{"bike_id":"29c27f6c-b172-4d99-add3-c74bdfc6be20","system_id":"levelo_inurba_marseille","lat":43.33034,"lon":5.39044,"is_reserved":false,"is_disabled":false,"rental_uris":{"android":"levelo://app?vid=29c27f6c-b172-4d99-add3-c74bdfc6be20","ios":"levelo://app?vid=29c27f6c-b172-4d99-add3-c74bdfc6be20"},"vehicle_type_id":"4","last_reported":1745417424,"current_range_meters":17600,"station_id":"ce4bhr92rcd13ifvqhrg","pricing_plan_id":"cebpf4jnsgd1na2vs0mg"},{"bike_id":"461d8654-46de-407a-af94-fab41b64a6f1","system_id":"levelo_inurba_marseille","lat":43.31328,"lon":5.39708,"is_reserved":false,"is_disabled":false,"rental_uris":{"android":"levelo://app?vid=461d8654-46de-407a-af94-fab41b64a6f1","ios":"levelo://app?vid=461d8654-46de-407a-af94-fab41b64a6f1"},"vehicle_type_id":"4","last_reported":1745417424,"current_range_meters":17200,"station_id":"ce4bgvp2rcd13ifvqcu0","pricing_plan_id":"cebpf4jnsgd1na2vs0mg"},{"bike_id":"c6e1337f-ae63-4009-bf6e-b5bc9494c66f","system_id":"levelo_inurba_marseille","lat":43.30533,"lon":5.36716,"is_reserved":false,"is_disabled":false,"rental_uris":{"android":"levelo://app?vid=c6e1337f-ae63-4009-bf6e-b5bc9494c66f","ios":"levelo://app?vid=c6e1337f-ae63-4009-bf6e-b5bc9494c66f"},"vehicle_type_id":"4","last_reported":1745417424,"current_range_meters":17200,"station_id":"ce4bgrp2rcd13ifvqc9g","pricing_plan_id":"cebpf4jnsgd1na2vs0mg"},{"bike_id":"cba2ae11-3413-4e6c-b08f-155bac2c82da","system_id":"levelo_inurba_marseille","lat":43.28615,"lon":5.35105,"is_reserved":false,"is_disabled":false,"rental_uris":{"android":"levelo://app?vid=cba2ae11-3413-4e6c-b08f-155bac2c82da","ios":"levelo://app?vid=cba2ae11-3413-4e6c-b08f-155bac2c82da"},"vehicle_type_id":"4","last_reported":1745417424,"current_range_meters":17200,"station_id":"ce4bhch2rcd13ifvqeug","pricing_plan_id":"cebpf4jnsgd1na2vs0mg"},{"bike_id":"7e926ec5-c408-4924-8c16-56cb62772317","system_id":"levelo_inurba_marseille","lat":43.30316,"lon":5.36894,"is_reserved":false,"is_disabled":false,"rental_uris":{"android":"levelo://app?vid=7e926ec5-c408-4924-8c16-56cb62772317","ios":"levelo://app?vid=7e926ec5-c408-4924-8c16-56cb62772317"},"vehicle_type_id":"4","last_reported":1745417424,"current_range_meters":16400,"station_id":"ce4bgqh2rcd13ifvqc5g","pricing_plan_id":"cebpf4jnsgd1na2vs0mg"},{"bike_id":"431f8e0d-2b86-4422-8cda-97ec47af7bcd","system_id":"levelo_inurba_marseille","lat":43.2623,"lon":5.40461,"is_reserved":false,"is_disabled":false,"rental_uris":{"android":"levelo://app?vid=431f8e0d-2b86-4422-8cda-97ec47af7bcd","ios":"levelo://app?vid=431f8e0d-2b86-4422-8cda-97ec47af7bcd"},"vehicle_type_id":"4","last_reported":1745417424,"current_range_meters":17200,"station_id":"ce4bhmh2rcd13ifvqgmg","pricing_plan_id":"cebpf4jnsgd1na2vs0mg"},{"bike_id":"6b53055f-4933-41f2-b45b-b67db104f4e9","system_id":"levelo_inurba_marseille","lat":43.31475,"lon":5.37309,"is_reserved":false,"is_disabled":false,"rental_uris":{"android":"levelo://app?vid=6b53055f-4933-41f2-b45b-b67db104f4e9","ios":"levelo://app?vid=6b53055f-4933-41f2-b45b-b67db104f4e9"},"vehicle_type_id":"4","last_reported":1745417424,"current_range_meters":17200,"station_id":"ce4bgt12rcd13ifvqcd0","pricing_plan_id":"cebpf4jnsgd1na2vs0mg"},{"bike_id":"5946b16d-5555-4609-80c2-5c8e33fd1689","system_id":"levelo_inurba_marseille","lat":43.3052,"lon":5.36536,"is_reserved":false,"is_disabled":false,"rental_uris":{"android":"levelo://app?vid=5946b16d-5555-4609-80c2-5c8e33fd1689","ios":"levelo://app?vid=5946b16d-5555-4609-80c2-5c8e33fd1689"},"vehicle_type_id":"4","last_reported":1745417424,"current_range_meters":17600,"station_id":"","pricing_plan_id":"cebpf4jnsgd1na2vs0mg"},{"bike_id":"548a676c-6329-4f1b-a15f-51e09f419043","system_id":"levelo_inurba_marseille","lat":43.26964,"lon":5.38611,"is_reserved":false,"is_disabled":true,"rental_uris":{"android":"levelo://app?vid=548a676c-6329-4f1b-a15f-51e09f419043","ios":"levelo://app?vid=548a676c-6329-4f1b-a15f-51e09f419043"},"vehicle_type_id":"4","last_reported":1745417424,"current_range_meters":17600,"station_id":"ce4bhh92rcd13ifvqfh0","pricing_plan_id":"cebpf4jnsgd1na2vs0mg"},{"bike_id":"8d89104a-29c7-425d-bda9-af966dc2c6e6","system_id":"levelo_inurba_marseille","lat":43.24388,"lon":5.37052,"is_reserved":false,"is_disabled":false,"rental_uris":{"android":"levelo://app?vid=8d89104a-29c7-425d-bda9-af966dc2c6e6","ios":"levelo://app?vid=8d89104a-29c7-425d-bda9-af966dc2c6e6"},"vehicle_type_id":"4","last_reported":1745417424,"current_range_meters":17600,"station_id":"ce4bhhh2rcd13ifvqfk0","pricing_plan_id":"cebpf4jnsgd1na2vs0mg"},{"bike_id":"b3c33d3d-b441-47d3-a48f-efe8f631d025","system_id":"levelo_inurba_marseille","lat":43.2804,"lon":5.3695,"is_reserved":false,"is_disabled":false,"rental_uris":{"android":"levelo://app?vid=b3c33d3d-b441-47d3-a48f-efe8f631d025","ios":"levelo://app?vid=b3c33d3d-b441-47d3-a48f-efe8f631d025"},"vehicle_type_id":"4","last_reported":1745417424,"current_range_meters":17200,"station_id":"ce4bha12rcd13ifvqef0","pricing_plan_id":"cebpf4jnsgd1na2vs0mg"},{"bike_id":"7489a429-3def-4314-b2fd-69eb5685941d","system_id":"levelo_inurba_marseille","lat":43.29878,"lon":5.36862,"is_reserved":false,"is_disabled":false,"rental_uris":{"android":"levelo://app?vid=7489a429-3def-4314-b2fd-69eb5685941d","ios":"levelo://app?vid=7489a429-3def-4314-b2fd-69eb5685941d"},"vehicle_type_id":"4","last_reported":1745417424,"current_range_meters":17600,"station_id":"","pricing_plan_id":"cebpf4jnsgd1na2vs0mg"},{"bike_id":"c7b90bf3-baf1-4b35-b182-f85c92c205a4","system_id":"levelo_inurba_marseille","lat":43.28422,"lon":5.34987,"is_reserved":false,"is_disabled":false,"rental_uris":{"android":"levelo://app?vid=c7b90bf3-baf1-4b35-b182-f85c92c205a4","ios":"levelo://app?vid=c7b90bf3-baf1-4b35-b182-f85c92c205a4"},"vehicle_type_id":"4","last_reported":1745417424,"current_range_meters":17600,"station_id":"ce4bhbh2rcd13ifvqepg","pricing_plan_id":"cebpf4jnsgd1na2vs0mg"},{"bike_id":"8f5f2487-4d09-4dad-b613-8cc38e73aded","system_id":"levelo_inurba_marseille","lat":43.276095,"lon":5.361047,"is_reserved":false,"is_disabled":false,"rental_uris":{"android":"levelo://app?vid=8f5f2487-4d09-4dad-b613-8cc38e73aded","ios":"levelo://app?vid=8f5f2487-4d09-4dad-b613-8cc38e73aded"},"vehicle_type_id":"4","last_reported":1745417424,"current_range_meters":17600,"station_id":"ce4bgj92rcd13ifvqbe0","pricing_plan_id":"cebpf4jnsgd1na2vs0mg"},{"bike_id":"3f125ca2-d7c0-4933-a7a7-06a05ca8532a","system_id":"levelo_inurba_marseille","lat":43.26568,"lon":5.3902,"is_reserved":false,"is_disabled":false,"rental_uris":{"android":"levelo://app?vid=3f125ca2-d7c0-4933-a7a7-06a05ca8532a","ios":"levelo://app?vid=3f125ca2-d7c0-4933-a7a7-06a05ca8532a"},"vehicle_type_id":"4","last_reported":1745417424,"current_range_meters":17600,"station_id":"ce4bhe12rcd13ifvqf30","pricing_plan_id":"cebpf4jnsgd1na2vs0mg"},{"bike_id":"0ea362ce-4354-4f0f-acc7-962b146816c7","system_id":"levelo_inurba_marseille","lat":43.25861,"lon":5.39912,"is_reserved":false,"is_disabled":true,"rental_uris":{"android":"levelo://app?vid=0ea362ce-4354-4f0f-acc7-962b146816c7","ios":"levelo://app?vid=0ea362ce-4354-4f0f-acc7-962b146816c7"},"vehicle_type_id":"4","last_reported":1745417424,"current_range_meters":18000,"station_id":"ce4bhl92rcd13ifvqghg","pricing_plan_id":"cebpf4jnsgd1na2vs0mg"},{"bike_id":"950ec59c-6877-422e-b7bb-af6fd9f04856","system_id":"levelo_inurba_marseille","lat":43.30269,"lon":5.4008,"is_reserved":false,"is_disabled":false,"rental_uris":{"android":"levelo://app?vid=950ec59c-6877-422e-b7bb-af6fd9f04856","ios":"levelo://app?vid=950ec59c-6877-422e-b7bb-af6fd9f04856"},"vehicle_type_id":"4","last_reported":1745417424,"current_range_meters":18000,"station_id":"ce4bgvh2rcd13ifvqcs0","pricing_plan_id":"cebpf4jnsgd1na2vs0mg"},{"bike_id":"c4abfcbd-d18d-4d90-9a03-0e03c4ee1d87","system_id":"levelo_inurba_marseille","lat":43.27179,"lon":5.40981,"is_reserved":false,"is_disabled":false,"rental_uris":{"android":"levelo://app?vid=c4abfcbd-d18d-4d90-9a03-0e03c4ee1d87","ios":"levelo://app?vid=c4abfcbd-d18d-4d90-9a03-0e03c4ee1d87"},"vehicle_type_id":"4","last_reported":1745417424,"current_range_meters":17600,"station_id":"ce4bhl12rcd13ifvqgf0","pricing_plan_id":"cebpf4jnsgd1na2vs0mg"},{"bike_id":"76795801-15e6-4272-80f9-f24296731352","system_id":"levelo_inurba_marseille","lat":43.25021,"lon":5.38919,"is_reserved":false,"is_disabled":false,"rental_uris":{"android":"levelo://app?vid=76795801-15e6-4272-80f9-f24296731352","ios":"levelo://app?vid=76795801-15e6-4272-80f9-f24296731352"},"vehicle_type_id":"4","last_reported":1745417424,"current_range_meters":18000,"station_id":"ce4bhgp2rcd13ifvqfd0","pricing_plan_id":"cebpf4jnsgd1na2vs0mg"},{"bike_id":"ee354981-1331-4223-a45e-4b1b7261b1e3","system_id":"levelo_inurba_marseille","lat":43.33431,"lon":5.40042,"is_reserved":false,"is_disabled":false,"rental_uris":{"android":"levelo://app?vid=ee354981-1331-4223-a45e-4b1b7261b1e3","ios":"levelo://app?vid=ee354981-1331-4223-a45e-4b1b7261b1e3"},"vehicle_type_id":"4","last_reported":1745417424,"current_range_meters":18000,"station_id":"","pricing_plan_id":"cebpf4jnsgd1na2vs0mg"},{"bike_id":"46faa5a5-7005-4714-a4e7-3b500c63bf05","system_id":"levelo_inurba_marseille","lat":43.31326,"lon":5.39698,"is_reserved":false,"is_disabled":false,"rental_uris":{"android":"levelo://app?vid=46faa5a5-7005-4714-a4e7-3b500c63bf05","ios":"levelo://app?vid=46faa5a5-7005-4714-a4e7-3b500c63bf05"},"vehicle_type_id":"4","last_reported":1745417424,"current_range_meters":18000,"station_id":"ce4bgvp2rcd13ifvqcu0","pricing_plan_id":"cebpf4jnsgd1na2vs0mg"},{"bike_id":"15edaf96-692b-49e2-afab-a589c7cd80f5","system_id":"levelo_inurba_marseille","lat":43.26784,"lon":5.39412,"is_reserved":false,"is_disabled":false,"rental_uris":{"android":"levelo://app?vid=15edaf96-692b-49e2-afab-a589c7cd80f5","ios":"levelo://app?vid=15edaf96-692b-49e2-afab-a589c7cd80f5"},"vehicle_type_id":"4","last_reported":1745417424,"current_range_meters":18000,"station_id":"ce4bhh12rcd13ifvqfg0","pricing_plan_id":"cebpf4jnsgd1na2vs0mg"},{"bike_id":"94201ef7-9954-4e84-be72-e2fae875cbe9","system_id":"levelo_inurba_marseille","lat":43.28268,"lon":5.35062,"is_reserved":false,"is_disabled":false,"rental_uris":{"android":"levelo://app?vid=94201ef7-9954-4e84-be72-e2fae875cbe9","ios":"levelo://app?vid=94201ef7-9954-4e84-be72-e2fae875cbe9"},"vehicle_type_id":"4","last_reported":1745417424,"current_range_meters":18000,"station_id":"ce4bhbp2rcd13ifvqerg","pricing_plan_id":"cebpf4jnsgd1na2vs0mg"},{"bike_id":"63664f89-bfa0-44cc-9f1d-ad1a84da5af7","system_id":"levelo_inurba_marseille","lat":43.28568,"lon":5.39493,"is_reserved":false,"is_disabled":false,"rental_uris":{"android":"levelo://app?vid=63664f89-bfa0-44cc-9f1d-ad1a84da5af7","ios":"levelo://app?vid=63664f89-bfa0-44cc-9f1d-ad1a84da5af7"},"vehicle_type_id":"4","last_reported":1745417424,"current_range_meters":17600,"station_id":"ce4bh292rcd13ifvqdg0","pricing_plan_id":"cebpf4jnsgd1na2vs0mg"},{"bike_id":"479f0441-10b8-46d6-ad9c-51d6a1da785b","system_id":"levelo_inurba_marseille","lat":43.26762,"lon":5.394,"is_reserved":false,"is_disabled":false,"rental_uris":{"android":"levelo://app?vid=479f0441-10b8-46d6-ad9c-51d6a1da785b","ios":"levelo://app?vid=479f0441-10b8-46d6-ad9c-51d6a1da785b"},"vehicle_type_id":"4","last_reported":1745417424,"current_range_meters":18000,"station_id":"ce4bhh12rcd13ifvqfg0","pricing_plan_id":"cebpf4jnsgd1na2vs0mg"},{"bike_id":"5fc217d8-73ac-4f56-92da-4eb390b2a8b6","system_id":"levelo_inurba_marseille","lat":43.31708,"lon":5.37747,"is_reserved":false,"is_disabled":false,"rental_uris":{"android":"levelo://app?vid=5fc217d8-73ac-4f56-92da-4eb390b2a8b6","ios":"levelo://app?vid=5fc217d8-73ac-4f56-92da-4eb390b2a8b6"},"vehicle_type_id":"4","last_reported":1745417424,"current_range_meters":18000,"station_id":"ce4bgth2rcd13ifvqch0","pricing_plan_id":"cebpf4jnsgd1na2vs0mg"},{"bike_id":"894b8530-885f-4d4d-a2ae-913958cbbe2f","system_id":"levelo_inurba_marseille","lat":43.259243,"lon":5.409064,"is_reserved":false,"is_disabled":false,"rental_uris":{"android":"levelo://app?vid=894b8530-885f-4d4d-a2ae-913958cbbe2f","ios":"levelo://app?vid=894b8530-885f-4d4d-a2ae-913958cbbe2f"},"vehicle_type_id":"4","last_reported":1745417424,"current_range_meters":18800,"station_id":"ce4bhm92rcd13ifvqglg","pricing_plan_id":"cebpf4jnsgd1na2vs0mg"},{"bike_id":"b217c7a4-92b6-4872-91fa-f2c2827250cc","system_id":"levelo_inurba_marseille","lat":43.2884,"lon":5.39215,"is_reserved":false,"is_disabled":false,"rental_uris":{"android":"levelo://app?vid=b217c7a4-92b6-4872-91fa-f2c2827250cc","ios":"levelo://app?vid=b217c7a4-92b6-4872-91fa-f2c2827250cc"},"vehicle_type_id":"4","last_reported":1745417424,"current_range_meters":18800,"station_id":"","pricing_plan_id":"cebpf4jnsgd1na2vs0mg"},{"bike_id":"fa8a552a-d2d3-4e8d-8d8e-02bdba037836","system_id":"levelo_inurba_marseille","lat":43.337444,"lon":5.374475,"is_reserved":false,"is_disabled":false,"rental_uris":{"android":"levelo://app?vid=fa8a552a-d2d3-4e8d-8d8e-02bdba037836","ios":"levelo://app?vid=fa8a552a-d2d3-4e8d-8d8e-02bdba037836"},"vehicle_type_id":"4","last_reported":1745417424,"current_range_meters":18800,"station_id":"","pricing_plan_id":"cebpf4jnsgd1na2vs0mg"},{"bike_id":"68d0ae5a-e8ca-4cca-8a98-a96c8c381da2","system_id":"levelo_inurba_marseille","lat":43.29842,"lon":5.36268,"is_reserved":false,"is_disabled":false,"rental_uris":{"android":"levelo://app?vid=68d0ae5a-e8ca-4cca-8a98-a96c8c381da2","ios":"levelo://app?vid=68d0ae5a-e8ca-4cca-8a98-a96c8c381da2"},"vehicle_type_id":"4","last_reported":1745417424,"current_range_meters":19200,"station_id":"ce4bgpp2rcd13ifvqc3g","pricing_plan_id":"cebpf4jnsgd1na2vs0mg"},{"bike_id":"b46f4f49-f609-4c3e-a860-821458e42dfb","system_id":"levelo_inurba_marseille","lat":43.29928,"lon":5.3654,"is_reserved":false,"is_disabled":false,"rental_uris":{"android":"levelo://app?vid=b46f4f49-f609-4c3e-a860-821458e42dfb","ios":"levelo://app?vid=b46f4f49-f609-4c3e-a860-821458e42dfb"},"vehicle_type_id":"4","last_reported":1745417424,"current_range_meters":19200,"station_id":"ce4bgm92rcd13ifvqbr0","pricing_plan_id":"cebpf4jnsgd1na2vs0mg"},{"bike_id":"8f33f60c-520f-4816-886f-b784d01d7d2b","system_id":"levelo_inurba_marseille","lat":43.28266,"lon":5.35069,"is_reserved":false,"is_disabled":false,"rental_uris":{"android":"levelo://app?vid=8f33f60c-520f-4816-886f-b784d01d7d2b","ios":"levelo://app?vid=8f33f60c-520f-4816-886f-b784d01d7d2b"},"vehicle_type_id":"4","last_reported":1745417424,"current_range_meters":19200,"station_id":"ce4bhbp2rcd13ifvqerg","pricing_plan_id":"cebpf4jnsgd1na2vs0mg"},{"bike_id":"2eaf8beb-1cac-47a8-96ab-693b8610591d","system_id":"levelo_inurba_marseille","lat":43.24174,"lon":5.39728,"is_reserved":false,"is_disabled":false,"rental_uris":{"android":"levelo://app?vid=2eaf8beb-1cac-47a8-96ab-693b8610591d","ios":"levelo://app?vid=2eaf8beb-1cac-47a8-96ab-693b8610591d"},"vehicle_type_id":"4","last_reported":1745417424,"current_range_meters":19200,"station_id":"ce4bhn12rcd13ifvqgpg","pricing_plan_id":"cebpf4jnsgd1na2vs0mg"},{"bike_id":"9b6cba51-28a4-4867-a711-8deb989a0c91","system_id":"levelo_inurba_marseille","lat":43.275271,"lon":5.389302,"is_reserved":false,"is_disabled":false,"rental_uris":{"android":"levelo://app?vid=9b6cba51-28a4-4867-a711-8deb989a0c91","ios":"levelo://app?vid=9b6cba51-28a4-4867-a711-8deb989a0c91"},"vehicle_type_id":"4","last_reported":1745417424,"current_range_meters":18800,"station_id":"ce4bgqh2rcd13ifvqc4g","pricing_plan_id":"cebpf4jnsgd1na2vs0mg"},{"bike_id":"14ccdcfd-5c55-4f67-ae11-c145d930fbb5","system_id":"levelo_inurba_marseille","lat":43.30376,"lon":5.42483,"is_reserved":false,"is_disabled":false,"rental_uris":{"android":"levelo://app?vid=14ccdcfd-5c55-4f67-ae11-c145d930fbb5","ios":"levelo://app?vid=14ccdcfd-5c55-4f67-ae11-c145d930fbb5"},"vehicle_type_id":"4","last_reported":1745417424,"current_range_meters":19200,"station_id":"ce4bhoh2rcd13ifvqh6g","pricing_plan_id":"cebpf4jnsgd1na2vs0mg"},{"bike_id":"50aae679-9779-461f-b115-22f956c3b979","system_id":"levelo_inurba_marseille","lat":43.290679,"lon":5.381108,"is_reserved":false,"is_disabled":false,"rental_uris":{"android":"levelo://app?vid=50aae679-9779-461f-b115-22f956c3b979","ios":"levelo://app?vid=50aae679-9779-461f-b115-22f956c3b979"},"vehicle_type_id":"4","last_reported":1745417424,"current_range_meters":19200,"station_id":"ce4bh4p2rcd13ifvqe1g","pricing_plan_id":"cebpf4jnsgd1na2vs0mg"},{"bike_id":"6bd1a8c3-dc7f-4dbc-98c8-ac7593a8f16d","system_id":"levelo_inurba_marseille","lat":43.30256,"lon":5.40068,"is_reserved":false,"is_disabled":false,"rental_uris":{"android":"levelo://app?vid=6bd1a8c3-dc7f-4dbc-98c8-ac7593a8f16d","ios":"levelo://app?vid=6bd1a8c3-dc7f-4dbc-98c8-ac7593a8f16d"},"vehicle_type_id":"4","last_reported":1745417424,"current_range_meters":18800,"station_id":"ce4bgvh2rcd13ifvqcs0","pricing_plan_id":"cebpf4jnsgd1na2vs0mg"},{"bike_id":"db5aece3-f671-463b-8d4f-4d692a6fc18c","system_id":"levelo_inurba_marseille","lat":43.29698,"lon":5.3662,"is_reserved":false,"is_disabled":false,"rental_uris":{"android":"levelo://app?vid=db5aece3-f671-463b-8d4f-4d692a6fc18c","ios":"levelo://app?vid=db5aece3-f671-463b-8d4f-4d692a6fc18c"},"vehicle_type_id":"4","last_reported":1745417424,"current_range_meters":19200,"station_id":"ce4bgn12rcd13ifvqbt0","pricing_plan_id":"cebpf4jnsgd1na2vs0mg"},{"bike_id":"00b08297-35d6-4846-bf8a-bff6cabbfb8e","system_id":"levelo_inurba_marseille","lat":43.23198,"lon":5.35545,"is_reserved":false,"is_disabled":false,"rental_uris":{"android":"levelo://app?vid=00b08297-35d6-4846-bf8a-bff6cabbfb8e","ios":"levelo://app?vid=00b08297-35d6-4846-bf8a-bff6cabbfb8e"},"vehicle_type_id":"4","last_reported":1745417424,"current_range_meters":19600,"station_id":"ce4bhu92rcd13ifvqi70","pricing_plan_id":"cebpf4jnsgd1na2vs0mg"},{"bike_id":"76c010ce-291d-42e8-8c9c-bb6e23877a8f","system_id":"levelo_inurba_marseille","lat":43.28414,"lon":5.3499,"is_reserved":false,"is_disabled":false,"rental_uris":{"android":"levelo://app?vid=76c010ce-291d-42e8-8c9c-bb6e23877a8f","ios":"levelo://app?vid=76c010ce-291d-42e8-8c9c-bb6e23877a8f"},"vehicle_type_id":"4","last_reported":1745417424,"current_range_meters":19600,"station_id":"ce4bhbh2rcd13ifvqepg","pricing_plan_id":"cebpf4jnsgd1na2vs0mg"},{"bike_id":"e08ed01d-b22c-48a8-8cd8-0c7d5e4e9163","system_id":"levelo_inurba_marseille","lat":43.28404,"lon":5.34997,"is_reserved":false,"is_disabled":false,"rental_uris":{"android":"levelo://app?vid=e08ed01d-b22c-48a8-8cd8-0c7d5e4e9163","ios":"levelo://app?vid=e08ed01d-b22c-48a8-8cd8-0c7d5e4e9163"},"vehicle_type_id":"4","last_reported":1745417424,"current_range_meters":19600,"station_id":"ce4bhbh2rcd13ifvqepg","pricing_plan_id":"cebpf4jnsgd1na2vs0mg"},{"bike_id":"3a545f48-8c35-4db6-b38c-4b4a8a6ffa28","system_id":"levelo_inurba_marseille","lat":43.30932,"lon":5.40136,"is_reserved":false,"is_disabled":false,"rental_uris":{"android":"levelo://app?vid=3a545f48-8c35-4db6-b38c-4b4a8a6ffa28","ios":"levelo://app?vid=3a545f48-8c35-4db6-b38c-4b4a8a6ffa28"},"vehicle_type_id":"4","last_reported":1745417424,"current_range_meters":19200,"station_id":"ce4bgvp2rcd13ifvqct0","pricing_plan_id":"cebpf4jnsgd1na2vs0mg"},{"bike_id":"7049f559-46ea-469f-b042-655207f67349","system_id":"levelo_inurba_marseille","lat":43.2315,"lon":5.43726,"is_reserved":false,"is_disabled":false,"rental_uris":{"android":"levelo://app?vid=7049f559-46ea-469f-b042-655207f67349","ios":"levelo://app?vid=7049f559-46ea-469f-b042-655207f67349"},"vehicle_type_id":"4","last_reported":1745417424,"current_range_meters":19600,"station_id":"ce4bhmp2rcd13ifvqgog","pricing_plan_id":"cebpf4jnsgd1na2vs0mg"},{"bike_id":"b76cf568-e864-4699-83e3-49ba700a0563","system_id":"levelo_inurba_marseille","lat":43.24658,"lon":5.3816,"is_reserved":false,"is_disabled":false,"rental_uris":{"android":"levelo://app?vid=b76cf568-e864-4699-83e3-49ba700a0563","ios":"levelo://app?vid=b76cf568-e864-4699-83e3-49ba700a0563"},"vehicle_type_id":"4","last_reported":1745417424,"current_range_meters":20000,"station_id":"ce4bhih2rcd13ifvqfr0","pricing_plan_id":"cebpf4jnsgd1na2vs0mg"},{"bike_id":"5dd12b3b-eef7-4dab-a6de-2ed4ff99da38","system_id":"levelo_inurba_marseille","lat":43.29027,"lon":5.37556,"is_reserved":false,"is_disabled":true,"rental_uris":{"android":"levelo://app?vid=5dd12b3b-eef7-4dab-a6de-2ed4ff99da38","ios":"levelo://app?vid=5dd12b3b-eef7-4dab-a6de-2ed4ff99da38"},"vehicle_type_id":"4","last_reported":1745417424,"current_range_meters":20000,"station_id":"ce4bh692rcd13ifvqe90","pricing_plan_id":"cebpf4jnsgd1na2vs0mg"},{"bike_id":"ab660249-0742-4ee6-9f3c-cbf7eabd0145","system_id":"levelo_inurba_marseille","lat":43.28603,"lon":5.37073,"is_reserved":false,"is_disabled":false,"rental_uris":{"android":"levelo://app?vid=ab660249-0742-4ee6-9f3c-cbf7eabd0145","ios":"levelo://app?vid=ab660249-0742-4ee6-9f3c-cbf7eabd0145"},"vehicle_type_id":"4","last_reported":1745417424,"current_range_meters":20000,"station_id":"ce4bht12rcd13ifvqi60","pricing_plan_id":"cebpf4jnsgd1na2vs0mg"},{"bike_id":"d67e280a-f708-44d7-ac1f-37a8ebf5003e","system_id":"levelo_inurba_marseille","lat":43.3018,"lon":5.39373,"is_reserved":false,"is_disabled":false,"rental_uris":{"android":"levelo://app?vid=d67e280a-f708-44d7-ac1f-37a8ebf5003e","ios":"levelo://app?vid=d67e280a-f708-44d7-ac1f-37a8ebf5003e"},"vehicle_type_id":"4","last_reported":1745417424,"current_range_meters":20000,"station_id":"","pricing_plan_id":"cebpf4jnsgd1na2vs0mg"},{"bike_id":"4913507c-096c-4918-8edb-802e1c951937","system_id":"levelo_inurba_marseille","lat":43.29899,"lon":5.43657,"is_reserved":false,"is_disabled":false,"rental_uris":{"android":"levelo://app?vid=4913507c-096c-4918-8edb-802e1c951937","ios":"levelo://app?vid=4913507c-096c-4918-8edb-802e1c951937"},"vehicle_type_id":"4","last_reported":1745417424,"current_range_meters":20000,"station_id":"ce4bhpp2rcd13ifvqhfg","pricing_plan_id":"cebpf4jnsgd1na2vs0mg"},{"bike_id":"17f64928-2dde-4002-ba54-81b220f041ae","system_id":"levelo_inurba_marseille","lat":43.28425,"lon":5.34992,"is_reserved":false,"is_disabled":false,"rental_uris":{"android":"levelo://app?vid=17f64928-2dde-4002-ba54-81b220f041ae","ios":"levelo://app?vid=17f64928-2dde-4002-ba54-81b220f041ae"},"vehicle_type_id":"4","last_reported":1745417424,"current_range_meters":20400,"station_id":"ce4bhbh2rcd13ifvqepg","pricing_plan_id":"cebpf4jnsgd1na2vs0mg"},{"bike_id":"394b5120-10bf-44a4-87e5-5bad9649243f","system_id":"levelo_inurba_marseille","lat":43.28413,"lon":5.34987,"is_reserved":false,"is_disabled":false,"rental_uris":{"android":"levelo://app?vid=394b5120-10bf-44a4-87e5-5bad9649243f","ios":"levelo://app?vid=394b5120-10bf-44a4-87e5-5bad9649243f"},"vehicle_type_id":"4","last_reported":1745417424,"current_range_meters":20400,"station_id":"ce4bhbh2rcd13ifvqepg","pricing_plan_id":"cebpf4jnsgd1na2vs0mg"},{"bike_id":"8b43b1fb-5cab-4db8-ae05-f66514d8855e","system_id":"levelo_inurba_marseille","lat":43.31295,"lon":5.37304,"is_reserved":false,"is_disabled":false,"rental_uris":{"android":"levelo://app?vid=8b43b1fb-5cab-4db8-ae05-f66514d8855e","ios":"levelo://app?vid=8b43b1fb-5cab-4db8-ae05-f66514d8855e"},"vehicle_type_id":"4","last_reported":1745417424,"current_range_meters":20400,"station_id":"","pricing_plan_id":"cebpf4jnsgd1na2vs0mg"},{"bike_id":"ab8406b2-4f8d-4381-8821-3db52b0a4d4d","system_id":"levelo_inurba_marseille","lat":43.27354,"lon":5.37838,"is_reserved":false,"is_disabled":false,"rental_uris":{"android":"levelo://app?vid=ab8406b2-4f8d-4381-8821-3db52b0a4d4d","ios":"levelo://app?vid=ab8406b2-4f8d-4381-8821-3db52b0a4d4d"},"vehicle_type_id":"4","last_reported":1745417424,"current_range_meters":20400,"station_id":"","pricing_plan_id":"cebpf4jnsgd1na2vs0mg"},{"bike_id":"5a0fddb1-7b1f-4a0c-96a2-fe273b29a8de","system_id":"levelo_inurba_marseille","lat":43.2862,"lon":5.350967,"is_reserved":false,"is_disabled":false,"rental_uris":{"android":"levelo://app?vid=5a0fddb1-7b1f-4a0c-96a2-fe273b29a8de","ios":"levelo://app?vid=5a0fddb1-7b1f-4a0c-96a2-fe273b29a8de"},"vehicle_type_id":"4","last_reported":1745417424,"current_range_meters":20400,"station_id":"ce4bhch2rcd13ifvqeug","pricing_plan_id":"cebpf4jnsgd1na2vs0mg"},{"bike_id":"fccfb157-688a-49af-992a-1ce9f178a3c3","system_id":"levelo_inurba_marseille","lat":43.22937,"lon":5.35379,"is_reserved":false,"is_disabled":false,"rental_uris":{"android":"levelo://app?vid=fccfb157-688a-49af-992a-1ce9f178a3c3","ios":"levelo://app?vid=fccfb157-688a-49af-992a-1ce9f178a3c3"},"vehicle_type_id":"4","last_reported":1745417424,"current_range_meters":20400,"station_id":"cpo3532slgdg3j2ikp40","pricing_plan_id":"cebpf4jnsgd1na2vs0mg"},{"bike_id":"ad435124-c9e7-428b-b34f-4515a72c402c","system_id":"levelo_inurba_marseille","lat":43.27368,"lon":5.36259,"is_reserved":false,"is_disabled":false,"rental_uris":{"android":"levelo://app?vid=ad435124-c9e7-428b-b34f-4515a72c402c","ios":"levelo://app?vid=ad435124-c9e7-428b-b34f-4515a72c402c"},"vehicle_type_id":"4","last_reported":1745417424,"current_range_meters":20400,"station_id":"ce4bhbh2rcd13ifvqeo0","pricing_plan_id":"cebpf4jnsgd1na2vs0mg"},{"bike_id":"553dd91c-5b76-436c-a59c-2d412995bbeb","system_id":"levelo_inurba_marseille","lat":43.25578,"lon":5.38223,"is_reserved":false,"is_disabled":false,"rental_uris":{"android":"levelo://app?vid=553dd91c-5b76-436c-a59c-2d412995bbeb","ios":"levelo://app?vid=553dd91c-5b76-436c-a59c-2d412995bbeb"},"vehicle_type_id":"4","last_reported":1745417424,"current_range_meters":20800,"station_id":"ce4bhih2rcd13ifvqfs0","pricing_plan_id":"cebpf4jnsgd1na2vs0mg"},{"bike_id":"a5856b95-9e19-4436-b973-344e5d5dcbd8","system_id":"levelo_inurba_marseille","lat":43.24173,"lon":5.36391,"is_reserved":false,"is_disabled":false,"rental_uris":{"android":"levelo://app?vid=a5856b95-9e19-4436-b973-344e5d5dcbd8","ios":"levelo://app?vid=a5856b95-9e19-4436-b973-344e5d5dcbd8"},"vehicle_type_id":"4","last_reported":1745417424,"current_range_meters":20800,"station_id":"cpo36qri1sfpv3e86is0","pricing_plan_id":"cebpf4jnsgd1na2vs0mg"},{"bike_id":"4fb96653-596b-401b-b138-0f35ea71fe1f","system_id":"levelo_inurba_marseille","lat":43.310734,"lon":5.383512,"is_reserved":false,"is_disabled":false,"rental_uris":{"android":"levelo://app?vid=4fb96653-596b-401b-b138-0f35ea71fe1f","ios":"levelo://app?vid=4fb96653-596b-401b-b138-0f35ea71fe1f"},"vehicle_type_id":"4","last_reported":1745417424,"current_range_meters":20400,"station_id":"ce4bgj92rcd13ifvqbd0","pricing_plan_id":"cebpf4jnsgd1na2vs0mg"},{"bike_id":"3e0aa3e7-c754-47bb-b121-e4e44f2c86c5","system_id":"levelo_inurba_marseille","lat":43.32492,"lon":5.36581,"is_reserved":false,"is_disabled":false,"rental_uris":{"android":"levelo://app?vid=3e0aa3e7-c754-47bb-b121-e4e44f2c86c5","ios":"levelo://app?vid=3e0aa3e7-c754-47bb-b121-e4e44f2c86c5"},"vehicle_type_id":"4","last_reported":1745417424,"current_range_meters":21600,"station_id":"ce4bhs12rcd13ifvqhvg","pricing_plan_id":"cebpf4jnsgd1na2vs0mg"},{"bike_id":"b7872660-583b-4700-9d67-146e74052115","system_id":"levelo_inurba_marseille","lat":43.30436,"lon":5.38877,"is_reserved":false,"is_disabled":false,"rental_uris":{"android":"levelo://app?vid=b7872660-583b-4700-9d67-146e74052115","ios":"levelo://app?vid=b7872660-583b-4700-9d67-146e74052115"},