{"last_updated":1741324214,"ttl":60,"version":"2.2","data":{"bikes":[{"bike_id":"42eccaf5-53fa-4467-8dbb-c674ce4a5491","system_id":"levelo_inurba_marseille","lat":43.33596,"lon":5.40986,"is_reserved":false,"is_disabled":false,"rental_uris":{"android":"levelo://app?vid=42eccaf5-53fa-4467-8dbb-c674ce4a5491","ios":"levelo://app?vid=42eccaf5-53fa-4467-8dbb-c674ce4a5491"},"vehicle_type_id":"4","last_reported":1741324214,"current_range_meters":2800,"station_id":"ce4bhqh2rcd13ifvqhmg","pricing_plan_id":"cebpf4jnsgd1na2vs0mg"},{"bike_id":"fb25d1fa-fbd9-4e45-ad85-54dd28c8ee03","system_id":"levelo_inurba_marseille","lat":43.25017,"lon":5.38965,"is_reserved":false,"is_disabled":false,"rental_uris":{"android":"levelo://app?vid=fb25d1fa-fbd9-4e45-ad85-54dd28c8ee03","ios":"levelo://app?vid=fb25d1fa-fbd9-4e45-ad85-54dd28c8ee03"},"vehicle_type_id":"4","last_reported":1741324214,"current_range_meters":3200,"station_id":"ce4bhgp2rcd13ifvqfd0","pricing_plan_id":"cebpf4jnsgd1na2vs0mg"},{"bike_id":"49af381c-03c2-4987-a33c-943eed36c3de","system_id":"levelo_inurba_marseille","lat":43.229365,"lon":5.353844,"is_reserved":false,"is_disabled":false,"rental_uris":{"android":"levelo://app?vid=49af381c-03c2-4987-a33c-943eed36c3de","ios":"levelo://app?vid=49af381c-03c2-4987-a33c-943eed36c3de"},"vehicle_type_id":"4","last_reported":1741324214,"current_range_meters":3200,"station_id":"cpo3532slgdg3j2ikp40","pricing_plan_id":"cebpf4jnsgd1na2vs0mg"},{"bike_id":"f732301c-5814-4217-889c-43168a540117","system_id":"levelo_inurba_marseille","lat":43.25565,"lon":5.3827,"is_reserved":false,"is_disabled":false,"rental_uris":{"android":"levelo://app?vid=f732301c-5814-4217-889c-43168a540117","ios":"levelo://app?vid=f732301c-5814-4217-889c-43168a540117"},"vehicle_type_id":"4","last_reported":1741324214,"current_range_meters":3200,"station_id":"ce4bhih2rcd13ifvqfs0","pricing_plan_id":"cebpf4jnsgd1na2vs0mg"},{"bike_id":"b54317ef-a5b5-450f-88ad-57d8c17e4013","system_id":"levelo_inurba_marseille","lat":43.24066,"lon":5.3775,"is_reserved":false,"is_disabled":false,"rental_uris":{"android":"levelo://app?vid=b54317ef-a5b5-450f-88ad-57d8c17e4013","ios":"levelo://app?vid=b54317ef-a5b5-450f-88ad-57d8c17e4013"},"vehicle_type_id":"4","last_reported":1741324214,"current_range_meters":3200,"station_id":"ce4bhnp2rcd13ifvqgvg","pricing_plan_id":"cebpf4jnsgd1na2vs0mg"},{"bike_id":"c6efdfee-4842-42b0-a53a-6965d2d6795d","system_id":"levelo_inurba_marseille","lat":43.2648,"lon":5.39568,"is_reserved":false,"is_disabled":false,"rental_uris":{"android":"levelo://app?vid=c6efdfee-4842-42b0-a53a-6965d2d6795d","ios":"levelo://app?vid=c6efdfee-4842-42b0-a53a-6965d2d6795d"},"vehicle_type_id":"4","last_reported":1741324214,"current_range_meters":3600,"station_id":"ce4bhi12rcd13ifvqfq0","pricing_plan_id":"cebpf4jnsgd1na2vs0mg"},{"bike_id":"f55c257b-ef57-4960-8890-497599d807b8","system_id":"levelo_inurba_marseille","lat":43.32314,"lon":5.41532,"is_reserved":false,"is_disabled":false,"rental_uris":{"android":"levelo://app?vid=f55c257b-ef57-4960-8890-497599d807b8","ios":"levelo://app?vid=f55c257b-ef57-4960-8890-497599d807b8"},"vehicle_type_id":"4","last_reported":1741324214,"current_range_meters":3600,"station_id":"","pricing_plan_id":"cebpf4jnsgd1na2vs0mg"},{"bike_id":"9cc95264-dac9-4ea9-9ab8-6c90c8222de4","system_id":"levelo_inurba_marseille","lat":43.29619,"lon":5.40576,"is_reserved":false,"is_disabled":false,"rental_uris":{"android":"levelo://app?vid=9cc95264-dac9-4ea9-9ab8-6c90c8222de4","ios":"levelo://app?vid=9cc95264-dac9-4ea9-9ab8-6c90c8222de4"},"vehicle_type_id":"4","last_reported":1741324214,"current_range_meters":4000,"station_id":"ce4bh0h2rcd13ifvqd60","pricing_plan_id":"cebpf4jnsgd1na2vs0mg"},{"bike_id":"54ba78ca-a919-4e92-ba56-59192a7d5158","system_id":"levelo_inurba_marseille","lat":43.29136,"lon":5.40501,"is_reserved":false,"is_disabled":false,"rental_uris":{"android":"levelo://app?vid=54ba78ca-a919-4e92-ba56-59192a7d5158","ios":"levelo://app?vid=54ba78ca-a919-4e92-ba56-59192a7d5158"},"vehicle_type_id":"4","last_reported":1741324214,"current_range_meters":4000,"station_id":"","pricing_plan_id":"cebpf4jnsgd1na2vs0mg"},{"bike_id":"663449dc-73e9-4eb1-a876-ad82e180c88e","system_id":"levelo_inurba_marseille","lat":43.30668,"lon":5.40024,"is_reserved":false,"is_disabled":false,"rental_uris":{"android":"levelo://app?vid=663449dc-73e9-4eb1-a876-ad82e180c88e","ios":"levelo://app?vid=663449dc-73e9-4eb1-a876-ad82e180c88e"},"vehicle_type_id":"4","last_reported":1741324214,"current_range_meters":4400,"station_id":"","pricing_plan_id":"cebpf4jnsgd1na2vs0mg"},{"bike_id":"fadc5597-2f44-411e-bbc9-b698e9edf980","system_id":"levelo_inurba_marseille","lat":43.27937,"lon":5.41041,"is_reserved":false,"is_disabled":false,"rental_uris":{"android":"levelo://app?vid=fadc5597-2f44-411e-bbc9-b698e9edf980","ios":"levelo://app?vid=fadc5597-2f44-411e-bbc9-b698e9edf980"},"vehicle_type_id":"4","last_reported":1741324214,"current_range_meters":4400,"station_id":"ce4bhnp2rcd13ifvqh0g","pricing_plan_id":"cebpf4jnsgd1na2vs0mg"},{"bike_id":"7bf411fb-fcab-483d-a671-98cef94af25b","system_id":"levelo_inurba_marseille","lat":43.28466,"lon":5.38432,"is_reserved":false,"is_disabled":false,"rental_uris":{"android":"levelo://app?vid=7bf411fb-fcab-483d-a671-98cef94af25b","ios":"levelo://app?vid=7bf411fb-fcab-483d-a671-98cef94af25b"},"vehicle_type_id":"4","last_reported":1741324214,"current_range_meters":4800,"station_id":"ce4bh512rcd13ifvqe3g","pricing_plan_id":"cebpf4jnsgd1na2vs0mg"},{"bike_id":"d37ccab8-1c85-4940-b402-b55b97bd9ada","system_id":"levelo_inurba_marseille","lat":43.29719,"lon":5.36591,"is_reserved":false,"is_disabled":true,"rental_uris":{"android":"levelo://app?vid=d37ccab8-1c85-4940-b402-b55b97bd9ada","ios":"levelo://app?vid=d37ccab8-1c85-4940-b402-b55b97bd9ada"},"vehicle_type_id":"4","last_reported":1741324214,"current_range_meters":4800,"station_id":"ce4bgn12rcd13ifvqbt0","pricing_plan_id":"cebpf4jnsgd1na2vs0mg"},{"bike_id":"03c3dc7c-8ee4-444d-b4cb-ba42a05873bd","system_id":"levelo_inurba_marseille","lat":43.22925,"lon":5.3537,"is_reserved":false,"is_disabled":false,"rental_uris":{"android":"levelo://app?vid=03c3dc7c-8ee4-444d-b4cb-ba42a05873bd","ios":"levelo://app?vid=03c3dc7c-8ee4-444d-b4cb-ba42a05873bd"},"vehicle_type_id":"4","last_reported":1741324214,"current_range_meters":4800,"station_id":"cpo3532slgdg3j2ikp40","pricing_plan_id":"cebpf4jnsgd1na2vs0mg"},{"bike_id":"8b9bc798-e317-46f5-a686-980ffa8f1064","system_id":"levelo_inurba_marseille","lat":43.304246,"lon":5.388734,"is_reserved":false,"is_disabled":false,"rental_uris":{"android":"levelo://app?vid=8b9bc798-e317-46f5-a686-980ffa8f1064","ios":"levelo://app?vid=8b9bc798-e317-46f5-a686-980ffa8f1064"},"vehicle_type_id":"4","last_reported":1741324214,"current_range_meters":4800,"station_id":"ce4bgk12rcd13ifvqbi0","pricing_plan_id":"cebpf4jnsgd1na2vs0mg"},{"bike_id":"3fffc9cd-f418-41de-9fba-0cc23722d684","system_id":"levelo_inurba_marseille","lat":43.23066,"lon":5.35497,"is_reserved":false,"is_disabled":false,"rental_uris":{"android":"levelo://app?vid=3fffc9cd-f418-41de-9fba-0cc23722d684","ios":"levelo://app?vid=3fffc9cd-f418-41de-9fba-0cc23722d684"},"vehicle_type_id":"4","last_reported":1741324214,"current_range_meters":4800,"station_id":"cpo3342slgdg3j2ifvpg","pricing_plan_id":"cebpf4jnsgd1na2vs0mg"},{"bike_id":"77ae1912-8e6f-489b-99a2-9bc231f96cf9","system_id":"levelo_inurba_marseille","lat":43.255717,"lon":5.382387,"is_reserved":false,"is_disabled":false,"rental_uris":{"android":"levelo://app?vid=77ae1912-8e6f-489b-99a2-9bc231f96cf9","ios":"levelo://app?vid=77ae1912-8e6f-489b-99a2-9bc231f96cf9"},"vehicle_type_id":"4","last_reported":1741324214,"current_range_meters":5600,"station_id":"ce4bhih2rcd13ifvqfs0","pricing_plan_id":"cebpf4jnsgd1na2vs0mg"},{"bike_id":"4a516282-574d-43c0-b9a6-d7bcc8bc4d21","system_id":"levelo_inurba_marseille","lat":43.24629,"lon":5.38928,"is_reserved":false,"is_disabled":false,"rental_uris":{"android":"levelo://app?vid=4a516282-574d-43c0-b9a6-d7bcc8bc4d21","ios":"levelo://app?vid=4a516282-574d-43c0-b9a6-d7bcc8bc4d21"},"vehicle_type_id":"4","last_reported":1741324214,"current_range_meters":5600,"station_id":"ce4bhg12rcd13ifvqf60","pricing_plan_id":"cebpf4jnsgd1na2vs0mg"},{"bike_id":"d8ebe6ef-7120-442a-8938-758f7c937563","system_id":"levelo_inurba_marseille","lat":43.29746,"lon":5.41091,"is_reserved":false,"is_disabled":false,"rental_uris":{"android":"levelo://app?vid=d8ebe6ef-7120-442a-8938-758f7c937563","ios":"levelo://app?vid=d8ebe6ef-7120-442a-8938-758f7c937563"},"vehicle_type_id":"4","last_reported":1741324214,"current_range_meters":5600,"station_id":"","pricing_plan_id":"cebpf4jnsgd1na2vs0mg"},{"bike_id":"48be3c18-589c-4708-8ab4-90ce9c9983a1","system_id":"levelo_inurba_marseille","lat":43.240771,"lon":5.377484,"is_reserved":false,"is_disabled":false,"rental_uris":{"android":"levelo://app?vid=48be3c18-589c-4708-8ab4-90ce9c9983a1","ios":"levelo://app?vid=48be3c18-589c-4708-8ab4-90ce9c9983a1"},"vehicle_type_id":"4","last_reported":1741324214,"current_range_meters":5600,"station_id":"ce4bhnp2rcd13ifvqgvg","pricing_plan_id":"cebpf4jnsgd1na2vs0mg"},{"bike_id":"de754493-593d-484d-850a-eaba979f3d3f","system_id":"levelo_inurba_marseille","lat":43.27931,"lon":5.41048,"is_reserved":false,"is_disabled":false,"rental_uris":{"android":"levelo://app?vid=de754493-593d-484d-850a-eaba979f3d3f","ios":"levelo://app?vid=de754493-593d-484d-850a-eaba979f3d3f"},"vehicle_type_id":"4","last_reported":1741324214,"current_range_meters":6000,"station_id":"ce4bhnp2rcd13ifvqh0g","pricing_plan_id":"cebpf4jnsgd1na2vs0mg"},{"bike_id":"6189731a-6ad3-4dd8-81b0-37923a566591","system_id":"levelo_inurba_marseille","lat":43.26023,"lon":5.39395,"is_reserved":false,"is_disabled":false,"rental_uris":{"android":"levelo://app?vid=6189731a-6ad3-4dd8-81b0-37923a566591","ios":"levelo://app?vid=6189731a-6ad3-4dd8-81b0-37923a566591"},"vehicle_type_id":"4","last_reported":1741324214,"current_range_meters":6000,"station_id":"","pricing_plan_id":"cebpf4jnsgd1na2vs0mg"},{"bike_id":"44bad7a4-03e7-474a-842c-1a3b07e0b66a","system_id":"levelo_inurba_marseille","lat":43.265405,"lon":5.373038,"is_reserved":false,"is_disabled":false,"rental_uris":{"android":"levelo://app?vid=44bad7a4-03e7-474a-842c-1a3b07e0b66a","ios":"levelo://app?vid=44bad7a4-03e7-474a-842c-1a3b07e0b66a"},"vehicle_type_id":"4","last_reported":1741324214,"current_range_meters":6000,"station_id":"ce4bhg12rcd13ifvqf70","pricing_plan_id":"cebpf4jnsgd1na2vs0mg"},{"bike_id":"64e6d7c7-6964-4f42-9f4d-1ffd80e5e48d","system_id":"levelo_inurba_marseille","lat":43.24151,"lon":5.36419,"is_reserved":false,"is_disabled":false,"rental_uris":{"android":"levelo://app?vid=64e6d7c7-6964-4f42-9f4d-1ffd80e5e48d","ios":"levelo://app?vid=64e6d7c7-6964-4f42-9f4d-1ffd80e5e48d"},"vehicle_type_id":"4","last_reported":1741324214,"current_range_meters":6000,"station_id":"cpo36qri1sfpv3e86is0","pricing_plan_id":"cebpf4jnsgd1na2vs0mg"},{"bike_id":"50ef45ed-3c4c-476d-bdb8-f0f24a94b687","system_id":"levelo_inurba_marseille","lat":43.24653,"lon":5.38171,"is_reserved":false,"is_disabled":false,"rental_uris":{"android":"levelo://app?vid=50ef45ed-3c4c-476d-bdb8-f0f24a94b687","ios":"levelo://app?vid=50ef45ed-3c4c-476d-bdb8-f0f24a94b687"},"vehicle_type_id":"4","last_reported":1741324214,"current_range_meters":6400,"station_id":"ce4bhih2rcd13ifvqfr0","pricing_plan_id":"cebpf4jnsgd1na2vs0mg"},{"bike_id":"e0e2a062-8721-4fba-b601-7c210babb3a0","system_id":"levelo_inurba_marseille","lat":43.31722,"lon":5.42399,"is_reserved":false,"is_disabled":false,"rental_uris":{"android":"levelo://app?vid=e0e2a062-8721-4fba-b601-7c210babb3a0","ios":"levelo://app?vid=e0e2a062-8721-4fba-b601-7c210babb3a0"},"vehicle_type_id":"4","last_reported":1741324214,"current_range_meters":6400,"station_id":"ce4bhp92rcd13ifvqhbg","pricing_plan_id":"cebpf4jnsgd1na2vs0mg"},{"bike_id":"fdde8103-1f2a-4455-bcfa-e1d74ecb0194","system_id":"levelo_inurba_marseille","lat":43.27809,"lon":5.40743,"is_reserved":false,"is_disabled":false,"rental_uris":{"android":"levelo://app?vid=fdde8103-1f2a-4455-bcfa-e1d74ecb0194","ios":"levelo://app?vid=fdde8103-1f2a-4455-bcfa-e1d74ecb0194"},"vehicle_type_id":"4","last_reported":1741324214,"current_range_meters":6400,"station_id":"ce4bhnh2rcd13ifvqgtg","pricing_plan_id":"cebpf4jnsgd1na2vs0mg"},{"bike_id":"d2fd960f-0af3-4bf9-bd6a-b0c4aa4544af","system_id":"levelo_inurba_marseille","lat":43.23185,"lon":5.39983,"is_reserved":false,"is_disabled":false,"rental_uris":{"android":"levelo://app?vid=d2fd960f-0af3-4bf9-bd6a-b0c4aa4544af","ios":"levelo://app?vid=d2fd960f-0af3-4bf9-bd6a-b0c4aa4544af"},"vehicle_type_id":"4","last_reported":1741324214,"current_range_meters":6400,"station_id":"ce4bhn12rcd13ifvqgqg","pricing_plan_id":"cebpf4jnsgd1na2vs0mg"},{"bike_id":"7bdf6528-cded-4e31-bdcd-05e5503236cb","system_id":"levelo_inurba_marseille","lat":43.30811,"lon":5.43514,"is_reserved":false,"is_disabled":false,"rental_uris":{"android":"levelo://app?vid=7bdf6528-cded-4e31-bdcd-05e5503236cb","ios":"levelo://app?vid=7bdf6528-cded-4e31-bdcd-05e5503236cb"},"vehicle_type_id":"4","last_reported":1741324214,"current_range_meters":6400,"station_id":"ce4bhph2rcd13ifvqheg","pricing_plan_id":"cebpf4jnsgd1na2vs0mg"},{"bike_id":"1b9118dd-b62b-480c-87f5-bf30dc025e05","system_id":"levelo_inurba_marseille","lat":43.31324,"lon":5.39713,"is_reserved":false,"is_disabled":false,"rental_uris":{"android":"levelo://app?vid=1b9118dd-b62b-480c-87f5-bf30dc025e05","ios":"levelo://app?vid=1b9118dd-b62b-480c-87f5-bf30dc025e05"},"vehicle_type_id":"4","last_reported":1741324214,"current_range_meters":6400,"station_id":"ce4bgvp2rcd13ifvqcu0","pricing_plan_id":"cebpf4jnsgd1na2vs0mg"},{"bike_id":"e0c0bec3-454a-410d-a60f-3aed516ec149","system_id":"levelo_inurba_marseille","lat":43.23199,"lon":5.35561,"is_reserved":false,"is_disabled":false,"rental_uris":{"android":"levelo://app?vid=e0c0bec3-454a-410d-a60f-3aed516ec149","ios":"levelo://app?vid=e0c0bec3-454a-410d-a60f-3aed516ec149"},"vehicle_type_id":"4","last_reported":1741324214,"current_range_meters":6800,"station_id":"ce4bhu92rcd13ifvqi70","pricing_plan_id":"cebpf4jnsgd1na2vs0mg"},{"bike_id":"b128a848-1fbe-452d-aa99-802041786fec","system_id":"levelo_inurba_marseille","lat":43.29536,"lon":5.42271,"is_reserved":false,"is_disabled":false,"rental_uris":{"android":"levelo://app?vid=b128a848-1fbe-452d-aa99-802041786fec","ios":"levelo://app?vid=b128a848-1fbe-452d-aa99-802041786fec"},"vehicle_type_id":"4","last_reported":1741324214,"current_range_meters":6800,"station_id":"ce4bhph2rcd13ifvqhdg","pricing_plan_id":"cebpf4jnsgd1na2vs0mg"},{"bike_id":"3d9d93c5-5853-41cc-9803-fd9ab5a02987","system_id":"levelo_inurba_marseille","lat":43.30434,"lon":5.38886,"is_reserved":false,"is_disabled":false,"rental_uris":{"android":"levelo://app?vid=3d9d93c5-5853-41cc-9803-fd9ab5a02987","ios":"levelo://app?vid=3d9d93c5-5853-41cc-9803-fd9ab5a02987"},"vehicle_type_id":"4","last_reported":1741324214,"current_range_meters":6800,"station_id":"ce4bgk12rcd13ifvqbi0","pricing_plan_id":"cebpf4jnsgd1na2vs0mg"},{"bike_id":"a0400e80-3b65-4ee7-aa39-a960d7e86853","system_id":"levelo_inurba_marseille","lat":43.265649,"lon":5.390067,"is_reserved":false,"is_disabled":false,"rental_uris":{"android":"levelo://app?vid=a0400e80-3b65-4ee7-aa39-a960d7e86853","ios":"levelo://app?vid=a0400e80-3b65-4ee7-aa39-a960d7e86853"},"vehicle_type_id":"4","last_reported":1741324214,"current_range_meters":6800,"station_id":"ce4bhe12rcd13ifvqf30","pricing_plan_id":"cebpf4jnsgd1na2vs0mg"},{"bike_id":"5af61498-409e-43d3-89df-f9b8bc9f1f5e","system_id":"levelo_inurba_marseille","lat":43.23186,"lon":5.39992,"is_reserved":false,"is_disabled":false,"rental_uris":{"android":"levelo://app?vid=5af61498-409e-43d3-89df-f9b8bc9f1f5e","ios":"levelo://app?vid=5af61498-409e-43d3-89df-f9b8bc9f1f5e"},"vehicle_type_id":"4","last_reported":1741324214,"current_range_meters":6800,"station_id":"ce4bhn12rcd13ifvqgqg","pricing_plan_id":"cebpf4jnsgd1na2vs0mg"},{"bike_id":"9bfe4e82-241b-4620-b471-d226beb88b23","system_id":"levelo_inurba_marseille","lat":43.229348,"lon":5.353699,"is_reserved":false,"is_disabled":false,"rental_uris":{"android":"levelo://app?vid=9bfe4e82-241b-4620-b471-d226beb88b23","ios":"levelo://app?vid=9bfe4e82-241b-4620-b471-d226beb88b23"},"vehicle_type_id":"4","last_reported":1741324214,"current_range_meters":6800,"station_id":"cpo3532slgdg3j2ikp40","pricing_plan_id":"cebpf4jnsgd1na2vs0mg"},{"bike_id":"bf342717-63c0-499a-a753-35e922ba7de5","system_id":"levelo_inurba_marseille","lat":43.25,"lon":5.3894,"is_reserved":false,"is_disabled":false,"rental_uris":{"android":"levelo://app?vid=bf342717-63c0-499a-a753-35e922ba7de5","ios":"levelo://app?vid=bf342717-63c0-499a-a753-35e922ba7de5"},"vehicle_type_id":"4","last_reported":1741324214,"current_range_meters":6800,"station_id":"ce4bhgp2rcd13ifvqfd0","pricing_plan_id":"cebpf4jnsgd1na2vs0mg"},{"bike_id":"7b3dc7b9-ed95-4fac-b8db-fb164e0e0a08","system_id":"levelo_inurba_marseille","lat":43.27495,"lon":5.42463,"is_reserved":false,"is_disabled":true,"rental_uris":{"android":"levelo://app?vid=7b3dc7b9-ed95-4fac-b8db-fb164e0e0a08","ios":"levelo://app?vid=7b3dc7b9-ed95-4fac-b8db-fb164e0e0a08"},"vehicle_type_id":"4","last_reported":1741324214,"current_range_meters":6800,"station_id":"ce4bhn92rcd13ifvqgrg","pricing_plan_id":"cebpf4jnsgd1na2vs0mg"},{"bike_id":"f5f16292-5540-4aae-b9c8-f3d9f389f20c","system_id":"levelo_inurba_marseille","lat":43.27075,"lon":5.42293,"is_reserved":false,"is_disabled":false,"rental_uris":{"android":"levelo://app?vid=f5f16292-5540-4aae-b9c8-f3d9f389f20c","ios":"levelo://app?vid=f5f16292-5540-4aae-b9c8-f3d9f389f20c"},"vehicle_type_id":"4","last_reported":1741324214,"current_range_meters":7200,"station_id":"ce4bhk92rcd13ifvqgb0","pricing_plan_id":"cebpf4jnsgd1na2vs0mg"},{"bike_id":"fd58e227-be2e-4eff-a5f3-1890c8f37b75","system_id":"levelo_inurba_marseille","lat":43.25122,"lon":5.40327,"is_reserved":false,"is_disabled":false,"rental_uris":{"android":"levelo://app?vid=fd58e227-be2e-4eff-a5f3-1890c8f37b75","ios":"levelo://app?vid=fd58e227-be2e-4eff-a5f3-1890c8f37b75"},"vehicle_type_id":"4","last_reported":1741324214,"current_range_meters":7200,"station_id":"ce4bhlh2rcd13ifvqgig","pricing_plan_id":"cebpf4jnsgd1na2vs0mg"},{"bike_id":"5cdfe94d-2280-4a89-999c-29f2cbb070df","system_id":"levelo_inurba_marseille","lat":43.28819,"lon":5.35904,"is_reserved":false,"is_disabled":false,"rental_uris":{"android":"levelo://app?vid=5cdfe94d-2280-4a89-999c-29f2cbb070df","ios":"levelo://app?vid=5cdfe94d-2280-4a89-999c-29f2cbb070df"},"vehicle_type_id":"4","last_reported":1741324214,"current_range_meters":7200,"station_id":"ce4bhb12rcd13ifvqem0","pricing_plan_id":"cebpf4jnsgd1na2vs0mg"},{"bike_id":"2886e8ce-8295-457e-aa05-530bbdb6c747","system_id":"levelo_inurba_marseille","lat":43.311758,"lon":5.387169,"is_reserved":false,"is_disabled":false,"rental_uris":{"android":"levelo://app?vid=2886e8ce-8295-457e-aa05-530bbdb6c747","ios":"levelo://app?vid=2886e8ce-8295-457e-aa05-530bbdb6c747"},"vehicle_type_id":"4","last_reported":1741324214,"current_range_meters":7200,"station_id":"ce4bgv12rcd13ifvqcp0","pricing_plan_id":"cebpf4jnsgd1na2vs0mg"},{"bike_id":"39e7d589-4fc7-4029-a44a-b712d43649ff","system_id":"levelo_inurba_marseille","lat":43.28715,"lon":5.40001,"is_reserved":false,"is_disabled":false,"rental_uris":{"android":"levelo://app?vid=39e7d589-4fc7-4029-a44a-b712d43649ff","ios":"levelo://app?vid=39e7d589-4fc7-4029-a44a-b712d43649ff"},"vehicle_type_id":"4","last_reported":1741324214,"current_range_meters":7200,"station_id":"ce4bho92rcd13ifvqh3g","pricing_plan_id":"cebpf4jnsgd1na2vs0mg"},{"bike_id":"fd570e3e-777b-4122-9306-c335bf003eb6","system_id":"levelo_inurba_marseille","lat":43.23181,"lon":5.3999,"is_reserved":false,"is_disabled":false,"rental_uris":{"android":"levelo://app?vid=fd570e3e-777b-4122-9306-c335bf003eb6","ios":"levelo://app?vid=fd570e3e-777b-4122-9306-c335bf003eb6"},"vehicle_type_id":"4","last_reported":1741324214,"current_range_meters":7200,"station_id":"ce4bhn12rcd13ifvqgqg","pricing_plan_id":"cebpf4jnsgd1na2vs0mg"},{"bike_id":"524470ee-5afb-4f8a-b4b1-91fa19aa2b60","system_id":"levelo_inurba_marseille","lat":43.245478,"lon":5.395204,"is_reserved":false,"is_disabled":true,"rental_uris":{"android":"levelo://app?vid=524470ee-5afb-4f8a-b4b1-91fa19aa2b60","ios":"levelo://app?vid=524470ee-5afb-4f8a-b4b1-91fa19aa2b60"},"vehicle_type_id":"4","last_reported":1741324214,"current_range_meters":7200,"station_id":"ce4bhlp2rcd13ifvqgjg","pricing_plan_id":"cebpf4jnsgd1na2vs0mg"},{"bike_id":"e32e5309-5cf3-4586-ab57-38cd5f2cf148","system_id":"levelo_inurba_marseille","lat":43.24391,"lon":5.37058,"is_reserved":false,"is_disabled":false,"rental_uris":{"android":"levelo://app?vid=e32e5309-5cf3-4586-ab57-38cd5f2cf148","ios":"levelo://app?vid=e32e5309-5cf3-4586-ab57-38cd5f2cf148"},"vehicle_type_id":"4","last_reported":1741324214,"current_range_meters":7200,"station_id":"ce4bhhh2rcd13ifvqfk0","pricing_plan_id":"cebpf4jnsgd1na2vs0mg"},{"bike_id":"5175302d-6b4a-4bd7-b559-41881226159c","system_id":"levelo_inurba_marseille","lat":43.273754,"lon":5.362562,"is_reserved":false,"is_disabled":false,"rental_uris":{"android":"levelo://app?vid=5175302d-6b4a-4bd7-b559-41881226159c","ios":"levelo://app?vid=5175302d-6b4a-4bd7-b559-41881226159c"},"vehicle_type_id":"4","last_reported":1741324214,"current_range_meters":7200,"station_id":"ce4bhbh2rcd13ifvqeo0","pricing_plan_id":"cebpf4jnsgd1na2vs0mg"},{"bike_id":"5892952a-f75a-493f-a6ae-84ef13699ca1","system_id":"levelo_inurba_marseille","lat":43.308746,"lon":5.371958,"is_reserved":false,"is_disabled":false,"rental_uris":{"android":"levelo://app?vid=5892952a-f75a-493f-a6ae-84ef13699ca1","ios":"levelo://app?vid=5892952a-f75a-493f-a6ae-84ef13699ca1"},"vehicle_type_id":"4","last_reported":1741324214,"current_range_meters":7200,"station_id":"ce4bguh2rcd13ifvqckg","pricing_plan_id":"cebpf4jnsgd1na2vs0mg"},{"bike_id":"3c5e0350-07a6-4d3d-b526-00ffb41b6d3e","system_id":"levelo_inurba_marseille","lat":43.279484,"lon":5.410409,"is_reserved":false,"is_disabled":false,"rental_uris":{"android":"levelo://app?vid=3c5e0350-07a6-4d3d-b526-00ffb41b6d3e","ios":"levelo://app?vid=3c5e0350-07a6-4d3d-b526-00ffb41b6d3e"},"vehicle_type_id":"4","last_reported":1741324214,"current_range_meters":8000,"station_id":"ce4bhnp2rcd13ifvqh0g","pricing_plan_id":"cebpf4jnsgd1na2vs0mg"},{"bike_id":"dfbf9ffa-9d1e-4728-b355-c70e75aaf945","system_id":"levelo_inurba_marseille","lat":43.31327,"lon":5.39713,"is_reserved":false,"is_disabled":false,"rental_uris":{"android":"levelo://app?vid=dfbf9ffa-9d1e-4728-b355-c70e75aaf945","ios":"levelo://app?vid=dfbf9ffa-9d1e-4728-b355-c70e75aaf945"},"vehicle_type_id":"4","last_reported":1741324214,"current_range_meters":8000,"station_id":"ce4bgvp2rcd13ifvqcu0","pricing_plan_id":"cebpf4jnsgd1na2vs0mg"},{"bike_id":"6fef9d9c-acfb-4343-99e4-6ade733f8133","system_id":"levelo_inurba_marseille","lat":43.29607,"lon":5.40616,"is_reserved":false,"is_disabled":false,"rental_uris":{"android":"levelo://app?vid=6fef9d9c-acfb-4343-99e4-6ade733f8133","ios":"levelo://app?vid=6fef9d9c-acfb-4343-99e4-6ade733f8133"},"vehicle_type_id":"4","last_reported":1741324214,"current_range_meters":8000,"station_id":"ce4bh0h2rcd13ifvqd60","pricing_plan_id":"cebpf4jnsgd1na2vs0mg"},{"bike_id":"7f1905bf-da4d-4f13-af14-c5d46804e585","system_id":"levelo_inurba_marseille","lat":43.231901,"lon":5.355612,"is_reserved":false,"is_disabled":false,"rental_uris":{"android":"levelo://app?vid=7f1905bf-da4d-4f13-af14-c5d46804e585","ios":"levelo://app?vid=7f1905bf-da4d-4f13-af14-c5d46804e585"},"vehicle_type_id":"4","last_reported":1741324214,"current_range_meters":8000,"station_id":"ce4bhu92rcd13ifvqi70","pricing_plan_id":"cebpf4jnsgd1na2vs0mg"},{"bike_id":"c5d9a748-fb84-4751-9008-dc4467d9ed9a","system_id":"levelo_inurba_marseille","lat":43.23178,"lon":5.3556,"is_reserved":false,"is_disabled":false,"rental_uris":{"android":"levelo://app?vid=c5d9a748-fb84-4751-9008-dc4467d9ed9a","ios":"levelo://app?vid=c5d9a748-fb84-4751-9008-dc4467d9ed9a"},"vehicle_type_id":"4","last_reported":1741324214,"current_range_meters":8000,"station_id":"ce4bhu92rcd13ifvqi70","pricing_plan_id":"cebpf4jnsgd1na2vs0mg"},{"bike_id":"6152b505-bdaa-4154-9904-8e28b1c35e0b","system_id":"levelo_inurba_marseille","lat":43.27821,"lon":5.40718,"is_reserved":false,"is_disabled":false,"rental_uris":{"android":"levelo://app?vid=6152b505-bdaa-4154-9904-8e28b1c35e0b","ios":"levelo://app?vid=6152b505-bdaa-4154-9904-8e28b1c35e0b"},"vehicle_type_id":"4","last_reported":1741324214,"current_range_meters":8000,"station_id":"ce4bhnh2rcd13ifvqgtg","pricing_plan_id":"cebpf4jnsgd1na2vs0mg"},{"bike_id":"32d1f900-0344-4b56-aaa5-564d19ec802c","system_id":"levelo_inurba_marseille","lat":43.27939,"lon":5.41037,"is_reserved":false,"is_disabled":false,"rental_uris":{"android":"levelo://app?vid=32d1f900-0344-4b56-aaa5-564d19ec802c","ios":"levelo://app?vid=32d1f900-0344-4b56-aaa5-564d19ec802c"},"vehicle_type_id":"4","last_reported":1741324214,"current_range_meters":8000,"station_id":"ce4bhnp2rcd13ifvqh0g","pricing_plan_id":"cebpf4jnsgd1na2vs0mg"},{"bike_id":"a6a152b5-8aab-4c82-b82d-e07034bbdf6f","system_id":"levelo_inurba_marseille","lat":43.29894,"lon":5.43675,"is_reserved":false,"is_disabled":false,"rental_uris":{"android":"levelo://app?vid=a6a152b5-8aab-4c82-b82d-e07034bbdf6f","ios":"levelo://app?vid=a6a152b5-8aab-4c82-b82d-e07034bbdf6f"},"vehicle_type_id":"4","last_reported":1741324214,"current_range_meters":8400,"station_id":"ce4bhpp2rcd13ifvqhfg","pricing_plan_id":"cebpf4jnsgd1na2vs0mg"},{"bike_id":"c262f8cf-6400-4efd-af91-c8aabadab203","system_id":"levelo_inurba_marseille","lat":43.23182,"lon":5.39987,"is_reserved":false,"is_disabled":false,"rental_uris":{"android":"levelo://app?vid=c262f8cf-6400-4efd-af91-c8aabadab203","ios":"levelo://app?vid=c262f8cf-6400-4efd-af91-c8aabadab203"},"vehicle_type_id":"4","last_reported":1741324214,"current_range_meters":8400,"station_id":"ce4bhn12rcd13ifvqgqg","pricing_plan_id":"cebpf4jnsgd1na2vs0mg"},{"bike_id":"1b34c58c-f011-43f3-baac-47c6cf7523c0","system_id":"levelo_inurba_marseille","lat":43.299072,"lon":5.43665,"is_reserved":false,"is_disabled":false,"rental_uris":{"android":"levelo://app?vid=1b34c58c-f011-43f3-baac-47c6cf7523c0","ios":"levelo://app?vid=1b34c58c-f011-43f3-baac-47c6cf7523c0"},"vehicle_type_id":"4","last_reported":1741324214,"current_range_meters":8400,"station_id":"ce4bhpp2rcd13ifvqhfg","pricing_plan_id":"cebpf4jnsgd1na2vs0mg"},{"bike_id":"6016bdb3-4e9f-416b-88df-1ab71f5d0176","system_id":"levelo_inurba_marseille","lat":43.313187,"lon":5.397033,"is_reserved":false,"is_disabled":false,"rental_uris":{"android":"levelo://app?vid=6016bdb3-4e9f-416b-88df-1ab71f5d0176","ios":"levelo://app?vid=6016bdb3-4e9f-416b-88df-1ab71f5d0176"},"vehicle_type_id":"4","last_reported":1741324214,"current_range_meters":8400,"station_id":"ce4bgvp2rcd13ifvqcu0","pricing_plan_id":"cebpf4jnsgd1na2vs0mg"},{"bike_id":"f2b6d3da-7378-45c5-9a38-ba6eefa96bac","system_id":"levelo_inurba_marseille","lat":43.32422,"lon":5.41614,"is_reserved":false,"is_disabled":false,"rental_uris":{"android":"levelo://app?vid=f2b6d3da-7378-45c5-9a38-ba6eefa96bac","ios":"levelo://app?vid=f2b6d3da-7378-45c5-9a38-ba6eefa96bac"},"vehicle_type_id":"4","last_reported":1741324214,"current_range_meters":8400,"station_id":"","pricing_plan_id":"cebpf4jnsgd1na2vs0mg"},{"bike_id":"ae0cfacb-b5e5-405f-87a6-8f0f3c6477b0","system_id":"levelo_inurba_marseille","lat":43.31682,"lon":5.37785,"is_reserved":false,"is_disabled":false,"rental_uris":{"android":"levelo://app?vid=ae0cfacb-b5e5-405f-87a6-8f0f3c6477b0","ios":"levelo://app?vid=ae0cfacb-b5e5-405f-87a6-8f0f3c6477b0"},"vehicle_type_id":"4","last_reported":1741324214,"current_range_meters":8400,"station_id":"ce4bgth2rcd13ifvqch0","pricing_plan_id":"cebpf4jnsgd1na2vs0mg"},{"bike_id":"f927a9c8-5d84-472f-b8fd-88f2fc3bc3e6","system_id":"levelo_inurba_marseille","lat":43.299063,"lon":5.436639,"is_reserved":false,"is_disabled":false,"rental_uris":{"android":"levelo://app?vid=f927a9c8-5d84-472f-b8fd-88f2fc3bc3e6","ios":"levelo://app?vid=f927a9c8-5d84-472f-b8fd-88f2fc3bc3e6"},"vehicle_type_id":"4","last_reported":1741324214,"current_range_meters":8400,"station_id":"ce4bhpp2rcd13ifvqhfg","pricing_plan_id":"cebpf4jnsgd1na2vs0mg"},{"bike_id":"915b7735-4cab-40c5-9411-3076bdbf4c7d","system_id":"levelo_inurba_marseille","lat":43.29887,"lon":5.43647,"is_reserved":false,"is_disabled":false,"rental_uris":{"android":"levelo://app?vid=915b7735-4cab-40c5-9411-3076bdbf4c7d","ios":"levelo://app?vid=915b7735-4cab-40c5-9411-3076bdbf4c7d"},"vehicle_type_id":"4","last_reported":1741324214,"current_range_meters":8400,"station_id":"ce4bhpp2rcd13ifvqhfg","pricing_plan_id":"cebpf4jnsgd1na2vs0mg"},{"bike_id":"26d2696b-f894-454f-9934-59cabb72aea4","system_id":"levelo_inurba_marseille","lat":43.27323,"lon":5.36198,"is_reserved":false,"is_disabled":false,"rental_uris":{"android":"levelo://app?vid=26d2696b-f894-454f-9934-59cabb72aea4","ios":"levelo://app?vid=26d2696b-f894-454f-9934-59cabb72aea4"},"vehicle_type_id":"4","last_reported":1741324214,"current_range_meters":8400,"station_id":"ce4bhbh2rcd13ifvqeo0","pricing_plan_id":"cebpf4jnsgd1na2vs0mg"},{"bike_id":"c02718d2-20cf-4c51-b231-08ba621c84d3","system_id":"levelo_inurba_marseille","lat":43.27814,"lon":5.40737,"is_reserved":false,"is_disabled":false,"rental_uris":{"android":"levelo://app?vid=c02718d2-20cf-4c51-b231-08ba621c84d3","ios":"levelo://app?vid=c02718d2-20cf-4c51-b231-08ba621c84d3"},"vehicle_type_id":"4","last_reported":1741324214,"current_range_meters":8400,"station_id":"ce4bhnh2rcd13ifvqgtg","pricing_plan_id":"cebpf4jnsgd1na2vs0mg"},{"bike_id":"9ac16894-e9f9-45b7-b385-4e6b02f8ee32","system_id":"levelo_inurba_marseille","lat":43.3108,"lon":5.424311,"is_reserved":false,"is_disabled":false,"rental_uris":{"android":"levelo://app?vid=9ac16894-e9f9-45b7-b385-4e6b02f8ee32","ios":"levelo://app?vid=9ac16894-e9f9-45b7-b385-4e6b02f8ee32"},"vehicle_type_id":"4","last_reported":1741324214,"current_range_meters":8400,"station_id":"ce4bhp92rcd13ifvqhag","pricing_plan_id":"cebpf4jnsgd1na2vs0mg"},{"bike_id":"81220ab9-fb8e-4638-a084-692a6595df85","system_id":"levelo_inurba_marseille","lat":43.26186,"lon":5.42078,"is_reserved":false,"is_disabled":false,"rental_uris":{"android":"levelo://app?vid=81220ab9-fb8e-4638-a084-692a6595df85","ios":"levelo://app?vid=81220ab9-fb8e-4638-a084-692a6595df85"},"vehicle_type_id":"4","last_reported":1741324214,"current_range_meters":8400,"station_id":"","pricing_plan_id":"cebpf4jnsgd1na2vs0mg"},{"bike_id":"12c6fc39-9ff9-460f-95fd-76f0d4d1091c","system_id":"levelo_inurba_marseille","lat":43.29901,"lon":5.43652,"is_reserved":false,"is_disabled":false,"rental_uris":{"android":"levelo://app?vid=12c6fc39-9ff9-460f-95fd-76f0d4d1091c","ios":"levelo://app?vid=12c6fc39-9ff9-460f-95fd-76f0d4d1091c"},"vehicle_type_id":"4","last_reported":1741324214,"current_range_meters":8400,"station_id":"ce4bhpp2rcd13ifvqhfg","pricing_plan_id":"cebpf4jnsgd1na2vs0mg"},{"bike_id":"24d9609a-31c0-43a8-8050-084a3c8c9cdb","system_id":"levelo_inurba_marseille","lat":43.24985,"lon":5.38954,"is_reserved":false,"is_disabled":false,"rental_uris":{"android":"levelo://app?vid=24d9609a-31c0-43a8-8050-084a3c8c9cdb","ios":"levelo://app?vid=24d9609a-31c0-43a8-8050-084a3c8c9cdb"},"vehicle_type_id":"4","last_reported":1741324214,"current_range_meters":8800,"station_id":"ce4bhgp2rcd13ifvqfd0","pricing_plan_id":"cebpf4jnsgd1na2vs0mg"},{"bike_id":"d9b4e821-0c42-42c8-b88c-ec7f1d7ab942","system_id":"levelo_inurba_marseille","lat":43.24019,"lon":5.37801,"is_reserved":false,"is_disabled":false,"rental_uris":{"android":"levelo://app?vid=d9b4e821-0c42-42c8-b88c-ec7f1d7ab942","ios":"levelo://app?vid=d9b4e821-0c42-42c8-b88c-ec7f1d7ab942"},"vehicle_type_id":"4","last_reported":1741324214,"current_range_meters":8800,"station_id":"ce4bhnp2rcd13ifvqgvg","pricing_plan_id":"cebpf4jnsgd1na2vs0mg"},{"bike_id":"e6974836-95c1-42aa-8242-455133048dfc","system_id":"levelo_inurba_marseille","lat":43.27792,"lon":5.40734,"is_reserved":false,"is_disabled":false,"rental_uris":{"android":"levelo://app?vid=e6974836-95c1-42aa-8242-455133048dfc","ios":"levelo://app?vid=e6974836-95c1-42aa-8242-455133048dfc"},"vehicle_type_id":"4","last_reported":1741324214,"current_range_meters":8800,"station_id":"ce4bhnh2rcd13ifvqgtg","pricing_plan_id":"cebpf4jnsgd1na2vs0mg"},{"bike_id":"6f8fdd27-fb47-43bb-be4a-efc849685a6a","system_id":"levelo_inurba_marseille","lat":43.286535,"lon":5.363487,"is_reserved":false,"is_disabled":false,"rental_uris":{"android":"levelo://app?vid=6f8fdd27-fb47-43bb-be4a-efc849685a6a","ios":"levelo://app?vid=6f8fdd27-fb47-43bb-be4a-efc849685a6a"},"vehicle_type_id":"4","last_reported":1741324214,"current_range_meters":8800,"station_id":"ce4bhah2rcd13ifvqej0","pricing_plan_id":"cebpf4jnsgd1na2vs0mg"},{"bike_id":"e13fe874-b2f0-4556-a62b-c613ecaf1f12","system_id":"levelo_inurba_marseille","lat":43.2679,"lon":5.4026,"is_reserved":false,"is_disabled":false,"rental_uris":{"android":"levelo://app?vid=e13fe874-b2f0-4556-a62b-c613ecaf1f12","ios":"levelo://app?vid=e13fe874-b2f0-4556-a62b-c613ecaf1f12"},"vehicle_type_id":"4","last_reported":1741324214,"current_range_meters":8800,"station_id":"ce501612rcd8frsf0b60","pricing_plan_id":"cebpf4jnsgd1na2vs0mg"},{"bike_id":"83bbb232-58e6-4714-8760-4ba43dece204","system_id":"levelo_inurba_marseille","lat":43.255769,"lon":5.382386,"is_reserved":false,"is_disabled":false,"rental_uris":{"android":"levelo://app?vid=83bbb232-58e6-4714-8760-4ba43dece204","ios":"levelo://app?vid=83bbb232-58e6-4714-8760-4ba43dece204"},"vehicle_type_id":"4","last_reported":1741324214,"current_range_meters":8800,"station_id":"ce4bhih2rcd13ifvqfs0","pricing_plan_id":"cebpf4jnsgd1na2vs0mg"},{"bike_id":"b2c94af5-bdff-4efc-819d-12cc6aa4c843","system_id":"levelo_inurba_marseille","lat":43.24061,"lon":5.377708,"is_reserved":false,"is_disabled":false,"rental_uris":{"android":"levelo://app?vid=b2c94af5-bdff-4efc-819d-12cc6aa4c843","ios":"levelo://app?vid=b2c94af5-bdff-4efc-819d-12cc6aa4c843"},"vehicle_type_id":"4","last_reported":1741324214,"current_range_meters":9200,"station_id":"ce4bhnp2rcd13ifvqgvg","pricing_plan_id":"cebpf4jnsgd1na2vs0mg"},{"bike_id":"4e71c0f9-d48c-46c2-82e0-124f3e2a9638","system_id":"levelo_inurba_marseille","lat":43.24674,"lon":5.38174,"is_reserved":false,"is_disabled":false,"rental_uris":{"android":"levelo://app?vid=4e71c0f9-d48c-46c2-82e0-124f3e2a9638","ios":"levelo://app?vid=4e71c0f9-d48c-46c2-82e0-124f3e2a9638"},"vehicle_type_id":"4","last_reported":1741324214,"current_range_meters":9200,"station_id":"ce4bhih2rcd13ifvqfr0","pricing_plan_id":"cebpf4jnsgd1na2vs0mg"},{"bike_id":"1cd4455c-d2ed-4f2a-8f59-fcec010afc76","system_id":"levelo_inurba_marseille","lat":43.27941,"lon":5.38706,"is_reserved":false,"is_disabled":false,"rental_uris":{"android":"levelo://app?vid=1cd4455c-d2ed-4f2a-8f59-fcec010afc76","ios":"levelo://app?vid=1cd4455c-d2ed-4f2a-8f59-fcec010afc76"},"vehicle_type_id":"4","last_reported":1741324214,"current_range_meters":9200,"station_id":"ce4bhg12rcd13ifvqf80","pricing_plan_id":"cebpf4jnsgd1na2vs0mg"},{"bike_id":"ff3228ef-c722-4531-aa41-dd0456ac2a39","system_id":"levelo_inurba_marseille","lat":43.23186,"lon":5.39983,"is_reserved":false,"is_disabled":false,"rental_uris":{"android":"levelo://app?vid=ff3228ef-c722-4531-aa41-dd0456ac2a39","ios":"levelo://app?vid=ff3228ef-c722-4531-aa41-dd0456ac2a39"},"vehicle_type_id":"4","last_reported":1741324214,"current_range_meters":9200,"station_id":"ce4bhn12rcd13ifvqgqg","pricing_plan_id":"cebpf4jnsgd1na2vs0mg"},{"bike_id":"d0d1b861-fc7b-4e26-bf94-3473241b8993","system_id":"levelo_inurba_marseille","lat":43.231818,"lon":5.399841,"is_reserved":false,"is_disabled":false,"rental_uris":{"android":"levelo://app?vid=d0d1b861-fc7b-4e26-bf94-3473241b8993","ios":"levelo://app?vid=d0d1b861-fc7b-4e26-bf94-3473241b8993"},"vehicle_type_id":"4","last_reported":1741324214,"current_range_meters":9200,"station_id":"ce4bhn12rcd13ifvqgqg","pricing_plan_id":"cebpf4jnsgd1na2vs0mg"},{"bike_id":"fac0b771-845f-43be-a1ec-07ecd30186e5","system_id":"levelo_inurba_marseille","lat":43.3088,"lon":5.39642,"is_reserved":false,"is_disabled":false,"rental_uris":{"android":"levelo://app?vid=fac0b771-845f-43be-a1ec-07ecd30186e5","ios":"levelo://app?vid=fac0b771-845f-43be-a1ec-07ecd30186e5"},"vehicle_type_id":"4","last_reported":1741324214,"current_range_meters":9200,"station_id":"ce4bh012rcd13ifvqcv0","pricing_plan_id":"cebpf4jnsgd1na2vs0mg"},{"bike_id":"3efa1ce3-9043-475d-bb36-56cf9e4da284","system_id":"levelo_inurba_marseille","lat":43.26772,"lon":5.39428,"is_reserved":false,"is_disabled":false,"rental_uris":{"android":"levelo://app?vid=3efa1ce3-9043-475d-bb36-56cf9e4da284","ios":"levelo://app?vid=3efa1ce3-9043-475d-bb36-56cf9e4da284"},"vehicle_type_id":"4","last_reported":1741324214,"current_range_meters":9200,"station_id":"ce4bhh12rcd13ifvqfg0","pricing_plan_id":"cebpf4jnsgd1na2vs0mg"},{"bike_id":"3dd20953-9997-480b-bece-8aaecefc5109","system_id":"levelo_inurba_marseille","lat":43.26655,"lon":5.38238,"is_reserved":false,"is_disabled":false,"rental_uris":{"android":"levelo://app?vid=3dd20953-9997-480b-bece-8aaecefc5109","ios":"levelo://app?vid=3dd20953-9997-480b-bece-8aaecefc5109"},"vehicle_type_id":"4","last_reported":1741324214,"current_range_meters":9200,"station_id":"ce4bhg92rcd13ifvqf90","pricing_plan_id":"cebpf4jnsgd1na2vs0mg"},{"bike_id":"db630754-fd4e-4326-b7b5-61471a5b29a8","system_id":"levelo_inurba_marseille","lat":43.35566,"lon":5.35753,"is_reserved":false,"is_disabled":false,"rental_uris":{"android":"levelo://app?vid=db630754-fd4e-4326-b7b5-61471a5b29a8","ios":"levelo://app?vid=db630754-fd4e-4326-b7b5-61471a5b29a8"},"vehicle_type_id":"4","last_reported":1741324214,"current_range_meters":9200,"station_id":"","pricing_plan_id":"cebpf4jnsgd1na2vs0mg"},{"bike_id":"357f6b0d-7429-4870-b5b1-c540923d954d","system_id":"levelo_inurba_marseille","lat":43.230658,"lon":5.35493,"is_reserved":false,"is_disabled":false,"rental_uris":{"android":"levelo://app?vid=357f6b0d-7429-4870-b5b1-c540923d954d","ios":"levelo://app?vid=357f6b0d-7429-4870-b5b1-c540923d954d"},"vehicle_type_id":"4","last_reported":1741324214,"current_range_meters":9200,"station_id":"cpo3342slgdg3j2ifvpg","pricing_plan_id":"cebpf4jnsgd1na2vs0mg"},{"bike_id":"159ab203-8ab4-41aa-9237-39341a831ed1","system_id":"levelo_inurba_marseille","lat":43.31118,"lon":5.37763,"is_reserved":false,"is_disabled":false,"rental_uris":{"android":"levelo://app?vid=159ab203-8ab4-41aa-9237-39341a831ed1","ios":"levelo://app?vid=159ab203-8ab4-41aa-9237-39341a831ed1"},"vehicle_type_id":"4","last_reported":1741324214,"current_range_meters":9200,"station_id":"ce4bgt92rcd13ifvqcg0","pricing_plan_id":"cebpf4jnsgd1na2vs0mg"},{"bike_id":"8b1c4dd8-536c-4667-a0d1-a31ca8467f9f","system_id":"levelo_inurba_marseille","lat":43.26221,"lon":5.37471,"is_reserved":false,"is_disabled":false,"rental_uris":{"android":"levelo://app?vid=8b1c4dd8-536c-4667-a0d1-a31ca8467f9f","ios":"levelo://app?vid=8b1c4dd8-536c-4667-a0d1-a31ca8467f9f"},"vehicle_type_id":"4","last_reported":1741324214,"current_range_meters":9200,"station_id":"ce4bhgp2rcd13ifvqfc0","pricing_plan_id":"cebpf4jnsgd1na2vs0mg"},{"bike_id":"04402abc-5447-4644-832a-cb375ba8074a","system_id":"levelo_inurba_marseille","lat":43.30493,"lon":5.378996,"is_reserved":false,"is_disabled":false,"rental_uris":{"android":"levelo://app?vid=04402abc-5447-4644-832a-cb375ba8074a","ios":"levelo://app?vid=04402abc-5447-4644-832a-cb375ba8074a"},"vehicle_type_id":"4","last_reported":1741324214,"current_range_meters":9200,"station_id":"ce4bgup2rcd13ifvqcn0","pricing_plan_id":"cebpf4jnsgd1na2vs0mg"},{"bike_id":"944d127a-2002-481f-aa31-8d2ca6e79d89","system_id":"levelo_inurba_marseille","lat":43.24075,"lon":5.37755,"is_reserved":false,"is_disabled":false,"rental_uris":{"android":"levelo://app?vid=944d127a-2002-481f-aa31-8d2ca6e79d89","ios":"levelo://app?vid=944d127a-2002-481f-aa31-8d2ca6e79d89"},"vehicle_type_id":"4","last_reported":1741324214,"current_range_meters":9200,"station_id":"ce4bhnp2rcd13ifvqgvg","pricing_plan_id":"cebpf4jnsgd1na2vs0mg"},{"bike_id":"cad74eb9-7c68-4ac1-939e-6bfa8649e028","system_id":"levelo_inurba_marseille","lat":43.279998,"lon":5.400108,"is_reserved":false,"is_disabled":false,"rental_uris":{"android":"levelo://app?vid=cad74eb9-7c68-4ac1-939e-6bfa8649e028","ios":"levelo://app?vid=cad74eb9-7c68-4ac1-939e-6bfa8649e028"},"vehicle_type_id":"4","last_reported":1741324214,"current_range_meters":9200,"station_id":"ce4bho92rcd13ifvqh4g","pricing_plan_id":"cebpf4jnsgd1na2vs0mg"},{"bike_id":"23fd01b3-a5b9-4def-8318-003ef97cf778","system_id":"levelo_inurba_marseille","lat":43.312686,"lon":5.377666,"is_reserved":false,"is_disabled":false,"rental_uris":{"android":"levelo://app?vid=23fd01b3-a5b9-4def-8318-003ef97cf778","ios":"levelo://app?vid=23fd01b3-a5b9-4def-8318-003ef97cf778"},"vehicle_type_id":"4","last_reported":1741324214,"current_range_meters":9200,"station_id":"","pricing_plan_id":"cebpf4jnsgd1na2vs0mg"},{"bike_id":"a3fe114e-cdf5-46cf-9235-1484823dfc00","system_id":"levelo_inurba_marseille","lat":43.28944,"lon":5.3639,"is_reserved":false,"is_disabled":false,"rental_uris":{"android":"levelo://app?vid=a3fe114e-cdf5-46cf-9235-1484823dfc00","ios":"levelo://app?vid=a3fe114e-cdf5-46cf-9235-1484823dfc00"},"vehicle_type_id":"4","last_reported":1741324214,"current_range_meters":7200,"station_id":"ce4bhc92rcd13ifvqetg","pricing_plan_id":"cebpf4jnsgd1na2vs0mg"},{"bike_id":"2d340159-37c8-41dc-a62f-ca06729e55bc","system_id":"levelo_inurba_marseille","lat":43.32348,"lon":5.36745,"is_reserved":false,"is_disabled":false,"rental_uris":{"android":"levelo://app?vid=2d340159-37c8-41dc-a62f-ca06729e55bc","ios":"levelo://app?vid=2d340159-37c8-41dc-a62f-ca06729e55bc"},"vehicle_type_id":"4","last_reported":1741324214,"current_range_meters":9600,"station_id":"ce4bhsh2rcd13ifvqi2g","pricing_plan_id":"cebpf4jnsgd1na2vs0mg"},{"bike_id":"93bf5a61-b8a8-49cd-8b33-574a28d9bdf3","system_id":"levelo_inurba_marseille","lat":43.240691,"lon":5.377634,"is_reserved":false,"is_disabled":false,"rental_uris":{"android":"levelo://app?vid=93bf5a61-b8a8-49cd-8b33-574a28d9bdf3","ios":"levelo://app?vid=93bf5a61-b8a8-49cd-8b33-574a28d9bdf3"},"vehicle_type_id":"4","last_reported":1741324214,"current_range_meters":9600,"station_id":"ce4bhnp2rcd13ifvqgvg","pricing_plan_id":"cebpf4jnsgd1na2vs0mg"},{"bike_id":"4bb8ec19-fa9e-4bc2-9ced-8316005f4173","system_id":"levelo_inurba_marseille","lat":43.27896,"lon":5.39585,"is_reserved":false,"is_disabled":true,"rental_uris":{"android":"levelo://app?vid=4bb8ec19-fa9e-4bc2-9ced-8316005f4173","ios":"levelo://app?vid=4bb8ec19-fa9e-4bc2-9ced-8316005f4173"},"vehicle_type_id":"4","last_reported":1741324214,"current_range_meters":9600,"station_id":"ce4bhf92rcd13ifvqf40","pricing_plan_id":"cebpf4jnsgd1na2vs0mg"},{"bike_id":"ca12585f-73af-4492-8c7b-b40081c4d639","system_id":"levelo_inurba_marseille","lat":43.30602,"lon":5.37157,"is_reserved":false,"is_disabled":false,"rental_uris":{"android":"levelo://app?vid=ca12585f-73af-4492-8c7b-b40081c4d639","ios":"levelo://app?vid=ca12585f-73af-4492-8c7b-b40081c4d639"},"vehicle_type_id":"4","last_reported":1741324214,"current_range_meters":9600,"station_id":"","pricing_plan_id":"cebpf4jnsgd1na2vs0mg"},{"bike_id":"9f0f0224-b72b-4ee3-a38d-b5ba80204629","system_id":"levelo_inurba_marseille","lat":43.231878,"lon":5.355524,"is_reserved":false,"is_disabled":false,"rental_uris":{"android":"levelo://app?vid=9f0f0224-b72b-4ee3-a38d-b5ba80204629","ios":"levelo://app?vid=9f0f0224-b72b-4ee3-a38d-b5ba80204629"},"vehicle_type_id":"4","last_reported":1741324214,"current_range_meters":10000,"station_id":"ce4bhu92rcd13ifvqi70","pricing_plan_id":"cebpf4jnsgd1na2vs0mg"},{"bike_id":"c16ccb51-1ff7-4b93-8e4d-d5c1c6809677","system_id":"levelo_inurba_marseille","lat":43.3041,"lon":5.41281,"is_reserved":false,"is_disabled":false,"rental_uris":{"android":"levelo://app?vid=c16ccb51-1ff7-4b93-8e4d-d5c1c6809677","ios":"levelo://app?vid=c16ccb51-1ff7-4b93-8e4d-d5c1c6809677"},"vehicle_type_id":"4","last_reported":1741324214,"current_range_meters":10000,"station_id":"ce4bhop2rcd13ifvqh8g","pricing_plan_id":"cebpf4jnsgd1na2vs0mg"},{"bike_id":"6a2993b2-6605-4fd1-970f-be8a3bf3bfad","system_id":"levelo_inurba_marseille","lat":43.28705,"lon":5.37387,"is_reserved":false,"is_disabled":false,"rental_uris":{"android":"levelo://app?vid=6a2993b2-6605-4fd1-970f-be8a3bf3bfad","ios":"levelo://app?vid=6a2993b2-6605-4fd1-970f-be8a3bf3bfad"},"vehicle_type_id":"4","last_reported":1741324214,"current_range_meters":10000,"station_id":"ce4bh3p2rcd13ifvqdq0","pricing_plan_id":"cebpf4jnsgd1na2vs0mg"},{"bike_id":"549f0e20-712f-455b-8868-0f3f9588d3f7","system_id":"levelo_inurba_marseille","lat":43.231874,"lon":5.39983,"is_reserved":false,"is_disabled":false,"rental_uris":{"android":"levelo://app?vid=549f0e20-712f-455b-8868-0f3f9588d3f7","ios":"levelo://app?vid=549f0e20-712f-455b-8868-0f3f9588d3f7"},"vehicle_type_id":"4","last_reported":1741324214,"current_range_meters":10000,"station_id":"ce4bhn12rcd13ifvqgqg","pricing_plan_id":"cebpf4jnsgd1na2vs0mg"},{"bike_id":"d015e1e7-8b4f-4898-a841-104d62c0d9ad","system_id":"levelo_inurba_marseille","lat":43.23185,"lon":5.399794,"is_reserved":false,"is_disabled":false,"rental_uris":{"android":"levelo://app?vid=d015e1e7-8b4f-4898-a841-104d62c0d9ad","ios":"levelo://app?vid=d015e1e7-8b4f-4898-a841-104d62c0d9ad"},"vehicle_type_id":"4","last_reported":1741324214,"current_range_meters":10000,"station_id":"ce4bhn12rcd13ifvqgqg","pricing_plan_id":"cebpf4jnsgd1na2vs0mg"},{"bike_id":"7582ad68-779a-4296-9bd6-58a679d7fcda","system_id":"levelo_inurba_marseille","lat":43.24078,"lon":5.37767,"is_reserved":false,"is_disabled":false,"rental_uris":{"android":"levelo://app?vid=7582ad68-779a-4296-9bd6-58a679d7fcda","ios":"levelo://app?vid=7582ad68-779a-4296-9bd6-58a679d7fcda"},"vehicle_type_id":"4","last_reported":1741324214,"current_range_meters":10000,"station_id":"ce4bhnp2rcd13ifvqgvg","pricing_plan_id":"cebpf4jnsgd1na2vs0mg"},{"bike_id":"c1ef0e1a-f14a-49dc-9142-24a0f46d9e6e","system_id":"levelo_inurba_marseille","lat":43.284244,"lon":5.349836,"is_reserved":false,"is_disabled":false,"rental_uris":{"android":"levelo://app?vid=c1ef0e1a-f14a-49dc-9142-24a0f46d9e6e","ios":"levelo://app?vid=c1ef0e1a-f14a-49dc-9142-24a0f46d9e6e"},"vehicle_type_id":"4","last_reported":1741324214,"current_range_meters":10000,"station_id":"ce4bhbh2rcd13ifvqepg","pricing_plan_id":"cebpf4jnsgd1na2vs0mg"},{"bike_id":"f8dea757-60fb-4a46-957e-c51eacd1c593","system_id":"levelo_inurba_marseille","lat":43.28096,"lon":5.37838,"is_reserved":false,"is_disabled":false,"rental_uris":{"android":"levelo://app?vid=f8dea757-60fb-4a46-957e-c51eacd1c593","ios":"levelo://app?vid=f8dea757-60fb-4a46-957e-c51eacd1c593"},"vehicle_type_id":"4","last_reported":1741324214,"current_range_meters":10000,"station_id":"ce4bha12rcd13ifvqee0","pricing_plan_id":"cebpf4jnsgd1na2vs0mg"},{"bike_id":"4c4f40ce-b677-4958-a34a-41f58f94190b","system_id":"levelo_inurba_marseille","lat":43.23177,"lon":5.39999,"is_reserved":false,"is_disabled":false,"rental_uris":{"android":"levelo://app?vid=4c4f40ce-b677-4958-a34a-41f58f94190b","ios":"levelo://app?vid=4c4f40ce-b677-4958-a34a-41f58f94190b"},"vehicle_type_id":"4","last_reported":1741324214,"current_range_meters":10800,"station_id":"ce4bhn12rcd13ifvqgqg","pricing_plan_id":"cebpf4jnsgd1na2vs0mg"},{"bike_id":"450fec99-cedd-4c3b-a355-1b95b571f4ec","system_id":"levelo_inurba_marseille","lat":43.27938,"lon":5.41059,"is_reserved":false,"is_disabled":false,"rental_uris":{"android":"levelo://app?vid=450fec99-cedd-4c3b-a355-1b95b571f4ec","ios":"levelo://app?vid=450fec99-cedd-4c3b-a355-1b95b571f4ec"},"vehicle_type_id":"4","last_reported":1741324214,"current_range_meters":10800,"station_id":"ce4bhnp2rcd13ifvqh0g","pricing_plan_id":"cebpf4jnsgd1na2vs0mg"},{"bike_id":"a37caecc-f344-43b7-8cc1-77cfdb771146","system_id":"levelo_inurba_marseille","lat":43.25861,"lon":5.39898,"is_reserved":false,"is_disabled":false,"rental_uris":{"android":"levelo://app?vid=a37caecc-f344-43b7-8cc1-77cfdb771146","ios":"levelo://app?vid=a37caecc-f344-43b7-8cc1-77cfdb771146"},"vehicle_type_id":"4","last_reported":1741324214,"current_range_meters":10800,"station_id":"ce4bhl92rcd13ifvqghg","pricing_plan_id":"cebpf4jnsgd1na2vs0mg"},{"bike_id":"34aa14cc-09e2-478d-a4d8-f2c0b44526ae","system_id":"levelo_inurba_marseille","lat":43.26194,"lon":5.4048,"is_reserved":false,"is_disabled":false,"rental_uris":{"android":"levelo://app?vid=34aa14cc-09e2-478d-a4d8-f2c0b44526ae","ios":"levelo://app?vid=34aa14cc-09e2-478d-a4d8-f2c0b44526ae"},"vehicle_type_id":"4","last_reported":1741324214,"current_range_meters":10800,"station_id":"ce4bhmh2rcd13ifvqgmg","pricing_plan_id":"cebpf4jnsgd1na2vs0mg"},{"bike_id":"764f3258-213a-4186-b4ff-850e4e5fe869","system_id":"levelo_inurba_marseille","lat":43.30408,"lon":5.41278,"is_reserved":false,"is_disabled":false,"rental_uris":{"android":"levelo://app?vid=764f3258-213a-4186-b4ff-850e4e5fe869","ios":"levelo://app?vid=764f3258-213a-4186-b4ff-850e4e5fe869"},"vehicle_type_id":"4","last_reported":1741324214,"current_range_meters":10800,"station_id":"ce4bhop2rcd13ifvqh8g","pricing_plan_id":"cebpf4jnsgd1na2vs0mg"},{"bike_id":"2b1de8ba-6297-479a-97e0-c4ffcb43060b","system_id":"levelo_inurba_marseille","lat":43.23186,"lon":5.39988,"is_reserved":false,"is_disabled":false,"rental_uris":{"android":"levelo://app?vid=2b1de8ba-6297-479a-97e0-c4ffcb43060b","ios":"levelo://app?vid=2b1de8ba-6297-479a-97e0-c4ffcb43060b"},"vehicle_type_id":"4","last_reported":1741324214,"current_range_meters":11200,"station_id":"ce4bhn12rcd13ifvqgqg","pricing_plan_id":"cebpf4jnsgd1na2vs0mg"},{"bike_id":"85f5534a-7586-4e0f-a115-dfc08f1da430","system_id":"levelo_inurba_marseille","lat":43.27912,"lon":5.39578,"is_reserved":false,"is_disabled":false,"rental_uris":{"android":"levelo://app?vid=85f5534a-7586-4e0f-a115-dfc08f1da430","ios":"levelo://app?vid=85f5534a-7586-4e0f-a115-dfc08f1da430"},"vehicle_type_id":"4","last_reported":1741324214,"current_range_meters":11200,"station_id":"ce4bhf92rcd13ifvqf40","pricing_plan_id":"cebpf4jnsgd1na2vs0mg"},{"bike_id":"536ad86e-6b83-41ec-913f-12543b9c953a","system_id":"levelo_inurba_marseille","lat":43.28423,"lon":5.35003,"is_reserved":false,"is_disabled":false,"rental_uris":{"android":"levelo://app?vid=536ad86e-6b83-41ec-913f-12543b9c953a","ios":"levelo://app?vid=536ad86e-6b83-41ec-913f-12543b9c953a"},"vehicle_type_id":"4","last_reported":1741324214,"current_range_meters":11200,"station_id":"ce4bhbh2rcd13ifvqepg","pricing_plan_id":"cebpf4jnsgd1na2vs0mg"},{"bike_id":"03341ac4-86bb-44de-bc88-ab4a56fc83d3","system_id":"levelo_inurba_marseille","lat":43.28031,"lon":5.36947,"is_reserved":false,"is_disabled":false,"rental_uris":{"android":"levelo://app?vid=03341ac4-86bb-44de-bc88-ab4a56fc83d3","ios":"levelo://app?vid=03341ac4-86bb-44de-bc88-ab4a56fc83d3"},"vehicle_type_id":"4","last_reported":1741324214,"current_range_meters":11200,"station_id":"ce4bha12rcd13ifvqef0","pricing_plan_id":"cebpf4jnsgd1na2vs0mg"},{"bike_id":"03b2a53b-cd6d-4353-957f-2760b29c52f8","system_id":"levelo_inurba_marseille","lat":43.284231,"lon":5.349934,"is_reserved":false,"is_disabled":false,"rental_uris":{"android":"levelo://app?vid=03b2a53b-cd6d-4353-957f-2760b29c52f8","ios":"levelo://app?vid=03b2a53b-cd6d-4353-957f-2760b29c52f8"},"vehicle_type_id":"4","last_reported":1741324214,"current_range_meters":11200,"station_id":"ce4bhbh2rcd13ifvqepg","pricing_plan_id":"cebpf4jnsgd1na2vs0mg"},{"bike_id":"bde4d0c6-6a90-4bb6-9ecb-078c266c4f92","system_id":"levelo_inurba_marseille","lat":43.28105,"lon":5.37823,"is_reserved":false,"is_disabled":false,"rental_uris":{"android":"levelo://app?vid=bde4d0c6-6a90-4bb6-9ecb-078c266c4f92","ios":"levelo://app?vid=bde4d0c6-6a90-4bb6-9ecb-078c266c4f92"},"vehicle_type_id":"4","last_reported":1741324214,"current_range_meters":11200,"station_id":"ce4bha12rcd13ifvqee0","pricing_plan_id":"cebpf4jnsgd1na2vs0mg"},{"bike_id":"97ec7852-1a72-4f4d-8bce-6eb24e8fcbf1","system_id":"levelo_inurba_marseille","lat":43.33528,"lon":5.41048,"is_reserved":false,"is_disabled":false,"rental_uris":{"android":"levelo://app?vid=97ec7852-1a72-4f4d-8bce-6eb24e8fcbf1","ios":"levelo://app?vid=97ec7852-1a72-4f4d-8bce-6eb24e8fcbf1"},"vehicle_type_id":"4","last_reported":1741324214,"current_range_meters":11600,"station_id":"","pricing_plan_id":"cebpf4jnsgd1na2vs0mg"},{"bike_id":"6ea729a2-3067-45cf-8c3c-0c87ac7b42ca","system_id":"levelo_inurba_marseille","lat":43.24075,"lon":5.37772,"is_reserved":false,"is_disabled":false,"rental_uris":{"android":"levelo://app?vid=6ea729a2-3067-45cf-8c3c-0c87ac7b42ca","ios":"levelo://app?vid=6ea729a2-3067-45cf-8c3c-0c87ac7b42ca"},"vehicle_type_id":"4","last_reported":1741324214,"current_range_meters":11600,"station_id":"ce4bhnp2rcd13ifvqgvg","pricing_plan_id":"cebpf4jnsgd1na2vs0mg"},{"bike_id":"e9e6613e-3fa6-4458-b25a-2ccefb288523","system_id":"levelo_inurba_marseille","lat":43.30932,"lon":5.40169,"is_reserved":false,"is_disabled":false,"rental_uris":{"android":"levelo://app?vid=e9e6613e-3fa6-4458-b25a-2ccefb288523","ios":"levelo://app?vid=e9e6613e-3fa6-4458-b25a-2ccefb288523"},"vehicle_type_id":"4","last_reported":1741324214,"current_range_meters":11600,"station_id":"ce4bgvp2rcd13ifvqct0","pricing_plan_id":"cebpf4jnsgd1na2vs0mg"},{"bike_id":"8bd4b128-b85d-4e21-ad3f-ceffde0e548c","system_id":"levelo_inurba_marseille","lat":43.31324,"lon":5.396996,"is_reserved":false,"is_disabled":false,"rental_uris":{"android":"levelo://app?vid=8bd4b128-b85d-4e21-ad3f-ceffde0e548c","ios":"levelo://app?vid=8bd4b128-b85d-4e21-ad3f-ceffde0e548c"},"vehicle_type_id":"4","last_reported":1741324214,"current_range_meters":11600,"station_id":"ce4bgvp2rcd13ifvqcu0","pricing_plan_id":"cebpf4jnsgd1na2vs0mg"},{"bike_id":"424763cc-a0bf-4af1-8d08-423b0473b3a9","system_id":"levelo_inurba_marseille","lat":43.295715,"lon":5.375181,"is_reserved":false,"is_disabled":true,"rental_uris":{"android":"levelo://app?vid=424763cc-a0bf-4af1-8d08-423b0473b3a9","ios":"levelo://app?vid=424763cc-a0bf-4af1-8d08-423b0473b3a9"},"vehicle_type_id":"4","last_reported":1741324214,"current_range_meters":11600,"station_id":"ce4bgh92rcd13ifvqb50","pricing_plan_id":"cebpf4jnsgd1na2vs0mg"},{"bike_id":"985324b2-53ea-4df0-8c32-5d6941d2d733","system_id":"levelo_inurba_marseille","lat":43.25569,"lon":5.38254,"is_reserved":false,"is_disabled":false,"rental_uris":{"android":"levelo://app?vid=985324b2-53ea-4df0-8c32-5d6941d2d733","ios":"levelo://app?vid=985324b2-53ea-4df0-8c32-5d6941d2d733"},"vehicle_type_id":"4","last_reported":1741324214,"current_range_meters":11600,"station_id":"ce4bhih2rcd13ifvqfs0","pricing_plan_id":"cebpf4jnsgd1na2vs0mg"},{"bike_id":"436be741-d4f3-4d02-b014-7fb9168d5010","system_id":"levelo_inurba_marseille","lat":43.28713,"lon":5.37381,"is_reserved":false,"is_disabled":false,"rental_uris":{"android":"levelo://app?vid=436be741-d4f3-4d02-b014-7fb9168d5010","ios":"levelo://app?vid=436be741-d4f3-4d02-b014-7fb9168d5010"},"vehicle_type_id":"4","last_reported":1741324214,"current_range_meters":11600,"station_id":"ce4bh3p2rcd13ifvqdq0","pricing_plan_id":"cebpf4jnsgd1na2vs0mg"},{"bike_id":"42323b44-4776-4993-88db-08c90d643018","system_id":"levelo_inurba_marseille","lat":43.300876,"lon":5.376558,"is_reserved":false,"is_disabled":false,"rental_uris":{"android":"levelo://app?vid=42323b44-4776-4993-88db-08c90d643018","ios":"levelo://app?vid=42323b44-4776-4993-88db-08c90d643018"},"vehicle_type_id":"4","last_reported":1741324214,"current_range_meters":11600,"station_id":"","pricing_plan_id":"cebpf4jnsgd1na2vs0mg"},{"bike_id":"c04859f5-b265-4480-bdb0-bf7044818bd8","system_id":"levelo_inurba_marseille","lat":43.28411,"lon":5.37523,"is_reserved":false,"is_disabled":false,"rental_uris":{"android":"levelo://app?vid=c04859f5-b265-4480-bdb0-bf7044818bd8","ios":"levelo://app?vid=c04859f5-b265-4480-bdb0-bf7044818bd8"},"vehicle_type_id":"4","last_reported":1741324214,"current_range_meters":11600,"station_id":"ce4bh412rcd13ifvqds0","pricing_plan_id":"cebpf4jnsgd1na2vs0mg"},{"bike_id":"2d31bd33-7bbc-485d-a4dd-59c0e816926e","system_id":"levelo_inurba_marseille","lat":43.25822,"lon":5.39426,"is_reserved":false,"is_disabled":false,"rental_uris":{"android":"levelo://app?vid=2d31bd33-7bbc-485d-a4dd-59c0e816926e","ios":"levelo://app?vid=2d31bd33-7bbc-485d-a4dd-59c0e816926e"},"vehicle_type_id":"4","last_reported":1741324214,"current_range_meters":12000,"station_id":"ce4bhip2rcd13ifvqft0","pricing_plan_id":"cebpf4jnsgd1na2vs0mg"},{"bike_id":"517f4834-3332-4fde-a8dc-e437c1576483","system_id":"levelo_inurba_marseille","lat":43.31123,"lon":5.37755,"is_reserved":false,"is_disabled":false,"rental_uris":{"android":"levelo://app?vid=517f4834-3332-4fde-a8dc-e437c1576483","ios":"levelo://app?vid=517f4834-3332-4fde-a8dc-e437c1576483"},"vehicle_type_id":"4","last_reported":1741324214,"current_range_meters":12000,"station_id":"ce4bgt92rcd13ifvqcg0","pricing_plan_id":"cebpf4jnsgd1na2vs0mg"},{"bike_id":"79c11b83-e05e-46e4-889b-720cb1fb4be9","system_id":"levelo_inurba_marseille","lat":43.24073,"lon":5.37774,"is_reserved":false,"is_disabled":false,"rental_uris":{"android":"levelo://app?vid=79c11b83-e05e-46e4-889b-720cb1fb4be9","ios":"levelo://app?vid=79c11b83-e05e-46e4-889b-720cb1fb4be9"},"vehicle_type_id":"4","last_reported":1741324214,"current_range_meters":12000,"station_id":"ce4bhnp2rcd13ifvqgvg","pricing_plan_id":"cebpf4jnsgd1na2vs0mg"},{"bike_id":"5657d731-d688-4ca8-8429-b9c071f5f731","system_id":"levelo_inurba_marseille","lat":43.28454,"lon":5.3588,"is_reserved":false,"is_disabled":false,"rental_uris":{"android":"levelo://app?vid=5657d731-d688-4ca8-8429-b9c071f5f731","ios":"levelo://app?vid=5657d731-d688-4ca8-8429-b9c071f5f731"},"vehicle_type_id":"4","last_reported":1741324214,"current_range_meters":12000,"station_id":"ce4bhah2rcd13ifvqei0","pricing_plan_id":"cebpf4jnsgd1na2vs0mg"},{"bike_id":"1d2e61f9-3150-45bd-bfd1-785fded3e3da","system_id":"levelo_inurba_marseille","lat":43.25854,"lon":5.39907,"is_reserved":false,"is_disabled":false,"rental_uris":{"android":"levelo://app?vid=1d2e61f9-3150-45bd-bfd1-785fded3e3da","ios":"levelo://app?vid=1d2e61f9-3150-45bd-bfd1-785fded3e3da"},"vehicle_type_id":"4","last_reported":1741324214,"current_range_meters":12000,"station_id":"ce4bhl92rcd13ifvqghg","pricing_plan_id":"cebpf4jnsgd1na2vs0mg"},{"bike_id":"dd1656d4-1155-44af-98eb-e63022b2f728","system_id":"levelo_inurba_marseille","lat":43.31311,"lon":5.39698,"is_reserved":false,"is_disabled":false,"rental_uris":{"android":"levelo://app?vid=dd1656d4-1155-44af-98eb-e63022b2f728","ios":"levelo://app?vid=dd1656d4-1155-44af-98eb-e63022b2f728"},"vehicle_type_id":"4","last_reported":1741324214,"current_range_meters":12000,"station_id":"ce4bgvp2rcd13ifvqcu0","pricing_plan_id":"cebpf4jnsgd1na2vs0mg"},{"bike_id":"1fe2a59b-12e7-4015-8ada-45e874248398","system_id":"levelo_inurba_marseille","lat":43.28726,"lon":5.36076,"is_reserved":false,"is_disabled":false,"rental_uris":{"android":"levelo://app?vid=1fe2a59b-12e7-4015-8ada-45e874248398","ios":"levelo://app?vid=1fe2a59b-12e7-4015-8ada-45e874248398"},"vehicle_type_id":"4","last_reported":1741324214,"current_range_meters":12000,"station_id":"cki0cbj6b192h4jlfktg","pricing_plan_id":"cebpf4jnsgd1na2vs0mg"},{"bike_id":"a46451b2-1e2b-4408-8955-b1e18ae25868","system_id":"levelo_inurba_marseille","lat":43.25099,"lon":5.40331,"is_reserved":false,"is_disabled":false,"rental_uris":{"android":"levelo://app?vid=a46451b2-1e2b-4408-8955-b1e18ae25868","ios":"levelo://app?vid=a46451b2-1e2b-4408-8955-b1e18ae25868"},"vehicle_type_id":"4","last_reported":1741324214,"current_range_meters":12000,"station_id":"ce4bhlh2rcd13ifvqgig","pricing_plan_id":"cebpf4jnsgd1na2vs0mg"},{"bike_id":"816ec87c-26ba-415b-b02d-d75b22feb9ab","system_id":"levelo_inurba_marseille","lat":43.28621,"lon":5.35108,"is_reserved":false,"is_disabled":false,"rental_uris":{"android":"levelo://app?vid=816ec87c-26ba-415b-b02d-d75b22feb9ab","ios":"levelo://app?vid=816ec87c-26ba-415b-b02d-d75b22feb9ab"},"vehicle_type_id":"4","last_reported":1741324214,"current_range_meters":12400,"station_id":"ce4bhch2rcd13ifvqeug","pricing_plan_id":"cebpf4jnsgd1na2vs0mg"},{"bike_id":"cf24c0be-ada9-49e7-8891-a6ccc00d7db1","system_id":"levelo_inurba_marseille","lat":43.29543,"lon":5.42283,"is_reserved":false,"is_disabled":false,"rental_uris":{"android":"levelo://app?vid=cf24c0be-ada9-49e7-8891-a6ccc00d7db1","ios":"levelo://app?vid=cf24c0be-ada9-49e7-8891-a6ccc00d7db1"},"vehicle_type_id":"4","last_reported":1741324214,"current_range_meters":12400,"station_id":"ce4bhph2rcd13ifvqhdg","pricing_plan_id":"cebpf4jnsgd1na2vs0mg"},{"bike_id":"6a1366c1-41ed-4dda-b62f-b12cda709bc4","system_id":"levelo_inurba_marseille","lat":43.32364,"lon":5.38895,"is_reserved":false,"is_disabled":false,"rental_uris":{"android":"levelo://app?vid=6a1366c1-41ed-4dda-b62f-b12cda709bc4","ios":"levelo://app?vid=6a1366c1-41ed-4dda-b62f-b12cda709bc4"},"vehicle_type_id":"4","last_reported":1741324214,"current_range_meters":12400,"station_id":"ce4bhqp2rcd13ifvqhog","pricing_plan_id":"cebpf4jnsgd1na2vs0mg"},{"bike_id":"5ba22cb2-6d7a-4a0c-92d4-89adcbc8752e","system_id":"levelo_inurba_marseille","lat":43.2499,"lon":5.38926,"is_reserved":false,"is_disabled":false,"rental_uris":{"android":"levelo://app?vid=5ba22cb2-6d7a-4a0c-92d4-89adcbc8752e","ios":"levelo://app?vid=5ba22cb2-6d7a-4a0c-92d4-89adcbc8752e"},"vehicle_type_id":"4","last_reported":1741324214,"current_range_meters":12400,"station_id":"ce4bhgp2rcd13ifvqfd0","pricing_plan_id":"cebpf4jnsgd1na2vs0mg"},{"bike_id":"a37aa460-4797-4802-885f-6053c820f844","system_id":"levelo_inurba_marseille","lat":43.24084,"lon":5.37758,"is_reserved":false,"is_disabled":false,"rental_uris":{"android":"levelo://app?vid=a37aa460-4797-4802-885f-6053c820f844","ios":"levelo://app?vid=a37aa460-4797-4802-885f-6053c820f844"},"vehicle_type_id":"4","last_reported":1741324214,"current_range_meters":12400,"station_id":"ce4bhnp2rcd13ifvqgvg","pricing_plan_id":"cebpf4jnsgd1na2vs0mg"},{"bike_id":"5257c241-b88d-44c6-af8c-d7ff6694faf5","system_id":"levelo_inurba_marseille","lat":43.312773,"lon":5.401704,"is_reserved":false,"is_disabled":false,"rental_uris":{"android":"levelo://app?vid=5257c241-b88d-44c6-af8c-d7ff6694faf5","ios":"levelo://app?vid=5257c241-b88d-44c6-af8c-d7ff6694faf5"},"vehicle_type_id":"4","last_reported":1741324214,"current_range_meters":12400,"station_id":"ce4bh092rcd13ifvqd30","pricing_plan_id":"cebpf4jnsgd1na2vs0mg"},{"bike_id":"5bf2fb3c-30ac-4ff1-beb5-e66f3b7aee41","system_id":"levelo_inurba_marseille","lat":43.32367,"lon":5.38891,"is_reserved":false,"is_disabled":false,"rental_uris":{"android":"levelo://app?vid=5bf2fb3c-30ac-4ff1-beb5-e66f3b7aee41","ios":"levelo://app?vid=5bf2fb3c-30ac-4ff1-beb5-e66f3b7aee41"},"vehicle_type_id":"4","last_reported":1741324214,"current_range_meters":12400,"station_id":"ce4bhqp2rcd13ifvqhog","pricing_plan_id":"cebpf4jnsgd1na2vs0mg"},{"bike_id":"daa48c53-c5de-46aa-94fc-655cbd710c8c","system_id":"levelo_inurba_marseille","lat":43.22927,"lon":5.35375,"is_reserved":false,"is_disabled":false,"rental_uris":{"android":"levelo://app?vid=daa48c53-c5de-46aa-94fc-655cbd710c8c","ios":"levelo://app?vid=daa48c53-c5de-46aa-94fc-655cbd710c8c"},"vehicle_type_id":"4","last_reported":1741324214,"current_range_meters":12400,"station_id":"cpo3532slgdg3j2ikp40","pricing_plan_id":"cebpf4jnsgd1na2vs0mg"},{"bike_id":"4992a6af-30d9-4587-9d40-316c67b18c5a","system_id":"levelo_inurba_marseille","lat":43.239656,"lon":5.366338,"is_reserved":false,"is_disabled":false,"rental_uris":{"android":"levelo://app?vid=4992a6af-30d9-4587-9d40-316c67b18c5a","ios":"levelo://app?vid=4992a6af-30d9-4587-9d40-316c67b18c5a"},"vehicle_type_id":"4","last_reported":1741324214,"current_range_meters":12400,"station_id":"ce4bhi12rcd13ifvqfp0","pricing_plan_id":"cebpf4jnsgd1na2vs0mg"},{"bike_id":"693db7cd-c1ad-4554-a554-5ae5efa16a2d","system_id":"levelo_inurba_marseille","lat":43.241738,"lon":5.397263,"is_reserved":false,"is_disabled":false,"rental_uris":{"android":"levelo://app?vid=693db7cd-c1ad-4554-a554-5ae5efa16a2d","ios":"levelo://app?vid=693db7cd-c1ad-4554-a554-5ae5efa16a2d"},"vehicle_type_id":"4","last_reported":1741324214,"current_range_meters":12800,"station_id":"ce4bhn12rcd13ifvqgpg","pricing_plan_id":"cebpf4jnsgd1na2vs0mg"},{"bike_id":"c534630f-0475-4433-a96a-567ecad96845","system_id":"levelo_inurba_marseille","lat":43.30879,"lon":5.39656,"is_reserved":false,"is_disabled":false,"rental_uris":{"android":"levelo://app?vid=c534630f-0475-4433-a96a-567ecad96845","ios":"levelo://app?vid=c534630f-0475-4433-a96a-567ecad96845"},"vehicle_type_id":"4","last_reported":1741324214,"current_range_meters":12800,"station_id":"ce4bh012rcd13ifvqcv0","pricing_plan_id":"cebpf4jnsgd1na2vs0mg"},{"bike_id":"d0a9e0b6-7460-48af-b167-fa241d6b44c3","system_id":"levelo_inurba_marseille","lat":43.32099,"lon":5.36788,"is_reserved":false,"is_disabled":false,"rental_uris":{"android":"levelo://app?vid=d0a9e0b6-7460-48af-b167-fa241d6b44c3","ios":"levelo://app?vid=d0a9e0b6-7460-48af-b167-fa241d6b44c3"},"vehicle_type_id":"4","last_reported":1741324214,"current_range_meters":12800,"station_id":"ce4bhrh2rcd13ifvqhug","pricing_plan_id":"cebpf4jnsgd1na2vs0mg"},{"bike_id":"e2c9a10f-d165-47fa-bcc3-3b72ae9367ad","system_id":"levelo_inurba_marseille","lat":43.23188,"lon":5.39983,"is_reserved":false,"is_disabled":false,"rental_uris":{"android":"levelo://app?vid=e2c9a10f-d165-47fa-bcc3-3b72ae9367ad","ios":"levelo://app?vid=e2c9a10f-d165-47fa-bcc3-3b72ae9367ad"},"vehicle_type_id":"4","last_reported":1741324214,"current_range_meters":13600,"station_id":"ce4bhn12rcd13ifvqgqg","pricing_plan_id":"cebpf4jnsgd1na2vs0mg"},{"bike_id":"2c861e0b-d0b8-4f92-8091-d6b0c2859052","system_id":"levelo_inurba_marseille","lat":43.28407,"lon":5.35875,"is_reserved":false,"is_disabled":false,"rental_uris":{"android":"levelo://app?vid=2c861e0b-d0b8-4f92-8091-d6b0c2859052","ios":"levelo://app?vid=2c861e0b-d0b8-4f92-8091-d6b0c2859052"},"vehicle_type_id":"4","last_reported":1741324214,"current_range_meters":13600,"station_id":"ce4bhah2rcd13ifvqei0","pricing_plan_id":"cebpf4jnsgd1na2vs0mg"},{"bike_id":"c05e10c0-ab92-4e55-b3d6-0f34ded537e1","system_id":"levelo_inurba_marseille","lat":43.246469,"lon":5.388937,"is_reserved":false,"is_disabled":false,"rental_uris":{"android":"levelo://app?vid=c05e10c0-ab92-4e55-b3d6-0f34ded537e1","ios":"levelo://app?vid=c05e10c0-ab92-4e55-b3d6-0f34ded537e1"},"vehicle_type_id":"4","last_reported":1741324214,"current_range_meters":13600,"station_id":"ce4bhg12rcd13ifvqf60","pricing_plan_id":"cebpf4jnsgd1na2vs0mg"},{"bike_id":"6d7e0450-89ad-4e81-9f4f-61db2e3e009a","system_id":"levelo_inurba_marseille","lat":43.299004,"lon":5.436663,"is_reserved":false,"is_disabled":false,"rental_uris":{"android":"levelo://app?vid=6d7e0450-89ad-4e81-9f4f-61db2e3e009a","ios":"levelo://app?vid=6d7e0450-89ad-4e81-9f4f-61db2e3e009a"},"vehicle_type_id":"4","last_reported":1741324214,"current_range_meters":14000,"station_id":"ce4bhpp2rcd13ifvqhfg","pricing_plan_id":"cebpf4jnsgd1na2vs0mg"},{"bike_id":"d82b4b9f-a609-4e79-8237-62e75a9f042e","system_id":"levelo_inurba_marseille","lat":43.30448,"lon":5.37903,"is_reserved":false,"is_disabled":false,"rental_uris":{"android":"levelo://app?vid=d82b4b9f-a609-4e79-8237-62e75a9f042e","ios":"levelo://app?vid=d82b4b9f-a609-4e79-8237-62e75a9f042e"},"vehicle_type_id":"4","last_reported":1741324214,"current_range_meters":14000,"station_id":"ce4bgup2rcd13ifvqcn0","pricing_plan_id":"cebpf4jnsgd1na2vs0mg"},{"bike_id":"99ff4a4d-52c2-4dda-9b47-0d1d11158607","system_id":"levelo_inurba_marseille","lat":43.28407,"lon":5.37519,"is_reserved":false,"is_disabled":false,"rental_uris":{"android":"levelo://app?vid=99ff4a4d-52c2-4dda-9b47-0d1d11158607","ios":"levelo://app?vid=99ff4a4d-52c2-4dda-9b47-0d1d11158607"},"vehicle_type_id":"4","last_reported":1741324214,"current_range_meters":14000,"station_id":"ce4bh412rcd13ifvqds0","pricing_plan_id":"cebpf4jnsgd1na2vs0mg"},{"bike_id":"a169edf0-d3cb-458e-afe4-435983081de2","system_id":"levelo_inurba_marseille","lat":43.29597,"lon":5.40621,"is_reserved":false,"is_disabled":false,"rental_uris":{"android":"levelo://app?vid=a169edf0-d3cb-458e-afe4-435983081de2","ios":"levelo://app?vid=a169edf0-d3cb-458e-afe4-435983081de2"},"vehicle_type_id":"4","last_reported":1741324214,"current_range_meters":14000,"station_id":"ce4bh0h2rcd13ifvqd60","pricing_plan_id":"cebpf4jnsgd1na2vs0mg"},{"bike_id":"72d9662b-cf2b-4495-a0f5-9cf4293f3a46","system_id":"levelo_inurba_marseille","lat":43.29231,"lon":5.36065,"is_reserved":false,"is_disabled":false,"rental_uris":{"android":"levelo://app?vid=72d9662b-cf2b-4495-a0f5-9cf4293f3a46","ios":"levelo://app?vid=72d9662b-cf2b-4495-a0f5-9cf4293f3a46"},"vehicle_type_id":"4","last_reported":1741324214,"current_range_meters":14000,"station_id":"ce4bhbh2rcd13ifvqeqg","pricing_plan_id":"cebpf4jnsgd1na2vs0mg"},{"bike_id":"a614940b-837c-47ed-94df-08745eb44990","system_id":"levelo_inurba_marseille","lat":43.28469,"lon":5.35896,"is_reserved":false,"is_disabled":false,"rental_uris":{"android":"levelo://app?vid=a614940b-837c-47ed-94df-08745eb44990","ios":"levelo://app?vid=a614940b-837c-47ed-94df-08745eb44990"},"vehicle_type_id":"4","last_reported":1741324214,"current_range_meters":14000,"station_id":"ce4bhah2rcd13ifvqei0","pricing_plan_id":"cebpf4jnsgd1na2vs0mg"},{"bike_id":"0526cfc7-294a-4c9b-9466-442f591045bc","system_id":"levelo_inurba_marseille","lat":43.231843,"lon":5.39976,"is_reserved":false,"is_disabled":false,"rental_uris":{"android":"levelo://app?vid=0526cfc7-294a-4c9b-9466-442f591045bc","ios":"levelo://app?vid=0526cfc7-294a-4c9b-9466-442f591045bc"},"vehicle_type_id":"4","last_reported":1741324214,"current_range_meters":14400,"station_id":"ce4bhn12rcd13ifvqgqg","pricing_plan_id":"cebpf4jnsgd1na2vs0mg"},{"bike_id":"84e678c5-96d2-4175-b607-ab5a9697894a","system_id":"levelo_inurba_marseille","lat":43.31211,"lon":5.36833,"is_reserved":false,"is_disabled":true,"rental_uris":{"android":"levelo://app?vid=84e678c5-96d2-4175-b607-ab5a9697894a","ios":"levelo://app?vid=84e678c5-96d2-4175-b607-ab5a9697894a"},"vehicle_type_id":"4","last_reported":1741324214,"current_range_meters":14400,"station_id":"ce4bgl92rcd13ifvqbq0","pricing_plan_id":"cebpf4jnsgd1na2vs0mg"},{"bike_id":"563c9629-05cf-49ef-8ac6-4e5ef18e4f1d","system_id":"levelo_inurba_marseille","lat":43.25087,"lon":5.39522,"is_reserved":false,"is_disabled":false,"rental_uris":{"android":"levelo://app?vid=563c9629-05cf-49ef-8ac6-4e5ef18e4f1d","ios":"levelo://app?vid=563c9629-05cf-49ef-8ac6-4e5ef18e4f1d"},"vehicle_type_id":"4","last_reported":1741324214,"current_range_meters":14400,"station_id":"ce4bhm12rcd13ifvqgkg","pricing_plan_id":"cebpf4jnsgd1na2vs0mg"},{"bike_id":"29920178-f2e2-4727-b7d6-7f2f5df15acf","system_id":"levelo_inurba_marseille","lat":43.260206,"lon":5.417428,"is_reserved":false,"is_disabled":false,"rental_uris":{"android":"levelo://app?vid=29920178-f2e2-4727-b7d6-7f2f5df15acf","ios":"levelo://app?vid=29920178-f2e2-4727-b7d6-7f2f5df15acf"},"vehicle_type_id":"4","last_reported":1741324214,"current_range_meters":14400,"station_id":"","pricing_plan_id":"cebpf4jnsgd1na2vs0mg"},{"bike_id":"9efbff90-6380-4e58-8359-a0c4a1eca8c5","system_id":"levelo_inurba_marseille","lat":43.323643,"lon":5.388783,"is_reserved":false,"is_disabled":false,"rental_uris":{"android":"levelo://app?vid=9efbff90-6380-4e58-8359-a0c4a1eca8c5","ios":"levelo://app?vid=9efbff90-6380-4e58-8359-a0c4a1eca8c5"},"vehicle_type_id":"4","last_reported":1741324214,"current_range_meters":14400,"station_id":"ce4bhqp2rcd13ifvqhog","pricing_plan_id":"cebpf4jnsgd1na2vs0mg"},{"bike_id":"07803b89-56e8-449f-8324-d35c1acff8c9","system_id":"levelo_inurba_marseille","lat":43.278337,"lon":5.392048,"is_reserved":false,"is_disabled":false,"rental_uris":{"android":"levelo://app?vid=07803b89-56e8-449f-8324-d35c1acff8c9","ios":"levelo://app?vid=07803b89-56e8-449f-8324-d35c1acff8c9"},"vehicle_type_id":"4","last_reported":1741324214,"current_range_meters":14800,"station_id":"ce4bhjp2rcd13ifvqga0","pricing_plan_id":"cebpf4jnsgd1na2vs0mg"},{"bike_id":"1c09fc90-c563-49c4-b528-864f0402a027","system_id":"levelo_inurba_marseille","lat":43.28493,"lon":5.38569,"is_reserved":false,"is_disabled":false,"rental_uris":{"android":"levelo://app?vid=1c09fc90-c563-49c4-b528-864f0402a027","ios":"levelo://app?vid=1c09fc90-c563-49c4-b528-864f0402a027"},"vehicle_type_id":"4","last_reported":1741324214,"current_range_meters":14000,"station_id":"ce4bh8p2rcd13ifvqeb0","pricing_plan_id":"cebpf4jnsgd1na2vs0mg"},{"bike_id":"9f81a8d7-3e2b-4007-9464-c777fd8529ba","system_id":"levelo_inurba_marseille","lat":43.330181,"lon":5.390463,"is_reserved":false,"is_disabled":true,"rental_uris":{"android":"levelo://app?vid=9f81a8d7-3e2b-4007-9464-c777fd8529ba","ios":"levelo://app?vid=9f81a8d7-3e2b-4007-9464-c777fd8529ba"},"vehicle_type_id":"4","last_reported":1741324214,"current_range_meters":14800,"station_id":"ce4bhr92rcd13ifvqhrg","pricing_plan_id":"cebpf4jnsgd1na2vs0mg"},{"bike_id":"6bb2ad43-6927-44f2-a14b-f05e0dcc961b","system_id":"levelo_inurba_marseille","lat":43.30923,"lon":5.40165,"is_reserved":false,"is_disabled":false,"rental_uris":{"android":"levelo://app?vid=6bb2ad43-6927-44f2-a14b-f05e0dcc961b","ios":"levelo://app?vid=6bb2ad43-6927-44f2-a14b-f05e0dcc961b"},"vehicle_type_id":"4","last_reported":1741324214,"current_range_meters":14800,"station_id":"ce4bgvp2rcd13ifvqct0","pricing_plan_id":"cebpf4jnsgd1na2vs0mg"},{"bike_id":"b6f36978-39d4-4b7f-9cb4-d3c235f51993","system_id":"levelo_inurba_marseille","lat":43.2293,"lon":5.35388,"is_reserved":false,"is_disabled":false,"rental_uris":{"android":"levelo://app?vid=b6f36978-39d4-4b7f-9cb4-d3c235f51993","ios":"levelo://app?vid=b6f36978-39d4-4b7f-9cb4-d3c235f51993"},"vehicle_type_id":"4","last_reported":1741324214,"current_range_meters":14800,"station_id":"cpo3532slgdg3j2ikp40","pricing_plan_id":"cebpf4jnsgd1na2vs0mg"},{"bike_id":"62c4c10f-4cee-4f4d-a248-1e792569408d","system_id":"levelo_inurba_marseille","lat":43.31234,"lon":5.40233,"is_reserved":false,"is_disabled":false,"rental_uris":{"android":"levelo://app?vid=62c4c10f-4cee-4f4d-a248-1e792569408d","ios":"levelo://app?vid=62c4c10f-4cee-4f4d-a248-1e792569408d"},"vehicle_type_id":"4","last_reported":1741324214,"current_range_meters":14800,"station_id":"","pricing_plan_id":"cebpf4jnsgd1na2vs0mg"},{"bike_id":"f7952dd2-c24a-4d7d-a1a7-9cb40fd11b1c","system_id":"levelo_inurba_marseille","lat":43.30878,"lon":5.39636,"is_reserved":false,"is_disabled":false,"rental_uris":{"android":"levelo://app?vid=f7952dd2-c24a-4d7d-a1a7-9cb40fd11b1c","ios":"levelo://app?vid=f7952dd2-c24a-4d7d-a1a7-9cb40fd11b1c"},"vehicle_type_id":"4","last_reported":1741324214,"current_range_meters":15200,"station_id":"ce4bh012rcd13ifvqcv0","pricing_plan_id":"cebpf4jnsgd1na2vs0mg"},{"bike_id":"04b8010c-1d8e-4bbc-a882-fcda2e9bfe6b","system_id":"levelo_inurba_marseille","lat":43.28418,"lon":5.37531,"is_reserved":false,"is_disabled":false,"rental_uris":{"android":"levelo://app?vid=04b8010c-1d8e-4bbc-a882-fcda2e9bfe6b","ios":"levelo://app?vid=04b8010c-1d8e-4bbc-a882-fcda2e9bfe6b"},"vehicle_type_id":"4","last_reported":1741324214,"current_range_meters":15200,"station_id":"ce4bh412rcd13ifvqds0","pricing_plan_id":"cebpf4jnsgd1na2vs0mg"},{"bike_id":"8757e7e7-19ce-4dd4-9891-18e53b43f3ca","system_id":"levelo_inurba_marseille","lat":43.290052,"lon":5.356109,"is_reserved":false,"is_disabled":false,"rental_uris":{"android":"levelo://app?vid=8757e7e7-19ce-4dd4-9891-18e53b43f3ca","ios":"levelo://app?vid=8757e7e7-19ce-4dd4-9891-18e53b43f3ca"},"vehicle_type_id":"4","last_reported":1741324214,"current_range_meters":15200,"station_id":"ce4bhb92rcd13ifvqen0","pricing_plan_id":"cebpf4jnsgd1na2vs0mg"},{"bike_id":"8be6ab19-3462-42a4-93c8-6e29d31780e7","system_id":"levelo_inurba_marseille","lat":43.27995,"lon":5.40008,"is_reserved":false,"is_disabled":false,"rental_uris":{"android":"levelo://app?vid=8be6ab19-3462-42a4-93c8-6e29d31780e7","ios":"levelo://app?vid=8be6ab19-3462-42a4-93c8-6e29d31780e7"},"vehicle_type_id":"4","last_reported":1741324214,"current_range_meters":15200,"station_id":"ce4bho92rcd13ifvqh4g","pricing_plan_id":"cebpf4jnsgd1na2vs0mg"},{"bike_id":"c67d6675-0538-4597-b725-fbd5f4726d8c","system_id":"levelo_inurba_marseille","lat":43.25108,"lon":5.40315,"is_reserved":false,"is_disabled":false,"rental_uris":{"android":"levelo://app?vid=c67d6675-0538-4597-b725-fbd5f4726d8c","ios":"levelo://app?vid=c67d6675-0538-4597-b725-fbd5f4726d8c"},"vehicle_type_id":"4","last_reported":1741324214,"current_range_meters":15200,"station_id":"ce4bhlh2rcd13ifvqgig","pricing_plan_id":"cebpf4jnsgd1na2vs0mg"},{"bike_id":"72b2c94b-f07a-43ce-9b67-7b7b6c9a789a","system_id":"levelo_inurba_marseille","lat":43.30801,"lon":5.43538,"is_reserved":false,"is_disabled":false,"rental_uris":{"android":"levelo://app?vid=72b2c94b-f07a-43ce-9b67-7b7b6c9a789a","ios":"levelo://app?vid=72b2c94b-f07a-43ce-9b67-7b7b6c9a789a"},"vehicle_type_id":"4","last_reported":1741324214,"current_range_meters":15200,"station_id":"ce4bhph2rcd13ifvqheg","pricing_plan_id":"cebpf4jnsgd1na2vs0mg"},{"bike_id":"0e674cb4-f37d-4bd5-aaff-7ec953d386c6","system_id":"levelo_inurba_marseille","lat":43.24161,"lon":5.36415,"is_reserved":false,"is_disabled":false,"rental_uris":{"android":"levelo://app?vid=0e674cb4-f37d-4bd5-aaff-7ec953d386c6","ios":"levelo://app?vid=0e674cb4-f37d-4bd5-aaff-7ec953d386c6"},"vehicle_type_id":"4","last_reported":1741324214,"current_range_meters":15200,"station_id":"cpo36qri1sfpv3e86is0","pricing_plan_id":"cebpf4jnsgd1na2vs0mg"},{"bike_id":"8faaabe9-f8ca-4feb-a92c-501bec20c2fe","system_id":"levelo_inurba_marseille","lat":43.31475,"lon":5.37318,"is_reserved":false,"is_disabled":false,"rental_uris":{"android":"levelo://app?vid=8faaabe9-f8ca-4feb-a92c-501bec20c2fe","ios":"levelo://app?vid=8faaabe9-f8ca-4feb-a92c-501bec20c2fe"},"vehicle_type_id":"4","last_reported":1741324214,"current_range_meters":15200,"station_id":"ce4bgt12rcd13ifvqcd0","pricing_plan_id":"cebpf4jnsgd1na2vs0mg"},{"bike_id":"5f598be0-e162-4184-948a-4d84c2e78910","system_id":"levelo_inurba_marseille","lat":43.241719,"lon":5.397327,"is_reserved":false,"is_disabled":false,"rental_uris":{"android":"levelo://app?vid=5f598be0-e162-4184-948a-4d84c2e78910","ios":"levelo://app?vid=5f598be0-e162-4184-948a-4d84c2e78910"},"vehicle_type_id":"4","last_reported":1741324214,"current_range_meters":15200,"station_id":"ce4bhn12rcd13ifvqgpg","pricing_plan_id":"cebpf4jnsgd1na2vs0mg"},{"bike_id":"05d49363-3170-4671-8932-265ef297710e","system_id":"levelo_inurba_marseille","lat":43.29906,"lon":5.43653,"is_reserved":false,"is_disabled":false,"rental_uris":{"android":"levelo://app?vid=05d49363-3170-4671-8932-265ef297710e","ios":"levelo://app?vid=05d49363-3170-4671-8932-265ef297710e"},"vehicle_type_id":"4","last_reported":1741324214,"current_range_meters":16000,"station_id":"ce4bhpp2rcd13ifvqhfg","pricing_plan_id":"cebpf4jnsgd1na2vs0mg"},{"bike_id":"3c94b931-3649-4c69-bf1c-99f8fd15e284","system_id":"levelo_inurba_marseille","lat":43.32493,"lon":5.36581,"is_reserved":false,"is_disabled":false,"rental_uris":{"android":"levelo://app?vid=3c94b931-3649-4c69-bf1c-99f8fd15e284","ios":"levelo://app?vid=3c94b931-3649-4c69-bf1c-99f8fd15e284"},"vehicle_type_id":"4","last_reported":1741324214,"current_range_meters":16000,"station_id":"ce4bhs12rcd13ifvqhvg","pricing_plan_id":"cebpf4jnsgd1na2vs0mg"},{"bike_id":"60dbdfe4-0290-459f-80b1-32d771207de8","system_id":"levelo_inurba_marseille","lat":43.25009,"lon":5.389271,"is_reserved":false,"is_disabled":false,"rental_uris":{"android":"levelo://app?vid=60dbdfe4-0290-459f-80b1-32d771207de8","ios":"levelo://app?vid=60dbdfe4-0290-459f-80b1-32d771207de8"},"vehicle_type_id":"4","last_reported":1741324214,"current_range_meters":16000,"station_id":"ce4bhgp2rcd13ifvqfd0","pricing_plan_id":"cebpf4jnsgd1na2vs0mg"},{"bike_id":"6ae77951-a909-4dfa-a933-35324bca41b7","system_id":"levelo_inurba_marseille","lat":43.25027,"lon":5.38932,"is_reserved":false,"is_disabled":false,"rental_uris":{"android":"levelo://app?vid=6ae77951-a909-4dfa-a933-35324bca41b7","ios":"levelo://app?vid=6ae77951-a909-4dfa-a933-35324bca41b7"},"vehicle_type_id":"4","last_reported":1741324214,"current_range_meters":16000,"station_id":"ce4bhgp2rcd13ifvqfd0","pricing_plan_id":"cebpf4jnsgd1na2vs0mg"},{"bike_id":"2f80fa14-45f3-40fd-8835-a76e0d67388f","system_id":"levelo_inurba_marseille","lat":43.295568,"lon":5.422881,"is_reserved":false,"is_disabled":false,"rental_uris":{"android":"levelo://app?vid=2f80fa14-45f3-40fd-8835-a76e0d67388f","ios":"levelo://app?vid=2f80fa14-45f3-40fd-8835-a76e0d67388f"},"vehicle_type_id":"4","last_reported":1741324214,"current_range_meters":16000,"station_id":"ce4bhph2rcd13ifvqhdg","pricing_plan_id":"cebpf4jnsgd1na2vs0mg"},{"bike_id":"34688b44-97e8-4ade-aad9-fb00f0944501","system_id":"levelo_inurba_marseille","lat":43.2748,"lon":5.4354,"is_reserved":false,"is_disabled":false,"rental_uris":{"android":"levelo://app?vid=34688b44-97e8-4ade-aad9-fb00f0944501","ios":"levelo://app?vid=34688b44-97e8-4ade-aad9-fb00f0944501"},"vehicle_type_id":"4","last_reported":1741324214,"current_range_meters":16000,"station_id":"","pricing_plan_id":"cebpf4jnsgd1na2vs0mg"},{"bike_id":"0464b775-72ec-4bdd-92cb-9dcc39786da9","system_id":"levelo_inurba_marseille","lat":43.28729,"lon":5.37391,"is_reserved":false,"is_disabled":false,"rental_uris":{"android":"levelo://app?vid=0464b775-72ec-4bdd-92cb-9dcc39786da9","ios":"levelo://app?vid=0464b775-72ec-4bdd-92cb-9dcc39786da9"},"vehicle_type_id":"4","last_reported":1741324214,"current_range_meters":16000,"station_id":"ce4bh3p2rcd13ifvqdq0","pricing_plan_id":"cebpf4jnsgd1na2vs0mg"},{"bike_id":"dac09d9e-9ab6-4c54-8fe2-7fcfc9203869","system_id":"levelo_inurba_marseille","lat":43.26555,"lon":5.37299,"is_reserved":false,"is_disabled":true,"rental_uris":{"android":"levelo://app?vid=dac09d9e-9ab6-4c54-8fe2-7fcfc9203869","ios":"levelo://app?vid=dac09d9e-9ab6-4c54-8fe2-7fcfc9203869"},"vehicle_type_id":"4","last_reported":1741324214,"current_range_meters":16000,"station_id":"ce4bhg12rcd13ifvqf70","pricing_plan_id":"cebpf4jnsgd1na2vs0mg"},{"bike_id":"091cbb18-5206-4eca-a04d-f23ba133a5cd","system_id":"levelo_inurba_marseille","lat":43.28074,"lon":5.39865,"is_reserved":false,"is_disabled":false,"rental_uris":{"android":"levelo://app?vid=091cbb18-5206-4eca-a04d-f23ba133a5cd","ios":"levelo://app?vid=091cbb18-5206-4eca-a04d-f23ba133a5cd"},"vehicle_type_id":"4","last_reported":1741324214,"current_range_meters":16000,"station_id":"","pricing_plan_id":"cebpf4jnsgd1na2vs0mg"},{"bike_id":"ad9a8406-e1b8-4c43-83e7-6ca47ad1435f","system_id":"levelo_inurba_marseille","lat":43.25011,"lon":5.38951,"is_reserved":false,"is_disabled":false,"rental_uris":{"android":"levelo://app?vid=ad9a8406-e1b8-4c43-83e7-6ca47ad1435f","ios":"levelo://app?vid=ad9a8406-e1b8-4c43-83e7-6ca47ad1435f"},"vehicle_type_id":"4","last_reported":1741324214,"current_range_meters":16000,"station_id":"ce4bhgp2rcd13ifvqfd0","pricing_plan_id":"cebpf4jnsgd1na2vs0mg"},{"bike_id":"41477e58-1f93-4f93-b7af-8f27b82cb7a9","system_id":"levelo_inurba_marseille","lat":43.27898,"lon":5.39589,"is_reserved":false,"is_disabled":false,"rental_uris":{"android":"levelo://app?vid=41477e58-1f93-4f93-b7af-8f27b82cb7a9","ios":"levelo://app?vid=41477e58-1f93-4f93-b7af-8f27b82cb7a9"},"vehicle_type_id":"4","last_reported":1741324214,"current_range_meters":16400,"station_id":"ce4bhf92rcd13ifvqf40","pricing_plan_id":"cebpf4jnsgd1na2vs0mg"},{"bike_id":"e9dd5106-063f-4cb9-843d-a241e6a91681","system_id":"levelo_inurba_marseille","lat":43.31064,"lon":5.42459,"is_reserved":false,"is_disabled":false,"rental_uris":{"android":"levelo://app?vid=e9dd5106-063f-4cb9-843d-a241e6a91681","ios":"levelo://app?vid=e9dd5106-063f-4cb9-843d-a241e6a91681"},"vehicle_type_id":"4","last_reported":1741324214,"current_range_meters":16400,"station_id":"ce4bhp92rcd13ifvqhag","pricing_plan_id":"cebpf4jnsgd1na2vs0mg"},{"bike_id":"e524bcef-a391-41b2-bad2-673eae53ea51","system_id":"levelo_inurba_marseille","lat":43.3171,"lon":5.43712,"is_reserved":false,"is_disabled":false,"rental_uris":{"android":"levelo://app?vid=e524bcef-a391-41b2-bad2-673eae53ea51","ios":"levelo://app?vid=e524bcef-a391-41b2-bad2-673eae53ea51"},"vehicle_type_id":"4","last_reported":1741324214,"current_range_meters":16400,"station_id":"ce4bhp92rcd13ifvqhcg","pricing_plan_id":"cebpf4jnsgd1na2vs0mg"},{"bike_id":"d44d1f0d-089b-4712-acec-6159946190a1","system_id":"levelo_inurba_marseille","lat":43.24161,"lon":5.36407,"is_reserved":false,"is_disabled":false,"rental_uris":{"android":"levelo://app?vid=d44d1f0d-089b-4712-acec-6159946190a1","ios":"levelo://app?vid=d44d1f0d-089b-4712-acec-6159946190a1"},"vehicle_type_id":"4","last_reported":1741324214,"current_range_meters":16400,"station_id":"cpo36qri1sfpv3e86is0","pricing_plan_id":"cebpf4jnsgd1na2vs0mg"},{"bike_id":"64aee591-3971-4972-97c5-3fe3d3278826","system_id":"levelo_inurba_marseille","lat":43.30875,"lon":5.39639,"is_reserved":false,"is_disabled":false,"rental_uris":{"android":"levelo://app?vid=64aee591-3971-4972-97c5-3fe3d3278826","ios":"levelo://app?vid=64aee591-3971-4972-97c5-3fe3d3278826"},"vehicle_type_id":"4","last_reported":1741324214,"current_range_meters":16400,"station_id":"ce4bh012rcd13ifvqcv0","pricing_plan_id":"cebpf4jnsgd1na2vs0mg"},{"bike_id":"d43e9dcd-72bd-494d-b96a-21e13e28ab92","system_id":"levelo_inurba_marseille","lat":43.25576,"lon":5.38235,"is_reserved":false,"is_disabled":false,"rental_uris":{"android":"levelo://app?vid=d43e9dcd-72bd-494d-b96a-21e13e28ab92","ios":"levelo://app?vid=d43e9dcd-72bd-494d-b96a-21e13e28ab92"},"vehicle_type_id":"4","last_reported":1741324214,"current_range_meters":16400,"station_id":"ce4bhih2rcd13ifvqfs0","pricing_plan_id":"cebpf4jnsgd1na2vs0mg"},{"bike_id":"c46e731c-43c9-42f7-b0e2-2a75bf008757","system_id":"levelo_inurba_marseille","lat":43.313321,"lon":5.396865,"is_reserved":false,"is_disabled":false,"rental_uris":{"android":"levelo://app?vid=c46e731c-43c9-42f7-b0e2-2a75bf008757","ios":"levelo://app?vid=c46e731c-43c9-42f7-b0e2-2a75bf008757"},"vehicle_type_id":"4","last_reported":1741324214,"current_range_meters":16400,"station_id":"ce4bgvp2rcd13ifvqcu0","pricing_plan_id":"cebpf4jnsgd1na2vs0mg"},{"bike_id":"aadaa07e-0b05-425f-a930-f27bd7b4fe4f","system_id":"levelo_inurba_marseille","lat":43.28435,"lon":5.39186,"is_reserved":false,"is_disabled":false,"rental_uris":{"android":"levelo://app?vid=aadaa07e-0b05-425f-a930-f27bd7b4fe4f","ios":"levelo://app?vid=aadaa07e-0b05-425f-a930-f27bd7b4fe4f"},"vehicle_type_id":"4","last_reported":1741324214,"current_range_meters":16400,"station_id":"ce4bhoh2rcd13ifvqh5g","pricing_plan_id":"cebpf4jnsgd1na2vs0mg"},{"bike_id":"db982742-15c9-486e-b19b-3e788fa1ce2e","system_id":"levelo_inurba_marseille","lat":43.30148,"lon":5.38088,"is_reserved":false,"is_disabled":false,"rental_uris":{"android":"levelo://app?vid=db982742-15c9-486e-b19b-3e788fa1ce2e","ios":"levelo://app?vid=db982742-15c9-486e-b19b-3e788fa1ce2e"},"vehicle_type_id":"4","last_reported":1741324214,"current_range_meters":16400,"station_id":"ce4bgjp2rcd13ifvqbh0","pricing_plan_id":"cebpf4jnsgd1na2vs0mg"},{"bike_id":"86e03eb4-e2de-4ef5-a878-5ebd12de3fa7","system_id":"levelo_inurba_marseille","lat":43.23053,"lon":5.35507,"is_reserved":false,"is_disabled":true,"rental_uris":{"android":"levelo://app?vid=86e03eb4-e2de-4ef5-a878-5ebd12de3fa7","ios":"levelo://app?vid=86e03eb4-e2de-4ef5-a878-5ebd12de3fa7"},"vehicle_type_id":"4","last_reported":1741324214,"current_range_meters":16400,"station_id":"cpo3342slgdg3j2ifvpg","pricing_plan_id":"cebpf4jnsgd1na2vs0mg"},{"bike_id":"e3936ecd-bc2f-4535-ae1e-23167a131007","system_id":"levelo_inurba_marseille","lat":43.334149,"lon":5.400636,"is_reserved":false,"is_disabled":false,"rental_uris":{"android":"levelo://app?vid=e3936ecd-bc2f-4535-ae1e-23167a131007","ios":"levelo://app?vid=e3936ecd-bc2f-4535-ae1e-23167a131007"},"vehicle_type_id":"4","last_reported":1741324214,"current_range_meters":16400,"station_id":"","pricing_plan_id":"cebpf4jnsgd1na2vs0mg"},{"bike_id":"cd05325e-0268-495e-8a07-58124158f18e","system_id":"levelo_inurba_marseille","lat":43.2872,"lon":5.36093,"is_reserved":false,"is_disabled":false,"rental_uris":{"android":"levelo://app?vid=cd05325e-0268-495e-8a07-58124158f18e","ios":"levelo://app?vid=cd05325e-0268-495e-8a07-58124158f18e"},"vehicle_type_id":"4","last_reported":1741324214,"current_range_meters":16800,"station_id":"cki0cbj6b192h4jlfktg","pricing_plan_id":"cebpf4jnsgd1na2vs0mg"},{"bike_id":"cc0cce90-0f7d-43a8-abe9-5fb0f372a06d","system_id":"levelo_inurba_marseille","lat":43.27223,"lon":5.38461,"is_reserved":false,"is_disabled":false,"rental_uris":{"android":"levelo://app?vid=cc0cce90-0f7d-43a8-abe9-5fb0f372a06d","ios":"levelo://app?vid=cc0cce90-0f7d-43a8-abe9-5fb0f372a06d"},"vehicle_type_id":"4","last_reported":1741324214,"current_range_meters":16800,"station_id":"","pricing_plan_id":"cebpf4jnsgd1na2vs0mg"},{"bike_id":"a20ecd9b-c412-4953-9cc5-0ca9354c3bf7","system_id":"levelo_inurba_marseille","lat":43.279159,"lon":5.395788,"is_reserved":false,"is_disabled":false,"rental_uris":{"android":"levelo://app?vid=a20ecd9b-c412-4953-9cc5-0ca9354c3bf7","ios":"levelo://app?vid=a20ecd9b-c412-4953-9cc5-0ca9354c3bf7"},"vehicle_type_id":"4","last_reported":1741324214,"current_range_meters":16800,"station_id":"ce4bhf92rcd13ifvqf40","pricing_plan_id":"cebpf4jnsgd1na2vs0mg"},{"bike_id":"db1c7047-7b9f-4b56-96ef-3b289cb537df","system_id":"levelo_inurba_marseille","lat":43.30819,"lon":5.37415,"is_reserved":false,"is_disabled":false,"rental_uris":{"android":"levelo://app?vid=db1c7047-7b9f-4b56-96ef-3b289cb537df","ios":"levelo://app?vid=db1c7047-7b9f-4b56-96ef-3b289cb537df"},"vehicle_type_id":"4","last_reported":1741324214,"current_range_meters":16800,"station_id":"","pricing_plan_id":"cebpf4jnsgd1na2vs0mg"},{"bike_id":"b1d03295-5a4c-4b8b-ad8e-3dbefaa793f2","system_id":"levelo_inurba_marseille","lat":43.23188,"lon":5.35572,"is_reserved":false,"is_disabled":false,"rental_uris":{"android":"levelo://app?vid=b1d03295-5a4c-4b8b-ad8e-3dbefaa793f2","ios":"levelo://app?vid=b1d03295-5a4c-4b8b-ad8e-3dbefaa793f2"},"vehicle_type_id":"4","last_reported":1741324214,"current_range_meters":16800,"station_id":"ce4bhu92rcd13ifvqi70","pricing_plan_id":"cebpf4jnsgd1na2vs0mg"},{"bike_id":"1a1bdaef-d1fc-4f00-bb87-c376a5bfcccc","system_id":"levelo_inurba_marseille","lat":43.30745,"lon":5.37666,"is_reserved":false,"is_disabled":false,"rental_uris":{"android":"levelo://app?vid=1a1bdaef-d1fc-4f00-bb87-c376a5bfcccc","ios":"levelo://app?vid=1a1bdaef-d1fc-4f00-bb87-c376a5bfcccc"},"vehicle_type_id":"4","last_reported":1741324214,"current_range_meters":16800,"station_id":"ce4bgv92rcd13ifvqcq0","pricing_plan_id":"cebpf4jnsgd1na2vs0mg"},{"bike_id":"94bb4b42-765a-4dcc-84e5-1e56175a727a","system_id":"levelo_inurba_marseille","lat":43.33776,"lon":5.37434,"is_reserved":false,"is_disabled":false,"rental_uris":{"android":"levelo://app?vid=94bb4b42-765a-4dcc-84e5-1e56175a727a","ios":"levelo://app?vid=94bb4b42-765a-4dcc-84e5-1e56175a727a"},"vehicle_type_id":"4","last_reported":1741324214,"current_range_meters":17200,"station_id":"","pricing_plan_id":"cebpf4jnsgd1na2vs0mg"},{"bike_id":"2600492d-144a-4edc-ab96-d3ef34fb080a","system_id":"levelo_inurba_marseille","lat":43.292471,"lon":5.409132,"is_reserved":false,"is_disabled":false,"rental_uris":{"android":"levelo://app?vid=2600492d-144a-4edc-ab96-d3ef34fb080a","ios":"levelo://app?vid=2600492d-144a-4edc-ab96-d3ef34fb080a"},"vehicle_type_id":"4","last_reported":1741324214,"current_range_meters":16800,"station_id":"ce4bh192rcd13ifvqdc0","pricing_plan_id":"cebpf4jnsgd1na2vs0mg"},{"bike_id":"f57f3f69-b9c6-4495-8b25-ff020cd0c112","system_id":"levelo_inurba_marseille","lat":43.27071,"lon":5.422745,"is_reserved":false,"is_disabled":false,"rental_uris":{"android":"levelo://app?vid=f57f3f69-b9c6-4495-8b25-ff020cd0c112","ios":"levelo://app?vid=f57f3f69-b9c6-4495-8b25-ff020cd0c112"},"vehicle_type_id":"4","last_reported":1741324214,"current_range_meters":16800,"station_id":"ce4bhk92rcd13ifvqgb0","pricing_plan_id":"cebpf4jnsgd1na2vs0mg"},{"bike_id":"4a1482b4-8c29-44ce-b095-2495b190330c","system_id":"levelo_inurba_marseille","lat":43.291863,"lon":5.393115,"is_reserved":false,"is_disabled":true,"rental_uris":{"android":"levelo://app?vid=4a1482b4-8c29-44ce-b095-2495b190330c","ios":"levelo://app?vid=4a1482b4-8c29-44ce-b095-2495b190330c"},"vehicle_type_id":"4","last_reported":1741324214,"current_range_meters":16800,"station_id":"ce4bh192rcd13ifvqdd0","pricing_plan_id":"cebpf4jnsgd1na2vs0mg"},{"bike_id":"7b28e23c-c48e-471f-bf28-0603135788eb","system_id":"levelo_inurba_marseille","lat":43.306399,"lon":5.400821,"is_reserved":false,"is_disabled":false,"rental_uris":{"android":"levelo://app?vid=7b28e23c-c48e-471f-bf28-0603135788eb","ios":"levelo://app?vid=7b28e23c-c48e-471f-bf28-0603135788eb"},"vehicle_type_id":"4","last_reported":1741324214,"current_range_meters":16800,"station_id":"ce4bh112rcd13ifvqda0","pricing_plan_id":"cebpf4jnsgd1na2vs0mg"},{"bike_id":"975fa86d-1215-4f11-9def-f80adfd3d7ee","system_id":"levelo_inurba_marseille","lat":43.255807,"lon":5.382328,"is_reserved":false,"is_disabled":false,"rental_uris":{"android":"levelo://app?vid=975fa86d-1215-4f11-9def-f80adfd3d7ee","ios":"levelo://app?vid=975fa86d-1215-4f11-9def-f80adfd3d7ee"},"vehicle_type_id":"4","last_reported":1741324214,"current_range_meters":16800,"station_id":"ce4bhih2rcd13ifvqfs0","pricing_plan_id":"cebpf4jnsgd1na2vs0mg"},{"bike_id":"7d734caf-b11b-48a6-9e1a-7fb7ee71c8d9","system_id":"levelo_inurba_marseille","lat":43.24633,"lon":5.38906,"is_reserved":false,"is_disabled":false,"rental_uris":{"android":"levelo://app?vid=7d734caf-b11b-48a6-9e1a-7fb7ee71c8d9","ios":"levelo://app?vid=7d734caf-b11b-48a6-9e1a-7fb7ee71c8d9"},"vehicle_type_id":"4","last_reported":1741324214,"current_range_meters":17200,"station_id":"ce4bhg12rcd13ifvqf60","pricing_plan_id":"cebpf4jnsgd1na2vs0mg"},{"bike_id":"34fca5e7-8353-4d68-89e6-b1d671353da7","system_id":"levelo_inurba_marseille","lat":43.32363,"lon":5.38884,"is_reserved":false,"is_disabled":false,"rental_uris":{"android":"levelo://app?vid=34fca5e7-8353-4d68-89e6-b1d671353da7","ios":"levelo://app?vid=34fca5e7-8353-4d68-89e6-b1d671353da7"},"vehicle_type_id":"4","last_reported":1741324214,"current_range_meters":17200,"station_id":"ce4bhqp2rcd13ifvqhog","pricing_plan_id":"cebpf4jnsgd1na2vs0mg"},{"bike_id":"76023be1-d2fd-42c0-a616-c011d5636f4f","system_id":"levelo_inurba_marseille","lat":43.2407,"lon":5.37765,"is_reserved":false,"is_disabled":false,"rental_uris":{"android":"levelo://app?vid=76023be1-d2fd-42c0-a616-c011d5636f4f","ios":"levelo://app?vid=76023be1-d2fd-42c0-a616-c011d5636f4f"},"vehicle_type_id":"4","last_reported":1741324214,"current_range_meters":17200,"station_id":"ce4bhnp2rcd13ifvqgvg","pricing_plan_id":"cebpf4jnsgd1na2vs0mg"},{"bike_id":"dacd7ebb-7347-4a3a-9edb-5dbadf431ab3","system_id":"levelo_inurba_marseille","lat":43.30937,"lon":5.40162,"is_reserved":false,"is_disabled":false,"rental_uris":{"android":"levelo://app?vid=dacd7ebb-7347-4a3a-9edb-5dbadf431ab3","ios":"levelo://app?vid=dacd7ebb-7347-4a3a-9edb-5dbadf431ab3"},"vehicle_type_id":"4","last_reported":1741324214,"current_range_meters":17200,"station_id":"ce4bgvp2rcd13ifvqct0","pricing_plan_id":"cebpf4jnsgd1na2vs0mg"},{"bike_id":"fd6296bd-f750-4893-b30b-28489933da7e","system_id":"levelo_inurba_marseille","lat":43.24079,"lon":5.37738,"is_reserved":false,"is_disabled":false,"rental_uris":{"android":"levelo://app?vid=fd6296bd-f750-4893-b30b-28489933da7e","ios":"levelo://app?vid=fd6296bd-f750-4893-b30b-28489933da7e"},"vehicle_type_id":"4","last_reported":1741324214,"current_range_meters":17200,"station_id":"ce4bhnp2rcd13ifvqgvg","pricing_plan_id":"cebpf4jnsgd1na2vs0mg"},{"bike_id":"c4c723cb-a07b-4be7-9352-175d996d4f95","system_id":"levelo_inurba_marseille","lat":43.27938,"lon":5.41058,"is_reserved":false,"is_disabled":false,"rental_uris":{"android":"levelo://app?vid=c4c723cb-a07b-4be7-9352-175d996d4f95","ios":"levelo://app?vid=c4c723cb-a07b-4be7-9352-175d996d4f95"},"vehicle_type_id":"4","last_reported":1741324214,"current_range_meters":17200,"station_id":"ce4bhnp2rcd13ifvqh0g","pricing_plan_id":"cebpf4jnsgd1na2vs0mg"},{"bike_id":"9d5c1636-cced-49ce-85d8-185ca567a8d4","system_id":"levelo_inurba_marseille","lat":43.28103,"lon":5.3784,"is_reserved":false,"is_disabled":false,"rental_uris":{"android":"levelo://app?vid=9d5c1636-cced-49ce-85d8-185ca567a8d4","ios":"levelo://app?vid=9d5c1636-cced-49ce-85d8-185ca567a8d4"},"vehicle_type_id":"4","last_reported":1741324214,"current_range_meters":17200,"station_id":"ce4bha12rcd13ifvqee0","pricing_plan_id":"cebpf4jnsgd1na2vs0mg"},{"bike_id":"17c7ea3e-d63e-46c0-b92d-5c9cd0cb50f4","system_id":"levelo_inurba_marseille","lat":43.3089,"lon":5.37195,"is_reserved":false,"is_disabled":false,"rental_uris":{"android":"levelo://app?vid=17c7ea3e-d63e-46c0-b92d-5c9cd0cb50f4","ios":"levelo://app?vid=17c7ea3e-d63e-46c0-b92d-5c9cd0cb50f4"},"vehicle_type_id":"4","last_reported":1741324214,"current_range_meters":17200,"station_id":"ce4bguh2rcd13ifvqckg","pricing_plan_id":"cebpf4jnsgd1na2vs0mg"},{"bike_id":"f5df736e-745e-4f7d-9f93-746a6777d89e","system_id":"levelo_inurba_marseille","lat":43.28728,"lon":5.36096,"is_reserved":false,"is_disabled":false,"rental_uris":{"android":"levelo://app?vid=f5df736e-745e-4f7d-9f93-746a6777d89e","ios":"levelo://app?vid=f5df736e-745e-4f7d-9f93-746a6777d89e"},"vehicle_type_id":"4","last_reported":1741324214,"current_range_meters":17600,"station_id":"cki0cbj6b192h4jlfktg","pricing_plan_id":"cebpf4jnsgd1na2vs0mg"},{"bike_id":"20aceef4-e0f6-43d7-a7f9-f6fd25b5798d","system_id":"levelo_inurba_marseille","lat":43.27937,"lon":5.41039,"is_reserved":false,"is_disabled":false,"rental_uris":{"android":"levelo://app?vid=20aceef4-e0f6-43d7-a7f9-f6fd25b5798d","ios":"levelo://app?vid=20aceef4-e0f6-43d7-a7f9-f6fd25b5798d"},"vehicle_type_id":"4","last_reported":1741324214,"current_range_meters":17600,"station_id":"ce4bhnp2rcd13ifvqh0g","pricing_plan_id":"cebpf4jnsgd1na2vs0mg"},{"bike_id":"4d88faaa-6717-4537-86fb-934d4272e02f","system_id":"levelo_inurba_marseille","lat":43.28454,"lon":5.35883,"is_reserved":false,"is_disabled":false,"rental_uris":{"android":"levelo://app?vid=4d88faaa-6717-4537-86fb-934d4272e02f","ios":"levelo://app?vid=4d88faaa-6717-4537-86fb-934d4272e02f"},"vehicle_type_id":"4","last_reported":1741324214,"current_range_meters":17600,"station_id":"ce4bhah2rcd13ifvqei0","pricing_plan_id":"cebpf4jnsgd1na2vs0mg"},{"bike_id":"d74e2dd0-16e3-42ea-9fe4-bdd73b6568b4","system_id":"levelo_inurba_marseille","lat":43.249943,"lon":5.38936,"is_reserved":false,"is_disabled":false,"rental_uris":{"android":"levelo://app?vid=d74e2dd0-16e3-42ea-9fe4-bdd73b6568b4","ios":"levelo://app?vid=d74e2dd0-16e3-42ea-9fe4-bdd73b6568b4"},"vehicle_type_id":"4","last_reported":1741324214,"current_range_meters":17600,"station_id":"ce4bhgp2rcd13ifvqfd0","pricing_plan_id":"cebpf4jnsgd1na2vs0mg"},{"bike_id":"3c28a72f-782e-488d-97d6-904d649b8f74","system_id":"levelo_inurba_marseille","lat":43.30803,"lon":5.43519,"is_reserved":false,"is_disabled":false,"rental_uris":{"android":"levelo://app?vid=3c28a72f-782e-488d-97d6-904d649b8f74","ios":"levelo://app?vid=3c28a72f-782e-488d-97d6-904d649b8f74"},"vehicle_type_id":"4","last_reported":1741324214,"current_range_meters":17600,"station_id":"ce4bhph2rcd13ifvqheg","pricing_plan_id":"cebpf4jnsgd1na2vs0mg"},{"bike_id":"40562c40-cbd6-496d-935e-edcd811d60ca","system_id":"levelo_inurba_marseille","lat":43.299784,"lon":5.371653,"is_reserved":false,"is_disabled":true,"rental_uris":{"android":"levelo://app?vid=40562c40-cbd6-496d-935e-edcd811d60ca","ios":"levelo://app?vid=40562c40-cbd6-496d-935e-edcd811d60ca"},"vehicle_type_id":"4","last_reported":1741324214,"current_range_meters":17600,"station_id":"ce4bgr92rcd13ifvqc7g","pricing_plan_id":"cebpf4jnsgd1na2vs0mg"},