{"last_updated":1748642994,"ttl":60,"version":"2.2","data":{"bikes":[{"bike_id":"10a7a805-7318-47f5-aecc-daf9ddcc9495","system_id":"levelo_inurba_marseille","lat":43.27998,"lon":5.41667,"is_reserved":false,"is_disabled":false,"rental_uris":{"android":"levelo://app?vid=10a7a805-7318-47f5-aecc-daf9ddcc9495","ios":"levelo://app?vid=10a7a805-7318-47f5-aecc-daf9ddcc9495"},"vehicle_type_id":"4","last_reported":1748642994,"current_range_meters":2800,"station_id":"ce4bho12rcd13ifvqh1g","pricing_plan_id":"cebpf4jnsgd1na2vs0mg"},{"bike_id":"40a912ab-67dd-4166-9c9d-6a93fe699630","system_id":"levelo_inurba_marseille","lat":43.28681,"lon":5.38643,"is_reserved":false,"is_disabled":false,"rental_uris":{"android":"levelo://app?vid=40a912ab-67dd-4166-9c9d-6a93fe699630","ios":"levelo://app?vid=40a912ab-67dd-4166-9c9d-6a93fe699630"},"vehicle_type_id":"4","last_reported":1748642994,"current_range_meters":2800,"station_id":"ce4bh492rcd13ifvqdug","pricing_plan_id":"cebpf4jnsgd1na2vs0mg"},{"bike_id":"da419955-714b-4013-b453-89869734b881","system_id":"levelo_inurba_marseille","lat":43.29572,"lon":5.39959,"is_reserved":false,"is_disabled":false,"rental_uris":{"android":"levelo://app?vid=da419955-714b-4013-b453-89869734b881","ios":"levelo://app?vid=da419955-714b-4013-b453-89869734b881"},"vehicle_type_id":"4","last_reported":1748642994,"current_range_meters":2800,"station_id":"ce4bh312rcd13ifvqdj0","pricing_plan_id":"cebpf4jnsgd1na2vs0mg"},{"bike_id":"0d51edee-56f7-45ec-8ac2-97d5f3fb0525","system_id":"levelo_inurba_marseille","lat":43.29532,"lon":5.385496,"is_reserved":false,"is_disabled":false,"rental_uris":{"android":"levelo://app?vid=0d51edee-56f7-45ec-8ac2-97d5f3fb0525","ios":"levelo://app?vid=0d51edee-56f7-45ec-8ac2-97d5f3fb0525"},"vehicle_type_id":"4","last_reported":1748642994,"current_range_meters":2800,"station_id":"","pricing_plan_id":"cebpf4jnsgd1na2vs0mg"},{"bike_id":"784a945d-80c2-45aa-b87c-e407e4d2ae86","system_id":"levelo_inurba_marseille","lat":43.27062,"lon":5.40269,"is_reserved":false,"is_disabled":true,"rental_uris":{"android":"levelo://app?vid=784a945d-80c2-45aa-b87c-e407e4d2ae86","ios":"levelo://app?vid=784a945d-80c2-45aa-b87c-e407e4d2ae86"},"vehicle_type_id":"4","last_reported":1748642994,"current_range_meters":3200,"station_id":"ce4bhk92rcd13ifvqgc0","pricing_plan_id":"cebpf4jnsgd1na2vs0mg"},{"bike_id":"43fd76e5-5b7b-4d43-a37d-e8bea56a73bf","system_id":"levelo_inurba_marseille","lat":43.29415,"lon":5.38636,"is_reserved":false,"is_disabled":false,"rental_uris":{"android":"levelo://app?vid=43fd76e5-5b7b-4d43-a37d-e8bea56a73bf","ios":"levelo://app?vid=43fd76e5-5b7b-4d43-a37d-e8bea56a73bf"},"vehicle_type_id":"4","last_reported":1748642994,"current_range_meters":3200,"station_id":"ce4bh2h2rcd13ifvqdh0","pricing_plan_id":"cebpf4jnsgd1na2vs0mg"},{"bike_id":"956413df-1bcb-4efd-98de-8ab2c0e5a057","system_id":"levelo_inurba_marseille","lat":43.285126,"lon":5.398443,"is_reserved":false,"is_disabled":false,"rental_uris":{"android":"levelo://app?vid=956413df-1bcb-4efd-98de-8ab2c0e5a057","ios":"levelo://app?vid=956413df-1bcb-4efd-98de-8ab2c0e5a057"},"vehicle_type_id":"4","last_reported":1748642994,"current_range_meters":3600,"station_id":"ce4bhnp2rcd13ifvqh0g","pricing_plan_id":"cebpf4jnsgd1na2vs0mg"},{"bike_id":"baf031d8-8f1c-489b-82cc-7480adad684b","system_id":"levelo_inurba_marseille","lat":43.27956,"lon":5.41019,"is_reserved":false,"is_disabled":false,"rental_uris":{"android":"levelo://app?vid=baf031d8-8f1c-489b-82cc-7480adad684b","ios":"levelo://app?vid=baf031d8-8f1c-489b-82cc-7480adad684b"},"vehicle_type_id":"4","last_reported":1748642994,"current_range_meters":3600,"station_id":"ce4bhnp2rcd13ifvqh0g","pricing_plan_id":"cebpf4jnsgd1na2vs0mg"},{"bike_id":"ea0191c4-8dc8-4682-b350-87bac166e441","system_id":"levelo_inurba_marseille","lat":43.308232,"lon":5.381378,"is_reserved":false,"is_disabled":true,"rental_uris":{"android":"levelo://app?vid=ea0191c4-8dc8-4682-b350-87bac166e441","ios":"levelo://app?vid=ea0191c4-8dc8-4682-b350-87bac166e441"},"vehicle_type_id":"4","last_reported":1748642994,"current_range_meters":3600,"station_id":"ce4bgt12rcd13ifvqce0","pricing_plan_id":"cebpf4jnsgd1na2vs0mg"},{"bike_id":"697d924a-ea53-411b-88e3-ed7542c4178d","system_id":"levelo_inurba_marseille","lat":43.337783,"lon":5.37483,"is_reserved":false,"is_disabled":false,"rental_uris":{"android":"levelo://app?vid=697d924a-ea53-411b-88e3-ed7542c4178d","ios":"levelo://app?vid=697d924a-ea53-411b-88e3-ed7542c4178d"},"vehicle_type_id":"4","last_reported":1748642994,"current_range_meters":3600,"station_id":"","pricing_plan_id":"cebpf4jnsgd1na2vs0mg"},{"bike_id":"83f58932-5e4f-4759-9290-dfe976998719","system_id":"levelo_inurba_marseille","lat":43.231913,"lon":5.355524,"is_reserved":false,"is_disabled":true,"rental_uris":{"android":"levelo://app?vid=83f58932-5e4f-4759-9290-dfe976998719","ios":"levelo://app?vid=83f58932-5e4f-4759-9290-dfe976998719"},"vehicle_type_id":"4","last_reported":1748642994,"current_range_meters":3600,"station_id":"ce4bhr12rcd13ifvqhqg","pricing_plan_id":"cebpf4jnsgd1na2vs0mg"},{"bike_id":"bc7f6d45-9d68-439d-9897-3f7d4907f4c8","system_id":"levelo_inurba_marseille","lat":43.29028,"lon":5.38641,"is_reserved":false,"is_disabled":false,"rental_uris":{"android":"levelo://app?vid=bc7f6d45-9d68-439d-9897-3f7d4907f4c8","ios":"levelo://app?vid=bc7f6d45-9d68-439d-9897-3f7d4907f4c8"},"vehicle_type_id":"4","last_reported":1748642994,"current_range_meters":3600,"station_id":"ce4bh4p2rcd13ifvqe0g","pricing_plan_id":"cebpf4jnsgd1na2vs0mg"},{"bike_id":"ed2cc4ec-7bbd-4514-9bf1-54145eaa4b49","system_id":"levelo_inurba_marseille","lat":43.2412,"lon":5.39682,"is_reserved":false,"is_disabled":false,"rental_uris":{"android":"levelo://app?vid=ed2cc4ec-7bbd-4514-9bf1-54145eaa4b49","ios":"levelo://app?vid=ed2cc4ec-7bbd-4514-9bf1-54145eaa4b49"},"vehicle_type_id":"4","last_reported":1748642994,"current_range_meters":3600,"station_id":"ce4bhn12rcd13ifvqgpg","pricing_plan_id":"cebpf4jnsgd1na2vs0mg"},{"bike_id":"e7a227e4-32e5-431d-a780-85e8ebf91915","system_id":"levelo_inurba_marseille","lat":43.34141,"lon":5.40907,"is_reserved":false,"is_disabled":false,"rental_uris":{"android":"levelo://app?vid=e7a227e4-32e5-431d-a780-85e8ebf91915","ios":"levelo://app?vid=e7a227e4-32e5-431d-a780-85e8ebf91915"},"vehicle_type_id":"4","last_reported":1748642994,"current_range_meters":4400,"station_id":"ce4bhqh2rcd13ifvqhlg","pricing_plan_id":"cebpf4jnsgd1na2vs0mg"},{"bike_id":"c210455d-09d6-4174-89b0-20fc6b87d4b7","system_id":"levelo_inurba_marseille","lat":43.27679,"lon":5.38872,"is_reserved":false,"is_disabled":false,"rental_uris":{"android":"levelo://app?vid=c210455d-09d6-4174-89b0-20fc6b87d4b7","ios":"levelo://app?vid=c210455d-09d6-4174-89b0-20fc6b87d4b7"},"vehicle_type_id":"4","last_reported":1748642994,"current_range_meters":4400,"station_id":"ce4bhi12rcd13ifvqfo0","pricing_plan_id":"cebpf4jnsgd1na2vs0mg"},{"bike_id":"a59797f2-7052-4070-9583-6cadb44cc4e5","system_id":"levelo_inurba_marseille","lat":43.29002,"lon":5.3561,"is_reserved":false,"is_disabled":false,"rental_uris":{"android":"levelo://app?vid=a59797f2-7052-4070-9583-6cadb44cc4e5","ios":"levelo://app?vid=a59797f2-7052-4070-9583-6cadb44cc4e5"},"vehicle_type_id":"4","last_reported":1748642994,"current_range_meters":4400,"station_id":"ce4bhb92rcd13ifvqen0","pricing_plan_id":"cebpf4jnsgd1na2vs0mg"},{"bike_id":"d9a1d5f8-0641-47c5-a8c1-d9d6efad1ee3","system_id":"levelo_inurba_marseille","lat":43.2847,"lon":5.38412,"is_reserved":false,"is_disabled":false,"rental_uris":{"android":"levelo://app?vid=d9a1d5f8-0641-47c5-a8c1-d9d6efad1ee3","ios":"levelo://app?vid=d9a1d5f8-0641-47c5-a8c1-d9d6efad1ee3"},"vehicle_type_id":"4","last_reported":1748642994,"current_range_meters":4400,"station_id":"ce4bh512rcd13ifvqe3g","pricing_plan_id":"cebpf4jnsgd1na2vs0mg"},{"bike_id":"9a3e8474-2e74-4a00-8ec2-4f67020a2256","system_id":"levelo_inurba_marseille","lat":43.27971,"lon":5.38725,"is_reserved":false,"is_disabled":true,"rental_uris":{"android":"levelo://app?vid=9a3e8474-2e74-4a00-8ec2-4f67020a2256","ios":"levelo://app?vid=9a3e8474-2e74-4a00-8ec2-4f67020a2256"},"vehicle_type_id":"4","last_reported":1748642994,"current_range_meters":4400,"station_id":"ce4bhg12rcd13ifvqf80","pricing_plan_id":"cebpf4jnsgd1na2vs0mg"},{"bike_id":"299bc464-0062-40b9-b8fd-94e53cb49a69","system_id":"levelo_inurba_marseille","lat":43.29641,"lon":5.36229,"is_reserved":false,"is_disabled":false,"rental_uris":{"android":"levelo://app?vid=299bc464-0062-40b9-b8fd-94e53cb49a69","ios":"levelo://app?vid=299bc464-0062-40b9-b8fd-94e53cb49a69"},"vehicle_type_id":"4","last_reported":1748642994,"current_range_meters":4800,"station_id":"","pricing_plan_id":"cebpf4jnsgd1na2vs0mg"},{"bike_id":"dec0a9ef-b594-4648-ab79-486f399ec901","system_id":"levelo_inurba_marseille","lat":43.29605,"lon":5.38085,"is_reserved":false,"is_disabled":false,"rental_uris":{"android":"levelo://app?vid=dec0a9ef-b594-4648-ab79-486f399ec901","ios":"levelo://app?vid=dec0a9ef-b594-4648-ab79-486f399ec901"},"vehicle_type_id":"4","last_reported":1748642994,"current_range_meters":4800,"station_id":"ce4bgl12rcd13ifvqbo0","pricing_plan_id":"cebpf4jnsgd1na2vs0mg"},{"bike_id":"54ea6cf6-bcaa-4d98-a532-8ecc4fb097bd","system_id":"levelo_inurba_marseille","lat":43.30591,"lon":5.37227,"is_reserved":false,"is_disabled":false,"rental_uris":{"android":"levelo://app?vid=54ea6cf6-bcaa-4d98-a532-8ecc4fb097bd","ios":"levelo://app?vid=54ea6cf6-bcaa-4d98-a532-8ecc4fb097bd"},"vehicle_type_id":"4","last_reported":1748642994,"current_range_meters":5600,"station_id":"ce4bgqh2rcd13ifvqc4g","pricing_plan_id":"cebpf4jnsgd1na2vs0mg"},{"bike_id":"3db18fb2-7729-4cbb-a295-659a6c471774","system_id":"levelo_inurba_marseille","lat":43.283575,"lon":5.381051,"is_reserved":false,"is_disabled":false,"rental_uris":{"android":"levelo://app?vid=3db18fb2-7729-4cbb-a295-659a6c471774","ios":"levelo://app?vid=3db18fb2-7729-4cbb-a295-659a6c471774"},"vehicle_type_id":"4","last_reported":1748642994,"current_range_meters":5600,"station_id":"ce4bh412rcd13ifvqdr0","pricing_plan_id":"cebpf4jnsgd1na2vs0mg"},{"bike_id":"bfd3b341-01f6-4fef-bebe-7c1cb9bc6efa","system_id":"levelo_inurba_marseille","lat":43.27947,"lon":5.41,"is_reserved":false,"is_disabled":false,"rental_uris":{"android":"levelo://app?vid=bfd3b341-01f6-4fef-bebe-7c1cb9bc6efa","ios":"levelo://app?vid=bfd3b341-01f6-4fef-bebe-7c1cb9bc6efa"},"vehicle_type_id":"4","last_reported":1748642994,"current_range_meters":5600,"station_id":"ce4bhnp2rcd13ifvqh0g","pricing_plan_id":"cebpf4jnsgd1na2vs0mg"},{"bike_id":"72b23615-0b78-4a19-8c4c-ff25f55f5ef9","system_id":"levelo_inurba_marseille","lat":43.27497,"lon":5.4245,"is_reserved":false,"is_disabled":false,"rental_uris":{"android":"levelo://app?vid=72b23615-0b78-4a19-8c4c-ff25f55f5ef9","ios":"levelo://app?vid=72b23615-0b78-4a19-8c4c-ff25f55f5ef9"},"vehicle_type_id":"4","last_reported":1748642994,"current_range_meters":5600,"station_id":"ce4bhn92rcd13ifvqgrg","pricing_plan_id":"cebpf4jnsgd1na2vs0mg"},{"bike_id":"fcf8cd33-57ca-4f6c-b209-5a545fc47540","system_id":"levelo_inurba_marseille","lat":43.31168,"lon":5.38719,"is_reserved":false,"is_disabled":false,"rental_uris":{"android":"levelo://app?vid=fcf8cd33-57ca-4f6c-b209-5a545fc47540","ios":"levelo://app?vid=fcf8cd33-57ca-4f6c-b209-5a545fc47540"},"vehicle_type_id":"4","last_reported":1748642994,"current_range_meters":4800,"station_id":"ce4bgv12rcd13ifvqcp0","pricing_plan_id":"cebpf4jnsgd1na2vs0mg"},{"bike_id":"36240f0a-66a2-43ec-8330-1f3a9d08cc7e","system_id":"levelo_inurba_marseille","lat":43.23891,"lon":5.3627,"is_reserved":false,"is_disabled":false,"rental_uris":{"android":"levelo://app?vid=36240f0a-66a2-43ec-8330-1f3a9d08cc7e","ios":"levelo://app?vid=36240f0a-66a2-43ec-8330-1f3a9d08cc7e"},"vehicle_type_id":"4","last_reported":1748642994,"current_range_meters":6000,"station_id":"","pricing_plan_id":"cebpf4jnsgd1na2vs0mg"},{"bike_id":"4efa39bd-745c-4191-bab2-f41699f3c817","system_id":"levelo_inurba_marseille","lat":43.26221,"lon":5.40442,"is_reserved":false,"is_disabled":false,"rental_uris":{"android":"levelo://app?vid=4efa39bd-745c-4191-bab2-f41699f3c817","ios":"levelo://app?vid=4efa39bd-745c-4191-bab2-f41699f3c817"},"vehicle_type_id":"4","last_reported":1748642994,"current_range_meters":6000,"station_id":"ce4bhmh2rcd13ifvqgmg","pricing_plan_id":"cebpf4jnsgd1na2vs0mg"},{"bike_id":"e80c2554-a5fd-4f6a-80de-c3bb2b4cc78a","system_id":"levelo_inurba_marseille","lat":43.2512,"lon":5.40324,"is_reserved":false,"is_disabled":false,"rental_uris":{"android":"levelo://app?vid=e80c2554-a5fd-4f6a-80de-c3bb2b4cc78a","ios":"levelo://app?vid=e80c2554-a5fd-4f6a-80de-c3bb2b4cc78a"},"vehicle_type_id":"4","last_reported":1748642994,"current_range_meters":6000,"station_id":"ce4bhlh2rcd13ifvqgig","pricing_plan_id":"cebpf4jnsgd1na2vs0mg"},{"bike_id":"a24ed859-7ffe-447b-a280-957c836eb856","system_id":"levelo_inurba_marseille","lat":43.31297,"lon":5.37533,"is_reserved":false,"is_disabled":false,"rental_uris":{"android":"levelo://app?vid=a24ed859-7ffe-447b-a280-957c836eb856","ios":"levelo://app?vid=a24ed859-7ffe-447b-a280-957c836eb856"},"vehicle_type_id":"4","last_reported":1748642994,"current_range_meters":6000,"station_id":"","pricing_plan_id":"cebpf4jnsgd1na2vs0mg"},{"bike_id":"bbb2d7fa-4fea-45cc-92c7-b1f8fb614697","system_id":"levelo_inurba_marseille","lat":43.265589,"lon":5.372836,"is_reserved":false,"is_disabled":false,"rental_uris":{"android":"levelo://app?vid=bbb2d7fa-4fea-45cc-92c7-b1f8fb614697","ios":"levelo://app?vid=bbb2d7fa-4fea-45cc-92c7-b1f8fb614697"},"vehicle_type_id":"4","last_reported":1748642994,"current_range_meters":6000,"station_id":"ce4bhg12rcd13ifvqf70","pricing_plan_id":"cebpf4jnsgd1na2vs0mg"},{"bike_id":"2981ae6d-848a-44c5-987d-c104168410fb","system_id":"levelo_inurba_marseille","lat":43.24168,"lon":5.36387,"is_reserved":false,"is_disabled":true,"rental_uris":{"android":"levelo://app?vid=2981ae6d-848a-44c5-987d-c104168410fb","ios":"levelo://app?vid=2981ae6d-848a-44c5-987d-c104168410fb"},"vehicle_type_id":"4","last_reported":1748642994,"current_range_meters":6400,"station_id":"cpo36qri1sfpv3e86is0","pricing_plan_id":"cebpf4jnsgd1na2vs0mg"},{"bike_id":"46517da7-a3a5-4cfa-b086-fb58bb6e341a","system_id":"levelo_inurba_marseille","lat":43.26224,"lon":5.40459,"is_reserved":false,"is_disabled":false,"rental_uris":{"android":"levelo://app?vid=46517da7-a3a5-4cfa-b086-fb58bb6e341a","ios":"levelo://app?vid=46517da7-a3a5-4cfa-b086-fb58bb6e341a"},"vehicle_type_id":"4","last_reported":1748642994,"current_range_meters":6400,"station_id":"ce4bhmh2rcd13ifvqgmg","pricing_plan_id":"cebpf4jnsgd1na2vs0mg"},{"bike_id":"55080048-1445-433c-8653-9f436d843131","system_id":"levelo_inurba_marseille","lat":43.28537,"lon":5.368935,"is_reserved":false,"is_disabled":false,"rental_uris":{"android":"levelo://app?vid=55080048-1445-433c-8653-9f436d843131","ios":"levelo://app?vid=55080048-1445-433c-8653-9f436d843131"},"vehicle_type_id":"4","last_reported":1748642994,"current_range_meters":6800,"station_id":"","pricing_plan_id":"cebpf4jnsgd1na2vs0mg"},{"bike_id":"226b76af-7f36-4dd6-a3a4-805afc236adf","system_id":"levelo_inurba_marseille","lat":43.30152,"lon":5.38078,"is_reserved":false,"is_disabled":false,"rental_uris":{"android":"levelo://app?vid=226b76af-7f36-4dd6-a3a4-805afc236adf","ios":"levelo://app?vid=226b76af-7f36-4dd6-a3a4-805afc236adf"},"vehicle_type_id":"4","last_reported":1748642994,"current_range_meters":6800,"station_id":"ce4bgjp2rcd13ifvqbh0","pricing_plan_id":"cebpf4jnsgd1na2vs0mg"},{"bike_id":"4e82788a-76ec-40e1-8d87-7dbcf56d978b","system_id":"levelo_inurba_marseille","lat":43.30333,"lon":5.40436,"is_reserved":false,"is_disabled":false,"rental_uris":{"android":"levelo://app?vid=4e82788a-76ec-40e1-8d87-7dbcf56d978b","ios":"levelo://app?vid=4e82788a-76ec-40e1-8d87-7dbcf56d978b"},"vehicle_type_id":"4","last_reported":1748642994,"current_range_meters":6800,"station_id":"ce4bh012rcd13ifvqd10","pricing_plan_id":"cebpf4jnsgd1na2vs0mg"},{"bike_id":"00f77637-c960-45d0-b516-a2f6a0285858","system_id":"levelo_inurba_marseille","lat":43.29731,"lon":5.38542,"is_reserved":false,"is_disabled":false,"rental_uris":{"android":"levelo://app?vid=00f77637-c960-45d0-b516-a2f6a0285858","ios":"levelo://app?vid=00f77637-c960-45d0-b516-a2f6a0285858"},"vehicle_type_id":"4","last_reported":1748642994,"current_range_meters":6800,"station_id":"","pricing_plan_id":"cebpf4jnsgd1na2vs0mg"},{"bike_id":"a426f99b-d34a-41bf-bbda-59f7dfd6939b","system_id":"levelo_inurba_marseille","lat":43.255796,"lon":5.382262,"is_reserved":false,"is_disabled":false,"rental_uris":{"android":"levelo://app?vid=a426f99b-d34a-41bf-bbda-59f7dfd6939b","ios":"levelo://app?vid=a426f99b-d34a-41bf-bbda-59f7dfd6939b"},"vehicle_type_id":"4","last_reported":1748642994,"current_range_meters":7200,"station_id":"ce501612rcd8frsf0b60","pricing_plan_id":"cebpf4jnsgd1na2vs0mg"},{"bike_id":"8c98bbc1-1b57-4d43-8e8f-3ff0a418a7d8","system_id":"levelo_inurba_marseille","lat":43.30657,"lon":5.37343,"is_reserved":false,"is_disabled":false,"rental_uris":{"android":"levelo://app?vid=8c98bbc1-1b57-4d43-8e8f-3ff0a418a7d8","ios":"levelo://app?vid=8c98bbc1-1b57-4d43-8e8f-3ff0a418a7d8"},"vehicle_type_id":"4","last_reported":1748642994,"current_range_meters":7200,"station_id":"","pricing_plan_id":"cebpf4jnsgd1na2vs0mg"},{"bike_id":"446b01ec-d117-49a4-928c-61869c6f563e","system_id":"levelo_inurba_marseille","lat":43.279035,"lon":5.37998,"is_reserved":false,"is_disabled":true,"rental_uris":{"android":"levelo://app?vid=446b01ec-d117-49a4-928c-61869c6f563e","ios":"levelo://app?vid=446b01ec-d117-49a4-928c-61869c6f563e"},"vehicle_type_id":"4","last_reported":1748642994,"current_range_meters":7200,"station_id":"ce4bhf92rcd13ifvqf50","pricing_plan_id":"cebpf4jnsgd1na2vs0mg"},{"bike_id":"6e0b8d08-2cb6-44bb-b8aa-d33b237deaff","system_id":"levelo_inurba_marseille","lat":43.29422,"lon":5.38613,"is_reserved":false,"is_disabled":false,"rental_uris":{"android":"levelo://app?vid=6e0b8d08-2cb6-44bb-b8aa-d33b237deaff","ios":"levelo://app?vid=6e0b8d08-2cb6-44bb-b8aa-d33b237deaff"},"vehicle_type_id":"4","last_reported":1748642994,"current_range_meters":7200,"station_id":"ce4bh2h2rcd13ifvqdh0","pricing_plan_id":"cebpf4jnsgd1na2vs0mg"},{"bike_id":"f5733814-9732-4748-bcc9-3b2fac8e1564","system_id":"levelo_inurba_marseille","lat":43.31256,"lon":5.37829,"is_reserved":false,"is_disabled":true,"rental_uris":{"android":"levelo://app?vid=f5733814-9732-4748-bcc9-3b2fac8e1564","ios":"levelo://app?vid=f5733814-9732-4748-bcc9-3b2fac8e1564"},"vehicle_type_id":"4","last_reported":1748642994,"current_range_meters":7200,"station_id":"","pricing_plan_id":"cebpf4jnsgd1na2vs0mg"},{"bike_id":"c3302591-7333-4206-b714-57ceb59be2da","system_id":"levelo_inurba_marseille","lat":43.29972,"lon":5.37177,"is_reserved":false,"is_disabled":false,"rental_uris":{"android":"levelo://app?vid=c3302591-7333-4206-b714-57ceb59be2da","ios":"levelo://app?vid=c3302591-7333-4206-b714-57ceb59be2da"},"vehicle_type_id":"4","last_reported":1748642994,"current_range_meters":7200,"station_id":"ce4bgr92rcd13ifvqc7g","pricing_plan_id":"cebpf4jnsgd1na2vs0mg"},{"bike_id":"407e5a45-16ab-470f-bd11-310fec85bedc","system_id":"levelo_inurba_marseille","lat":43.265477,"lon":5.372877,"is_reserved":false,"is_disabled":false,"rental_uris":{"android":"levelo://app?vid=407e5a45-16ab-470f-bd11-310fec85bedc","ios":"levelo://app?vid=407e5a45-16ab-470f-bd11-310fec85bedc"},"vehicle_type_id":"4","last_reported":1748642994,"current_range_meters":7200,"station_id":"ce4bhg12rcd13ifvqf70","pricing_plan_id":"cebpf4jnsgd1na2vs0mg"},{"bike_id":"78b8e269-356a-417b-88aa-5f72590dd8bb","system_id":"levelo_inurba_marseille","lat":43.29535,"lon":5.38544,"is_reserved":false,"is_disabled":false,"rental_uris":{"android":"levelo://app?vid=78b8e269-356a-417b-88aa-5f72590dd8bb","ios":"levelo://app?vid=78b8e269-356a-417b-88aa-5f72590dd8bb"},"vehicle_type_id":"4","last_reported":1748642994,"current_range_meters":8000,"station_id":"ce4bgih2rcd13ifvqba0","pricing_plan_id":"cebpf4jnsgd1na2vs0mg"},{"bike_id":"dc0b5c1a-d398-4526-8724-3ca50cc54ad7","system_id":"levelo_inurba_marseille","lat":43.29035,"lon":5.38643,"is_reserved":false,"is_disabled":false,"rental_uris":{"android":"levelo://app?vid=dc0b5c1a-d398-4526-8724-3ca50cc54ad7","ios":"levelo://app?vid=dc0b5c1a-d398-4526-8724-3ca50cc54ad7"},"vehicle_type_id":"4","last_reported":1748642994,"current_range_meters":8000,"station_id":"ce4bh4p2rcd13ifvqe0g","pricing_plan_id":"cebpf4jnsgd1na2vs0mg"},{"bike_id":"2b4c841b-bc87-41b9-86ce-cf5176ad21aa","system_id":"levelo_inurba_marseille","lat":43.29824,"lon":5.362417,"is_reserved":false,"is_disabled":false,"rental_uris":{"android":"levelo://app?vid=2b4c841b-bc87-41b9-86ce-cf5176ad21aa","ios":"levelo://app?vid=2b4c841b-bc87-41b9-86ce-cf5176ad21aa"},"vehicle_type_id":"4","last_reported":1748642994,"current_range_meters":8000,"station_id":"ce4bgpp2rcd13ifvqc3g","pricing_plan_id":"cebpf4jnsgd1na2vs0mg"},{"bike_id":"4e072d55-941c-40ec-8614-c3a0528abcd9","system_id":"levelo_inurba_marseille","lat":43.30881,"lon":5.39635,"is_reserved":false,"is_disabled":false,"rental_uris":{"android":"levelo://app?vid=4e072d55-941c-40ec-8614-c3a0528abcd9","ios":"levelo://app?vid=4e072d55-941c-40ec-8614-c3a0528abcd9"},"vehicle_type_id":"4","last_reported":1748642994,"current_range_meters":8000,"station_id":"","pricing_plan_id":"cebpf4jnsgd1na2vs0mg"},{"bike_id":"160b8d9f-aab6-4d76-9dcf-117c6d7c4c30","system_id":"levelo_inurba_marseille","lat":43.28355,"lon":5.38099,"is_reserved":false,"is_disabled":false,"rental_uris":{"android":"levelo://app?vid=160b8d9f-aab6-4d76-9dcf-117c6d7c4c30","ios":"levelo://app?vid=160b8d9f-aab6-4d76-9dcf-117c6d7c4c30"},"vehicle_type_id":"4","last_reported":1748642994,"current_range_meters":8000,"station_id":"ce4bh412rcd13ifvqdr0","pricing_plan_id":"cebpf4jnsgd1na2vs0mg"},{"bike_id":"da5921cd-e75b-4ce7-b109-06c28f720590","system_id":"levelo_inurba_marseille","lat":43.28755,"lon":5.36145,"is_reserved":false,"is_disabled":false,"rental_uris":{"android":"levelo://app?vid=da5921cd-e75b-4ce7-b109-06c28f720590","ios":"levelo://app?vid=da5921cd-e75b-4ce7-b109-06c28f720590"},"vehicle_type_id":"4","last_reported":1748642994,"current_range_meters":8000,"station_id":"","pricing_plan_id":"cebpf4jnsgd1na2vs0mg"},{"bike_id":"97c383a9-35fd-4379-9f90-721945a5c5e9","system_id":"levelo_inurba_marseille","lat":43.23058,"lon":5.35485,"is_reserved":false,"is_disabled":false,"rental_uris":{"android":"levelo://app?vid=97c383a9-35fd-4379-9f90-721945a5c5e9","ios":"levelo://app?vid=97c383a9-35fd-4379-9f90-721945a5c5e9"},"vehicle_type_id":"4","last_reported":1748642994,"current_range_meters":8000,"station_id":"cpo3342slgdg3j2ifvpg","pricing_plan_id":"cebpf4jnsgd1na2vs0mg"},{"bike_id":"544abdfa-b4d6-4c3e-8a04-4e2476db1de5","system_id":"levelo_inurba_marseille","lat":43.29881,"lon":5.36869,"is_reserved":false,"is_disabled":false,"rental_uris":{"android":"levelo://app?vid=544abdfa-b4d6-4c3e-8a04-4e2476db1de5","ios":"levelo://app?vid=544abdfa-b4d6-4c3e-8a04-4e2476db1de5"},"vehicle_type_id":"4","last_reported":1748642994,"current_range_meters":8000,"station_id":"","pricing_plan_id":"cebpf4jnsgd1na2vs0mg"},{"bike_id":"e9cda520-c6f4-465d-ad7f-8c059b3dc45a","system_id":"levelo_inurba_marseille","lat":43.313967,"lon":5.383993,"is_reserved":false,"is_disabled":true,"rental_uris":{"android":"levelo://app?vid=e9cda520-c6f4-465d-ad7f-8c059b3dc45a","ios":"levelo://app?vid=e9cda520-c6f4-465d-ad7f-8c059b3dc45a"},"vehicle_type_id":"4","last_reported":1748642994,"current_range_meters":8000,"station_id":"","pricing_plan_id":"cebpf4jnsgd1na2vs0mg"},{"bike_id":"02870c28-7f86-4c31-8a36-c492ca7b0f8c","system_id":"levelo_inurba_marseille","lat":43.28722,"lon":5.3609,"is_reserved":false,"is_disabled":false,"rental_uris":{"android":"levelo://app?vid=02870c28-7f86-4c31-8a36-c492ca7b0f8c","ios":"levelo://app?vid=02870c28-7f86-4c31-8a36-c492ca7b0f8c"},"vehicle_type_id":"4","last_reported":1748642994,"current_range_meters":8000,"station_id":"cki0cbj6b192h4jlfktg","pricing_plan_id":"cebpf4jnsgd1na2vs0mg"},{"bike_id":"3d4773db-bf37-45ee-b26e-b0c5e5127bd8","system_id":"levelo_inurba_marseille","lat":43.28694,"lon":5.39966,"is_reserved":false,"is_disabled":false,"rental_uris":{"android":"levelo://app?vid=3d4773db-bf37-45ee-b26e-b0c5e5127bd8","ios":"levelo://app?vid=3d4773db-bf37-45ee-b26e-b0c5e5127bd8"},"vehicle_type_id":"4","last_reported":1748642994,"current_range_meters":8000,"station_id":"ce4bho92rcd13ifvqh3g","pricing_plan_id":"cebpf4jnsgd1na2vs0mg"},{"bike_id":"6e6b68c4-ef8d-4b16-8959-a4de03ea4574","system_id":"levelo_inurba_marseille","lat":43.31063,"lon":5.38359,"is_reserved":false,"is_disabled":false,"rental_uris":{"android":"levelo://app?vid=6e6b68c4-ef8d-4b16-8959-a4de03ea4574","ios":"levelo://app?vid=6e6b68c4-ef8d-4b16-8959-a4de03ea4574"},"vehicle_type_id":"4","last_reported":1748642994,"current_range_meters":8000,"station_id":"ce4bgv92rcd13ifvqcr0","pricing_plan_id":"cebpf4jnsgd1na2vs0mg"},{"bike_id":"4fe10fed-4716-4625-8642-c17801686b86","system_id":"levelo_inurba_marseille","lat":43.29421,"lon":5.38631,"is_reserved":false,"is_disabled":false,"rental_uris":{"android":"levelo://app?vid=4fe10fed-4716-4625-8642-c17801686b86","ios":"levelo://app?vid=4fe10fed-4716-4625-8642-c17801686b86"},"vehicle_type_id":"4","last_reported":1748642994,"current_range_meters":8400,"station_id":"ce4bh2h2rcd13ifvqdh0","pricing_plan_id":"cebpf4jnsgd1na2vs0mg"},{"bike_id":"1a5606d3-72d6-43e9-9df5-cf6b97fd8241","system_id":"levelo_inurba_marseille","lat":43.302549,"lon":5.400788,"is_reserved":false,"is_disabled":false,"rental_uris":{"android":"levelo://app?vid=1a5606d3-72d6-43e9-9df5-cf6b97fd8241","ios":"levelo://app?vid=1a5606d3-72d6-43e9-9df5-cf6b97fd8241"},"vehicle_type_id":"4","last_reported":1748642994,"current_range_meters":8400,"station_id":"ce4bgvh2rcd13ifvqcs0","pricing_plan_id":"cebpf4jnsgd1na2vs0mg"},{"bike_id":"e847c897-5f9c-46ad-95cd-97c9f167bbef","system_id":"levelo_inurba_marseille","lat":43.2927,"lon":5.38435,"is_reserved":false,"is_disabled":false,"rental_uris":{"android":"levelo://app?vid=e847c897-5f9c-46ad-95cd-97c9f167bbef","ios":"levelo://app?vid=e847c897-5f9c-46ad-95cd-97c9f167bbef"},"vehicle_type_id":"4","last_reported":1748642994,"current_range_meters":8400,"station_id":"ce4bh692rcd13ifvqea0","pricing_plan_id":"cebpf4jnsgd1na2vs0mg"},{"bike_id":"a31656a4-5217-4c2d-91ea-e636b7cf9b1f","system_id":"levelo_inurba_marseille","lat":43.28554,"lon":5.384146,"is_reserved":false,"is_disabled":false,"rental_uris":{"android":"levelo://app?vid=a31656a4-5217-4c2d-91ea-e636b7cf9b1f","ios":"levelo://app?vid=a31656a4-5217-4c2d-91ea-e636b7cf9b1f"},"vehicle_type_id":"4","last_reported":1748642994,"current_range_meters":8400,"station_id":"","pricing_plan_id":"cebpf4jnsgd1na2vs0mg"},{"bike_id":"5c2e696a-1271-476d-b3d9-b7fb81801c96","system_id":"levelo_inurba_marseille","lat":43.31172,"lon":5.38713,"is_reserved":false,"is_disabled":false,"rental_uris":{"android":"levelo://app?vid=5c2e696a-1271-476d-b3d9-b7fb81801c96","ios":"levelo://app?vid=5c2e696a-1271-476d-b3d9-b7fb81801c96"},"vehicle_type_id":"4","last_reported":1748642994,"current_range_meters":8400,"station_id":"ce4bgv12rcd13ifvqcp0","pricing_plan_id":"cebpf4jnsgd1na2vs0mg"},{"bike_id":"77cd20ec-25bb-4891-9646-a1a1f5660b35","system_id":"levelo_inurba_marseille","lat":43.28003,"lon":5.41663,"is_reserved":false,"is_disabled":false,"rental_uris":{"android":"levelo://app?vid=77cd20ec-25bb-4891-9646-a1a1f5660b35","ios":"levelo://app?vid=77cd20ec-25bb-4891-9646-a1a1f5660b35"},"vehicle_type_id":"4","last_reported":1748642994,"current_range_meters":8400,"station_id":"ce4bho12rcd13ifvqh1g","pricing_plan_id":"cebpf4jnsgd1na2vs0mg"},{"bike_id":"5035d31b-f1e6-4a18-9c0b-6b0409202f23","system_id":"levelo_inurba_marseille","lat":43.29887,"lon":5.38902,"is_reserved":false,"is_disabled":false,"rental_uris":{"android":"levelo://app?vid=5035d31b-f1e6-4a18-9c0b-6b0409202f23","ios":"levelo://app?vid=5035d31b-f1e6-4a18-9c0b-6b0409202f23"},"vehicle_type_id":"4","last_reported":1748642994,"current_range_meters":8400,"station_id":"ce4bh392rcd13ifvqdl0","pricing_plan_id":"cebpf4jnsgd1na2vs0mg"},{"bike_id":"daa4fe86-0f61-482f-b421-85d55122756a","system_id":"levelo_inurba_marseille","lat":43.2757,"lon":5.384,"is_reserved":false,"is_disabled":false,"rental_uris":{"android":"levelo://app?vid=daa4fe86-0f61-482f-b421-85d55122756a","ios":"levelo://app?vid=daa4fe86-0f61-482f-b421-85d55122756a"},"vehicle_type_id":"4","last_reported":1748642994,"current_range_meters":8800,"station_id":"ce4bhh92rcd13ifvqfi0","pricing_plan_id":"cebpf4jnsgd1na2vs0mg"},{"bike_id":"86972f7c-a13b-4ea5-bbce-0c2ccef78924","system_id":"levelo_inurba_marseille","lat":43.3014,"lon":5.38052,"is_reserved":false,"is_disabled":false,"rental_uris":{"android":"levelo://app?vid=86972f7c-a13b-4ea5-bbce-0c2ccef78924","ios":"levelo://app?vid=86972f7c-a13b-4ea5-bbce-0c2ccef78924"},"vehicle_type_id":"4","last_reported":1748642994,"current_range_meters":8800,"station_id":"ce4bgjp2rcd13ifvqbh0","pricing_plan_id":"cebpf4jnsgd1na2vs0mg"},{"bike_id":"f7005840-3fcb-440d-a899-0476f19bf267","system_id":"levelo_inurba_marseille","lat":43.28156,"lon":5.426434,"is_reserved":false,"is_disabled":false,"rental_uris":{"android":"levelo://app?vid=f7005840-3fcb-440d-a899-0476f19bf267","ios":"levelo://app?vid=f7005840-3fcb-440d-a899-0476f19bf267"},"vehicle_type_id":"4","last_reported":1748642994,"current_range_meters":8800,"station_id":"ce4bhnh2rcd13ifvqgug","pricing_plan_id":"cebpf4jnsgd1na2vs0mg"},{"bike_id":"10c3d9e0-1fc1-47c9-9dfb-8dd2e213a97e","system_id":"levelo_inurba_marseille","lat":43.3014,"lon":5.38079,"is_reserved":false,"is_disabled":false,"rental_uris":{"android":"levelo://app?vid=10c3d9e0-1fc1-47c9-9dfb-8dd2e213a97e","ios":"levelo://app?vid=10c3d9e0-1fc1-47c9-9dfb-8dd2e213a97e"},"vehicle_type_id":"4","last_reported":1748642994,"current_range_meters":8800,"station_id":"ce4bgjp2rcd13ifvqbh0","pricing_plan_id":"cebpf4jnsgd1na2vs0mg"},{"bike_id":"91194276-c829-42e5-a6ed-8393753c90e5","system_id":"levelo_inurba_marseille","lat":43.243937,"lon":5.37054,"is_reserved":false,"is_disabled":false,"rental_uris":{"android":"levelo://app?vid=91194276-c829-42e5-a6ed-8393753c90e5","ios":"levelo://app?vid=91194276-c829-42e5-a6ed-8393753c90e5"},"vehicle_type_id":"4","last_reported":1748642994,"current_range_meters":8800,"station_id":"ce4bhhh2rcd13ifvqfk0","pricing_plan_id":"cebpf4jnsgd1na2vs0mg"},{"bike_id":"59443060-1562-4317-ab27-d1035baab05e","system_id":"levelo_inurba_marseille","lat":43.31364,"lon":5.38494,"is_reserved":false,"is_disabled":false,"rental_uris":{"android":"levelo://app?vid=59443060-1562-4317-ab27-d1035baab05e","ios":"levelo://app?vid=59443060-1562-4317-ab27-d1035baab05e"},"vehicle_type_id":"4","last_reported":1748642994,"current_range_meters":8800,"station_id":"ce4bgt92rcd13ifvqcf0","pricing_plan_id":"cebpf4jnsgd1na2vs0mg"},{"bike_id":"931d9b9f-76bd-442c-bb34-33c0ffb03957","system_id":"levelo_inurba_marseille","lat":43.29912,"lon":5.38142,"is_reserved":false,"is_disabled":false,"rental_uris":{"android":"levelo://app?vid=931d9b9f-76bd-442c-bb34-33c0ffb03957","ios":"levelo://app?vid=931d9b9f-76bd-442c-bb34-33c0ffb03957"},"vehicle_type_id":"4","last_reported":1748642994,"current_range_meters":8800,"station_id":"ce4bgj12rcd13ifvqbc0","pricing_plan_id":"cebpf4jnsgd1na2vs0mg"},{"bike_id":"1b103ea7-ef1e-4efd-8e57-a5894b28f907","system_id":"levelo_inurba_marseille","lat":43.3414,"lon":5.40912,"is_reserved":false,"is_disabled":false,"rental_uris":{"android":"levelo://app?vid=1b103ea7-ef1e-4efd-8e57-a5894b28f907","ios":"levelo://app?vid=1b103ea7-ef1e-4efd-8e57-a5894b28f907"},"vehicle_type_id":"4","last_reported":1748642994,"current_range_meters":8400,"station_id":"ce4bhqh2rcd13ifvqhlg","pricing_plan_id":"cebpf4jnsgd1na2vs0mg"},{"bike_id":"14a29ff1-7fda-4716-8c9f-633da188dd49","system_id":"levelo_inurba_marseille","lat":43.27959,"lon":5.38725,"is_reserved":false,"is_disabled":false,"rental_uris":{"android":"levelo://app?vid=14a29ff1-7fda-4716-8c9f-633da188dd49","ios":"levelo://app?vid=14a29ff1-7fda-4716-8c9f-633da188dd49"},"vehicle_type_id":"4","last_reported":1748642994,"current_range_meters":8800,"station_id":"ce4bhg12rcd13ifvqf80","pricing_plan_id":"cebpf4jnsgd1na2vs0mg"},{"bike_id":"465946d4-b451-4f03-be5f-1492d935a8ae","system_id":"levelo_inurba_marseille","lat":43.294138,"lon":5.386265,"is_reserved":false,"is_disabled":false,"rental_uris":{"android":"levelo://app?vid=465946d4-b451-4f03-be5f-1492d935a8ae","ios":"levelo://app?vid=465946d4-b451-4f03-be5f-1492d935a8ae"},"vehicle_type_id":"4","last_reported":1748642994,"current_range_meters":9200,"station_id":"ce4bh2h2rcd13ifvqdh0","pricing_plan_id":"cebpf4jnsgd1na2vs0mg"},{"bike_id":"b953c4ab-62d9-49e1-b582-366b8568892e","system_id":"levelo_inurba_marseille","lat":43.29255,"lon":5.40898,"is_reserved":false,"is_disabled":false,"rental_uris":{"android":"levelo://app?vid=b953c4ab-62d9-49e1-b582-366b8568892e","ios":"levelo://app?vid=b953c4ab-62d9-49e1-b582-366b8568892e"},"vehicle_type_id":"4","last_reported":1748642994,"current_range_meters":9200,"station_id":"ce4bh192rcd13ifvqdc0","pricing_plan_id":"cebpf4jnsgd1na2vs0mg"},{"bike_id":"cf4cdd89-db2d-40d2-8922-c7bb5667fb40","system_id":"levelo_inurba_marseille","lat":43.23177,"lon":5.39983,"is_reserved":false,"is_disabled":false,"rental_uris":{"android":"levelo://app?vid=cf4cdd89-db2d-40d2-8922-c7bb5667fb40","ios":"levelo://app?vid=cf4cdd89-db2d-40d2-8922-c7bb5667fb40"},"vehicle_type_id":"4","last_reported":1748642994,"current_range_meters":9200,"station_id":"ce4bhn12rcd13ifvqgqg","pricing_plan_id":"cebpf4jnsgd1na2vs0mg"},{"bike_id":"8a3e5b0a-0051-4c81-914a-7c4dda715139","system_id":"levelo_inurba_marseille","lat":43.30144,"lon":5.38062,"is_reserved":false,"is_disabled":false,"rental_uris":{"android":"levelo://app?vid=8a3e5b0a-0051-4c81-914a-7c4dda715139","ios":"levelo://app?vid=8a3e5b0a-0051-4c81-914a-7c4dda715139"},"vehicle_type_id":"4","last_reported":1748642994,"current_range_meters":9200,"station_id":"ce4bgjp2rcd13ifvqbh0","pricing_plan_id":"cebpf4jnsgd1na2vs0mg"},{"bike_id":"d39188fb-1e1c-4728-80c1-7aaf2bf46d85","system_id":"levelo_inurba_marseille","lat":43.27968,"lon":5.38741,"is_reserved":false,"is_disabled":false,"rental_uris":{"android":"levelo://app?vid=d39188fb-1e1c-4728-80c1-7aaf2bf46d85","ios":"levelo://app?vid=d39188fb-1e1c-4728-80c1-7aaf2bf46d85"},"vehicle_type_id":"4","last_reported":1748642994,"current_range_meters":8800,"station_id":"ce4bhg12rcd13ifvqf80","pricing_plan_id":"cebpf4jnsgd1na2vs0mg"},{"bike_id":"0280afc4-d6c7-45d5-9976-1c2b5d2fedd2","system_id":"levelo_inurba_marseille","lat":43.251158,"lon":5.403088,"is_reserved":false,"is_disabled":false,"rental_uris":{"android":"levelo://app?vid=0280afc4-d6c7-45d5-9976-1c2b5d2fedd2","ios":"levelo://app?vid=0280afc4-d6c7-45d5-9976-1c2b5d2fedd2"},"vehicle_type_id":"4","last_reported":1748642994,"current_range_meters":9200,"station_id":"ce4bhlh2rcd13ifvqgig","pricing_plan_id":"cebpf4jnsgd1na2vs0mg"},{"bike_id":"fe0e0aab-c84d-4e36-a4c6-6bf7f57a8f05","system_id":"levelo_inurba_marseille","lat":43.26561,"lon":5.37274,"is_reserved":false,"is_disabled":false,"rental_uris":{"android":"levelo://app?vid=fe0e0aab-c84d-4e36-a4c6-6bf7f57a8f05","ios":"levelo://app?vid=fe0e0aab-c84d-4e36-a4c6-6bf7f57a8f05"},"vehicle_type_id":"4","last_reported":1748642994,"current_range_meters":9200,"station_id":"ce4bhg12rcd13ifvqf70","pricing_plan_id":"cebpf4jnsgd1na2vs0mg"},{"bike_id":"cc35e2ff-74fd-4282-a237-50aeaa80589f","system_id":"levelo_inurba_marseille","lat":43.26205,"lon":5.37925,"is_reserved":false,"is_disabled":false,"rental_uris":{"android":"levelo://app?vid=cc35e2ff-74fd-4282-a237-50aeaa80589f","ios":"levelo://app?vid=cc35e2ff-74fd-4282-a237-50aeaa80589f"},"vehicle_type_id":"4","last_reported":1748642994,"current_range_meters":9600,"station_id":"ce4bhjp2rcd13ifvqg90","pricing_plan_id":"cebpf4jnsgd1na2vs0mg"},{"bike_id":"9620a207-22d7-433e-bf43-b808069c5c75","system_id":"levelo_inurba_marseille","lat":43.33607,"lon":5.41046,"is_reserved":false,"is_disabled":false,"rental_uris":{"android":"levelo://app?vid=9620a207-22d7-433e-bf43-b808069c5c75","ios":"levelo://app?vid=9620a207-22d7-433e-bf43-b808069c5c75"},"vehicle_type_id":"4","last_reported":1748642994,"current_range_meters":9600,"station_id":"ce4bhqh2rcd13ifvqhmg","pricing_plan_id":"cebpf4jnsgd1na2vs0mg"},{"bike_id":"cc0c456a-d2d1-4754-b0ea-55c47b577b63","system_id":"levelo_inurba_marseille","lat":43.29424,"lon":5.38618,"is_reserved":false,"is_disabled":false,"rental_uris":{"android":"levelo://app?vid=cc0c456a-d2d1-4754-b0ea-55c47b577b63","ios":"levelo://app?vid=cc0c456a-d2d1-4754-b0ea-55c47b577b63"},"vehicle_type_id":"4","last_reported":1748642994,"current_range_meters":9600,"station_id":"ce4bh2h2rcd13ifvqdh0","pricing_plan_id":"cebpf4jnsgd1na2vs0mg"},{"bike_id":"8345fba8-f53d-4169-9265-3aeb7405da51","system_id":"levelo_inurba_marseille","lat":43.2979,"lon":5.37916,"is_reserved":false,"is_disabled":false,"rental_uris":{"android":"levelo://app?vid=8345fba8-f53d-4169-9265-3aeb7405da51","ios":"levelo://app?vid=8345fba8-f53d-4169-9265-3aeb7405da51"},"vehicle_type_id":"4","last_reported":1748642994,"current_range_meters":9600,"station_id":"","pricing_plan_id":"cebpf4jnsgd1na2vs0mg"},{"bike_id":"a807c8dd-75ce-4f49-b322-50ddd08ec8d0","system_id":"levelo_inurba_marseille","lat":43.34753,"lon":5.37348,"is_reserved":false,"is_disabled":false,"rental_uris":{"android":"levelo://app?vid=a807c8dd-75ce-4f49-b322-50ddd08ec8d0","ios":"levelo://app?vid=a807c8dd-75ce-4f49-b322-50ddd08ec8d0"},"vehicle_type_id":"4","last_reported":1748642994,"current_range_meters":9600,"station_id":"","pricing_plan_id":"cebpf4jnsgd1na2vs0mg"},{"bike_id":"1b178ea1-044a-4bf5-83e5-c6b8ba930547","system_id":"levelo_inurba_marseille","lat":43.27167,"lon":5.4099,"is_reserved":false,"is_disabled":false,"rental_uris":{"android":"levelo://app?vid=1b178ea1-044a-4bf5-83e5-c6b8ba930547","ios":"levelo://app?vid=1b178ea1-044a-4bf5-83e5-c6b8ba930547"},"vehicle_type_id":"4","last_reported":1748642994,"current_range_meters":9600,"station_id":"ce4bhl12rcd13ifvqgf0","pricing_plan_id":"cebpf4jnsgd1na2vs0mg"},{"bike_id":"d8af0821-bc5d-459f-b24d-bbfca9521714","system_id":"levelo_inurba_marseille","lat":43.24178,"lon":5.39726,"is_reserved":false,"is_disabled":false,"rental_uris":{"android":"levelo://app?vid=d8af0821-bc5d-459f-b24d-bbfca9521714","ios":"levelo://app?vid=d8af0821-bc5d-459f-b24d-bbfca9521714"},"vehicle_type_id":"4","last_reported":1748642994,"current_range_meters":9600,"station_id":"ce4bhn12rcd13ifvqgpg","pricing_plan_id":"cebpf4jnsgd1na2vs0mg"},{"bike_id":"909686eb-b91b-4351-99db-ba6bfc0f4fd2","system_id":"levelo_inurba_marseille","lat":43.29273,"lon":5.3844,"is_reserved":false,"is_disabled":false,"rental_uris":{"android":"levelo://app?vid=909686eb-b91b-4351-99db-ba6bfc0f4fd2","ios":"levelo://app?vid=909686eb-b91b-4351-99db-ba6bfc0f4fd2"},"vehicle_type_id":"4","last_reported":1748642994,"current_range_meters":9600,"station_id":"ce4bh692rcd13ifvqea0","pricing_plan_id":"cebpf4jnsgd1na2vs0mg"},{"bike_id":"b9986bcd-d935-43b4-9761-6db0c42f4dd8","system_id":"levelo_inurba_marseille","lat":43.31693,"lon":5.4046,"is_reserved":false,"is_disabled":false,"rental_uris":{"android":"levelo://app?vid=b9986bcd-d935-43b4-9761-6db0c42f4dd8","ios":"levelo://app?vid=b9986bcd-d935-43b4-9761-6db0c42f4dd8"},"vehicle_type_id":"4","last_reported":1748642994,"current_range_meters":9600,"station_id":"ce4bh012rcd13ifvqd00","pricing_plan_id":"cebpf4jnsgd1na2vs0mg"},{"bike_id":"3d36103b-c043-47dc-a225-42e79dcf6cf6","system_id":"levelo_inurba_marseille","lat":43.32276,"lon":5.38269,"is_reserved":false,"is_disabled":false,"rental_uris":{"android":"levelo://app?vid=3d36103b-c043-47dc-a225-42e79dcf6cf6","ios":"levelo://app?vid=3d36103b-c043-47dc-a225-42e79dcf6cf6"},"vehicle_type_id":"4","last_reported":1748642994,"current_range_meters":9600,"station_id":"ce4bhr12rcd13ifvqhqg","pricing_plan_id":"cebpf4jnsgd1na2vs0mg"},{"bike_id":"4eb27fe7-2925-45a1-b43c-b8c44fea6a4a","system_id":"levelo_inurba_marseille","lat":43.31091,"lon":5.42425,"is_reserved":false,"is_disabled":false,"rental_uris":{"android":"levelo://app?vid=4eb27fe7-2925-45a1-b43c-b8c44fea6a4a","ios":"levelo://app?vid=4eb27fe7-2925-45a1-b43c-b8c44fea6a4a"},"vehicle_type_id":"4","last_reported":1748642994,"current_range_meters":10000,"station_id":"ce4bhp92rcd13ifvqhag","pricing_plan_id":"cebpf4jnsgd1na2vs0mg"},{"bike_id":"7243d7c8-02f5-4392-89cf-8c360e846d55","system_id":"levelo_inurba_marseille","lat":43.25282,"lon":5.37813,"is_reserved":false,"is_disabled":false,"rental_uris":{"android":"levelo://app?vid=7243d7c8-02f5-4392-89cf-8c360e846d55","ios":"levelo://app?vid=7243d7c8-02f5-4392-89cf-8c360e846d55"},"vehicle_type_id":"4","last_reported":1748642994,"current_range_meters":10000,"station_id":"","pricing_plan_id":"cebpf4jnsgd1na2vs0mg"},{"bike_id":"ef581f4c-67e6-4fec-a59f-aa7c8e6c7dec","system_id":"levelo_inurba_marseille","lat":43.29535,"lon":5.385376,"is_reserved":false,"is_disabled":false,"rental_uris":{"android":"levelo://app?vid=ef581f4c-67e6-4fec-a59f-aa7c8e6c7dec","ios":"levelo://app?vid=ef581f4c-67e6-4fec-a59f-aa7c8e6c7dec"},"vehicle_type_id":"4","last_reported":1748642994,"current_range_meters":10000,"station_id":"ce4bgih2rcd13ifvqba0","pricing_plan_id":"cebpf4jnsgd1na2vs0mg"},{"bike_id":"08b0d705-9b06-46d5-a5ea-5367e2fdbdc9","system_id":"levelo_inurba_marseille","lat":43.3058,"lon":5.37193,"is_reserved":false,"is_disabled":false,"rental_uris":{"android":"levelo://app?vid=08b0d705-9b06-46d5-a5ea-5367e2fdbdc9","ios":"levelo://app?vid=08b0d705-9b06-46d5-a5ea-5367e2fdbdc9"},"vehicle_type_id":"4","last_reported":1748642994,"current_range_meters":10000,"station_id":"ce4bgqh2rcd13ifvqc4g","pricing_plan_id":"cebpf4jnsgd1na2vs0mg"},{"bike_id":"22f5aae2-d15f-4462-8244-e7aecc43ce24","system_id":"levelo_inurba_marseille","lat":43.29843,"lon":5.36285,"is_reserved":false,"is_disabled":false,"rental_uris":{"android":"levelo://app?vid=22f5aae2-d15f-4462-8244-e7aecc43ce24","ios":"levelo://app?vid=22f5aae2-d15f-4462-8244-e7aecc43ce24"},"vehicle_type_id":"4","last_reported":1748642994,"current_range_meters":10000,"station_id":"ce4bgpp2rcd13ifvqc3g","pricing_plan_id":"cebpf4jnsgd1na2vs0mg"},{"bike_id":"11d5a3c3-b5c3-45ee-9c59-63e06770cf8b","system_id":"levelo_inurba_marseille","lat":43.25125,"lon":5.40314,"is_reserved":false,"is_disabled":false,"rental_uris":{"android":"levelo://app?vid=11d5a3c3-b5c3-45ee-9c59-63e06770cf8b","ios":"levelo://app?vid=11d5a3c3-b5c3-45ee-9c59-63e06770cf8b"},"vehicle_type_id":"4","last_reported":1748642994,"current_range_meters":10000,"station_id":"ce4bhlh2rcd13ifvqgig","pricing_plan_id":"cebpf4jnsgd1na2vs0mg"},{"bike_id":"ade80f1c-1963-4723-aaac-612c2803ccad","system_id":"levelo_inurba_marseille","lat":43.276935,"lon":5.38905,"is_reserved":false,"is_disabled":false,"rental_uris":{"android":"levelo://app?vid=ade80f1c-1963-4723-aaac-612c2803ccad","ios":"levelo://app?vid=ade80f1c-1963-4723-aaac-612c2803ccad"},"vehicle_type_id":"4","last_reported":1748642994,"current_range_meters":10000,"station_id":"ce4bhi12rcd13ifvqfo0","pricing_plan_id":"cebpf4jnsgd1na2vs0mg"},{"bike_id":"2f747aae-f80c-4a71-bd26-dd2606d63733","system_id":"levelo_inurba_marseille","lat":43.27072,"lon":5.4228,"is_reserved":false,"is_disabled":false,"rental_uris":{"android":"levelo://app?vid=2f747aae-f80c-4a71-bd26-dd2606d63733","ios":"levelo://app?vid=2f747aae-f80c-4a71-bd26-dd2606d63733"},"vehicle_type_id":"4","last_reported":1748642994,"current_range_meters":10800,"station_id":"ce4bhk92rcd13ifvqgb0","pricing_plan_id":"cebpf4jnsgd1na2vs0mg"},{"bike_id":"d597aea0-21cb-4d9d-a868-feb6ff252eca","system_id":"levelo_inurba_marseille","lat":43.25582,"lon":5.38229,"is_reserved":false,"is_disabled":false,"rental_uris":{"android":"levelo://app?vid=d597aea0-21cb-4d9d-a868-feb6ff252eca","ios":"levelo://app?vid=d597aea0-21cb-4d9d-a868-feb6ff252eca"},"vehicle_type_id":"4","last_reported":1748642994,"current_range_meters":10000,"station_id":"ce4bhih2rcd13ifvqfs0","pricing_plan_id":"cebpf4jnsgd1na2vs0mg"},{"bike_id":"c5955212-23b9-47a9-8fed-0e2d976ea049","system_id":"levelo_inurba_marseille","lat":43.26567,"lon":5.37315,"is_reserved":false,"is_disabled":false,"rental_uris":{"android":"levelo://app?vid=c5955212-23b9-47a9-8fed-0e2d976ea049","ios":"levelo://app?vid=c5955212-23b9-47a9-8fed-0e2d976ea049"},"vehicle_type_id":"4","last_reported":1748642994,"current_range_meters":10800,"station_id":"ce4bhg12rcd13ifvqf70","pricing_plan_id":"cebpf4jnsgd1na2vs0mg"},{"bike_id":"971f231d-7c36-4835-898d-ccf67137a889","system_id":"levelo_inurba_marseille","lat":43.29095,"lon":5.38135,"is_reserved":false,"is_disabled":false,"rental_uris":{"android":"levelo://app?vid=971f231d-7c36-4835-898d-ccf67137a889","ios":"levelo://app?vid=971f231d-7c36-4835-898d-ccf67137a889"},"vehicle_type_id":"4","last_reported":1748642994,"current_range_meters":10800,"station_id":"ce4bh512rcd13ifvqe2g","pricing_plan_id":"cebpf4jnsgd1na2vs0mg"},{"bike_id":"36cce70c-a5ec-4870-8ef9-cd0791f32205","system_id":"levelo_inurba_marseille","lat":43.29604,"lon":5.37734,"is_reserved":false,"is_disabled":false,"rental_uris":{"android":"levelo://app?vid=36cce70c-a5ec-4870-8ef9-cd0791f32205","ios":"levelo://app?vid=36cce70c-a5ec-4870-8ef9-cd0791f32205"},"vehicle_type_id":"4","last_reported":1748642994,"current_range_meters":10800,"station_id":"","pricing_plan_id":"cebpf4jnsgd1na2vs0mg"},{"bike_id":"d4404e40-ed14-471f-a399-de3bb314a8f9","system_id":"levelo_inurba_marseille","lat":43.30144,"lon":5.3877,"is_reserved":false,"is_disabled":false,"rental_uris":{"android":"levelo://app?vid=d4404e40-ed14-471f-a399-de3bb314a8f9","ios":"levelo://app?vid=d4404e40-ed14-471f-a399-de3bb314a8f9"},"vehicle_type_id":"4","last_reported":1748642994,"current_range_meters":10000,"station_id":"ce4bghh2rcd13ifvqb60","pricing_plan_id":"cebpf4jnsgd1na2vs0mg"},{"bike_id":"e39fb636-c848-4b11-b04e-e552837a94cb","system_id":"levelo_inurba_marseille","lat":43.29261,"lon":5.38446,"is_reserved":false,"is_disabled":false,"rental_uris":{"android":"levelo://app?vid=e39fb636-c848-4b11-b04e-e552837a94cb","ios":"levelo://app?vid=e39fb636-c848-4b11-b04e-e552837a94cb"},"vehicle_type_id":"4","last_reported":1748642994,"current_range_meters":10800,"station_id":"ce4bh692rcd13ifvqea0","pricing_plan_id":"cebpf4jnsgd1na2vs0mg"},{"bike_id":"163f30eb-85c9-48f7-b259-77abb81555b7","system_id":"levelo_inurba_marseille","lat":43.29958,"lon":5.41314,"is_reserved":false,"is_disabled":false,"rental_uris":{"android":"levelo://app?vid=163f30eb-85c9-48f7-b259-77abb81555b7","ios":"levelo://app?vid=163f30eb-85c9-48f7-b259-77abb81555b7"},"vehicle_type_id":"4","last_reported":1748642994,"current_range_meters":10800,"station_id":"ce4bhp12rcd13ifvqh9g","pricing_plan_id":"cebpf4jnsgd1na2vs0mg"},{"bike_id":"662af0d9-b4f1-4513-bbd2-fd65be6229e5","system_id":"levelo_inurba_marseille","lat":43.25942,"lon":5.4089,"is_reserved":false,"is_disabled":false,"rental_uris":{"android":"levelo://app?vid=662af0d9-b4f1-4513-bbd2-fd65be6229e5","ios":"levelo://app?vid=662af0d9-b4f1-4513-bbd2-fd65be6229e5"},"vehicle_type_id":"4","last_reported":1748642994,"current_range_meters":10800,"station_id":"ce4bhm92rcd13ifvqglg","pricing_plan_id":"cebpf4jnsgd1na2vs0mg"},{"bike_id":"224bd8e6-5aa6-43c3-9b35-d938c57a99b5","system_id":"levelo_inurba_marseille","lat":43.26548,"lon":5.37288,"is_reserved":false,"is_disabled":false,"rental_uris":{"android":"levelo://app?vid=224bd8e6-5aa6-43c3-9b35-d938c57a99b5","ios":"levelo://app?vid=224bd8e6-5aa6-43c3-9b35-d938c57a99b5"},"vehicle_type_id":"4","last_reported":1748642994,"current_range_meters":10800,"station_id":"ce4bhg12rcd13ifvqf70","pricing_plan_id":"cebpf4jnsgd1na2vs0mg"},{"bike_id":"b35fd950-24e0-465e-96d1-082254f22158","system_id":"levelo_inurba_marseille","lat":43.27844,"lon":5.3919,"is_reserved":false,"is_disabled":false,"rental_uris":{"android":"levelo://app?vid=b35fd950-24e0-465e-96d1-082254f22158","ios":"levelo://app?vid=b35fd950-24e0-465e-96d1-082254f22158"},"vehicle_type_id":"4","last_reported":1748642994,"current_range_meters":10800,"station_id":"ce4bhjp2rcd13ifvqga0","pricing_plan_id":"cebpf4jnsgd1na2vs0mg"},{"bike_id":"ef4b8ede-1877-41db-b371-aa67fb983004","system_id":"levelo_inurba_marseille","lat":43.281,"lon":5.37842,"is_reserved":false,"is_disabled":true,"rental_uris":{"android":"levelo://app?vid=ef4b8ede-1877-41db-b371-aa67fb983004","ios":"levelo://app?vid=ef4b8ede-1877-41db-b371-aa67fb983004"},"vehicle_type_id":"4","last_reported":1748642994,"current_range_meters":10800,"station_id":"ce4bha12rcd13ifvqee0","pricing_plan_id":"cebpf4jnsgd1na2vs0mg"},{"bike_id":"6cab2d10-7f2c-4dac-ba3d-4f103803cc6a","system_id":"levelo_inurba_marseille","lat":43.28928,"lon":5.38405,"is_reserved":false,"is_disabled":false,"rental_uris":{"android":"levelo://app?vid=6cab2d10-7f2c-4dac-ba3d-4f103803cc6a","ios":"levelo://app?vid=6cab2d10-7f2c-4dac-ba3d-4f103803cc6a"},"vehicle_type_id":"4","last_reported":1748642994,"current_range_meters":10800,"station_id":"ce4bh612rcd13ifvqe6g","pricing_plan_id":"cebpf4jnsgd1na2vs0mg"},{"bike_id":"d42b65af-38ed-48b1-9f62-d79f47c848dd","system_id":"levelo_inurba_marseille","lat":43.24075,"lon":5.37746,"is_reserved":false,"is_disabled":false,"rental_uris":{"android":"levelo://app?vid=d42b65af-38ed-48b1-9f62-d79f47c848dd","ios":"levelo://app?vid=d42b65af-38ed-48b1-9f62-d79f47c848dd"},"vehicle_type_id":"4","last_reported":1748642994,"current_range_meters":10800,"station_id":"ce4bhnp2rcd13ifvqgvg","pricing_plan_id":"cebpf4jnsgd1na2vs0mg"},{"bike_id":"be8dcf54-93bb-483e-8b17-f8e92b01aa60","system_id":"levelo_inurba_marseille","lat":43.29408,"lon":5.38633,"is_reserved":false,"is_disabled":false,"rental_uris":{"android":"levelo://app?vid=be8dcf54-93bb-483e-8b17-f8e92b01aa60","ios":"levelo://app?vid=be8dcf54-93bb-483e-8b17-f8e92b01aa60"},"vehicle_type_id":"4","last_reported":1748642994,"current_range_meters":10800,"station_id":"ce4bh2h2rcd13ifvqdh0","pricing_plan_id":"cebpf4jnsgd1na2vs0mg"},{"bike_id":"76749e45-957b-40bb-9b95-4da7298a2cca","system_id":"levelo_inurba_marseille","lat":43.30424,"lon":5.38885,"is_reserved":false,"is_disabled":false,"rental_uris":{"android":"levelo://app?vid=76749e45-957b-40bb-9b95-4da7298a2cca","ios":"levelo://app?vid=76749e45-957b-40bb-9b95-4da7298a2cca"},"vehicle_type_id":"4","last_reported":1748642994,"current_range_meters":10800,"station_id":"ce4bgk12rcd13ifvqbi0","pricing_plan_id":"cebpf4jnsgd1na2vs0mg"},{"bike_id":"acdeb330-e3c4-4bf4-893d-ac949dc0c305","system_id":"levelo_inurba_marseille","lat":43.26803,"lon":5.40267,"is_reserved":false,"is_disabled":false,"rental_uris":{"android":"levelo://app?vid=acdeb330-e3c4-4bf4-893d-ac949dc0c305","ios":"levelo://app?vid=acdeb330-e3c4-4bf4-893d-ac949dc0c305"},"vehicle_type_id":"4","last_reported":1748642994,"current_range_meters":10800,"station_id":"ce501612rcd8frsf0b60","pricing_plan_id":"cebpf4jnsgd1na2vs0mg"},{"bike_id":"629f748f-f65f-4e99-b48d-59574a21e1dc","system_id":"levelo_inurba_marseille","lat":43.292115,"lon":5.360649,"is_reserved":false,"is_disabled":false,"rental_uris":{"android":"levelo://app?vid=629f748f-f65f-4e99-b48d-59574a21e1dc","ios":"levelo://app?vid=629f748f-f65f-4e99-b48d-59574a21e1dc"},"vehicle_type_id":"4","last_reported":1748642994,"current_range_meters":10800,"station_id":"ce4bhbh2rcd13ifvqeqg","pricing_plan_id":"cebpf4jnsgd1na2vs0mg"},{"bike_id":"bd8d8b06-7f5c-4717-a31e-7376ee9502f7","system_id":"levelo_inurba_marseille","lat":43.281677,"lon":5.391404,"is_reserved":false,"is_disabled":false,"rental_uris":{"android":"levelo://app?vid=bd8d8b06-7f5c-4717-a31e-7376ee9502f7","ios":"levelo://app?vid=bd8d8b06-7f5c-4717-a31e-7376ee9502f7"},"vehicle_type_id":"4","last_reported":1748642994,"current_range_meters":10800,"station_id":"ce4bh492rcd13ifvqdug","pricing_plan_id":"cebpf4jnsgd1na2vs0mg"},{"bike_id":"5ecdc42c-d8ed-400b-8881-e9901a78449d","system_id":"levelo_inurba_marseille","lat":43.27998,"lon":5.40018,"is_reserved":false,"is_disabled":false,"rental_uris":{"android":"levelo://app?vid=5ecdc42c-d8ed-400b-8881-e9901a78449d","ios":"levelo://app?vid=5ecdc42c-d8ed-400b-8881-e9901a78449d"},"vehicle_type_id":"4","last_reported":1748642994,"current_range_meters":10800,"station_id":"ce4bho92rcd13ifvqh4g","pricing_plan_id":"cebpf4jnsgd1na2vs0mg"},{"bike_id":"5d153e79-4d05-41a2-8153-575a0e715524","system_id":"levelo_inurba_marseille","lat":43.286985,"lon":5.39987,"is_reserved":false,"is_disabled":false,"rental_uris":{"android":"levelo://app?vid=5d153e79-4d05-41a2-8153-575a0e715524","ios":"levelo://app?vid=5d153e79-4d05-41a2-8153-575a0e715524"},"vehicle_type_id":"4","last_reported":1748642994,"current_range_meters":10800,"station_id":"ce4bho92rcd13ifvqh3g","pricing_plan_id":"cebpf4jnsgd1na2vs0mg"},{"bike_id":"9fb4b1e2-5105-4f93-98dd-51bed5c61176","system_id":"levelo_inurba_marseille","lat":43.299722,"lon":5.384739,"is_reserved":false,"is_disabled":false,"rental_uris":{"android":"levelo://app?vid=9fb4b1e2-5105-4f93-98dd-51bed5c61176","ios":"levelo://app?vid=9fb4b1e2-5105-4f93-98dd-51bed5c61176"},"vehicle_type_id":"4","last_reported":1748642994,"current_range_meters":11200,"station_id":"ce4bgj92rcd13ifvqbd0","pricing_plan_id":"cebpf4jnsgd1na2vs0mg"},{"bike_id":"31bcbb93-a820-4754-b55f-1b969a195009","system_id":"levelo_inurba_marseille","lat":43.295323,"lon":5.385357,"is_reserved":false,"is_disabled":false,"rental_uris":{"android":"levelo://app?vid=31bcbb93-a820-4754-b55f-1b969a195009","ios":"levelo://app?vid=31bcbb93-a820-4754-b55f-1b969a195009"},"vehicle_type_id":"4","last_reported":1748642994,"current_range_meters":11200,"station_id":"ce4bgih2rcd13ifvqba0","pricing_plan_id":"cebpf4jnsgd1na2vs0mg"},{"bike_id":"d16f5222-3d1e-4d65-a992-1bc93f719178","system_id":"levelo_inurba_marseille","lat":43.3031,"lon":5.36588,"is_reserved":false,"is_disabled":false,"rental_uris":{"android":"levelo://app?vid=d16f5222-3d1e-4d65-a992-1bc93f719178","ios":"levelo://app?vid=d16f5222-3d1e-4d65-a992-1bc93f719178"},"vehicle_type_id":"4","last_reported":1748642994,"current_range_meters":11200,"station_id":"","pricing_plan_id":"cebpf4jnsgd1na2vs0mg"},{"bike_id":"c796ba27-d3f2-458c-8f5c-7ab1cebb9fc5","system_id":"levelo_inurba_marseille","lat":43.29304,"lon":5.37167,"is_reserved":false,"is_disabled":false,"rental_uris":{"android":"levelo://app?vid=c796ba27-d3f2-458c-8f5c-7ab1cebb9fc5","ios":"levelo://app?vid=c796ba27-d3f2-458c-8f5c-7ab1cebb9fc5"},"vehicle_type_id":"4","last_reported":1748642994,"current_range_meters":11200,"station_id":"ce4bgh92rcd13ifvqb40","pricing_plan_id":"cebpf4jnsgd1na2vs0mg"},{"bike_id":"9ee87dbe-3990-4764-9a6b-2020fac42886","system_id":"levelo_inurba_marseille","lat":43.32112,"lon":5.36742,"is_reserved":false,"is_disabled":false,"rental_uris":{"android":"levelo://app?vid=9ee87dbe-3990-4764-9a6b-2020fac42886","ios":"levelo://app?vid=9ee87dbe-3990-4764-9a6b-2020fac42886"},"vehicle_type_id":"4","last_reported":1748642994,"current_range_meters":11200,"station_id":"ce4bhrh2rcd13ifvqhug","pricing_plan_id":"cebpf4jnsgd1na2vs0mg"},{"bike_id":"91a7882a-040e-44ad-8c0d-aa26cb087af4","system_id":"levelo_inurba_marseille","lat":43.29975,"lon":5.37182,"is_reserved":false,"is_disabled":false,"rental_uris":{"android":"levelo://app?vid=91a7882a-040e-44ad-8c0d-aa26cb087af4","ios":"levelo://app?vid=91a7882a-040e-44ad-8c0d-aa26cb087af4"},"vehicle_type_id":"4","last_reported":1748642994,"current_range_meters":11200,"station_id":"ce4bgr92rcd13ifvqc7g","pricing_plan_id":"cebpf4jnsgd1na2vs0mg"},{"bike_id":"59e8a533-f0da-456c-a559-adeeac084020","system_id":"levelo_inurba_marseille","lat":43.30419,"lon":5.4128,"is_reserved":false,"is_disabled":false,"rental_uris":{"android":"levelo://app?vid=59e8a533-f0da-456c-a559-adeeac084020","ios":"levelo://app?vid=59e8a533-f0da-456c-a559-adeeac084020"},"vehicle_type_id":"4","last_reported":1748642994,"current_range_meters":10800,"station_id":"ce4bhop2rcd13ifvqh8g","pricing_plan_id":"cebpf4jnsgd1na2vs0mg"},{"bike_id":"93ae5175-0134-4dc5-965f-d75524d83337","system_id":"levelo_inurba_marseille","lat":43.29258,"lon":5.38422,"is_reserved":false,"is_disabled":false,"rental_uris":{"android":"levelo://app?vid=93ae5175-0134-4dc5-965f-d75524d83337","ios":"levelo://app?vid=93ae5175-0134-4dc5-965f-d75524d83337"},"vehicle_type_id":"4","last_reported":1748642994,"current_range_meters":11200,"station_id":"ce4bh692rcd13ifvqea0","pricing_plan_id":"cebpf4jnsgd1na2vs0mg"},{"bike_id":"bac667cf-137e-4ea7-b037-7ebd6a2ad77c","system_id":"levelo_inurba_marseille","lat":43.28255,"lon":5.35102,"is_reserved":false,"is_disabled":false,"rental_uris":{"android":"levelo://app?vid=bac667cf-137e-4ea7-b037-7ebd6a2ad77c","ios":"levelo://app?vid=bac667cf-137e-4ea7-b037-7ebd6a2ad77c"},"vehicle_type_id":"4","last_reported":1748642994,"current_range_meters":11200,"station_id":"ce4bhbp2rcd13ifvqerg","pricing_plan_id":"cebpf4jnsgd1na2vs0mg"},{"bike_id":"64a3d9b3-30f8-4a8c-b831-0d99a9fae7a2","system_id":"levelo_inurba_marseille","lat":43.316974,"lon":5.404827,"is_reserved":false,"is_disabled":false,"rental_uris":{"android":"levelo://app?vid=64a3d9b3-30f8-4a8c-b831-0d99a9fae7a2","ios":"levelo://app?vid=64a3d9b3-30f8-4a8c-b831-0d99a9fae7a2"},"vehicle_type_id":"4","last_reported":1748642994,"current_range_meters":11200,"station_id":"ce4bh012rcd13ifvqd00","pricing_plan_id":"cebpf4jnsgd1na2vs0mg"},{"bike_id":"6d848297-fb74-4a07-ab5e-0131fc63020d","system_id":"levelo_inurba_marseille","lat":43.29413,"lon":5.38641,"is_reserved":false,"is_disabled":false,"rental_uris":{"android":"levelo://app?vid=6d848297-fb74-4a07-ab5e-0131fc63020d","ios":"levelo://app?vid=6d848297-fb74-4a07-ab5e-0131fc63020d"},"vehicle_type_id":"4","last_reported":1748642994,"current_range_meters":11200,"station_id":"ce4bh2h2rcd13ifvqdh0","pricing_plan_id":"cebpf4jnsgd1na2vs0mg"},{"bike_id":"a6cc9627-b3e3-4844-a9b9-44adde4a922b","system_id":"levelo_inurba_marseille","lat":43.29414,"lon":5.38623,"is_reserved":false,"is_disabled":false,"rental_uris":{"android":"levelo://app?vid=a6cc9627-b3e3-4844-a9b9-44adde4a922b","ios":"levelo://app?vid=a6cc9627-b3e3-4844-a9b9-44adde4a922b"},"vehicle_type_id":"4","last_reported":1748642994,"current_range_meters":11600,"station_id":"ce4bh2h2rcd13ifvqdh0","pricing_plan_id":"cebpf4jnsgd1na2vs0mg"},{"bike_id":"8a815b41-c385-418b-8b34-a298e08e45cc","system_id":"levelo_inurba_marseille","lat":43.29936,"lon":5.365263,"is_reserved":false,"is_disabled":false,"rental_uris":{"android":"levelo://app?vid=8a815b41-c385-418b-8b34-a298e08e45cc","ios":"levelo://app?vid=8a815b41-c385-418b-8b34-a298e08e45cc"},"vehicle_type_id":"4","last_reported":1748642994,"current_range_meters":11600,"station_id":"ce4bgm92rcd13ifvqbr0","pricing_plan_id":"cebpf4jnsgd1na2vs0mg"},{"bike_id":"3193d68a-e9b3-4aa7-afae-41d74ca6f0e2","system_id":"levelo_inurba_marseille","lat":43.240752,"lon":5.377574,"is_reserved":false,"is_disabled":false,"rental_uris":{"android":"levelo://app?vid=3193d68a-e9b3-4aa7-afae-41d74ca6f0e2","ios":"levelo://app?vid=3193d68a-e9b3-4aa7-afae-41d74ca6f0e2"},"vehicle_type_id":"4","last_reported":1748642994,"current_range_meters":11200,"station_id":"ce4bhnp2rcd13ifvqgvg","pricing_plan_id":"cebpf4jnsgd1na2vs0mg"},{"bike_id":"598604c3-c1f4-4a94-81b2-e6c2208a8d9e","system_id":"levelo_inurba_marseille","lat":43.306136,"lon":5.393477,"is_reserved":false,"is_disabled":false,"rental_uris":{"android":"levelo://app?vid=598604c3-c1f4-4a94-81b2-e6c2208a8d9e","ios":"levelo://app?vid=598604c3-c1f4-4a94-81b2-e6c2208a8d9e"},"vehicle_type_id":"4","last_reported":1748642994,"current_range_meters":11600,"station_id":"ce4bh0p2rcd13ifvqd80","pricing_plan_id":"cebpf4jnsgd1na2vs0mg"},{"bike_id":"10cccf0e-5e24-4b75-8e4f-e089b2d3e656","system_id":"levelo_inurba_marseille","lat":43.23189,"lon":5.39978,"is_reserved":false,"is_disabled":false,"rental_uris":{"android":"levelo://app?vid=10cccf0e-5e24-4b75-8e4f-e089b2d3e656","ios":"levelo://app?vid=10cccf0e-5e24-4b75-8e4f-e089b2d3e656"},"vehicle_type_id":"4","last_reported":1748642994,"current_range_meters":11200,"station_id":"ce4bhn12rcd13ifvqgqg","pricing_plan_id":"cebpf4jnsgd1na2vs0mg"},{"bike_id":"516000f6-3fe6-41eb-b554-0ea50f7b1668","system_id":"levelo_inurba_marseille","lat":43.2511,"lon":5.40319,"is_reserved":false,"is_disabled":false,"rental_uris":{"android":"levelo://app?vid=516000f6-3fe6-41eb-b554-0ea50f7b1668","ios":"levelo://app?vid=516000f6-3fe6-41eb-b554-0ea50f7b1668"},"vehicle_type_id":"4","last_reported":1748642994,"current_range_meters":12000,"station_id":"ce4bhlh2rcd13ifvqgig","pricing_plan_id":"cebpf4jnsgd1na2vs0mg"},{"bike_id":"a672e2ce-ff65-491a-baf8-b5fcce4f4059","system_id":"levelo_inurba_marseille","lat":43.31707,"lon":5.39021,"is_reserved":false,"is_disabled":false,"rental_uris":{"android":"levelo://app?vid=a672e2ce-ff65-491a-baf8-b5fcce4f4059","ios":"levelo://app?vid=a672e2ce-ff65-491a-baf8-b5fcce4f4059"},"vehicle_type_id":"4","last_reported":1748642994,"current_range_meters":12000,"station_id":"","pricing_plan_id":"cebpf4jnsgd1na2vs0mg"},{"bike_id":"a42fa4ef-7f0b-45c0-b98c-7dbb87b8e482","system_id":"levelo_inurba_marseille","lat":43.28152,"lon":5.42631,"is_reserved":false,"is_disabled":false,"rental_uris":{"android":"levelo://app?vid=a42fa4ef-7f0b-45c0-b98c-7dbb87b8e482","ios":"levelo://app?vid=a42fa4ef-7f0b-45c0-b98c-7dbb87b8e482"},"vehicle_type_id":"4","last_reported":1748642994,"current_range_meters":12000,"station_id":"ce4bhnh2rcd13ifvqgug","pricing_plan_id":"cebpf4jnsgd1na2vs0mg"},{"bike_id":"e7f62276-ddf8-41a9-8c04-845a41232497","system_id":"levelo_inurba_marseille","lat":43.29258,"lon":5.38436,"is_reserved":false,"is_disabled":false,"rental_uris":{"android":"levelo://app?vid=e7f62276-ddf8-41a9-8c04-845a41232497","ios":"levelo://app?vid=e7f62276-ddf8-41a9-8c04-845a41232497"},"vehicle_type_id":"4","last_reported":1748642994,"current_range_meters":12000,"station_id":"ce4bh692rcd13ifvqea0","pricing_plan_id":"cebpf4jnsgd1na2vs0mg"},{"bike_id":"baa9ae91-cf2b-4902-bc78-4d8c41a40b35","system_id":"levelo_inurba_marseille","lat":43.26553,"lon":5.39009,"is_reserved":false,"is_disabled":false,"rental_uris":{"android":"levelo://app?vid=baa9ae91-cf2b-4902-bc78-4d8c41a40b35","ios":"levelo://app?vid=baa9ae91-cf2b-4902-bc78-4d8c41a40b35"},"vehicle_type_id":"4","last_reported":1748642994,"current_range_meters":12000,"station_id":"ce4bhe12rcd13ifvqf30","pricing_plan_id":"cebpf4jnsgd1na2vs0mg"},{"bike_id":"dd34afa2-f665-4263-85a8-7de7dbd3a196","system_id":"levelo_inurba_marseille","lat":43.27627,"lon":5.3966,"is_reserved":false,"is_disabled":false,"rental_uris":{"android":"levelo://app?vid=dd34afa2-f665-4263-85a8-7de7dbd3a196","ios":"levelo://app?vid=dd34afa2-f665-4263-85a8-7de7dbd3a196"},"vehicle_type_id":"4","last_reported":1748642994,"current_range_meters":12000,"station_id":"","pricing_plan_id":"cebpf4jnsgd1na2vs0mg"},{"bike_id":"c9c95710-df74-4681-934a-c181dae0ccc0","system_id":"levelo_inurba_marseille","lat":43.29417,"lon":5.38622,"is_reserved":false,"is_disabled":false,"rental_uris":{"android":"levelo://app?vid=c9c95710-df74-4681-934a-c181dae0ccc0","ios":"levelo://app?vid=c9c95710-df74-4681-934a-c181dae0ccc0"},"vehicle_type_id":"4","last_reported":1748642994,"current_range_meters":12400,"station_id":"ce4bh2h2rcd13ifvqdh0","pricing_plan_id":"cebpf4jnsgd1na2vs0mg"},{"bike_id":"4d37d630-e567-4a17-8738-5c2ba19a10ee","system_id":"levelo_inurba_marseille","lat":43.30323,"lon":5.40437,"is_reserved":false,"is_disabled":false,"rental_uris":{"android":"levelo://app?vid=4d37d630-e567-4a17-8738-5c2ba19a10ee","ios":"levelo://app?vid=4d37d630-e567-4a17-8738-5c2ba19a10ee"},"vehicle_type_id":"4","last_reported":1748642994,"current_range_meters":12400,"station_id":"ce4bh012rcd13ifvqd10","pricing_plan_id":"cebpf4jnsgd1na2vs0mg"},{"bike_id":"c5218cb8-9643-48a9-93db-f176debc424b","system_id":"levelo_inurba_marseille","lat":43.30433,"lon":5.38888,"is_reserved":false,"is_disabled":false,"rental_uris":{"android":"levelo://app?vid=c5218cb8-9643-48a9-93db-f176debc424b","ios":"levelo://app?vid=c5218cb8-9643-48a9-93db-f176debc424b"},"vehicle_type_id":"4","last_reported":1748642994,"current_range_meters":12400,"station_id":"ce4bgk12rcd13ifvqbi0","pricing_plan_id":"cebpf4jnsgd1na2vs0mg"},{"bike_id":"c8915dbc-94da-4f9b-bd1c-2b89f4a5b881","system_id":"levelo_inurba_marseille","lat":43.29534,"lon":5.38539,"is_reserved":false,"is_disabled":false,"rental_uris":{"android":"levelo://app?vid=c8915dbc-94da-4f9b-bd1c-2b89f4a5b881","ios":"levelo://app?vid=c8915dbc-94da-4f9b-bd1c-2b89f4a5b881"},"vehicle_type_id":"4","last_reported":1748642994,"current_range_meters":12400,"station_id":"ce4bgih2rcd13ifvqba0","pricing_plan_id":"cebpf4jnsgd1na2vs0mg"},{"bike_id":"d87283bc-335e-4f1f-9492-4498125299e9","system_id":"levelo_inurba_marseille","lat":43.29412,"lon":5.38634,"is_reserved":false,"is_disabled":false,"rental_uris":{"android":"levelo://app?vid=d87283bc-335e-4f1f-9492-4498125299e9","ios":"levelo://app?vid=d87283bc-335e-4f1f-9492-4498125299e9"},"vehicle_type_id":"4","last_reported":1748642994,"current_range_meters":12400,"station_id":"ce4bh2h2rcd13ifvqdh0","pricing_plan_id":"cebpf4jnsgd1na2vs0mg"},{"bike_id":"c49cea4d-ad5a-4f77-b86d-ed5ffd68bfca","system_id":"levelo_inurba_marseille","lat":43.292,"lon":5.35807,"is_reserved":false,"is_disabled":false,"rental_uris":{"android":"levelo://app?vid=c49cea4d-ad5a-4f77-b86d-ed5ffd68bfca","ios":"levelo://app?vid=c49cea4d-ad5a-4f77-b86d-ed5ffd68bfca"},"vehicle_type_id":"4","last_reported":1748642994,"current_range_meters":12000,"station_id":"ce4bhb12rcd13ifvqel0","pricing_plan_id":"cebpf4jnsgd1na2vs0mg"},{"bike_id":"1df01b7e-7c97-4647-8d04-748e7e3d2935","system_id":"levelo_inurba_marseille","lat":43.26562,"lon":5.39002,"is_reserved":false,"is_disabled":false,"rental_uris":{"android":"levelo://app?vid=1df01b7e-7c97-4647-8d04-748e7e3d2935","ios":"levelo://app?vid=1df01b7e-7c97-4647-8d04-748e7e3d2935"},"vehicle_type_id":"4","last_reported":1748642994,"current_range_meters":12400,"station_id":"ce4bhe12rcd13ifvqf30","pricing_plan_id":"cebpf4jnsgd1na2vs0mg"},{"bike_id":"b18036e4-cdbb-441f-a4f1-99c9cdbece34","system_id":"levelo_inurba_marseille","lat":43.294968,"lon":5.390803,"is_reserved":false,"is_disabled":false,"rental_uris":{"android":"levelo://app?vid=b18036e4-cdbb-441f-a4f1-99c9cdbece34","ios":"levelo://app?vid=b18036e4-cdbb-441f-a4f1-99c9cdbece34"},"vehicle_type_id":"4","last_reported":1748642994,"current_range_meters":12400,"station_id":"ce4bh3p2rcd13ifvqdp0","pricing_plan_id":"cebpf4jnsgd1na2vs0mg"},{"bike_id":"06b9abec-853e-4e97-b0c6-35c963ab808e","system_id":"levelo_inurba_marseille","lat":43.29607,"lon":5.38103,"is_reserved":false,"is_disabled":false,"rental_uris":{"android":"levelo://app?vid=06b9abec-853e-4e97-b0c6-35c963ab808e","ios":"levelo://app?vid=06b9abec-853e-4e97-b0c6-35c963ab808e"},"vehicle_type_id":"4","last_reported":1748642994,"current_range_meters":12800,"station_id":"ce4bgl12rcd13ifvqbo0","pricing_plan_id":"cebpf4jnsgd1na2vs0mg"},{"bike_id":"fd73a619-5a34-4b37-af3f-6713aaa9e6c1","system_id":"levelo_inurba_marseille","lat":43.29428,"lon":5.38618,"is_reserved":false,"is_disabled":false,"rental_uris":{"android":"levelo://app?vid=fd73a619-5a34-4b37-af3f-6713aaa9e6c1","ios":"levelo://app?vid=fd73a619-5a34-4b37-af3f-6713aaa9e6c1"},"vehicle_type_id":"4","last_reported":1748642994,"current_range_meters":12800,"station_id":"ce4bh2h2rcd13ifvqdh0","pricing_plan_id":"cebpf4jnsgd1na2vs0mg"},{"bike_id":"e79d24ce-877c-4eb7-a07a-41654be31b54","system_id":"levelo_inurba_marseille","lat":43.29612,"lon":5.3808,"is_reserved":false,"is_disabled":false,"rental_uris":{"android":"levelo://app?vid=e79d24ce-877c-4eb7-a07a-41654be31b54","ios":"levelo://app?vid=e79d24ce-877c-4eb7-a07a-41654be31b54"},"vehicle_type_id":"4","last_reported":1748642994,"current_range_meters":12800,"station_id":"ce4bgl12rcd13ifvqbo0","pricing_plan_id":"cebpf4jnsgd1na2vs0mg"},{"bike_id":"2e29d772-f2b6-4693-9dbf-7e43d030b9f2","system_id":"levelo_inurba_marseille","lat":43.3153,"lon":5.38038,"is_reserved":false,"is_disabled":false,"rental_uris":{"android":"levelo://app?vid=2e29d772-f2b6-4693-9dbf-7e43d030b9f2","ios":"levelo://app?vid=2e29d772-f2b6-4693-9dbf-7e43d030b9f2"},"vehicle_type_id":"4","last_reported":1748642994,"current_range_meters":12800,"station_id":"ce4bhsp2rcd13ifvqi50","pricing_plan_id":"cebpf4jnsgd1na2vs0mg"},{"bike_id":"d6d1ada7-d095-4848-a9c7-71d520f6d868","system_id":"levelo_inurba_marseille","lat":43.299666,"lon":5.384894,"is_reserved":false,"is_disabled":false,"rental_uris":{"android":"levelo://app?vid=d6d1ada7-d095-4848-a9c7-71d520f6d868","ios":"levelo://app?vid=d6d1ada7-d095-4848-a9c7-71d520f6d868"},"vehicle_type_id":"4","last_reported":1748642994,"current_range_meters":12800,"station_id":"","pricing_plan_id":"cebpf4jnsgd1na2vs0mg"},{"bike_id":"9ff3de58-17ec-48ce-8e34-9815c9da9ca0","system_id":"levelo_inurba_marseille","lat":43.28466,"lon":5.35894,"is_reserved":false,"is_disabled":false,"rental_uris":{"android":"levelo://app?vid=9ff3de58-17ec-48ce-8e34-9815c9da9ca0","ios":"levelo://app?vid=9ff3de58-17ec-48ce-8e34-9815c9da9ca0"},"vehicle_type_id":"4","last_reported":1748642994,"current_range_meters":12800,"station_id":"ce4bhah2rcd13ifvqei0","pricing_plan_id":"cebpf4jnsgd1na2vs0mg"},{"bike_id":"2cb50db8-076b-42f3-ad61-f8d30aa489bc","system_id":"levelo_inurba_marseille","lat":43.30437,"lon":5.38879,"is_reserved":false,"is_disabled":false,"rental_uris":{"android":"levelo://app?vid=2cb50db8-076b-42f3-ad61-f8d30aa489bc","ios":"levelo://app?vid=2cb50db8-076b-42f3-ad61-f8d30aa489bc"},"vehicle_type_id":"4","last_reported":1748642994,"current_range_meters":12800,"station_id":"ce4bgk12rcd13ifvqbi0","pricing_plan_id":"cebpf4jnsgd1na2vs0mg"},{"bike_id":"ba3b589f-9f54-4133-9445-99da93e179d2","system_id":"levelo_inurba_marseille","lat":43.29529,"lon":5.38521,"is_reserved":false,"is_disabled":false,"rental_uris":{"android":"levelo://app?vid=ba3b589f-9f54-4133-9445-99da93e179d2","ios":"levelo://app?vid=ba3b589f-9f54-4133-9445-99da93e179d2"},"vehicle_type_id":"4","last_reported":1748642994,"current_range_meters":12800,"station_id":"ce4bgih2rcd13ifvqba0","pricing_plan_id":"cebpf4jnsgd1na2vs0mg"},{"bike_id":"0aec8455-e13a-4bcd-b3e4-051c101692b9","system_id":"levelo_inurba_marseille","lat":43.25582,"lon":5.38226,"is_reserved":false,"is_disabled":false,"rental_uris":{"android":"levelo://app?vid=0aec8455-e13a-4bcd-b3e4-051c101692b9","ios":"levelo://app?vid=0aec8455-e13a-4bcd-b3e4-051c101692b9"},"vehicle_type_id":"4","last_reported":1748642994,"current_range_meters":12800,"station_id":"ce4bhih2rcd13ifvqfs0","pricing_plan_id":"cebpf4jnsgd1na2vs0mg"},{"bike_id":"990df701-79a7-41ec-b963-3693dc590a87","system_id":"levelo_inurba_marseille","lat":43.30181,"lon":5.378755,"is_reserved":false,"is_disabled":false,"rental_uris":{"android":"levelo://app?vid=990df701-79a7-41ec-b963-3693dc590a87","ios":"levelo://app?vid=990df701-79a7-41ec-b963-3693dc590a87"},"vehicle_type_id":"4","last_reported":1748642994,"current_range_meters":12800,"station_id":"","pricing_plan_id":"cebpf4jnsgd1na2vs0mg"},{"bike_id":"4616159a-9b26-4fe7-aa34-b1dd06999c29","system_id":"levelo_inurba_marseille","lat":43.29419,"lon":5.38627,"is_reserved":false,"is_disabled":false,"rental_uris":{"android":"levelo://app?vid=4616159a-9b26-4fe7-aa34-b1dd06999c29","ios":"levelo://app?vid=4616159a-9b26-4fe7-aa34-b1dd06999c29"},"vehicle_type_id":"4","last_reported":1748642994,"current_range_meters":13600,"station_id":"ce4bh2h2rcd13ifvqdh0","pricing_plan_id":"cebpf4jnsgd1na2vs0mg"},{"bike_id":"4c3b91dd-5f72-4391-b305-c03b31400a47","system_id":"levelo_inurba_marseille","lat":43.25725,"lon":5.41108,"is_reserved":false,"is_disabled":false,"rental_uris":{"android":"levelo://app?vid=4c3b91dd-5f72-4391-b305-c03b31400a47","ios":"levelo://app?vid=4c3b91dd-5f72-4391-b305-c03b31400a47"},"vehicle_type_id":"4","last_reported":1748642994,"current_range_meters":13600,"station_id":"","pricing_plan_id":"cebpf4jnsgd1na2vs0mg"},{"bike_id":"cc8d8bc8-f428-474a-99b2-8ca176d500fb","system_id":"levelo_inurba_marseille","lat":43.29037,"lon":5.38625,"is_reserved":false,"is_disabled":false,"rental_uris":{"android":"levelo://app?vid=cc8d8bc8-f428-474a-99b2-8ca176d500fb","ios":"levelo://app?vid=cc8d8bc8-f428-474a-99b2-8ca176d500fb"},"vehicle_type_id":"4","last_reported":1748642994,"current_range_meters":13600,"station_id":"ce4bh4p2rcd13ifvqe0g","pricing_plan_id":"cebpf4jnsgd1na2vs0mg"},{"bike_id":"503535a6-a5e9-45d5-8abd-05d90cf8ca41","system_id":"levelo_inurba_marseille","lat":43.29412,"lon":5.38638,"is_reserved":false,"is_disabled":false,"rental_uris":{"android":"levelo://app?vid=503535a6-a5e9-45d5-8abd-05d90cf8ca41","ios":"levelo://app?vid=503535a6-a5e9-45d5-8abd-05d90cf8ca41"},"vehicle_type_id":"4","last_reported":1748642994,"current_range_meters":13600,"station_id":"ce4bh2h2rcd13ifvqdh0","pricing_plan_id":"cebpf4jnsgd1na2vs0mg"},{"bike_id":"96554521-a156-468a-8f37-c6a7a91d4984","system_id":"levelo_inurba_marseille","lat":43.29258,"lon":5.38447,"is_reserved":false,"is_disabled":false,"rental_uris":{"android":"levelo://app?vid=96554521-a156-468a-8f37-c6a7a91d4984","ios":"levelo://app?vid=96554521-a156-468a-8f37-c6a7a91d4984"},"vehicle_type_id":"4","last_reported":1748642994,"current_range_meters":13600,"station_id":"ce4bh692rcd13ifvqea0","pricing_plan_id":"cebpf4jnsgd1na2vs0mg"},{"bike_id":"dcac3f7e-ac89-4f51-9065-db434d572e88","system_id":"levelo_inurba_marseille","lat":43.29535,"lon":5.38528,"is_reserved":false,"is_disabled":false,"rental_uris":{"android":"levelo://app?vid=dcac3f7e-ac89-4f51-9065-db434d572e88","ios":"levelo://app?vid=dcac3f7e-ac89-4f51-9065-db434d572e88"},"vehicle_type_id":"4","last_reported":1748642994,"current_range_meters":13600,"station_id":"ce4bgih2rcd13ifvqba0","pricing_plan_id":"cebpf4jnsgd1na2vs0mg"},{"bike_id":"9483a7bd-846c-4c6e-a304-71a2f38946f5","system_id":"levelo_inurba_marseille","lat":43.27917,"lon":5.39581,"is_reserved":false,"is_disabled":false,"rental_uris":{"android":"levelo://app?vid=9483a7bd-846c-4c6e-a304-71a2f38946f5","ios":"levelo://app?vid=9483a7bd-846c-4c6e-a304-71a2f38946f5"},"vehicle_type_id":"4","last_reported":1748642994,"current_range_meters":13600,"station_id":"ce4bhf92rcd13ifvqf40","pricing_plan_id":"cebpf4jnsgd1na2vs0mg"},{"bike_id":"ecc45c88-b0cd-460f-8a38-017c201f8231","system_id":"levelo_inurba_marseille","lat":43.27378,"lon":5.36236,"is_reserved":false,"is_disabled":true,"rental_uris":{"android":"levelo://app?vid=ecc45c88-b0cd-460f-8a38-017c201f8231","ios":"levelo://app?vid=ecc45c88-b0cd-460f-8a38-017c201f8231"},"vehicle_type_id":"4","last_reported":1748642994,"current_range_meters":13600,"station_id":"ce4bhbh2rcd13ifvqeo0","pricing_plan_id":"cebpf4jnsgd1na2vs0mg"},{"bike_id":"d6f01e1f-ad63-4dce-aec3-d42bd0631189","system_id":"levelo_inurba_marseille","lat":43.260223,"lon":5.375487,"is_reserved":false,"is_disabled":false,"rental_uris":{"android":"levelo://app?vid=d6f01e1f-ad63-4dce-aec3-d42bd0631189","ios":"levelo://app?vid=d6f01e1f-ad63-4dce-aec3-d42bd0631189"},"vehicle_type_id":"4","last_reported":1748642994,"current_range_meters":13600,"station_id":"ce4bhgh2rcd13ifvqfa0","pricing_plan_id":"cebpf4jnsgd1na2vs0mg"},{"bike_id":"afd00684-2901-4ae3-82f8-1e79ae0a4d94","system_id":"levelo_inurba_marseille","lat":43.25109,"lon":5.40327,"is_reserved":false,"is_disabled":false,"rental_uris":{"android":"levelo://app?vid=afd00684-2901-4ae3-82f8-1e79ae0a4d94","ios":"levelo://app?vid=afd00684-2901-4ae3-82f8-1e79ae0a4d94"},"vehicle_type_id":"4","last_reported":1748642994,"current_range_meters":13600,"station_id":"ce4bhlh2rcd13ifvqgig","pricing_plan_id":"cebpf4jnsgd1na2vs0mg"},{"bike_id":"9103067b-0988-4554-8539-3832ddf4dcc6","system_id":"levelo_inurba_marseille","lat":43.29037,"lon":5.38643,"is_reserved":false,"is_disabled":false,"rental_uris":{"android":"levelo://app?vid=9103067b-0988-4554-8539-3832ddf4dcc6","ios":"levelo://app?vid=9103067b-0988-4554-8539-3832ddf4dcc6"},"vehicle_type_id":"4","last_reported":1748642994,"current_range_meters":14000,"station_id":"ce4bh4p2rcd13ifvqe0g","pricing_plan_id":"cebpf4jnsgd1na2vs0mg"},{"bike_id":"da584cb7-326f-4743-9ed0-ab71105ca446","system_id":"levelo_inurba_marseille","lat":43.287,"lon":5.39987,"is_reserved":false,"is_disabled":false,"rental_uris":{"android":"levelo://app?vid=da584cb7-326f-4743-9ed0-ab71105ca446","ios":"levelo://app?vid=da584cb7-326f-4743-9ed0-ab71105ca446"},"vehicle_type_id":"4","last_reported":1748642994,"current_range_meters":14000,"station_id":"ce4bho92rcd13ifvqh3g","pricing_plan_id":"cebpf4jnsgd1na2vs0mg"},{"bike_id":"471c034b-5235-4a7f-9792-d208210affb2","system_id":"levelo_inurba_marseille","lat":43.30902,"lon":5.39621,"is_reserved":false,"is_disabled":true,"rental_uris":{"android":"levelo://app?vid=471c034b-5235-4a7f-9792-d208210affb2","ios":"levelo://app?vid=471c034b-5235-4a7f-9792-d208210affb2"},"vehicle_type_id":"4","last_reported":1748642994,"current_range_meters":14000,"station_id":"ce4bh012rcd13ifvqcv0","pricing_plan_id":"cebpf4jnsgd1na2vs0mg"},{"bike_id":"d49cf37e-ce0e-48e3-a0b3-1e16d6879b8a","system_id":"levelo_inurba_marseille","lat":43.29785,"lon":5.3934,"is_reserved":false,"is_disabled":false,"rental_uris":{"android":"levelo://app?vid=d49cf37e-ce0e-48e3-a0b3-1e16d6879b8a","ios":"levelo://app?vid=d49cf37e-ce0e-48e3-a0b3-1e16d6879b8a"},"vehicle_type_id":"4","last_reported":1748642994,"current_range_meters":14000,"station_id":"chh1huq6cuj3fo74tm60","pricing_plan_id":"cebpf4jnsgd1na2vs0mg"},{"bike_id":"71930e17-fe3c-443f-b621-4d725e50390f","system_id":"levelo_inurba_marseille","lat":43.33712,"lon":5.39185,"is_reserved":false,"is_disabled":false,"rental_uris":{"android":"levelo://app?vid=71930e17-fe3c-443f-b621-4d725e50390f","ios":"levelo://app?vid=71930e17-fe3c-443f-b621-4d725e50390f"},"vehicle_type_id":"4","last_reported":1748642994,"current_range_meters":14000,"station_id":"ce4bhr92rcd13ifvqhsg","pricing_plan_id":"cebpf4jnsgd1na2vs0mg"},{"bike_id":"c0b163e3-70a7-417f-95ce-ebb4b8ae22c8","system_id":"levelo_inurba_marseille","lat":43.30611,"lon":5.37223,"is_reserved":false,"is_disabled":false,"rental_uris":{"android":"levelo://app?vid=c0b163e3-70a7-417f-95ce-ebb4b8ae22c8","ios":"levelo://app?vid=c0b163e3-70a7-417f-95ce-ebb4b8ae22c8"},"vehicle_type_id":"4","last_reported":1748642994,"current_range_meters":14400,"station_id":"ce4bgqh2rcd13ifvqc4g","pricing_plan_id":"cebpf4jnsgd1na2vs0mg"},{"bike_id":"893cccc3-5573-41c4-a76f-851cbc7df082","system_id":"levelo_inurba_marseille","lat":43.30939,"lon":5.40157,"is_reserved":false,"is_disabled":false,"rental_uris":{"android":"levelo://app?vid=893cccc3-5573-41c4-a76f-851cbc7df082","ios":"levelo://app?vid=893cccc3-5573-41c4-a76f-851cbc7df082"},"vehicle_type_id":"4","last_reported":1748642994,"current_range_meters":14400,"station_id":"ce4bgvp2rcd13ifvqct0","pricing_plan_id":"cebpf4jnsgd1na2vs0mg"},{"bike_id":"55040e52-b09b-4347-bb16-8eb95a0de438","system_id":"levelo_inurba_marseille","lat":43.29531,"lon":5.38534,"is_reserved":false,"is_disabled":false,"rental_uris":{"android":"levelo://app?vid=55040e52-b09b-4347-bb16-8eb95a0de438","ios":"levelo://app?vid=55040e52-b09b-4347-bb16-8eb95a0de438"},"vehicle_type_id":"4","last_reported":1748642994,"current_range_meters":14400,"station_id":"ce4bgih2rcd13ifvqba0","pricing_plan_id":"cebpf4jnsgd1na2vs0mg"},{"bike_id":"1e4adc12-9fc2-444f-9448-f3b3d68d4c30","system_id":"levelo_inurba_marseille","lat":43.27842,"lon":5.39213,"is_reserved":false,"is_disabled":false,"rental_uris":{"android":"levelo://app?vid=1e4adc12-9fc2-444f-9448-f3b3d68d4c30","ios":"levelo://app?vid=1e4adc12-9fc2-444f-9448-f3b3d68d4c30"},"vehicle_type_id":"4","last_reported":1748642994,"current_range_meters":14400,"station_id":"ce4bhjp2rcd13ifvqga0","pricing_plan_id":"cebpf4jnsgd1na2vs0mg"},{"bike_id":"bbf25ded-718e-41f5-8ebc-a2000cac04a7","system_id":"levelo_inurba_marseille","lat":43.30767,"lon":5.38147,"is_reserved":false,"is_disabled":false,"rental_uris":{"android":"levelo://app?vid=bbf25ded-718e-41f5-8ebc-a2000cac04a7","ios":"levelo://app?vid=bbf25ded-718e-41f5-8ebc-a2000cac04a7"},"vehicle_type_id":"4","last_reported":1748642994,"current_range_meters":14800,"station_id":"ce4bgt12rcd13ifvqce0","pricing_plan_id":"cebpf4jnsgd1na2vs0mg"},{"bike_id":"6dbec55b-fee0-4a3a-9ed2-723f9ae1c783","system_id":"levelo_inurba_marseille","lat":43.29887,"lon":5.43643,"is_reserved":false,"is_disabled":true,"rental_uris":{"android":"levelo://app?vid=6dbec55b-fee0-4a3a-9ed2-723f9ae1c783","ios":"levelo://app?vid=6dbec55b-fee0-4a3a-9ed2-723f9ae1c783"},"vehicle_type_id":"4","last_reported":1748642994,"current_range_meters":14800,"station_id":"ce4bhpp2rcd13ifvqhfg","pricing_plan_id":"cebpf4jnsgd1na2vs0mg"},{"bike_id":"1aaa37a4-9725-4a48-849d-39e4b2de7dfd","system_id":"levelo_inurba_marseille","lat":43.29871,"lon":5.39724,"is_reserved":false,"is_disabled":false,"rental_uris":{"android":"levelo://app?vid=1aaa37a4-9725-4a48-849d-39e4b2de7dfd","ios":"levelo://app?vid=1aaa37a4-9725-4a48-849d-39e4b2de7dfd"},"vehicle_type_id":"4","last_reported":1748642994,"current_range_meters":14800,"station_id":"ce4bh0h2rcd13ifvqd50","pricing_plan_id":"cebpf4jnsgd1na2vs0mg"},{"bike_id":"099ae7f8-da2f-4e1e-85e1-bd2cc4e2608a","system_id":"levelo_inurba_marseille","lat":43.290305,"lon":5.386485,"is_reserved":false,"is_disabled":false,"rental_uris":{"android":"levelo://app?vid=099ae7f8-da2f-4e1e-85e1-bd2cc4e2608a","ios":"levelo://app?vid=099ae7f8-da2f-4e1e-85e1-bd2cc4e2608a"},"vehicle_type_id":"4","last_reported":1748642994,"current_range_meters":14800,"station_id":"ce4bh4p2rcd13ifvqe0g","pricing_plan_id":"cebpf4jnsgd1na2vs0mg"},{"bike_id":"0d3bab2f-26cf-41f1-82dd-bb5db963b288","system_id":"levelo_inurba_marseille","lat":43.32488,"lon":5.36564,"is_reserved":false,"is_disabled":false,"rental_uris":{"android":"levelo://app?vid=0d3bab2f-26cf-41f1-82dd-bb5db963b288","ios":"levelo://app?vid=0d3bab2f-26cf-41f1-82dd-bb5db963b288"},"vehicle_type_id":"4","last_reported":1748642994,"current_range_meters":14800,"station_id":"ce4bhs12rcd13ifvqhvg","pricing_plan_id":"cebpf4jnsgd1na2vs0mg"},{"bike_id":"495d3d4f-fe36-4133-8b6c-942fc4d537bf","system_id":"levelo_inurba_marseille","lat":43.295638,"lon":5.382413,"is_reserved":false,"is_disabled":false,"rental_uris":{"android":"levelo://app?vid=495d3d4f-fe36-4133-8b6c-942fc4d537bf","ios":"levelo://app?vid=495d3d4f-fe36-4133-8b6c-942fc4d537bf"},"vehicle_type_id":"4","last_reported":1748642994,"current_range_meters":15200,"station_id":"","pricing_plan_id":"cebpf4jnsgd1na2vs0mg"},{"bike_id":"50ccef43-1903-48d0-b39a-ab051baaed01","system_id":"levelo_inurba_marseille","lat":43.29413,"lon":5.38629,"is_reserved":false,"is_disabled":false,"rental_uris":{"android":"levelo://app?vid=50ccef43-1903-48d0-b39a-ab051baaed01","ios":"levelo://app?vid=50ccef43-1903-48d0-b39a-ab051baaed01"},"vehicle_type_id":"4","last_reported":1748642994,"current_range_meters":15200,"station_id":"ce4bh2h2rcd13ifvqdh0","pricing_plan_id":"cebpf4jnsgd1na2vs0mg"},{"bike_id":"03bb06f4-b491-4340-b745-0a2641be143b","system_id":"levelo_inurba_marseille","lat":43.30799,"lon":5.4185,"is_reserved":false,"is_disabled":false,"rental_uris":{"android":"levelo://app?vid=03bb06f4-b491-4340-b745-0a2641be143b","ios":"levelo://app?vid=03bb06f4-b491-4340-b745-0a2641be143b"},"vehicle_type_id":"4","last_reported":1748642994,"current_range_meters":15200,"station_id":"","pricing_plan_id":"cebpf4jnsgd1na2vs0mg"},{"bike_id":"cda3f8c6-aad8-421a-a5a5-511896c62bb0","system_id":"levelo_inurba_marseille","lat":43.30884,"lon":5.37195,"is_reserved":false,"is_disabled":false,"rental_uris":{"android":"levelo://app?vid=cda3f8c6-aad8-421a-a5a5-511896c62bb0","ios":"levelo://app?vid=cda3f8c6-aad8-421a-a5a5-511896c62bb0"},"vehicle_type_id":"4","last_reported":1748642994,"current_range_meters":15200,"station_id":"ce4bguh2rcd13ifvqckg","pricing_plan_id":"cebpf4jnsgd1na2vs0mg"},{"bike_id":"650545c7-78b2-4c52-95aa-c67b7ae4185b","system_id":"levelo_inurba_marseille","lat":43.30635,"lon":5.40092,"is_reserved":false,"is_disabled":false,"rental_uris":{"android":"levelo://app?vid=650545c7-78b2-4c52-95aa-c67b7ae4185b","ios":"levelo://app?vid=650545c7-78b2-4c52-95aa-c67b7ae4185b"},"vehicle_type_id":"4","last_reported":1748642994,"current_range_meters":15200,"station_id":"ce4bh112rcd13ifvqda0","pricing_plan_id":"cebpf4jnsgd1na2vs0mg"},{"bike_id":"679cd85e-b647-4651-ad34-13039c186a67","system_id":"levelo_inurba_marseille","lat":43.29202,"lon":5.35802,"is_reserved":false,"is_disabled":false,"rental_uris":{"android":"levelo://app?vid=679cd85e-b647-4651-ad34-13039c186a67","ios":"levelo://app?vid=679cd85e-b647-4651-ad34-13039c186a67"},"vehicle_type_id":"4","last_reported":1748642994,"current_range_meters":15200,"station_id":"ce4bhb12rcd13ifvqel0","pricing_plan_id":"cebpf4jnsgd1na2vs0mg"},{"bike_id":"40b3349c-8f46-4799-ae53-a026f8e2086a","system_id":"levelo_inurba_marseille","lat":43.27916,"lon":5.39588,"is_reserved":false,"is_disabled":false,"rental_uris":{"android":"levelo://app?vid=40b3349c-8f46-4799-ae53-a026f8e2086a","ios":"levelo://app?vid=40b3349c-8f46-4799-ae53-a026f8e2086a"},"vehicle_type_id":"4","last_reported":1748642994,"current_range_meters":15200,"station_id":"ce4bhf92rcd13ifvqf40","pricing_plan_id":"cebpf4jnsgd1na2vs0mg"},{"bike_id":"3fbb13f5-2348-42b4-abc7-277c9f499e45","system_id":"levelo_inurba_marseille","lat":43.29591,"lon":5.381,"is_reserved":false,"is_disabled":false,"rental_uris":{"android":"levelo://app?vid=3fbb13f5-2348-42b4-abc7-277c9f499e45","ios":"levelo://app?vid=3fbb13f5-2348-42b4-abc7-277c9f499e45"},"vehicle_type_id":"4","last_reported":1748642994,"current_range_meters":16000,"station_id":"ce4bgl12rcd13ifvqbo0","pricing_plan_id":"cebpf4jnsgd1na2vs0mg"},{"bike_id":"b39b16dc-f183-4cb5-86c3-5371fdcfe54c","system_id":"levelo_inurba_marseille","lat":43.31068,"lon":5.38322,"is_reserved":false,"is_disabled":false,"rental_uris":{"android":"levelo://app?vid=b39b16dc-f183-4cb5-86c3-5371fdcfe54c","ios":"levelo://app?vid=b39b16dc-f183-4cb5-86c3-5371fdcfe54c"},"vehicle_type_id":"4","last_reported":1748642994,"current_range_meters":16000,"station_id":"ce4bgv92rcd13ifvqcr0","pricing_plan_id":"cebpf4jnsgd1na2vs0mg"},{"bike_id":"91d451cd-fd12-4c58-9642-67ff33efe050","system_id":"levelo_inurba_marseille","lat":43.29022,"lon":5.38651,"is_reserved":false,"is_disabled":false,"rental_uris":{"android":"levelo://app?vid=91d451cd-fd12-4c58-9642-67ff33efe050","ios":"levelo://app?vid=91d451cd-fd12-4c58-9642-67ff33efe050"},"vehicle_type_id":"4","last_reported":1748642994,"current_range_meters":16000,"station_id":"ce4bh4p2rcd13ifvqe0g","pricing_plan_id":"cebpf4jnsgd1na2vs0mg"},{"bike_id":"5a0f9c43-81b8-4fde-9937-0577c074501c","system_id":"levelo_inurba_marseille","lat":43.29541,"lon":5.38526,"is_reserved":false,"is_disabled":false,"rental_uris":{"android":"levelo://app?vid=5a0f9c43-81b8-4fde-9937-0577c074501c","ios":"levelo://app?vid=5a0f9c43-81b8-4fde-9937-0577c074501c"},"vehicle_type_id":"4","last_reported":1748642994,"current_range_meters":16000,"station_id":"ce4bgih2rcd13ifvqba0","pricing_plan_id":"cebpf4jnsgd1na2vs0mg"},{"bike_id":"56118c5b-a7b2-448d-9e9f-37905a3f02ee","system_id":"levelo_inurba_marseille","lat":43.29022,"lon":5.3864,"is_reserved":false,"is_disabled":false,"rental_uris":{"android":"levelo://app?vid=56118c5b-a7b2-448d-9e9f-37905a3f02ee","ios":"levelo://app?vid=56118c5b-a7b2-448d-9e9f-37905a3f02ee"},"vehicle_type_id":"4","last_reported":1748642994,"current_range_meters":16000,"station_id":"ce4bh4p2rcd13ifvqe0g","pricing_plan_id":"cebpf4jnsgd1na2vs0mg"},{"bike_id":"de1d3ee5-e56c-40ac-9735-5da3cec457b4","system_id":"levelo_inurba_marseille","lat":43.29409,"lon":5.38634,"is_reserved":false,"is_disabled":false,"rental_uris":{"android":"levelo://app?vid=de1d3ee5-e56c-40ac-9735-5da3cec457b4","ios":"levelo://app?vid=de1d3ee5-e56c-40ac-9735-5da3cec457b4"},"vehicle_type_id":"4","last_reported":1748642994,"current_range_meters":16000,"station_id":"ce4bh2h2rcd13ifvqdh0","pricing_plan_id":"cebpf4jnsgd1na2vs0mg"},{"bike_id":"c0b5739c-5e6f-4099-8c3a-7ce9e9d7ffc1","system_id":"levelo_inurba_marseille","lat":43.29705,"lon":5.36609,"is_reserved":false,"is_disabled":false,"rental_uris":{"android":"levelo://app?vid=c0b5739c-5e6f-4099-8c3a-7ce9e9d7ffc1","ios":"levelo://app?vid=c0b5739c-5e6f-4099-8c3a-7ce9e9d7ffc1"},"vehicle_type_id":"4","last_reported":1748642994,"current_range_meters":16000,"station_id":"ce4bgn12rcd13ifvqbt0","pricing_plan_id":"cebpf4jnsgd1na2vs0mg"},{"bike_id":"e5590a19-50b7-4e3c-9058-b7a6cd729aa7","system_id":"levelo_inurba_marseille","lat":43.29413,"lon":5.38631,"is_reserved":false,"is_disabled":false,"rental_uris":{"android":"levelo://app?vid=e5590a19-50b7-4e3c-9058-b7a6cd729aa7","ios":"levelo://app?vid=e5590a19-50b7-4e3c-9058-b7a6cd729aa7"},"vehicle_type_id":"4","last_reported":1748642994,"current_range_meters":16000,"station_id":"ce4bh2h2rcd13ifvqdh0","pricing_plan_id":"cebpf4jnsgd1na2vs0mg"},{"bike_id":"928cca2e-5a6d-48fb-b812-c2d89f7f5284","system_id":"levelo_inurba_marseille","lat":43.30544,"lon":5.36531,"is_reserved":false,"is_disabled":false,"rental_uris":{"android":"levelo://app?vid=928cca2e-5a6d-48fb-b812-c2d89f7f5284","ios":"levelo://app?vid=928cca2e-5a6d-48fb-b812-c2d89f7f5284"},"vehicle_type_id":"4","last_reported":1748642994,"current_range_meters":16000,"station_id":"ce4bgs12rcd13ifvqcag","pricing_plan_id":"cebpf4jnsgd1na2vs0mg"},{"bike_id":"f237b67b-c90a-4bde-9d04-487ff2d0298c","system_id":"levelo_inurba_marseille","lat":43.2926,"lon":5.4091,"is_reserved":false,"is_disabled":false,"rental_uris":{"android":"levelo://app?vid=f237b67b-c90a-4bde-9d04-487ff2d0298c","ios":"levelo://app?vid=f237b67b-c90a-4bde-9d04-487ff2d0298c"},"vehicle_type_id":"4","last_reported":1748642994,"current_range_meters":16000,"station_id":"ce4bh192rcd13ifvqdc0","pricing_plan_id":"cebpf4jnsgd1na2vs0mg"},{"bike_id":"67614841-9f24-4f1f-81f7-acf09b9bb6b8","system_id":"levelo_inurba_marseille","lat":43.25723,"lon":5.41097,"is_reserved":false,"is_disabled":false,"rental_uris":{"android":"levelo://app?vid=67614841-9f24-4f1f-81f7-acf09b9bb6b8","ios":"levelo://app?vid=67614841-9f24-4f1f-81f7-acf09b9bb6b8"},"vehicle_type_id":"4","last_reported":1748642994,"current_range_meters":16000,"station_id":"ce4bhkp2rcd13ifvqgd0","pricing_plan_id":"cebpf4jnsgd1na2vs0mg"},{"bike_id":"98c649e0-2bae-46eb-9e4d-669548a5301f","system_id":"levelo_inurba_marseille","lat":43.25114,"lon":5.40318,"is_reserved":false,"is_disabled":false,"rental_uris":{"android":"levelo://app?vid=98c649e0-2bae-46eb-9e4d-669548a5301f","ios":"levelo://app?vid=98c649e0-2bae-46eb-9e4d-669548a5301f"},"vehicle_type_id":"4","last_reported":1748642994,"current_range_meters":16000,"station_id":"ce4bhlh2rcd13ifvqgig","pricing_plan_id":"cebpf4jnsgd1na2vs0mg"},{"bike_id":"b15c9528-f47a-4235-9293-ec8fcd2e5e20","system_id":"levelo_inurba_marseille","lat":43.28073,"lon":5.39656,"is_reserved":false,"is_disabled":false,"rental_uris":{"android":"levelo://app?vid=b15c9528-f47a-4235-9293-ec8fcd2e5e20","ios":"levelo://app?vid=b15c9528-f47a-4235-9293-ec8fcd2e5e20"},"vehicle_type_id":"4","last_reported":1748642994,"current_range_meters":16000,"station_id":"ce4bho12rcd13ifvqh2g","pricing_plan_id":"cebpf4jnsgd1na2vs0mg"},{"bike_id":"21501f3b-3adc-4044-ae75-db236a244cbf","system_id":"levelo_inurba_marseille","lat":43.28355,"lon":5.38098,"is_reserved":false,"is_disabled":false,"rental_uris":{"android":"levelo://app?vid=21501f3b-3adc-4044-ae75-db236a244cbf","ios":"levelo://app?vid=21501f3b-3adc-4044-ae75-db236a244cbf"},"vehicle_type_id":"4","last_reported":1748642994,"current_range_meters":16000,"station_id":"ce4bh412rcd13ifvqdr0","pricing_plan_id":"cebpf4jnsgd1na2vs0mg"},{"bike_id":"0f978cd1-91a6-49f0-af52-a237e30e4baa","system_id":"levelo_inurba_marseille","lat":43.29596,"lon":5.38093,"is_reserved":false,"is_disabled":false,"rental_uris":{"android":"levelo://app?vid=0f978cd1-91a6-49f0-af52-a237e30e4baa","ios":"levelo://app?vid=0f978cd1-91a6-49f0-af52-a237e30e4baa"},"vehicle_type_id":"4","last_reported":1748642994,"current_range_meters":16000,"station_id":"ce4bgl12rcd13ifvqbo0","pricing_plan_id":"cebpf4jnsgd1na2vs0mg"},{"bike_id":"5ca251bb-3aed-48af-ab33-7384e026a0e3","system_id":"levelo_inurba_marseille","lat":43.29261,"lon":5.38438,"is_reserved":false,"is_disabled":false,"rental_uris":{"android":"levelo://app?vid=5ca251bb-3aed-48af-ab33-7384e026a0e3","ios":"levelo://app?vid=5ca251bb-3aed-48af-ab33-7384e026a0e3"},"vehicle_type_id":"4","last_reported":1748642994,"current_range_meters":16000,"station_id":"ce4bh692rcd13ifvqea0","pricing_plan_id":"cebpf4jnsgd1na2vs0mg"},{"bike_id":"70cd6256-b5f2-4f83-83c9-e546d2f57272","system_id":"levelo_inurba_marseille","lat":43.27572,"lon":5.38409,"is_reserved":false,"is_disabled":false,"rental_uris":{"android":"levelo://app?vid=70cd6256-b5f2-4f83-83c9-e546d2f57272","ios":"levelo://app?vid=70cd6256-b5f2-4f83-83c9-e546d2f57272"},"vehicle_type_id":"4","last_reported":1748642994,"current_range_meters":16000,"station_id":"ce4bhh92rcd13ifvqfi0","pricing_plan_id":"cebpf4jnsgd1na2vs0mg"},{"bike_id":"a0702113-8a9c-4d99-ab88-c49da9ab00cd","system_id":"levelo_inurba_marseille","lat":43.31363,"lon":5.38486,"is_reserved":false,"is_disabled":false,"rental_uris":{"android":"levelo://app?vid=a0702113-8a9c-4d99-ab88-c49da9ab00cd","ios":"levelo://app?vid=a0702113-8a9c-4d99-ab88-c49da9ab00cd"},"vehicle_type_id":"4","last_reported":1748642994,"current_range_meters":16000,"station_id":"ce4bgt92rcd13ifvqcf0","pricing_plan_id":"cebpf4jnsgd1na2vs0mg"},{"bike_id":"a1afee0d-636a-4145-8e38-9b2384426a66","system_id":"levelo_inurba_marseille","lat":43.322885,"lon":5.382757,"is_reserved":false,"is_disabled":false,"rental_uris":{"android":"levelo://app?vid=a1afee0d-636a-4145-8e38-9b2384426a66","ios":"levelo://app?vid=a1afee0d-636a-4145-8e38-9b2384426a66"},"vehicle_type_id":"4","last_reported":1748642994,"current_range_meters":16400,"station_id":"ce4bhr12rcd13ifvqhqg","pricing_plan_id":"cebpf4jnsgd1na2vs0mg"},{"bike_id":"4f6888c8-5676-42f4-999f-7cc1a451fe5b","system_id":"levelo_inurba_marseille","lat":43.29843,"lon":5.36283,"is_reserved":false,"is_disabled":false,"rental_uris":{"android":"levelo://app?vid=4f6888c8-5676-42f4-999f-7cc1a451fe5b","ios":"levelo://app?vid=4f6888c8-5676-42f4-999f-7cc1a451fe5b"},"vehicle_type_id":"4","last_reported":1748642994,"current_range_meters":16400,"station_id":"ce4bgpp2rcd13ifvqc3g","pricing_plan_id":"cebpf4jnsgd1na2vs0mg"},{"bike_id":"7aeffebe-874b-435f-b57e-86750fcf60fd","system_id":"levelo_inurba_marseille","lat":43.29022,"lon":5.3814,"is_reserved":false,"is_disabled":false,"rental_uris":{"android":"levelo://app?vid=7aeffebe-874b-435f-b57e-86750fcf60fd","ios":"levelo://app?vid=7aeffebe-874b-435f-b57e-86750fcf60fd"},"vehicle_type_id":"4","last_reported":1748642994,"current_range_meters":16400,"station_id":"ce4bh4p2rcd13ifvqe1g","pricing_plan_id":"cebpf4jnsgd1na2vs0mg"},{"bike_id":"5f901d7e-cb36-4b9e-8907-5b3ee252ba87","system_id":"levelo_inurba_marseille","lat":43.3022,"lon":5.39483,"is_reserved":false,"is_disabled":false,"rental_uris":{"android":"levelo://app?vid=5f901d7e-cb36-4b9e-8907-5b3ee252ba87","ios":"levelo://app?vid=5f901d7e-cb36-4b9e-8907-5b3ee252ba87"},"vehicle_type_id":"4","last_reported":1748642994,"current_range_meters":16000,"station_id":"ce4bh0p2rcd13ifvqd70","pricing_plan_id":"cebpf4jnsgd1na2vs0mg"},{"bike_id":"920e3cc0-d0c4-4f6b-82ea-e9ce3c95af68","system_id":"levelo_inurba_marseille","lat":43.32338,"lon":5.4062,"is_reserved":false,"is_disabled":false,"rental_uris":{"android":"levelo://app?vid=920e3cc0-d0c4-4f6b-82ea-e9ce3c95af68","ios":"levelo://app?vid=920e3cc0-d0c4-4f6b-82ea-e9ce3c95af68"},"vehicle_type_id":"4","last_reported":1748642994,"current_range_meters":16400,"station_id":"ce4bhq92rcd13ifvqhjg","pricing_plan_id":"cebpf4jnsgd1na2vs0mg"},{"bike_id":"ecf8dc96-108e-4efa-a7f4-dd63aabd5a1e","system_id":"levelo_inurba_marseille","lat":43.31164,"lon":5.38726,"is_reserved":false,"is_disabled":false,"rental_uris":{"android":"levelo://app?vid=ecf8dc96-108e-4efa-a7f4-dd63aabd5a1e","ios":"levelo://app?vid=ecf8dc96-108e-4efa-a7f4-dd63aabd5a1e"},"vehicle_type_id":"4","last_reported":1748642994,"current_range_meters":16400,"station_id":"ce4bgv12rcd13ifvqcp0","pricing_plan_id":"cebpf4jnsgd1na2vs0mg"},{"bike_id":"c6877bd4-34cc-4990-87c8-1c278a3303bb","system_id":"levelo_inurba_marseille","lat":43.29254,"lon":5.38433,"is_reserved":false,"is_disabled":false,"rental_uris":{"android":"levelo://app?vid=c6877bd4-34cc-4990-87c8-1c278a3303bb","ios":"levelo://app?vid=c6877bd4-34cc-4990-87c8-1c278a3303bb"},"vehicle_type_id":"4","last_reported":1748642994,"current_range_meters":16400,"station_id":"ce4bh692rcd13ifvqea0","pricing_plan_id":"cebpf4jnsgd1na2vs0mg"},{"bike_id":"e4c29532-f07a-4102-b0ae-61730aa1af99","system_id":"levelo_inurba_marseille","lat":43.30882,"lon":5.37195,"is_reserved":false,"is_disabled":false,"rental_uris":{"android":"levelo://app?vid=e4c29532-f07a-4102-b0ae-61730aa1af99","ios":"levelo://app?vid=e4c29532-f07a-4102-b0ae-61730aa1af99"},"vehicle_type_id":"4","last_reported":1748642994,"current_range_meters":16400,"station_id":"ce4bguh2rcd13ifvqckg","pricing_plan_id":"cebpf4jnsgd1na2vs0mg"},{"bike_id":"9394a981-6e1e-4fd6-9268-4e09882956e9","system_id":"levelo_inurba_marseille","lat":43.31295,"lon":5.44541,"is_reserved":false,"is_disabled":false,"rental_uris":{"android":"levelo://app?vid=9394a981-6e1e-4fd6-9268-4e09882956e9","ios":"levelo://app?vid=9394a981-6e1e-4fd6-9268-4e09882956e9"},"vehicle_type_id":"4","last_reported":1748642994,"current_range_meters":16800,"station_id":"","pricing_plan_id":"cebpf4jnsgd1na2vs0mg"},{"bike_id":"a9c585aa-7114-44aa-b529-e679b5f544ad","system_id":"levelo_inurba_marseille","lat":43.294183,"lon":5.386508,"is_reserved":false,"is_disabled":false,"rental_uris":{"android":"levelo://app?vid=a9c585aa-7114-44aa-b529-e679b5f544ad","ios":"levelo://app?vid=a9c585aa-7114-44aa-b529-e679b5f544ad"},"vehicle_type_id":"4","last_reported":1748642994,"current_range_meters":16800,"station_id":"ce4bh2h2rcd13ifvqdh0","pricing_plan_id":"cebpf4jnsgd1na2vs0mg"},{"bike_id":"1513e768-a97c-46ed-8b37-3cfea95c9531","system_id":"levelo_inurba_marseille","lat":43.26549,"lon":5.37289,"is_reserved":false,"is_disabled":false,"rental_uris":{"android":"levelo://app?vid=1513e768-a97c-46ed-8b37-3cfea95c9531","ios":"levelo://app?vid=1513e768-a97c-46ed-8b37-3cfea95c9531"},"vehicle_type_id":"4","last_reported":1748642994,"current_range_meters":16800,"station_id":"ce4bhg12rcd13ifvqf70","pricing_plan_id":"cebpf4jnsgd1na2vs0mg"},{"bike_id":"1e8010d4-4b27-40f4-beda-3cd1e8331b0d","system_id":"levelo_inurba_marseille","lat":43.29416,"lon":5.3863,"is_reserved":false,"is_disabled":false,"rental_uris":{"android":"levelo://app?vid=1e8010d4-4b27-40f4-beda-3cd1e8331b0d","ios":"levelo://app?vid=1e8010d4-4b27-40f4-beda-3cd1e8331b0d"},"vehicle_type_id":"4","last_reported":1748642994,"current_range_meters":16800,"station_id":"ce4bh2h2rcd13ifvqdh0","pricing_plan_id":"cebpf4jnsgd1na2vs0mg"},{"bike_id":"9d1f9ca0-3fd8-4611-97b9-796f04de726d","system_id":"levelo_inurba_marseille","lat":43.29633,"lon":5.38087,"is_reserved":false,"is_disabled":false,"rental_uris":{"android":"levelo://app?vid=9d1f9ca0-3fd8-4611-97b9-796f04de726d","ios":"levelo://app?vid=9d1f9ca0-3fd8-4611-97b9-796f04de726d"},"vehicle_type_id":"4","last_reported":1748642994,"current_range_meters":16800,"station_id":"ce4bgl12rcd13ifvqbo0","pricing_plan_id":"cebpf4jnsgd1na2vs0mg"},{"bike_id":"abc9a28c-ad83-4413-a424-d5283f3711e3","system_id":"levelo_inurba_marseille","lat":43.28343,"lon":5.38102,"is_reserved":false,"is_disabled":false,"rental_uris":{"android":"levelo://app?vid=abc9a28c-ad83-4413-a424-d5283f3711e3","ios":"levelo://app?vid=abc9a28c-ad83-4413-a424-d5283f3711e3"},"vehicle_type_id":"4","last_reported":1748642994,"current_range_meters":16800,"station_id":"ce4bh412rcd13ifvqdr0","pricing_plan_id":"cebpf4jnsgd1na2vs0mg"},{"bike_id":"3684317d-8c7d-4406-83d3-99a336dbaba1","system_id":"levelo_inurba_marseille","lat":43.27942,"lon":5.41051,"is_reserved":false,"is_disabled":false,"rental_uris":{"android":"levelo://app?vid=3684317d-8c7d-4406-83d3-99a336dbaba1","ios":"levelo://app?vid=3684317d-8c7d-4406-83d3-99a336dbaba1"},"vehicle_type_id":"4","last_reported":1748642994,"current_range_meters":16800,"station_id":"ce4bhnp2rcd13ifvqh0g","pricing_plan_id":"cebpf4jnsgd1na2vs0mg"},