{"last_updated":1774120529,"ttl":60,"version":"2.2","data":{"bikes":[{"bike_id":"b7de6bb2-33fd-4a78-8f17-d09f1d84cfb7","system_id":"levelo_inurba_marseille","lat":43.29016,"lon":5.38115,"is_reserved":false,"is_disabled":false,"rental_uris":{"android":"levelo://app?vid=b7de6bb2-33fd-4a78-8f17-d09f1d84cfb7","ios":"levelo://app?vid=b7de6bb2-33fd-4a78-8f17-d09f1d84cfb7"},"vehicle_type_id":"4","last_reported":1774120529,"current_range_meters":2800,"station_id":"ce4bh4p2rcd13ifvqe1g","pricing_plan_id":"cebpf4jnsgd1na2vs0mg"},{"bike_id":"7e3fe35a-02a8-4e9a-bafd-ecb393f71d00","system_id":"levelo_inurba_marseille","lat":43.28872,"lon":5.42543,"is_reserved":false,"is_disabled":false,"rental_uris":{"android":"levelo://app?vid=7e3fe35a-02a8-4e9a-bafd-ecb393f71d00","ios":"levelo://app?vid=7e3fe35a-02a8-4e9a-bafd-ecb393f71d00"},"vehicle_type_id":"4","last_reported":1774120529,"current_range_meters":2800,"station_id":"","pricing_plan_id":"cebpf4jnsgd1na2vs0mg"},{"bike_id":"9fe3d83f-7858-45b0-b20d-6264024ae86d","system_id":"levelo_inurba_marseille","lat":43.29531,"lon":5.38538,"is_reserved":false,"is_disabled":false,"rental_uris":{"android":"levelo://app?vid=9fe3d83f-7858-45b0-b20d-6264024ae86d","ios":"levelo://app?vid=9fe3d83f-7858-45b0-b20d-6264024ae86d"},"vehicle_type_id":"4","last_reported":1774120529,"current_range_meters":2800,"station_id":"ce4bgih2rcd13ifvqba0","pricing_plan_id":"cebpf4jnsgd1na2vs0mg"},{"bike_id":"e18a6434-ca28-4c4a-bf40-ac219a0cce5d","system_id":"levelo_inurba_marseille","lat":43.26497,"lon":5.39541,"is_reserved":false,"is_disabled":false,"rental_uris":{"android":"levelo://app?vid=e18a6434-ca28-4c4a-bf40-ac219a0cce5d","ios":"levelo://app?vid=e18a6434-ca28-4c4a-bf40-ac219a0cce5d"},"vehicle_type_id":"4","last_reported":1774120529,"current_range_meters":2800,"station_id":"ce4bhi12rcd13ifvqfq0","pricing_plan_id":"cebpf4jnsgd1na2vs0mg"},{"bike_id":"a74ad46c-56c6-4ac2-907c-e1bf925579f7","system_id":"levelo_inurba_marseille","lat":43.28499,"lon":5.38532,"is_reserved":false,"is_disabled":false,"rental_uris":{"android":"levelo://app?vid=a74ad46c-56c6-4ac2-907c-e1bf925579f7","ios":"levelo://app?vid=a74ad46c-56c6-4ac2-907c-e1bf925579f7"},"vehicle_type_id":"4","last_reported":1774120529,"current_range_meters":2800,"station_id":"ce4bh8p2rcd13ifvqeb0","pricing_plan_id":"cebpf4jnsgd1na2vs0mg"},{"bike_id":"dba6ab12-23c0-4c2d-a224-05569e8fabd6","system_id":"levelo_inurba_marseille","lat":43.292,"lon":5.39349,"is_reserved":false,"is_disabled":false,"rental_uris":{"android":"levelo://app?vid=dba6ab12-23c0-4c2d-a224-05569e8fabd6","ios":"levelo://app?vid=dba6ab12-23c0-4c2d-a224-05569e8fabd6"},"vehicle_type_id":"4","last_reported":1774120529,"current_range_meters":2800,"station_id":"ce4bh192rcd13ifvqdd0","pricing_plan_id":"cebpf4jnsgd1na2vs0mg"},{"bike_id":"b517a0cd-1bc8-4b9d-98ba-689c35b052cf","system_id":"levelo_inurba_marseille","lat":43.27199,"lon":5.39176,"is_reserved":false,"is_disabled":false,"rental_uris":{"android":"levelo://app?vid=b517a0cd-1bc8-4b9d-98ba-689c35b052cf","ios":"levelo://app?vid=b517a0cd-1bc8-4b9d-98ba-689c35b052cf"},"vehicle_type_id":"4","last_reported":1774120529,"current_range_meters":2800,"station_id":"ce4bhhp2rcd13ifvqfm0","pricing_plan_id":"cebpf4jnsgd1na2vs0mg"},{"bike_id":"751ef627-02fd-4d51-952c-1fc9b24a865e","system_id":"levelo_inurba_marseille","lat":43.29622,"lon":5.37722,"is_reserved":false,"is_disabled":false,"rental_uris":{"android":"levelo://app?vid=751ef627-02fd-4d51-952c-1fc9b24a865e","ios":"levelo://app?vid=751ef627-02fd-4d51-952c-1fc9b24a865e"},"vehicle_type_id":"4","last_reported":1774120529,"current_range_meters":2800,"station_id":"ce4bgi92rcd13ifvqb90","pricing_plan_id":"cebpf4jnsgd1na2vs0mg"},{"bike_id":"0e9df1b6-908f-4e18-81e1-9a164798c2e1","system_id":"levelo_inurba_marseille","lat":43.3048,"lon":5.36735,"is_reserved":false,"is_disabled":true,"rental_uris":{"android":"levelo://app?vid=0e9df1b6-908f-4e18-81e1-9a164798c2e1","ios":"levelo://app?vid=0e9df1b6-908f-4e18-81e1-9a164798c2e1"},"vehicle_type_id":"4","last_reported":1774120529,"current_range_meters":2800,"station_id":"","pricing_plan_id":"cebpf4jnsgd1na2vs0mg"},{"bike_id":"a4c5e210-e189-4775-9894-d36f327e4641","system_id":"levelo_inurba_marseille","lat":43.23885,"lon":5.37465,"is_reserved":false,"is_disabled":false,"rental_uris":{"android":"levelo://app?vid=a4c5e210-e189-4775-9894-d36f327e4641","ios":"levelo://app?vid=a4c5e210-e189-4775-9894-d36f327e4641"},"vehicle_type_id":"4","last_reported":1774120529,"current_range_meters":2800,"station_id":"st_d6sm7csbq4hs73f8fpjg","pricing_plan_id":"cebpf4jnsgd1na2vs0mg"},{"bike_id":"37a4545a-441c-4c5d-b319-2570f3753c15","system_id":"levelo_inurba_marseille","lat":43.27911,"lon":5.38015,"is_reserved":false,"is_disabled":false,"rental_uris":{"android":"levelo://app?vid=37a4545a-441c-4c5d-b319-2570f3753c15","ios":"levelo://app?vid=37a4545a-441c-4c5d-b319-2570f3753c15"},"vehicle_type_id":"4","last_reported":1774120529,"current_range_meters":2800,"station_id":"ce4bhf92rcd13ifvqf50","pricing_plan_id":"cebpf4jnsgd1na2vs0mg"},{"bike_id":"29ceb06a-4df8-4e2a-9dd9-b070e185b37f","system_id":"levelo_inurba_marseille","lat":43.28519,"lon":5.4836,"is_reserved":false,"is_disabled":false,"rental_uris":{"android":"levelo://app?vid=29ceb06a-4df8-4e2a-9dd9-b070e185b37f","ios":"levelo://app?vid=29ceb06a-4df8-4e2a-9dd9-b070e185b37f"},"vehicle_type_id":"4","last_reported":1774120529,"current_range_meters":2800,"station_id":"","pricing_plan_id":"cebpf4jnsgd1na2vs0mg"},{"bike_id":"cf52ad88-0d61-4e4e-bd17-3f71c52405bc","system_id":"levelo_inurba_marseille","lat":43.30306,"lon":5.39206,"is_reserved":false,"is_disabled":false,"rental_uris":{"android":"levelo://app?vid=cf52ad88-0d61-4e4e-bd17-3f71c52405bc","ios":"levelo://app?vid=cf52ad88-0d61-4e4e-bd17-3f71c52405bc"},"vehicle_type_id":"4","last_reported":1774120529,"current_range_meters":2800,"station_id":"ce4bgkh2rcd13ifvqbk0","pricing_plan_id":"cebpf4jnsgd1na2vs0mg"},{"bike_id":"9205de86-cb3c-4f80-8b48-a81c12fef98d","system_id":"levelo_inurba_marseille","lat":43.289353,"lon":5.363912,"is_reserved":false,"is_disabled":false,"rental_uris":{"android":"levelo://app?vid=9205de86-cb3c-4f80-8b48-a81c12fef98d","ios":"levelo://app?vid=9205de86-cb3c-4f80-8b48-a81c12fef98d"},"vehicle_type_id":"4","last_reported":1774120529,"current_range_meters":2800,"station_id":"ce4bhc92rcd13ifvqetg","pricing_plan_id":"cebpf4jnsgd1na2vs0mg"},{"bike_id":"b43469fa-ef2d-4ad0-998e-ff975070c24f","system_id":"levelo_inurba_marseille","lat":43.26496,"lon":5.39549,"is_reserved":false,"is_disabled":false,"rental_uris":{"android":"levelo://app?vid=b43469fa-ef2d-4ad0-998e-ff975070c24f","ios":"levelo://app?vid=b43469fa-ef2d-4ad0-998e-ff975070c24f"},"vehicle_type_id":"4","last_reported":1774120529,"current_range_meters":2800,"station_id":"ce4bhi12rcd13ifvqfq0","pricing_plan_id":"cebpf4jnsgd1na2vs0mg"},{"bike_id":"c9cfc67c-4e42-4833-b4ab-11ad690d27f6","system_id":"levelo_inurba_marseille","lat":43.33015,"lon":5.39308,"is_reserved":false,"is_disabled":false,"rental_uris":{"android":"levelo://app?vid=c9cfc67c-4e42-4833-b4ab-11ad690d27f6","ios":"levelo://app?vid=c9cfc67c-4e42-4833-b4ab-11ad690d27f6"},"vehicle_type_id":"4","last_reported":1774120529,"current_range_meters":2800,"station_id":"","pricing_plan_id":"cebpf4jnsgd1na2vs0mg"},{"bike_id":"f6f99d4f-0c22-4f7b-97b5-11142c50ffb6","system_id":"levelo_inurba_marseille","lat":43.28727,"lon":5.36085,"is_reserved":false,"is_disabled":false,"rental_uris":{"android":"levelo://app?vid=f6f99d4f-0c22-4f7b-97b5-11142c50ffb6","ios":"levelo://app?vid=f6f99d4f-0c22-4f7b-97b5-11142c50ffb6"},"vehicle_type_id":"4","last_reported":1774120529,"current_range_meters":2800,"station_id":"cki0cbj6b192h4jlfktg","pricing_plan_id":"cebpf4jnsgd1na2vs0mg"},{"bike_id":"3fa27ab8-8d8f-4238-accb-e28e00d7f168","system_id":"levelo_inurba_marseille","lat":43.29608,"lon":5.37156,"is_reserved":false,"is_disabled":false,"rental_uris":{"android":"levelo://app?vid=3fa27ab8-8d8f-4238-accb-e28e00d7f168","ios":"levelo://app?vid=3fa27ab8-8d8f-4238-accb-e28e00d7f168"},"vehicle_type_id":"4","last_reported":1774120529,"current_range_meters":2800,"station_id":"ce4bgnh2rcd13ifvqc0g","pricing_plan_id":"cebpf4jnsgd1na2vs0mg"},{"bike_id":"d13beb39-6370-4275-bcf3-5e08790510bd","system_id":"levelo_inurba_marseille","lat":43.28534,"lon":5.44113,"is_reserved":false,"is_disabled":false,"rental_uris":{"android":"levelo://app?vid=d13beb39-6370-4275-bcf3-5e08790510bd","ios":"levelo://app?vid=d13beb39-6370-4275-bcf3-5e08790510bd"},"vehicle_type_id":"4","last_reported":1774120529,"current_range_meters":2800,"station_id":"st_d3j3df2ikq2c7380ej80","pricing_plan_id":"cebpf4jnsgd1na2vs0mg"},{"bike_id":"b1b9bd49-c630-469e-ba20-794d01a9c895","system_id":"levelo_inurba_marseille","lat":43.29309,"lon":5.37167,"is_reserved":false,"is_disabled":false,"rental_uris":{"android":"levelo://app?vid=b1b9bd49-c630-469e-ba20-794d01a9c895","ios":"levelo://app?vid=b1b9bd49-c630-469e-ba20-794d01a9c895"},"vehicle_type_id":"4","last_reported":1774120529,"current_range_meters":3200,"station_id":"ce4bgh92rcd13ifvqb40","pricing_plan_id":"cebpf4jnsgd1na2vs0mg"},{"bike_id":"4c82c805-8e8a-4d55-9ccb-38cff6fa373e","system_id":"levelo_inurba_marseille","lat":43.29535,"lon":5.38539,"is_reserved":false,"is_disabled":false,"rental_uris":{"android":"levelo://app?vid=4c82c805-8e8a-4d55-9ccb-38cff6fa373e","ios":"levelo://app?vid=4c82c805-8e8a-4d55-9ccb-38cff6fa373e"},"vehicle_type_id":"4","last_reported":1774120529,"current_range_meters":3200,"station_id":"ce4bgih2rcd13ifvqba0","pricing_plan_id":"cebpf4jnsgd1na2vs0mg"},{"bike_id":"a775511c-9985-4a58-8c4c-775aad7f3e36","system_id":"levelo_inurba_marseille","lat":43.29898,"lon":5.43671,"is_reserved":false,"is_disabled":false,"rental_uris":{"android":"levelo://app?vid=a775511c-9985-4a58-8c4c-775aad7f3e36","ios":"levelo://app?vid=a775511c-9985-4a58-8c4c-775aad7f3e36"},"vehicle_type_id":"4","last_reported":1774120529,"current_range_meters":3200,"station_id":"ce4bhpp2rcd13ifvqhfg","pricing_plan_id":"cebpf4jnsgd1na2vs0mg"},{"bike_id":"352f1aed-43b3-44d2-b9ce-02a6d7771af7","system_id":"levelo_inurba_marseille","lat":43.299652,"lon":5.384862,"is_reserved":false,"is_disabled":false,"rental_uris":{"android":"levelo://app?vid=352f1aed-43b3-44d2-b9ce-02a6d7771af7","ios":"levelo://app?vid=352f1aed-43b3-44d2-b9ce-02a6d7771af7"},"vehicle_type_id":"4","last_reported":1774120529,"current_range_meters":3200,"station_id":"ce4bgj92rcd13ifvqbd0","pricing_plan_id":"cebpf4jnsgd1na2vs0mg"},{"bike_id":"e2420c11-4646-4145-aa2e-baedb91a43dc","system_id":"levelo_inurba_marseille","lat":43.32348,"lon":5.3674,"is_reserved":false,"is_disabled":false,"rental_uris":{"android":"levelo://app?vid=e2420c11-4646-4145-aa2e-baedb91a43dc","ios":"levelo://app?vid=e2420c11-4646-4145-aa2e-baedb91a43dc"},"vehicle_type_id":"4","last_reported":1774120529,"current_range_meters":3200,"station_id":"ce4bhsh2rcd13ifvqi2g","pricing_plan_id":"cebpf4jnsgd1na2vs0mg"},{"bike_id":"03a74229-5ede-4cd5-9ad9-d142ed50c73e","system_id":"levelo_inurba_marseille","lat":43.24476,"lon":5.42525,"is_reserved":false,"is_disabled":false,"rental_uris":{"android":"levelo://app?vid=03a74229-5ede-4cd5-9ad9-d142ed50c73e","ios":"levelo://app?vid=03a74229-5ede-4cd5-9ad9-d142ed50c73e"},"vehicle_type_id":"4","last_reported":1774120529,"current_range_meters":3200,"station_id":"st_d4a3vfp97mjs738cd8kg","pricing_plan_id":"cebpf4jnsgd1na2vs0mg"},{"bike_id":"5cc55b81-e73f-494b-83c2-6ebf19d09d5f","system_id":"levelo_inurba_marseille","lat":43.29318,"lon":5.37184,"is_reserved":false,"is_disabled":false,"rental_uris":{"android":"levelo://app?vid=5cc55b81-e73f-494b-83c2-6ebf19d09d5f","ios":"levelo://app?vid=5cc55b81-e73f-494b-83c2-6ebf19d09d5f"},"vehicle_type_id":"4","last_reported":1774120529,"current_range_meters":3200,"station_id":"ce4bgh92rcd13ifvqb40","pricing_plan_id":"cebpf4jnsgd1na2vs0mg"},{"bike_id":"aac8f5b0-f705-4fd6-9df0-ced6ecfa3f4e","system_id":"levelo_inurba_marseille","lat":43.28927,"lon":5.38406,"is_reserved":false,"is_disabled":false,"rental_uris":{"android":"levelo://app?vid=aac8f5b0-f705-4fd6-9df0-ced6ecfa3f4e","ios":"levelo://app?vid=aac8f5b0-f705-4fd6-9df0-ced6ecfa3f4e"},"vehicle_type_id":"4","last_reported":1774120529,"current_range_meters":3200,"station_id":"ce4bh612rcd13ifvqe6g","pricing_plan_id":"cebpf4jnsgd1na2vs0mg"},{"bike_id":"a4e2bc3c-2b39-42f1-abcb-3dbe0fdf0a7a","system_id":"levelo_inurba_marseille","lat":43.29529,"lon":5.38535,"is_reserved":false,"is_disabled":false,"rental_uris":{"android":"levelo://app?vid=a4e2bc3c-2b39-42f1-abcb-3dbe0fdf0a7a","ios":"levelo://app?vid=a4e2bc3c-2b39-42f1-abcb-3dbe0fdf0a7a"},"vehicle_type_id":"4","last_reported":1774120529,"current_range_meters":3200,"station_id":"ce4bgih2rcd13ifvqba0","pricing_plan_id":"cebpf4jnsgd1na2vs0mg"},{"bike_id":"e5a86548-6ed2-4c86-ba8a-5810a3e410c8","system_id":"levelo_inurba_marseille","lat":43.30425,"lon":5.3889,"is_reserved":false,"is_disabled":false,"rental_uris":{"android":"levelo://app?vid=e5a86548-6ed2-4c86-ba8a-5810a3e410c8","ios":"levelo://app?vid=e5a86548-6ed2-4c86-ba8a-5810a3e410c8"},"vehicle_type_id":"4","last_reported":1774120529,"current_range_meters":3200,"station_id":"ce4bgk12rcd13ifvqbi0","pricing_plan_id":"cebpf4jnsgd1na2vs0mg"},{"bike_id":"baed2ec0-7f97-46e7-a607-bf2003f3ebc4","system_id":"levelo_inurba_marseille","lat":43.290049,"lon":5.356103,"is_reserved":false,"is_disabled":false,"rental_uris":{"android":"levelo://app?vid=baed2ec0-7f97-46e7-a607-bf2003f3ebc4","ios":"levelo://app?vid=baed2ec0-7f97-46e7-a607-bf2003f3ebc4"},"vehicle_type_id":"4","last_reported":1774120529,"current_range_meters":3200,"station_id":"ce4bhb92rcd13ifvqen0","pricing_plan_id":"cebpf4jnsgd1na2vs0mg"},{"bike_id":"9b91f71d-6123-4003-9c0b-5c859ade40e3","system_id":"levelo_inurba_marseille","lat":43.27993,"lon":5.40017,"is_reserved":false,"is_disabled":false,"rental_uris":{"android":"levelo://app?vid=9b91f71d-6123-4003-9c0b-5c859ade40e3","ios":"levelo://app?vid=9b91f71d-6123-4003-9c0b-5c859ade40e3"},"vehicle_type_id":"4","last_reported":1774120529,"current_range_meters":3200,"station_id":"ce4bho92rcd13ifvqh4g","pricing_plan_id":"cebpf4jnsgd1na2vs0mg"},{"bike_id":"4e454356-82df-4571-b819-5ebf78c09eb4","system_id":"levelo_inurba_marseille","lat":43.30153,"lon":5.38084,"is_reserved":false,"is_disabled":false,"rental_uris":{"android":"levelo://app?vid=4e454356-82df-4571-b819-5ebf78c09eb4","ios":"levelo://app?vid=4e454356-82df-4571-b819-5ebf78c09eb4"},"vehicle_type_id":"4","last_reported":1774120529,"current_range_meters":3200,"station_id":"ce4bgjp2rcd13ifvqbh0","pricing_plan_id":"cebpf4jnsgd1na2vs0mg"},{"bike_id":"89ad46cf-ad84-4e5e-be57-87ac2cebe69c","system_id":"levelo_inurba_marseille","lat":43.28476,"lon":5.484,"is_reserved":false,"is_disabled":false,"rental_uris":{"android":"levelo://app?vid=89ad46cf-ad84-4e5e-be57-87ac2cebe69c","ios":"levelo://app?vid=89ad46cf-ad84-4e5e-be57-87ac2cebe69c"},"vehicle_type_id":"4","last_reported":1774120529,"current_range_meters":3200,"station_id":"st_d3svhcjqgbts73a3dn0g","pricing_plan_id":"cebpf4jnsgd1na2vs0mg"},{"bike_id":"c13bb1a3-ca9f-4f81-bcdb-1284f0136901","system_id":"levelo_inurba_marseille","lat":43.28934,"lon":5.36627,"is_reserved":false,"is_disabled":false,"rental_uris":{"android":"levelo://app?vid=c13bb1a3-ca9f-4f81-bcdb-1284f0136901","ios":"levelo://app?vid=c13bb1a3-ca9f-4f81-bcdb-1284f0136901"},"vehicle_type_id":"4","last_reported":1774120529,"current_range_meters":3200,"station_id":"ce4bhap2rcd13ifvqek0","pricing_plan_id":"cebpf4jnsgd1na2vs0mg"},{"bike_id":"aa7a7ccd-84de-473c-b421-96e7bfc36d67","system_id":"levelo_inurba_marseille","lat":43.29815,"lon":5.38086,"is_reserved":false,"is_disabled":false,"rental_uris":{"android":"levelo://app?vid=aa7a7ccd-84de-473c-b421-96e7bfc36d67","ios":"levelo://app?vid=aa7a7ccd-84de-473c-b421-96e7bfc36d67"},"vehicle_type_id":"4","last_reported":1774120529,"current_range_meters":3200,"station_id":"ce4bgip2rcd13ifvqbb0","pricing_plan_id":"cebpf4jnsgd1na2vs0mg"},{"bike_id":"31838d52-f0ea-49e0-b924-40ad3488baf6","system_id":"levelo_inurba_marseille","lat":43.29984,"lon":5.371682,"is_reserved":false,"is_disabled":false,"rental_uris":{"android":"levelo://app?vid=31838d52-f0ea-49e0-b924-40ad3488baf6","ios":"levelo://app?vid=31838d52-f0ea-49e0-b924-40ad3488baf6"},"vehicle_type_id":"4","last_reported":1774120529,"current_range_meters":3200,"station_id":"ce4bgr92rcd13ifvqc7g","pricing_plan_id":"cebpf4jnsgd1na2vs0mg"},{"bike_id":"51440be5-086f-4cf0-82c4-973508b05be1","system_id":"levelo_inurba_marseille","lat":43.281597,"lon":5.426585,"is_reserved":false,"is_disabled":false,"rental_uris":{"android":"levelo://app?vid=51440be5-086f-4cf0-82c4-973508b05be1","ios":"levelo://app?vid=51440be5-086f-4cf0-82c4-973508b05be1"},"vehicle_type_id":"4","last_reported":1774120529,"current_range_meters":3200,"station_id":"ce4bhnh2rcd13ifvqgug","pricing_plan_id":"cebpf4jnsgd1na2vs0mg"},{"bike_id":"203a8e47-8cdd-4a3c-b132-e62f5d6c942e","system_id":"levelo_inurba_marseille","lat":43.28096,"lon":5.37843,"is_reserved":false,"is_disabled":false,"rental_uris":{"android":"levelo://app?vid=203a8e47-8cdd-4a3c-b132-e62f5d6c942e","ios":"levelo://app?vid=203a8e47-8cdd-4a3c-b132-e62f5d6c942e"},"vehicle_type_id":"4","last_reported":1774120529,"current_range_meters":3200,"station_id":"ce4bha12rcd13ifvqee0","pricing_plan_id":"cebpf4jnsgd1na2vs0mg"},{"bike_id":"ac656c46-4691-458f-95ae-06026bff305e","system_id":"levelo_inurba_marseille","lat":43.2816,"lon":5.42648,"is_reserved":false,"is_disabled":false,"rental_uris":{"android":"levelo://app?vid=ac656c46-4691-458f-95ae-06026bff305e","ios":"levelo://app?vid=ac656c46-4691-458f-95ae-06026bff305e"},"vehicle_type_id":"4","last_reported":1774120529,"current_range_meters":3600,"station_id":"ce4bhnh2rcd13ifvqgug","pricing_plan_id":"cebpf4jnsgd1na2vs0mg"},{"bike_id":"53f48266-4564-420b-96ab-d243233055dc","system_id":"levelo_inurba_marseille","lat":43.28482,"lon":5.48392,"is_reserved":false,"is_disabled":false,"rental_uris":{"android":"levelo://app?vid=53f48266-4564-420b-96ab-d243233055dc","ios":"levelo://app?vid=53f48266-4564-420b-96ab-d243233055dc"},"vehicle_type_id":"4","last_reported":1774120529,"current_range_meters":3600,"station_id":"","pricing_plan_id":"cebpf4jnsgd1na2vs0mg"},{"bike_id":"0f699794-8202-4161-a052-1d39a341c5fa","system_id":"levelo_inurba_marseille","lat":43.31192,"lon":5.38714,"is_reserved":false,"is_disabled":true,"rental_uris":{"android":"levelo://app?vid=0f699794-8202-4161-a052-1d39a341c5fa","ios":"levelo://app?vid=0f699794-8202-4161-a052-1d39a341c5fa"},"vehicle_type_id":"4","last_reported":1774120529,"current_range_meters":3600,"station_id":"ce4bgv12rcd13ifvqcp0","pricing_plan_id":"cebpf4jnsgd1na2vs0mg"},{"bike_id":"248539f1-1dbd-4678-b58c-e7849287fdd5","system_id":"levelo_inurba_marseille","lat":43.26379,"lon":5.41081,"is_reserved":false,"is_disabled":false,"rental_uris":{"android":"levelo://app?vid=248539f1-1dbd-4678-b58c-e7849287fdd5","ios":"levelo://app?vid=248539f1-1dbd-4678-b58c-e7849287fdd5"},"vehicle_type_id":"4","last_reported":1774120529,"current_range_meters":3600,"station_id":"st_d4e5ca6na9uc73bfl5fg","pricing_plan_id":"cebpf4jnsgd1na2vs0mg"},{"bike_id":"25711bef-13f9-48fd-8f33-592148b8dc65","system_id":"levelo_inurba_marseille","lat":43.25337,"lon":5.42171,"is_reserved":false,"is_disabled":false,"rental_uris":{"android":"levelo://app?vid=25711bef-13f9-48fd-8f33-592148b8dc65","ios":"levelo://app?vid=25711bef-13f9-48fd-8f33-592148b8dc65"},"vehicle_type_id":"4","last_reported":1774120529,"current_range_meters":3600,"station_id":"st_d2m65c5bi1j21697t3ng","pricing_plan_id":"cebpf4jnsgd1na2vs0mg"},{"bike_id":"2ace7661-384b-4e7b-8912-66996d9be7d6","system_id":"levelo_inurba_marseille","lat":43.29813,"lon":5.38088,"is_reserved":false,"is_disabled":false,"rental_uris":{"android":"levelo://app?vid=2ace7661-384b-4e7b-8912-66996d9be7d6","ios":"levelo://app?vid=2ace7661-384b-4e7b-8912-66996d9be7d6"},"vehicle_type_id":"4","last_reported":1774120529,"current_range_meters":3600,"station_id":"ce4bgip2rcd13ifvqbb0","pricing_plan_id":"cebpf4jnsgd1na2vs0mg"},{"bike_id":"e4f7ba63-44e4-4dee-b924-536a5aa921f1","system_id":"levelo_inurba_marseille","lat":43.2894,"lon":5.3664,"is_reserved":false,"is_disabled":false,"rental_uris":{"android":"levelo://app?vid=e4f7ba63-44e4-4dee-b924-536a5aa921f1","ios":"levelo://app?vid=e4f7ba63-44e4-4dee-b924-536a5aa921f1"},"vehicle_type_id":"4","last_reported":1774120529,"current_range_meters":3600,"station_id":"ce4bhap2rcd13ifvqek0","pricing_plan_id":"cebpf4jnsgd1na2vs0mg"},{"bike_id":"f699a4c8-99ae-4235-bb5d-e7c3f767f7f2","system_id":"levelo_inurba_marseille","lat":43.29539,"lon":5.38544,"is_reserved":false,"is_disabled":false,"rental_uris":{"android":"levelo://app?vid=f699a4c8-99ae-4235-bb5d-e7c3f767f7f2","ios":"levelo://app?vid=f699a4c8-99ae-4235-bb5d-e7c3f767f7f2"},"vehicle_type_id":"4","last_reported":1774120529,"current_range_meters":3600,"station_id":"ce4bgih2rcd13ifvqba0","pricing_plan_id":"cebpf4jnsgd1na2vs0mg"},{"bike_id":"424c852d-9e1f-4f69-b912-8d48ce1d2165","system_id":"levelo_inurba_marseille","lat":43.30144,"lon":5.38072,"is_reserved":false,"is_disabled":false,"rental_uris":{"android":"levelo://app?vid=424c852d-9e1f-4f69-b912-8d48ce1d2165","ios":"levelo://app?vid=424c852d-9e1f-4f69-b912-8d48ce1d2165"},"vehicle_type_id":"4","last_reported":1774120529,"current_range_meters":3600,"station_id":"ce4bgjp2rcd13ifvqbh0","pricing_plan_id":"cebpf4jnsgd1na2vs0mg"},{"bike_id":"11803c7b-9de3-4410-88ca-fe9184da6cc1","system_id":"levelo_inurba_marseille","lat":43.29302,"lon":5.37467,"is_reserved":false,"is_disabled":false,"rental_uris":{"android":"levelo://app?vid=11803c7b-9de3-4410-88ca-fe9184da6cc1","ios":"levelo://app?vid=11803c7b-9de3-4410-88ca-fe9184da6cc1"},"vehicle_type_id":"4","last_reported":1774120529,"current_range_meters":3600,"station_id":"ce4bgi12rcd13ifvqb70","pricing_plan_id":"cebpf4jnsgd1na2vs0mg"},{"bike_id":"dc08f85e-d3ab-403a-b06d-9c0b68fdf0bc","system_id":"levelo_inurba_marseille","lat":43.28482,"lon":5.38404,"is_reserved":false,"is_disabled":false,"rental_uris":{"android":"levelo://app?vid=dc08f85e-d3ab-403a-b06d-9c0b68fdf0bc","ios":"levelo://app?vid=dc08f85e-d3ab-403a-b06d-9c0b68fdf0bc"},"vehicle_type_id":"4","last_reported":1774120529,"current_range_meters":3600,"station_id":"ce4bh512rcd13ifvqe3g","pricing_plan_id":"cebpf4jnsgd1na2vs0mg"},{"bike_id":"99d13469-e232-496b-a66b-9a7850d6300c","system_id":"levelo_inurba_marseille","lat":43.29532,"lon":5.38554,"is_reserved":false,"is_disabled":false,"rental_uris":{"android":"levelo://app?vid=99d13469-e232-496b-a66b-9a7850d6300c","ios":"levelo://app?vid=99d13469-e232-496b-a66b-9a7850d6300c"},"vehicle_type_id":"4","last_reported":1774120529,"current_range_meters":3600,"station_id":"ce4bgih2rcd13ifvqba0","pricing_plan_id":"cebpf4jnsgd1na2vs0mg"},{"bike_id":"9ee68e06-0635-4371-af37-6180843dfee0","system_id":"levelo_inurba_marseille","lat":43.29377,"lon":5.37831,"is_reserved":false,"is_disabled":false,"rental_uris":{"android":"levelo://app?vid=9ee68e06-0635-4371-af37-6180843dfee0","ios":"levelo://app?vid=9ee68e06-0635-4371-af37-6180843dfee0"},"vehicle_type_id":"4","last_reported":1774120529,"current_range_meters":3600,"station_id":"ce4bgjh2rcd13ifvqbf0","pricing_plan_id":"cebpf4jnsgd1na2vs0mg"},{"bike_id":"a96bed03-4bc3-412a-9ef2-84e473f7d464","system_id":"levelo_inurba_marseille","lat":43.27183,"lon":5.41001,"is_reserved":false,"is_disabled":false,"rental_uris":{"android":"levelo://app?vid=a96bed03-4bc3-412a-9ef2-84e473f7d464","ios":"levelo://app?vid=a96bed03-4bc3-412a-9ef2-84e473f7d464"},"vehicle_type_id":"4","last_reported":1774120529,"current_range_meters":3600,"station_id":"ce4bhl12rcd13ifvqgf0","pricing_plan_id":"cebpf4jnsgd1na2vs0mg"},{"bike_id":"1ce5e37f-17dd-4e87-8ae4-c1155ddfc662","system_id":"levelo_inurba_marseille","lat":43.31333,"lon":5.39691,"is_reserved":false,"is_disabled":false,"rental_uris":{"android":"levelo://app?vid=1ce5e37f-17dd-4e87-8ae4-c1155ddfc662","ios":"levelo://app?vid=1ce5e37f-17dd-4e87-8ae4-c1155ddfc662"},"vehicle_type_id":"4","last_reported":1774120529,"current_range_meters":3600,"station_id":"ce4bgvp2rcd13ifvqcu0","pricing_plan_id":"cebpf4jnsgd1na2vs0mg"},{"bike_id":"77f8a8b1-2bdb-42b0-adbe-1a8ec0f6e7dc","system_id":"levelo_inurba_marseille","lat":43.29838,"lon":5.44015,"is_reserved":false,"is_disabled":false,"rental_uris":{"android":"levelo://app?vid=77f8a8b1-2bdb-42b0-adbe-1a8ec0f6e7dc","ios":"levelo://app?vid=77f8a8b1-2bdb-42b0-adbe-1a8ec0f6e7dc"},"vehicle_type_id":"4","last_reported":1774120529,"current_range_meters":4000,"station_id":"","pricing_plan_id":"cebpf4jnsgd1na2vs0mg"},{"bike_id":"95a7bd34-81f9-45d0-a1c8-bb12e2415b49","system_id":"levelo_inurba_marseille","lat":43.29917,"lon":5.38165,"is_reserved":false,"is_disabled":false,"rental_uris":{"android":"levelo://app?vid=95a7bd34-81f9-45d0-a1c8-bb12e2415b49","ios":"levelo://app?vid=95a7bd34-81f9-45d0-a1c8-bb12e2415b49"},"vehicle_type_id":"4","last_reported":1774120529,"current_range_meters":4000,"station_id":"ce4bgj12rcd13ifvqbc0","pricing_plan_id":"cebpf4jnsgd1na2vs0mg"},{"bike_id":"8a4ee7b7-fcbb-4e7a-a2d1-3d56548ff53c","system_id":"levelo_inurba_marseille","lat":43.29102,"lon":5.3814,"is_reserved":false,"is_disabled":false,"rental_uris":{"android":"levelo://app?vid=8a4ee7b7-fcbb-4e7a-a2d1-3d56548ff53c","ios":"levelo://app?vid=8a4ee7b7-fcbb-4e7a-a2d1-3d56548ff53c"},"vehicle_type_id":"4","last_reported":1774120529,"current_range_meters":4000,"station_id":"ce4bh512rcd13ifvqe2g","pricing_plan_id":"cebpf4jnsgd1na2vs0mg"},{"bike_id":"f7980c2b-e862-49a2-ac35-df8e5d5ffd4e","system_id":"levelo_inurba_marseille","lat":43.30799,"lon":5.38151,"is_reserved":false,"is_disabled":false,"rental_uris":{"android":"levelo://app?vid=f7980c2b-e862-49a2-ac35-df8e5d5ffd4e","ios":"levelo://app?vid=f7980c2b-e862-49a2-ac35-df8e5d5ffd4e"},"vehicle_type_id":"4","last_reported":1774120529,"current_range_meters":4000,"station_id":"ce4bgt12rcd13ifvqce0","pricing_plan_id":"cebpf4jnsgd1na2vs0mg"},{"bike_id":"8aeb1ffc-b432-4235-8304-c0a4c58e7fe3","system_id":"levelo_inurba_marseille","lat":43.29763,"lon":5.38386,"is_reserved":false,"is_disabled":false,"rental_uris":{"android":"levelo://app?vid=8aeb1ffc-b432-4235-8304-c0a4c58e7fe3","ios":"levelo://app?vid=8aeb1ffc-b432-4235-8304-c0a4c58e7fe3"},"vehicle_type_id":"4","last_reported":1774120529,"current_range_meters":4000,"station_id":"","pricing_plan_id":"cebpf4jnsgd1na2vs0mg"},{"bike_id":"5512856f-5d20-4041-85d2-6e2274df0061","system_id":"levelo_inurba_marseille","lat":43.29909,"lon":5.3814,"is_reserved":false,"is_disabled":false,"rental_uris":{"android":"levelo://app?vid=5512856f-5d20-4041-85d2-6e2274df0061","ios":"levelo://app?vid=5512856f-5d20-4041-85d2-6e2274df0061"},"vehicle_type_id":"4","last_reported":1774120529,"current_range_meters":4000,"station_id":"ce4bgj12rcd13ifvqbc0","pricing_plan_id":"cebpf4jnsgd1na2vs0mg"},{"bike_id":"f4ff74cb-50d2-4f22-9ae0-4b029eff5cb0","system_id":"levelo_inurba_marseille","lat":43.28935,"lon":5.36632,"is_reserved":false,"is_disabled":false,"rental_uris":{"android":"levelo://app?vid=f4ff74cb-50d2-4f22-9ae0-4b029eff5cb0","ios":"levelo://app?vid=f4ff74cb-50d2-4f22-9ae0-4b029eff5cb0"},"vehicle_type_id":"4","last_reported":1774120529,"current_range_meters":4000,"station_id":"ce4bhap2rcd13ifvqek0","pricing_plan_id":"cebpf4jnsgd1na2vs0mg"},{"bike_id":"1f5dd4cf-bb80-40a2-9f80-c9e0e8028bb2","system_id":"levelo_inurba_marseille","lat":43.29271,"lon":5.38441,"is_reserved":false,"is_disabled":false,"rental_uris":{"android":"levelo://app?vid=1f5dd4cf-bb80-40a2-9f80-c9e0e8028bb2","ios":"levelo://app?vid=1f5dd4cf-bb80-40a2-9f80-c9e0e8028bb2"},"vehicle_type_id":"4","last_reported":1774120529,"current_range_meters":4000,"station_id":"ce4bh692rcd13ifvqea0","pricing_plan_id":"cebpf4jnsgd1na2vs0mg"},{"bike_id":"4b5952b1-ecbf-4123-99d1-57962bc5e009","system_id":"levelo_inurba_marseille","lat":43.30326,"lon":5.36896,"is_reserved":false,"is_disabled":false,"rental_uris":{"android":"levelo://app?vid=4b5952b1-ecbf-4123-99d1-57962bc5e009","ios":"levelo://app?vid=4b5952b1-ecbf-4123-99d1-57962bc5e009"},"vehicle_type_id":"4","last_reported":1774120529,"current_range_meters":4000,"station_id":"ce4bgqh2rcd13ifvqc5g","pricing_plan_id":"cebpf4jnsgd1na2vs0mg"},{"bike_id":"dc1daa49-4f5a-40ff-a0f1-552a749f4de3","system_id":"levelo_inurba_marseille","lat":43.25114,"lon":5.40326,"is_reserved":false,"is_disabled":false,"rental_uris":{"android":"levelo://app?vid=dc1daa49-4f5a-40ff-a0f1-552a749f4de3","ios":"levelo://app?vid=dc1daa49-4f5a-40ff-a0f1-552a749f4de3"},"vehicle_type_id":"4","last_reported":1774120529,"current_range_meters":4000,"station_id":"ce4bhlh2rcd13ifvqgig","pricing_plan_id":"cebpf4jnsgd1na2vs0mg"},{"bike_id":"dcb7fa85-9576-461b-9db4-bfb93259aa75","system_id":"levelo_inurba_marseille","lat":43.2552,"lon":5.37674,"is_reserved":false,"is_disabled":true,"rental_uris":{"android":"levelo://app?vid=dcb7fa85-9576-461b-9db4-bfb93259aa75","ios":"levelo://app?vid=dcb7fa85-9576-461b-9db4-bfb93259aa75"},"vehicle_type_id":"4","last_reported":1774120529,"current_range_meters":4000,"station_id":"ce4bhh12rcd13ifvqff0","pricing_plan_id":"cebpf4jnsgd1na2vs0mg"},{"bike_id":"0f771cd3-1d0f-48ec-9e98-e612640fd9b2","system_id":"levelo_inurba_marseille","lat":43.2951,"lon":5.39035,"is_reserved":false,"is_disabled":false,"rental_uris":{"android":"levelo://app?vid=0f771cd3-1d0f-48ec-9e98-e612640fd9b2","ios":"levelo://app?vid=0f771cd3-1d0f-48ec-9e98-e612640fd9b2"},"vehicle_type_id":"4","last_reported":1774120529,"current_range_meters":4000,"station_id":"ce4bh3p2rcd13ifvqdp0","pricing_plan_id":"cebpf4jnsgd1na2vs0mg"},{"bike_id":"9bedb971-6887-4d43-88c8-1762430f453d","system_id":"levelo_inurba_marseille","lat":43.24653,"lon":5.38156,"is_reserved":false,"is_disabled":true,"rental_uris":{"android":"levelo://app?vid=9bedb971-6887-4d43-88c8-1762430f453d","ios":"levelo://app?vid=9bedb971-6887-4d43-88c8-1762430f453d"},"vehicle_type_id":"4","last_reported":1774120529,"current_range_meters":4000,"station_id":"ce4bhih2rcd13ifvqfr0","pricing_plan_id":"cebpf4jnsgd1na2vs0mg"},{"bike_id":"2512d978-becd-4bb0-8805-369c48249225","system_id":"levelo_inurba_marseille","lat":43.30641,"lon":5.40065,"is_reserved":false,"is_disabled":false,"rental_uris":{"android":"levelo://app?vid=2512d978-becd-4bb0-8805-369c48249225","ios":"levelo://app?vid=2512d978-becd-4bb0-8805-369c48249225"},"vehicle_type_id":"4","last_reported":1774120529,"current_range_meters":4000,"station_id":"ce4bh112rcd13ifvqda0","pricing_plan_id":"cebpf4jnsgd1na2vs0mg"},{"bike_id":"cdb77845-f02b-4ab3-af2b-bfe8c30b9184","system_id":"levelo_inurba_marseille","lat":43.29274,"lon":5.36842,"is_reserved":false,"is_disabled":false,"rental_uris":{"android":"levelo://app?vid=cdb77845-f02b-4ab3-af2b-bfe8c30b9184","ios":"levelo://app?vid=cdb77845-f02b-4ab3-af2b-bfe8c30b9184"},"vehicle_type_id":"4","last_reported":1774120529,"current_range_meters":4000,"station_id":"ce4bhbp2rcd13ifvqesg","pricing_plan_id":"cebpf4jnsgd1na2vs0mg"},{"bike_id":"227eba85-8211-4d0d-bd09-d4a734cfd50d","system_id":"levelo_inurba_marseille","lat":43.2953,"lon":5.38546,"is_reserved":false,"is_disabled":false,"rental_uris":{"android":"levelo://app?vid=227eba85-8211-4d0d-bd09-d4a734cfd50d","ios":"levelo://app?vid=227eba85-8211-4d0d-bd09-d4a734cfd50d"},"vehicle_type_id":"4","last_reported":1774120529,"current_range_meters":4000,"station_id":"ce4bgih2rcd13ifvqba0","pricing_plan_id":"cebpf4jnsgd1na2vs0mg"},{"bike_id":"7fa64d84-cd92-4f02-a79d-c348b129b15f","system_id":"levelo_inurba_marseille","lat":43.24171,"lon":5.36404,"is_reserved":false,"is_disabled":false,"rental_uris":{"android":"levelo://app?vid=7fa64d84-cd92-4f02-a79d-c348b129b15f","ios":"levelo://app?vid=7fa64d84-cd92-4f02-a79d-c348b129b15f"},"vehicle_type_id":"4","last_reported":1774120529,"current_range_meters":4000,"station_id":"cpo36qri1sfpv3e86is0","pricing_plan_id":"cebpf4jnsgd1na2vs0mg"},{"bike_id":"a6c38d9d-56c7-4c82-b56c-7005a81fc533","system_id":"levelo_inurba_marseille","lat":43.29527,"lon":5.39041,"is_reserved":false,"is_disabled":false,"rental_uris":{"android":"levelo://app?vid=a6c38d9d-56c7-4c82-b56c-7005a81fc533","ios":"levelo://app?vid=a6c38d9d-56c7-4c82-b56c-7005a81fc533"},"vehicle_type_id":"4","last_reported":1774120529,"current_range_meters":4000,"station_id":"ce4bh3p2rcd13ifvqdp0","pricing_plan_id":"cebpf4jnsgd1na2vs0mg"},{"bike_id":"8004ded8-b47c-4320-89dd-be6cc56048da","system_id":"levelo_inurba_marseille","lat":43.2953,"lon":5.38546,"is_reserved":false,"is_disabled":false,"rental_uris":{"android":"levelo://app?vid=8004ded8-b47c-4320-89dd-be6cc56048da","ios":"levelo://app?vid=8004ded8-b47c-4320-89dd-be6cc56048da"},"vehicle_type_id":"4","last_reported":1774120529,"current_range_meters":4000,"station_id":"ce4bgih2rcd13ifvqba0","pricing_plan_id":"cebpf4jnsgd1na2vs0mg"},{"bike_id":"76e3a855-6bf4-460f-ac74-ec562db94e69","system_id":"levelo_inurba_marseille","lat":43.30808,"lon":5.39996,"is_reserved":false,"is_disabled":false,"rental_uris":{"android":"levelo://app?vid=76e3a855-6bf4-460f-ac74-ec562db94e69","ios":"levelo://app?vid=76e3a855-6bf4-460f-ac74-ec562db94e69"},"vehicle_type_id":"4","last_reported":1774120529,"current_range_meters":4000,"station_id":"","pricing_plan_id":"cebpf4jnsgd1na2vs0mg"},{"bike_id":"9ae4e98e-6d45-456e-a68a-69cf2ca20aa5","system_id":"levelo_inurba_marseille","lat":43.29293,"lon":5.37463,"is_reserved":false,"is_disabled":false,"rental_uris":{"android":"levelo://app?vid=9ae4e98e-6d45-456e-a68a-69cf2ca20aa5","ios":"levelo://app?vid=9ae4e98e-6d45-456e-a68a-69cf2ca20aa5"},"vehicle_type_id":"4","last_reported":1774120529,"current_range_meters":4000,"station_id":"ce4bgi12rcd13ifvqb70","pricing_plan_id":"cebpf4jnsgd1na2vs0mg"},{"bike_id":"fdc655d4-8c99-4d97-9c1e-46ec98ef8979","system_id":"levelo_inurba_marseille","lat":43.28627,"lon":5.35108,"is_reserved":false,"is_disabled":true,"rental_uris":{"android":"levelo://app?vid=fdc655d4-8c99-4d97-9c1e-46ec98ef8979","ios":"levelo://app?vid=fdc655d4-8c99-4d97-9c1e-46ec98ef8979"},"vehicle_type_id":"4","last_reported":1774120529,"current_range_meters":4400,"station_id":"ce4bhch2rcd13ifvqeug","pricing_plan_id":"cebpf4jnsgd1na2vs0mg"},{"bike_id":"5e225217-de8a-4482-84cf-781419aa4c74","system_id":"levelo_inurba_marseille","lat":43.27619,"lon":5.36104,"is_reserved":false,"is_disabled":false,"rental_uris":{"android":"levelo://app?vid=5e225217-de8a-4482-84cf-781419aa4c74","ios":"levelo://app?vid=5e225217-de8a-4482-84cf-781419aa4c74"},"vehicle_type_id":"4","last_reported":1774120529,"current_range_meters":4400,"station_id":"ce4bgj92rcd13ifvqbe0","pricing_plan_id":"cebpf4jnsgd1na2vs0mg"},{"bike_id":"2831fe83-1d91-4777-9f7c-b943198c31e0","system_id":"levelo_inurba_marseille","lat":43.29532,"lon":5.3854,"is_reserved":false,"is_disabled":false,"rental_uris":{"android":"levelo://app?vid=2831fe83-1d91-4777-9f7c-b943198c31e0","ios":"levelo://app?vid=2831fe83-1d91-4777-9f7c-b943198c31e0"},"vehicle_type_id":"4","last_reported":1774120529,"current_range_meters":4400,"station_id":"ce4bgih2rcd13ifvqba0","pricing_plan_id":"cebpf4jnsgd1na2vs0mg"},{"bike_id":"27fd4ec1-3184-4c63-89f0-11ca716cbcd7","system_id":"levelo_inurba_marseille","lat":43.29099,"lon":5.38132,"is_reserved":false,"is_disabled":false,"rental_uris":{"android":"levelo://app?vid=27fd4ec1-3184-4c63-89f0-11ca716cbcd7","ios":"levelo://app?vid=27fd4ec1-3184-4c63-89f0-11ca716cbcd7"},"vehicle_type_id":"4","last_reported":1774120529,"current_range_meters":4400,"station_id":"ce4bh512rcd13ifvqe2g","pricing_plan_id":"cebpf4jnsgd1na2vs0mg"},{"bike_id":"3f12e940-de87-4cda-8d19-b5ddb45a8f36","system_id":"levelo_inurba_marseille","lat":43.23191,"lon":5.35557,"is_reserved":false,"is_disabled":false,"rental_uris":{"android":"levelo://app?vid=3f12e940-de87-4cda-8d19-b5ddb45a8f36","ios":"levelo://app?vid=3f12e940-de87-4cda-8d19-b5ddb45a8f36"},"vehicle_type_id":"4","last_reported":1774120529,"current_range_meters":4400,"station_id":"ce4bhu92rcd13ifvqi70","pricing_plan_id":"cebpf4jnsgd1na2vs0mg"},{"bike_id":"f3414e99-2d7c-4b03-96db-df8c1c6d3f2b","system_id":"levelo_inurba_marseille","lat":43.28478,"lon":5.48382,"is_reserved":false,"is_disabled":false,"rental_uris":{"android":"levelo://app?vid=f3414e99-2d7c-4b03-96db-df8c1c6d3f2b","ios":"levelo://app?vid=f3414e99-2d7c-4b03-96db-df8c1c6d3f2b"},"vehicle_type_id":"4","last_reported":1774120529,"current_range_meters":4400,"station_id":"","pricing_plan_id":"cebpf4jnsgd1na2vs0mg"},{"bike_id":"4fe19a0d-a8f9-4149-bb70-9f202169eae9","system_id":"levelo_inurba_marseille","lat":43.28483,"lon":5.38407,"is_reserved":false,"is_disabled":false,"rental_uris":{"android":"levelo://app?vid=4fe19a0d-a8f9-4149-bb70-9f202169eae9","ios":"levelo://app?vid=4fe19a0d-a8f9-4149-bb70-9f202169eae9"},"vehicle_type_id":"4","last_reported":1774120529,"current_range_meters":4400,"station_id":"ce4bh512rcd13ifvqe3g","pricing_plan_id":"cebpf4jnsgd1na2vs0mg"},{"bike_id":"f8a3b231-4dcf-4051-ae11-76620efbb058","system_id":"levelo_inurba_marseille","lat":43.29189,"lon":5.39311,"is_reserved":false,"is_disabled":false,"rental_uris":{"android":"levelo://app?vid=f8a3b231-4dcf-4051-ae11-76620efbb058","ios":"levelo://app?vid=f8a3b231-4dcf-4051-ae11-76620efbb058"},"vehicle_type_id":"4","last_reported":1774120529,"current_range_meters":4400,"station_id":"ce4bh192rcd13ifvqdd0","pricing_plan_id":"cebpf4jnsgd1na2vs0mg"},{"bike_id":"a8c8307b-e1e9-4950-a785-578e1a82f805","system_id":"levelo_inurba_marseille","lat":43.3127,"lon":5.37834,"is_reserved":false,"is_disabled":false,"rental_uris":{"android":"levelo://app?vid=a8c8307b-e1e9-4950-a785-578e1a82f805","ios":"levelo://app?vid=a8c8307b-e1e9-4950-a785-578e1a82f805"},"vehicle_type_id":"4","last_reported":1774120529,"current_range_meters":4400,"station_id":"","pricing_plan_id":"cebpf4jnsgd1na2vs0mg"},{"bike_id":"962e3e51-db50-4f61-a079-9b1c6a103eb5","system_id":"levelo_inurba_marseille","lat":43.30963,"lon":5.36814,"is_reserved":false,"is_disabled":false,"rental_uris":{"android":"levelo://app?vid=962e3e51-db50-4f61-a079-9b1c6a103eb5","ios":"levelo://app?vid=962e3e51-db50-4f61-a079-9b1c6a103eb5"},"vehicle_type_id":"4","last_reported":1774120529,"current_range_meters":4400,"station_id":"","pricing_plan_id":"cebpf4jnsgd1na2vs0mg"},{"bike_id":"7f50c553-8ef4-46fd-be9e-3636a7cc9d25","system_id":"levelo_inurba_marseille","lat":43.29319,"lon":5.37455,"is_reserved":false,"is_disabled":false,"rental_uris":{"android":"levelo://app?vid=7f50c553-8ef4-46fd-be9e-3636a7cc9d25","ios":"levelo://app?vid=7f50c553-8ef4-46fd-be9e-3636a7cc9d25"},"vehicle_type_id":"4","last_reported":1774120529,"current_range_meters":4400,"station_id":"ce4bgi12rcd13ifvqb70","pricing_plan_id":"cebpf4jnsgd1na2vs0mg"},{"bike_id":"05141216-9ddc-4c6a-866b-a19f2526e891","system_id":"levelo_inurba_marseille","lat":43.29181,"lon":5.37154,"is_reserved":false,"is_disabled":false,"rental_uris":{"android":"levelo://app?vid=05141216-9ddc-4c6a-866b-a19f2526e891","ios":"levelo://app?vid=05141216-9ddc-4c6a-866b-a19f2526e891"},"vehicle_type_id":"4","last_reported":1774120529,"current_range_meters":4400,"station_id":"ce4bha92rcd13ifvqeh0","pricing_plan_id":"cebpf4jnsgd1na2vs0mg"},{"bike_id":"e4acb8b9-b537-4dd8-b4a0-a4757ebaf47c","system_id":"levelo_inurba_marseille","lat":43.29264,"lon":5.3844,"is_reserved":false,"is_disabled":false,"rental_uris":{"android":"levelo://app?vid=e4acb8b9-b537-4dd8-b4a0-a4757ebaf47c","ios":"levelo://app?vid=e4acb8b9-b537-4dd8-b4a0-a4757ebaf47c"},"vehicle_type_id":"4","last_reported":1774120529,"current_range_meters":4400,"station_id":"ce4bh692rcd13ifvqea0","pricing_plan_id":"cebpf4jnsgd1na2vs0mg"},{"bike_id":"2d9e4754-9b17-40b5-bbeb-5b1c9c5bbe64","system_id":"levelo_inurba_marseille","lat":43.30141,"lon":5.38789,"is_reserved":false,"is_disabled":true,"rental_uris":{"android":"levelo://app?vid=2d9e4754-9b17-40b5-bbeb-5b1c9c5bbe64","ios":"levelo://app?vid=2d9e4754-9b17-40b5-bbeb-5b1c9c5bbe64"},"vehicle_type_id":"4","last_reported":1774120529,"current_range_meters":4400,"station_id":"ce4bghh2rcd13ifvqb60","pricing_plan_id":"cebpf4jnsgd1na2vs0mg"},{"bike_id":"7ba80008-60b8-4bf7-9180-542631266876","system_id":"levelo_inurba_marseille","lat":43.33541,"lon":5.37459,"is_reserved":false,"is_disabled":false,"rental_uris":{"android":"levelo://app?vid=7ba80008-60b8-4bf7-9180-542631266876","ios":"levelo://app?vid=7ba80008-60b8-4bf7-9180-542631266876"},"vehicle_type_id":"4","last_reported":1774120529,"current_range_meters":4400,"station_id":"st_d46tts09ee8s73dlu43g","pricing_plan_id":"cebpf4jnsgd1na2vs0mg"},{"bike_id":"4a6b88a9-38c4-4f3f-b39f-318f899cee85","system_id":"levelo_inurba_marseille","lat":43.24541,"lon":5.39528,"is_reserved":false,"is_disabled":false,"rental_uris":{"android":"levelo://app?vid=4a6b88a9-38c4-4f3f-b39f-318f899cee85","ios":"levelo://app?vid=4a6b88a9-38c4-4f3f-b39f-318f899cee85"},"vehicle_type_id":"4","last_reported":1774120529,"current_range_meters":4400,"station_id":"ce4bhlp2rcd13ifvqgjg","pricing_plan_id":"cebpf4jnsgd1na2vs0mg"},{"bike_id":"8aae69ee-1386-423b-94ef-ac35e377a153","system_id":"levelo_inurba_marseille","lat":43.29866,"lon":5.36533,"is_reserved":false,"is_disabled":false,"rental_uris":{"android":"levelo://app?vid=8aae69ee-1386-423b-94ef-ac35e377a153","ios":"levelo://app?vid=8aae69ee-1386-423b-94ef-ac35e377a153"},"vehicle_type_id":"4","last_reported":1774120529,"current_range_meters":4400,"station_id":"","pricing_plan_id":"cebpf4jnsgd1na2vs0mg"},{"bike_id":"adc5ac07-5147-43c6-b3e9-46b364b058d3","system_id":"levelo_inurba_marseille","lat":43.21756,"lon":5.34609,"is_reserved":false,"is_disabled":true,"rental_uris":{"android":"levelo://app?vid=adc5ac07-5147-43c6-b3e9-46b364b058d3","ios":"levelo://app?vid=adc5ac07-5147-43c6-b3e9-46b364b058d3"},"vehicle_type_id":"4","last_reported":1774120529,"current_range_meters":4400,"station_id":"st_cvj6r9ubvosntc0bgbag","pricing_plan_id":"cebpf4jnsgd1na2vs0mg"},{"bike_id":"4b094dc8-1587-4981-b269-aaaf395a837d","system_id":"levelo_inurba_marseille","lat":43.29305,"lon":5.37481,"is_reserved":false,"is_disabled":false,"rental_uris":{"android":"levelo://app?vid=4b094dc8-1587-4981-b269-aaaf395a837d","ios":"levelo://app?vid=4b094dc8-1587-4981-b269-aaaf395a837d"},"vehicle_type_id":"4","last_reported":1774120529,"current_range_meters":4400,"station_id":"ce4bgi12rcd13ifvqb70","pricing_plan_id":"cebpf4jnsgd1na2vs0mg"},{"bike_id":"76e3202f-50fd-4567-8d90-9ecb0c2a894c","system_id":"levelo_inurba_marseille","lat":43.30124,"lon":5.43119,"is_reserved":false,"is_disabled":false,"rental_uris":{"android":"levelo://app?vid=76e3202f-50fd-4567-8d90-9ecb0c2a894c","ios":"levelo://app?vid=76e3202f-50fd-4567-8d90-9ecb0c2a894c"},"vehicle_type_id":"4","last_reported":1774120529,"current_range_meters":4400,"station_id":"st_d3js3co5814s73ftftug","pricing_plan_id":"cebpf4jnsgd1na2vs0mg"},{"bike_id":"a01516b7-1c3f-4a0a-932f-d34de3a8a2c5","system_id":"levelo_inurba_marseille","lat":43.29015,"lon":5.3813,"is_reserved":false,"is_disabled":false,"rental_uris":{"android":"levelo://app?vid=a01516b7-1c3f-4a0a-932f-d34de3a8a2c5","ios":"levelo://app?vid=a01516b7-1c3f-4a0a-932f-d34de3a8a2c5"},"vehicle_type_id":"4","last_reported":1774120529,"current_range_meters":4800,"station_id":"ce4bh4p2rcd13ifvqe1g","pricing_plan_id":"cebpf4jnsgd1na2vs0mg"},{"bike_id":"53663f10-c972-4dad-83a0-96ec19d2a37e","system_id":"levelo_inurba_marseille","lat":43.25066,"lon":5.38938,"is_reserved":false,"is_disabled":true,"rental_uris":{"android":"levelo://app?vid=53663f10-c972-4dad-83a0-96ec19d2a37e","ios":"levelo://app?vid=53663f10-c972-4dad-83a0-96ec19d2a37e"},"vehicle_type_id":"4","last_reported":1774120529,"current_range_meters":4800,"station_id":"ce4bhgp2rcd13ifvqfd0","pricing_plan_id":"cebpf4jnsgd1na2vs0mg"},{"bike_id":"286fba00-1c70-49c5-9491-0b3044de24cb","system_id":"levelo_inurba_marseille","lat":43.26232,"lon":5.40457,"is_reserved":false,"is_disabled":true,"rental_uris":{"android":"levelo://app?vid=286fba00-1c70-49c5-9491-0b3044de24cb","ios":"levelo://app?vid=286fba00-1c70-49c5-9491-0b3044de24cb"},"vehicle_type_id":"4","last_reported":1774120529,"current_range_meters":4800,"station_id":"ce4bhmh2rcd13ifvqgmg","pricing_plan_id":"cebpf4jnsgd1na2vs0mg"},{"bike_id":"8648ff3d-a49d-4491-be6c-bab3f9812603","system_id":"levelo_inurba_marseille","lat":43.2829,"lon":5.43834,"is_reserved":false,"is_disabled":false,"rental_uris":{"android":"levelo://app?vid=8648ff3d-a49d-4491-be6c-bab3f9812603","ios":"levelo://app?vid=8648ff3d-a49d-4491-be6c-bab3f9812603"},"vehicle_type_id":"4","last_reported":1774120529,"current_range_meters":4800,"station_id":"","pricing_plan_id":"cebpf4jnsgd1na2vs0mg"},{"bike_id":"ff3ab26e-c7cc-4409-a022-bfab8692ab65","system_id":"levelo_inurba_marseille","lat":43.3043,"lon":5.38897,"is_reserved":false,"is_disabled":false,"rental_uris":{"android":"levelo://app?vid=ff3ab26e-c7cc-4409-a022-bfab8692ab65","ios":"levelo://app?vid=ff3ab26e-c7cc-4409-a022-bfab8692ab65"},"vehicle_type_id":"4","last_reported":1774120529,"current_range_meters":4800,"station_id":"ce4bgk12rcd13ifvqbi0","pricing_plan_id":"cebpf4jnsgd1na2vs0mg"},{"bike_id":"16fe25c4-6472-47d6-882b-5ff94101fa7d","system_id":"levelo_inurba_marseille","lat":43.21193,"lon":5.35091,"is_reserved":false,"is_disabled":false,"rental_uris":{"android":"levelo://app?vid=16fe25c4-6472-47d6-882b-5ff94101fa7d","ios":"levelo://app?vid=16fe25c4-6472-47d6-882b-5ff94101fa7d"},"vehicle_type_id":"4","last_reported":1774120529,"current_range_meters":4800,"station_id":"st_cvj6sg6p6f1abm77japg","pricing_plan_id":"cebpf4jnsgd1na2vs0mg"},{"bike_id":"2cea9d46-c32a-4a24-9abe-5dc099975957","system_id":"levelo_inurba_marseille","lat":43.28504,"lon":5.48369,"is_reserved":false,"is_disabled":false,"rental_uris":{"android":"levelo://app?vid=2cea9d46-c32a-4a24-9abe-5dc099975957","ios":"levelo://app?vid=2cea9d46-c32a-4a24-9abe-5dc099975957"},"vehicle_type_id":"4","last_reported":1774120529,"current_range_meters":4800,"station_id":"st_d3svhcjqgbts73a3dn0g","pricing_plan_id":"cebpf4jnsgd1na2vs0mg"},{"bike_id":"ca151afb-cb26-49aa-aa2d-b5280c6655de","system_id":"levelo_inurba_marseille","lat":43.29629,"lon":5.38122,"is_reserved":false,"is_disabled":false,"rental_uris":{"android":"levelo://app?vid=ca151afb-cb26-49aa-aa2d-b5280c6655de","ios":"levelo://app?vid=ca151afb-cb26-49aa-aa2d-b5280c6655de"},"vehicle_type_id":"4","last_reported":1774120529,"current_range_meters":4800,"station_id":"ce4bgl12rcd13ifvqbo0","pricing_plan_id":"cebpf4jnsgd1na2vs0mg"},{"bike_id":"60e6ae26-a898-4e57-89ed-322fc8bb5c52","system_id":"levelo_inurba_marseille","lat":43.29619,"lon":5.37721,"is_reserved":false,"is_disabled":false,"rental_uris":{"android":"levelo://app?vid=60e6ae26-a898-4e57-89ed-322fc8bb5c52","ios":"levelo://app?vid=60e6ae26-a898-4e57-89ed-322fc8bb5c52"},"vehicle_type_id":"4","last_reported":1774120529,"current_range_meters":4800,"station_id":"ce4bgi92rcd13ifvqb90","pricing_plan_id":"cebpf4jnsgd1na2vs0mg"},{"bike_id":"5672f140-f178-4766-bb60-5301b26a0e4e","system_id":"levelo_inurba_marseille","lat":43.28481,"lon":5.48387,"is_reserved":false,"is_disabled":false,"rental_uris":{"android":"levelo://app?vid=5672f140-f178-4766-bb60-5301b26a0e4e","ios":"levelo://app?vid=5672f140-f178-4766-bb60-5301b26a0e4e"},"vehicle_type_id":"4","last_reported":1774120529,"current_range_meters":5600,"station_id":"","pricing_plan_id":"cebpf4jnsgd1na2vs0mg"},{"bike_id":"3a715a56-9c41-40bc-8b61-760c54e38e8d","system_id":"levelo_inurba_marseille","lat":43.24397,"lon":5.37068,"is_reserved":false,"is_disabled":false,"rental_uris":{"android":"levelo://app?vid=3a715a56-9c41-40bc-8b61-760c54e38e8d","ios":"levelo://app?vid=3a715a56-9c41-40bc-8b61-760c54e38e8d"},"vehicle_type_id":"4","last_reported":1774120529,"current_range_meters":5600,"station_id":"ce4bhhh2rcd13ifvqfk0","pricing_plan_id":"cebpf4jnsgd1na2vs0mg"},{"bike_id":"161d79ac-6fdb-4bd7-b43a-3fd58ebc6f5f","system_id":"levelo_inurba_marseille","lat":43.29567,"lon":5.39983,"is_reserved":false,"is_disabled":false,"rental_uris":{"android":"levelo://app?vid=161d79ac-6fdb-4bd7-b43a-3fd58ebc6f5f","ios":"levelo://app?vid=161d79ac-6fdb-4bd7-b43a-3fd58ebc6f5f"},"vehicle_type_id":"4","last_reported":1774120529,"current_range_meters":5600,"station_id":"ce4bh312rcd13ifvqdj0","pricing_plan_id":"cebpf4jnsgd1na2vs0mg"},{"bike_id":"92f32112-8a58-4a2d-8380-c50aa46da344","system_id":"levelo_inurba_marseille","lat":43.24068,"lon":5.36366,"is_reserved":false,"is_disabled":false,"rental_uris":{"android":"levelo://app?vid=92f32112-8a58-4a2d-8380-c50aa46da344","ios":"levelo://app?vid=92f32112-8a58-4a2d-8380-c50aa46da344"},"vehicle_type_id":"4","last_reported":1774120529,"current_range_meters":5600,"station_id":"","pricing_plan_id":"cebpf4jnsgd1na2vs0mg"},{"bike_id":"378e560d-7f40-4ab8-950b-6bfe0e530c7a","system_id":"levelo_inurba_marseille","lat":43.29226,"lon":5.36084,"is_reserved":false,"is_disabled":false,"rental_uris":{"android":"levelo://app?vid=378e560d-7f40-4ab8-950b-6bfe0e530c7a","ios":"levelo://app?vid=378e560d-7f40-4ab8-950b-6bfe0e530c7a"},"vehicle_type_id":"4","last_reported":1774120529,"current_range_meters":5600,"station_id":"ce4bhbh2rcd13ifvqeqg","pricing_plan_id":"cebpf4jnsgd1na2vs0mg"},{"bike_id":"8c69132c-2984-4cc6-9bef-dfc23fde7db7","system_id":"levelo_inurba_marseille","lat":43.29867,"lon":5.38894,"is_reserved":false,"is_disabled":false,"rental_uris":{"android":"levelo://app?vid=8c69132c-2984-4cc6-9bef-dfc23fde7db7","ios":"levelo://app?vid=8c69132c-2984-4cc6-9bef-dfc23fde7db7"},"vehicle_type_id":"4","last_reported":1774120529,"current_range_meters":5600,"station_id":"ce4bh392rcd13ifvqdl0","pricing_plan_id":"cebpf4jnsgd1na2vs0mg"},{"bike_id":"6624343e-1bd6-4f97-bf60-96dc47a8c365","system_id":"levelo_inurba_marseille","lat":43.29266,"lon":5.38443,"is_reserved":false,"is_disabled":false,"rental_uris":{"android":"levelo://app?vid=6624343e-1bd6-4f97-bf60-96dc47a8c365","ios":"levelo://app?vid=6624343e-1bd6-4f97-bf60-96dc47a8c365"},"vehicle_type_id":"4","last_reported":1774120529,"current_range_meters":5600,"station_id":"ce4bh692rcd13ifvqea0","pricing_plan_id":"cebpf4jnsgd1na2vs0mg"},{"bike_id":"f73d9bfe-d834-4ab1-8f58-e2624687374f","system_id":"levelo_inurba_marseille","lat":43.29875,"lon":5.38165,"is_reserved":false,"is_disabled":false,"rental_uris":{"android":"levelo://app?vid=f73d9bfe-d834-4ab1-8f58-e2624687374f","ios":"levelo://app?vid=f73d9bfe-d834-4ab1-8f58-e2624687374f"},"vehicle_type_id":"4","last_reported":1774120529,"current_range_meters":5600,"station_id":"ce4bgj12rcd13ifvqbc0","pricing_plan_id":"cebpf4jnsgd1na2vs0mg"},{"bike_id":"2d0906ff-aeed-419b-83b6-fd2861496b8f","system_id":"levelo_inurba_marseille","lat":43.26227,"lon":5.40458,"is_reserved":false,"is_disabled":false,"rental_uris":{"android":"levelo://app?vid=2d0906ff-aeed-419b-83b6-fd2861496b8f","ios":"levelo://app?vid=2d0906ff-aeed-419b-83b6-fd2861496b8f"},"vehicle_type_id":"4","last_reported":1774120529,"current_range_meters":5600,"station_id":"ce4bhmh2rcd13ifvqgmg","pricing_plan_id":"cebpf4jnsgd1na2vs0mg"},{"bike_id":"68add09d-0253-4359-be0e-77ef96abece3","system_id":"levelo_inurba_marseille","lat":43.29259,"lon":5.38433,"is_reserved":false,"is_disabled":false,"rental_uris":{"android":"levelo://app?vid=68add09d-0253-4359-be0e-77ef96abece3","ios":"levelo://app?vid=68add09d-0253-4359-be0e-77ef96abece3"},"vehicle_type_id":"4","last_reported":1774120529,"current_range_meters":5600,"station_id":"ce4bh692rcd13ifvqea0","pricing_plan_id":"cebpf4jnsgd1na2vs0mg"},{"bike_id":"21dcff95-3114-402a-9713-10e340a8f8dd","system_id":"levelo_inurba_marseille","lat":43.29293,"lon":5.37158,"is_reserved":false,"is_disabled":false,"rental_uris":{"android":"levelo://app?vid=21dcff95-3114-402a-9713-10e340a8f8dd","ios":"levelo://app?vid=21dcff95-3114-402a-9713-10e340a8f8dd"},"vehicle_type_id":"4","last_reported":1774120529,"current_range_meters":5600,"station_id":"ce4bgh92rcd13ifvqb40","pricing_plan_id":"cebpf4jnsgd1na2vs0mg"},{"bike_id":"53fe7d20-a0f2-42d5-9475-d517256919e4","system_id":"levelo_inurba_marseille","lat":43.29045,"lon":5.3865,"is_reserved":false,"is_disabled":false,"rental_uris":{"android":"levelo://app?vid=53fe7d20-a0f2-42d5-9475-d517256919e4","ios":"levelo://app?vid=53fe7d20-a0f2-42d5-9475-d517256919e4"},"vehicle_type_id":"4","last_reported":1774120529,"current_range_meters":5600,"station_id":"ce4bh4p2rcd13ifvqe0g","pricing_plan_id":"cebpf4jnsgd1na2vs0mg"},{"bike_id":"570957f9-a6fb-4d07-b1c8-4b9e09bddb89","system_id":"levelo_inurba_marseille","lat":43.28925,"lon":5.38399,"is_reserved":false,"is_disabled":false,"rental_uris":{"android":"levelo://app?vid=570957f9-a6fb-4d07-b1c8-4b9e09bddb89","ios":"levelo://app?vid=570957f9-a6fb-4d07-b1c8-4b9e09bddb89"},"vehicle_type_id":"4","last_reported":1774120529,"current_range_meters":5600,"station_id":"ce4bh612rcd13ifvqe6g","pricing_plan_id":"cebpf4jnsgd1na2vs0mg"},{"bike_id":"4b11e079-bb00-4636-9cda-72c733e64f87","system_id":"levelo_inurba_marseille","lat":43.3094,"lon":5.36854,"is_reserved":false,"is_disabled":false,"rental_uris":{"android":"levelo://app?vid=4b11e079-bb00-4636-9cda-72c733e64f87","ios":"levelo://app?vid=4b11e079-bb00-4636-9cda-72c733e64f87"},"vehicle_type_id":"4","last_reported":1774120529,"current_range_meters":5600,"station_id":"ce4bgn92rcd13ifvqbvg","pricing_plan_id":"cebpf4jnsgd1na2vs0mg"},{"bike_id":"8382ecc3-4dd4-42ea-a4f6-9256f84c6a24","system_id":"levelo_inurba_marseille","lat":43.29526,"lon":5.38524,"is_reserved":false,"is_disabled":false,"rental_uris":{"android":"levelo://app?vid=8382ecc3-4dd4-42ea-a4f6-9256f84c6a24","ios":"levelo://app?vid=8382ecc3-4dd4-42ea-a4f6-9256f84c6a24"},"vehicle_type_id":"4","last_reported":1774120529,"current_range_meters":6000,"station_id":"ce4bgih2rcd13ifvqba0","pricing_plan_id":"cebpf4jnsgd1na2vs0mg"},{"bike_id":"539ba712-8164-4514-b8ac-e9a52b114ce2","system_id":"levelo_inurba_marseille","lat":43.29306,"lon":5.37171,"is_reserved":false,"is_disabled":false,"rental_uris":{"android":"levelo://app?vid=539ba712-8164-4514-b8ac-e9a52b114ce2","ios":"levelo://app?vid=539ba712-8164-4514-b8ac-e9a52b114ce2"},"vehicle_type_id":"4","last_reported":1774120529,"current_range_meters":6000,"station_id":"ce4bgh92rcd13ifvqb40","pricing_plan_id":"cebpf4jnsgd1na2vs0mg"},{"bike_id":"183fd90c-0052-4b2b-a72d-89bd5fb0a1bb","system_id":"levelo_inurba_marseille","lat":43.30974,"lon":5.43876,"is_reserved":false,"is_disabled":false,"rental_uris":{"android":"levelo://app?vid=183fd90c-0052-4b2b-a72d-89bd5fb0a1bb","ios":"levelo://app?vid=183fd90c-0052-4b2b-a72d-89bd5fb0a1bb"},"vehicle_type_id":"4","last_reported":1774120529,"current_range_meters":6000,"station_id":"","pricing_plan_id":"cebpf4jnsgd1na2vs0mg"},{"bike_id":"bbf51661-d9f2-41f2-8d4e-b10ff5f18a7e","system_id":"levelo_inurba_marseille","lat":43.28482,"lon":5.38418,"is_reserved":false,"is_disabled":false,"rental_uris":{"android":"levelo://app?vid=bbf51661-d9f2-41f2-8d4e-b10ff5f18a7e","ios":"levelo://app?vid=bbf51661-d9f2-41f2-8d4e-b10ff5f18a7e"},"vehicle_type_id":"4","last_reported":1774120529,"current_range_meters":6000,"station_id":"ce4bh512rcd13ifvqe3g","pricing_plan_id":"cebpf4jnsgd1na2vs0mg"},{"bike_id":"d86f8d0d-62d2-4104-ab84-dbb85bf910e4","system_id":"levelo_inurba_marseille","lat":43.29184,"lon":5.39312,"is_reserved":false,"is_disabled":false,"rental_uris":{"android":"levelo://app?vid=d86f8d0d-62d2-4104-ab84-dbb85bf910e4","ios":"levelo://app?vid=d86f8d0d-62d2-4104-ab84-dbb85bf910e4"},"vehicle_type_id":"4","last_reported":1774120529,"current_range_meters":6000,"station_id":"ce4bh192rcd13ifvqdd0","pricing_plan_id":"cebpf4jnsgd1na2vs0mg"},{"bike_id":"bfa999de-7a32-454a-b31e-f99ace51a3fc","system_id":"levelo_inurba_marseille","lat":43.28471,"lon":5.48397,"is_reserved":false,"is_disabled":false,"rental_uris":{"android":"levelo://app?vid=bfa999de-7a32-454a-b31e-f99ace51a3fc","ios":"levelo://app?vid=bfa999de-7a32-454a-b31e-f99ace51a3fc"},"vehicle_type_id":"4","last_reported":1774120529,"current_range_meters":6000,"station_id":"","pricing_plan_id":"cebpf4jnsgd1na2vs0mg"},{"bike_id":"aca02e18-5940-4457-bade-a83a3729d2e4","system_id":"levelo_inurba_marseille","lat":43.29486,"lon":5.433,"is_reserved":false,"is_disabled":false,"rental_uris":{"android":"levelo://app?vid=aca02e18-5940-4457-bade-a83a3729d2e4","ios":"levelo://app?vid=aca02e18-5940-4457-bade-a83a3729d2e4"},"vehicle_type_id":"4","last_reported":1774120529,"current_range_meters":6000,"station_id":"st_d3j5ugp08ojc73fj9d10","pricing_plan_id":"cebpf4jnsgd1na2vs0mg"},{"bike_id":"266c463f-2ac2-44df-92a6-19a0b5bfca81","system_id":"levelo_inurba_marseille","lat":43.30606,"lon":5.39346,"is_reserved":false,"is_disabled":false,"rental_uris":{"android":"levelo://app?vid=266c463f-2ac2-44df-92a6-19a0b5bfca81","ios":"levelo://app?vid=266c463f-2ac2-44df-92a6-19a0b5bfca81"},"vehicle_type_id":"4","last_reported":1774120529,"current_range_meters":6000,"station_id":"ce4bh0p2rcd13ifvqd80","pricing_plan_id":"cebpf4jnsgd1na2vs0mg"},{"bike_id":"a068e9de-cdeb-4936-8a9b-bd068dca309c","system_id":"levelo_inurba_marseille","lat":43.23886,"lon":5.37515,"is_reserved":false,"is_disabled":false,"rental_uris":{"android":"levelo://app?vid=a068e9de-cdeb-4936-8a9b-bd068dca309c","ios":"levelo://app?vid=a068e9de-cdeb-4936-8a9b-bd068dca309c"},"vehicle_type_id":"4","last_reported":1774120529,"current_range_meters":6000,"station_id":"st_d6sm7csbq4hs73f8fpjg","pricing_plan_id":"cebpf4jnsgd1na2vs0mg"},{"bike_id":"c0e103ad-dc7c-420d-9e93-2a7b4e0bb290","system_id":"levelo_inurba_marseille","lat":43.30283,"lon":5.37714,"is_reserved":false,"is_disabled":false,"rental_uris":{"android":"levelo://app?vid=c0e103ad-dc7c-420d-9e93-2a7b4e0bb290","ios":"levelo://app?vid=c0e103ad-dc7c-420d-9e93-2a7b4e0bb290"},"vehicle_type_id":"4","last_reported":1774120529,"current_range_meters":6000,"station_id":"ce4bguh2rcd13ifvqcj0","pricing_plan_id":"cebpf4jnsgd1na2vs0mg"},{"bike_id":"d142cfa6-f1e7-4a69-901b-2c9415029995","system_id":"levelo_inurba_marseille","lat":43.28846,"lon":5.39316,"is_reserved":false,"is_disabled":false,"rental_uris":{"android":"levelo://app?vid=d142cfa6-f1e7-4a69-901b-2c9415029995","ios":"levelo://app?vid=d142cfa6-f1e7-4a69-901b-2c9415029995"},"vehicle_type_id":"4","last_reported":1774120529,"current_range_meters":6000,"station_id":"ce4bh2p2rcd13ifvqdi0","pricing_plan_id":"cebpf4jnsgd1na2vs0mg"},{"bike_id":"03046f7a-5758-49fb-8e19-a233a60f12e1","system_id":"levelo_inurba_marseille","lat":43.303,"lon":5.39212,"is_reserved":false,"is_disabled":false,"rental_uris":{"android":"levelo://app?vid=03046f7a-5758-49fb-8e19-a233a60f12e1","ios":"levelo://app?vid=03046f7a-5758-49fb-8e19-a233a60f12e1"},"vehicle_type_id":"4","last_reported":1774120529,"current_range_meters":6000,"station_id":"ce4bgkh2rcd13ifvqbk0","pricing_plan_id":"cebpf4jnsgd1na2vs0mg"},{"bike_id":"3727d6e3-4577-49ea-959e-93a5e09450a3","system_id":"levelo_inurba_marseille","lat":43.3143,"lon":5.40056,"is_reserved":false,"is_disabled":false,"rental_uris":{"android":"levelo://app?vid=3727d6e3-4577-49ea-959e-93a5e09450a3","ios":"levelo://app?vid=3727d6e3-4577-49ea-959e-93a5e09450a3"},"vehicle_type_id":"4","last_reported":1774120529,"current_range_meters":6000,"station_id":"","pricing_plan_id":"cebpf4jnsgd1na2vs0mg"},{"bike_id":"49cf40bc-a14c-407c-872b-a132e5a606d5","system_id":"levelo_inurba_marseille","lat":43.29879,"lon":5.39729,"is_reserved":false,"is_disabled":false,"rental_uris":{"android":"levelo://app?vid=49cf40bc-a14c-407c-872b-a132e5a606d5","ios":"levelo://app?vid=49cf40bc-a14c-407c-872b-a132e5a606d5"},"vehicle_type_id":"4","last_reported":1774120529,"current_range_meters":6000,"station_id":"ce4bh0h2rcd13ifvqd50","pricing_plan_id":"cebpf4jnsgd1na2vs0mg"},{"bike_id":"c92832de-6352-41c9-a751-f260ac82b4bc","system_id":"levelo_inurba_marseille","lat":43.30142,"lon":5.38777,"is_reserved":false,"is_disabled":false,"rental_uris":{"android":"levelo://app?vid=c92832de-6352-41c9-a751-f260ac82b4bc","ios":"levelo://app?vid=c92832de-6352-41c9-a751-f260ac82b4bc"},"vehicle_type_id":"4","last_reported":1774120529,"current_range_meters":6000,"station_id":"ce4bghh2rcd13ifvqb60","pricing_plan_id":"cebpf4jnsgd1na2vs0mg"},{"bike_id":"47efb401-c51b-46fd-bc6f-b874c731d32b","system_id":"levelo_inurba_marseille","lat":43.29581,"lon":5.36748,"is_reserved":false,"is_disabled":true,"rental_uris":{"android":"levelo://app?vid=47efb401-c51b-46fd-bc6f-b874c731d32b","ios":"levelo://app?vid=47efb401-c51b-46fd-bc6f-b874c731d32b"},"vehicle_type_id":"4","last_reported":1774120529,"current_range_meters":6000,"station_id":"ce4bgph2rcd13ifvqc2g","pricing_plan_id":"cebpf4jnsgd1na2vs0mg"},{"bike_id":"ec531884-8bfa-420b-bd77-1512f322e6f0","system_id":"levelo_inurba_marseille","lat":43.29896,"lon":5.43671,"is_reserved":false,"is_disabled":false,"rental_uris":{"android":"levelo://app?vid=ec531884-8bfa-420b-bd77-1512f322e6f0","ios":"levelo://app?vid=ec531884-8bfa-420b-bd77-1512f322e6f0"},"vehicle_type_id":"4","last_reported":1774120529,"current_range_meters":6000,"station_id":"ce4bhpp2rcd13ifvqhfg","pricing_plan_id":"cebpf4jnsgd1na2vs0mg"},{"bike_id":"8e0a30ac-6579-442d-ae50-f249f44eb429","system_id":"levelo_inurba_marseille","lat":43.28858,"lon":5.39335,"is_reserved":false,"is_disabled":false,"rental_uris":{"android":"levelo://app?vid=8e0a30ac-6579-442d-ae50-f249f44eb429","ios":"levelo://app?vid=8e0a30ac-6579-442d-ae50-f249f44eb429"},"vehicle_type_id":"4","last_reported":1774120529,"current_range_meters":6000,"station_id":"ce4bh2p2rcd13ifvqdi0","pricing_plan_id":"cebpf4jnsgd1na2vs0mg"},{"bike_id":"723ba5c6-f4db-4afe-b327-6aa70072afd5","system_id":"levelo_inurba_marseille","lat":43.30134,"lon":5.38805,"is_reserved":false,"is_disabled":false,"rental_uris":{"android":"levelo://app?vid=723ba5c6-f4db-4afe-b327-6aa70072afd5","ios":"levelo://app?vid=723ba5c6-f4db-4afe-b327-6aa70072afd5"},"vehicle_type_id":"4","last_reported":1774120529,"current_range_meters":6000,"station_id":"ce4bghh2rcd13ifvqb60","pricing_plan_id":"cebpf4jnsgd1na2vs0mg"},{"bike_id":"339f59fc-bb44-441e-bd1a-cc9e8faeea6b","system_id":"levelo_inurba_marseille","lat":43.28977,"lon":5.37848,"is_reserved":false,"is_disabled":false,"rental_uris":{"android":"levelo://app?vid=339f59fc-bb44-441e-bd1a-cc9e8faeea6b","ios":"levelo://app?vid=339f59fc-bb44-441e-bd1a-cc9e8faeea6b"},"vehicle_type_id":"4","last_reported":1774120529,"current_range_meters":6400,"station_id":"ce4bh9p2rcd13ifvqed0","pricing_plan_id":"cebpf4jnsgd1na2vs0mg"},{"bike_id":"079921cc-5f2b-408c-ad49-3463c064b465","system_id":"levelo_inurba_marseille","lat":43.29526,"lon":5.38535,"is_reserved":false,"is_disabled":false,"rental_uris":{"android":"levelo://app?vid=079921cc-5f2b-408c-ad49-3463c064b465","ios":"levelo://app?vid=079921cc-5f2b-408c-ad49-3463c064b465"},"vehicle_type_id":"4","last_reported":1774120529,"current_range_meters":6400,"station_id":"ce4bgih2rcd13ifvqba0","pricing_plan_id":"cebpf4jnsgd1na2vs0mg"},{"bike_id":"bb497ba6-c74d-4c55-90dc-2acc733e3ca0","system_id":"levelo_inurba_marseille","lat":43.27373,"lon":5.36262,"is_reserved":false,"is_disabled":false,"rental_uris":{"android":"levelo://app?vid=bb497ba6-c74d-4c55-90dc-2acc733e3ca0","ios":"levelo://app?vid=bb497ba6-c74d-4c55-90dc-2acc733e3ca0"},"vehicle_type_id":"4","last_reported":1774120529,"current_range_meters":6400,"station_id":"ce4bhbh2rcd13ifvqeo0","pricing_plan_id":"cebpf4jnsgd1na2vs0mg"},{"bike_id":"f055e20c-aaef-4e97-aa87-08af5343b6c5","system_id":"levelo_inurba_marseille","lat":43.29631,"lon":5.37732,"is_reserved":false,"is_disabled":false,"rental_uris":{"android":"levelo://app?vid=f055e20c-aaef-4e97-aa87-08af5343b6c5","ios":"levelo://app?vid=f055e20c-aaef-4e97-aa87-08af5343b6c5"},"vehicle_type_id":"4","last_reported":1774120529,"current_range_meters":6400,"station_id":"ce4bgi92rcd13ifvqb90","pricing_plan_id":"cebpf4jnsgd1na2vs0mg"},{"bike_id":"71389fc3-a4c3-46c5-a0f9-4330fcbb165b","system_id":"levelo_inurba_marseille","lat":43.2797,"lon":5.41037,"is_reserved":false,"is_disabled":true,"rental_uris":{"android":"levelo://app?vid=71389fc3-a4c3-46c5-a0f9-4330fcbb165b","ios":"levelo://app?vid=71389fc3-a4c3-46c5-a0f9-4330fcbb165b"},"vehicle_type_id":"4","last_reported":1774120529,"current_range_meters":6400,"station_id":"ce4bhnp2rcd13ifvqh0g","pricing_plan_id":"cebpf4jnsgd1na2vs0mg"},{"bike_id":"8a84358d-8041-4193-a83a-ea98e64dd79d","system_id":"levelo_inurba_marseille","lat":43.29572,"lon":5.37524,"is_reserved":false,"is_disabled":false,"rental_uris":{"android":"levelo://app?vid=8a84358d-8041-4193-a83a-ea98e64dd79d","ios":"levelo://app?vid=8a84358d-8041-4193-a83a-ea98e64dd79d"},"vehicle_type_id":"4","last_reported":1774120529,"current_range_meters":6400,"station_id":"ce4bgh92rcd13ifvqb50","pricing_plan_id":"cebpf4jnsgd1na2vs0mg"},{"bike_id":"e5889c18-6483-46e2-8e97-7aa7bb200275","system_id":"levelo_inurba_marseille","lat":43.2446,"lon":5.42546,"is_reserved":false,"is_disabled":false,"rental_uris":{"android":"levelo://app?vid=e5889c18-6483-46e2-8e97-7aa7bb200275","ios":"levelo://app?vid=e5889c18-6483-46e2-8e97-7aa7bb200275"},"vehicle_type_id":"4","last_reported":1774120529,"current_range_meters":6400,"station_id":"st_d4a3vfp97mjs738cd8kg","pricing_plan_id":"cebpf4jnsgd1na2vs0mg"},{"bike_id":"afab17fe-5945-4eab-9129-fe150d6e725c","system_id":"levelo_inurba_marseille","lat":43.31057,"lon":5.37171,"is_reserved":false,"is_disabled":false,"rental_uris":{"android":"levelo://app?vid=afab17fe-5945-4eab-9129-fe150d6e725c","ios":"levelo://app?vid=afab17fe-5945-4eab-9129-fe150d6e725c"},"vehicle_type_id":"4","last_reported":1774120529,"current_range_meters":6400,"station_id":"st_d4kl2rp97mjs73e7tdfg","pricing_plan_id":"cebpf4jnsgd1na2vs0mg"},{"bike_id":"a52ba6dc-1b15-4a85-8d00-b41ad0623a75","system_id":"levelo_inurba_marseille","lat":43.32342,"lon":5.36738,"is_reserved":false,"is_disabled":false,"rental_uris":{"android":"levelo://app?vid=a52ba6dc-1b15-4a85-8d00-b41ad0623a75","ios":"levelo://app?vid=a52ba6dc-1b15-4a85-8d00-b41ad0623a75"},"vehicle_type_id":"4","last_reported":1774120529,"current_range_meters":6400,"station_id":"ce4bhsh2rcd13ifvqi2g","pricing_plan_id":"cebpf4jnsgd1na2vs0mg"},{"bike_id":"e25da1e2-3ead-4615-95eb-2fb9d3cdfaa6","system_id":"levelo_inurba_marseille","lat":43.29267,"lon":5.38454,"is_reserved":false,"is_disabled":false,"rental_uris":{"android":"levelo://app?vid=e25da1e2-3ead-4615-95eb-2fb9d3cdfaa6","ios":"levelo://app?vid=e25da1e2-3ead-4615-95eb-2fb9d3cdfaa6"},"vehicle_type_id":"4","last_reported":1774120529,"current_range_meters":6400,"station_id":"ce4bh692rcd13ifvqea0","pricing_plan_id":"cebpf4jnsgd1na2vs0mg"},{"bike_id":"20209dcd-829b-40ab-8da9-0237d01fafe7","system_id":"levelo_inurba_marseille","lat":43.28846,"lon":5.39306,"is_reserved":false,"is_disabled":false,"rental_uris":{"android":"levelo://app?vid=20209dcd-829b-40ab-8da9-0237d01fafe7","ios":"levelo://app?vid=20209dcd-829b-40ab-8da9-0237d01fafe7"},"vehicle_type_id":"4","last_reported":1774120529,"current_range_meters":6400,"station_id":"ce4bh2p2rcd13ifvqdi0","pricing_plan_id":"cebpf4jnsgd1na2vs0mg"},{"bike_id":"64a961f5-cd62-4b17-9e46-7138f97b9b77","system_id":"levelo_inurba_marseille","lat":43.26931,"lon":5.38916,"is_reserved":false,"is_disabled":false,"rental_uris":{"android":"levelo://app?vid=64a961f5-cd62-4b17-9e46-7138f97b9b77","ios":"levelo://app?vid=64a961f5-cd62-4b17-9e46-7138f97b9b77"},"vehicle_type_id":"4","last_reported":1774120529,"current_range_meters":6400,"station_id":"ce4bhhh2rcd13ifvqfl0","pricing_plan_id":"cebpf4jnsgd1na2vs0mg"},{"bike_id":"8f870f0c-9efe-4c9f-950d-31cd34294eb1","system_id":"levelo_inurba_marseille","lat":43.301,"lon":5.39064,"is_reserved":false,"is_disabled":false,"rental_uris":{"android":"levelo://app?vid=8f870f0c-9efe-4c9f-950d-31cd34294eb1","ios":"levelo://app?vid=8f870f0c-9efe-4c9f-950d-31cd34294eb1"},"vehicle_type_id":"4","last_reported":1774120529,"current_range_meters":6400,"station_id":"ce4bh192rcd13ifvqdb0","pricing_plan_id":"cebpf4jnsgd1na2vs0mg"},{"bike_id":"e1050c8e-7b86-4c6c-9c7a-593903ea48d0","system_id":"levelo_inurba_marseille","lat":43.28932,"lon":5.36635,"is_reserved":false,"is_disabled":false,"rental_uris":{"android":"levelo://app?vid=e1050c8e-7b86-4c6c-9c7a-593903ea48d0","ios":"levelo://app?vid=e1050c8e-7b86-4c6c-9c7a-593903ea48d0"},"vehicle_type_id":"4","last_reported":1774120529,"current_range_meters":6400,"station_id":"ce4bhap2rcd13ifvqek0","pricing_plan_id":"cebpf4jnsgd1na2vs0mg"},{"bike_id":"a1ef2092-5a7d-470b-8367-ebb1ee5a079d","system_id":"levelo_inurba_marseille","lat":43.2868,"lon":5.3865,"is_reserved":false,"is_disabled":false,"rental_uris":{"android":"levelo://app?vid=a1ef2092-5a7d-470b-8367-ebb1ee5a079d","ios":"levelo://app?vid=a1ef2092-5a7d-470b-8367-ebb1ee5a079d"},"vehicle_type_id":"4","last_reported":1774120529,"current_range_meters":6400,"station_id":"ce4bh492rcd13ifvqdug","pricing_plan_id":"cebpf4jnsgd1na2vs0mg"},{"bike_id":"dac9aef8-a51d-4234-b7c9-efd3c254a7ee","system_id":"levelo_inurba_marseille","lat":43.29784,"lon":5.39337,"is_reserved":false,"is_disabled":false,"rental_uris":{"android":"levelo://app?vid=dac9aef8-a51d-4234-b7c9-efd3c254a7ee","ios":"levelo://app?vid=dac9aef8-a51d-4234-b7c9-efd3c254a7ee"},"vehicle_type_id":"4","last_reported":1774120529,"current_range_meters":6400,"station_id":"chh1huq6cuj3fo74tm60","pricing_plan_id":"cebpf4jnsgd1na2vs0mg"},{"bike_id":"e973bfc5-7fdc-4a81-941c-942d4f1af5e0","system_id":"levelo_inurba_marseille","lat":43.284386,"lon":5.392082,"is_reserved":false,"is_disabled":false,"rental_uris":{"android":"levelo://app?vid=e973bfc5-7fdc-4a81-941c-942d4f1af5e0","ios":"levelo://app?vid=e973bfc5-7fdc-4a81-941c-942d4f1af5e0"},"vehicle_type_id":"4","last_reported":1774120529,"current_range_meters":6400,"station_id":"ce4bhoh2rcd13ifvqh5g","pricing_plan_id":"cebpf4jnsgd1na2vs0mg"},{"bike_id":"947a972c-ce6d-423a-bc04-4563321e80a5","system_id":"levelo_inurba_marseille","lat":43.29536,"lon":5.38539,"is_reserved":false,"is_disabled":false,"rental_uris":{"android":"levelo://app?vid=947a972c-ce6d-423a-bc04-4563321e80a5","ios":"levelo://app?vid=947a972c-ce6d-423a-bc04-4563321e80a5"},"vehicle_type_id":"4","last_reported":1774120529,"current_range_meters":6400,"station_id":"ce4bgih2rcd13ifvqba0","pricing_plan_id":"cebpf4jnsgd1na2vs0mg"},{"bike_id":"9562cb1b-3eaf-4a03-a5e3-1337d62db9d4","system_id":"levelo_inurba_marseille","lat":43.28944,"lon":5.36399,"is_reserved":false,"is_disabled":false,"rental_uris":{"android":"levelo://app?vid=9562cb1b-3eaf-4a03-a5e3-1337d62db9d4","ios":"levelo://app?vid=9562cb1b-3eaf-4a03-a5e3-1337d62db9d4"},"vehicle_type_id":"4","last_reported":1774120529,"current_range_meters":6800,"station_id":"ce4bhc92rcd13ifvqetg","pricing_plan_id":"cebpf4jnsgd1na2vs0mg"},{"bike_id":"16bb025a-e805-4f81-898f-9cff2cfa3dc5","system_id":"levelo_inurba_marseille","lat":43.29177,"lon":5.39318,"is_reserved":false,"is_disabled":false,"rental_uris":{"android":"levelo://app?vid=16bb025a-e805-4f81-898f-9cff2cfa3dc5","ios":"levelo://app?vid=16bb025a-e805-4f81-898f-9cff2cfa3dc5"},"vehicle_type_id":"4","last_reported":1774120529,"current_range_meters":6800,"station_id":"ce4bh192rcd13ifvqdd0","pricing_plan_id":"cebpf4jnsgd1na2vs0mg"},{"bike_id":"d01f55c5-7e4e-4e8d-8ef0-e660ea4c6972","system_id":"levelo_inurba_marseille","lat":43.29085,"lon":5.38149,"is_reserved":false,"is_disabled":false,"rental_uris":{"android":"levelo://app?vid=d01f55c5-7e4e-4e8d-8ef0-e660ea4c6972","ios":"levelo://app?vid=d01f55c5-7e4e-4e8d-8ef0-e660ea4c6972"},"vehicle_type_id":"4","last_reported":1774120529,"current_range_meters":6800,"station_id":"ce4bh512rcd13ifvqe2g","pricing_plan_id":"cebpf4jnsgd1na2vs0mg"},{"bike_id":"f1b3310c-f30c-441e-b5fb-d9f98b6504b2","system_id":"levelo_inurba_marseille","lat":43.29511,"lon":5.39034,"is_reserved":false,"is_disabled":false,"rental_uris":{"android":"levelo://app?vid=f1b3310c-f30c-441e-b5fb-d9f98b6504b2","ios":"levelo://app?vid=f1b3310c-f30c-441e-b5fb-d9f98b6504b2"},"vehicle_type_id":"4","last_reported":1774120529,"current_range_meters":6800,"station_id":"ce4bh3p2rcd13ifvqdp0","pricing_plan_id":"cebpf4jnsgd1na2vs0mg"},{"bike_id":"37752f22-4e24-4242-a38c-e44293abad6b","system_id":"levelo_inurba_marseille","lat":43.28004,"lon":5.38697,"is_reserved":false,"is_disabled":true,"rental_uris":{"android":"levelo://app?vid=37752f22-4e24-4242-a38c-e44293abad6b","ios":"levelo://app?vid=37752f22-4e24-4242-a38c-e44293abad6b"},"vehicle_type_id":"4","last_reported":1774120529,"current_range_meters":6800,"station_id":"ce4bhg12rcd13ifvqf80","pricing_plan_id":"cebpf4jnsgd1na2vs0mg"},{"bike_id":"40ebe675-a477-45e4-84ec-a07aeb2c1b1e","system_id":"levelo_inurba_marseille","lat":43.29524,"lon":5.3941,"is_reserved":false,"is_disabled":false,"rental_uris":{"android":"levelo://app?vid=40ebe675-a477-45e4-84ec-a07aeb2c1b1e","ios":"levelo://app?vid=40ebe675-a477-45e4-84ec-a07aeb2c1b1e"},"vehicle_type_id":"4","last_reported":1774120529,"current_range_meters":6800,"station_id":"ce4bh292rcd13ifvqdf0","pricing_plan_id":"cebpf4jnsgd1na2vs0mg"},{"bike_id":"81494dd5-c3de-4230-8baf-09fc5921dbf0","system_id":"levelo_inurba_marseille","lat":43.29525,"lon":5.3854,"is_reserved":false,"is_disabled":false,"rental_uris":{"android":"levelo://app?vid=81494dd5-c3de-4230-8baf-09fc5921dbf0","ios":"levelo://app?vid=81494dd5-c3de-4230-8baf-09fc5921dbf0"},"vehicle_type_id":"4","last_reported":1774120529,"current_range_meters":6800,"station_id":"ce4bgih2rcd13ifvqba0","pricing_plan_id":"cebpf4jnsgd1na2vs0mg"},{"bike_id":"ece24b47-19b2-4782-8da3-d1e80b41c9a6","system_id":"levelo_inurba_marseille","lat":43.28942,"lon":5.36631,"is_reserved":false,"is_disabled":false,"rental_uris":{"android":"levelo://app?vid=ece24b47-19b2-4782-8da3-d1e80b41c9a6","ios":"levelo://app?vid=ece24b47-19b2-4782-8da3-d1e80b41c9a6"},"vehicle_type_id":"4","last_reported":1774120529,"current_range_meters":6800,"station_id":"ce4bhap2rcd13ifvqek0","pricing_plan_id":"cebpf4jnsgd1na2vs0mg"},{"bike_id":"bb406d78-f7ce-4c2f-bdee-a1a51e35007d","system_id":"levelo_inurba_marseille","lat":43.31115,"lon":5.37761,"is_reserved":false,"is_disabled":false,"rental_uris":{"android":"levelo://app?vid=bb406d78-f7ce-4c2f-bdee-a1a51e35007d","ios":"levelo://app?vid=bb406d78-f7ce-4c2f-bdee-a1a51e35007d"},"vehicle_type_id":"4","last_reported":1774120529,"current_range_meters":6800,"station_id":"ce4bgt92rcd13ifvqcg0","pricing_plan_id":"cebpf4jnsgd1na2vs0mg"},{"bike_id":"ca3071bd-5636-49a6-bb53-2d62d14b50e4","system_id":"levelo_inurba_marseille","lat":43.31241,"lon":5.3689,"is_reserved":false,"is_disabled":false,"rental_uris":{"android":"levelo://app?vid=ca3071bd-5636-49a6-bb53-2d62d14b50e4","ios":"levelo://app?vid=ca3071bd-5636-49a6-bb53-2d62d14b50e4"},"vehicle_type_id":"4","last_reported":1774120529,"current_range_meters":6800,"station_id":"ce4bgl92rcd13ifvqbq0","pricing_plan_id":"cebpf4jnsgd1na2vs0mg"},{"bike_id":"37fd8b91-bebb-483f-9ede-850904204da2","system_id":"levelo_inurba_marseille","lat":43.33429,"lon":5.35705,"is_reserved":false,"is_disabled":false,"rental_uris":{"android":"levelo://app?vid=37fd8b91-bebb-483f-9ede-850904204da2","ios":"levelo://app?vid=37fd8b91-bebb-483f-9ede-850904204da2"},"vehicle_type_id":"4","last_reported":1774120529,"current_range_meters":6800,"station_id":"","pricing_plan_id":"cebpf4jnsgd1na2vs0mg"},{"bike_id":"87c646fc-e28f-4925-b849-d2ed6e71057d","system_id":"levelo_inurba_marseille","lat":43.307817,"lon":5.376423,"is_reserved":false,"is_disabled":false,"rental_uris":{"android":"levelo://app?vid=87c646fc-e28f-4925-b849-d2ed6e71057d","ios":"levelo://app?vid=87c646fc-e28f-4925-b849-d2ed6e71057d"},"vehicle_type_id":"4","last_reported":1774120529,"current_range_meters":6800,"station_id":"ce4bgv92rcd13ifvqcq0","pricing_plan_id":"cebpf4jnsgd1na2vs0mg"},{"bike_id":"7735375d-1041-4f99-b2b7-719b8a41cb75","system_id":"levelo_inurba_marseille","lat":43.28148,"lon":5.42643,"is_reserved":false,"is_disabled":true,"rental_uris":{"android":"levelo://app?vid=7735375d-1041-4f99-b2b7-719b8a41cb75","ios":"levelo://app?vid=7735375d-1041-4f99-b2b7-719b8a41cb75"},"vehicle_type_id":"4","last_reported":1774120529,"current_range_meters":6800,"station_id":"ce4bhnh2rcd13ifvqgug","pricing_plan_id":"cebpf4jnsgd1na2vs0mg"},{"bike_id":"d9a2340f-4dc0-456b-89f0-454af4d93a65","system_id":"levelo_inurba_marseille","lat":43.28497,"lon":5.35128,"is_reserved":false,"is_disabled":false,"rental_uris":{"android":"levelo://app?vid=d9a2340f-4dc0-456b-89f0-454af4d93a65","ios":"levelo://app?vid=d9a2340f-4dc0-456b-89f0-454af4d93a65"},"vehicle_type_id":"4","last_reported":1774120529,"current_range_meters":6800,"station_id":"","pricing_plan_id":"cebpf4jnsgd1na2vs0mg"},{"bike_id":"4cfbfa6f-5626-4810-9e83-9f7d2f4044c0","system_id":"levelo_inurba_marseille","lat":43.29537,"lon":5.38544,"is_reserved":false,"is_disabled":false,"rental_uris":{"android":"levelo://app?vid=4cfbfa6f-5626-4810-9e83-9f7d2f4044c0","ios":"levelo://app?vid=4cfbfa6f-5626-4810-9e83-9f7d2f4044c0"},"vehicle_type_id":"4","last_reported":1774120529,"current_range_meters":6800,"station_id":"ce4bgih2rcd13ifvqba0","pricing_plan_id":"cebpf4jnsgd1na2vs0mg"},{"bike_id":"439dbe09-d606-4b21-a5ca-650e7e2a9fda","system_id":"levelo_inurba_marseille","lat":43.29273,"lon":5.37633,"is_reserved":false,"is_disabled":false,"rental_uris":{"android":"levelo://app?vid=439dbe09-d606-4b21-a5ca-650e7e2a9fda","ios":"levelo://app?vid=439dbe09-d606-4b21-a5ca-650e7e2a9fda"},"vehicle_type_id":"4","last_reported":1774120529,"current_range_meters":6800,"station_id":"ce4bgi12rcd13ifvqb80","pricing_plan_id":"cebpf4jnsgd1na2vs0mg"},{"bike_id":"1f7bd905-6cfa-4177-9702-133844b289cf","system_id":"levelo_inurba_marseille","lat":43.29307,"lon":5.37474,"is_reserved":false,"is_disabled":false,"rental_uris":{"android":"levelo://app?vid=1f7bd905-6cfa-4177-9702-133844b289cf","ios":"levelo://app?vid=1f7bd905-6cfa-4177-9702-133844b289cf"},"vehicle_type_id":"4","last_reported":1774120529,"current_range_meters":6800,"station_id":"ce4bgi12rcd13ifvqb70","pricing_plan_id":"cebpf4jnsgd1na2vs0mg"},{"bike_id":"8b4f866a-3768-4a07-8bfe-a6313214166a","system_id":"levelo_inurba_marseille","lat":43.27835,"lon":5.3922,"is_reserved":false,"is_disabled":false,"rental_uris":{"android":"levelo://app?vid=8b4f866a-3768-4a07-8bfe-a6313214166a","ios":"levelo://app?vid=8b4f866a-3768-4a07-8bfe-a6313214166a"},"vehicle_type_id":"4","last_reported":1774120529,"current_range_meters":6800,"station_id":"ce4bhjp2rcd13ifvqga0","pricing_plan_id":"cebpf4jnsgd1na2vs0mg"},{"bike_id":"d13beac3-d3f2-498b-ba6a-8e3d4a3659f0","system_id":"levelo_inurba_marseille","lat":43.25124,"lon":5.40322,"is_reserved":false,"is_disabled":false,"rental_uris":{"android":"levelo://app?vid=d13beac3-d3f2-498b-ba6a-8e3d4a3659f0","ios":"levelo://app?vid=d13beac3-d3f2-498b-ba6a-8e3d4a3659f0"},"vehicle_type_id":"4","last_reported":1774120529,"current_range_meters":6800,"station_id":"ce4bhlh2rcd13ifvqgig","pricing_plan_id":"cebpf4jnsgd1na2vs0mg"},{"bike_id":"53eb06a1-bd99-45af-a8e9-fded1bd41576","system_id":"levelo_inurba_marseille","lat":43.27944,"lon":5.39579,"is_reserved":false,"is_disabled":false,"rental_uris":{"android":"levelo://app?vid=53eb06a1-bd99-45af-a8e9-fded1bd41576","ios":"levelo://app?vid=53eb06a1-bd99-45af-a8e9-fded1bd41576"},"vehicle_type_id":"4","last_reported":1774120529,"current_range_meters":6800,"station_id":"ce4bhf92rcd13ifvqf40","pricing_plan_id":"cebpf4jnsgd1na2vs0mg"},{"bike_id":"2269e68d-f48b-428d-993e-bfd909030469","system_id":"levelo_inurba_marseille","lat":43.28467,"lon":5.38834,"is_reserved":false,"is_disabled":false,"rental_uris":{"android":"levelo://app?vid=2269e68d-f48b-428d-993e-bfd909030469","ios":"levelo://app?vid=2269e68d-f48b-428d-993e-bfd909030469"},"vehicle_type_id":"4","last_reported":1774120529,"current_range_meters":6800,"station_id":"","pricing_plan_id":"cebpf4jnsgd1na2vs0mg"},{"bike_id":"e6555f06-80a7-4366-baa8-6d2c61285260","system_id":"levelo_inurba_marseille","lat":43.29968,"lon":5.3849,"is_reserved":false,"is_disabled":false,"rental_uris":{"android":"levelo://app?vid=e6555f06-80a7-4366-baa8-6d2c61285260","ios":"levelo://app?vid=e6555f06-80a7-4366-baa8-6d2c61285260"},"vehicle_type_id":"4","last_reported":1774120529,"current_range_meters":6800,"station_id":"ce4bgj92rcd13ifvqbd0","pricing_plan_id":"cebpf4jnsgd1na2vs0mg"},{"bike_id":"b87d7938-28e4-46e7-994e-fdebd5392225","system_id":"levelo_inurba_marseille","lat":43.3211,"lon":5.36798,"is_reserved":false,"is_disabled":false,"rental_uris":{"android":"levelo://app?vid=b87d7938-28e4-46e7-994e-fdebd5392225","ios":"levelo://app?vid=b87d7938-28e4-46e7-994e-fdebd5392225"},"vehicle_type_id":"4","last_reported":1774120529,"current_range_meters":6800,"station_id":"ce4bhrh2rcd13ifvqhug","pricing_plan_id":"cebpf4jnsgd1na2vs0mg"},{"bike_id":"58930592-65f7-4192-ac2f-be7392b8805a","system_id":"levelo_inurba_marseille","lat":43.2623,"lon":5.40456,"is_reserved":false,"is_disabled":false,"rental_uris":{"android":"levelo://app?vid=58930592-65f7-4192-ac2f-be7392b8805a","ios":"levelo://app?vid=58930592-65f7-4192-ac2f-be7392b8805a"},"vehicle_type_id":"4","last_reported":1774120529,"current_range_meters":7200,"station_id":"ce4bhmh2rcd13ifvqgmg","pricing_plan_id":"cebpf4jnsgd1na2vs0mg"},{"bike_id":"42ab0379-da99-4e4d-86ad-a3df2009332a","system_id":"levelo_inurba_marseille","lat":43.29597,"lon":5.38095,"is_reserved":false,"is_disabled":false,"rental_uris":{"android":"levelo://app?vid=42ab0379-da99-4e4d-86ad-a3df2009332a","ios":"levelo://app?vid=42ab0379-da99-4e4d-86ad-a3df2009332a"},"vehicle_type_id":"4","last_reported":1774120529,"current_range_meters":7200,"station_id":"ce4bgl12rcd13ifvqbo0","pricing_plan_id":"cebpf4jnsgd1na2vs0mg"},{"bike_id":"a88563e5-36aa-498c-a758-9f52698e4833","system_id":"levelo_inurba_marseille","lat":43.29528,"lon":5.38529,"is_reserved":false,"is_disabled":false,"rental_uris":{"android":"levelo://app?vid=a88563e5-36aa-498c-a758-9f52698e4833","ios":"levelo://app?vid=a88563e5-36aa-498c-a758-9f52698e4833"},"vehicle_type_id":"4","last_reported":1774120529,"current_range_meters":7200,"station_id":"ce4bgih2rcd13ifvqba0","pricing_plan_id":"cebpf4jnsgd1na2vs0mg"},{"bike_id":"077ba1f4-9955-44ea-8995-8df9c4ed43ac","system_id":"levelo_inurba_marseille","lat":43.31041,"lon":5.37138,"is_reserved":false,"is_disabled":false,"rental_uris":{"android":"levelo://app?vid=077ba1f4-9955-44ea-8995-8df9c4ed43ac","ios":"levelo://app?vid=077ba1f4-9955-44ea-8995-8df9c4ed43ac"},"vehicle_type_id":"4","last_reported":1774120529,"current_range_meters":7200,"station_id":"st_d4kl2rp97mjs73e7tdfg","pricing_plan_id":"cebpf4jnsgd1na2vs0mg"},{"bike_id":"df5ad533-8354-43dd-b4db-d4118becde63","system_id":"levelo_inurba_marseille","lat":43.28518,"lon":5.48306,"is_reserved":false,"is_disabled":false,"rental_uris":{"android":"levelo://app?vid=df5ad533-8354-43dd-b4db-d4118becde63","ios":"levelo://app?vid=df5ad533-8354-43dd-b4db-d4118becde63"},"vehicle_type_id":"4","last_reported":1774120529,"current_range_meters":7200,"station_id":"","pricing_plan_id":"cebpf4jnsgd1na2vs0mg"},{"bike_id":"8e70251c-8f02-4240-8304-f6a3026eaebe","system_id":"levelo_inurba_marseille","lat":43.30911,"lon":5.36851,"is_reserved":false,"is_disabled":false,"rental_uris":{"android":"levelo://app?vid=8e70251c-8f02-4240-8304-f6a3026eaebe","ios":"levelo://app?vid=8e70251c-8f02-4240-8304-f6a3026eaebe"},"vehicle_type_id":"4","last_reported":1774120529,"current_range_meters":7200,"station_id":"ce4bgn92rcd13ifvqbvg","pricing_plan_id":"cebpf4jnsgd1na2vs0mg"},{"bike_id":"36450020-bd88-4c9a-a04d-1f2ccd4cfaaf","system_id":"levelo_inurba_marseille","lat":43.29535,"lon":5.3854,"is_reserved":false,"is_disabled":false,"rental_uris":{"android":"levelo://app?vid=36450020-bd88-4c9a-a04d-1f2ccd4cfaaf","ios":"levelo://app?vid=36450020-bd88-4c9a-a04d-1f2ccd4cfaaf"},"vehicle_type_id":"4","last_reported":1774120529,"current_range_meters":7200,"station_id":"ce4bgih2rcd13ifvqba0","pricing_plan_id":"cebpf4jnsgd1na2vs0mg"},{"bike_id":"045756a8-d17b-48e5-a552-02cb547f5dbb","system_id":"levelo_inurba_marseille","lat":43.31707,"lon":5.43717,"is_reserved":false,"is_disabled":false,"rental_uris":{"android":"levelo://app?vid=045756a8-d17b-48e5-a552-02cb547f5dbb","ios":"levelo://app?vid=045756a8-d17b-48e5-a552-02cb547f5dbb"},"vehicle_type_id":"4","last_reported":1774120529,"current_range_meters":7200,"station_id":"ce4bhp92rcd13ifvqhcg","pricing_plan_id":"cebpf4jnsgd1na2vs0mg"},{"bike_id":"713a39c7-7268-42d9-af49-6cc646f5d96b","system_id":"levelo_inurba_marseille","lat":43.29811,"lon":5.38081,"is_reserved":false,"is_disabled":false,"rental_uris":{"android":"levelo://app?vid=713a39c7-7268-42d9-af49-6cc646f5d96b","ios":"levelo://app?vid=713a39c7-7268-42d9-af49-6cc646f5d96b"},"vehicle_type_id":"4","last_reported":1774120529,"current_range_meters":7200,"station_id":"ce4bgip2rcd13ifvqbb0","pricing_plan_id":"cebpf4jnsgd1na2vs0mg"},{"bike_id":"7ca79f68-2f8f-4d26-a4ac-e7a6be868567","system_id":"levelo_inurba_marseille","lat":43.31362,"lon":5.38487,"is_reserved":false,"is_disabled":false,"rental_uris":{"android":"levelo://app?vid=7ca79f68-2f8f-4d26-a4ac-e7a6be868567","ios":"levelo://app?vid=7ca79f68-2f8f-4d26-a4ac-e7a6be868567"},"vehicle_type_id":"4","last_reported":1774120529,"current_range_meters":7200,"station_id":"ce4bgt92rcd13ifvqcf0","pricing_plan_id":"cebpf4jnsgd1na2vs0mg"},{"bike_id":"5206b1c0-ea28-4288-9fb7-15de647e09fa","system_id":"levelo_inurba_marseille","lat":43.33541,"lon":5.37462,"is_reserved":false,"is_disabled":false,"rental_uris":{"android":"levelo://app?vid=5206b1c0-ea28-4288-9fb7-15de647e09fa","ios":"levelo://app?vid=5206b1c0-ea28-4288-9fb7-15de647e09fa"},"vehicle_type_id":"4","last_reported":1774120529,"current_range_meters":7200,"station_id":"st_d46tts09ee8s73dlu43g","pricing_plan_id":"cebpf4jnsgd1na2vs0mg"},{"bike_id":"5b61e3cf-bcf8-4fef-adfb-ae9739d56f7c","system_id":"levelo_inurba_marseille","lat":43.28077,"lon":5.39658,"is_reserved":false,"is_disabled":false,"rental_uris":{"android":"levelo://app?vid=5b61e3cf-bcf8-4fef-adfb-ae9739d56f7c","ios":"levelo://app?vid=5b61e3cf-bcf8-4fef-adfb-ae9739d56f7c"},"vehicle_type_id":"4","last_reported":1774120529,"current_range_meters":7200,"station_id":"ce4bho12rcd13ifvqh2g","pricing_plan_id":"cebpf4jnsgd1na2vs0mg"},{"bike_id":"38ed5704-f7a0-4745-8ac0-86968f4578fd","system_id":"levelo_inurba_marseille","lat":43.30877,"lon":5.39661,"is_reserved":false,"is_disabled":false,"rental_uris":{"android":"levelo://app?vid=38ed5704-f7a0-4745-8ac0-86968f4578fd","ios":"levelo://app?vid=38ed5704-f7a0-4745-8ac0-86968f4578fd"},"vehicle_type_id":"4","last_reported":1774120529,"current_range_meters":7200,"station_id":"ce4bh012rcd13ifvqcv0","pricing_plan_id":"cebpf4jnsgd1na2vs0mg"},{"bike_id":"bb64248e-0e5d-4ee1-9d8f-d48a0dd77d66","system_id":"levelo_inurba_marseille","lat":43.21629,"lon":5.3448,"is_reserved":false,"is_disabled":false,"rental_uris":{"android":"levelo://app?vid=bb64248e-0e5d-4ee1-9d8f-d48a0dd77d66","ios":"levelo://app?vid=bb64248e-0e5d-4ee1-9d8f-d48a0dd77d66"},"vehicle_type_id":"4","last_reported":1774120529,"current_range_meters":7200,"station_id":"","pricing_plan_id":"cebpf4jnsgd1na2vs0mg"},{"bike_id":"703efbe1-feef-417d-a9e3-0fca1a7eab74","system_id":"levelo_inurba_marseille","lat":43.34937,"lon":5.37947,"is_reserved":false,"is_disabled":false,"rental_uris":{"android":"levelo://app?vid=703efbe1-feef-417d-a9e3-0fca1a7eab74","ios":"levelo://app?vid=703efbe1-feef-417d-a9e3-0fca1a7eab74"},"vehicle_type_id":"4","last_reported":1774120529,"current_range_meters":7200,"station_id":"","pricing_plan_id":"cebpf4jnsgd1na2vs0mg"},{"bike_id":"8ca837f7-00fe-4951-86fe-aeefc2d4206f","system_id":"levelo_inurba_marseille","lat":43.30153,"lon":5.38797,"is_reserved":false,"is_disabled":false,"rental_uris":{"android":"levelo://app?vid=8ca837f7-00fe-4951-86fe-aeefc2d4206f","ios":"levelo://app?vid=8ca837f7-00fe-4951-86fe-aeefc2d4206f"},"vehicle_type_id":"4","last_reported":1774120529,"current_range_meters":7200,"station_id":"ce4bghh2rcd13ifvqb60","pricing_plan_id":"cebpf4jnsgd1na2vs0mg"},{"bike_id":"83f26f0c-76a5-412b-b3a4-76d2e6d84a47","system_id":"levelo_inurba_marseille","lat":43.29503,"lon":5.38519,"is_reserved":false,"is_disabled":false,"rental_uris":{"android":"levelo://app?vid=83f26f0c-76a5-412b-b3a4-76d2e6d84a47","ios":"levelo://app?vid=83f26f0c-76a5-412b-b3a4-76d2e6d84a47"},"vehicle_type_id":"4","last_reported":1774120529,"current_range_meters":7200,"station_id":"ce4bgih2rcd13ifvqba0","pricing_plan_id":"cebpf4jnsgd1na2vs0mg"},{"bike_id":"6fbf9e1a-5ad3-420f-89dd-fdb96fe39086","system_id":"levelo_inurba_marseille","lat":43.31168,"lon":5.36883,"is_reserved":false,"is_disabled":false,"rental_uris":{"android":"levelo://app?vid=6fbf9e1a-5ad3-420f-89dd-fdb96fe39086","ios":"levelo://app?vid=6fbf9e1a-5ad3-420f-89dd-fdb96fe39086"},"vehicle_type_id":"4","last_reported":1774120529,"current_range_meters":8000,"station_id":"ce4bgl92rcd13ifvqbq0","pricing_plan_id":"cebpf4jnsgd1na2vs0mg"},{"bike_id":"3cb96fa6-d92a-44d6-a9f6-e71fa5e42eb1","system_id":"levelo_inurba_marseille","lat":43.251,"lon":5.40334,"is_reserved":false,"is_disabled":false,"rental_uris":{"android":"levelo://app?vid=3cb96fa6-d92a-44d6-a9f6-e71fa5e42eb1","ios":"levelo://app?vid=3cb96fa6-d92a-44d6-a9f6-e71fa5e42eb1"},"vehicle_type_id":"4","last_reported":1774120529,"current_range_meters":8000,"station_id":"ce4bhlh2rcd13ifvqgig","pricing_plan_id":"cebpf4jnsgd1na2vs0mg"},{"bike_id":"1a6cc1c8-35d2-460b-a403-746b22fd58a4","system_id":"levelo_inurba_marseille","lat":43.28568,"lon":5.39504,"is_reserved":false,"is_disabled":false,"rental_uris":{"android":"levelo://app?vid=1a6cc1c8-35d2-460b-a403-746b22fd58a4","ios":"levelo://app?vid=1a6cc1c8-35d2-460b-a403-746b22fd58a4"},"vehicle_type_id":"4","last_reported":1774120529,"current_range_meters":8000,"station_id":"ce4bh292rcd13ifvqdg0","pricing_plan_id":"cebpf4jnsgd1na2vs0mg"},{"bike_id":"c7cc5081-8a90-4664-8378-0ac0db8d74fb","system_id":"levelo_inurba_marseille","lat":43.29814,"lon":5.36672,"is_reserved":false,"is_disabled":false,"rental_uris":{"android":"levelo://app?vid=c7cc5081-8a90-4664-8378-0ac0db8d74fb","ios":"levelo://app?vid=c7cc5081-8a90-4664-8378-0ac0db8d74fb"},"vehicle_type_id":"4","last_reported":1774120529,"current_range_meters":8000,"station_id":"","pricing_plan_id":"cebpf4jnsgd1na2vs0mg"},{"bike_id":"0befa575-ed02-467b-a157-4ce58d2185b6","system_id":"levelo_inurba_marseille","lat":43.29027,"lon":5.38122,"is_reserved":false,"is_disabled":false,"rental_uris":{"android":"levelo://app?vid=0befa575-ed02-467b-a157-4ce58d2185b6","ios":"levelo://app?vid=0befa575-ed02-467b-a157-4ce58d2185b6"},"vehicle_type_id":"4","last_reported":1774120529,"current_range_meters":8000,"station_id":"ce4bh4p2rcd13ifvqe1g","pricing_plan_id":"cebpf4jnsgd1na2vs0mg"},{"bike_id":"560354bb-6646-49b6-a097-996970848b69","system_id":"levelo_inurba_marseille","lat":43.298,"lon":5.38103,"is_reserved":false,"is_disabled":false,"rental_uris":{"android":"levelo://app?vid=560354bb-6646-49b6-a097-996970848b69","ios":"levelo://app?vid=560354bb-6646-49b6-a097-996970848b69"},"vehicle_type_id":"4","last_reported":1774120529,"current_range_meters":8000,"station_id":"ce4bgip2rcd13ifvqbb0","pricing_plan_id":"cebpf4jnsgd1na2vs0mg"},{"bike_id":"0ec580a5-22a6-4285-b753-3b0a7f230056","system_id":"levelo_inurba_marseille","lat":43.2408,"lon":5.37779,"is_reserved":false,"is_disabled":false,"rental_uris":{"android":"levelo://app?vid=0ec580a5-22a6-4285-b753-3b0a7f230056","ios":"levelo://app?vid=0ec580a5-22a6-4285-b753-3b0a7f230056"},"vehicle_type_id":"4","last_reported":1774120529,"current_range_meters":8000,"station_id":"ce4bhnp2rcd13ifvqgvg","pricing_plan_id":"cebpf4jnsgd1na2vs0mg"},{"bike_id":"e235762e-a428-4a9f-9eb3-736f71d078f4","system_id":"levelo_inurba_marseille","lat":43.3091,"lon":5.36849,"is_reserved":false,"is_disabled":false,"rental_uris":{"android":"levelo://app?vid=e235762e-a428-4a9f-9eb3-736f71d078f4","ios":"levelo://app?vid=e235762e-a428-4a9f-9eb3-736f71d078f4"},"vehicle_type_id":"4","last_reported":1774120529,"current_range_meters":8000,"station_id":"ce4bgn92rcd13ifvqbvg","pricing_plan_id":"cebpf4jnsgd1na2vs0mg"},{"bike_id":"c3c4eefc-acbb-41cd-8d68-055910894457","system_id":"levelo_inurba_marseille","lat":43.30141,"lon":5.39867,"is_reserved":false,"is_disabled":false,"rental_uris":{"android":"levelo://app?vid=c3c4eefc-acbb-41cd-8d68-055910894457","ios":"levelo://app?vid=c3c4eefc-acbb-41cd-8d68-055910894457"},"vehicle_type_id":"4","last_reported":1774120529,"current_range_meters":8000,"station_id":"ce4bh0h2rcd13ifvqd40","pricing_plan_id":"cebpf4jnsgd1na2vs0mg"},{"bike_id":"d65bd890-bd76-40b1-a464-add252f480e6","system_id":"levelo_inurba_marseille","lat":43.31736,"lon":5.38999,"is_reserved":false,"is_disabled":false,"rental_uris":{"android":"levelo://app?vid=d65bd890-bd76-40b1-a464-add252f480e6","ios":"levelo://app?vid=d65bd890-bd76-40b1-a464-add252f480e6"},"vehicle_type_id":"4","last_reported":1774120529,"current_range_meters":8000,"station_id":"ce4bhqp2rcd13ifvqhng","pricing_plan_id":"cebpf4jnsgd1na2vs0mg"},{"bike_id":"84dc3d68-1c59-4a3a-a8d1-cca6c5afc7c9","system_id":"levelo_inurba_marseille","lat":43.28023,"lon":5.36957,"is_reserved":false,"is_disabled":false,"rental_uris":{"android":"levelo://app?vid=84dc3d68-1c59-4a3a-a8d1-cca6c5afc7c9","ios":"levelo://app?vid=84dc3d68-1c59-4a3a-a8d1-cca6c5afc7c9"},"vehicle_type_id":"4","last_reported":1774120529,"current_range_meters":8000,"station_id":"ce4bha12rcd13ifvqef0","pricing_plan_id":"cebpf4jnsgd1na2vs0mg"},{"bike_id":"265e8953-ec63-4a53-92c4-1c2a5e4d3a91","system_id":"levelo_inurba_marseille","lat":43.28939,"lon":5.36626,"is_reserved":false,"is_disabled":false,"rental_uris":{"android":"levelo://app?vid=265e8953-ec63-4a53-92c4-1c2a5e4d3a91","ios":"levelo://app?vid=265e8953-ec63-4a53-92c4-1c2a5e4d3a91"},"vehicle_type_id":"4","last_reported":1774120529,"current_range_meters":8000,"station_id":"ce4bhap2rcd13ifvqek0","pricing_plan_id":"cebpf4jnsgd1na2vs0mg"},{"bike_id":"c2a0a012-5d3a-4e4f-b955-27c407b4c2c8","system_id":"levelo_inurba_marseille","lat":43.29043,"lon":5.3757,"is_reserved":false,"is_disabled":false,"rental_uris":{"android":"levelo://app?vid=c2a0a012-5d3a-4e4f-b955-27c407b4c2c8","ios":"levelo://app?vid=c2a0a012-5d3a-4e4f-b955-27c407b4c2c8"},"vehicle_type_id":"4","last_reported":1774120529,"current_range_meters":8000,"station_id":"ce4bh692rcd13ifvqe90","pricing_plan_id":"cebpf4jnsgd1na2vs0mg"},{"bike_id":"881552ad-57ca-4484-9a05-f159c58f50d9","system_id":"levelo_inurba_marseille","lat":43.31693,"lon":5.38693,"is_reserved":false,"is_disabled":false,"rental_uris":{"android":"levelo://app?vid=881552ad-57ca-4484-9a05-f159c58f50d9","ios":"levelo://app?vid=881552ad-57ca-4484-9a05-f159c58f50d9"},"vehicle_type_id":"4","last_reported":1774120529,"current_range_meters":8000,"station_id":"","pricing_plan_id":"cebpf4jnsgd1na2vs0mg"},{"bike_id":"efe4b101-a4c2-4a36-bd51-36393273087f","system_id":"levelo_inurba_marseille","lat":43.28501,"lon":5.48443,"is_reserved":false,"is_disabled":false,"rental_uris":{"android":"levelo://app?vid=efe4b101-a4c2-4a36-bd51-36393273087f","ios":"levelo://app?vid=efe4b101-a4c2-4a36-bd51-36393273087f"},"vehicle_type_id":"4","last_reported":1774120529,"current_range_meters":8000,"station_id":"st_d3svhcjqgbts73a3dn0g","pricing_plan_id":"cebpf4jnsgd1na2vs0mg"},{"bike_id":"afaf009b-854b-4a4a-9a19-fdc9f27a88ec","system_id":"levelo_inurba_marseille","lat":43.29056,"lon":5.38651,"is_reserved":false,"is_disabled":true,"rental_uris":{"android":"levelo://app?vid=afaf009b-854b-4a4a-9a19-fdc9f27a88ec","ios":"levelo://app?vid=afaf009b-854b-4a4a-9a19-fdc9f27a88ec"},"vehicle_type_id":"4","last_reported":1774120529,"current_range_meters":8000,"station_id":"ce4bh4p2rcd13ifvqe0g","pricing_plan_id":"cebpf4jnsgd1na2vs0mg"},{"bike_id":"d3165751-186a-400c-8045-546da55910f7","system_id":"levelo_inurba_marseille","lat":43.29529,"lon":5.38529,"is_reserved":false,"is_disabled":false,"rental_uris":{"android":"levelo://app?vid=d3165751-186a-400c-8045-546da55910f7","ios":"levelo://app?vid=d3165751-186a-400c-8045-546da55910f7"},"vehicle_type_id":"4","last_reported":1774120529,"current_range_meters":8000,"station_id":"ce4bgih2rcd13ifvqba0","pricing_plan_id":"cebpf4jnsgd1na2vs0mg"},{"bike_id":"c2174725-5dde-4c58-b49f-4db620b81a3d","system_id":"levelo_inurba_marseille","lat":43.32658,"lon":5.41002,"is_reserved":false,"is_disabled":false,"rental_uris":{"android":"levelo://app?vid=c2174725-5dde-4c58-b49f-4db620b81a3d","ios":"levelo://app?vid=c2174725-5dde-4c58-b49f-4db620b81a3d"},"vehicle_type_id":"4","last_reported":1774120529,"current_range_meters":8000,"station_id":"ce4bhpp2rcd13ifvqhgg","pricing_plan_id":"cebpf4jnsgd1na2vs0mg"},{"bike_id":"2cd11bbe-ed2d-4401-ac74-aa88c1ac5db6","system_id":"levelo_inurba_marseille","lat":43.29426,"lon":5.39757,"is_reserved":false,"is_disabled":false,"rental_uris":{"android":"levelo://app?vid=2cd11bbe-ed2d-4401-ac74-aa88c1ac5db6","ios":"levelo://app?vid=2cd11bbe-ed2d-4401-ac74-aa88c1ac5db6"},"vehicle_type_id":"4","last_reported":1774120529,"current_range_meters":8000,"station_id":"ce4bh3h2rcd13ifvqdo0","pricing_plan_id":"cebpf4jnsgd1na2vs0mg"},{"bike_id":"24892758-e1c8-4866-9ace-f6379bc81fdc","system_id":"levelo_inurba_marseille","lat":43.26367,"lon":5.41078,"is_reserved":false,"is_disabled":false,"rental_uris":{"android":"levelo://app?vid=24892758-e1c8-4866-9ace-f6379bc81fdc","ios":"levelo://app?vid=24892758-e1c8-4866-9ace-f6379bc81fdc"},"vehicle_type_id":"4","last_reported":1774120529,"current_range_meters":8000,"station_id":"st_d4e5ca6na9uc73bfl5fg","pricing_plan_id":"cebpf4jnsgd1na2vs0mg"},{"bike_id":"b4b832fc-992b-4fdb-956d-b103015bbba7","system_id":"levelo_inurba_marseille","lat":43.2954,"lon":5.38553,"is_reserved":false,"is_disabled":false,"rental_uris":{"android":"levelo://app?vid=b4b832fc-992b-4fdb-956d-b103015bbba7","ios":"levelo://app?vid=b4b832fc-992b-4fdb-956d-b103015bbba7"},"vehicle_type_id":"4","last_reported":1774120529,"current_range_meters":8400,"station_id":"ce4bgih2rcd13ifvqba0","pricing_plan_id":"cebpf4jnsgd1na2vs0mg"},{"bike_id":"9428c957-f603-4346-9e68-4f9e4a780b24","system_id":"levelo_inurba_marseille","lat":43.21756,"lon":5.34591,"is_reserved":false,"is_disabled":true,"rental_uris":{"android":"levelo://app?vid=9428c957-f603-4346-9e68-4f9e4a780b24","ios":"levelo://app?vid=9428c957-f603-4346-9e68-4f9e4a780b24"},"vehicle_type_id":"4","last_reported":1774120529,"current_range_meters":8400,"station_id":"st_cvj6r9ubvosntc0bgbag","pricing_plan_id":"cebpf4jnsgd1na2vs0mg"},{"bike_id":"62ccf4a8-0426-42c8-92c7-60b92e2221c9","system_id":"levelo_inurba_marseille","lat":43.28487,"lon":5.48383,"is_reserved":false,"is_disabled":false,"rental_uris":{"android":"levelo://app?vid=62ccf4a8-0426-42c8-92c7-60b92e2221c9","ios":"levelo://app?vid=62ccf4a8-0426-42c8-92c7-60b92e2221c9"},"vehicle_type_id":"4","last_reported":1774120529,"current_range_meters":8400,"station_id":"","pricing_plan_id":"cebpf4jnsgd1na2vs0mg"},{"bike_id":"b6fffe2f-9423-41b9-a53f-4ddbccd10965","system_id":"levelo_inurba_marseille","lat":43.33542,"lon":5.37479,"is_reserved":false,"is_disabled":false,"rental_uris":{"android":"levelo://app?vid=b6fffe2f-9423-41b9-a53f-4ddbccd10965","ios":"levelo://app?vid=b6fffe2f-9423-41b9-a53f-4ddbccd10965"},"vehicle_type_id":"4","last_reported":1774120529,"current_range_meters":8400,"station_id":"st_d46tts09ee8s73dlu43g","pricing_plan_id":"cebpf4jnsgd1na2vs0mg"},{"bike_id":"5bdd72d8-a44c-4227-9c9b-aeeaf735e92b","system_id":"levelo_inurba_marseille","lat":43.27841,"lon":5.3921,"is_reserved":false,"is_disabled":false,"rental_uris":{"android":"levelo://app?vid=5bdd72d8-a44c-4227-9c9b-aeeaf735e92b","ios":"levelo://app?vid=5bdd72d8-a44c-4227-9c9b-aeeaf735e92b"},"vehicle_type_id":"4","last_reported":1774120529,"current_range_meters":8400,"station_id":"ce4bhjp2rcd13ifvqga0","pricing_plan_id":"cebpf4jnsgd1na2vs0mg"},{"bike_id":"037af263-c94a-46ee-b673-7aa7948320d5","system_id":"levelo_inurba_marseille","lat":43.29276,"lon":5.38447,"is_reserved":false,"is_disabled":true,"rental_uris":{"android":"levelo://app?vid=037af263-c94a-46ee-b673-7aa7948320d5","ios":"levelo://app?vid=037af263-c94a-46ee-b673-7aa7948320d5"},"vehicle_type_id":"4","last_reported":1774120529,"current_range_meters":8400,"station_id":"ce4bh692rcd13ifvqea0","pricing_plan_id":"cebpf4jnsgd1na2vs0mg"},