{"last_updated":1731211836,"ttl":60,"version":"2.2","data":{"bikes":[{"bike_id":"dcd8b508-2c18-4839-ab68-7b52cc2d3fb7","system_id":"levelo_inurba_marseille","lat":43.2707,"lon":5.42274,"is_reserved":false,"is_disabled":false,"rental_uris":{"android":"levelo://app?vid=dcd8b508-2c18-4839-ab68-7b52cc2d3fb7","ios":"levelo://app?vid=dcd8b508-2c18-4839-ab68-7b52cc2d3fb7"},"vehicle_type_id":"4","last_reported":1731211837,"current_range_meters":32000,"station_id":"ce4bhk92rcd13ifvqgb0","pricing_plan_id":"cebpf4jnsgd1na2vs0mg"},{"bike_id":"e94e2327-9eaf-4d26-bd7f-903afa708be6","system_id":"levelo_inurba_marseille","lat":43.33738,"lon":5.39184,"is_reserved":false,"is_disabled":false,"rental_uris":{"android":"levelo://app?vid=e94e2327-9eaf-4d26-bd7f-903afa708be6","ios":"levelo://app?vid=e94e2327-9eaf-4d26-bd7f-903afa708be6"},"vehicle_type_id":"4","last_reported":1731211837,"current_range_meters":16000,"station_id":"ce4bhr92rcd13ifvqhsg","pricing_plan_id":"cebpf4jnsgd1na2vs0mg"},{"bike_id":"bbe26f77-f267-4bd9-bb06-25e015fe2b2d","system_id":"levelo_inurba_marseille","lat":43.30934,"lon":5.40142,"is_reserved":false,"is_disabled":false,"rental_uris":{"android":"levelo://app?vid=bbe26f77-f267-4bd9-bb06-25e015fe2b2d","ios":"levelo://app?vid=bbe26f77-f267-4bd9-bb06-25e015fe2b2d"},"vehicle_type_id":"4","last_reported":1731211837,"current_range_meters":22400,"station_id":"ce4bgvp2rcd13ifvqct0","pricing_plan_id":"cebpf4jnsgd1na2vs0mg"},{"bike_id":"7487073e-a932-47db-b861-8345c80b8f5d","system_id":"levelo_inurba_marseille","lat":43.2606,"lon":5.39401,"is_reserved":false,"is_disabled":false,"rental_uris":{"android":"levelo://app?vid=7487073e-a932-47db-b861-8345c80b8f5d","ios":"levelo://app?vid=7487073e-a932-47db-b861-8345c80b8f5d"},"vehicle_type_id":"4","last_reported":1731211837,"current_range_meters":20000,"station_id":"ce4bhh92rcd13ifvqfj0","pricing_plan_id":"cebpf4jnsgd1na2vs0mg"},{"bike_id":"a4c656fb-580c-4104-9a15-bf67712d5cb9","system_id":"levelo_inurba_marseille","lat":43.27378,"lon":5.36252,"is_reserved":false,"is_disabled":false,"rental_uris":{"android":"levelo://app?vid=a4c656fb-580c-4104-9a15-bf67712d5cb9","ios":"levelo://app?vid=a4c656fb-580c-4104-9a15-bf67712d5cb9"},"vehicle_type_id":"4","last_reported":1731211837,"current_range_meters":38800,"station_id":"ce4bhbh2rcd13ifvqeo0","pricing_plan_id":"cebpf4jnsgd1na2vs0mg"},{"bike_id":"8d618ad3-e42f-4b7f-961b-1ad00e2aa17c","system_id":"levelo_inurba_marseille","lat":43.25006,"lon":5.389146,"is_reserved":false,"is_disabled":false,"rental_uris":{"android":"levelo://app?vid=8d618ad3-e42f-4b7f-961b-1ad00e2aa17c","ios":"levelo://app?vid=8d618ad3-e42f-4b7f-961b-1ad00e2aa17c"},"vehicle_type_id":"4","last_reported":1731211837,"current_range_meters":38000,"station_id":"ce4bhgp2rcd13ifvqfd0","pricing_plan_id":"cebpf4jnsgd1na2vs0mg"},{"bike_id":"68bb9078-c705-4e4c-81de-7ae7c7d86c43","system_id":"levelo_inurba_marseille","lat":43.31602,"lon":5.37836,"is_reserved":false,"is_disabled":false,"rental_uris":{"android":"levelo://app?vid=68bb9078-c705-4e4c-81de-7ae7c7d86c43","ios":"levelo://app?vid=68bb9078-c705-4e4c-81de-7ae7c7d86c43"},"vehicle_type_id":"4","last_reported":1731211837,"current_range_meters":26000,"station_id":"ce4bgth2rcd13ifvqch0","pricing_plan_id":"cebpf4jnsgd1na2vs0mg"},{"bike_id":"4448d668-8be1-476d-8ba4-79dcdaf5f3bf","system_id":"levelo_inurba_marseille","lat":43.30527,"lon":5.36725,"is_reserved":false,"is_disabled":false,"rental_uris":{"android":"levelo://app?vid=4448d668-8be1-476d-8ba4-79dcdaf5f3bf","ios":"levelo://app?vid=4448d668-8be1-476d-8ba4-79dcdaf5f3bf"},"vehicle_type_id":"4","last_reported":1731211837,"current_range_meters":38400,"station_id":"ce4bgrp2rcd13ifvqc9g","pricing_plan_id":"cebpf4jnsgd1na2vs0mg"},{"bike_id":"a4191671-fa31-45dd-a3de-35cd529d11a5","system_id":"levelo_inurba_marseille","lat":43.29431,"lon":5.39748,"is_reserved":false,"is_disabled":false,"rental_uris":{"android":"levelo://app?vid=a4191671-fa31-45dd-a3de-35cd529d11a5","ios":"levelo://app?vid=a4191671-fa31-45dd-a3de-35cd529d11a5"},"vehicle_type_id":"4","last_reported":1731211837,"current_range_meters":30400,"station_id":"ce4bh3h2rcd13ifvqdo0","pricing_plan_id":"cebpf4jnsgd1na2vs0mg"},{"bike_id":"5daf7e81-adca-4c69-ac49-7439dac41928","system_id":"levelo_inurba_marseille","lat":43.29558,"lon":5.42302,"is_reserved":false,"is_disabled":false,"rental_uris":{"android":"levelo://app?vid=5daf7e81-adca-4c69-ac49-7439dac41928","ios":"levelo://app?vid=5daf7e81-adca-4c69-ac49-7439dac41928"},"vehicle_type_id":"4","last_reported":1731211837,"current_range_meters":39200,"station_id":"ce4bhph2rcd13ifvqhdg","pricing_plan_id":"cebpf4jnsgd1na2vs0mg"},{"bike_id":"4a4d0bc3-bd73-416f-a9f1-61dcd499816a","system_id":"levelo_inurba_marseille","lat":43.296898,"lon":5.365775,"is_reserved":false,"is_disabled":false,"rental_uris":{"android":"levelo://app?vid=4a4d0bc3-bd73-416f-a9f1-61dcd499816a","ios":"levelo://app?vid=4a4d0bc3-bd73-416f-a9f1-61dcd499816a"},"vehicle_type_id":"4","last_reported":1731211837,"current_range_meters":16400,"station_id":"ce4bgn12rcd13ifvqbt0","pricing_plan_id":"cebpf4jnsgd1na2vs0mg"},{"bike_id":"bab7e8bf-3dd9-4ba8-ae9e-1d78dcf614a2","system_id":"levelo_inurba_marseille","lat":43.25091,"lon":5.39511,"is_reserved":false,"is_disabled":false,"rental_uris":{"android":"levelo://app?vid=bab7e8bf-3dd9-4ba8-ae9e-1d78dcf614a2","ios":"levelo://app?vid=bab7e8bf-3dd9-4ba8-ae9e-1d78dcf614a2"},"vehicle_type_id":"4","last_reported":1731211837,"current_range_meters":36800,"station_id":"ce4bhm12rcd13ifvqgkg","pricing_plan_id":"cebpf4jnsgd1na2vs0mg"},{"bike_id":"015818e9-e80c-4eee-ac1e-68618c0bc31a","system_id":"levelo_inurba_marseille","lat":43.28719,"lon":5.39982,"is_reserved":false,"is_disabled":false,"rental_uris":{"android":"levelo://app?vid=015818e9-e80c-4eee-ac1e-68618c0bc31a","ios":"levelo://app?vid=015818e9-e80c-4eee-ac1e-68618c0bc31a"},"vehicle_type_id":"4","last_reported":1731211837,"current_range_meters":16400,"station_id":"ce4bho92rcd13ifvqh3g","pricing_plan_id":"cebpf4jnsgd1na2vs0mg"},{"bike_id":"e216a384-3e35-4268-818c-54b5ad9b419d","system_id":"levelo_inurba_marseille","lat":43.27616,"lon":5.36115,"is_reserved":false,"is_disabled":false,"rental_uris":{"android":"levelo://app?vid=e216a384-3e35-4268-818c-54b5ad9b419d","ios":"levelo://app?vid=e216a384-3e35-4268-818c-54b5ad9b419d"},"vehicle_type_id":"4","last_reported":1731211837,"current_range_meters":38400,"station_id":"ce4bgj92rcd13ifvqbe0","pricing_plan_id":"cebpf4jnsgd1na2vs0mg"},{"bike_id":"3cba9fdd-e01f-406a-8731-509d66a1b107","system_id":"levelo_inurba_marseille","lat":43.26062,"lon":5.39395,"is_reserved":false,"is_disabled":false,"rental_uris":{"android":"levelo://app?vid=3cba9fdd-e01f-406a-8731-509d66a1b107","ios":"levelo://app?vid=3cba9fdd-e01f-406a-8731-509d66a1b107"},"vehicle_type_id":"4","last_reported":1731211837,"current_range_meters":27200,"station_id":"ce4bhh92rcd13ifvqfj0","pricing_plan_id":"cebpf4jnsgd1na2vs0mg"},{"bike_id":"4eb8cd11-f10e-4d12-8a9c-4645e2f4f74b","system_id":"levelo_inurba_marseille","lat":43.2784,"lon":5.39198,"is_reserved":false,"is_disabled":false,"rental_uris":{"android":"levelo://app?vid=4eb8cd11-f10e-4d12-8a9c-4645e2f4f74b","ios":"levelo://app?vid=4eb8cd11-f10e-4d12-8a9c-4645e2f4f74b"},"vehicle_type_id":"4","last_reported":1731211837,"current_range_meters":38800,"station_id":"ce4bhjp2rcd13ifvqga0","pricing_plan_id":"cebpf4jnsgd1na2vs0mg"},{"bike_id":"92ed15e4-48c5-4dd4-af9a-d871550eac7b","system_id":"levelo_inurba_marseille","lat":43.29975,"lon":5.38487,"is_reserved":false,"is_disabled":false,"rental_uris":{"android":"levelo://app?vid=92ed15e4-48c5-4dd4-af9a-d871550eac7b","ios":"levelo://app?vid=92ed15e4-48c5-4dd4-af9a-d871550eac7b"},"vehicle_type_id":"4","last_reported":1731211837,"current_range_meters":9600,"station_id":"ce4bgj92rcd13ifvqbd0","pricing_plan_id":"cebpf4jnsgd1na2vs0mg"},{"bike_id":"605308ae-e328-49e6-83af-5dad5f553481","system_id":"levelo_inurba_marseille","lat":43.23967,"lon":5.36636,"is_reserved":false,"is_disabled":false,"rental_uris":{"android":"levelo://app?vid=605308ae-e328-49e6-83af-5dad5f553481","ios":"levelo://app?vid=605308ae-e328-49e6-83af-5dad5f553481"},"vehicle_type_id":"4","last_reported":1731211837,"current_range_meters":32000,"station_id":"ce4bhi12rcd13ifvqfp0","pricing_plan_id":"cebpf4jnsgd1na2vs0mg"},{"bike_id":"9110cb2e-2e72-4bc3-9f77-b10b73b70273","system_id":"levelo_inurba_marseille","lat":43.26059,"lon":5.39396,"is_reserved":false,"is_disabled":false,"rental_uris":{"android":"levelo://app?vid=9110cb2e-2e72-4bc3-9f77-b10b73b70273","ios":"levelo://app?vid=9110cb2e-2e72-4bc3-9f77-b10b73b70273"},"vehicle_type_id":"4","last_reported":1731211837,"current_range_meters":25600,"station_id":"ce4bhh92rcd13ifvqfj0","pricing_plan_id":"cebpf4jnsgd1na2vs0mg"},{"bike_id":"5e36cde2-fcff-4a64-90a2-e74bc8690dc9","system_id":"levelo_inurba_marseille","lat":43.29269,"lon":5.4012,"is_reserved":false,"is_disabled":false,"rental_uris":{"android":"levelo://app?vid=5e36cde2-fcff-4a64-90a2-e74bc8690dc9","ios":"levelo://app?vid=5e36cde2-fcff-4a64-90a2-e74bc8690dc9"},"vehicle_type_id":"4","last_reported":1731211837,"current_range_meters":12000,"station_id":"ce4bh312rcd13ifvqdk0","pricing_plan_id":"cebpf4jnsgd1na2vs0mg"},{"bike_id":"0e2e1854-95c0-4c56-aead-2824487f9a9d","system_id":"levelo_inurba_marseille","lat":43.31321,"lon":5.39687,"is_reserved":false,"is_disabled":false,"rental_uris":{"android":"levelo://app?vid=0e2e1854-95c0-4c56-aead-2824487f9a9d","ios":"levelo://app?vid=0e2e1854-95c0-4c56-aead-2824487f9a9d"},"vehicle_type_id":"4","last_reported":1731211837,"current_range_meters":39200,"station_id":"ce4bgvp2rcd13ifvqcu0","pricing_plan_id":"cebpf4jnsgd1na2vs0mg"},{"bike_id":"30037827-8659-4cce-803b-88835fb3f6b5","system_id":"levelo_inurba_marseille","lat":43.25506,"lon":5.37647,"is_reserved":false,"is_disabled":false,"rental_uris":{"android":"levelo://app?vid=30037827-8659-4cce-803b-88835fb3f6b5","ios":"levelo://app?vid=30037827-8659-4cce-803b-88835fb3f6b5"},"vehicle_type_id":"4","last_reported":1731211837,"current_range_meters":38800,"station_id":"ce4bhh12rcd13ifvqff0","pricing_plan_id":"cebpf4jnsgd1na2vs0mg"},{"bike_id":"04c187fe-5890-4896-9caa-854dfbf0dbf0","system_id":"levelo_inurba_marseille","lat":43.28706,"lon":5.3997,"is_reserved":false,"is_disabled":false,"rental_uris":{"android":"levelo://app?vid=04c187fe-5890-4896-9caa-854dfbf0dbf0","ios":"levelo://app?vid=04c187fe-5890-4896-9caa-854dfbf0dbf0"},"vehicle_type_id":"4","last_reported":1731211837,"current_range_meters":8400,"station_id":"ce4bho92rcd13ifvqh3g","pricing_plan_id":"cebpf4jnsgd1na2vs0mg"},{"bike_id":"1770fd63-95f4-4b3d-bc0d-9430ae57c710","system_id":"levelo_inurba_marseille","lat":43.3018,"lon":5.36613,"is_reserved":false,"is_disabled":false,"rental_uris":{"android":"levelo://app?vid=1770fd63-95f4-4b3d-bc0d-9430ae57c710","ios":"levelo://app?vid=1770fd63-95f4-4b3d-bc0d-9430ae57c710"},"vehicle_type_id":"4","last_reported":1731211837,"current_range_meters":37600,"station_id":"ce4bgrh2rcd13ifvqc8g","pricing_plan_id":"cebpf4jnsgd1na2vs0mg"},{"bike_id":"a1ae0311-05a6-4335-8aa2-13444f1aa782","system_id":"levelo_inurba_marseille","lat":43.28439,"lon":5.39185,"is_reserved":false,"is_disabled":false,"rental_uris":{"android":"levelo://app?vid=a1ae0311-05a6-4335-8aa2-13444f1aa782","ios":"levelo://app?vid=a1ae0311-05a6-4335-8aa2-13444f1aa782"},"vehicle_type_id":"4","last_reported":1731211837,"current_range_meters":36400,"station_id":"ce4bhoh2rcd13ifvqh5g","pricing_plan_id":"cebpf4jnsgd1na2vs0mg"},{"bike_id":"e235d3a0-d271-4a9b-8af9-d1794cadd606","system_id":"levelo_inurba_marseille","lat":43.26204,"lon":5.37929,"is_reserved":false,"is_disabled":false,"rental_uris":{"android":"levelo://app?vid=e235d3a0-d271-4a9b-8af9-d1794cadd606","ios":"levelo://app?vid=e235d3a0-d271-4a9b-8af9-d1794cadd606"},"vehicle_type_id":"4","last_reported":1731211837,"current_range_meters":39200,"station_id":"ce4bhjp2rcd13ifvqg90","pricing_plan_id":"cebpf4jnsgd1na2vs0mg"},{"bike_id":"a6129d70-e82d-41ca-b397-d33b29a83d09","system_id":"levelo_inurba_marseille","lat":43.303016,"lon":5.392087,"is_reserved":false,"is_disabled":false,"rental_uris":{"android":"levelo://app?vid=a6129d70-e82d-41ca-b397-d33b29a83d09","ios":"levelo://app?vid=a6129d70-e82d-41ca-b397-d33b29a83d09"},"vehicle_type_id":"4","last_reported":1731211837,"current_range_meters":39200,"station_id":"ce4bgkh2rcd13ifvqbk0","pricing_plan_id":"cebpf4jnsgd1na2vs0mg"},{"bike_id":"e426d111-1493-4654-8288-792f84137915","system_id":"levelo_inurba_marseille","lat":43.29527,"lon":5.394,"is_reserved":false,"is_disabled":false,"rental_uris":{"android":"levelo://app?vid=e426d111-1493-4654-8288-792f84137915","ios":"levelo://app?vid=e426d111-1493-4654-8288-792f84137915"},"vehicle_type_id":"4","last_reported":1731211837,"current_range_meters":9200,"station_id":"ce4bh292rcd13ifvqdf0","pricing_plan_id":"cebpf4jnsgd1na2vs0mg"},{"bike_id":"b9059161-bc2a-4853-8231-de961bd5f1e7","system_id":"levelo_inurba_marseille","lat":43.33718,"lon":5.39176,"is_reserved":false,"is_disabled":false,"rental_uris":{"android":"levelo://app?vid=b9059161-bc2a-4853-8231-de961bd5f1e7","ios":"levelo://app?vid=b9059161-bc2a-4853-8231-de961bd5f1e7"},"vehicle_type_id":"4","last_reported":1731211837,"current_range_meters":18800,"station_id":"ce4bhr92rcd13ifvqhsg","pricing_plan_id":"cebpf4jnsgd1na2vs0mg"},{"bike_id":"6ea94fb0-7e96-4776-8b9b-dcfd387eb047","system_id":"levelo_inurba_marseille","lat":43.29041,"lon":5.39965,"is_reserved":false,"is_disabled":false,"rental_uris":{"android":"levelo://app?vid=6ea94fb0-7e96-4776-8b9b-dcfd387eb047","ios":"levelo://app?vid=6ea94fb0-7e96-4776-8b9b-dcfd387eb047"},"vehicle_type_id":"4","last_reported":1731211837,"current_range_meters":18800,"station_id":"ce4bh392rcd13ifvqdm0","pricing_plan_id":"cebpf4jnsgd1na2vs0mg"},{"bike_id":"9e00ae8d-b3a9-4d4b-a691-62debbf0e14c","system_id":"levelo_inurba_marseille","lat":43.23189,"lon":5.39999,"is_reserved":false,"is_disabled":false,"rental_uris":{"android":"levelo://app?vid=9e00ae8d-b3a9-4d4b-a691-62debbf0e14c","ios":"levelo://app?vid=9e00ae8d-b3a9-4d4b-a691-62debbf0e14c"},"vehicle_type_id":"4","last_reported":1731211837,"current_range_meters":38000,"station_id":"ce4bhn12rcd13ifvqgqg","pricing_plan_id":"cebpf4jnsgd1na2vs0mg"},{"bike_id":"3e09356d-842a-4c31-9cc1-46c2d49b70cc","system_id":"levelo_inurba_marseille","lat":43.32364,"lon":5.38881,"is_reserved":false,"is_disabled":false,"rental_uris":{"android":"levelo://app?vid=3e09356d-842a-4c31-9cc1-46c2d49b70cc","ios":"levelo://app?vid=3e09356d-842a-4c31-9cc1-46c2d49b70cc"},"vehicle_type_id":"4","last_reported":1731211837,"current_range_meters":32800,"station_id":"ce4bhqp2rcd13ifvqhog","pricing_plan_id":"cebpf4jnsgd1na2vs0mg"},{"bike_id":"4c078400-38bf-4153-b4a2-c937cbf6c0d1","system_id":"levelo_inurba_marseille","lat":43.28613,"lon":5.35103,"is_reserved":false,"is_disabled":false,"rental_uris":{"android":"levelo://app?vid=4c078400-38bf-4153-b4a2-c937cbf6c0d1","ios":"levelo://app?vid=4c078400-38bf-4153-b4a2-c937cbf6c0d1"},"vehicle_type_id":"4","last_reported":1731211837,"current_range_meters":3600,"station_id":"ce4bhch2rcd13ifvqeug","pricing_plan_id":"cebpf4jnsgd1na2vs0mg"},{"bike_id":"0c840890-4ab7-41f8-8e64-cf28adac14a2","system_id":"levelo_inurba_marseille","lat":43.24997,"lon":5.38934,"is_reserved":false,"is_disabled":false,"rental_uris":{"android":"levelo://app?vid=0c840890-4ab7-41f8-8e64-cf28adac14a2","ios":"levelo://app?vid=0c840890-4ab7-41f8-8e64-cf28adac14a2"},"vehicle_type_id":"4","last_reported":1731211837,"current_range_meters":28800,"station_id":"ce4bhgp2rcd13ifvqfd0","pricing_plan_id":"cebpf4jnsgd1na2vs0mg"},{"bike_id":"85deaabe-8b47-49fe-ab48-308cbac59a2b","system_id":"levelo_inurba_marseille","lat":43.28156,"lon":5.42642,"is_reserved":false,"is_disabled":false,"rental_uris":{"android":"levelo://app?vid=85deaabe-8b47-49fe-ab48-308cbac59a2b","ios":"levelo://app?vid=85deaabe-8b47-49fe-ab48-308cbac59a2b"},"vehicle_type_id":"4","last_reported":1731211837,"current_range_meters":29600,"station_id":"ce4bhnh2rcd13ifvqgug","pricing_plan_id":"cebpf4jnsgd1na2vs0mg"},{"bike_id":"ede9d860-d94a-4114-8394-8a869e4436e3","system_id":"levelo_inurba_marseille","lat":43.31354,"lon":5.36716,"is_reserved":false,"is_disabled":false,"rental_uris":{"android":"levelo://app?vid=ede9d860-d94a-4114-8394-8a869e4436e3","ios":"levelo://app?vid=ede9d860-d94a-4114-8394-8a869e4436e3"},"vehicle_type_id":"4","last_reported":1731211837,"current_range_meters":23200,"station_id":"ce4bgr92rcd13ifvqc6g","pricing_plan_id":"cebpf4jnsgd1na2vs0mg"},{"bike_id":"ecaa8b17-d888-4acb-9ce7-1cb979cb9592","system_id":"levelo_inurba_marseille","lat":43.2956,"lon":5.4228,"is_reserved":false,"is_disabled":false,"rental_uris":{"android":"levelo://app?vid=ecaa8b17-d888-4acb-9ce7-1cb979cb9592","ios":"levelo://app?vid=ecaa8b17-d888-4acb-9ce7-1cb979cb9592"},"vehicle_type_id":"4","last_reported":1731211837,"current_range_meters":18000,"station_id":"ce4bhph2rcd13ifvqhdg","pricing_plan_id":"cebpf4jnsgd1na2vs0mg"},{"bike_id":"d2b69f2e-daf8-4233-be65-2d8ca4c447e9","system_id":"levelo_inurba_marseille","lat":43.25821,"lon":5.3943,"is_reserved":false,"is_disabled":false,"rental_uris":{"android":"levelo://app?vid=d2b69f2e-daf8-4233-be65-2d8ca4c447e9","ios":"levelo://app?vid=d2b69f2e-daf8-4233-be65-2d8ca4c447e9"},"vehicle_type_id":"4","last_reported":1731211837,"current_range_meters":32000,"station_id":"ce4bhip2rcd13ifvqft0","pricing_plan_id":"cebpf4jnsgd1na2vs0mg"},{"bike_id":"b89d6516-0dc4-4705-9993-76b039773ae0","system_id":"levelo_inurba_marseille","lat":43.30143,"lon":5.37415,"is_reserved":false,"is_disabled":false,"rental_uris":{"android":"levelo://app?vid=b89d6516-0dc4-4705-9993-76b039773ae0","ios":"levelo://app?vid=b89d6516-0dc4-4705-9993-76b039773ae0"},"vehicle_type_id":"4","last_reported":1731211837,"current_range_meters":38400,"station_id":"ce4bgs92rcd13ifvqcc0","pricing_plan_id":"cebpf4jnsgd1na2vs0mg"},{"bike_id":"7200a84a-5929-45d8-90c3-05c4092117f9","system_id":"levelo_inurba_marseille","lat":43.29921,"lon":5.38128,"is_reserved":false,"is_disabled":false,"rental_uris":{"android":"levelo://app?vid=7200a84a-5929-45d8-90c3-05c4092117f9","ios":"levelo://app?vid=7200a84a-5929-45d8-90c3-05c4092117f9"},"vehicle_type_id":"4","last_reported":1731211837,"current_range_meters":29600,"station_id":"ce4bgj12rcd13ifvqbc0","pricing_plan_id":"cebpf4jnsgd1na2vs0mg"},{"bike_id":"2c982ac8-7c84-4f1a-afa7-1aed0699a369","system_id":"levelo_inurba_marseille","lat":43.26805,"lon":5.40258,"is_reserved":false,"is_disabled":false,"rental_uris":{"android":"levelo://app?vid=2c982ac8-7c84-4f1a-afa7-1aed0699a369","ios":"levelo://app?vid=2c982ac8-7c84-4f1a-afa7-1aed0699a369"},"vehicle_type_id":"4","last_reported":1731211837,"current_range_meters":38400,"station_id":"ce501612rcd8frsf0b60","pricing_plan_id":"cebpf4jnsgd1na2vs0mg"},{"bike_id":"022a6c3f-2c40-4cbf-9753-f6fa44b0f843","system_id":"levelo_inurba_marseille","lat":43.3128,"lon":5.4016,"is_reserved":false,"is_disabled":false,"rental_uris":{"android":"levelo://app?vid=022a6c3f-2c40-4cbf-9753-f6fa44b0f843","ios":"levelo://app?vid=022a6c3f-2c40-4cbf-9753-f6fa44b0f843"},"vehicle_type_id":"4","last_reported":1731211837,"current_range_meters":36400,"station_id":"ce4bh092rcd13ifvqd30","pricing_plan_id":"cebpf4jnsgd1na2vs0mg"},{"bike_id":"d73bffc4-4607-40db-b099-209c1e78f843","system_id":"levelo_inurba_marseille","lat":43.29718,"lon":5.36617,"is_reserved":false,"is_disabled":false,"rental_uris":{"android":"levelo://app?vid=d73bffc4-4607-40db-b099-209c1e78f843","ios":"levelo://app?vid=d73bffc4-4607-40db-b099-209c1e78f843"},"vehicle_type_id":"4","last_reported":1731211837,"current_range_meters":32400,"station_id":"ce4bgn12rcd13ifvqbt0","pricing_plan_id":"cebpf4jnsgd1na2vs0mg"},{"bike_id":"b3853e53-117a-4f15-b4eb-8096528db125","system_id":"levelo_inurba_marseille","lat":43.26213,"lon":5.37924,"is_reserved":false,"is_disabled":false,"rental_uris":{"android":"levelo://app?vid=b3853e53-117a-4f15-b4eb-8096528db125","ios":"levelo://app?vid=b3853e53-117a-4f15-b4eb-8096528db125"},"vehicle_type_id":"4","last_reported":1731211837,"current_range_meters":38400,"station_id":"ce4bhjp2rcd13ifvqg90","pricing_plan_id":"cebpf4jnsgd1na2vs0mg"},{"bike_id":"d4fb63b2-475a-4a2b-92b4-0a57bd205a4d","system_id":"levelo_inurba_marseille","lat":43.30652,"lon":5.40095,"is_reserved":false,"is_disabled":false,"rental_uris":{"android":"levelo://app?vid=d4fb63b2-475a-4a2b-92b4-0a57bd205a4d","ios":"levelo://app?vid=d4fb63b2-475a-4a2b-92b4-0a57bd205a4d"},"vehicle_type_id":"4","last_reported":1731211837,"current_range_meters":10000,"station_id":"ce4bh112rcd13ifvqda0","pricing_plan_id":"cebpf4jnsgd1na2vs0mg"},{"bike_id":"018cdcf7-93ec-4e24-8e3e-3f9d0d08d718","system_id":"levelo_inurba_marseille","lat":43.23962,"lon":5.3665,"is_reserved":false,"is_disabled":false,"rental_uris":{"android":"levelo://app?vid=018cdcf7-93ec-4e24-8e3e-3f9d0d08d718","ios":"levelo://app?vid=018cdcf7-93ec-4e24-8e3e-3f9d0d08d718"},"vehicle_type_id":"4","last_reported":1731211837,"current_range_meters":36000,"station_id":"ce4bhi12rcd13ifvqfp0","pricing_plan_id":"cebpf4jnsgd1na2vs0mg"},{"bike_id":"adf6a050-6286-494e-bab3-c5e8b57cc6cb","system_id":"levelo_inurba_marseille","lat":43.30937,"lon":5.40143,"is_reserved":false,"is_disabled":false,"rental_uris":{"android":"levelo://app?vid=adf6a050-6286-494e-bab3-c5e8b57cc6cb","ios":"levelo://app?vid=adf6a050-6286-494e-bab3-c5e8b57cc6cb"},"vehicle_type_id":"4","last_reported":1731211837,"current_range_meters":39200,"station_id":"ce4bgvp2rcd13ifvqct0","pricing_plan_id":"cebpf4jnsgd1na2vs0mg"},{"bike_id":"9ab0f164-1d7f-43b6-890d-5e6a7f5c0bda","system_id":"levelo_inurba_marseille","lat":43.27215,"lon":5.39177,"is_reserved":false,"is_disabled":false,"rental_uris":{"android":"levelo://app?vid=9ab0f164-1d7f-43b6-890d-5e6a7f5c0bda","ios":"levelo://app?vid=9ab0f164-1d7f-43b6-890d-5e6a7f5c0bda"},"vehicle_type_id":"4","last_reported":1731211837,"current_range_meters":28400,"station_id":"ce4bhhp2rcd13ifvqfm0","pricing_plan_id":"cebpf4jnsgd1na2vs0mg"},{"bike_id":"28f09721-67d4-41a8-ab2a-53385300bde7","system_id":"levelo_inurba_marseille","lat":43.24646,"lon":5.38897,"is_reserved":false,"is_disabled":false,"rental_uris":{"android":"levelo://app?vid=28f09721-67d4-41a8-ab2a-53385300bde7","ios":"levelo://app?vid=28f09721-67d4-41a8-ab2a-53385300bde7"},"vehicle_type_id":"4","last_reported":1731211837,"current_range_meters":22000,"station_id":"ce4bhg12rcd13ifvqf60","pricing_plan_id":"cebpf4jnsgd1na2vs0mg"},{"bike_id":"c100340e-0352-473b-9235-5d8c7722d299","system_id":"levelo_inurba_marseille","lat":43.30608,"lon":5.37254,"is_reserved":false,"is_disabled":false,"rental_uris":{"android":"levelo://app?vid=c100340e-0352-473b-9235-5d8c7722d299","ios":"levelo://app?vid=c100340e-0352-473b-9235-5d8c7722d299"},"vehicle_type_id":"4","last_reported":1731211837,"current_range_meters":38800,"station_id":"ce4bgqh2rcd13ifvqc4g","pricing_plan_id":"cebpf4jnsgd1na2vs0mg"},{"bike_id":"955bf4db-6c4e-46ac-8b4c-286008cae8b5","system_id":"levelo_inurba_marseille","lat":43.31326,"lon":5.39697,"is_reserved":false,"is_disabled":false,"rental_uris":{"android":"levelo://app?vid=955bf4db-6c4e-46ac-8b4c-286008cae8b5","ios":"levelo://app?vid=955bf4db-6c4e-46ac-8b4c-286008cae8b5"},"vehicle_type_id":"4","last_reported":1731211837,"current_range_meters":36800,"station_id":"ce4bgvp2rcd13ifvqcu0","pricing_plan_id":"cebpf4jnsgd1na2vs0mg"},{"bike_id":"e931dbea-a637-4f2a-b715-63e0aded4802","system_id":"levelo_inurba_marseille","lat":43.31166,"lon":5.38709,"is_reserved":false,"is_disabled":false,"rental_uris":{"android":"levelo://app?vid=e931dbea-a637-4f2a-b715-63e0aded4802","ios":"levelo://app?vid=e931dbea-a637-4f2a-b715-63e0aded4802"},"vehicle_type_id":"4","last_reported":1731211837,"current_range_meters":39200,"station_id":"ce4bgv12rcd13ifvqcp0","pricing_plan_id":"cebpf4jnsgd1na2vs0mg"},{"bike_id":"c2e7ed3a-f62d-4fe5-9088-bf07ba717243","system_id":"levelo_inurba_marseille","lat":43.26684,"lon":5.38272,"is_reserved":false,"is_disabled":false,"rental_uris":{"android":"levelo://app?vid=c2e7ed3a-f62d-4fe5-9088-bf07ba717243","ios":"levelo://app?vid=c2e7ed3a-f62d-4fe5-9088-bf07ba717243"},"vehicle_type_id":"4","last_reported":1731211837,"current_range_meters":40000,"station_id":"ce4bhg92rcd13ifvqf90","pricing_plan_id":"cebpf4jnsgd1na2vs0mg"},{"bike_id":"b2bda100-55bb-4b95-840e-426b436ee1ac","system_id":"levelo_inurba_marseille","lat":43.31491,"lon":5.37297,"is_reserved":false,"is_disabled":false,"rental_uris":{"android":"levelo://app?vid=b2bda100-55bb-4b95-840e-426b436ee1ac","ios":"levelo://app?vid=b2bda100-55bb-4b95-840e-426b436ee1ac"},"vehicle_type_id":"4","last_reported":1731211837,"current_range_meters":24000,"station_id":"ce4bgt12rcd13ifvqcd0","pricing_plan_id":"cebpf4jnsgd1na2vs0mg"},{"bike_id":"c94909dd-e782-4a49-bf66-6d27f36ac2ee","system_id":"levelo_inurba_marseille","lat":43.29642,"lon":5.38084,"is_reserved":false,"is_disabled":false,"rental_uris":{"android":"levelo://app?vid=c94909dd-e782-4a49-bf66-6d27f36ac2ee","ios":"levelo://app?vid=c94909dd-e782-4a49-bf66-6d27f36ac2ee"},"vehicle_type_id":"4","last_reported":1731211837,"current_range_meters":31200,"station_id":"ce4bgl12rcd13ifvqbo0","pricing_plan_id":"cebpf4jnsgd1na2vs0mg"},{"bike_id":"c221efe7-efcb-49b8-a1b0-1dd8d171a453","system_id":"levelo_inurba_marseille","lat":43.33723,"lon":5.39183,"is_reserved":false,"is_disabled":false,"rental_uris":{"android":"levelo://app?vid=c221efe7-efcb-49b8-a1b0-1dd8d171a453","ios":"levelo://app?vid=c221efe7-efcb-49b8-a1b0-1dd8d171a453"},"vehicle_type_id":"4","last_reported":1731211837,"current_range_meters":38000,"station_id":"ce4bhr92rcd13ifvqhsg","pricing_plan_id":"cebpf4jnsgd1na2vs0mg"},{"bike_id":"b8fdd341-0697-41ca-82c9-e4253415f4e6","system_id":"levelo_inurba_marseille","lat":43.230618,"lon":5.35492,"is_reserved":false,"is_disabled":false,"rental_uris":{"android":"levelo://app?vid=b8fdd341-0697-41ca-82c9-e4253415f4e6","ios":"levelo://app?vid=b8fdd341-0697-41ca-82c9-e4253415f4e6"},"vehicle_type_id":"4","last_reported":1731211837,"current_range_meters":28800,"station_id":"cpo3342slgdg3j2ifvpg","pricing_plan_id":"cebpf4jnsgd1na2vs0mg"},{"bike_id":"cf9daf46-3bd1-47e7-80ac-0de06577c598","system_id":"levelo_inurba_marseille","lat":43.24386,"lon":5.37053,"is_reserved":false,"is_disabled":false,"rental_uris":{"android":"levelo://app?vid=cf9daf46-3bd1-47e7-80ac-0de06577c598","ios":"levelo://app?vid=cf9daf46-3bd1-47e7-80ac-0de06577c598"},"vehicle_type_id":"4","last_reported":1731211837,"current_range_meters":39200,"station_id":"ce4bhhh2rcd13ifvqfk0","pricing_plan_id":"cebpf4jnsgd1na2vs0mg"},{"bike_id":"7926f21e-447b-4b97-94a3-e35466a5018e","system_id":"levelo_inurba_marseille","lat":43.23188,"lon":5.39983,"is_reserved":false,"is_disabled":false,"rental_uris":{"android":"levelo://app?vid=7926f21e-447b-4b97-94a3-e35466a5018e","ios":"levelo://app?vid=7926f21e-447b-4b97-94a3-e35466a5018e"},"vehicle_type_id":"4","last_reported":1731211837,"current_range_meters":39200,"station_id":"ce4bhn12rcd13ifvqgqg","pricing_plan_id":"cebpf4jnsgd1na2vs0mg"},{"bike_id":"d73dad62-3030-486c-b76a-698e7136e4d7","system_id":"levelo_inurba_marseille","lat":43.2465,"lon":5.38892,"is_reserved":false,"is_disabled":false,"rental_uris":{"android":"levelo://app?vid=d73dad62-3030-486c-b76a-698e7136e4d7","ios":"levelo://app?vid=d73dad62-3030-486c-b76a-698e7136e4d7"},"vehicle_type_id":"4","last_reported":1731211837,"current_range_meters":9200,"station_id":"ce4bhg12rcd13ifvqf60","pricing_plan_id":"cebpf4jnsgd1na2vs0mg"},{"bike_id":"af98eab2-693f-4fdb-8f23-a3adcf9f718f","system_id":"levelo_inurba_marseille","lat":43.2846,"lon":5.35887,"is_reserved":false,"is_disabled":false,"rental_uris":{"android":"levelo://app?vid=af98eab2-693f-4fdb-8f23-a3adcf9f718f","ios":"levelo://app?vid=af98eab2-693f-4fdb-8f23-a3adcf9f718f"},"vehicle_type_id":"4","last_reported":1731211837,"current_range_meters":9200,"station_id":"ce4bhah2rcd13ifvqei0","pricing_plan_id":"cebpf4jnsgd1na2vs0mg"},{"bike_id":"c67a1795-3146-4b01-8240-7fe64c056eca","system_id":"levelo_inurba_marseille","lat":43.30932,"lon":5.40142,"is_reserved":false,"is_disabled":false,"rental_uris":{"android":"levelo://app?vid=c67a1795-3146-4b01-8240-7fe64c056eca","ios":"levelo://app?vid=c67a1795-3146-4b01-8240-7fe64c056eca"},"vehicle_type_id":"4","last_reported":1731211837,"current_range_meters":39200,"station_id":"ce4bgvp2rcd13ifvqct0","pricing_plan_id":"cebpf4jnsgd1na2vs0mg"},{"bike_id":"33cf5912-b13c-4ed1-bc67-986058e9d053","system_id":"levelo_inurba_marseille","lat":43.31353,"lon":5.36735,"is_reserved":false,"is_disabled":false,"rental_uris":{"android":"levelo://app?vid=33cf5912-b13c-4ed1-bc67-986058e9d053","ios":"levelo://app?vid=33cf5912-b13c-4ed1-bc67-986058e9d053"},"vehicle_type_id":"4","last_reported":1731211837,"current_range_meters":32400,"station_id":"ce4bgr92rcd13ifvqc6g","pricing_plan_id":"cebpf4jnsgd1na2vs0mg"},{"bike_id":"79cfb2da-a585-4fce-98cf-dc3b63c5a31f","system_id":"levelo_inurba_marseille","lat":43.25088,"lon":5.39522,"is_reserved":false,"is_disabled":false,"rental_uris":{"android":"levelo://app?vid=79cfb2da-a585-4fce-98cf-dc3b63c5a31f","ios":"levelo://app?vid=79cfb2da-a585-4fce-98cf-dc3b63c5a31f"},"vehicle_type_id":"4","last_reported":1731211837,"current_range_meters":35600,"station_id":"ce4bhm12rcd13ifvqgkg","pricing_plan_id":"cebpf4jnsgd1na2vs0mg"},{"bike_id":"388bccca-bdb5-4031-9e3c-b3950c0a071e","system_id":"levelo_inurba_marseille","lat":43.24663,"lon":5.38165,"is_reserved":false,"is_disabled":false,"rental_uris":{"android":"levelo://app?vid=388bccca-bdb5-4031-9e3c-b3950c0a071e","ios":"levelo://app?vid=388bccca-bdb5-4031-9e3c-b3950c0a071e"},"vehicle_type_id":"4","last_reported":1731211837,"current_range_meters":36800,"station_id":"ce4bhih2rcd13ifvqfr0","pricing_plan_id":"cebpf4jnsgd1na2vs0mg"},{"bike_id":"bc4759fa-afe0-409c-990b-9bc7a136ee1f","system_id":"levelo_inurba_marseille","lat":43.29256,"lon":5.40904,"is_reserved":false,"is_disabled":false,"rental_uris":{"android":"levelo://app?vid=bc4759fa-afe0-409c-990b-9bc7a136ee1f","ios":"levelo://app?vid=bc4759fa-afe0-409c-990b-9bc7a136ee1f"},"vehicle_type_id":"4","last_reported":1731211837,"current_range_meters":39200,"station_id":"ce4bh192rcd13ifvqdc0","pricing_plan_id":"cebpf4jnsgd1na2vs0mg"},{"bike_id":"36c678b6-40f4-45a7-b112-344b26c52956","system_id":"levelo_inurba_marseille","lat":43.29571,"lon":5.3998,"is_reserved":false,"is_disabled":false,"rental_uris":{"android":"levelo://app?vid=36c678b6-40f4-45a7-b112-344b26c52956","ios":"levelo://app?vid=36c678b6-40f4-45a7-b112-344b26c52956"},"vehicle_type_id":"4","last_reported":1731211837,"current_range_meters":38800,"station_id":"ce4bh312rcd13ifvqdj0","pricing_plan_id":"cebpf4jnsgd1na2vs0mg"},{"bike_id":"45da62df-7f80-44a3-ba8e-1acd781a5f69","system_id":"levelo_inurba_marseille","lat":43.29554,"lon":5.42285,"is_reserved":false,"is_disabled":false,"rental_uris":{"android":"levelo://app?vid=45da62df-7f80-44a3-ba8e-1acd781a5f69","ios":"levelo://app?vid=45da62df-7f80-44a3-ba8e-1acd781a5f69"},"vehicle_type_id":"4","last_reported":1731211837,"current_range_meters":27600,"station_id":"ce4bhph2rcd13ifvqhdg","pricing_plan_id":"cebpf4jnsgd1na2vs0mg"},{"bike_id":"ce01ded0-ddab-4ea7-9bb2-beecf3db090d","system_id":"levelo_inurba_marseille","lat":43.29256,"lon":5.40919,"is_reserved":false,"is_disabled":false,"rental_uris":{"android":"levelo://app?vid=ce01ded0-ddab-4ea7-9bb2-beecf3db090d","ios":"levelo://app?vid=ce01ded0-ddab-4ea7-9bb2-beecf3db090d"},"vehicle_type_id":"4","last_reported":1731211837,"current_range_meters":33600,"station_id":"ce4bh192rcd13ifvqdc0","pricing_plan_id":"cebpf4jnsgd1na2vs0mg"},{"bike_id":"2972f759-c98e-4fe7-9758-85d215895273","system_id":"levelo_inurba_marseille","lat":43.23958,"lon":5.3663,"is_reserved":false,"is_disabled":false,"rental_uris":{"android":"levelo://app?vid=2972f759-c98e-4fe7-9758-85d215895273","ios":"levelo://app?vid=2972f759-c98e-4fe7-9758-85d215895273"},"vehicle_type_id":"4","last_reported":1731211837,"current_range_meters":37600,"station_id":"ce4bhi12rcd13ifvqfp0","pricing_plan_id":"cebpf4jnsgd1na2vs0mg"},{"bike_id":"010d3bc6-1da9-4e2e-9558-6436a5780c21","system_id":"levelo_inurba_marseille","lat":43.23188,"lon":5.35541,"is_reserved":false,"is_disabled":false,"rental_uris":{"android":"levelo://app?vid=010d3bc6-1da9-4e2e-9558-6436a5780c21","ios":"levelo://app?vid=010d3bc6-1da9-4e2e-9558-6436a5780c21"},"vehicle_type_id":"4","last_reported":1731211837,"current_range_meters":39200,"station_id":"ce4bhu92rcd13ifvqi70","pricing_plan_id":"cebpf4jnsgd1na2vs0mg"},{"bike_id":"07c767ea-8b74-43b9-98eb-578b3c591b1a","system_id":"levelo_inurba_marseille","lat":43.284577,"lon":5.358786,"is_reserved":false,"is_disabled":false,"rental_uris":{"android":"levelo://app?vid=07c767ea-8b74-43b9-98eb-578b3c591b1a","ios":"levelo://app?vid=07c767ea-8b74-43b9-98eb-578b3c591b1a"},"vehicle_type_id":"4","last_reported":1731211837,"current_range_meters":25200,"station_id":"ce4bhah2rcd13ifvqei0","pricing_plan_id":"cebpf4jnsgd1na2vs0mg"},{"bike_id":"720179be-536c-414c-b19d-c298d2a8d0ec","system_id":"levelo_inurba_marseille","lat":43.29557,"lon":5.42285,"is_reserved":false,"is_disabled":false,"rental_uris":{"android":"levelo://app?vid=720179be-536c-414c-b19d-c298d2a8d0ec","ios":"levelo://app?vid=720179be-536c-414c-b19d-c298d2a8d0ec"},"vehicle_type_id":"4","last_reported":1731211837,"current_range_meters":37600,"station_id":"ce4bhph2rcd13ifvqhdg","pricing_plan_id":"cebpf4jnsgd1na2vs0mg"},{"bike_id":"9eb8d370-cdcf-4de0-9b17-b3e2bf659554","system_id":"levelo_inurba_marseille","lat":43.27564,"lon":5.38421,"is_reserved":false,"is_disabled":false,"rental_uris":{"android":"levelo://app?vid=9eb8d370-cdcf-4de0-9b17-b3e2bf659554","ios":"levelo://app?vid=9eb8d370-cdcf-4de0-9b17-b3e2bf659554"},"vehicle_type_id":"4","last_reported":1731211837,"current_range_meters":38000,"station_id":"ce4bhh92rcd13ifvqfi0","pricing_plan_id":"cebpf4jnsgd1na2vs0mg"},{"bike_id":"0d02d956-2df8-4c2c-b678-42dc3a1f8714","system_id":"levelo_inurba_marseille","lat":43.296,"lon":5.38113,"is_reserved":false,"is_disabled":false,"rental_uris":{"android":"levelo://app?vid=0d02d956-2df8-4c2c-b678-42dc3a1f8714","ios":"levelo://app?vid=0d02d956-2df8-4c2c-b678-42dc3a1f8714"},"vehicle_type_id":"4","last_reported":1731211837,"current_range_meters":35600,"station_id":"ce4bgl12rcd13ifvqbo0","pricing_plan_id":"cebpf4jnsgd1na2vs0mg"},{"bike_id":"da40bed4-1812-404e-822d-6f9c15830393","system_id":"levelo_inurba_marseille","lat":43.30526,"lon":5.36543,"is_reserved":false,"is_disabled":false,"rental_uris":{"android":"levelo://app?vid=da40bed4-1812-404e-822d-6f9c15830393","ios":"levelo://app?vid=da40bed4-1812-404e-822d-6f9c15830393"},"vehicle_type_id":"4","last_reported":1731211837,"current_range_meters":5600,"station_id":"ce4bgs12rcd13ifvqcag","pricing_plan_id":"cebpf4jnsgd1na2vs0mg"},{"bike_id":"0a11ffea-6ccf-45d5-8ce9-b6dd253b1ff7","system_id":"levelo_inurba_marseille","lat":43.31893,"lon":5.40732,"is_reserved":false,"is_disabled":false,"rental_uris":{"android":"levelo://app?vid=0a11ffea-6ccf-45d5-8ce9-b6dd253b1ff7","ios":"levelo://app?vid=0a11ffea-6ccf-45d5-8ce9-b6dd253b1ff7"},"vehicle_type_id":"4","last_reported":1731211837,"current_range_meters":39200,"station_id":"ce4bhq12rcd13ifvqhig","pricing_plan_id":"cebpf4jnsgd1na2vs0mg"},{"bike_id":"c0bb6506-5938-46dd-893a-609c7329fbfa","system_id":"levelo_inurba_marseille","lat":43.29441,"lon":5.39752,"is_reserved":false,"is_disabled":false,"rental_uris":{"android":"levelo://app?vid=c0bb6506-5938-46dd-893a-609c7329fbfa","ios":"levelo://app?vid=c0bb6506-5938-46dd-893a-609c7329fbfa"},"vehicle_type_id":"4","last_reported":1731211837,"current_range_meters":36800,"station_id":"ce4bh3h2rcd13ifvqdo0","pricing_plan_id":"cebpf4jnsgd1na2vs0mg"},{"bike_id":"eac5e41a-6d77-45cc-9a44-92e4cae293d9","system_id":"levelo_inurba_marseille","lat":43.30469,"lon":5.37901,"is_reserved":false,"is_disabled":false,"rental_uris":{"android":"levelo://app?vid=eac5e41a-6d77-45cc-9a44-92e4cae293d9","ios":"levelo://app?vid=eac5e41a-6d77-45cc-9a44-92e4cae293d9"},"vehicle_type_id":"4","last_reported":1731211837,"current_range_meters":39200,"station_id":"ce4bgup2rcd13ifvqcn0","pricing_plan_id":"cebpf4jnsgd1na2vs0mg"},{"bike_id":"d41fb0f1-e480-4160-8e49-a6b72f7db271","system_id":"levelo_inurba_marseille","lat":43.27943,"lon":5.41044,"is_reserved":false,"is_disabled":false,"rental_uris":{"android":"levelo://app?vid=d41fb0f1-e480-4160-8e49-a6b72f7db271","ios":"levelo://app?vid=d41fb0f1-e480-4160-8e49-a6b72f7db271"},"vehicle_type_id":"4","last_reported":1731211837,"current_range_meters":27200,"station_id":"ce4bhnp2rcd13ifvqh0g","pricing_plan_id":"cebpf4jnsgd1na2vs0mg"},{"bike_id":"7412918f-e852-4734-ac8b-c4b5d62b6217","system_id":"levelo_inurba_marseille","lat":43.31357,"lon":5.385,"is_reserved":false,"is_disabled":false,"rental_uris":{"android":"levelo://app?vid=7412918f-e852-4734-ac8b-c4b5d62b6217","ios":"levelo://app?vid=7412918f-e852-4734-ac8b-c4b5d62b6217"},"vehicle_type_id":"4","last_reported":1731211837,"current_range_meters":17200,"station_id":"ce4bgt92rcd13ifvqcf0","pricing_plan_id":"cebpf4jnsgd1na2vs0mg"},{"bike_id":"2ad361b6-540e-4873-9e5b-6b5de9b52523","system_id":"levelo_inurba_marseille","lat":43.23963,"lon":5.36622,"is_reserved":false,"is_disabled":false,"rental_uris":{"android":"levelo://app?vid=2ad361b6-540e-4873-9e5b-6b5de9b52523","ios":"levelo://app?vid=2ad361b6-540e-4873-9e5b-6b5de9b52523"},"vehicle_type_id":"4","last_reported":1731211837,"current_range_meters":38800,"station_id":"ce4bhi12rcd13ifvqfp0","pricing_plan_id":"cebpf4jnsgd1na2vs0mg"},{"bike_id":"d6f22bb1-8390-4dde-a4e8-6f1e6d4bf68d","system_id":"levelo_inurba_marseille","lat":43.2919,"lon":5.35802,"is_reserved":false,"is_disabled":false,"rental_uris":{"android":"levelo://app?vid=d6f22bb1-8390-4dde-a4e8-6f1e6d4bf68d","ios":"levelo://app?vid=d6f22bb1-8390-4dde-a4e8-6f1e6d4bf68d"},"vehicle_type_id":"4","last_reported":1731211837,"current_range_meters":22000,"station_id":"ce4bhb12rcd13ifvqel0","pricing_plan_id":"cebpf4jnsgd1na2vs0mg"},{"bike_id":"e5102d73-aede-4928-a65e-0e24a604c7be","system_id":"levelo_inurba_marseille","lat":43.30961,"lon":5.39054,"is_reserved":false,"is_disabled":false,"rental_uris":{"android":"levelo://app?vid=e5102d73-aede-4928-a65e-0e24a604c7be","ios":"levelo://app?vid=e5102d73-aede-4928-a65e-0e24a604c7be"},"vehicle_type_id":"4","last_reported":1731211837,"current_range_meters":8400,"station_id":"ce4bgup2rcd13ifvqco0","pricing_plan_id":"cebpf4jnsgd1na2vs0mg"},{"bike_id":"202103a8-9571-4251-b1a5-ab82a1697177","system_id":"levelo_inurba_marseille","lat":43.2872,"lon":5.37943,"is_reserved":false,"is_disabled":false,"rental_uris":{"android":"levelo://app?vid=202103a8-9571-4251-b1a5-ab82a1697177","ios":"levelo://app?vid=202103a8-9571-4251-b1a5-ab82a1697177"},"vehicle_type_id":"4","last_reported":1731211837,"current_range_meters":39200,"station_id":"ce4bh9p2rcd13ifvqec0","pricing_plan_id":"cebpf4jnsgd1na2vs0mg"},{"bike_id":"3cedd8e9-721e-4740-aeea-d77f0d12e13b","system_id":"levelo_inurba_marseille","lat":43.26491,"lon":5.39542,"is_reserved":false,"is_disabled":false,"rental_uris":{"android":"levelo://app?vid=3cedd8e9-721e-4740-aeea-d77f0d12e13b","ios":"levelo://app?vid=3cedd8e9-721e-4740-aeea-d77f0d12e13b"},"vehicle_type_id":"4","last_reported":1731211837,"current_range_meters":39200,"station_id":"ce4bhi12rcd13ifvqfq0","pricing_plan_id":"cebpf4jnsgd1na2vs0mg"},{"bike_id":"0d2062fd-1bc1-41af-ab26-44a60399a7c4","system_id":"levelo_inurba_marseille","lat":43.29788,"lon":5.37094,"is_reserved":false,"is_disabled":false,"rental_uris":{"android":"levelo://app?vid=0d2062fd-1bc1-41af-ab26-44a60399a7c4","ios":"levelo://app?vid=0d2062fd-1bc1-41af-ab26-44a60399a7c4"},"vehicle_type_id":"4","last_reported":1731211837,"current_range_meters":13600,"station_id":"ce4bgop2rcd13ifvqc1g","pricing_plan_id":"cebpf4jnsgd1na2vs0mg"},{"bike_id":"c7f4c733-6efd-428f-8dbd-9db83b9bb1ba","system_id":"levelo_inurba_marseille","lat":43.25727,"lon":5.41101,"is_reserved":false,"is_disabled":false,"rental_uris":{"android":"levelo://app?vid=c7f4c733-6efd-428f-8dbd-9db83b9bb1ba","ios":"levelo://app?vid=c7f4c733-6efd-428f-8dbd-9db83b9bb1ba"},"vehicle_type_id":"4","last_reported":1731211837,"current_range_meters":38800,"station_id":"ce4bhkp2rcd13ifvqgd0","pricing_plan_id":"cebpf4jnsgd1na2vs0mg"},{"bike_id":"b9478b1d-79e3-44c9-ae60-496dd5151f62","system_id":"levelo_inurba_marseille","lat":43.29166,"lon":5.37153,"is_reserved":false,"is_disabled":false,"rental_uris":{"android":"levelo://app?vid=b9478b1d-79e3-44c9-ae60-496dd5151f62","ios":"levelo://app?vid=b9478b1d-79e3-44c9-ae60-496dd5151f62"},"vehicle_type_id":"4","last_reported":1731211837,"current_range_meters":33600,"station_id":"ce4bha92rcd13ifvqeh0","pricing_plan_id":"cebpf4jnsgd1na2vs0mg"},{"bike_id":"fb6fad82-6f33-40bd-bb2d-d30796a69c48","system_id":"levelo_inurba_marseille","lat":43.25729,"lon":5.41102,"is_reserved":false,"is_disabled":false,"rental_uris":{"android":"levelo://app?vid=fb6fad82-6f33-40bd-bb2d-d30796a69c48","ios":"levelo://app?vid=fb6fad82-6f33-40bd-bb2d-d30796a69c48"},"vehicle_type_id":"4","last_reported":1731211837,"current_range_meters":18000,"station_id":"ce4bhkp2rcd13ifvqgd0","pricing_plan_id":"cebpf4jnsgd1na2vs0mg"},{"bike_id":"4204c697-9142-4d6f-a64b-20f319f8c9a7","system_id":"levelo_inurba_marseille","lat":43.2707,"lon":5.42278,"is_reserved":false,"is_disabled":false,"rental_uris":{"android":"levelo://app?vid=4204c697-9142-4d6f-a64b-20f319f8c9a7","ios":"levelo://app?vid=4204c697-9142-4d6f-a64b-20f319f8c9a7"},"vehicle_type_id":"4","last_reported":1731211837,"current_range_meters":9600,"station_id":"ce4bhk92rcd13ifvqgb0","pricing_plan_id":"cebpf4jnsgd1na2vs0mg"},{"bike_id":"e3be9471-2752-42db-b341-7a7cdb8a8507","system_id":"levelo_inurba_marseille","lat":43.25575,"lon":5.3823,"is_reserved":false,"is_disabled":false,"rental_uris":{"android":"levelo://app?vid=e3be9471-2752-42db-b341-7a7cdb8a8507","ios":"levelo://app?vid=e3be9471-2752-42db-b341-7a7cdb8a8507"},"vehicle_type_id":"4","last_reported":1731211837,"current_range_meters":4800,"station_id":"ce4bhih2rcd13ifvqfs0","pricing_plan_id":"cebpf4jnsgd1na2vs0mg"},{"bike_id":"099eb452-8c91-42a7-91de-78e125cd1c27","system_id":"levelo_inurba_marseille","lat":43.29572,"lon":5.39983,"is_reserved":false,"is_disabled":false,"rental_uris":{"android":"levelo://app?vid=099eb452-8c91-42a7-91de-78e125cd1c27","ios":"levelo://app?vid=099eb452-8c91-42a7-91de-78e125cd1c27"},"vehicle_type_id":"4","last_reported":1731211837,"current_range_meters":20800,"station_id":"ce4bh312rcd13ifvqdj0","pricing_plan_id":"cebpf4jnsgd1na2vs0mg"},{"bike_id":"6f2e831f-8886-42c5-a26f-b4421afe7f6c","system_id":"levelo_inurba_marseille","lat":43.240785,"lon":5.377498,"is_reserved":false,"is_disabled":false,"rental_uris":{"android":"levelo://app?vid=6f2e831f-8886-42c5-a26f-b4421afe7f6c","ios":"levelo://app?vid=6f2e831f-8886-42c5-a26f-b4421afe7f6c"},"vehicle_type_id":"4","last_reported":1731211837,"current_range_meters":15200,"station_id":"ce4bhnp2rcd13ifvqgvg","pricing_plan_id":"cebpf4jnsgd1na2vs0mg"},{"bike_id":"5352b2a5-25fd-4e9d-b302-ba55bce24904","system_id":"levelo_inurba_marseille","lat":43.31351,"lon":5.38494,"is_reserved":false,"is_disabled":false,"rental_uris":{"android":"levelo://app?vid=5352b2a5-25fd-4e9d-b302-ba55bce24904","ios":"levelo://app?vid=5352b2a5-25fd-4e9d-b302-ba55bce24904"},"vehicle_type_id":"4","last_reported":1731211837,"current_range_meters":38800,"station_id":"ce4bgt92rcd13ifvqcf0","pricing_plan_id":"cebpf4jnsgd1na2vs0mg"},{"bike_id":"4f8f3d05-77a1-4608-a529-e5ae940296cc","system_id":"levelo_inurba_marseille","lat":43.28934,"lon":5.36633,"is_reserved":false,"is_disabled":false,"rental_uris":{"android":"levelo://app?vid=4f8f3d05-77a1-4608-a529-e5ae940296cc","ios":"levelo://app?vid=4f8f3d05-77a1-4608-a529-e5ae940296cc"},"vehicle_type_id":"4","last_reported":1731211837,"current_range_meters":39200,"station_id":"ce4bhap2rcd13ifvqek0","pricing_plan_id":"cebpf4jnsgd1na2vs0mg"},{"bike_id":"ef356e8e-0769-41da-b1b4-1cc38104ce18","system_id":"levelo_inurba_marseille","lat":43.29896,"lon":5.43655,"is_reserved":false,"is_disabled":false,"rental_uris":{"android":"levelo://app?vid=ef356e8e-0769-41da-b1b4-1cc38104ce18","ios":"levelo://app?vid=ef356e8e-0769-41da-b1b4-1cc38104ce18"},"vehicle_type_id":"4","last_reported":1731211837,"current_range_meters":20000,"station_id":"ce4bhpp2rcd13ifvqhfg","pricing_plan_id":"cebpf4jnsgd1na2vs0mg"},{"bike_id":"8eae18c6-01b2-4e95-9e98-909f0b71a899","system_id":"levelo_inurba_marseille","lat":43.29285,"lon":5.40119,"is_reserved":false,"is_disabled":false,"rental_uris":{"android":"levelo://app?vid=8eae18c6-01b2-4e95-9e98-909f0b71a899","ios":"levelo://app?vid=8eae18c6-01b2-4e95-9e98-909f0b71a899"},"vehicle_type_id":"4","last_reported":1731211837,"current_range_meters":36400,"station_id":"ce4bh312rcd13ifvqdk0","pricing_plan_id":"cebpf4jnsgd1na2vs0mg"},{"bike_id":"3d35a84d-d2e5-4e42-811b-597b89e5e6ed","system_id":"levelo_inurba_marseille","lat":43.28876,"lon":5.35862,"is_reserved":false,"is_disabled":false,"rental_uris":{"android":"levelo://app?vid=3d35a84d-d2e5-4e42-811b-597b89e5e6ed","ios":"levelo://app?vid=3d35a84d-d2e5-4e42-811b-597b89e5e6ed"},"vehicle_type_id":"4","last_reported":1731211837,"current_range_meters":30400,"station_id":"ce4bhb12rcd13ifvqem0","pricing_plan_id":"cebpf4jnsgd1na2vs0mg"},{"bike_id":"52a94537-f113-455a-9e91-42176e080fca","system_id":"levelo_inurba_marseille","lat":43.31885,"lon":5.40738,"is_reserved":false,"is_disabled":false,"rental_uris":{"android":"levelo://app?vid=52a94537-f113-455a-9e91-42176e080fca","ios":"levelo://app?vid=52a94537-f113-455a-9e91-42176e080fca"},"vehicle_type_id":"4","last_reported":1731211837,"current_range_meters":16400,"station_id":"ce4bhq12rcd13ifvqhig","pricing_plan_id":"cebpf4jnsgd1na2vs0mg"},{"bike_id":"9b3d39b7-4227-43f2-a945-f9a2852d37a4","system_id":"levelo_inurba_marseille","lat":43.25726,"lon":5.41106,"is_reserved":false,"is_disabled":false,"rental_uris":{"android":"levelo://app?vid=9b3d39b7-4227-43f2-a945-f9a2852d37a4","ios":"levelo://app?vid=9b3d39b7-4227-43f2-a945-f9a2852d37a4"},"vehicle_type_id":"4","last_reported":1731211837,"current_range_meters":26800,"station_id":"ce4bhkp2rcd13ifvqgd0","pricing_plan_id":"cebpf4jnsgd1na2vs0mg"},{"bike_id":"281376e1-147e-4d81-b62c-a38cf4533d28","system_id":"levelo_inurba_marseille","lat":43.2767,"lon":5.38897,"is_reserved":false,"is_disabled":false,"rental_uris":{"android":"levelo://app?vid=281376e1-147e-4d81-b62c-a38cf4533d28","ios":"levelo://app?vid=281376e1-147e-4d81-b62c-a38cf4533d28"},"vehicle_type_id":"4","last_reported":1731211837,"current_range_meters":39200,"station_id":"ce4bhi12rcd13ifvqfo0","pricing_plan_id":"cebpf4jnsgd1na2vs0mg"},{"bike_id":"e6dc57cf-44da-4102-9d69-7c7b35161e11","system_id":"levelo_inurba_marseille","lat":43.24166,"lon":5.36393,"is_reserved":false,"is_disabled":false,"rental_uris":{"android":"levelo://app?vid=e6dc57cf-44da-4102-9d69-7c7b35161e11","ios":"levelo://app?vid=e6dc57cf-44da-4102-9d69-7c7b35161e11"},"vehicle_type_id":"4","last_reported":1731211837,"current_range_meters":37600,"station_id":"cpo36qri1sfpv3e86is0","pricing_plan_id":"cebpf4jnsgd1na2vs0mg"},{"bike_id":"ef288286-229d-4b9a-a189-8d61840dcffb","system_id":"levelo_inurba_marseille","lat":43.23187,"lon":5.35555,"is_reserved":false,"is_disabled":false,"rental_uris":{"android":"levelo://app?vid=ef288286-229d-4b9a-a189-8d61840dcffb","ios":"levelo://app?vid=ef288286-229d-4b9a-a189-8d61840dcffb"},"vehicle_type_id":"4","last_reported":1731211837,"current_range_meters":30000,"station_id":"ce4bhu92rcd13ifvqi70","pricing_plan_id":"cebpf4jnsgd1na2vs0mg"},{"bike_id":"2767f5ec-2887-4754-b7d6-dce63c636ed2","system_id":"levelo_inurba_marseille","lat":43.2679,"lon":5.39409,"is_reserved":false,"is_disabled":false,"rental_uris":{"android":"levelo://app?vid=2767f5ec-2887-4754-b7d6-dce63c636ed2","ios":"levelo://app?vid=2767f5ec-2887-4754-b7d6-dce63c636ed2"},"vehicle_type_id":"4","last_reported":1731211837,"current_range_meters":38400,"station_id":"ce4bhh12rcd13ifvqfg0","pricing_plan_id":"cebpf4jnsgd1na2vs0mg"},{"bike_id":"ac90a180-dc22-4584-8f31-6d740d02c25d","system_id":"levelo_inurba_marseille","lat":43.30145,"lon":5.39878,"is_reserved":false,"is_disabled":false,"rental_uris":{"android":"levelo://app?vid=ac90a180-dc22-4584-8f31-6d740d02c25d","ios":"levelo://app?vid=ac90a180-dc22-4584-8f31-6d740d02c25d"},"vehicle_type_id":"4","last_reported":1731211837,"current_range_meters":6000,"station_id":"ce4bh0h2rcd13ifvqd40","pricing_plan_id":"cebpf4jnsgd1na2vs0mg"},{"bike_id":"38a131ef-d03a-4a3a-b9f1-a229b9a3884c","system_id":"levelo_inurba_marseille","lat":43.28944,"lon":5.39626,"is_reserved":false,"is_disabled":false,"rental_uris":{"android":"levelo://app?vid=38a131ef-d03a-4a3a-b9f1-a229b9a3884c","ios":"levelo://app?vid=38a131ef-d03a-4a3a-b9f1-a229b9a3884c"},"vehicle_type_id":"4","last_reported":1731211837,"current_range_meters":38400,"station_id":"ce4bh3h2rcd13ifvqdn0","pricing_plan_id":"cebpf4jnsgd1na2vs0mg"},{"bike_id":"9b0fb1a0-7e01-421f-ac3b-6f547e117032","system_id":"levelo_inurba_marseille","lat":43.28705,"lon":5.3998,"is_reserved":false,"is_disabled":false,"rental_uris":{"android":"levelo://app?vid=9b0fb1a0-7e01-421f-ac3b-6f547e117032","ios":"levelo://app?vid=9b0fb1a0-7e01-421f-ac3b-6f547e117032"},"vehicle_type_id":"4","last_reported":1731211837,"current_range_meters":6400,"station_id":"ce4bho92rcd13ifvqh3g","pricing_plan_id":"cebpf4jnsgd1na2vs0mg"},{"bike_id":"7ecaf081-c0e6-45ab-af5e-fd1988faa0bb","system_id":"levelo_inurba_marseille","lat":43.29447,"lon":5.39754,"is_reserved":false,"is_disabled":false,"rental_uris":{"android":"levelo://app?vid=7ecaf081-c0e6-45ab-af5e-fd1988faa0bb","ios":"levelo://app?vid=7ecaf081-c0e6-45ab-af5e-fd1988faa0bb"},"vehicle_type_id":"4","last_reported":1731211837,"current_range_meters":22800,"station_id":"ce4bh3h2rcd13ifvqdo0","pricing_plan_id":"cebpf4jnsgd1na2vs0mg"},{"bike_id":"50dbf5a8-127a-4b83-8559-ce30ebb77bae","system_id":"levelo_inurba_marseille","lat":43.25089,"lon":5.39514,"is_reserved":false,"is_disabled":false,"rental_uris":{"android":"levelo://app?vid=50dbf5a8-127a-4b83-8559-ce30ebb77bae","ios":"levelo://app?vid=50dbf5a8-127a-4b83-8559-ce30ebb77bae"},"vehicle_type_id":"4","last_reported":1731211837,"current_range_meters":39200,"station_id":"ce4bhm12rcd13ifvqgkg","pricing_plan_id":"cebpf4jnsgd1na2vs0mg"},{"bike_id":"d07d9bd6-520a-4ac5-b92e-c80da5020e5b","system_id":"levelo_inurba_marseille","lat":43.28709,"lon":5.39987,"is_reserved":false,"is_disabled":false,"rental_uris":{"android":"levelo://app?vid=d07d9bd6-520a-4ac5-b92e-c80da5020e5b","ios":"levelo://app?vid=d07d9bd6-520a-4ac5-b92e-c80da5020e5b"},"vehicle_type_id":"4","last_reported":1731211837,"current_range_meters":32000,"station_id":"ce4bho92rcd13ifvqh3g","pricing_plan_id":"cebpf4jnsgd1na2vs0mg"},{"bike_id":"07a3136c-61c3-40a1-bef4-3f52cb9d08b0","system_id":"levelo_inurba_marseille","lat":43.30319,"lon":5.369,"is_reserved":false,"is_disabled":false,"rental_uris":{"android":"levelo://app?vid=07a3136c-61c3-40a1-bef4-3f52cb9d08b0","ios":"levelo://app?vid=07a3136c-61c3-40a1-bef4-3f52cb9d08b0"},"vehicle_type_id":"4","last_reported":1731211837,"current_range_meters":38800,"station_id":"ce4bgqh2rcd13ifvqc5g","pricing_plan_id":"cebpf4jnsgd1na2vs0mg"},{"bike_id":"192e31af-3714-44c3-9a7e-3e1000bad79c","system_id":"levelo_inurba_marseille","lat":43.25577,"lon":5.38228,"is_reserved":false,"is_disabled":false,"rental_uris":{"android":"levelo://app?vid=192e31af-3714-44c3-9a7e-3e1000bad79c","ios":"levelo://app?vid=192e31af-3714-44c3-9a7e-3e1000bad79c"},"vehicle_type_id":"4","last_reported":1731211837,"current_range_meters":29600,"station_id":"ce4bhih2rcd13ifvqfs0","pricing_plan_id":"cebpf4jnsgd1na2vs0mg"},{"bike_id":"d2a974a2-88bc-4638-8d41-7f094635c91a","system_id":"levelo_inurba_marseille","lat":43.27105,"lon":5.3818,"is_reserved":false,"is_disabled":false,"rental_uris":{"android":"levelo://app?vid=d2a974a2-88bc-4638-8d41-7f094635c91a","ios":"levelo://app?vid=d2a974a2-88bc-4638-8d41-7f094635c91a"},"vehicle_type_id":"4","last_reported":1731211837,"current_range_meters":8000,"station_id":"","pricing_plan_id":"cebpf4jnsgd1na2vs0mg"},{"bike_id":"f0730e13-11c4-4020-956a-ca204d2dd6c0","system_id":"levelo_inurba_marseille","lat":43.29558,"lon":5.42281,"is_reserved":false,"is_disabled":false,"rental_uris":{"android":"levelo://app?vid=f0730e13-11c4-4020-956a-ca204d2dd6c0","ios":"levelo://app?vid=f0730e13-11c4-4020-956a-ca204d2dd6c0"},"vehicle_type_id":"4","last_reported":1731211837,"current_range_meters":38400,"station_id":"ce4bhph2rcd13ifvqhdg","pricing_plan_id":"cebpf4jnsgd1na2vs0mg"},{"bike_id":"da169ceb-ae56-419a-8329-1caa20980f29","system_id":"levelo_inurba_marseille","lat":43.25819,"lon":5.39426,"is_reserved":false,"is_disabled":false,"rental_uris":{"android":"levelo://app?vid=da169ceb-ae56-419a-8329-1caa20980f29","ios":"levelo://app?vid=da169ceb-ae56-419a-8329-1caa20980f29"},"vehicle_type_id":"4","last_reported":1731211837,"current_range_meters":26000,"station_id":"ce4bhip2rcd13ifvqft0","pricing_plan_id":"cebpf4jnsgd1na2vs0mg"},{"bike_id":"7dd58fa2-256b-4976-9ccd-79d00d13c0e3","system_id":"levelo_inurba_marseille","lat":43.28075,"lon":5.39648,"is_reserved":false,"is_disabled":false,"rental_uris":{"android":"levelo://app?vid=7dd58fa2-256b-4976-9ccd-79d00d13c0e3","ios":"levelo://app?vid=7dd58fa2-256b-4976-9ccd-79d00d13c0e3"},"vehicle_type_id":"4","last_reported":1731211837,"current_range_meters":39200,"station_id":"ce4bho12rcd13ifvqh2g","pricing_plan_id":"cebpf4jnsgd1na2vs0mg"},{"bike_id":"2aca1cd1-1185-411d-9162-437fe3c9f09d","system_id":"levelo_inurba_marseille","lat":43.24804,"lon":5.37453,"is_reserved":false,"is_disabled":false,"rental_uris":{"android":"levelo://app?vid=2aca1cd1-1185-411d-9162-437fe3c9f09d","ios":"levelo://app?vid=2aca1cd1-1185-411d-9162-437fe3c9f09d"},"vehicle_type_id":"4","last_reported":1731211837,"current_range_meters":8800,"station_id":"ce4bhgh2rcd13ifvqfb0","pricing_plan_id":"cebpf4jnsgd1na2vs0mg"},{"bike_id":"d8b069df-29e1-4273-99b0-c9104446d9c3","system_id":"levelo_inurba_marseille","lat":43.23193,"lon":5.35549,"is_reserved":false,"is_disabled":false,"rental_uris":{"android":"levelo://app?vid=d8b069df-29e1-4273-99b0-c9104446d9c3","ios":"levelo://app?vid=d8b069df-29e1-4273-99b0-c9104446d9c3"},"vehicle_type_id":"4","last_reported":1731211837,"current_range_meters":6800,"station_id":"ce4bhu92rcd13ifvqi70","pricing_plan_id":"cebpf4jnsgd1na2vs0mg"},{"bike_id":"7bb5871f-cc9d-417c-af00-3f2a72d466bc","system_id":"levelo_inurba_marseille","lat":43.30806,"lon":5.38157,"is_reserved":false,"is_disabled":false,"rental_uris":{"android":"levelo://app?vid=7bb5871f-cc9d-417c-af00-3f2a72d466bc","ios":"levelo://app?vid=7bb5871f-cc9d-417c-af00-3f2a72d466bc"},"vehicle_type_id":"4","last_reported":1731211837,"current_range_meters":38800,"station_id":"ce4bgt12rcd13ifvqce0","pricing_plan_id":"cebpf4jnsgd1na2vs0mg"},{"bike_id":"aed49dd4-304d-4222-a024-c67cec1bcce7","system_id":"levelo_inurba_marseille","lat":43.257272,"lon":5.411065,"is_reserved":false,"is_disabled":false,"rental_uris":{"android":"levelo://app?vid=aed49dd4-304d-4222-a024-c67cec1bcce7","ios":"levelo://app?vid=aed49dd4-304d-4222-a024-c67cec1bcce7"},"vehicle_type_id":"4","last_reported":1731211837,"current_range_meters":38000,"station_id":"ce4bhkp2rcd13ifvqgd0","pricing_plan_id":"cebpf4jnsgd1na2vs0mg"},{"bike_id":"7a80c00b-adb0-4ce4-9713-34aec0a8ead8","system_id":"levelo_inurba_marseille","lat":43.26566,"lon":5.38993,"is_reserved":false,"is_disabled":false,"rental_uris":{"android":"levelo://app?vid=7a80c00b-adb0-4ce4-9713-34aec0a8ead8","ios":"levelo://app?vid=7a80c00b-adb0-4ce4-9713-34aec0a8ead8"},"vehicle_type_id":"4","last_reported":1731211837,"current_range_meters":10000,"station_id":"ce4bhe12rcd13ifvqf30","pricing_plan_id":"cebpf4jnsgd1na2vs0mg"},{"bike_id":"fbbe362b-7b29-4c8f-b506-484f07761f02","system_id":"levelo_inurba_marseille","lat":43.29914,"lon":5.37444,"is_reserved":false,"is_disabled":false,"rental_uris":{"android":"levelo://app?vid=fbbe362b-7b29-4c8f-b506-484f07761f02","ios":"levelo://app?vid=fbbe362b-7b29-4c8f-b506-484f07761f02"},"vehicle_type_id":"4","last_reported":1731211837,"current_range_meters":36800,"station_id":"ce4bgjh2rcd13ifvqbg0","pricing_plan_id":"cebpf4jnsgd1na2vs0mg"},{"bike_id":"b633607c-27ae-4ff2-baf3-0d030b2021db","system_id":"levelo_inurba_marseille","lat":43.28673,"lon":5.36356,"is_reserved":false,"is_disabled":false,"rental_uris":{"android":"levelo://app?vid=b633607c-27ae-4ff2-baf3-0d030b2021db","ios":"levelo://app?vid=b633607c-27ae-4ff2-baf3-0d030b2021db"},"vehicle_type_id":"4","last_reported":1731211837,"current_range_meters":36000,"station_id":"ce4bhah2rcd13ifvqej0","pricing_plan_id":"cebpf4jnsgd1na2vs0mg"},{"bike_id":"405d360a-7db6-431e-a62f-1ab758d7a60e","system_id":"levelo_inurba_marseille","lat":43.29633,"lon":5.40597,"is_reserved":false,"is_disabled":false,"rental_uris":{"android":"levelo://app?vid=405d360a-7db6-431e-a62f-1ab758d7a60e","ios":"levelo://app?vid=405d360a-7db6-431e-a62f-1ab758d7a60e"},"vehicle_type_id":"4","last_reported":1731211837,"current_range_meters":26000,"station_id":"ce4bh0h2rcd13ifvqd60","pricing_plan_id":"cebpf4jnsgd1na2vs0mg"},{"bike_id":"5bcb2974-6fb5-48c6-8db4-1febda11b5d1","system_id":"levelo_inurba_marseille","lat":43.29171,"lon":5.37148,"is_reserved":false,"is_disabled":false,"rental_uris":{"android":"levelo://app?vid=5bcb2974-6fb5-48c6-8db4-1febda11b5d1","ios":"levelo://app?vid=5bcb2974-6fb5-48c6-8db4-1febda11b5d1"},"vehicle_type_id":"4","last_reported":1731211837,"current_range_meters":38000,"station_id":"ce4bha92rcd13ifvqeh0","pricing_plan_id":"cebpf4jnsgd1na2vs0mg"},{"bike_id":"f9aeacdd-bf01-432f-bf4e-03e65cef4bbd","system_id":"levelo_inurba_marseille","lat":43.295526,"lon":5.422831,"is_reserved":false,"is_disabled":false,"rental_uris":{"android":"levelo://app?vid=f9aeacdd-bf01-432f-bf4e-03e65cef4bbd","ios":"levelo://app?vid=f9aeacdd-bf01-432f-bf4e-03e65cef4bbd"},"vehicle_type_id":"4","last_reported":1731211837,"current_range_meters":39200,"station_id":"ce4bhph2rcd13ifvqhdg","pricing_plan_id":"cebpf4jnsgd1na2vs0mg"},{"bike_id":"36547da7-df63-4a20-8a5c-35e656dbe055","system_id":"levelo_inurba_marseille","lat":43.29522,"lon":5.39401,"is_reserved":false,"is_disabled":false,"rental_uris":{"android":"levelo://app?vid=36547da7-df63-4a20-8a5c-35e656dbe055","ios":"levelo://app?vid=36547da7-df63-4a20-8a5c-35e656dbe055"},"vehicle_type_id":"4","last_reported":1731211837,"current_range_meters":31200,"station_id":"ce4bh292rcd13ifvqdf0","pricing_plan_id":"cebpf4jnsgd1na2vs0mg"},{"bike_id":"f5f757b8-242c-4a6b-988d-a076d3115e8b","system_id":"levelo_inurba_marseille","lat":43.2957,"lon":5.39971,"is_reserved":false,"is_disabled":false,"rental_uris":{"android":"levelo://app?vid=f5f757b8-242c-4a6b-988d-a076d3115e8b","ios":"levelo://app?vid=f5f757b8-242c-4a6b-988d-a076d3115e8b"},"vehicle_type_id":"4","last_reported":1731211837,"current_range_meters":30400,"station_id":"ce4bh312rcd13ifvqdj0","pricing_plan_id":"cebpf4jnsgd1na2vs0mg"},{"bike_id":"037ae61b-1599-46be-a4c0-8490f0e128bc","system_id":"levelo_inurba_marseille","lat":43.3042,"lon":5.39752,"is_reserved":false,"is_disabled":false,"rental_uris":{"android":"levelo://app?vid=037ae61b-1599-46be-a4c0-8490f0e128bc","ios":"levelo://app?vid=037ae61b-1599-46be-a4c0-8490f0e128bc"},"vehicle_type_id":"4","last_reported":1731211837,"current_range_meters":39200,"station_id":"ce4bh092rcd13ifvqd20","pricing_plan_id":"cebpf4jnsgd1na2vs0mg"},{"bike_id":"cfce580b-5f0b-4f3e-850b-bda83bbf1dbc","system_id":"levelo_inurba_marseille","lat":43.27957,"lon":5.4104,"is_reserved":false,"is_disabled":false,"rental_uris":{"android":"levelo://app?vid=cfce580b-5f0b-4f3e-850b-bda83bbf1dbc","ios":"levelo://app?vid=cfce580b-5f0b-4f3e-850b-bda83bbf1dbc"},"vehicle_type_id":"4","last_reported":1731211837,"current_range_meters":8000,"station_id":"ce4bhnp2rcd13ifvqh0g","pricing_plan_id":"cebpf4jnsgd1na2vs0mg"},{"bike_id":"59c4fcfc-3b0d-4ba9-8c9b-f3365ec2482a","system_id":"levelo_inurba_marseille","lat":43.30192,"lon":5.36618,"is_reserved":false,"is_disabled":false,"rental_uris":{"android":"levelo://app?vid=59c4fcfc-3b0d-4ba9-8c9b-f3365ec2482a","ios":"levelo://app?vid=59c4fcfc-3b0d-4ba9-8c9b-f3365ec2482a"},"vehicle_type_id":"4","last_reported":1731211837,"current_range_meters":19600,"station_id":"ce4bgrh2rcd13ifvqc8g","pricing_plan_id":"cebpf4jnsgd1na2vs0mg"},{"bike_id":"c7908985-c201-4c49-9cdb-c8516925c4c6","system_id":"levelo_inurba_marseille","lat":43.281058,"lon":5.378372,"is_reserved":false,"is_disabled":false,"rental_uris":{"android":"levelo://app?vid=c7908985-c201-4c49-9cdb-c8516925c4c6","ios":"levelo://app?vid=c7908985-c201-4c49-9cdb-c8516925c4c6"},"vehicle_type_id":"4","last_reported":1731211837,"current_range_meters":36000,"station_id":"ce4bha12rcd13ifvqee0","pricing_plan_id":"cebpf4jnsgd1na2vs0mg"},{"bike_id":"b6cc784d-7246-4aad-a56b-95e685683567","system_id":"levelo_inurba_marseille","lat":43.28105,"lon":5.37836,"is_reserved":false,"is_disabled":false,"rental_uris":{"android":"levelo://app?vid=b6cc784d-7246-4aad-a56b-95e685683567","ios":"levelo://app?vid=b6cc784d-7246-4aad-a56b-95e685683567"},"vehicle_type_id":"4","last_reported":1731211837,"current_range_meters":40000,"station_id":"ce4bha12rcd13ifvqee0","pricing_plan_id":"cebpf4jnsgd1na2vs0mg"},{"bike_id":"f12534c6-1a8a-4d08-81b6-673821282167","system_id":"levelo_inurba_marseille","lat":43.29037,"lon":5.39981,"is_reserved":false,"is_disabled":false,"rental_uris":{"android":"levelo://app?vid=f12534c6-1a8a-4d08-81b6-673821282167","ios":"levelo://app?vid=f12534c6-1a8a-4d08-81b6-673821282167"},"vehicle_type_id":"4","last_reported":1731211837,"current_range_meters":33200,"station_id":"ce4bh392rcd13ifvqdm0","pricing_plan_id":"cebpf4jnsgd1na2vs0mg"},{"bike_id":"5276d4e8-4a19-46d6-b89e-7c204f4f8615","system_id":"levelo_inurba_marseille","lat":43.26784,"lon":5.39426,"is_reserved":false,"is_disabled":false,"rental_uris":{"android":"levelo://app?vid=5276d4e8-4a19-46d6-b89e-7c204f4f8615","ios":"levelo://app?vid=5276d4e8-4a19-46d6-b89e-7c204f4f8615"},"vehicle_type_id":"4","last_reported":1731211837,"current_range_meters":38000,"station_id":"ce4bhh12rcd13ifvqfg0","pricing_plan_id":"cebpf4jnsgd1na2vs0mg"},{"bike_id":"3cd036b1-82b2-4728-9c4f-a57fb25f0cb6","system_id":"levelo_inurba_marseille","lat":43.24081,"lon":5.37758,"is_reserved":false,"is_disabled":false,"rental_uris":{"android":"levelo://app?vid=3cd036b1-82b2-4728-9c4f-a57fb25f0cb6","ios":"levelo://app?vid=3cd036b1-82b2-4728-9c4f-a57fb25f0cb6"},"vehicle_type_id":"4","last_reported":1731211837,"current_range_meters":8400,"station_id":"ce4bhnp2rcd13ifvqgvg","pricing_plan_id":"cebpf4jnsgd1na2vs0mg"},{"bike_id":"b6a5154a-555b-42d1-acf4-16ddc96237bd","system_id":"levelo_inurba_marseille","lat":43.30958,"lon":5.39058,"is_reserved":false,"is_disabled":false,"rental_uris":{"android":"levelo://app?vid=b6a5154a-555b-42d1-acf4-16ddc96237bd","ios":"levelo://app?vid=b6a5154a-555b-42d1-acf4-16ddc96237bd"},"vehicle_type_id":"4","last_reported":1731211837,"current_range_meters":24400,"station_id":"ce4bgup2rcd13ifvqco0","pricing_plan_id":"cebpf4jnsgd1na2vs0mg"},{"bike_id":"1f72dfe9-3d53-4420-8aeb-30b7325a8507","system_id":"levelo_inurba_marseille","lat":43.33611,"lon":5.41018,"is_reserved":false,"is_disabled":false,"rental_uris":{"android":"levelo://app?vid=1f72dfe9-3d53-4420-8aeb-30b7325a8507","ios":"levelo://app?vid=1f72dfe9-3d53-4420-8aeb-30b7325a8507"},"vehicle_type_id":"4","last_reported":1731211837,"current_range_meters":39200,"station_id":"ce4bhqh2rcd13ifvqhmg","pricing_plan_id":"cebpf4jnsgd1na2vs0mg"},{"bike_id":"10e6df93-8a30-4a80-82ae-a340ec8e5dcc","system_id":"levelo_inurba_marseille","lat":43.27995,"lon":5.4003,"is_reserved":false,"is_disabled":false,"rental_uris":{"android":"levelo://app?vid=10e6df93-8a30-4a80-82ae-a340ec8e5dcc","ios":"levelo://app?vid=10e6df93-8a30-4a80-82ae-a340ec8e5dcc"},"vehicle_type_id":"4","last_reported":1731211837,"current_range_meters":27200,"station_id":"ce4bho92rcd13ifvqh4g","pricing_plan_id":"cebpf4jnsgd1na2vs0mg"},{"bike_id":"892f0b7c-b34b-4078-98d3-3db4131eb87f","system_id":"levelo_inurba_marseille","lat":43.261169,"lon":5.375008,"is_reserved":false,"is_disabled":false,"rental_uris":{"android":"levelo://app?vid=892f0b7c-b34b-4078-98d3-3db4131eb87f","ios":"levelo://app?vid=892f0b7c-b34b-4078-98d3-3db4131eb87f"},"vehicle_type_id":"4","last_reported":1731211837,"current_range_meters":26800,"station_id":"ce4bgup2rcd13ifvqcn0","pricing_plan_id":"cebpf4jnsgd1na2vs0mg"},{"bike_id":"10e60246-7106-46e6-96ba-1272708c8f84","system_id":"levelo_inurba_marseille","lat":43.2956,"lon":5.42282,"is_reserved":false,"is_disabled":false,"rental_uris":{"android":"levelo://app?vid=10e60246-7106-46e6-96ba-1272708c8f84","ios":"levelo://app?vid=10e60246-7106-46e6-96ba-1272708c8f84"},"vehicle_type_id":"4","last_reported":1731211837,"current_range_meters":36800,"station_id":"ce4bhph2rcd13ifvqhdg","pricing_plan_id":"cebpf4jnsgd1na2vs0mg"},{"bike_id":"2c085216-e118-4d2f-b289-0c7e4a4fe1d0","system_id":"levelo_inurba_marseille","lat":43.31274,"lon":5.40166,"is_reserved":false,"is_disabled":false,"rental_uris":{"android":"levelo://app?vid=2c085216-e118-4d2f-b289-0c7e4a4fe1d0","ios":"levelo://app?vid=2c085216-e118-4d2f-b289-0c7e4a4fe1d0"},"vehicle_type_id":"4","last_reported":1731211837,"current_range_meters":38800,"station_id":"ce4bh092rcd13ifvqd30","pricing_plan_id":"cebpf4jnsgd1na2vs0mg"},{"bike_id":"26b19a86-03b6-439d-a286-d17362989328","system_id":"levelo_inurba_marseille","lat":43.27999,"lon":5.40019,"is_reserved":false,"is_disabled":false,"rental_uris":{"android":"levelo://app?vid=26b19a86-03b6-439d-a286-d17362989328","ios":"levelo://app?vid=26b19a86-03b6-439d-a286-d17362989328"},"vehicle_type_id":"4","last_reported":1731211837,"current_range_meters":38000,"station_id":"ce4bho92rcd13ifvqh4g","pricing_plan_id":"cebpf4jnsgd1na2vs0mg"},{"bike_id":"265211ad-8097-4cf2-bab7-0e312fe4906e","system_id":"levelo_inurba_marseille","lat":43.313395,"lon":5.367045,"is_reserved":false,"is_disabled":false,"rental_uris":{"android":"levelo://app?vid=265211ad-8097-4cf2-bab7-0e312fe4906e","ios":"levelo://app?vid=265211ad-8097-4cf2-bab7-0e312fe4906e"},"vehicle_type_id":"4","last_reported":1731211837,"current_range_meters":24400,"station_id":"ce4bgv92rcd13ifvqcq0","pricing_plan_id":"cebpf4jnsgd1na2vs0mg"},{"bike_id":"6aae269e-8155-4150-9733-cd5c5482b6df","system_id":"levelo_inurba_marseille","lat":43.284663,"lon":5.358863,"is_reserved":false,"is_disabled":false,"rental_uris":{"android":"levelo://app?vid=6aae269e-8155-4150-9733-cd5c5482b6df","ios":"levelo://app?vid=6aae269e-8155-4150-9733-cd5c5482b6df"},"vehicle_type_id":"4","last_reported":1731211837,"current_range_meters":25600,"station_id":"ce4bhah2rcd13ifvqei0","pricing_plan_id":"cebpf4jnsgd1na2vs0mg"},{"bike_id":"046683b0-3026-49cc-ba6a-fff965a0393e","system_id":"levelo_inurba_marseille","lat":43.24075,"lon":5.37754,"is_reserved":false,"is_disabled":false,"rental_uris":{"android":"levelo://app?vid=046683b0-3026-49cc-ba6a-fff965a0393e","ios":"levelo://app?vid=046683b0-3026-49cc-ba6a-fff965a0393e"},"vehicle_type_id":"4","last_reported":1731211837,"current_range_meters":38800,"station_id":"ce4bhnp2rcd13ifvqgvg","pricing_plan_id":"cebpf4jnsgd1na2vs0mg"},{"bike_id":"d74aa9f4-21a1-47d5-b9a2-4e3e38fd73a2","system_id":"levelo_inurba_marseille","lat":43.29353,"lon":5.37873,"is_reserved":false,"is_disabled":false,"rental_uris":{"android":"levelo://app?vid=d74aa9f4-21a1-47d5-b9a2-4e3e38fd73a2","ios":"levelo://app?vid=d74aa9f4-21a1-47d5-b9a2-4e3e38fd73a2"},"vehicle_type_id":"4","last_reported":1731211837,"current_range_meters":38800,"station_id":"ce4bgjh2rcd13ifvqbf0","pricing_plan_id":"cebpf4jnsgd1na2vs0mg"},{"bike_id":"2dc98e06-0d2f-4eff-bb54-2c96c350cf6e","system_id":"levelo_inurba_marseille","lat":43.30146,"lon":5.39879,"is_reserved":false,"is_disabled":false,"rental_uris":{"android":"levelo://app?vid=2dc98e06-0d2f-4eff-bb54-2c96c350cf6e","ios":"levelo://app?vid=2dc98e06-0d2f-4eff-bb54-2c96c350cf6e"},"vehicle_type_id":"4","last_reported":1731211837,"current_range_meters":24400,"station_id":"ce4bh0h2rcd13ifvqd40","pricing_plan_id":"cebpf4jnsgd1na2vs0mg"},{"bike_id":"dcf6845c-2214-41f7-b152-0b5ecc060131","system_id":"levelo_inurba_marseille","lat":43.29439,"lon":5.39749,"is_reserved":false,"is_disabled":false,"rental_uris":{"android":"levelo://app?vid=dcf6845c-2214-41f7-b152-0b5ecc060131","ios":"levelo://app?vid=dcf6845c-2214-41f7-b152-0b5ecc060131"},"vehicle_type_id":"4","last_reported":1731211837,"current_range_meters":38800,"station_id":"ce4bh3h2rcd13ifvqdo0","pricing_plan_id":"cebpf4jnsgd1na2vs0mg"},{"bike_id":"0a64ed50-8cfc-463a-acb6-61f6f9203091","system_id":"levelo_inurba_marseille","lat":43.29898,"lon":5.43665,"is_reserved":false,"is_disabled":false,"rental_uris":{"android":"levelo://app?vid=0a64ed50-8cfc-463a-acb6-61f6f9203091","ios":"levelo://app?vid=0a64ed50-8cfc-463a-acb6-61f6f9203091"},"vehicle_type_id":"4","last_reported":1731211837,"current_range_meters":38800,"station_id":"ce4bhpp2rcd13ifvqhfg","pricing_plan_id":"cebpf4jnsgd1na2vs0mg"},{"bike_id":"96aef8c1-f007-442e-b872-036e6f6c58ad","system_id":"levelo_inurba_marseille","lat":43.31754,"lon":5.39019,"is_reserved":false,"is_disabled":false,"rental_uris":{"android":"levelo://app?vid=96aef8c1-f007-442e-b872-036e6f6c58ad","ios":"levelo://app?vid=96aef8c1-f007-442e-b872-036e6f6c58ad"},"vehicle_type_id":"4","last_reported":1731211837,"current_range_meters":39200,"station_id":"ce4bhqp2rcd13ifvqhng","pricing_plan_id":"cebpf4jnsgd1na2vs0mg"},{"bike_id":"a3bbae90-eb29-4f42-adee-aa56b5ba422b","system_id":"levelo_inurba_marseille","lat":43.30354,"lon":5.41874,"is_reserved":false,"is_disabled":false,"rental_uris":{"android":"levelo://app?vid=a3bbae90-eb29-4f42-adee-aa56b5ba422b","ios":"levelo://app?vid=a3bbae90-eb29-4f42-adee-aa56b5ba422b"},"vehicle_type_id":"4","last_reported":1731211837,"current_range_meters":38400,"station_id":"ce4bhop2rcd13ifvqh7g","pricing_plan_id":"cebpf4jnsgd1na2vs0mg"},{"bike_id":"134ce1ce-579d-4d82-bde6-b146c0c11c11","system_id":"levelo_inurba_marseille","lat":43.29897,"lon":5.43673,"is_reserved":false,"is_disabled":false,"rental_uris":{"android":"levelo://app?vid=134ce1ce-579d-4d82-bde6-b146c0c11c11","ios":"levelo://app?vid=134ce1ce-579d-4d82-bde6-b146c0c11c11"},"vehicle_type_id":"4","last_reported":1731211837,"current_range_meters":38000,"station_id":"ce4bhpp2rcd13ifvqhfg","pricing_plan_id":"cebpf4jnsgd1na2vs0mg"},{"bike_id":"901d0e1b-e30d-4036-b73c-cb7c4fb9a461","system_id":"levelo_inurba_marseille","lat":43.27921,"lon":5.39588,"is_reserved":false,"is_disabled":false,"rental_uris":{"android":"levelo://app?vid=901d0e1b-e30d-4036-b73c-cb7c4fb9a461","ios":"levelo://app?vid=901d0e1b-e30d-4036-b73c-cb7c4fb9a461"},"vehicle_type_id":"4","last_reported":1731211837,"current_range_meters":8000,"station_id":"ce4bhf92rcd13ifvqf40","pricing_plan_id":"cebpf4jnsgd1na2vs0mg"},{"bike_id":"74a41359-ed80-4cd3-85be-bd7b0ea67a0d","system_id":"levelo_inurba_marseille","lat":43.31533,"lon":5.38024,"is_reserved":false,"is_disabled":false,"rental_uris":{"android":"levelo://app?vid=74a41359-ed80-4cd3-85be-bd7b0ea67a0d","ios":"levelo://app?vid=74a41359-ed80-4cd3-85be-bd7b0ea67a0d"},"vehicle_type_id":"4","last_reported":1731211837,"current_range_meters":20000,"station_id":"ce4bhsp2rcd13ifvqi50","pricing_plan_id":"cebpf4jnsgd1na2vs0mg"},{"bike_id":"68b903df-b6b4-4eea-a59c-f17d49778932","system_id":"levelo_inurba_marseille","lat":43.28724,"lon":5.360795,"is_reserved":false,"is_disabled":false,"rental_uris":{"android":"levelo://app?vid=68b903df-b6b4-4eea-a59c-f17d49778932","ios":"levelo://app?vid=68b903df-b6b4-4eea-a59c-f17d49778932"},"vehicle_type_id":"4","last_reported":1731211837,"current_range_meters":28800,"station_id":"cki0cbj6b192h4jlfktg","pricing_plan_id":"cebpf4jnsgd1na2vs0mg"},{"bike_id":"b7a76e19-8b44-42ba-b89d-6dd1407e1b1b","system_id":"levelo_inurba_marseille","lat":43.30654,"lon":5.40081,"is_reserved":false,"is_disabled":false,"rental_uris":{"android":"levelo://app?vid=b7a76e19-8b44-42ba-b89d-6dd1407e1b1b","ios":"levelo://app?vid=b7a76e19-8b44-42ba-b89d-6dd1407e1b1b"},"vehicle_type_id":"4","last_reported":1731211837,"current_range_meters":30400,"station_id":"ce4bh112rcd13ifvqda0","pricing_plan_id":"cebpf4jnsgd1na2vs0mg"},{"bike_id":"181fa628-fd06-4339-88f4-5d411c857699","system_id":"levelo_inurba_marseille","lat":43.27065,"lon":5.42274,"is_reserved":false,"is_disabled":false,"rental_uris":{"android":"levelo://app?vid=181fa628-fd06-4339-88f4-5d411c857699","ios":"levelo://app?vid=181fa628-fd06-4339-88f4-5d411c857699"},"vehicle_type_id":"4","last_reported":1731211837,"current_range_meters":10000,"station_id":"ce4bhk92rcd13ifvqgb0","pricing_plan_id":"cebpf4jnsgd1na2vs0mg"},{"bike_id":"9887d588-713e-4376-b261-145b0c970073","system_id":"levelo_inurba_marseille","lat":43.28485,"lon":5.38583,"is_reserved":false,"is_disabled":false,"rental_uris":{"android":"levelo://app?vid=9887d588-713e-4376-b261-145b0c970073","ios":"levelo://app?vid=9887d588-713e-4376-b261-145b0c970073"},"vehicle_type_id":"4","last_reported":1731211837,"current_range_meters":27200,"station_id":"ce4bh8p2rcd13ifvqeb0","pricing_plan_id":"cebpf4jnsgd1na2vs0mg"},{"bike_id":"d9a5da0a-59f7-40f5-8e63-d8883b3e81f7","system_id":"levelo_inurba_marseille","lat":43.28702,"lon":5.37392,"is_reserved":false,"is_disabled":false,"rental_uris":{"android":"levelo://app?vid=d9a5da0a-59f7-40f5-8e63-d8883b3e81f7","ios":"levelo://app?vid=d9a5da0a-59f7-40f5-8e63-d8883b3e81f7"},"vehicle_type_id":"4","last_reported":1731211837,"current_range_meters":35600,"station_id":"ce4bh3p2rcd13ifvqdq0","pricing_plan_id":"cebpf4jnsgd1na2vs0mg"},{"bike_id":"7ad1fcfb-dbad-4f2f-94e3-26a08d9ba442","system_id":"levelo_inurba_marseille","lat":43.27991,"lon":5.41652,"is_reserved":false,"is_disabled":false,"rental_uris":{"android":"levelo://app?vid=7ad1fcfb-dbad-4f2f-94e3-26a08d9ba442","ios":"levelo://app?vid=7ad1fcfb-dbad-4f2f-94e3-26a08d9ba442"},"vehicle_type_id":"4","last_reported":1731211837,"current_range_meters":39200,"station_id":"ce4bho12rcd13ifvqh1g","pricing_plan_id":"cebpf4jnsgd1na2vs0mg"},{"bike_id":"64f1e304-55fc-4bb7-bb27-4faaf7cf65c1","system_id":"levelo_inurba_marseille","lat":43.27544,"lon":5.40919,"is_reserved":false,"is_disabled":false,"rental_uris":{"android":"levelo://app?vid=64f1e304-55fc-4bb7-bb27-4faaf7cf65c1","ios":"levelo://app?vid=64f1e304-55fc-4bb7-bb27-4faaf7cf65c1"},"vehicle_type_id":"4","last_reported":1731211837,"current_range_meters":8000,"station_id":"","pricing_plan_id":"cebpf4jnsgd1na2vs0mg"},{"bike_id":"9a5eb101-92a2-4eeb-93bd-8d070d90c1ea","system_id":"levelo_inurba_marseille","lat":43.30433,"lon":5.42528,"is_reserved":false,"is_disabled":false,"rental_uris":{"android":"levelo://app?vid=9a5eb101-92a2-4eeb-93bd-8d070d90c1ea","ios":"levelo://app?vid=9a5eb101-92a2-4eeb-93bd-8d070d90c1ea"},"vehicle_type_id":"4","last_reported":1731211837,"current_range_meters":14000,"station_id":"","pricing_plan_id":"cebpf4jnsgd1na2vs0mg"},{"bike_id":"8f1c1ae5-ef93-4ad5-b8de-8fc22bdaac98","system_id":"levelo_inurba_marseille","lat":43.28459,"lon":5.35883,"is_reserved":false,"is_disabled":false,"rental_uris":{"android":"levelo://app?vid=8f1c1ae5-ef93-4ad5-b8de-8fc22bdaac98","ios":"levelo://app?vid=8f1c1ae5-ef93-4ad5-b8de-8fc22bdaac98"},"vehicle_type_id":"4","last_reported":1731211837,"current_range_meters":11600,"station_id":"ce4bhah2rcd13ifvqei0","pricing_plan_id":"cebpf4jnsgd1na2vs0mg"},{"bike_id":"607664c8-a97e-430d-bd73-4898f4cdc580","system_id":"levelo_inurba_marseille","lat":43.33024,"lon":5.39037,"is_reserved":false,"is_disabled":false,"rental_uris":{"android":"levelo://app?vid=607664c8-a97e-430d-bd73-4898f4cdc580","ios":"levelo://app?vid=607664c8-a97e-430d-bd73-4898f4cdc580"},"vehicle_type_id":"4","last_reported":1731211837,"current_range_meters":38000,"station_id":"ce4bhr92rcd13ifvqhrg","pricing_plan_id":"cebpf4jnsgd1na2vs0mg"},{"bike_id":"27e15419-d9b0-4647-890e-e21a7149b1cd","system_id":"levelo_inurba_marseille","lat":43.27068,"lon":5.42273,"is_reserved":false,"is_disabled":false,"rental_uris":{"android":"levelo://app?vid=27e15419-d9b0-4647-890e-e21a7149b1cd","ios":"levelo://app?vid=27e15419-d9b0-4647-890e-e21a7149b1cd"},"vehicle_type_id":"4","last_reported":1731211837,"current_range_meters":10800,"station_id":"ce4bhk92rcd13ifvqgb0","pricing_plan_id":"cebpf4jnsgd1na2vs0mg"},{"bike_id":"55f47cbb-4cd2-4214-9965-9e0698b16e2e","system_id":"levelo_inurba_marseille","lat":43.32392,"lon":5.37004,"is_reserved":false,"is_disabled":false,"rental_uris":{"android":"levelo://app?vid=55f47cbb-4cd2-4214-9965-9e0698b16e2e","ios":"levelo://app?vid=55f47cbb-4cd2-4214-9965-9e0698b16e2e"},"vehicle_type_id":"4","last_reported":1731211837,"current_range_meters":38000,"station_id":"","pricing_plan_id":"cebpf4jnsgd1na2vs0mg"},{"bike_id":"6b51e6dd-3c7f-4178-932b-07d37986933e","system_id":"levelo_inurba_marseille","lat":43.30645,"lon":5.40073,"is_reserved":false,"is_disabled":false,"rental_uris":{"android":"levelo://app?vid=6b51e6dd-3c7f-4178-932b-07d37986933e","ios":"levelo://app?vid=6b51e6dd-3c7f-4178-932b-07d37986933e"},"vehicle_type_id":"4","last_reported":1731211837,"current_range_meters":36800,"station_id":"ce4bh112rcd13ifvqda0","pricing_plan_id":"cebpf4jnsgd1na2vs0mg"},{"bike_id":"ae59c122-6f6a-4058-b9e4-cf3f9a369f15","system_id":"levelo_inurba_marseille","lat":43.33024,"lon":5.3905,"is_reserved":false,"is_disabled":false,"rental_uris":{"android":"levelo://app?vid=ae59c122-6f6a-4058-b9e4-cf3f9a369f15","ios":"levelo://app?vid=ae59c122-6f6a-4058-b9e4-cf3f9a369f15"},"vehicle_type_id":"4","last_reported":1731211837,"current_range_meters":24000,"station_id":"ce4bhr92rcd13ifvqhrg","pricing_plan_id":"cebpf4jnsgd1na2vs0mg"},{"bike_id":"353ea92a-98c5-4f14-88ed-fd6354559e57","system_id":"levelo_inurba_marseille","lat":43.30886,"lon":5.371894,"is_reserved":false,"is_disabled":false,"rental_uris":{"android":"levelo://app?vid=353ea92a-98c5-4f14-88ed-fd6354559e57","ios":"levelo://app?vid=353ea92a-98c5-4f14-88ed-fd6354559e57"},"vehicle_type_id":"4","last_reported":1731211837,"current_range_meters":33600,"station_id":"ce4bguh2rcd13ifvqckg","pricing_plan_id":"cebpf4jnsgd1na2vs0mg"},{"bike_id":"0d93b31b-854a-4c31-b287-70df5cbe7d07","system_id":"levelo_inurba_marseille","lat":43.240864,"lon":5.377333,"is_reserved":false,"is_disabled":false,"rental_uris":{"android":"levelo://app?vid=0d93b31b-854a-4c31-b287-70df5cbe7d07","ios":"levelo://app?vid=0d93b31b-854a-4c31-b287-70df5cbe7d07"},"vehicle_type_id":"4","last_reported":1731211837,"current_range_meters":12400,"station_id":"ce4bhnp2rcd13ifvqgvg","pricing_plan_id":"cebpf4jnsgd1na2vs0mg"},{"bike_id":"8d2b72fb-c6f8-44de-b9b8-8b5223930e89","system_id":"levelo_inurba_marseille","lat":43.24606,"lon":5.38969,"is_reserved":false,"is_disabled":false,"rental_uris":{"android":"levelo://app?vid=8d2b72fb-c6f8-44de-b9b8-8b5223930e89","ios":"levelo://app?vid=8d2b72fb-c6f8-44de-b9b8-8b5223930e89"},"vehicle_type_id":"4","last_reported":1731211837,"current_range_meters":26000,"station_id":"","pricing_plan_id":"cebpf4jnsgd1na2vs0mg"},{"bike_id":"25fe25a4-403f-4e6f-b9e1-cc790ad299ec","system_id":"levelo_inurba_marseille","lat":43.24395,"lon":5.3706,"is_reserved":false,"is_disabled":false,"rental_uris":{"android":"levelo://app?vid=25fe25a4-403f-4e6f-b9e1-cc790ad299ec","ios":"levelo://app?vid=25fe25a4-403f-4e6f-b9e1-cc790ad299ec"},"vehicle_type_id":"4","last_reported":1731211837,"current_range_meters":23200,"station_id":"ce4bhhh2rcd13ifvqfk0","pricing_plan_id":"cebpf4jnsgd1na2vs0mg"},{"bike_id":"f3bf7e69-48df-4afb-93a9-ec803cd90f94","system_id":"levelo_inurba_marseille","lat":43.28868,"lon":5.35863,"is_reserved":false,"is_disabled":false,"rental_uris":{"android":"levelo://app?vid=f3bf7e69-48df-4afb-93a9-ec803cd90f94","ios":"levelo://app?vid=f3bf7e69-48df-4afb-93a9-ec803cd90f94"},"vehicle_type_id":"4","last_reported":1731211837,"current_range_meters":28800,"station_id":"ce4bhb12rcd13ifvqem0","pricing_plan_id":"cebpf4jnsgd1na2vs0mg"},{"bike_id":"1fb06fb2-40ab-4c78-ab50-464ba44a3f88","system_id":"levelo_inurba_marseille","lat":43.30591,"lon":5.39349,"is_reserved":false,"is_disabled":false,"rental_uris":{"android":"levelo://app?vid=1fb06fb2-40ab-4c78-ab50-464ba44a3f88","ios":"levelo://app?vid=1fb06fb2-40ab-4c78-ab50-464ba44a3f88"},"vehicle_type_id":"4","last_reported":1731211837,"current_range_meters":39200,"station_id":"ce4bh0p2rcd13ifvqd80","pricing_plan_id":"cebpf4jnsgd1na2vs0mg"},{"bike_id":"09fd6b48-5b17-42a1-a15e-dce7aa293b94","system_id":"levelo_inurba_marseille","lat":43.28362,"lon":5.38122,"is_reserved":false,"is_disabled":false,"rental_uris":{"android":"levelo://app?vid=09fd6b48-5b17-42a1-a15e-dce7aa293b94","ios":"levelo://app?vid=09fd6b48-5b17-42a1-a15e-dce7aa293b94"},"vehicle_type_id":"4","last_reported":1731211837,"current_range_meters":39200,"station_id":"ce4bh412rcd13ifvqdr0","pricing_plan_id":"cebpf4jnsgd1na2vs0mg"},{"bike_id":"a07f20d1-05dd-4db7-a3c7-1eb8629f57d6","system_id":"levelo_inurba_marseille","lat":43.28939,"lon":5.36634,"is_reserved":false,"is_disabled":false,"rental_uris":{"android":"levelo://app?vid=a07f20d1-05dd-4db7-a3c7-1eb8629f57d6","ios":"levelo://app?vid=a07f20d1-05dd-4db7-a3c7-1eb8629f57d6"},"vehicle_type_id":"4","last_reported":1731211837,"current_range_meters":18000,"station_id":"ce4bhap2rcd13ifvqek0","pricing_plan_id":"cebpf4jnsgd1na2vs0mg"},{"bike_id":"78ba19c5-c1b4-4e32-9852-d397c7c9268d","system_id":"levelo_inurba_marseille","lat":43.26957,"lon":5.38638,"is_reserved":false,"is_disabled":false,"rental_uris":{"android":"levelo://app?vid=78ba19c5-c1b4-4e32-9852-d397c7c9268d","ios":"levelo://app?vid=78ba19c5-c1b4-4e32-9852-d397c7c9268d"},"vehicle_type_id":"4","last_reported":1731211837,"current_range_meters":36800,"station_id":"ce4bhh92rcd13ifvqfh0","pricing_plan_id":"cebpf4jnsgd1na2vs0mg"},{"bike_id":"278ffc69-4f6c-40b1-aa5e-f8d10d1011ac","system_id":"levelo_inurba_marseille","lat":43.29776,"lon":5.37095,"is_reserved":false,"is_disabled":false,"rental_uris":{"android":"levelo://app?vid=278ffc69-4f6c-40b1-aa5e-f8d10d1011ac","ios":"levelo://app?vid=278ffc69-4f6c-40b1-aa5e-f8d10d1011ac"},"vehicle_type_id":"4","last_reported":1731211837,"current_range_meters":28800,"station_id":"ce4bgop2rcd13ifvqc1g","pricing_plan_id":"cebpf4jnsgd1na2vs0mg"},{"bike_id":"2528636a-da2b-4d92-947d-4f76e0e8e5ea","system_id":"levelo_inurba_marseille","lat":43.29444,"lon":5.39756,"is_reserved":false,"is_disabled":false,"rental_uris":{"android":"levelo://app?vid=2528636a-da2b-4d92-947d-4f76e0e8e5ea","ios":"levelo://app?vid=2528636a-da2b-4d92-947d-4f76e0e8e5ea"},"vehicle_type_id":"4","last_reported":1731211837,"current_range_meters":39200,"station_id":"ce4bh3h2rcd13ifvqdo0","pricing_plan_id":"cebpf4jnsgd1na2vs0mg"},{"bike_id":"bbd5bb4f-1dec-419e-a2df-d1fc7088882e","system_id":"levelo_inurba_marseille","lat":43.31374,"lon":5.3852,"is_reserved":false,"is_disabled":false,"rental_uris":{"android":"levelo://app?vid=bbd5bb4f-1dec-419e-a2df-d1fc7088882e","ios":"levelo://app?vid=bbd5bb4f-1dec-419e-a2df-d1fc7088882e"},"vehicle_type_id":"4","last_reported":1731211837,"current_range_meters":36800,"station_id":"ce4bgt92rcd13ifvqcf0","pricing_plan_id":"cebpf4jnsgd1na2vs0mg"},{"bike_id":"c6ae65bf-8d5e-4ea9-a3a9-adc79d0ebafe","system_id":"levelo_inurba_marseille","lat":43.24392,"lon":5.37057,"is_reserved":false,"is_disabled":false,"rental_uris":{"android":"levelo://app?vid=c6ae65bf-8d5e-4ea9-a3a9-adc79d0ebafe","ios":"levelo://app?vid=c6ae65bf-8d5e-4ea9-a3a9-adc79d0ebafe"},"vehicle_type_id":"4","last_reported":1731211837,"current_range_meters":25200,"station_id":"ce4bhhh2rcd13ifvqfk0","pricing_plan_id":"cebpf4jnsgd1na2vs0mg"},{"bike_id":"b3c5fc4e-278c-4349-9854-d21240fa9409","system_id":"levelo_inurba_marseille","lat":43.29788,"lon":5.3712,"is_reserved":false,"is_disabled":false,"rental_uris":{"android":"levelo://app?vid=b3c5fc4e-278c-4349-9854-d21240fa9409","ios":"levelo://app?vid=b3c5fc4e-278c-4349-9854-d21240fa9409"},"vehicle_type_id":"4","last_reported":1731211837,"current_range_meters":27600,"station_id":"ce4bgop2rcd13ifvqc1g","pricing_plan_id":"cebpf4jnsgd1na2vs0mg"},{"bike_id":"28ea2036-7176-4c43-8e86-d839aa57ba66","system_id":"levelo_inurba_marseille","lat":43.3019,"lon":5.36621,"is_reserved":false,"is_disabled":false,"rental_uris":{"android":"levelo://app?vid=28ea2036-7176-4c43-8e86-d839aa57ba66","ios":"levelo://app?vid=28ea2036-7176-4c43-8e86-d839aa57ba66"},"vehicle_type_id":"4","last_reported":1731211837,"current_range_meters":39200,"station_id":"ce4bgrh2rcd13ifvqc8g","pricing_plan_id":"cebpf4jnsgd1na2vs0mg"},{"bike_id":"1b641421-2e55-46f2-aa52-a5bd61345632","system_id":"levelo_inurba_marseille","lat":43.24165,"lon":5.36395,"is_reserved":false,"is_disabled":false,"rental_uris":{"android":"levelo://app?vid=1b641421-2e55-46f2-aa52-a5bd61345632","ios":"levelo://app?vid=1b641421-2e55-46f2-aa52-a5bd61345632"},"vehicle_type_id":"4","last_reported":1731211837,"current_range_meters":12800,"station_id":"cpo36qri1sfpv3e86is0","pricing_plan_id":"cebpf4jnsgd1na2vs0mg"},{"bike_id":"8c1953c0-420e-4a2e-adc5-053e7021636a","system_id":"levelo_inurba_marseille","lat":43.29936,"lon":5.36537,"is_reserved":false,"is_disabled":false,"rental_uris":{"android":"levelo://app?vid=8c1953c0-420e-4a2e-adc5-053e7021636a","ios":"levelo://app?vid=8c1953c0-420e-4a2e-adc5-053e7021636a"},"vehicle_type_id":"4","last_reported":1731211837,"current_range_meters":27200,"station_id":"ce4bgm92rcd13ifvqbr0","pricing_plan_id":"cebpf4jnsgd1na2vs0mg"},{"bike_id":"ba4109b1-d99b-4b96-b8be-e7a7d80ac365","system_id":"levelo_inurba_marseille","lat":43.32365,"lon":5.38884,"is_reserved":false,"is_disabled":false,"rental_uris":{"android":"levelo://app?vid=ba4109b1-d99b-4b96-b8be-e7a7d80ac365","ios":"levelo://app?vid=ba4109b1-d99b-4b96-b8be-e7a7d80ac365"},"vehicle_type_id":"4","last_reported":1731211837,"current_range_meters":38000,"station_id":"ce4bhqp2rcd13ifvqhog","pricing_plan_id":"cebpf4jnsgd1na2vs0mg"},{"bike_id":"6e04e997-545b-4682-a96f-41749d999c20","system_id":"levelo_inurba_marseille","lat":43.31328,"lon":5.39689,"is_reserved":false,"is_disabled":false,"rental_uris":{"android":"levelo://app?vid=6e04e997-545b-4682-a96f-41749d999c20","ios":"levelo://app?vid=6e04e997-545b-4682-a96f-41749d999c20"},"vehicle_type_id":"4","last_reported":1731211837,"current_range_meters":23200,"station_id":"ce4bgvp2rcd13ifvqcu0","pricing_plan_id":"cebpf4jnsgd1na2vs0mg"},{"bike_id":"ee873207-6ab5-48e9-8cbf-0359955f388f","system_id":"levelo_inurba_marseille","lat":43.27378,"lon":5.36256,"is_reserved":false,"is_disabled":false,"rental_uris":{"android":"levelo://app?vid=ee873207-6ab5-48e9-8cbf-0359955f388f","ios":"levelo://app?vid=ee873207-6ab5-48e9-8cbf-0359955f388f"},"vehicle_type_id":"4","last_reported":1731211837,"current_range_meters":28800,"station_id":"ce4bhbh2rcd13ifvqeo0","pricing_plan_id":"cebpf4jnsgd1na2vs0mg"},{"bike_id":"0d0ef880-2434-4d1b-be5b-12320ed92e83","system_id":"levelo_inurba_marseille","lat":43.25728,"lon":5.41105,"is_reserved":false,"is_disabled":false,"rental_uris":{"android":"levelo://app?vid=0d0ef880-2434-4d1b-be5b-12320ed92e83","ios":"levelo://app?vid=0d0ef880-2434-4d1b-be5b-12320ed92e83"},"vehicle_type_id":"4","last_reported":1731211837,"current_range_meters":27200,"station_id":"ce4bhkp2rcd13ifvqgd0","pricing_plan_id":"cebpf4jnsgd1na2vs0mg"},{"bike_id":"07704a86-dbed-425a-854d-11b1a4e3d84c","system_id":"levelo_inurba_marseille","lat":43.33758,"lon":5.37439,"is_reserved":false,"is_disabled":false,"rental_uris":{"android":"levelo://app?vid=07704a86-dbed-425a-854d-11b1a4e3d84c","ios":"levelo://app?vid=07704a86-dbed-425a-854d-11b1a4e3d84c"},"vehicle_type_id":"4","last_reported":1731211837,"current_range_meters":33200,"station_id":"","pricing_plan_id":"cebpf4jnsgd1na2vs0mg"},{"bike_id":"79b39923-b687-4420-a58b-1f85feafef16","system_id":"levelo_inurba_marseille","lat":43.29997,"lon":5.37469,"is_reserved":false,"is_disabled":false,"rental_uris":{"android":"levelo://app?vid=79b39923-b687-4420-a58b-1f85feafef16","ios":"levelo://app?vid=79b39923-b687-4420-a58b-1f85feafef16"},"vehicle_type_id":"4","last_reported":1731211837,"current_range_meters":38400,"station_id":"","pricing_plan_id":"cebpf4jnsgd1na2vs0mg"},{"bike_id":"0c51a2a3-307b-448e-95ea-c0c5d620e217","system_id":"levelo_inurba_marseille","lat":43.295217,"lon":5.375048,"is_reserved":false,"is_disabled":false,"rental_uris":{"android":"levelo://app?vid=0c51a2a3-307b-448e-95ea-c0c5d620e217","ios":"levelo://app?vid=0c51a2a3-307b-448e-95ea-c0c5d620e217"},"vehicle_type_id":"4","last_reported":1731211837,"current_range_meters":38400,"station_id":"ce4bgr92rcd13ifvqc7g","pricing_plan_id":"cebpf4jnsgd1na2vs0mg"},{"bike_id":"8408f021-970e-4462-8328-faf669c1f023","system_id":"levelo_inurba_marseille","lat":43.31077,"lon":5.38356,"is_reserved":false,"is_disabled":false,"rental_uris":{"android":"levelo://app?vid=8408f021-970e-4462-8328-faf669c1f023","ios":"levelo://app?vid=8408f021-970e-4462-8328-faf669c1f023"},"vehicle_type_id":"4","last_reported":1731211837,"current_range_meters":38000,"station_id":"ce4bgv92rcd13ifvqcr0","pricing_plan_id":"cebpf4jnsgd1na2vs0mg"},{"bike_id":"39e0fb1d-6066-4204-83e9-c454b4b8332c","system_id":"levelo_inurba_marseille","lat":43.27833,"lon":5.39204,"is_reserved":false,"is_disabled":false,"rental_uris":{"android":"levelo://app?vid=39e0fb1d-6066-4204-83e9-c454b4b8332c","ios":"levelo://app?vid=39e0fb1d-6066-4204-83e9-c454b4b8332c"},"vehicle_type_id":"4","last_reported":1731211837,"current_range_meters":36800,"station_id":"ce4bhjp2rcd13ifvqga0","pricing_plan_id":"cebpf4jnsgd1na2vs0mg"},{"bike_id":"0b74ce83-e6b1-4485-8ca6-3897f29a426e","system_id":"levelo_inurba_marseille","lat":43.23958,"lon":5.36632,"is_reserved":false,"is_disabled":false,"rental_uris":{"android":"levelo://app?vid=0b74ce83-e6b1-4485-8ca6-3897f29a426e","ios":"levelo://app?vid=0b74ce83-e6b1-4485-8ca6-3897f29a426e"},"vehicle_type_id":"4","last_reported":1731211837,"current_range_meters":10800,"station_id":"ce4bhi12rcd13ifvqfp0","pricing_plan_id":"cebpf4jnsgd1na2vs0mg"},{"bike_id":"3fabc4cc-b457-4bba-9e24-32c6827aa837","system_id":"levelo_inurba_marseille","lat":43.29042,"lon":5.3999,"is_reserved":false,"is_disabled":false,"rental_uris":{"android":"levelo://app?vid=3fabc4cc-b457-4bba-9e24-32c6827aa837","ios":"levelo://app?vid=3fabc4cc-b457-4bba-9e24-32c6827aa837"},"vehicle_type_id":"4","last_reported":1731211837,"current_range_meters":30800,"station_id":"ce4bh392rcd13ifvqdm0","pricing_plan_id":"cebpf4jnsgd1na2vs0mg"},{"bike_id":"2c64c703-c85e-4a6f-91f4-8499eba9eaa2","system_id":"levelo_inurba_marseille","lat":43.28704,"lon":5.39985,"is_reserved":false,"is_disabled":false,"rental_uris":{"android":"levelo://app?vid=2c64c703-c85e-4a6f-91f4-8499eba9eaa2","ios":"levelo://app?vid=2c64c703-c85e-4a6f-91f4-8499eba9eaa2"},"vehicle_type_id":"4","last_reported":1731211837,"current_range_meters":30000,"station_id":"ce4bho92rcd13ifvqh3g","pricing_plan_id":"cebpf4jnsgd1na2vs0mg"},{"bike_id":"aecc25bf-fb41-4312-a51b-82ed8204d8c0","system_id":"levelo_inurba_marseille","lat":43.29872,"lon":5.39759,"is_reserved":false,"is_disabled":false,"rental_uris":{"android":"levelo://app?vid=aecc25bf-fb41-4312-a51b-82ed8204d8c0","ios":"levelo://app?vid=aecc25bf-fb41-4312-a51b-82ed8204d8c0"},"vehicle_type_id":"4","last_reported":1731211837,"current_range_meters":27200,"station_id":"ce4bh0h2rcd13ifvqd50","pricing_plan_id":"cebpf4jnsgd1na2vs0mg"},{"bike_id":"cec05772-88fc-40f1-b561-c75ea0611103","system_id":"levelo_inurba_marseille","lat":43.274982,"lon":5.424496,"is_reserved":false,"is_disabled":false,"rental_uris":{"android":"levelo://app?vid=cec05772-88fc-40f1-b561-c75ea0611103","ios":"levelo://app?vid=cec05772-88fc-40f1-b561-c75ea0611103"},"vehicle_type_id":"4","last_reported":1731211837,"current_range_meters":38400,"station_id":"ce4bhn92rcd13ifvqgrg","pricing_plan_id":"cebpf4jnsgd1na2vs0mg"},{"bike_id":"dd864a7f-f1a7-4305-835f-3d04cff744ea","system_id":"levelo_inurba_marseille","lat":43.30936,"lon":5.4014,"is_reserved":false,"is_disabled":false,"rental_uris":{"android":"levelo://app?vid=dd864a7f-f1a7-4305-835f-3d04cff744ea","ios":"levelo://app?vid=dd864a7f-f1a7-4305-835f-3d04cff744ea"},"vehicle_type_id":"4","last_reported":1731211837,"current_range_meters":39200,"station_id":"ce4bgvp2rcd13ifvqct0","pricing_plan_id":"cebpf4jnsgd1na2vs0mg"},{"bike_id":"90fe466d-60f7-4cb7-b2d6-c1f73bc7cd7a","system_id":"levelo_inurba_marseille","lat":43.32039,"lon":5.41548,"is_reserved":false,"is_disabled":false,"rental_uris":{"android":"levelo://app?vid=90fe466d-60f7-4cb7-b2d6-c1f73bc7cd7a","ios":"levelo://app?vid=90fe466d-60f7-4cb7-b2d6-c1f73bc7cd7a"},"vehicle_type_id":"4","last_reported":1731211837,"current_range_meters":7200,"station_id":"ce4bhq92rcd13ifvqhkg","pricing_plan_id":"cebpf4jnsgd1na2vs0mg"},{"bike_id":"af9cd3eb-6786-4eb5-818d-938dc019f111","system_id":"levelo_inurba_marseille","lat":43.31173,"lon":5.3872,"is_reserved":false,"is_disabled":false,"rental_uris":{"android":"levelo://app?vid=af9cd3eb-6786-4eb5-818d-938dc019f111","ios":"levelo://app?vid=af9cd3eb-6786-4eb5-818d-938dc019f111"},"vehicle_type_id":"4","last_reported":1731211837,"current_range_meters":40000,"station_id":"ce4bgv12rcd13ifvqcp0","pricing_plan_id":"cebpf4jnsgd1na2vs0mg"},{"bike_id":"896a2ba9-5285-4686-975d-79ddd9cd99a3","system_id":"levelo_inurba_marseille","lat":43.25827,"lon":5.3943,"is_reserved":false,"is_disabled":false,"rental_uris":{"android":"levelo://app?vid=896a2ba9-5285-4686-975d-79ddd9cd99a3","ios":"levelo://app?vid=896a2ba9-5285-4686-975d-79ddd9cd99a3"},"vehicle_type_id":"4","last_reported":1731211837,"current_range_meters":35200,"station_id":"ce4bhip2rcd13ifvqft0","pricing_plan_id":"cebpf4jnsgd1na2vs0mg"},{"bike_id":"bc947982-4313-4264-aab0-ba10b887de87","system_id":"levelo_inurba_marseille","lat":43.31331,"lon":5.39703,"is_reserved":false,"is_disabled":false,"rental_uris":{"android":"levelo://app?vid=bc947982-4313-4264-aab0-ba10b887de87","ios":"levelo://app?vid=bc947982-4313-4264-aab0-ba10b887de87"},"vehicle_type_id":"4","last_reported":1731211837,"current_range_meters":39200,"station_id":"ce4bgvp2rcd13ifvqcu0","pricing_plan_id":"cebpf4jnsgd1na2vs0mg"},{"bike_id":"2c42f401-8588-45b2-801d-41b9137e6000","system_id":"levelo_inurba_marseille","lat":43.31694,"lon":5.40477,"is_reserved":false,"is_disabled":false,"rental_uris":{"android":"levelo://app?vid=2c42f401-8588-45b2-801d-41b9137e6000","ios":"levelo://app?vid=2c42f401-8588-45b2-801d-41b9137e6000"},"vehicle_type_id":"4","last_reported":1731211837,"current_range_meters":27200,"station_id":"ce4bh012rcd13ifvqd00","pricing_plan_id":"cebpf4jnsgd1na2vs0mg"},{"bike_id":"baac3be3-010c-4ab7-b814-2af962c842f8","system_id":"levelo_inurba_marseille","lat":43.28373,"lon":5.37523,"is_reserved":false,"is_disabled":false,"rental_uris":{"android":"levelo://app?vid=baac3be3-010c-4ab7-b814-2af962c842f8","ios":"levelo://app?vid=baac3be3-010c-4ab7-b814-2af962c842f8"},"vehicle_type_id":"4","last_reported":1731211837,"current_range_meters":28000,"station_id":"ce4bh412rcd13ifvqds0","pricing_plan_id":"cebpf4jnsgd1na2vs0mg"},{"bike_id":"c1f926f7-9b35-4eec-933c-9e7ed756a8b9","system_id":"levelo_inurba_marseille","lat":43.3089,"lon":5.39648,"is_reserved":false,"is_disabled":false,"rental_uris":{"android":"levelo://app?vid=c1f926f7-9b35-4eec-933c-9e7ed756a8b9","ios":"levelo://app?vid=c1f926f7-9b35-4eec-933c-9e7ed756a8b9"},"vehicle_type_id":"4","last_reported":1731211837,"current_range_meters":39200,"station_id":"ce4bh012rcd13ifvqcv0","pricing_plan_id":"cebpf4jnsgd1na2vs0mg"},{"bike_id":"04d2e88f-c5a5-441d-a13d-50ee686a0c76","system_id":"levelo_inurba_marseille","lat":43.30961,"lon":5.39034,"is_reserved":false,"is_disabled":false,"rental_uris":{"android":"levelo://app?vid=04d2e88f-c5a5-441d-a13d-50ee686a0c76","ios":"levelo://app?vid=04d2e88f-c5a5-441d-a13d-50ee686a0c76"},"vehicle_type_id":"4","last_reported":1731211837,"current_range_meters":12800,"station_id":"ce4bgup2rcd13ifvqco0","pricing_plan_id":"cebpf4jnsgd1na2vs0mg"},{"bike_id":"ce2879f6-b67d-4289-ac71-73576ea9f6c4","system_id":"levelo_inurba_marseille","lat":43.33022,"lon":5.39044,"is_reserved":false,"is_disabled":false,"rental_uris":{"android":"levelo://app?vid=ce2879f6-b67d-4289-ac71-73576ea9f6c4","ios":"levelo://app?vid=ce2879f6-b67d-4289-ac71-73576ea9f6c4"},"vehicle_type_id":"4","last_reported":1731211837,"current_range_meters":38400,"station_id":"ce4bhr92rcd13ifvqhrg","pricing_plan_id":"cebpf4jnsgd1na2vs0mg"},{"bike_id":"d17d14b6-bd39-4f6f-860c-b6baae4afc33","system_id":"levelo_inurba_marseille","lat":43.2606,"lon":5.39396,"is_reserved":false,"is_disabled":false,"rental_uris":{"android":"levelo://app?vid=d17d14b6-bd39-4f6f-860c-b6baae4afc33","ios":"levelo://app?vid=d17d14b6-bd39-4f6f-860c-b6baae4afc33"},"vehicle_type_id":"4","last_reported":1731211837,"current_range_meters":17200,"station_id":"ce4bhh92rcd13ifvqfj0","pricing_plan_id":"cebpf4jnsgd1na2vs0mg"},{"bike_id":"2469dea4-2bdb-4e7c-b9ad-a622084a1af5","system_id":"levelo_inurba_marseille","lat":43.25826,"lon":5.39419,"is_reserved":false,"is_disabled":false,"rental_uris":{"android":"levelo://app?vid=2469dea4-2bdb-4e7c-b9ad-a622084a1af5","ios":"levelo://app?vid=2469dea4-2bdb-4e7c-b9ad-a622084a1af5"},"vehicle_type_id":"4","last_reported":1731211837,"current_range_meters":38000,"station_id":"ce4bhip2rcd13ifvqft0","pricing_plan_id":"cebpf4jnsgd1na2vs0mg"},{"bike_id":"5dc6a56d-f6b5-40ec-89e3-800cf73fa916","system_id":"levelo_inurba_marseille","lat":43.29934,"lon":5.36549,"is_reserved":false,"is_disabled":false,"rental_uris":{"android":"levelo://app?vid=5dc6a56d-f6b5-40ec-89e3-800cf73fa916","ios":"levelo://app?vid=5dc6a56d-f6b5-40ec-89e3-800cf73fa916"},"vehicle_type_id":"4","last_reported":1731211837,"current_range_meters":35200,"station_id":"ce4bgm92rcd13ifvqbr0","pricing_plan_id":"cebpf4jnsgd1na2vs0mg"},{"bike_id":"8f157200-1549-4bf1-b0ff-f75e64d205ca","system_id":"levelo_inurba_marseille","lat":43.28446,"lon":5.3919,"is_reserved":false,"is_disabled":false,"rental_uris":{"android":"levelo://app?vid=8f157200-1549-4bf1-b0ff-f75e64d205ca","ios":"levelo://app?vid=8f157200-1549-4bf1-b0ff-f75e64d205ca"},"vehicle_type_id":"4","last_reported":1731211837,"current_range_meters":30400,"station_id":"ce4bhoh2rcd13ifvqh5g","pricing_plan_id":"cebpf4jnsgd1na2vs0mg"},{"bike_id":"704db654-401c-45e6-bc2d-cc005358368c","system_id":"levelo_inurba_marseille","lat":43.24391,"lon":5.37058,"is_reserved":false,"is_disabled":false,"rental_uris":{"android":"levelo://app?vid=704db654-401c-45e6-bc2d-cc005358368c","ios":"levelo://app?vid=704db654-401c-45e6-bc2d-cc005358368c"},"vehicle_type_id":"4","last_reported":1731211837,"current_range_meters":27200,"station_id":"ce4bhhh2rcd13ifvqfk0","pricing_plan_id":"cebpf4jnsgd1na2vs0mg"},{"bike_id":"26792d84-a86a-4b12-bb51-35da91b8245b","system_id":"levelo_inurba_marseille","lat":43.23967,"lon":5.36633,"is_reserved":false,"is_disabled":false,"rental_uris":{"android":"levelo://app?vid=26792d84-a86a-4b12-bb51-35da91b8245b","ios":"levelo://app?vid=26792d84-a86a-4b12-bb51-35da91b8245b"},"vehicle_type_id":"4","last_reported":1731211837,"current_range_meters":3600,"station_id":"ce4bhi12rcd13ifvqfp0","pricing_plan_id":"cebpf4jnsgd1na2vs0mg"},{"bike_id":"6f961811-5f23-4dc4-b408-e315f611fdd1","system_id":"levelo_inurba_marseille","lat":43.28076,"lon":5.39643,"is_reserved":false,"is_disabled":false,"rental_uris":{"android":"levelo://app?vid=6f961811-5f23-4dc4-b408-e315f611fdd1","ios":"levelo://app?vid=6f961811-5f23-4dc4-b408-e315f611fdd1"},"vehicle_type_id":"4","last_reported":1731211837,"current_range_meters":28000,"station_id":"ce4bho12rcd13ifvqh2g","pricing_plan_id":"cebpf4jnsgd1na2vs0mg"},{"bike_id":"b4eb30bc-dd09-4cbf-8ece-3b8ada662aaf","system_id":"levelo_inurba_marseille","lat":43.25008,"lon":5.3891,"is_reserved":false,"is_disabled":false,"rental_uris":{"android":"levelo://app?vid=b4eb30bc-dd09-4cbf-8ece-3b8ada662aaf","ios":"levelo://app?vid=b4eb30bc-dd09-4cbf-8ece-3b8ada662aaf"},"vehicle_type_id":"4","last_reported":1731211837,"current_range_meters":16400,"station_id":"ce4bhgp2rcd13ifvqfd0","pricing_plan_id":"cebpf4jnsgd1na2vs0mg"},