{"last_updated":1734797400,"ttl":60,"version":"2.2","data":{"bikes":[{"bike_id":"9df2e55a-b74d-46b1-a906-af4457f22fef","system_id":"levelo_inurba_marseille","lat":43.28268,"lon":5.3508,"is_reserved":false,"is_disabled":false,"rental_uris":{"android":"levelo://app?vid=9df2e55a-b74d-46b1-a906-af4457f22fef","ios":"levelo://app?vid=9df2e55a-b74d-46b1-a906-af4457f22fef"},"vehicle_type_id":"4","last_reported":1734797400,"current_range_meters":38800,"station_id":"ce4bhbp2rcd13ifvqerg","pricing_plan_id":"cebpf4jnsgd1na2vs0mg"},{"bike_id":"5d7d16e5-b95c-4a8f-8282-3b0167c4f881","system_id":"levelo_inurba_marseille","lat":43.288396,"lon":5.393154,"is_reserved":false,"is_disabled":false,"rental_uris":{"android":"levelo://app?vid=5d7d16e5-b95c-4a8f-8282-3b0167c4f881","ios":"levelo://app?vid=5d7d16e5-b95c-4a8f-8282-3b0167c4f881"},"vehicle_type_id":"4","last_reported":1734797400,"current_range_meters":35200,"station_id":"ce4bh2p2rcd13ifvqdi0","pricing_plan_id":"cebpf4jnsgd1na2vs0mg"},{"bike_id":"cc231d50-452b-421e-acd3-05626ce71648","system_id":"levelo_inurba_marseille","lat":43.28455,"lon":5.38412,"is_reserved":false,"is_disabled":false,"rental_uris":{"android":"levelo://app?vid=cc231d50-452b-421e-acd3-05626ce71648","ios":"levelo://app?vid=cc231d50-452b-421e-acd3-05626ce71648"},"vehicle_type_id":"4","last_reported":1734797400,"current_range_meters":38000,"station_id":"ce4bh512rcd13ifvqe3g","pricing_plan_id":"cebpf4jnsgd1na2vs0mg"},{"bike_id":"aa496fe5-ff01-4c76-b230-91db42ff1c79","system_id":"levelo_inurba_marseille","lat":43.26929,"lon":5.40242,"is_reserved":false,"is_disabled":false,"rental_uris":{"android":"levelo://app?vid=aa496fe5-ff01-4c76-b230-91db42ff1c79","ios":"levelo://app?vid=aa496fe5-ff01-4c76-b230-91db42ff1c79"},"vehicle_type_id":"4","last_reported":1734797400,"current_range_meters":36400,"station_id":"cjm6bp8fraef2m0cb0m0","pricing_plan_id":"cebpf4jnsgd1na2vs0mg"},{"bike_id":"11e103e4-de29-4cfd-82ee-3fc18a4e5fd1","system_id":"levelo_inurba_marseille","lat":43.33731,"lon":5.391882,"is_reserved":false,"is_disabled":false,"rental_uris":{"android":"levelo://app?vid=11e103e4-de29-4cfd-82ee-3fc18a4e5fd1","ios":"levelo://app?vid=11e103e4-de29-4cfd-82ee-3fc18a4e5fd1"},"vehicle_type_id":"4","last_reported":1734797400,"current_range_meters":38800,"station_id":"ce4bhr92rcd13ifvqhsg","pricing_plan_id":"cebpf4jnsgd1na2vs0mg"},{"bike_id":"1beb6f42-0561-46ea-9d61-e7da24270fcf","system_id":"levelo_inurba_marseille","lat":43.30209,"lon":5.39462,"is_reserved":false,"is_disabled":false,"rental_uris":{"android":"levelo://app?vid=1beb6f42-0561-46ea-9d61-e7da24270fcf","ios":"levelo://app?vid=1beb6f42-0561-46ea-9d61-e7da24270fcf"},"vehicle_type_id":"4","last_reported":1734797400,"current_range_meters":6800,"station_id":"ce4bh0p2rcd13ifvqd70","pricing_plan_id":"cebpf4jnsgd1na2vs0mg"},{"bike_id":"738bae46-acd8-4295-8414-646af7bd5823","system_id":"levelo_inurba_marseille","lat":43.27946,"lon":5.41035,"is_reserved":false,"is_disabled":false,"rental_uris":{"android":"levelo://app?vid=738bae46-acd8-4295-8414-646af7bd5823","ios":"levelo://app?vid=738bae46-acd8-4295-8414-646af7bd5823"},"vehicle_type_id":"4","last_reported":1734797400,"current_range_meters":31200,"station_id":"ce4bhnp2rcd13ifvqh0g","pricing_plan_id":"cebpf4jnsgd1na2vs0mg"},{"bike_id":"a00b8954-6e2a-4380-a112-bb1f39019970","system_id":"levelo_inurba_marseille","lat":43.28931,"lon":5.38392,"is_reserved":false,"is_disabled":false,"rental_uris":{"android":"levelo://app?vid=a00b8954-6e2a-4380-a112-bb1f39019970","ios":"levelo://app?vid=a00b8954-6e2a-4380-a112-bb1f39019970"},"vehicle_type_id":"4","last_reported":1734797400,"current_range_meters":28800,"station_id":"ce4bh612rcd13ifvqe6g","pricing_plan_id":"cebpf4jnsgd1na2vs0mg"},{"bike_id":"96f67906-c94f-4a78-ae6e-fdff28a17019","system_id":"levelo_inurba_marseille","lat":43.337444,"lon":5.374475,"is_reserved":false,"is_disabled":false,"rental_uris":{"android":"levelo://app?vid=96f67906-c94f-4a78-ae6e-fdff28a17019","ios":"levelo://app?vid=96f67906-c94f-4a78-ae6e-fdff28a17019"},"vehicle_type_id":"4","last_reported":1734797400,"current_range_meters":38000,"station_id":"","pricing_plan_id":"cebpf4jnsgd1na2vs0mg"},{"bike_id":"6d401513-66ba-4f40-af76-25e509695a78","system_id":"levelo_inurba_marseille","lat":43.29231,"lon":5.36104,"is_reserved":false,"is_disabled":false,"rental_uris":{"android":"levelo://app?vid=6d401513-66ba-4f40-af76-25e509695a78","ios":"levelo://app?vid=6d401513-66ba-4f40-af76-25e509695a78"},"vehicle_type_id":"4","last_reported":1734797400,"current_range_meters":23200,"station_id":"ce4bhbh2rcd13ifvqeqg","pricing_plan_id":"cebpf4jnsgd1na2vs0mg"},{"bike_id":"f42f783e-769a-4b80-ae8e-683f87caab35","system_id":"levelo_inurba_marseille","lat":43.2972,"lon":5.37714,"is_reserved":false,"is_disabled":false,"rental_uris":{"android":"levelo://app?vid=f42f783e-769a-4b80-ae8e-683f87caab35","ios":"levelo://app?vid=f42f783e-769a-4b80-ae8e-683f87caab35"},"vehicle_type_id":"4","last_reported":1734797400,"current_range_meters":37600,"station_id":"ce4bgkh2rcd13ifvqbl0","pricing_plan_id":"cebpf4jnsgd1na2vs0mg"},{"bike_id":"40431b7a-e281-4e2d-91bc-d3d85515f6cd","system_id":"levelo_inurba_marseille","lat":43.29539,"lon":5.37497,"is_reserved":false,"is_disabled":false,"rental_uris":{"android":"levelo://app?vid=40431b7a-e281-4e2d-91bc-d3d85515f6cd","ios":"levelo://app?vid=40431b7a-e281-4e2d-91bc-d3d85515f6cd"},"vehicle_type_id":"4","last_reported":1734797400,"current_range_meters":27200,"station_id":"ce4bgkp2rcd13ifvqbmg","pricing_plan_id":"cebpf4jnsgd1na2vs0mg"},{"bike_id":"acb6a8a5-2e3d-49a1-9066-91da8e1d7d82","system_id":"levelo_inurba_marseille","lat":43.25496,"lon":5.37652,"is_reserved":false,"is_disabled":true,"rental_uris":{"android":"levelo://app?vid=acb6a8a5-2e3d-49a1-9066-91da8e1d7d82","ios":"levelo://app?vid=acb6a8a5-2e3d-49a1-9066-91da8e1d7d82"},"vehicle_type_id":"4","last_reported":1734797400,"current_range_meters":0,"station_id":"ce4bhh12rcd13ifvqff0","pricing_plan_id":"cebpf4jnsgd1na2vs0mg"},{"bike_id":"5481ebd9-b3a3-4db6-ba37-c92c821046b1","system_id":"levelo_inurba_marseille","lat":43.27625,"lon":5.36111,"is_reserved":false,"is_disabled":false,"rental_uris":{"android":"levelo://app?vid=5481ebd9-b3a3-4db6-ba37-c92c821046b1","ios":"levelo://app?vid=5481ebd9-b3a3-4db6-ba37-c92c821046b1"},"vehicle_type_id":"4","last_reported":1734797400,"current_range_meters":38800,"station_id":"ce4bgj92rcd13ifvqbe0","pricing_plan_id":"cebpf4jnsgd1na2vs0mg"},{"bike_id":"ac9ae62b-7f39-42e7-b9ec-75e7356640a3","system_id":"levelo_inurba_marseille","lat":43.32107,"lon":5.36775,"is_reserved":false,"is_disabled":false,"rental_uris":{"android":"levelo://app?vid=ac9ae62b-7f39-42e7-b9ec-75e7356640a3","ios":"levelo://app?vid=ac9ae62b-7f39-42e7-b9ec-75e7356640a3"},"vehicle_type_id":"4","last_reported":1734797400,"current_range_meters":27600,"station_id":"ce4bhrh2rcd13ifvqhug","pricing_plan_id":"cebpf4jnsgd1na2vs0mg"},{"bike_id":"c638dab8-ad19-43f0-9967-0b03afde17d7","system_id":"levelo_inurba_marseille","lat":43.3266,"lon":5.40994,"is_reserved":false,"is_disabled":false,"rental_uris":{"android":"levelo://app?vid=c638dab8-ad19-43f0-9967-0b03afde17d7","ios":"levelo://app?vid=c638dab8-ad19-43f0-9967-0b03afde17d7"},"vehicle_type_id":"4","last_reported":1734797400,"current_range_meters":36400,"station_id":"ce4bhpp2rcd13ifvqhgg","pricing_plan_id":"cebpf4jnsgd1na2vs0mg"},{"bike_id":"896ee76f-342f-425f-8b16-03ff07ea7fcd","system_id":"levelo_inurba_marseille","lat":43.29979,"lon":5.38505,"is_reserved":false,"is_disabled":false,"rental_uris":{"android":"levelo://app?vid=896ee76f-342f-425f-8b16-03ff07ea7fcd","ios":"levelo://app?vid=896ee76f-342f-425f-8b16-03ff07ea7fcd"},"vehicle_type_id":"4","last_reported":1734797400,"current_range_meters":3600,"station_id":"ce4bgj92rcd13ifvqbd0","pricing_plan_id":"cebpf4jnsgd1na2vs0mg"},{"bike_id":"1f662b40-4ded-47c2-b185-778eee1f0b12","system_id":"levelo_inurba_marseille","lat":43.29702,"lon":5.37694,"is_reserved":false,"is_disabled":false,"rental_uris":{"android":"levelo://app?vid=1f662b40-4ded-47c2-b185-778eee1f0b12","ios":"levelo://app?vid=1f662b40-4ded-47c2-b185-778eee1f0b12"},"vehicle_type_id":"4","last_reported":1734797400,"current_range_meters":24000,"station_id":"ce4bgkh2rcd13ifvqbl0","pricing_plan_id":"cebpf4jnsgd1na2vs0mg"},{"bike_id":"d4f716a5-b45a-4d17-a12e-ad65cb06a1ce","system_id":"levelo_inurba_marseille","lat":43.24076,"lon":5.37762,"is_reserved":false,"is_disabled":false,"rental_uris":{"android":"levelo://app?vid=d4f716a5-b45a-4d17-a12e-ad65cb06a1ce","ios":"levelo://app?vid=d4f716a5-b45a-4d17-a12e-ad65cb06a1ce"},"vehicle_type_id":"4","last_reported":1734797400,"current_range_meters":36400,"station_id":"ce4bhnp2rcd13ifvqgvg","pricing_plan_id":"cebpf4jnsgd1na2vs0mg"},{"bike_id":"65399007-f7cb-4507-974b-daa0fb6e1a2e","system_id":"levelo_inurba_marseille","lat":43.27232,"lon":5.39176,"is_reserved":false,"is_disabled":false,"rental_uris":{"android":"levelo://app?vid=65399007-f7cb-4507-974b-daa0fb6e1a2e","ios":"levelo://app?vid=65399007-f7cb-4507-974b-daa0fb6e1a2e"},"vehicle_type_id":"4","last_reported":1734797400,"current_range_meters":39200,"station_id":"ce4bhhp2rcd13ifvqfm0","pricing_plan_id":"cebpf4jnsgd1na2vs0mg"},{"bike_id":"710cbb4b-92a3-4fcb-a674-51cdb538a062","system_id":"levelo_inurba_marseille","lat":43.26056,"lon":5.39405,"is_reserved":false,"is_disabled":true,"rental_uris":{"android":"levelo://app?vid=710cbb4b-92a3-4fcb-a674-51cdb538a062","ios":"levelo://app?vid=710cbb4b-92a3-4fcb-a674-51cdb538a062"},"vehicle_type_id":"4","last_reported":1734797400,"current_range_meters":38000,"station_id":"ce4bhh92rcd13ifvqfj0","pricing_plan_id":"cebpf4jnsgd1na2vs0mg"},{"bike_id":"59539a81-e6d5-4387-ab26-955d7d6bb865","system_id":"levelo_inurba_marseille","lat":43.29584,"lon":5.37505,"is_reserved":false,"is_disabled":false,"rental_uris":{"android":"levelo://app?vid=59539a81-e6d5-4387-ab26-955d7d6bb865","ios":"levelo://app?vid=59539a81-e6d5-4387-ab26-955d7d6bb865"},"vehicle_type_id":"4","last_reported":1734797400,"current_range_meters":13600,"station_id":"ce4bgh92rcd13ifvqb50","pricing_plan_id":"cebpf4jnsgd1na2vs0mg"},{"bike_id":"f810d843-5102-4b08-bab4-9f6abb0ec6c0","system_id":"levelo_inurba_marseille","lat":43.25486,"lon":5.3766,"is_reserved":false,"is_disabled":false,"rental_uris":{"android":"levelo://app?vid=f810d843-5102-4b08-bab4-9f6abb0ec6c0","ios":"levelo://app?vid=f810d843-5102-4b08-bab4-9f6abb0ec6c0"},"vehicle_type_id":"4","last_reported":1734797400,"current_range_meters":38400,"station_id":"ce4bhh12rcd13ifvqff0","pricing_plan_id":"cebpf4jnsgd1na2vs0mg"},{"bike_id":"dd52cea9-6fe3-460c-a4fc-255f18d6f38c","system_id":"levelo_inurba_marseille","lat":43.24997,"lon":5.38923,"is_reserved":false,"is_disabled":false,"rental_uris":{"android":"levelo://app?vid=dd52cea9-6fe3-460c-a4fc-255f18d6f38c","ios":"levelo://app?vid=dd52cea9-6fe3-460c-a4fc-255f18d6f38c"},"vehicle_type_id":"4","last_reported":1734797400,"current_range_meters":25600,"station_id":"ce4bhgp2rcd13ifvqfd0","pricing_plan_id":"cebpf4jnsgd1na2vs0mg"},{"bike_id":"e2093eaf-d010-461b-aa40-a85f704a9b1e","system_id":"levelo_inurba_marseille","lat":43.27371,"lon":5.36255,"is_reserved":false,"is_disabled":false,"rental_uris":{"android":"levelo://app?vid=e2093eaf-d010-461b-aa40-a85f704a9b1e","ios":"levelo://app?vid=e2093eaf-d010-461b-aa40-a85f704a9b1e"},"vehicle_type_id":"4","last_reported":1734797400,"current_range_meters":4000,"station_id":"ce4bhbh2rcd13ifvqeo0","pricing_plan_id":"cebpf4jnsgd1na2vs0mg"},{"bike_id":"923203be-81e9-4bac-baed-4fd99bc3f450","system_id":"levelo_inurba_marseille","lat":43.29589,"lon":5.37514,"is_reserved":false,"is_disabled":false,"rental_uris":{"android":"levelo://app?vid=923203be-81e9-4bac-baed-4fd99bc3f450","ios":"levelo://app?vid=923203be-81e9-4bac-baed-4fd99bc3f450"},"vehicle_type_id":"4","last_reported":1734797400,"current_range_meters":26800,"station_id":"ce4bgh92rcd13ifvqb50","pricing_plan_id":"cebpf4jnsgd1na2vs0mg"},{"bike_id":"7896e178-d523-4462-a9aa-a351a1112e49","system_id":"levelo_inurba_marseille","lat":43.27075,"lon":5.42264,"is_reserved":false,"is_disabled":false,"rental_uris":{"android":"levelo://app?vid=7896e178-d523-4462-a9aa-a351a1112e49","ios":"levelo://app?vid=7896e178-d523-4462-a9aa-a351a1112e49"},"vehicle_type_id":"4","last_reported":1734797400,"current_range_meters":28400,"station_id":"ce4bhk92rcd13ifvqgb0","pricing_plan_id":"cebpf4jnsgd1na2vs0mg"},{"bike_id":"fbf3da40-6db3-4b0a-ba01-e3b05174c03a","system_id":"levelo_inurba_marseille","lat":43.28271,"lon":5.35071,"is_reserved":false,"is_disabled":false,"rental_uris":{"android":"levelo://app?vid=fbf3da40-6db3-4b0a-ba01-e3b05174c03a","ios":"levelo://app?vid=fbf3da40-6db3-4b0a-ba01-e3b05174c03a"},"vehicle_type_id":"4","last_reported":1734797400,"current_range_meters":38800,"station_id":"ce4bhbp2rcd13ifvqerg","pricing_plan_id":"cebpf4jnsgd1na2vs0mg"},{"bike_id":"c9daacae-79a8-4a54-9f99-f1056ebfdaf4","system_id":"levelo_inurba_marseille","lat":43.25502,"lon":5.37644,"is_reserved":false,"is_disabled":true,"rental_uris":{"android":"levelo://app?vid=c9daacae-79a8-4a54-9f99-f1056ebfdaf4","ios":"levelo://app?vid=c9daacae-79a8-4a54-9f99-f1056ebfdaf4"},"vehicle_type_id":"4","last_reported":1734797400,"current_range_meters":0,"station_id":"ce4bhh12rcd13ifvqff0","pricing_plan_id":"cebpf4jnsgd1na2vs0mg"},{"bike_id":"1f265f2c-c3ce-4530-9858-4eca3d9e00e1","system_id":"levelo_inurba_marseille","lat":43.23203,"lon":5.39981,"is_reserved":false,"is_disabled":false,"rental_uris":{"android":"levelo://app?vid=1f265f2c-c3ce-4530-9858-4eca3d9e00e1","ios":"levelo://app?vid=1f265f2c-c3ce-4530-9858-4eca3d9e00e1"},"vehicle_type_id":"4","last_reported":1734797400,"current_range_meters":9600,"station_id":"ce4bhn12rcd13ifvqgqg","pricing_plan_id":"cebpf4jnsgd1na2vs0mg"},{"bike_id":"04291d74-e783-4e53-acbe-2ca9b6cc2332","system_id":"levelo_inurba_marseille","lat":43.30547,"lon":5.36717,"is_reserved":false,"is_disabled":false,"rental_uris":{"android":"levelo://app?vid=04291d74-e783-4e53-acbe-2ca9b6cc2332","ios":"levelo://app?vid=04291d74-e783-4e53-acbe-2ca9b6cc2332"},"vehicle_type_id":"4","last_reported":1734797400,"current_range_meters":20800,"station_id":"ce4bgrp2rcd13ifvqc9g","pricing_plan_id":"cebpf4jnsgd1na2vs0mg"},{"bike_id":"1a884fb0-fd25-4419-8f55-71f22101c4dc","system_id":"levelo_inurba_marseille","lat":43.28485,"lon":5.38412,"is_reserved":false,"is_disabled":true,"rental_uris":{"android":"levelo://app?vid=1a884fb0-fd25-4419-8f55-71f22101c4dc","ios":"levelo://app?vid=1a884fb0-fd25-4419-8f55-71f22101c4dc"},"vehicle_type_id":"4","last_reported":1734797400,"current_range_meters":800,"station_id":"ce4bh512rcd13ifvqe3g","pricing_plan_id":"cebpf4jnsgd1na2vs0mg"},{"bike_id":"b6c864b4-2d74-4843-a929-10118d9d48af","system_id":"levelo_inurba_marseille","lat":43.25506,"lon":5.37649,"is_reserved":false,"is_disabled":false,"rental_uris":{"android":"levelo://app?vid=b6c864b4-2d74-4843-a929-10118d9d48af","ios":"levelo://app?vid=b6c864b4-2d74-4843-a929-10118d9d48af"},"vehicle_type_id":"4","last_reported":1734797400,"current_range_meters":35600,"station_id":"ce4bhh12rcd13ifvqff0","pricing_plan_id":"cebpf4jnsgd1na2vs0mg"},{"bike_id":"e724f4e5-0922-4e36-91f4-8a4c9d514ff5","system_id":"levelo_inurba_marseille","lat":43.29818,"lon":5.36279,"is_reserved":false,"is_disabled":false,"rental_uris":{"android":"levelo://app?vid=e724f4e5-0922-4e36-91f4-8a4c9d514ff5","ios":"levelo://app?vid=e724f4e5-0922-4e36-91f4-8a4c9d514ff5"},"vehicle_type_id":"4","last_reported":1734797400,"current_range_meters":38800,"station_id":"ce4bgpp2rcd13ifvqc3g","pricing_plan_id":"cebpf4jnsgd1na2vs0mg"},{"bike_id":"abf860be-3d3d-4a76-b353-f7286e2856a9","system_id":"levelo_inurba_marseille","lat":43.27624,"lon":5.36118,"is_reserved":false,"is_disabled":false,"rental_uris":{"android":"levelo://app?vid=abf860be-3d3d-4a76-b353-f7286e2856a9","ios":"levelo://app?vid=abf860be-3d3d-4a76-b353-f7286e2856a9"},"vehicle_type_id":"4","last_reported":1734797400,"current_range_meters":22400,"station_id":"ce4bgj92rcd13ifvqbe0","pricing_plan_id":"cebpf4jnsgd1na2vs0mg"},{"bike_id":"7e577efa-ad7b-4159-aa14-2376d4395d6f","system_id":"levelo_inurba_marseille","lat":43.29609,"lon":5.37714,"is_reserved":false,"is_disabled":false,"rental_uris":{"android":"levelo://app?vid=7e577efa-ad7b-4159-aa14-2376d4395d6f","ios":"levelo://app?vid=7e577efa-ad7b-4159-aa14-2376d4395d6f"},"vehicle_type_id":"4","last_reported":1734797400,"current_range_meters":20400,"station_id":"ce4bgi92rcd13ifvqb90","pricing_plan_id":"cebpf4jnsgd1na2vs0mg"},{"bike_id":"d98f0b8a-1ef4-43b4-85a1-12b00b5f4de1","system_id":"levelo_inurba_marseille","lat":43.284239,"lon":5.350025,"is_reserved":false,"is_disabled":false,"rental_uris":{"android":"levelo://app?vid=d98f0b8a-1ef4-43b4-85a1-12b00b5f4de1","ios":"levelo://app?vid=d98f0b8a-1ef4-43b4-85a1-12b00b5f4de1"},"vehicle_type_id":"4","last_reported":1734797400,"current_range_meters":38800,"station_id":"ce4bhbh2rcd13ifvqepg","pricing_plan_id":"cebpf4jnsgd1na2vs0mg"},{"bike_id":"dfb361fe-f637-4041-b1c6-d571444472cc","system_id":"levelo_inurba_marseille","lat":43.3304,"lon":5.39077,"is_reserved":false,"is_disabled":false,"rental_uris":{"android":"levelo://app?vid=dfb361fe-f637-4041-b1c6-d571444472cc","ios":"levelo://app?vid=dfb361fe-f637-4041-b1c6-d571444472cc"},"vehicle_type_id":"4","last_reported":1734797400,"current_range_meters":36400,"station_id":"ce4bhr92rcd13ifvqhrg","pricing_plan_id":"cebpf4jnsgd1na2vs0mg"},{"bike_id":"fbd179ce-8bca-4ab9-8cde-4cb175f13b2a","system_id":"levelo_inurba_marseille","lat":43.29043,"lon":5.37569,"is_reserved":false,"is_disabled":false,"rental_uris":{"android":"levelo://app?vid=fbd179ce-8bca-4ab9-8cde-4cb175f13b2a","ios":"levelo://app?vid=fbd179ce-8bca-4ab9-8cde-4cb175f13b2a"},"vehicle_type_id":"4","last_reported":1734797400,"current_range_meters":38800,"station_id":"ce4bh692rcd13ifvqe90","pricing_plan_id":"cebpf4jnsgd1na2vs0mg"},{"bike_id":"71bbaaf0-30fa-412b-9088-f880a672af88","system_id":"levelo_inurba_marseille","lat":43.26026,"lon":5.37549,"is_reserved":false,"is_disabled":true,"rental_uris":{"android":"levelo://app?vid=71bbaaf0-30fa-412b-9088-f880a672af88","ios":"levelo://app?vid=71bbaaf0-30fa-412b-9088-f880a672af88"},"vehicle_type_id":"4","last_reported":1734797400,"current_range_meters":1200,"station_id":"ce4bhgh2rcd13ifvqfa0","pricing_plan_id":"cebpf4jnsgd1na2vs0mg"},{"bike_id":"acf78538-1d42-4b62-92a4-3bb975509402","system_id":"levelo_inurba_marseille","lat":43.28698,"lon":5.37386,"is_reserved":false,"is_disabled":false,"rental_uris":{"android":"levelo://app?vid=acf78538-1d42-4b62-92a4-3bb975509402","ios":"levelo://app?vid=acf78538-1d42-4b62-92a4-3bb975509402"},"vehicle_type_id":"4","last_reported":1734797400,"current_range_meters":20800,"station_id":"ce4bh3p2rcd13ifvqdq0","pricing_plan_id":"cebpf4jnsgd1na2vs0mg"},{"bike_id":"3c7f2e26-89fd-42cd-b282-eaa108fc023e","system_id":"levelo_inurba_marseille","lat":43.28925,"lon":5.38387,"is_reserved":false,"is_disabled":false,"rental_uris":{"android":"levelo://app?vid=3c7f2e26-89fd-42cd-b282-eaa108fc023e","ios":"levelo://app?vid=3c7f2e26-89fd-42cd-b282-eaa108fc023e"},"vehicle_type_id":"4","last_reported":1734797400,"current_range_meters":38800,"station_id":"ce4bh612rcd13ifvqe6g","pricing_plan_id":"cebpf4jnsgd1na2vs0mg"},{"bike_id":"59ca2ebc-7c6f-439a-a11b-02933f88209e","system_id":"levelo_inurba_marseille","lat":43.27087,"lon":5.42283,"is_reserved":false,"is_disabled":false,"rental_uris":{"android":"levelo://app?vid=59ca2ebc-7c6f-439a-a11b-02933f88209e","ios":"levelo://app?vid=59ca2ebc-7c6f-439a-a11b-02933f88209e"},"vehicle_type_id":"4","last_reported":1734797400,"current_range_meters":36800,"station_id":"ce4bhk92rcd13ifvqgb0","pricing_plan_id":"cebpf4jnsgd1na2vs0mg"},{"bike_id":"7ec2e082-9a40-4719-bfaf-9cc7e2f0ff4c","system_id":"levelo_inurba_marseille","lat":43.27984,"lon":5.41101,"is_reserved":false,"is_disabled":false,"rental_uris":{"android":"levelo://app?vid=7ec2e082-9a40-4719-bfaf-9cc7e2f0ff4c","ios":"levelo://app?vid=7ec2e082-9a40-4719-bfaf-9cc7e2f0ff4c"},"vehicle_type_id":"4","last_reported":1734797400,"current_range_meters":6800,"station_id":"","pricing_plan_id":"cebpf4jnsgd1na2vs0mg"},{"bike_id":"c59e04cc-6c2a-47ed-9705-e1b566e11a2c","system_id":"levelo_inurba_marseille","lat":43.29258,"lon":5.40915,"is_reserved":false,"is_disabled":false,"rental_uris":{"android":"levelo://app?vid=c59e04cc-6c2a-47ed-9705-e1b566e11a2c","ios":"levelo://app?vid=c59e04cc-6c2a-47ed-9705-e1b566e11a2c"},"vehicle_type_id":"4","last_reported":1734797400,"current_range_meters":8000,"station_id":"ce4bh192rcd13ifvqdc0","pricing_plan_id":"cebpf4jnsgd1na2vs0mg"},{"bike_id":"d6e7e8a8-2319-4d9b-973a-844ef23f21f0","system_id":"levelo_inurba_marseille","lat":43.28938,"lon":5.39627,"is_reserved":false,"is_disabled":false,"rental_uris":{"android":"levelo://app?vid=d6e7e8a8-2319-4d9b-973a-844ef23f21f0","ios":"levelo://app?vid=d6e7e8a8-2319-4d9b-973a-844ef23f21f0"},"vehicle_type_id":"4","last_reported":1734797400,"current_range_meters":38800,"station_id":"ce4bh3h2rcd13ifvqdn0","pricing_plan_id":"cebpf4jnsgd1na2vs0mg"},{"bike_id":"5aaada0e-ec1b-4344-acc3-4994d36b6ed2","system_id":"levelo_inurba_marseille","lat":43.29228,"lon":5.36484,"is_reserved":false,"is_disabled":false,"rental_uris":{"android":"levelo://app?vid=5aaada0e-ec1b-4344-acc3-4994d36b6ed2","ios":"levelo://app?vid=5aaada0e-ec1b-4344-acc3-4994d36b6ed2"},"vehicle_type_id":"4","last_reported":1734797400,"current_range_meters":22400,"station_id":"ce4bh2p2rcd13ifvqdi0","pricing_plan_id":"cebpf4jnsgd1na2vs0mg"},{"bike_id":"5de55ec3-b446-45b5-9e6a-b67b9996a2b3","system_id":"levelo_inurba_marseille","lat":43.27297,"lon":5.39106,"is_reserved":false,"is_disabled":true,"rental_uris":{"android":"levelo://app?vid=5de55ec3-b446-45b5-9e6a-b67b9996a2b3","ios":"levelo://app?vid=5de55ec3-b446-45b5-9e6a-b67b9996a2b3"},"vehicle_type_id":"4","last_reported":1734797400,"current_range_meters":36400,"station_id":"ce4bhgp2rcd13ifvqfe0","pricing_plan_id":"cebpf4jnsgd1na2vs0mg"},{"bike_id":"a08c8505-be45-439c-bb41-3c4c95b8f5a1","system_id":"levelo_inurba_marseille","lat":43.29276,"lon":5.36841,"is_reserved":false,"is_disabled":false,"rental_uris":{"android":"levelo://app?vid=a08c8505-be45-439c-bb41-3c4c95b8f5a1","ios":"levelo://app?vid=a08c8505-be45-439c-bb41-3c4c95b8f5a1"},"vehicle_type_id":"4","last_reported":1734797400,"current_range_meters":36800,"station_id":"ce4bhbp2rcd13ifvqesg","pricing_plan_id":"cebpf4jnsgd1na2vs0mg"},{"bike_id":"9daa44e7-dbcd-4dc1-8b8c-d5b1cf6bc951","system_id":"levelo_inurba_marseille","lat":43.28936,"lon":5.36393,"is_reserved":false,"is_disabled":false,"rental_uris":{"android":"levelo://app?vid=9daa44e7-dbcd-4dc1-8b8c-d5b1cf6bc951","ios":"levelo://app?vid=9daa44e7-dbcd-4dc1-8b8c-d5b1cf6bc951"},"vehicle_type_id":"4","last_reported":1734797400,"current_range_meters":28000,"station_id":"ce4bhap2rcd13ifvqek0","pricing_plan_id":"cebpf4jnsgd1na2vs0mg"},{"bike_id":"2cf370b3-a85e-46b0-abf1-dc57eca3e99b","system_id":"levelo_inurba_marseille","lat":43.26791,"lon":5.3941,"is_reserved":false,"is_disabled":false,"rental_uris":{"android":"levelo://app?vid=2cf370b3-a85e-46b0-abf1-dc57eca3e99b","ios":"levelo://app?vid=2cf370b3-a85e-46b0-abf1-dc57eca3e99b"},"vehicle_type_id":"4","last_reported":1734797400,"current_range_meters":28400,"station_id":"ce4bhh12rcd13ifvqfg0","pricing_plan_id":"cebpf4jnsgd1na2vs0mg"},{"bike_id":"85225762-d7ec-4912-87cf-30f56fc88559","system_id":"levelo_inurba_marseille","lat":43.29224,"lon":5.36078,"is_reserved":false,"is_disabled":false,"rental_uris":{"android":"levelo://app?vid=85225762-d7ec-4912-87cf-30f56fc88559","ios":"levelo://app?vid=85225762-d7ec-4912-87cf-30f56fc88559"},"vehicle_type_id":"4","last_reported":1734797400,"current_range_meters":16000,"station_id":"ce4bhbh2rcd13ifvqeqg","pricing_plan_id":"cebpf4jnsgd1na2vs0mg"},{"bike_id":"9ee4e120-058f-4bb2-b650-b911e816b650","system_id":"levelo_inurba_marseille","lat":43.27995,"lon":5.40015,"is_reserved":false,"is_disabled":false,"rental_uris":{"android":"levelo://app?vid=9ee4e120-058f-4bb2-b650-b911e816b650","ios":"levelo://app?vid=9ee4e120-058f-4bb2-b650-b911e816b650"},"vehicle_type_id":"4","last_reported":1734797400,"current_range_meters":28800,"station_id":"ce4bho92rcd13ifvqh4g","pricing_plan_id":"cebpf4jnsgd1na2vs0mg"},{"bike_id":"954f040c-9c68-484b-977a-d101cc152ccc","system_id":"levelo_inurba_marseille","lat":43.26687,"lon":5.38273,"is_reserved":false,"is_disabled":false,"rental_uris":{"android":"levelo://app?vid=954f040c-9c68-484b-977a-d101cc152ccc","ios":"levelo://app?vid=954f040c-9c68-484b-977a-d101cc152ccc"},"vehicle_type_id":"4","last_reported":1734797400,"current_range_meters":33600,"station_id":"ce4bhg92rcd13ifvqf90","pricing_plan_id":"cebpf4jnsgd1na2vs0mg"},{"bike_id":"d1985a28-de3f-4de8-8223-adb22deb4411","system_id":"levelo_inurba_marseille","lat":43.30166,"lon":5.38096,"is_reserved":false,"is_disabled":false,"rental_uris":{"android":"levelo://app?vid=d1985a28-de3f-4de8-8223-adb22deb4411","ios":"levelo://app?vid=d1985a28-de3f-4de8-8223-adb22deb4411"},"vehicle_type_id":"4","last_reported":1734797400,"current_range_meters":32000,"station_id":"ce4bgjp2rcd13ifvqbh0","pricing_plan_id":"cebpf4jnsgd1na2vs0mg"},{"bike_id":"6dc6694c-e80f-4778-9813-70fc7e438103","system_id":"levelo_inurba_marseille","lat":43.27441,"lon":5.39415,"is_reserved":false,"is_disabled":false,"rental_uris":{"android":"levelo://app?vid=6dc6694c-e80f-4778-9813-70fc7e438103","ios":"levelo://app?vid=6dc6694c-e80f-4778-9813-70fc7e438103"},"vehicle_type_id":"4","last_reported":1734797400,"current_range_meters":25200,"station_id":"ce4bhdp2rcd13ifvqf20","pricing_plan_id":"cebpf4jnsgd1na2vs0mg"},{"bike_id":"6f3c8a5c-ada2-4481-883e-ec9ac01d5493","system_id":"levelo_inurba_marseille","lat":43.28268,"lon":5.35083,"is_reserved":false,"is_disabled":false,"rental_uris":{"android":"levelo://app?vid=6f3c8a5c-ada2-4481-883e-ec9ac01d5493","ios":"levelo://app?vid=6f3c8a5c-ada2-4481-883e-ec9ac01d5493"},"vehicle_type_id":"4","last_reported":1734797400,"current_range_meters":6400,"station_id":"ce4bhbp2rcd13ifvqerg","pricing_plan_id":"cebpf4jnsgd1na2vs0mg"},{"bike_id":"52a88488-4dd2-4f03-9384-f060d17bb6f5","system_id":"levelo_inurba_marseille","lat":43.25868,"lon":5.399,"is_reserved":false,"is_disabled":true,"rental_uris":{"android":"levelo://app?vid=52a88488-4dd2-4f03-9384-f060d17bb6f5","ios":"levelo://app?vid=52a88488-4dd2-4f03-9384-f060d17bb6f5"},"vehicle_type_id":"4","last_reported":1734797400,"current_range_meters":0,"station_id":"ce4bhl92rcd13ifvqghg","pricing_plan_id":"cebpf4jnsgd1na2vs0mg"},{"bike_id":"720d4dfc-db62-4d98-83af-51ccf736ad84","system_id":"levelo_inurba_marseille","lat":43.29619,"lon":5.37708,"is_reserved":false,"is_disabled":false,"rental_uris":{"android":"levelo://app?vid=720d4dfc-db62-4d98-83af-51ccf736ad84","ios":"levelo://app?vid=720d4dfc-db62-4d98-83af-51ccf736ad84"},"vehicle_type_id":"4","last_reported":1734797400,"current_range_meters":31200,"station_id":"ce4bgi92rcd13ifvqb90","pricing_plan_id":"cebpf4jnsgd1na2vs0mg"},{"bike_id":"9d9d328b-416b-49e4-922d-3918c365544e","system_id":"levelo_inurba_marseille","lat":43.29513,"lon":5.37493,"is_reserved":false,"is_disabled":false,"rental_uris":{"android":"levelo://app?vid=9d9d328b-416b-49e4-922d-3918c365544e","ios":"levelo://app?vid=9d9d328b-416b-49e4-922d-3918c365544e"},"vehicle_type_id":"4","last_reported":1734797400,"current_range_meters":27600,"station_id":"ce4bgkp2rcd13ifvqbmg","pricing_plan_id":"cebpf4jnsgd1na2vs0mg"},{"bike_id":"c889bce7-ce58-4551-b1fe-fe2f91c10fbf","system_id":"levelo_inurba_marseille","lat":43.28943,"lon":5.39626,"is_reserved":false,"is_disabled":false,"rental_uris":{"android":"levelo://app?vid=c889bce7-ce58-4551-b1fe-fe2f91c10fbf","ios":"levelo://app?vid=c889bce7-ce58-4551-b1fe-fe2f91c10fbf"},"vehicle_type_id":"4","last_reported":1734797400,"current_range_meters":38800,"station_id":"ce4bh3h2rcd13ifvqdn0","pricing_plan_id":"cebpf4jnsgd1na2vs0mg"},{"bike_id":"2ecd7a5c-6b03-4906-a193-c1bc16b7668c","system_id":"levelo_inurba_marseille","lat":43.30245,"lon":5.40006,"is_reserved":false,"is_disabled":true,"rental_uris":{"android":"levelo://app?vid=2ecd7a5c-6b03-4906-a193-c1bc16b7668c","ios":"levelo://app?vid=2ecd7a5c-6b03-4906-a193-c1bc16b7668c"},"vehicle_type_id":"4","last_reported":1734797400,"current_range_meters":38800,"station_id":"","pricing_plan_id":"cebpf4jnsgd1na2vs0mg"},{"bike_id":"782bcbf2-b7de-4b04-bebc-aaa0329dd90c","system_id":"levelo_inurba_marseille","lat":43.231894,"lon":5.355577,"is_reserved":false,"is_disabled":false,"rental_uris":{"android":"levelo://app?vid=782bcbf2-b7de-4b04-bebc-aaa0329dd90c","ios":"levelo://app?vid=782bcbf2-b7de-4b04-bebc-aaa0329dd90c"},"vehicle_type_id":"4","last_reported":1734797400,"current_range_meters":30800,"station_id":"ce4bhu92rcd13ifvqi70","pricing_plan_id":"cebpf4jnsgd1na2vs0mg"},{"bike_id":"0b8d43aa-0c62-480d-a4f3-2ae8c0c6f8f0","system_id":"levelo_inurba_marseille","lat":43.29521,"lon":5.37493,"is_reserved":false,"is_disabled":false,"rental_uris":{"android":"levelo://app?vid=0b8d43aa-0c62-480d-a4f3-2ae8c0c6f8f0","ios":"levelo://app?vid=0b8d43aa-0c62-480d-a4f3-2ae8c0c6f8f0"},"vehicle_type_id":"4","last_reported":1734797400,"current_range_meters":31200,"station_id":"ce4bgkp2rcd13ifvqbmg","pricing_plan_id":"cebpf4jnsgd1na2vs0mg"},{"bike_id":"f2fddecf-aacc-43b9-984c-e21269354d44","system_id":"levelo_inurba_marseille","lat":43.25498,"lon":5.37649,"is_reserved":false,"is_disabled":false,"rental_uris":{"android":"levelo://app?vid=f2fddecf-aacc-43b9-984c-e21269354d44","ios":"levelo://app?vid=f2fddecf-aacc-43b9-984c-e21269354d44"},"vehicle_type_id":"4","last_reported":1734797400,"current_range_meters":38800,"station_id":"ce4bhh12rcd13ifvqff0","pricing_plan_id":"cebpf4jnsgd1na2vs0mg"},{"bike_id":"7ec90261-743e-4777-815b-c3ab95309061","system_id":"levelo_inurba_marseille","lat":43.30549,"lon":5.36538,"is_reserved":false,"is_disabled":false,"rental_uris":{"android":"levelo://app?vid=7ec90261-743e-4777-815b-c3ab95309061","ios":"levelo://app?vid=7ec90261-743e-4777-815b-c3ab95309061"},"vehicle_type_id":"4","last_reported":1734797400,"current_range_meters":33600,"station_id":"ce4bgs12rcd13ifvqcag","pricing_plan_id":"cebpf4jnsgd1na2vs0mg"},{"bike_id":"35325136-ba50-4a03-a961-ec049678dc79","system_id":"levelo_inurba_marseille","lat":43.24809,"lon":5.37457,"is_reserved":false,"is_disabled":false,"rental_uris":{"android":"levelo://app?vid=35325136-ba50-4a03-a961-ec049678dc79","ios":"levelo://app?vid=35325136-ba50-4a03-a961-ec049678dc79"},"vehicle_type_id":"4","last_reported":1734797400,"current_range_meters":29600,"station_id":"ce4bhgh2rcd13ifvqfb0","pricing_plan_id":"cebpf4jnsgd1na2vs0mg"},{"bike_id":"3216941d-b90f-4166-9789-4659f8e52f65","system_id":"levelo_inurba_marseille","lat":43.26555,"lon":5.37283,"is_reserved":false,"is_disabled":false,"rental_uris":{"android":"levelo://app?vid=3216941d-b90f-4166-9789-4659f8e52f65","ios":"levelo://app?vid=3216941d-b90f-4166-9789-4659f8e52f65"},"vehicle_type_id":"4","last_reported":1734797400,"current_range_meters":18800,"station_id":"ce4bhg12rcd13ifvqf70","pricing_plan_id":"cebpf4jnsgd1na2vs0mg"},{"bike_id":"2cc52980-941f-41ef-85e8-3dad0f5327dc","system_id":"levelo_inurba_marseille","lat":43.27075,"lon":5.4228,"is_reserved":false,"is_disabled":false,"rental_uris":{"android":"levelo://app?vid=2cc52980-941f-41ef-85e8-3dad0f5327dc","ios":"levelo://app?vid=2cc52980-941f-41ef-85e8-3dad0f5327dc"},"vehicle_type_id":"4","last_reported":1734797400,"current_range_meters":32400,"station_id":"ce4bhk92rcd13ifvqgb0","pricing_plan_id":"cebpf4jnsgd1na2vs0mg"},{"bike_id":"e1e55b34-0cc8-42c6-b9d9-a442d6ab0cd4","system_id":"levelo_inurba_marseille","lat":43.23181,"lon":5.39996,"is_reserved":false,"is_disabled":false,"rental_uris":{"android":"levelo://app?vid=e1e55b34-0cc8-42c6-b9d9-a442d6ab0cd4","ios":"levelo://app?vid=e1e55b34-0cc8-42c6-b9d9-a442d6ab0cd4"},"vehicle_type_id":"4","last_reported":1734797400,"current_range_meters":25200,"station_id":"ce4bhn12rcd13ifvqgqg","pricing_plan_id":"cebpf4jnsgd1na2vs0mg"},{"bike_id":"905bb0a9-7faa-4387-9f67-f2d5fc0a02a9","system_id":"levelo_inurba_marseille","lat":43.25495,"lon":5.3765,"is_reserved":false,"is_disabled":true,"rental_uris":{"android":"levelo://app?vid=905bb0a9-7faa-4387-9f67-f2d5fc0a02a9","ios":"levelo://app?vid=905bb0a9-7faa-4387-9f67-f2d5fc0a02a9"},"vehicle_type_id":"4","last_reported":1734797400,"current_range_meters":1200,"station_id":"ce4bhh12rcd13ifvqff0","pricing_plan_id":"cebpf4jnsgd1na2vs0mg"},{"bike_id":"b67e6347-c993-4186-b85c-1f54c9e75564","system_id":"levelo_inurba_marseille","lat":43.27578,"lon":5.38438,"is_reserved":false,"is_disabled":false,"rental_uris":{"android":"levelo://app?vid=b67e6347-c993-4186-b85c-1f54c9e75564","ios":"levelo://app?vid=b67e6347-c993-4186-b85c-1f54c9e75564"},"vehicle_type_id":"4","last_reported":1734797400,"current_range_meters":38400,"station_id":"ce4bhh92rcd13ifvqfi0","pricing_plan_id":"cebpf4jnsgd1na2vs0mg"},{"bike_id":"a5404b43-1f8d-4cf3-a071-fce93c8325c1","system_id":"levelo_inurba_marseille","lat":43.270568,"lon":5.402616,"is_reserved":false,"is_disabled":false,"rental_uris":{"android":"levelo://app?vid=a5404b43-1f8d-4cf3-a071-fce93c8325c1","ios":"levelo://app?vid=a5404b43-1f8d-4cf3-a071-fce93c8325c1"},"vehicle_type_id":"4","last_reported":1734797400,"current_range_meters":26800,"station_id":"ce4bhk92rcd13ifvqgc0","pricing_plan_id":"cebpf4jnsgd1na2vs0mg"},{"bike_id":"d54e75c8-cc92-4f1d-b503-c43dec112389","system_id":"levelo_inurba_marseille","lat":43.2958,"lon":5.37518,"is_reserved":false,"is_disabled":false,"rental_uris":{"android":"levelo://app?vid=d54e75c8-cc92-4f1d-b503-c43dec112389","ios":"levelo://app?vid=d54e75c8-cc92-4f1d-b503-c43dec112389"},"vehicle_type_id":"4","last_reported":1734797400,"current_range_meters":36800,"station_id":"ce4bgh92rcd13ifvqb50","pricing_plan_id":"cebpf4jnsgd1na2vs0mg"},{"bike_id":"44127e4e-8e84-4a38-89f7-8f4efb63f7a5","system_id":"levelo_inurba_marseille","lat":43.31191,"lon":5.36743,"is_reserved":false,"is_disabled":true,"rental_uris":{"android":"levelo://app?vid=44127e4e-8e84-4a38-89f7-8f4efb63f7a5","ios":"levelo://app?vid=44127e4e-8e84-4a38-89f7-8f4efb63f7a5"},"vehicle_type_id":"4","last_reported":1734797400,"current_range_meters":0,"station_id":"","pricing_plan_id":"cebpf4jnsgd1na2vs0mg"},{"bike_id":"1eef5757-2a74-4727-868d-9821df78eaa2","system_id":"levelo_inurba_marseille","lat":43.25877,"lon":5.39911,"is_reserved":false,"is_disabled":false,"rental_uris":{"android":"levelo://app?vid=1eef5757-2a74-4727-868d-9821df78eaa2","ios":"levelo://app?vid=1eef5757-2a74-4727-868d-9821df78eaa2"},"vehicle_type_id":"4","last_reported":1734797400,"current_range_meters":28800,"station_id":"ce4bhl92rcd13ifvqghg","pricing_plan_id":"cebpf4jnsgd1na2vs0mg"},{"bike_id":"375cf45d-3c50-494d-97a1-6aa823a391ba","system_id":"levelo_inurba_marseille","lat":43.27584,"lon":5.38436,"is_reserved":false,"is_disabled":false,"rental_uris":{"android":"levelo://app?vid=375cf45d-3c50-494d-97a1-6aa823a391ba","ios":"levelo://app?vid=375cf45d-3c50-494d-97a1-6aa823a391ba"},"vehicle_type_id":"4","last_reported":1734797400,"current_range_meters":39200,"station_id":"ce4bhh92rcd13ifvqfi0","pricing_plan_id":"cebpf4jnsgd1na2vs0mg"},{"bike_id":"d3eb2e99-5ffc-470a-8d2d-75155bb73252","system_id":"levelo_inurba_marseille","lat":43.29724,"lon":5.37712,"is_reserved":false,"is_disabled":false,"rental_uris":{"android":"levelo://app?vid=d3eb2e99-5ffc-470a-8d2d-75155bb73252","ios":"levelo://app?vid=d3eb2e99-5ffc-470a-8d2d-75155bb73252"},"vehicle_type_id":"4","last_reported":1734797400,"current_range_meters":38800,"station_id":"ce4bgkh2rcd13ifvqbl0","pricing_plan_id":"cebpf4jnsgd1na2vs0mg"},{"bike_id":"204c07ae-7408-4e92-bfa9-a9fa6c612504","system_id":"levelo_inurba_marseille","lat":43.28607,"lon":5.37072,"is_reserved":false,"is_disabled":false,"rental_uris":{"android":"levelo://app?vid=204c07ae-7408-4e92-bfa9-a9fa6c612504","ios":"levelo://app?vid=204c07ae-7408-4e92-bfa9-a9fa6c612504"},"vehicle_type_id":"4","last_reported":1734797400,"current_range_meters":38800,"station_id":"ce4bht12rcd13ifvqi60","pricing_plan_id":"cebpf4jnsgd1na2vs0mg"},{"bike_id":"aa4d7a96-d063-458f-bb0d-30f2dc5ec63b","system_id":"levelo_inurba_marseille","lat":43.28596,"lon":5.37062,"is_reserved":false,"is_disabled":false,"rental_uris":{"android":"levelo://app?vid=aa4d7a96-d063-458f-bb0d-30f2dc5ec63b","ios":"levelo://app?vid=aa4d7a96-d063-458f-bb0d-30f2dc5ec63b"},"vehicle_type_id":"4","last_reported":1734797400,"current_range_meters":32000,"station_id":"ce4bht12rcd13ifvqi60","pricing_plan_id":"cebpf4jnsgd1na2vs0mg"},{"bike_id":"a198e248-41c4-4a27-af7b-34f7a7595000","system_id":"levelo_inurba_marseille","lat":43.29911,"lon":5.37466,"is_reserved":false,"is_disabled":false,"rental_uris":{"android":"levelo://app?vid=a198e248-41c4-4a27-af7b-34f7a7595000","ios":"levelo://app?vid=a198e248-41c4-4a27-af7b-34f7a7595000"},"vehicle_type_id":"4","last_reported":1734797400,"current_range_meters":38800,"station_id":"ce4bgjh2rcd13ifvqbg0","pricing_plan_id":"cebpf4jnsgd1na2vs0mg"},{"bike_id":"dfcbaf7f-5177-41a2-aa19-4f14caa37646","system_id":"levelo_inurba_marseille","lat":43.28606,"lon":5.37066,"is_reserved":false,"is_disabled":false,"rental_uris":{"android":"levelo://app?vid=dfcbaf7f-5177-41a2-aa19-4f14caa37646","ios":"levelo://app?vid=dfcbaf7f-5177-41a2-aa19-4f14caa37646"},"vehicle_type_id":"4","last_reported":1734797400,"current_range_meters":38800,"station_id":"ce4bht12rcd13ifvqi60","pricing_plan_id":"cebpf4jnsgd1na2vs0mg"},{"bike_id":"7ddbcde7-0411-490e-afea-0c0d7796e65f","system_id":"levelo_inurba_marseille","lat":43.29891,"lon":5.43642,"is_reserved":false,"is_disabled":false,"rental_uris":{"android":"levelo://app?vid=7ddbcde7-0411-490e-afea-0c0d7796e65f","ios":"levelo://app?vid=7ddbcde7-0411-490e-afea-0c0d7796e65f"},"vehicle_type_id":"4","last_reported":1734797400,"current_range_meters":38000,"station_id":"ce4bhpp2rcd13ifvqhfg","pricing_plan_id":"cebpf4jnsgd1na2vs0mg"},{"bike_id":"20907fe1-7093-4868-8bd6-d680712c57df","system_id":"levelo_inurba_marseille","lat":43.2962,"lon":5.37709,"is_reserved":false,"is_disabled":false,"rental_uris":{"android":"levelo://app?vid=20907fe1-7093-4868-8bd6-d680712c57df","ios":"levelo://app?vid=20907fe1-7093-4868-8bd6-d680712c57df"},"vehicle_type_id":"4","last_reported":1734797400,"current_range_meters":27600,"station_id":"ce4bgi92rcd13ifvqb90","pricing_plan_id":"cebpf4jnsgd1na2vs0mg"},{"bike_id":"aeeeaffa-6d9e-4fb9-921c-c83091bef608","system_id":"levelo_inurba_marseille","lat":43.30467,"lon":5.37911,"is_reserved":false,"is_disabled":false,"rental_uris":{"android":"levelo://app?vid=aeeeaffa-6d9e-4fb9-921c-c83091bef608","ios":"levelo://app?vid=aeeeaffa-6d9e-4fb9-921c-c83091bef608"},"vehicle_type_id":"4","last_reported":1734797400,"current_range_meters":30000,"station_id":"ce4bgup2rcd13ifvqcn0","pricing_plan_id":"cebpf4jnsgd1na2vs0mg"},{"bike_id":"d77abc9d-2ff7-46b1-95d2-5a87a7d7b6fc","system_id":"levelo_inurba_marseille","lat":43.29614,"lon":5.37718,"is_reserved":false,"is_disabled":false,"rental_uris":{"android":"levelo://app?vid=d77abc9d-2ff7-46b1-95d2-5a87a7d7b6fc","ios":"levelo://app?vid=d77abc9d-2ff7-46b1-95d2-5a87a7d7b6fc"},"vehicle_type_id":"4","last_reported":1734797400,"current_range_meters":37600,"station_id":"ce4bgi92rcd13ifvqb90","pricing_plan_id":"cebpf4jnsgd1na2vs0mg"},{"bike_id":"323ff176-e546-4c21-981e-0aa356db170d","system_id":"levelo_inurba_marseille","lat":43.29796,"lon":5.38095,"is_reserved":false,"is_disabled":false,"rental_uris":{"android":"levelo://app?vid=323ff176-e546-4c21-981e-0aa356db170d","ios":"levelo://app?vid=323ff176-e546-4c21-981e-0aa356db170d"},"vehicle_type_id":"4","last_reported":1734797400,"current_range_meters":26800,"station_id":"ce4bgip2rcd13ifvqbb0","pricing_plan_id":"cebpf4jnsgd1na2vs0mg"},{"bike_id":"9c19774b-1b40-482c-97f4-95cd5e1ebb5a","system_id":"levelo_inurba_marseille","lat":43.30423,"lon":5.38877,"is_reserved":false,"is_disabled":false,"rental_uris":{"android":"levelo://app?vid=9c19774b-1b40-482c-97f4-95cd5e1ebb5a","ios":"levelo://app?vid=9c19774b-1b40-482c-97f4-95cd5e1ebb5a"},"vehicle_type_id":"4","last_reported":1734797400,"current_range_meters":37600,"station_id":"ce4bgk12rcd13ifvqbi0","pricing_plan_id":"cebpf4jnsgd1na2vs0mg"},{"bike_id":"4da56bd0-3ba7-48b4-acaf-7aeb5a9004e9","system_id":"levelo_inurba_marseille","lat":43.29364,"lon":5.37839,"is_reserved":false,"is_disabled":false,"rental_uris":{"android":"levelo://app?vid=4da56bd0-3ba7-48b4-acaf-7aeb5a9004e9","ios":"levelo://app?vid=4da56bd0-3ba7-48b4-acaf-7aeb5a9004e9"},"vehicle_type_id":"4","last_reported":1734797400,"current_range_meters":10800,"station_id":"ce4bgjh2rcd13ifvqbf0","pricing_plan_id":"cebpf4jnsgd1na2vs0mg"},{"bike_id":"79c79299-ed41-491b-87ff-5027334d2d02","system_id":"levelo_inurba_marseille","lat":43.30142,"lon":5.37414,"is_reserved":false,"is_disabled":false,"rental_uris":{"android":"levelo://app?vid=79c79299-ed41-491b-87ff-5027334d2d02","ios":"levelo://app?vid=79c79299-ed41-491b-87ff-5027334d2d02"},"vehicle_type_id":"4","last_reported":1734797400,"current_range_meters":4800,"station_id":"ce4bgs92rcd13ifvqcc0","pricing_plan_id":"cebpf4jnsgd1na2vs0mg"},{"bike_id":"6aff630e-1cf9-4592-8689-1892b997d0e8","system_id":"levelo_inurba_marseille","lat":43.28447,"lon":5.37537,"is_reserved":false,"is_disabled":false,"rental_uris":{"android":"levelo://app?vid=6aff630e-1cf9-4592-8689-1892b997d0e8","ios":"levelo://app?vid=6aff630e-1cf9-4592-8689-1892b997d0e8"},"vehicle_type_id":"4","last_reported":1734797400,"current_range_meters":6800,"station_id":"","pricing_plan_id":"cebpf4jnsgd1na2vs0mg"},{"bike_id":"eeb165cd-0850-4135-b307-a7a2de607d7b","system_id":"levelo_inurba_marseille","lat":43.28616,"lon":5.37059,"is_reserved":false,"is_disabled":false,"rental_uris":{"android":"levelo://app?vid=eeb165cd-0850-4135-b307-a7a2de607d7b","ios":"levelo://app?vid=eeb165cd-0850-4135-b307-a7a2de607d7b"},"vehicle_type_id":"4","last_reported":1734797400,"current_range_meters":38800,"station_id":"ce4bht12rcd13ifvqi60","pricing_plan_id":"cebpf4jnsgd1na2vs0mg"},{"bike_id":"2e401c1b-8b88-4095-96fa-e0b294572623","system_id":"levelo_inurba_marseille","lat":43.32478,"lon":5.36576,"is_reserved":false,"is_disabled":false,"rental_uris":{"android":"levelo://app?vid=2e401c1b-8b88-4095-96fa-e0b294572623","ios":"levelo://app?vid=2e401c1b-8b88-4095-96fa-e0b294572623"},"vehicle_type_id":"4","last_reported":1734797400,"current_range_meters":36400,"station_id":"ce4bhs12rcd13ifvqhvg","pricing_plan_id":"cebpf4jnsgd1na2vs0mg"},{"bike_id":"f30c160f-930d-4fca-bf2c-ca229bf6dff9","system_id":"levelo_inurba_marseille","lat":43.26024,"lon":5.37547,"is_reserved":false,"is_disabled":false,"rental_uris":{"android":"levelo://app?vid=f30c160f-930d-4fca-bf2c-ca229bf6dff9","ios":"levelo://app?vid=f30c160f-930d-4fca-bf2c-ca229bf6dff9"},"vehicle_type_id":"4","last_reported":1734797400,"current_range_meters":28800,"station_id":"ce4bhgh2rcd13ifvqfa0","pricing_plan_id":"cebpf4jnsgd1na2vs0mg"},{"bike_id":"7b2c67d1-64e9-4ee4-958b-aca13d1903fe","system_id":"levelo_inurba_marseille","lat":43.29003,"lon":5.3561,"is_reserved":false,"is_disabled":false,"rental_uris":{"android":"levelo://app?vid=7b2c67d1-64e9-4ee4-958b-aca13d1903fe","ios":"levelo://app?vid=7b2c67d1-64e9-4ee4-958b-aca13d1903fe"},"vehicle_type_id":"4","last_reported":1734797400,"current_range_meters":36800,"station_id":"ce4bhb92rcd13ifvqen0","pricing_plan_id":"cebpf4jnsgd1na2vs0mg"},{"bike_id":"15a99ce9-65a6-4f95-b7ea-21d341c6ff66","system_id":"levelo_inurba_marseille","lat":43.24084,"lon":5.37762,"is_reserved":false,"is_disabled":false,"rental_uris":{"android":"levelo://app?vid=15a99ce9-65a6-4f95-b7ea-21d341c6ff66","ios":"levelo://app?vid=15a99ce9-65a6-4f95-b7ea-21d341c6ff66"},"vehicle_type_id":"4","last_reported":1734797400,"current_range_meters":30400,"station_id":"ce4bhnp2rcd13ifvqgvg","pricing_plan_id":"cebpf4jnsgd1na2vs0mg"},{"bike_id":"8dfc53b9-96fd-47c3-8930-08432e9aa87c","system_id":"levelo_inurba_marseille","lat":43.30144,"lon":5.38083,"is_reserved":false,"is_disabled":false,"rental_uris":{"android":"levelo://app?vid=8dfc53b9-96fd-47c3-8930-08432e9aa87c","ios":"levelo://app?vid=8dfc53b9-96fd-47c3-8930-08432e9aa87c"},"vehicle_type_id":"4","last_reported":1734797400,"current_range_meters":35200,"station_id":"ce4bgjp2rcd13ifvqbh0","pricing_plan_id":"cebpf4jnsgd1na2vs0mg"},{"bike_id":"9f50244a-d38a-491a-9f70-c23a46404b46","system_id":"levelo_inurba_marseille","lat":43.28623,"lon":5.37055,"is_reserved":false,"is_disabled":false,"rental_uris":{"android":"levelo://app?vid=9f50244a-d38a-491a-9f70-c23a46404b46","ios":"levelo://app?vid=9f50244a-d38a-491a-9f70-c23a46404b46"},"vehicle_type_id":"4","last_reported":1734797400,"current_range_meters":38800,"station_id":"ce4bht12rcd13ifvqi60","pricing_plan_id":"cebpf4jnsgd1na2vs0mg"},{"bike_id":"ceb47411-851c-4629-80be-093b3dea2d57","system_id":"levelo_inurba_marseille","lat":43.29597,"lon":5.37495,"is_reserved":false,"is_disabled":false,"rental_uris":{"android":"levelo://app?vid=ceb47411-851c-4629-80be-093b3dea2d57","ios":"levelo://app?vid=ceb47411-851c-4629-80be-093b3dea2d57"},"vehicle_type_id":"4","last_reported":1734797400,"current_range_meters":38800,"station_id":"ce4bgh92rcd13ifvqb50","pricing_plan_id":"cebpf4jnsgd1na2vs0mg"},{"bike_id":"c88c4b0d-8e58-498c-8a16-c07f5bd1c386","system_id":"levelo_inurba_marseille","lat":43.30155,"lon":5.38097,"is_reserved":false,"is_disabled":false,"rental_uris":{"android":"levelo://app?vid=c88c4b0d-8e58-498c-8a16-c07f5bd1c386","ios":"levelo://app?vid=c88c4b0d-8e58-498c-8a16-c07f5bd1c386"},"vehicle_type_id":"4","last_reported":1734797400,"current_range_meters":38400,"station_id":"ce4bgjp2rcd13ifvqbh0","pricing_plan_id":"cebpf4jnsgd1na2vs0mg"},{"bike_id":"5ff9f518-426d-4097-a155-8c85d06bad47","system_id":"levelo_inurba_marseille","lat":43.30889,"lon":5.37181,"is_reserved":false,"is_disabled":false,"rental_uris":{"android":"levelo://app?vid=5ff9f518-426d-4097-a155-8c85d06bad47","ios":"levelo://app?vid=5ff9f518-426d-4097-a155-8c85d06bad47"},"vehicle_type_id":"4","last_reported":1734797400,"current_range_meters":7200,"station_id":"ce4bguh2rcd13ifvqckg","pricing_plan_id":"cebpf4jnsgd1na2vs0mg"},{"bike_id":"90fbf7b3-3e59-4761-9ba2-48103aa75f60","system_id":"levelo_inurba_marseille","lat":43.29859,"lon":5.43689,"is_reserved":false,"is_disabled":false,"rental_uris":{"android":"levelo://app?vid=90fbf7b3-3e59-4761-9ba2-48103aa75f60","ios":"levelo://app?vid=90fbf7b3-3e59-4761-9ba2-48103aa75f60"},"vehicle_type_id":"4","last_reported":1734797400,"current_range_meters":26800,"station_id":"ce4bhpp2rcd13ifvqhfg","pricing_plan_id":"cebpf4jnsgd1na2vs0mg"},{"bike_id":"6bda5f81-4461-449d-a260-822e9ee73f46","system_id":"levelo_inurba_marseille","lat":43.26199,"lon":5.37931,"is_reserved":false,"is_disabled":false,"rental_uris":{"android":"levelo://app?vid=6bda5f81-4461-449d-a260-822e9ee73f46","ios":"levelo://app?vid=6bda5f81-4461-449d-a260-822e9ee73f46"},"vehicle_type_id":"4","last_reported":1734797400,"current_range_meters":36800,"station_id":"ce4bhjp2rcd13ifvqg90","pricing_plan_id":"cebpf4jnsgd1na2vs0mg"},{"bike_id":"227b8709-a253-45c2-b4c3-fa7ef48a7c09","system_id":"levelo_inurba_marseille","lat":43.26938,"lon":5.38629,"is_reserved":false,"is_disabled":false,"rental_uris":{"android":"levelo://app?vid=227b8709-a253-45c2-b4c3-fa7ef48a7c09","ios":"levelo://app?vid=227b8709-a253-45c2-b4c3-fa7ef48a7c09"},"vehicle_type_id":"4","last_reported":1734797400,"current_range_meters":32400,"station_id":"ce4bhh92rcd13ifvqfh0","pricing_plan_id":"cebpf4jnsgd1na2vs0mg"},{"bike_id":"e17b25fe-e3c6-4e59-9b0b-a4b966b90796","system_id":"levelo_inurba_marseille","lat":43.28481,"lon":5.38558,"is_reserved":false,"is_disabled":false,"rental_uris":{"android":"levelo://app?vid=e17b25fe-e3c6-4e59-9b0b-a4b966b90796","ios":"levelo://app?vid=e17b25fe-e3c6-4e59-9b0b-a4b966b90796"},"vehicle_type_id":"4","last_reported":1734797400,"current_range_meters":24000,"station_id":"ce4bh8p2rcd13ifvqeb0","pricing_plan_id":"cebpf4jnsgd1na2vs0mg"},{"bike_id":"eb7f14b0-544a-46b7-9456-becb500e6ffa","system_id":"levelo_inurba_marseille","lat":43.288547,"lon":5.393147,"is_reserved":false,"is_disabled":false,"rental_uris":{"android":"levelo://app?vid=eb7f14b0-544a-46b7-9456-becb500e6ffa","ios":"levelo://app?vid=eb7f14b0-544a-46b7-9456-becb500e6ffa"},"vehicle_type_id":"4","last_reported":1734797400,"current_range_meters":39200,"station_id":"ce4bh2p2rcd13ifvqdi0","pricing_plan_id":"cebpf4jnsgd1na2vs0mg"},{"bike_id":"aafe370d-ad23-470f-934a-529077a7529e","system_id":"levelo_inurba_marseille","lat":43.28688,"lon":5.38671,"is_reserved":false,"is_disabled":false,"rental_uris":{"android":"levelo://app?vid=aafe370d-ad23-470f-934a-529077a7529e","ios":"levelo://app?vid=aafe370d-ad23-470f-934a-529077a7529e"},"vehicle_type_id":"4","last_reported":1734797400,"current_range_meters":32000,"station_id":"ce4bh492rcd13ifvqdug","pricing_plan_id":"cebpf4jnsgd1na2vs0mg"},{"bike_id":"fd785b07-2362-4223-ac19-c71a1481c377","system_id":"levelo_inurba_marseille","lat":43.25511,"lon":5.37634,"is_reserved":false,"is_disabled":false,"rental_uris":{"android":"levelo://app?vid=fd785b07-2362-4223-ac19-c71a1481c377","ios":"levelo://app?vid=fd785b07-2362-4223-ac19-c71a1481c377"},"vehicle_type_id":"4","last_reported":1734797400,"current_range_meters":36000,"station_id":"ce4bhh12rcd13ifvqff0","pricing_plan_id":"cebpf4jnsgd1na2vs0mg"},{"bike_id":"84b8ced3-a61f-4894-b8bc-8b55d27a8adc","system_id":"levelo_inurba_marseille","lat":43.2958,"lon":5.37519,"is_reserved":false,"is_disabled":false,"rental_uris":{"android":"levelo://app?vid=84b8ced3-a61f-4894-b8bc-8b55d27a8adc","ios":"levelo://app?vid=84b8ced3-a61f-4894-b8bc-8b55d27a8adc"},"vehicle_type_id":"4","last_reported":1734797400,"current_range_meters":37600,"station_id":"ce4bgh92rcd13ifvqb50","pricing_plan_id":"cebpf4jnsgd1na2vs0mg"},{"bike_id":"dabdb816-8280-4165-8f88-ae205fe0accb","system_id":"levelo_inurba_marseille","lat":43.23964,"lon":5.36639,"is_reserved":false,"is_disabled":false,"rental_uris":{"android":"levelo://app?vid=dabdb816-8280-4165-8f88-ae205fe0accb","ios":"levelo://app?vid=dabdb816-8280-4165-8f88-ae205fe0accb"},"vehicle_type_id":"4","last_reported":1734797400,"current_range_meters":36000,"station_id":"ce4bhi12rcd13ifvqfp0","pricing_plan_id":"cebpf4jnsgd1na2vs0mg"},{"bike_id":"c57fe219-f927-4b6c-bd51-02254c9e712d","system_id":"levelo_inurba_marseille","lat":43.30434,"lon":5.39744,"is_reserved":false,"is_disabled":false,"rental_uris":{"android":"levelo://app?vid=c57fe219-f927-4b6c-bd51-02254c9e712d","ios":"levelo://app?vid=c57fe219-f927-4b6c-bd51-02254c9e712d"},"vehicle_type_id":"4","last_reported":1734797400,"current_range_meters":33200,"station_id":"ce4bh092rcd13ifvqd20","pricing_plan_id":"cebpf4jnsgd1na2vs0mg"},{"bike_id":"62c4bf08-2663-4d5f-b5a0-40453d217c52","system_id":"levelo_inurba_marseille","lat":43.26201,"lon":5.37924,"is_reserved":false,"is_disabled":false,"rental_uris":{"android":"levelo://app?vid=62c4bf08-2663-4d5f-b5a0-40453d217c52","ios":"levelo://app?vid=62c4bf08-2663-4d5f-b5a0-40453d217c52"},"vehicle_type_id":"4","last_reported":1734797400,"current_range_meters":36400,"station_id":"ce4bhjp2rcd13ifvqg90","pricing_plan_id":"cebpf4jnsgd1na2vs0mg"},{"bike_id":"66570a8e-b5be-4659-a8b6-2eeef56cd841","system_id":"levelo_inurba_marseille","lat":43.29904,"lon":5.38139,"is_reserved":false,"is_disabled":false,"rental_uris":{"android":"levelo://app?vid=66570a8e-b5be-4659-a8b6-2eeef56cd841","ios":"levelo://app?vid=66570a8e-b5be-4659-a8b6-2eeef56cd841"},"vehicle_type_id":"4","last_reported":1734797400,"current_range_meters":27600,"station_id":"ce4bgj12rcd13ifvqbc0","pricing_plan_id":"cebpf4jnsgd1na2vs0mg"},{"bike_id":"80951b7a-4911-4d5d-99f2-72f0fbcc1b14","system_id":"levelo_inurba_marseille","lat":43.27314,"lon":5.3908,"is_reserved":false,"is_disabled":false,"rental_uris":{"android":"levelo://app?vid=80951b7a-4911-4d5d-99f2-72f0fbcc1b14","ios":"levelo://app?vid=80951b7a-4911-4d5d-99f2-72f0fbcc1b14"},"vehicle_type_id":"4","last_reported":1734797400,"current_range_meters":38000,"station_id":"ce4bhgp2rcd13ifvqfe0","pricing_plan_id":"cebpf4jnsgd1na2vs0mg"},{"bike_id":"3925acd2-cfea-40c1-8720-f10ecdc790a9","system_id":"levelo_inurba_marseille","lat":43.30433,"lon":5.38894,"is_reserved":false,"is_disabled":false,"rental_uris":{"android":"levelo://app?vid=3925acd2-cfea-40c1-8720-f10ecdc790a9","ios":"levelo://app?vid=3925acd2-cfea-40c1-8720-f10ecdc790a9"},"vehicle_type_id":"4","last_reported":1734797400,"current_range_meters":30000,"station_id":"ce4bgk12rcd13ifvqbi0","pricing_plan_id":"cebpf4jnsgd1na2vs0mg"},{"bike_id":"fc4ff347-ef4d-4a4d-ae09-babf618fedb6","system_id":"levelo_inurba_marseille","lat":43.24168,"lon":5.364,"is_reserved":false,"is_disabled":false,"rental_uris":{"android":"levelo://app?vid=fc4ff347-ef4d-4a4d-ae09-babf618fedb6","ios":"levelo://app?vid=fc4ff347-ef4d-4a4d-ae09-babf618fedb6"},"vehicle_type_id":"4","last_reported":1734797400,"current_range_meters":34800,"station_id":"cpo36qri1sfpv3e86is0","pricing_plan_id":"cebpf4jnsgd1na2vs0mg"},{"bike_id":"d9c2bdbf-8682-4d45-94a4-cb9c5e742aef","system_id":"levelo_inurba_marseille","lat":43.30093,"lon":5.3908,"is_reserved":false,"is_disabled":false,"rental_uris":{"android":"levelo://app?vid=d9c2bdbf-8682-4d45-94a4-cb9c5e742aef","ios":"levelo://app?vid=d9c2bdbf-8682-4d45-94a4-cb9c5e742aef"},"vehicle_type_id":"4","last_reported":1734797400,"current_range_meters":36000,"station_id":"ce4bh192rcd13ifvqdb0","pricing_plan_id":"cebpf4jnsgd1na2vs0mg"},{"bike_id":"82b62048-11e5-4d15-8bae-99066c9a926c","system_id":"levelo_inurba_marseille","lat":43.29038,"lon":5.37563,"is_reserved":false,"is_disabled":false,"rental_uris":{"android":"levelo://app?vid=82b62048-11e5-4d15-8bae-99066c9a926c","ios":"levelo://app?vid=82b62048-11e5-4d15-8bae-99066c9a926c"},"vehicle_type_id":"4","last_reported":1734797400,"current_range_meters":20400,"station_id":"ce4bh692rcd13ifvqe90","pricing_plan_id":"cebpf4jnsgd1na2vs0mg"},{"bike_id":"9d4d4031-1d14-4091-a986-fdf236b2b559","system_id":"levelo_inurba_marseille","lat":43.30806,"lon":5.38156,"is_reserved":false,"is_disabled":false,"rental_uris":{"android":"levelo://app?vid=9d4d4031-1d14-4091-a986-fdf236b2b559","ios":"levelo://app?vid=9d4d4031-1d14-4091-a986-fdf236b2b559"},"vehicle_type_id":"4","last_reported":1734797400,"current_range_meters":28400,"station_id":"ce4bgt12rcd13ifvqce0","pricing_plan_id":"cebpf4jnsgd1na2vs0mg"},{"bike_id":"cbf1ec11-8d33-4f4b-86f9-f0323ee50e1a","system_id":"levelo_inurba_marseille","lat":43.2396,"lon":5.36634,"is_reserved":false,"is_disabled":false,"rental_uris":{"android":"levelo://app?vid=cbf1ec11-8d33-4f4b-86f9-f0323ee50e1a","ios":"levelo://app?vid=cbf1ec11-8d33-4f4b-86f9-f0323ee50e1a"},"vehicle_type_id":"4","last_reported":1734797400,"current_range_meters":22000,"station_id":"ce4bhi12rcd13ifvqfp0","pricing_plan_id":"cebpf4jnsgd1na2vs0mg"},{"bike_id":"356a12a5-8356-414f-8714-5e0af1d15897","system_id":"levelo_inurba_marseille","lat":43.26758,"lon":5.39495,"is_reserved":false,"is_disabled":false,"rental_uris":{"android":"levelo://app?vid=356a12a5-8356-414f-8714-5e0af1d15897","ios":"levelo://app?vid=356a12a5-8356-414f-8714-5e0af1d15897"},"vehicle_type_id":"4","last_reported":1734797400,"current_range_meters":38000,"station_id":"","pricing_plan_id":"cebpf4jnsgd1na2vs0mg"},{"bike_id":"183b5972-72fe-43ac-931f-7a92916ecc83","system_id":"levelo_inurba_marseille","lat":43.29277,"lon":5.36839,"is_reserved":false,"is_disabled":false,"rental_uris":{"android":"levelo://app?vid=183b5972-72fe-43ac-931f-7a92916ecc83","ios":"levelo://app?vid=183b5972-72fe-43ac-931f-7a92916ecc83"},"vehicle_type_id":"4","last_reported":1734797400,"current_range_meters":20400,"station_id":"ce4bhbp2rcd13ifvqesg","pricing_plan_id":"cebpf4jnsgd1na2vs0mg"},{"bike_id":"1b0e9d34-71b5-4d2a-8c59-b2701c6566e6","system_id":"levelo_inurba_marseille","lat":43.2551,"lon":5.37644,"is_reserved":false,"is_disabled":false,"rental_uris":{"android":"levelo://app?vid=1b0e9d34-71b5-4d2a-8c59-b2701c6566e6","ios":"levelo://app?vid=1b0e9d34-71b5-4d2a-8c59-b2701c6566e6"},"vehicle_type_id":"4","last_reported":1734797400,"current_range_meters":39200,"station_id":"ce4bhh12rcd13ifvqff0","pricing_plan_id":"cebpf4jnsgd1na2vs0mg"},{"bike_id":"925a18fc-4a82-4f01-8078-fc82223c6dd3","system_id":"levelo_inurba_marseille","lat":43.27431,"lon":5.39408,"is_reserved":false,"is_disabled":false,"rental_uris":{"android":"levelo://app?vid=925a18fc-4a82-4f01-8078-fc82223c6dd3","ios":"levelo://app?vid=925a18fc-4a82-4f01-8078-fc82223c6dd3"},"vehicle_type_id":"4","last_reported":1734797400,"current_range_meters":38800,"station_id":"ce4bhdp2rcd13ifvqf20","pricing_plan_id":"cebpf4jnsgd1na2vs0mg"},{"bike_id":"1fcb3933-9939-4e22-8941-9704edb4c50a","system_id":"levelo_inurba_marseille","lat":43.24078,"lon":5.37766,"is_reserved":false,"is_disabled":false,"rental_uris":{"android":"levelo://app?vid=1fcb3933-9939-4e22-8941-9704edb4c50a","ios":"levelo://app?vid=1fcb3933-9939-4e22-8941-9704edb4c50a"},"vehicle_type_id":"4","last_reported":1734797400,"current_range_meters":32400,"station_id":"ce4bhnp2rcd13ifvqgvg","pricing_plan_id":"cebpf4jnsgd1na2vs0mg"},{"bike_id":"877fe626-a76a-4adb-b522-e8da1970693a","system_id":"levelo_inurba_marseille","lat":43.29592,"lon":5.38086,"is_reserved":false,"is_disabled":false,"rental_uris":{"android":"levelo://app?vid=877fe626-a76a-4adb-b522-e8da1970693a","ios":"levelo://app?vid=877fe626-a76a-4adb-b522-e8da1970693a"},"vehicle_type_id":"4","last_reported":1734797400,"current_range_meters":24400,"station_id":"ce4bgl12rcd13ifvqbo0","pricing_plan_id":"cebpf4jnsgd1na2vs0mg"},{"bike_id":"9c7bb0a5-a6e2-455f-9f13-18ace2a719d9","system_id":"levelo_inurba_marseille","lat":43.28271,"lon":5.35076,"is_reserved":false,"is_disabled":false,"rental_uris":{"android":"levelo://app?vid=9c7bb0a5-a6e2-455f-9f13-18ace2a719d9","ios":"levelo://app?vid=9c7bb0a5-a6e2-455f-9f13-18ace2a719d9"},"vehicle_type_id":"4","last_reported":1734797400,"current_range_meters":12800,"station_id":"ce4bhbp2rcd13ifvqerg","pricing_plan_id":"cebpf4jnsgd1na2vs0mg"},{"bike_id":"4b8c582e-dff9-46ff-b809-455977f69593","system_id":"levelo_inurba_marseille","lat":43.291931,"lon":5.358063,"is_reserved":false,"is_disabled":false,"rental_uris":{"android":"levelo://app?vid=4b8c582e-dff9-46ff-b809-455977f69593","ios":"levelo://app?vid=4b8c582e-dff9-46ff-b809-455977f69593"},"vehicle_type_id":"4","last_reported":1734797400,"current_range_meters":17200,"station_id":"ce4bhb12rcd13ifvqel0","pricing_plan_id":"cebpf4jnsgd1na2vs0mg"},{"bike_id":"13b6874a-4246-452d-9d94-be507bd8127c","system_id":"levelo_inurba_marseille","lat":43.27622,"lon":5.36102,"is_reserved":false,"is_disabled":false,"rental_uris":{"android":"levelo://app?vid=13b6874a-4246-452d-9d94-be507bd8127c","ios":"levelo://app?vid=13b6874a-4246-452d-9d94-be507bd8127c"},"vehicle_type_id":"4","last_reported":1734797400,"current_range_meters":6000,"station_id":"ce4bgj92rcd13ifvqbe0","pricing_plan_id":"cebpf4jnsgd1na2vs0mg"},{"bike_id":"d57342bb-ad62-4ffa-b3a0-6cf5333809e3","system_id":"levelo_inurba_marseille","lat":43.30894,"lon":5.37187,"is_reserved":false,"is_disabled":false,"rental_uris":{"android":"levelo://app?vid=d57342bb-ad62-4ffa-b3a0-6cf5333809e3","ios":"levelo://app?vid=d57342bb-ad62-4ffa-b3a0-6cf5333809e3"},"vehicle_type_id":"4","last_reported":1734797400,"current_range_meters":6400,"station_id":"ce4bguh2rcd13ifvqckg","pricing_plan_id":"cebpf4jnsgd1na2vs0mg"},{"bike_id":"0cae4290-e1a4-433a-9d22-f2356974f82a","system_id":"levelo_inurba_marseille","lat":43.27618,"lon":5.36105,"is_reserved":false,"is_disabled":false,"rental_uris":{"android":"levelo://app?vid=0cae4290-e1a4-433a-9d22-f2356974f82a","ios":"levelo://app?vid=0cae4290-e1a4-433a-9d22-f2356974f82a"},"vehicle_type_id":"4","last_reported":1734797400,"current_range_meters":16400,"station_id":"ce4bgj92rcd13ifvqbe0","pricing_plan_id":"cebpf4jnsgd1na2vs0mg"},{"bike_id":"f4c22a32-c38f-4f79-8ee9-f515cd4ae5d1","system_id":"levelo_inurba_marseille","lat":43.29527,"lon":5.39391,"is_reserved":false,"is_disabled":false,"rental_uris":{"android":"levelo://app?vid=f4c22a32-c38f-4f79-8ee9-f515cd4ae5d1","ios":"levelo://app?vid=f4c22a32-c38f-4f79-8ee9-f515cd4ae5d1"},"vehicle_type_id":"4","last_reported":1734797400,"current_range_meters":16800,"station_id":"ce4bh292rcd13ifvqdf0","pricing_plan_id":"cebpf4jnsgd1na2vs0mg"},{"bike_id":"f0c17b2b-7167-453f-b923-a52459f341ff","system_id":"levelo_inurba_marseille","lat":43.29005,"lon":5.35612,"is_reserved":false,"is_disabled":false,"rental_uris":{"android":"levelo://app?vid=f0c17b2b-7167-453f-b923-a52459f341ff","ios":"levelo://app?vid=f0c17b2b-7167-453f-b923-a52459f341ff"},"vehicle_type_id":"4","last_reported":1734797400,"current_range_meters":8400,"station_id":"ce4bhb92rcd13ifvqen0","pricing_plan_id":"cebpf4jnsgd1na2vs0mg"},{"bike_id":"699b3aac-7d61-4212-94b6-fb31ad4882ec","system_id":"levelo_inurba_marseille","lat":43.29971,"lon":5.3718,"is_reserved":false,"is_disabled":false,"rental_uris":{"android":"levelo://app?vid=699b3aac-7d61-4212-94b6-fb31ad4882ec","ios":"levelo://app?vid=699b3aac-7d61-4212-94b6-fb31ad4882ec"},"vehicle_type_id":"4","last_reported":1734797400,"current_range_meters":22400,"station_id":"ce4bgr92rcd13ifvqc7g","pricing_plan_id":"cebpf4jnsgd1na2vs0mg"},{"bike_id":"93431190-8bab-4ebd-a1fb-798f70e0f9fb","system_id":"levelo_inurba_marseille","lat":43.24065,"lon":5.37726,"is_reserved":false,"is_disabled":false,"rental_uris":{"android":"levelo://app?vid=93431190-8bab-4ebd-a1fb-798f70e0f9fb","ios":"levelo://app?vid=93431190-8bab-4ebd-a1fb-798f70e0f9fb"},"vehicle_type_id":"4","last_reported":1734797400,"current_range_meters":20400,"station_id":"ce4bhnp2rcd13ifvqgvg","pricing_plan_id":"cebpf4jnsgd1na2vs0mg"},{"bike_id":"335cfab2-7e48-4c5a-80ae-5166792cd261","system_id":"levelo_inurba_marseille","lat":43.296271,"lon":5.381079,"is_reserved":false,"is_disabled":false,"rental_uris":{"android":"levelo://app?vid=335cfab2-7e48-4c5a-80ae-5166792cd261","ios":"levelo://app?vid=335cfab2-7e48-4c5a-80ae-5166792cd261"},"vehicle_type_id":"4","last_reported":1734797400,"current_range_meters":38800,"station_id":"ce4bgl12rcd13ifvqbo0","pricing_plan_id":"cebpf4jnsgd1na2vs0mg"},{"bike_id":"f40e7c61-8a43-4da7-a842-fa391ba2fc6e","system_id":"levelo_inurba_marseille","lat":43.26044,"lon":5.37543,"is_reserved":false,"is_disabled":false,"rental_uris":{"android":"levelo://app?vid=f40e7c61-8a43-4da7-a842-fa391ba2fc6e","ios":"levelo://app?vid=f40e7c61-8a43-4da7-a842-fa391ba2fc6e"},"vehicle_type_id":"4","last_reported":1734797400,"current_range_meters":38400,"station_id":"ce4bhgh2rcd13ifvqfa0","pricing_plan_id":"cebpf4jnsgd1na2vs0mg"},{"bike_id":"fb652812-58bd-4248-a95f-4493d48aaffe","system_id":"levelo_inurba_marseille","lat":43.31334,"lon":5.39694,"is_reserved":false,"is_disabled":false,"rental_uris":{"android":"levelo://app?vid=fb652812-58bd-4248-a95f-4493d48aaffe","ios":"levelo://app?vid=fb652812-58bd-4248-a95f-4493d48aaffe"},"vehicle_type_id":"4","last_reported":1734797400,"current_range_meters":39200,"station_id":"ce4bgvp2rcd13ifvqcu0","pricing_plan_id":"cebpf4jnsgd1na2vs0mg"},{"bike_id":"f0bcbb45-555d-4c5b-8534-084b0fafc4e9","system_id":"levelo_inurba_marseille","lat":43.29171,"lon":5.37144,"is_reserved":false,"is_disabled":true,"rental_uris":{"android":"levelo://app?vid=f0bcbb45-555d-4c5b-8534-084b0fafc4e9","ios":"levelo://app?vid=f0bcbb45-555d-4c5b-8534-084b0fafc4e9"},"vehicle_type_id":"4","last_reported":1734797400,"current_range_meters":38800,"station_id":"ce4bha92rcd13ifvqeh0","pricing_plan_id":"cebpf4jnsgd1na2vs0mg"},{"bike_id":"43c6f33f-0226-46c7-9937-aa907f170f2e","system_id":"levelo_inurba_marseille","lat":43.24803,"lon":5.37456,"is_reserved":false,"is_disabled":false,"rental_uris":{"android":"levelo://app?vid=43c6f33f-0226-46c7-9937-aa907f170f2e","ios":"levelo://app?vid=43c6f33f-0226-46c7-9937-aa907f170f2e"},"vehicle_type_id":"4","last_reported":1734797400,"current_range_meters":30400,"station_id":"ce4bhgh2rcd13ifvqfb0","pricing_plan_id":"cebpf4jnsgd1na2vs0mg"},{"bike_id":"b002d028-e42c-46e2-93ce-a18a7a90546e","system_id":"levelo_inurba_marseille","lat":43.32288,"lon":5.382806,"is_reserved":false,"is_disabled":false,"rental_uris":{"android":"levelo://app?vid=b002d028-e42c-46e2-93ce-a18a7a90546e","ios":"levelo://app?vid=b002d028-e42c-46e2-93ce-a18a7a90546e"},"vehicle_type_id":"4","last_reported":1734797400,"current_range_meters":23200,"station_id":"ce4bhr12rcd13ifvqhqg","pricing_plan_id":"cebpf4jnsgd1na2vs0mg"},{"bike_id":"c8b164fe-00ef-4c79-8cf6-5f917f0e3ac2","system_id":"levelo_inurba_marseille","lat":43.29703,"lon":5.37701,"is_reserved":false,"is_disabled":false,"rental_uris":{"android":"levelo://app?vid=c8b164fe-00ef-4c79-8cf6-5f917f0e3ac2","ios":"levelo://app?vid=c8b164fe-00ef-4c79-8cf6-5f917f0e3ac2"},"vehicle_type_id":"4","last_reported":1734797400,"current_range_meters":20000,"station_id":"ce4bgkh2rcd13ifvqbl0","pricing_plan_id":"cebpf4jnsgd1na2vs0mg"},{"bike_id":"725f2ba4-42ee-480b-a31f-097189b1c2cf","system_id":"levelo_inurba_marseille","lat":43.29198,"lon":5.35795,"is_reserved":false,"is_disabled":true,"rental_uris":{"android":"levelo://app?vid=725f2ba4-42ee-480b-a31f-097189b1c2cf","ios":"levelo://app?vid=725f2ba4-42ee-480b-a31f-097189b1c2cf"},"vehicle_type_id":"4","last_reported":1734797400,"current_range_meters":38800,"station_id":"ce4bhb12rcd13ifvqel0","pricing_plan_id":"cebpf4jnsgd1na2vs0mg"},{"bike_id":"47383cce-0250-4c77-bd30-435193ad9962","system_id":"levelo_inurba_marseille","lat":43.28429,"lon":5.34966,"is_reserved":false,"is_disabled":false,"rental_uris":{"android":"levelo://app?vid=47383cce-0250-4c77-bd30-435193ad9962","ios":"levelo://app?vid=47383cce-0250-4c77-bd30-435193ad9962"},"vehicle_type_id":"4","last_reported":1734797400,"current_range_meters":28400,"station_id":"ce4bhbh2rcd13ifvqepg","pricing_plan_id":"cebpf4jnsgd1na2vs0mg"},{"bike_id":"10cd846c-f649-4648-8a04-d4f28b9b66b6","system_id":"levelo_inurba_marseille","lat":43.29003,"lon":5.3561,"is_reserved":false,"is_disabled":false,"rental_uris":{"android":"levelo://app?vid=10cd846c-f649-4648-8a04-d4f28b9b66b6","ios":"levelo://app?vid=10cd846c-f649-4648-8a04-d4f28b9b66b6"},"vehicle_type_id":"4","last_reported":1734797400,"current_range_meters":32000,"station_id":"ce4bhb92rcd13ifvqen0","pricing_plan_id":"cebpf4jnsgd1na2vs0mg"},{"bike_id":"62548844-b593-4916-89a2-807ec4fa3301","system_id":"levelo_inurba_marseille","lat":43.30134,"lon":5.39856,"is_reserved":false,"is_disabled":false,"rental_uris":{"android":"levelo://app?vid=62548844-b593-4916-89a2-807ec4fa3301","ios":"levelo://app?vid=62548844-b593-4916-89a2-807ec4fa3301"},"vehicle_type_id":"4","last_reported":1734797400,"current_range_meters":28800,"station_id":"ce4bh0h2rcd13ifvqd40","pricing_plan_id":"cebpf4jnsgd1na2vs0mg"},{"bike_id":"63481ed8-ff36-4b08-8683-770544d108f3","system_id":"levelo_inurba_marseille","lat":43.29025,"lon":5.38127,"is_reserved":false,"is_disabled":false,"rental_uris":{"android":"levelo://app?vid=63481ed8-ff36-4b08-8683-770544d108f3","ios":"levelo://app?vid=63481ed8-ff36-4b08-8683-770544d108f3"},"vehicle_type_id":"4","last_reported":1734797400,"current_range_meters":8000,"station_id":"ce4bh4p2rcd13ifvqe1g","pricing_plan_id":"cebpf4jnsgd1na2vs0mg"},{"bike_id":"4094ac40-fe97-4483-91f4-bc4b6a97b4f3","system_id":"levelo_inurba_marseille","lat":43.25827,"lon":5.39424,"is_reserved":false,"is_disabled":false,"rental_uris":{"android":"levelo://app?vid=4094ac40-fe97-4483-91f4-bc4b6a97b4f3","ios":"levelo://app?vid=4094ac40-fe97-4483-91f4-bc4b6a97b4f3"},"vehicle_type_id":"4","last_reported":1734797400,"current_range_meters":6000,"station_id":"ce4bhip2rcd13ifvqft0","pricing_plan_id":"cebpf4jnsgd1na2vs0mg"},{"bike_id":"2e98860a-71ec-416a-982a-c4931cd8fed6","system_id":"levelo_inurba_marseille","lat":43.25815,"lon":5.39428,"is_reserved":false,"is_disabled":false,"rental_uris":{"android":"levelo://app?vid=2e98860a-71ec-416a-982a-c4931cd8fed6","ios":"levelo://app?vid=2e98860a-71ec-416a-982a-c4931cd8fed6"},"vehicle_type_id":"4","last_reported":1734797400,"current_range_meters":19600,"station_id":"ce4bhip2rcd13ifvqft0","pricing_plan_id":"cebpf4jnsgd1na2vs0mg"},{"bike_id":"f953c87c-4ea7-4e78-9490-68e955a0946d","system_id":"levelo_inurba_marseille","lat":43.2549,"lon":5.37647,"is_reserved":false,"is_disabled":true,"rental_uris":{"android":"levelo://app?vid=f953c87c-4ea7-4e78-9490-68e955a0946d","ios":"levelo://app?vid=f953c87c-4ea7-4e78-9490-68e955a0946d"},"vehicle_type_id":"4","last_reported":1734797400,"current_range_meters":22400,"station_id":"ce4bhh12rcd13ifvqff0","pricing_plan_id":"cebpf4jnsgd1na2vs0mg"},{"bike_id":"390e16d7-5b06-464c-925d-b30feaacf01b","system_id":"levelo_inurba_marseille","lat":43.30632,"lon":5.36683,"is_reserved":false,"is_disabled":false,"rental_uris":{"android":"levelo://app?vid=390e16d7-5b06-464c-925d-b30feaacf01b","ios":"levelo://app?vid=390e16d7-5b06-464c-925d-b30feaacf01b"},"vehicle_type_id":"4","last_reported":1734797400,"current_range_meters":19600,"station_id":"","pricing_plan_id":"cebpf4jnsgd1na2vs0mg"},{"bike_id":"3c4e9118-0254-459f-8c0e-ed00e8e59412","system_id":"levelo_inurba_marseille","lat":43.26685,"lon":5.38261,"is_reserved":false,"is_disabled":false,"rental_uris":{"android":"levelo://app?vid=3c4e9118-0254-459f-8c0e-ed00e8e59412","ios":"levelo://app?vid=3c4e9118-0254-459f-8c0e-ed00e8e59412"},"vehicle_type_id":"4","last_reported":1734797400,"current_range_meters":30000,"station_id":"ce4bhg92rcd13ifvqf90","pricing_plan_id":"cebpf4jnsgd1na2vs0mg"},{"bike_id":"15841f2b-24e0-444a-8836-37ac820dbabd","system_id":"levelo_inurba_marseille","lat":43.31478,"lon":5.37302,"is_reserved":false,"is_disabled":false,"rental_uris":{"android":"levelo://app?vid=15841f2b-24e0-444a-8836-37ac820dbabd","ios":"levelo://app?vid=15841f2b-24e0-444a-8836-37ac820dbabd"},"vehicle_type_id":"4","last_reported":1734797400,"current_range_meters":22800,"station_id":"ce4bgt12rcd13ifvqcd0","pricing_plan_id":"cebpf4jnsgd1na2vs0mg"},{"bike_id":"b73b3cc8-26fa-4032-8e99-f74b6ff40c2a","system_id":"levelo_inurba_marseille","lat":43.2701,"lon":5.40213,"is_reserved":false,"is_disabled":false,"rental_uris":{"android":"levelo://app?vid=b73b3cc8-26fa-4032-8e99-f74b6ff40c2a","ios":"levelo://app?vid=b73b3cc8-26fa-4032-8e99-f74b6ff40c2a"},"vehicle_type_id":"4","last_reported":1734797400,"current_range_meters":19600,"station_id":"","pricing_plan_id":"cebpf4jnsgd1na2vs0mg"},{"bike_id":"0fa4fd6a-c920-470e-9628-342bc95af557","system_id":"levelo_inurba_marseille","lat":43.24679,"lon":5.38152,"is_reserved":false,"is_disabled":false,"rental_uris":{"android":"levelo://app?vid=0fa4fd6a-c920-470e-9628-342bc95af557","ios":"levelo://app?vid=0fa4fd6a-c920-470e-9628-342bc95af557"},"vehicle_type_id":"4","last_reported":1734797400,"current_range_meters":36800,"station_id":"ce4bhih2rcd13ifvqfr0","pricing_plan_id":"cebpf4jnsgd1na2vs0mg"},{"bike_id":"32ebf098-e002-4aa6-88f7-5b365ee05e11","system_id":"levelo_inurba_marseille","lat":43.24082,"lon":5.37734,"is_reserved":false,"is_disabled":true,"rental_uris":{"android":"levelo://app?vid=32ebf098-e002-4aa6-88f7-5b365ee05e11","ios":"levelo://app?vid=32ebf098-e002-4aa6-88f7-5b365ee05e11"},"vehicle_type_id":"4","last_reported":1734797400,"current_range_meters":1200,"station_id":"ce4bhnp2rcd13ifvqgvg","pricing_plan_id":"cebpf4jnsgd1na2vs0mg"},{"bike_id":"4b7afde9-10fb-4c99-9992-7cd53645a008","system_id":"levelo_inurba_marseille","lat":43.29612,"lon":5.3771,"is_reserved":false,"is_disabled":false,"rental_uris":{"android":"levelo://app?vid=4b7afde9-10fb-4c99-9992-7cd53645a008","ios":"levelo://app?vid=4b7afde9-10fb-4c99-9992-7cd53645a008"},"vehicle_type_id":"4","last_reported":1734797400,"current_range_meters":38400,"station_id":"ce4bgi92rcd13ifvqb90","pricing_plan_id":"cebpf4jnsgd1na2vs0mg"},{"bike_id":"d0459723-7015-4b1a-97a7-9f2e8ea678f3","system_id":"levelo_inurba_marseille","lat":43.28488,"lon":5.38544,"is_reserved":false,"is_disabled":false,"rental_uris":{"android":"levelo://app?vid=d0459723-7015-4b1a-97a7-9f2e8ea678f3","ios":"levelo://app?vid=d0459723-7015-4b1a-97a7-9f2e8ea678f3"},"vehicle_type_id":"4","last_reported":1734797400,"current_range_meters":25200,"station_id":"ce4bh8p2rcd13ifvqeb0","pricing_plan_id":"cebpf4jnsgd1na2vs0mg"},{"bike_id":"1d545ad3-59ad-4a31-b3d2-4dd0d698b999","system_id":"levelo_inurba_marseille","lat":43.29566,"lon":5.37521,"is_reserved":false,"is_disabled":false,"rental_uris":{"android":"levelo://app?vid=1d545ad3-59ad-4a31-b3d2-4dd0d698b999","ios":"levelo://app?vid=1d545ad3-59ad-4a31-b3d2-4dd0d698b999"},"vehicle_type_id":"4","last_reported":1734797400,"current_range_meters":38800,"station_id":"ce4bgh92rcd13ifvqb50","pricing_plan_id":"cebpf4jnsgd1na2vs0mg"},{"bike_id":"f699f5c3-f77f-4892-b328-ccf456afa874","system_id":"levelo_inurba_marseille","lat":43.22933,"lon":5.35378,"is_reserved":false,"is_disabled":false,"rental_uris":{"android":"levelo://app?vid=f699f5c3-f77f-4892-b328-ccf456afa874","ios":"levelo://app?vid=f699f5c3-f77f-4892-b328-ccf456afa874"},"vehicle_type_id":"4","last_reported":1734797400,"current_range_meters":22400,"station_id":"cpo3532slgdg3j2ikp40","pricing_plan_id":"cebpf4jnsgd1na2vs0mg"},{"bike_id":"ba623d7f-de4d-43e6-9a39-be19938e75fb","system_id":"levelo_inurba_marseille","lat":43.29378,"lon":5.37865,"is_reserved":false,"is_disabled":true,"rental_uris":{"android":"levelo://app?vid=ba623d7f-de4d-43e6-9a39-be19938e75fb","ios":"levelo://app?vid=ba623d7f-de4d-43e6-9a39-be19938e75fb"},"vehicle_type_id":"4","last_reported":1734797400,"current_range_meters":38000,"station_id":"","pricing_plan_id":"cebpf4jnsgd1na2vs0mg"},{"bike_id":"a1e78d24-4774-40fb-ae35-c4b5aa530a41","system_id":"levelo_inurba_marseille","lat":43.29258,"lon":5.40897,"is_reserved":false,"is_disabled":false,"rental_uris":{"android":"levelo://app?vid=a1e78d24-4774-40fb-ae35-c4b5aa530a41","ios":"levelo://app?vid=a1e78d24-4774-40fb-ae35-c4b5aa530a41"},"vehicle_type_id":"4","last_reported":1734797400,"current_range_meters":38800,"station_id":"ce4bh192rcd13ifvqdc0","pricing_plan_id":"cebpf4jnsgd1na2vs0mg"},{"bike_id":"be5d7d53-b38e-4826-92f5-0bd4d344aea3","system_id":"levelo_inurba_marseille","lat":43.29369,"lon":5.37853,"is_reserved":false,"is_disabled":false,"rental_uris":{"android":"levelo://app?vid=be5d7d53-b38e-4826-92f5-0bd4d344aea3","ios":"levelo://app?vid=be5d7d53-b38e-4826-92f5-0bd4d344aea3"},"vehicle_type_id":"4","last_reported":1734797400,"current_range_meters":35200,"station_id":"ce4bgjh2rcd13ifvqbf0","pricing_plan_id":"cebpf4jnsgd1na2vs0mg"},{"bike_id":"c073fa6a-f94e-4fab-8a56-0f73febd329a","system_id":"levelo_inurba_marseille","lat":43.27945,"lon":5.41042,"is_reserved":false,"is_disabled":false,"rental_uris":{"android":"levelo://app?vid=c073fa6a-f94e-4fab-8a56-0f73febd329a","ios":"levelo://app?vid=c073fa6a-f94e-4fab-8a56-0f73febd329a"},"vehicle_type_id":"4","last_reported":1734797400,"current_range_meters":11600,"station_id":"ce4bhnp2rcd13ifvqh0g","pricing_plan_id":"cebpf4jnsgd1na2vs0mg"},{"bike_id":"c09a6a1d-1491-4bba-8062-fcf8ea8cc2b8","system_id":"levelo_inurba_marseille","lat":43.29305,"lon":5.37447,"is_reserved":false,"is_disabled":false,"rental_uris":{"android":"levelo://app?vid=c09a6a1d-1491-4bba-8062-fcf8ea8cc2b8","ios":"levelo://app?vid=c09a6a1d-1491-4bba-8062-fcf8ea8cc2b8"},"vehicle_type_id":"4","last_reported":1734797400,"current_range_meters":38000,"station_id":"ce4bgi12rcd13ifvqb70","pricing_plan_id":"cebpf4jnsgd1na2vs0mg"},{"bike_id":"caa28317-677f-4684-8cc6-46932db162b9","system_id":"levelo_inurba_marseille","lat":43.2782,"lon":5.40725,"is_reserved":false,"is_disabled":false,"rental_uris":{"android":"levelo://app?vid=caa28317-677f-4684-8cc6-46932db162b9","ios":"levelo://app?vid=caa28317-677f-4684-8cc6-46932db162b9"},"vehicle_type_id":"4","last_reported":1734797400,"current_range_meters":16400,"station_id":"ce4bhnh2rcd13ifvqgtg","pricing_plan_id":"cebpf4jnsgd1na2vs0mg"},{"bike_id":"d7a9a039-2919-4498-94bc-85df69bbf9b4","system_id":"levelo_inurba_marseille","lat":43.25118,"lon":5.39518,"is_reserved":false,"is_disabled":true,"rental_uris":{"android":"levelo://app?vid=d7a9a039-2919-4498-94bc-85df69bbf9b4","ios":"levelo://app?vid=d7a9a039-2919-4498-94bc-85df69bbf9b4"},"vehicle_type_id":"4","last_reported":1734797400,"current_range_meters":0,"station_id":"ce4bhm12rcd13ifvqgkg","pricing_plan_id":"cebpf4jnsgd1na2vs0mg"},{"bike_id":"f6e00a83-cc1f-4aaf-83bb-77e9d3b9e809","system_id":"levelo_inurba_marseille","lat":43.337444,"lon":5.374475,"is_reserved":false,"is_disabled":false,"rental_uris":{"android":"levelo://app?vid=f6e00a83-cc1f-4aaf-83bb-77e9d3b9e809","ios":"levelo://app?vid=f6e00a83-cc1f-4aaf-83bb-77e9d3b9e809"},"vehicle_type_id":"4","last_reported":1734797400,"current_range_meters":28000,"station_id":"","pricing_plan_id":"cebpf4jnsgd1na2vs0mg"},{"bike_id":"4557c5fc-60ed-4c34-9596-70c70138f451","system_id":"levelo_inurba_marseille","lat":43.29621,"lon":5.37152,"is_reserved":false,"is_disabled":true,"rental_uris":{"android":"levelo://app?vid=4557c5fc-60ed-4c34-9596-70c70138f451","ios":"levelo://app?vid=4557c5fc-60ed-4c34-9596-70c70138f451"},"vehicle_type_id":"4","last_reported":1734797400,"current_range_meters":0,"station_id":"","pricing_plan_id":"cebpf4jnsgd1na2vs0mg"},{"bike_id":"ab03df0b-543d-4c8b-95ec-4ff2feeef006","system_id":"levelo_inurba_marseille","lat":43.29614,"lon":5.37728,"is_reserved":false,"is_disabled":false,"rental_uris":{"android":"levelo://app?vid=ab03df0b-543d-4c8b-95ec-4ff2feeef006","ios":"levelo://app?vid=ab03df0b-543d-4c8b-95ec-4ff2feeef006"},"vehicle_type_id":"4","last_reported":1734797400,"current_range_meters":38800,"station_id":"ce4bgi92rcd13ifvqb90","pricing_plan_id":"cebpf4jnsgd1na2vs0mg"},{"bike_id":"539d928c-a2db-48a7-882c-eb1f4b7cfbdc","system_id":"levelo_inurba_marseille","lat":43.24074,"lon":5.37759,"is_reserved":false,"is_disabled":false,"rental_uris":{"android":"levelo://app?vid=539d928c-a2db-48a7-882c-eb1f4b7cfbdc","ios":"levelo://app?vid=539d928c-a2db-48a7-882c-eb1f4b7cfbdc"},"vehicle_type_id":"4","last_reported":1734797400,"current_range_meters":25200,"station_id":"ce4bhnp2rcd13ifvqgvg","pricing_plan_id":"cebpf4jnsgd1na2vs0mg"},{"bike_id":"17d30a96-138c-46ae-a54f-40f6ca75312f","system_id":"levelo_inurba_marseille","lat":43.30549,"lon":5.36711,"is_reserved":false,"is_disabled":false,"rental_uris":{"android":"levelo://app?vid=17d30a96-138c-46ae-a54f-40f6ca75312f","ios":"levelo://app?vid=17d30a96-138c-46ae-a54f-40f6ca75312f"},"vehicle_type_id":"4","last_reported":1734797400,"current_range_meters":6800,"station_id":"ce4bgrp2rcd13ifvqc9g","pricing_plan_id":"cebpf4jnsgd1na2vs0mg"},{"bike_id":"1910512a-9845-4b3f-8371-c811065d1a82","system_id":"levelo_inurba_marseille","lat":43.28284,"lon":5.35056,"is_reserved":false,"is_disabled":false,"rental_uris":{"android":"levelo://app?vid=1910512a-9845-4b3f-8371-c811065d1a82","ios":"levelo://app?vid=1910512a-9845-4b3f-8371-c811065d1a82"},"vehicle_type_id":"4","last_reported":1734797400,"current_range_meters":14400,"station_id":"ce4bhbp2rcd13ifvqerg","pricing_plan_id":"cebpf4jnsgd1na2vs0mg"},{"bike_id":"7f6583a4-f53f-435e-932c-6d5ac514261e","system_id":"levelo_inurba_marseille","lat":43.28469,"lon":5.38411,"is_reserved":false,"is_disabled":false,"rental_uris":{"android":"levelo://app?vid=7f6583a4-f53f-435e-932c-6d5ac514261e","ios":"levelo://app?vid=7f6583a4-f53f-435e-932c-6d5ac514261e"},"vehicle_type_id":"4","last_reported":1734797400,"current_range_meters":38400,"station_id":"ce4bh512rcd13ifvqe3g","pricing_plan_id":"cebpf4jnsgd1na2vs0mg"},{"bike_id":"ea6a53be-9a75-473b-b166-afd23e8ce576","system_id":"levelo_inurba_marseille","lat":43.29905,"lon":5.37475,"is_reserved":false,"is_disabled":false,"rental_uris":{"android":"levelo://app?vid=ea6a53be-9a75-473b-b166-afd23e8ce576","ios":"levelo://app?vid=ea6a53be-9a75-473b-b166-afd23e8ce576"},"vehicle_type_id":"4","last_reported":1734797400,"current_range_meters":37600,"station_id":"ce4bgjh2rcd13ifvqbg0","pricing_plan_id":"cebpf4jnsgd1na2vs0mg"},{"bike_id":"e9b9d51c-3835-4f0a-860c-dca30cbf1462","system_id":"levelo_inurba_marseille","lat":43.29843,"lon":5.36276,"is_reserved":false,"is_disabled":false,"rental_uris":{"android":"levelo://app?vid=e9b9d51c-3835-4f0a-860c-dca30cbf1462","ios":"levelo://app?vid=e9b9d51c-3835-4f0a-860c-dca30cbf1462"},"vehicle_type_id":"4","last_reported":1734797400,"current_range_meters":38800,"station_id":"ce4bgpp2rcd13ifvqc3g","pricing_plan_id":"cebpf4jnsgd1na2vs0mg"},{"bike_id":"9e4fd3af-a38c-4cc0-a669-b23d39435e38","system_id":"levelo_inurba_marseille","lat":43.27067,"lon":5.42272,"is_reserved":false,"is_disabled":false,"rental_uris":{"android":"levelo://app?vid=9e4fd3af-a38c-4cc0-a669-b23d39435e38","ios":"levelo://app?vid=9e4fd3af-a38c-4cc0-a669-b23d39435e38"},"vehicle_type_id":"4","last_reported":1734797400,"current_range_meters":24800,"station_id":"ce4bhk92rcd13ifvqgb0","pricing_plan_id":"cebpf4jnsgd1na2vs0mg"},{"bike_id":"8d23ef1c-4d80-41f5-8856-02b6ab55c880","system_id":"levelo_inurba_marseille","lat":43.33727,"lon":5.391829,"is_reserved":false,"is_disabled":false,"rental_uris":{"android":"levelo://app?vid=8d23ef1c-4d80-41f5-8856-02b6ab55c880","ios":"levelo://app?vid=8d23ef1c-4d80-41f5-8856-02b6ab55c880"},"vehicle_type_id":"4","last_reported":1734797400,"current_range_meters":35600,"station_id":"ce4bhr92rcd13ifvqhsg","pricing_plan_id":"cebpf4jnsgd1na2vs0mg"},{"bike_id":"f3a102a0-fa39-4b51-9d12-7238f7067759","system_id":"levelo_inurba_marseille","lat":43.28114,"lon":5.37836,"is_reserved":false,"is_disabled":false,"rental_uris":{"android":"levelo://app?vid=f3a102a0-fa39-4b51-9d12-7238f7067759","ios":"levelo://app?vid=f3a102a0-fa39-4b51-9d12-7238f7067759"},"vehicle_type_id":"4","last_reported":1734797400,"current_range_meters":32000,"station_id":"ce4bha12rcd13ifvqee0","pricing_plan_id":"cebpf4jnsgd1na2vs0mg"},{"bike_id":"29666aa4-269c-46ca-8ed0-7ecc022f915c","system_id":"levelo_inurba_marseille","lat":43.29527,"lon":5.37467,"is_reserved":false,"is_disabled":false,"rental_uris":{"android":"levelo://app?vid=29666aa4-269c-46ca-8ed0-7ecc022f915c","ios":"levelo://app?vid=29666aa4-269c-46ca-8ed0-7ecc022f915c"},"vehicle_type_id":"4","last_reported":1734797400,"current_range_meters":14000,"station_id":"ce4bgkp2rcd13ifvqbmg","pricing_plan_id":"cebpf4jnsgd1na2vs0mg"},{"bike_id":"d60d8232-4a96-492d-9348-9c3d8bdfda03","system_id":"levelo_inurba_marseille","lat":43.29852,"lon":5.36269,"is_reserved":false,"is_disabled":false,"rental_uris":{"android":"levelo://app?vid=d60d8232-4a96-492d-9348-9c3d8bdfda03","ios":"levelo://app?vid=d60d8232-4a96-492d-9348-9c3d8bdfda03"},"vehicle_type_id":"4","last_reported":1734797400,"current_range_meters":38800,"station_id":"ce4bgpp2rcd13ifvqc3g","pricing_plan_id":"cebpf4jnsgd1na2vs0mg"},{"bike_id":"dac94ecf-3203-4c89-acc0-21c14e979588","system_id":"levelo_inurba_marseille","lat":43.26687,"lon":5.38274,"is_reserved":false,"is_disabled":false,"rental_uris":{"android":"levelo://app?vid=dac94ecf-3203-4c89-acc0-21c14e979588","ios":"levelo://app?vid=dac94ecf-3203-4c89-acc0-21c14e979588"},"vehicle_type_id":"4","last_reported":1734797400,"current_range_meters":30400,"station_id":"ce4bhg92rcd13ifvqf90","pricing_plan_id":"cebpf4jnsgd1na2vs0mg"},{"bike_id":"677eab5b-ffd2-4968-9453-5e5949722b12","system_id":"levelo_inurba_marseille","lat":43.29608,"lon":5.37718,"is_reserved":false,"is_disabled":false,"rental_uris":{"android":"levelo://app?vid=677eab5b-ffd2-4968-9453-5e5949722b12","ios":"levelo://app?vid=677eab5b-ffd2-4968-9453-5e5949722b12"},"vehicle_type_id":"4","last_reported":1734797400,"current_range_meters":18800,"station_id":"ce4bgi92rcd13ifvqb90","pricing_plan_id":"cebpf4jnsgd1na2vs0mg"},{"bike_id":"befecbf9-7f20-4f63-b2b1-e37aa9e023c8","system_id":"levelo_inurba_marseille","lat":43.29686,"lon":5.37295,"is_reserved":false,"is_disabled":false,"rental_uris":{"android":"levelo://app?vid=befecbf9-7f20-4f63-b2b1-e37aa9e023c8","ios":"levelo://app?vid=befecbf9-7f20-4f63-b2b1-e37aa9e023c8"},"vehicle_type_id":"4","last_reported":1734797400,"current_range_meters":24000,"station_id":"ce4bgk12rcd13ifvqbj0","pricing_plan_id":"cebpf4jnsgd1na2vs0mg"},{"bike_id":"ad438d44-2bbf-4d3c-be2b-2a9f41a3a018","system_id":"levelo_inurba_marseille","lat":43.29793,"lon":5.39351,"is_reserved":false,"is_disabled":false,"rental_uris":{"android":"levelo://app?vid=ad438d44-2bbf-4d3c-be2b-2a9f41a3a018","ios":"levelo://app?vid=ad438d44-2bbf-4d3c-be2b-2a9f41a3a018"},"vehicle_type_id":"4","last_reported":1734797400,"current_range_meters":38000,"station_id":"chh1huq6cuj3fo74tm60","pricing_plan_id":"cebpf4jnsgd1na2vs0mg"},{"bike_id":"646232ca-85af-4543-9491-77ec5822ec23","system_id":"levelo_inurba_marseille","lat":43.29845,"lon":5.36265,"is_reserved":false,"is_disabled":false,"rental_uris":{"android":"levelo://app?vid=646232ca-85af-4543-9491-77ec5822ec23","ios":"levelo://app?vid=646232ca-85af-4543-9491-77ec5822ec23"},"vehicle_type_id":"4","last_reported":1734797400,"current_range_meters":38800,"station_id":"ce4bgpp2rcd13ifvqc3g","pricing_plan_id":"cebpf4jnsgd1na2vs0mg"},{"bike_id":"630f2919-81d1-49d9-bff3-a03696f3982d","system_id":"levelo_inurba_marseille","lat":43.31339,"lon":5.36715,"is_reserved":false,"is_disabled":true,"rental_uris":{"android":"levelo://app?vid=630f2919-81d1-49d9-bff3-a03696f3982d","ios":"levelo://app?vid=630f2919-81d1-49d9-bff3-a03696f3982d"},"vehicle_type_id":"4","last_reported":1734797400,"current_range_meters":0,"station_id":"ce4bgr92rcd13ifvqc6g","pricing_plan_id":"cebpf4jnsgd1na2vs0mg"},{"bike_id":"fb39aff7-f0a4-4cec-81df-b2f240708acf","system_id":"levelo_inurba_marseille","lat":43.31539,"lon":5.38039,"is_reserved":false,"is_disabled":false,"rental_uris":{"android":"levelo://app?vid=fb39aff7-f0a4-4cec-81df-b2f240708acf","ios":"levelo://app?vid=fb39aff7-f0a4-4cec-81df-b2f240708acf"},"vehicle_type_id":"4","last_reported":1734797400,"current_range_meters":24800,"station_id":"ce4bhsp2rcd13ifvqi50","pricing_plan_id":"cebpf4jnsgd1na2vs0mg"},{"bike_id":"d98f8e50-1bb7-4b5d-8e73-97daccd1f86a","system_id":"levelo_inurba_marseille","lat":43.27951,"lon":5.41047,"is_reserved":false,"is_disabled":false,"rental_uris":{"android":"levelo://app?vid=d98f8e50-1bb7-4b5d-8e73-97daccd1f86a","ios":"levelo://app?vid=d98f8e50-1bb7-4b5d-8e73-97daccd1f86a"},"vehicle_type_id":"4","last_reported":1734797400,"current_range_meters":16400,"station_id":"ce4bhnp2rcd13ifvqh0g","pricing_plan_id":"cebpf4jnsgd1na2vs0mg"},{"bike_id":"b8d260cf-50ef-4503-9984-4adad737a4fe","system_id":"levelo_inurba_marseille","lat":43.287133,"lon":5.373815,"is_reserved":false,"is_disabled":false,"rental_uris":{"android":"levelo://app?vid=b8d260cf-50ef-4503-9984-4adad737a4fe","ios":"levelo://app?vid=b8d260cf-50ef-4503-9984-4adad737a4fe"},"vehicle_type_id":"4","last_reported":1734797400,"current_range_meters":37600,"station_id":"ce4bh3p2rcd13ifvqdq0","pricing_plan_id":"cebpf4jnsgd1na2vs0mg"},{"bike_id":"e353d62c-c5ff-4f13-94a9-2d54b9fdbe08","system_id":"levelo_inurba_marseille","lat":43.288463,"lon":5.358413,"is_reserved":false,"is_disabled":true,"rental_uris":{"android":"levelo://app?vid=e353d62c-c5ff-4f13-94a9-2d54b9fdbe08","ios":"levelo://app?vid=e353d62c-c5ff-4f13-94a9-2d54b9fdbe08"},"vehicle_type_id":"4","last_reported":1734797400,"current_range_meters":0,"station_id":"ce4bhb12rcd13ifvqem0","pricing_plan_id":"cebpf4jnsgd1na2vs0mg"},{"bike_id":"88cfebe8-3088-46c4-b250-d1b75923a432","system_id":"levelo_inurba_marseille","lat":43.24661,"lon":5.3817,"is_reserved":false,"is_disabled":false,"rental_uris":{"android":"levelo://app?vid=88cfebe8-3088-46c4-b250-d1b75923a432","ios":"levelo://app?vid=88cfebe8-3088-46c4-b250-d1b75923a432"},"vehicle_type_id":"4","last_reported":1734797400,"current_range_meters":14800,"station_id":"ce4bhih2rcd13ifvqfr0","pricing_plan_id":"cebpf4jnsgd1na2vs0mg"},{"bike_id":"085f67b0-44f2-4732-999e-5d735b9a7008","system_id":"levelo_inurba_marseille","lat":43.27357,"lon":5.36223,"is_reserved":false,"is_disabled":false,"rental_uris":{"android":"levelo://app?vid=085f67b0-44f2-4732-999e-5d735b9a7008","ios":"levelo://app?vid=085f67b0-44f2-4732-999e-5d735b9a7008"},"vehicle_type_id":"4","last_reported":1734797400,"current_range_meters":38800,"station_id":"ce4bhbh2rcd13ifvqeo0","pricing_plan_id":"cebpf4jnsgd1na2vs0mg"},{"bike_id":"c784c8f1-d3cd-4f0d-b162-b9a312206c9c","system_id":"levelo_inurba_marseille","lat":43.2721,"lon":5.3918,"is_reserved":false,"is_disabled":false,"rental_uris":{"android":"levelo://app?vid=c784c8f1-d3cd-4f0d-b162-b9a312206c9c","ios":"levelo://app?vid=c784c8f1-d3cd-4f0d-b162-b9a312206c9c"},"vehicle_type_id":"4","last_reported":1734797400,"current_range_meters":38800,"station_id":"ce4bhhp2rcd13ifvqfm0","pricing_plan_id":"cebpf4jnsgd1na2vs0mg"},{"bike_id":"870ac398-0980-41bc-b29b-852a736f71c6","system_id":"levelo_inurba_marseille","lat":43.29933,"lon":5.36534,"is_reserved":false,"is_disabled":false,"rental_uris":{"android":"levelo://app?vid=870ac398-0980-41bc-b29b-852a736f71c6","ios":"levelo://app?vid=870ac398-0980-41bc-b29b-852a736f71c6"},"vehicle_type_id":"4","last_reported":1734797400,"current_range_meters":18000,"station_id":"ce4bgm92rcd13ifvqbr0","pricing_plan_id":"cebpf4jnsgd1na2vs0mg"},{"bike_id":"46697d06-0ef4-47cb-a02a-1fcc9b97bedb","system_id":"levelo_inurba_marseille","lat":43.29617,"lon":5.37699,"is_reserved":false,"is_disabled":false,"rental_uris":{"android":"levelo://app?vid=46697d06-0ef4-47cb-a02a-1fcc9b97bedb","ios":"levelo://app?vid=46697d06-0ef4-47cb-a02a-1fcc9b97bedb"},"vehicle_type_id":"4","last_reported":1734797400,"current_range_meters":22400,"station_id":"ce4bgi92rcd13ifvqb90","pricing_plan_id":"cebpf4jnsgd1na2vs0mg"},{"bike_id":"dea3219d-c0d3-4496-8b62-726b9e0de6d6","system_id":"levelo_inurba_marseille","lat":43.25498,"lon":5.37646,"is_reserved":false,"is_disabled":false,"rental_uris":{"android":"levelo://app?vid=dea3219d-c0d3-4496-8b62-726b9e0de6d6","ios":"levelo://app?vid=dea3219d-c0d3-4496-8b62-726b9e0de6d6"},"vehicle_type_id":"4","last_reported":1734797400,"current_range_meters":21600,"station_id":"ce4bhh12rcd13ifvqff0","pricing_plan_id":"cebpf4jnsgd1na2vs0mg"},{"bike_id":"a37c10b7-1da8-4cc6-b0f3-2a310cde69cc","system_id":"levelo_inurba_marseille","lat":43.2954,"lon":5.39024,"is_reserved":false,"is_disabled":true,"rental_uris":{"android":"levelo://app?vid=a37c10b7-1da8-4cc6-b0f3-2a310cde69cc","ios":"levelo://app?vid=a37c10b7-1da8-4cc6-b0f3-2a310cde69cc"},"vehicle_type_id":"4","last_reported":1734797400,"current_range_meters":30800,"station_id":"ce4bh3p2rcd13ifvqdp0","pricing_plan_id":"cebpf4jnsgd1na2vs0mg"},{"bike_id":"d1853d76-78cf-466d-9558-f0792250c702","system_id":"levelo_inurba_marseille","lat":43.33742,"lon":5.37449,"is_reserved":false,"is_disabled":false,"rental_uris":{"android":"levelo://app?vid=d1853d76-78cf-466d-9558-f0792250c702","ios":"levelo://app?vid=d1853d76-78cf-466d-9558-f0792250c702"},"vehicle_type_id":"4","last_reported":1734797400,"current_range_meters":28400,"station_id":"","pricing_plan_id":"cebpf4jnsgd1na2vs0mg"},{"bike_id":"4ce8171e-f52e-4364-a224-c72ec3f9741a","system_id":"levelo_inurba_marseille","lat":43.29792,"lon":5.38099,"is_reserved":false,"is_disabled":false,"rental_uris":{"android":"levelo://app?vid=4ce8171e-f52e-4364-a224-c72ec3f9741a","ios":"levelo://app?vid=4ce8171e-f52e-4364-a224-c72ec3f9741a"},"vehicle_type_id":"4","last_reported":1734797400,"current_range_meters":23200,"station_id":"ce4bgip2rcd13ifvqbb0","pricing_plan_id":"cebpf4jnsgd1na2vs0mg"},{"bike_id":"392ce546-2273-4afb-8c3e-86414d573312","system_id":"levelo_inurba_marseille","lat":43.29574,"lon":5.38112,"is_reserved":false,"is_disabled":false,"rental_uris":{"android":"levelo://app?vid=392ce546-2273-4afb-8c3e-86414d573312","ios":"levelo://app?vid=392ce546-2273-4afb-8c3e-86414d573312"},"vehicle_type_id":"4","last_reported":1734797400,"current_range_meters":28400,"station_id":"ce4bgl12rcd13ifvqbo0","pricing_plan_id":"cebpf4jnsgd1na2vs0mg"},{"bike_id":"8748b527-011a-44e2-b7fd-54ba8b4e0814","system_id":"levelo_inurba_marseille","lat":43.22929,"lon":5.35381,"is_reserved":false,"is_disabled":false,"rental_uris":{"android":"levelo://app?vid=8748b527-011a-44e2-b7fd-54ba8b4e0814","ios":"levelo://app?vid=8748b527-011a-44e2-b7fd-54ba8b4e0814"},"vehicle_type_id":"4","last_reported":1734797400,"current_range_meters":22000,"station_id":"cpo3532slgdg3j2ikp40","pricing_plan_id":"cebpf4jnsgd1na2vs0mg"},{"bike_id":"fc4d3979-46c7-43c7-8727-9d5ef59b2f96","system_id":"levelo_inurba_marseille","lat":43.2936,"lon":5.37843,"is_reserved":false,"is_disabled":false,"rental_uris":{"android":"levelo://app?vid=fc4d3979-46c7-43c7-8727-9d5ef59b2f96","ios":"levelo://app?vid=fc4d3979-46c7-43c7-8727-9d5ef59b2f96"},"vehicle_type_id":"4","last_reported":1734797400,"current_range_meters":9600,"station_id":"ce4bgjh2rcd13ifvqbf0","pricing_plan_id":"cebpf4jnsgd1na2vs0mg"},{"bike_id":"d3bba487-1639-48b4-932c-1dfac8b215c6","system_id":"levelo_inurba_marseille","lat":43.29527,"lon":5.3904,"is_reserved":false,"is_disabled":false,"rental_uris":{"android":"levelo://app?vid=d3bba487-1639-48b4-932c-1dfac8b215c6","ios":"levelo://app?vid=d3bba487-1639-48b4-932c-1dfac8b215c6"},"vehicle_type_id":"4","last_reported":1734797400,"current_range_meters":37600,"station_id":"ce4bh3p2rcd13ifvqdp0","pricing_plan_id":"cebpf4jnsgd1na2vs0mg"},{"bike_id":"82609033-1c4b-45cc-8587-ac15f1a26e9c","system_id":"levelo_inurba_marseille","lat":43.30094,"lon":5.39083,"is_reserved":false,"is_disabled":false,"rental_uris":{"android":"levelo://app?vid=82609033-1c4b-45cc-8587-ac15f1a26e9c","ios":"levelo://app?vid=82609033-1c4b-45cc-8587-ac15f1a26e9c"},"vehicle_type_id":"4","last_reported":1734797400,"current_range_meters":34000,"station_id":"ce4bh192rcd13ifvqdb0","pricing_plan_id":"cebpf4jnsgd1na2vs0mg"},{"bike_id":"76f7298d-23db-43ba-97cb-ee0a1bca30fa","system_id":"levelo_inurba_marseille","lat":43.26945,"lon":5.40244,"is_reserved":false,"is_disabled":false,"rental_uris":{"android":"levelo://app?vid=76f7298d-23db-43ba-97cb-ee0a1bca30fa","ios":"levelo://app?vid=76f7298d-23db-43ba-97cb-ee0a1bca30fa"},"vehicle_type_id":"4","last_reported":1734797400,"current_range_meters":38800,"station_id":"cjm6bp8fraef2m0cb0m0","pricing_plan_id":"cebpf4jnsgd1na2vs0mg"},{"bike_id":"39cb86bd-d333-444c-a321-d07277f74a29","system_id":"levelo_inurba_marseille","lat":43.26495,"lon":5.37371,"is_reserved":false,"is_disabled":false,"rental_uris":{"android":"levelo://app?vid=39cb86bd-d333-444c-a321-d07277f74a29","ios":"levelo://app?vid=39cb86bd-d333-444c-a321-d07277f74a29"},"vehicle_type_id":"4","last_reported":1734797400,"current_range_meters":32800,"station_id":"ce4bhg12rcd13ifvqf70","pricing_plan_id":"cebpf4jnsgd1na2vs0mg"},{"bike_id":"5de77257-80f5-4126-8140-fd63253300d0","system_id":"levelo_inurba_marseille","lat":43.27071,"lon":5.4228,"is_reserved":false,"is_disabled":false,"rental_uris":{"android":"levelo://app?vid=5de77257-80f5-4126-8140-fd63253300d0","ios":"levelo://app?vid=5de77257-80f5-4126-8140-fd63253300d0"},"vehicle_type_id":"4","last_reported":1734797400,"current_range_meters":8400,"station_id":"ce4bhk92rcd13ifvqgb0","pricing_plan_id":"cebpf4jnsgd1na2vs0mg"},{"bike_id":"a2eba22b-b0ee-4005-9bf3-576bb458d391","system_id":"levelo_inurba_marseille","lat":43.279651,"lon":5.387544,"is_reserved":false,"is_disabled":true,"rental_uris":{"android":"levelo://app?vid=a2eba22b-b0ee-4005-9bf3-576bb458d391","ios":"levelo://app?vid=a2eba22b-b0ee-4005-9bf3-576bb458d391"},"vehicle_type_id":"4","last_reported":1734797400,"current_range_meters":0,"station_id":"","pricing_plan_id":"cebpf4jnsgd1na2vs0mg"},{"bike_id":"7a689e6c-6639-4ea1-81c0-47dca70231a5","system_id":"levelo_inurba_marseille","lat":43.29171,"lon":5.37143,"is_reserved":false,"is_disabled":false,"rental_uris":{"android":"levelo://app?vid=7a689e6c-6639-4ea1-81c0-47dca70231a5","ios":"levelo://app?vid=7a689e6c-6639-4ea1-81c0-47dca70231a5"},"vehicle_type_id":"4","last_reported":1734797400,"current_range_meters":38800,"station_id":"ce4bha92rcd13ifvqeh0","pricing_plan_id":"cebpf4jnsgd1na2vs0mg"},{"bike_id":"11e31868-fd43-43b0-95aa-4d96e7cf84ea","system_id":"levelo_inurba_marseille","lat":43.22934,"lon":5.3538,"is_reserved":false,"is_disabled":false,"rental_uris":{"android":"levelo://app?vid=11e31868-fd43-43b0-95aa-4d96e7cf84ea","ios":"levelo://app?vid=11e31868-fd43-43b0-95aa-4d96e7cf84ea"},"vehicle_type_id":"4","last_reported":1734797400,"current_range_meters":10000,"station_id":"cpo3532slgdg3j2ikp40","pricing_plan_id":"cebpf4jnsgd1na2vs0mg"},{"bike_id":"5c947138-4462-4c28-a25a-8fcdf6b4a3a2","system_id":"levelo_inurba_marseille","lat":43.33023,"lon":5.39037,"is_reserved":false,"is_disabled":false,"rental_uris":{"android":"levelo://app?vid=5c947138-4462-4c28-a25a-8fcdf6b4a3a2","ios":"levelo://app?vid=5c947138-4462-4c28-a25a-8fcdf6b4a3a2"},"vehicle_type_id":"4","last_reported":1734797400,"current_range_meters":38800,"station_id":"ce4bhr92rcd13ifvqhrg","pricing_plan_id":"cebpf4jnsgd1na2vs0mg"},{"bike_id":"e8b9266a-288a-46d4-af3d-7f133e6bf0fb","system_id":"levelo_inurba_marseille","lat":43.29937,"lon":5.37474,"is_reserved":false,"is_disabled":false,"rental_uris":{"android":"levelo://app?vid=e8b9266a-288a-46d4-af3d-7f133e6bf0fb","ios":"levelo://app?vid=e8b9266a-288a-46d4-af3d-7f133e6bf0fb"},"vehicle_type_id":"4","last_reported":1734797400,"current_range_meters":35600,"station_id":"ce4bgjh2rcd13ifvqbg0","pricing_plan_id":"cebpf4jnsgd1na2vs0mg"},{"bike_id":"4d411239-0a52-4771-a319-54a89ce8bb06","system_id":"levelo_inurba_marseille","lat":43.31918,"lon":5.36752,"is_reserved":false,"is_disabled":false,"rental_uris":{"android":"levelo://app?vid=4d411239-0a52-4771-a319-54a89ce8bb06","ios":"levelo://app?vid=4d411239-0a52-4771-a319-54a89ce8bb06"},"vehicle_type_id":"4","last_reported":1734797400,"current_range_meters":37600,"station_id":"","pricing_plan_id":"cebpf4jnsgd1na2vs0mg"},{"bike_id":"376fe82c-eb31-4049-a66c-a63014ead7b3","system_id":"levelo_inurba_marseille","lat":43.28623,"lon":5.35096,"is_reserved":false,"is_disabled":false,"rental_uris":{"android":"levelo://app?vid=376fe82c-eb31-4049-a66c-a63014ead7b3","ios":"levelo://app?vid=376fe82c-eb31-4049-a66c-a63014ead7b3"},"vehicle_type_id":"4","last_reported":1734797400,"current_range_meters":28000,"station_id":"ce4bhch2rcd13ifvqeug","pricing_plan_id":"cebpf4jnsgd1na2vs0mg"},{"bike_id":"84c1dd7d-c527-47ae-b38d-f96e0132c025","system_id":"levelo_inurba_marseille","lat":43.29718,"lon":5.37708,"is_reserved":false,"is_disabled":false,"rental_uris":{"android":"levelo://app?vid=84c1dd7d-c527-47ae-b38d-f96e0132c025","ios":"levelo://app?vid=84c1dd7d-c527-47ae-b38d-f96e0132c025"},"vehicle_type_id":"4","last_reported":1734797400,"current_range_meters":36000,"station_id":"ce4bgkh2rcd13ifvqbl0","pricing_plan_id":"cebpf4jnsgd1na2vs0mg"},{"bike_id":"07bce892-d37b-40fc-948c-f1e245f83962","system_id":"levelo_inurba_marseille","lat":43.28419,"lon":5.34988,"is_reserved":false,"is_disabled":false,"rental_uris":{"android":"levelo://app?vid=07bce892-d37b-40fc-948c-f1e245f83962","ios":"levelo://app?vid=07bce892-d37b-40fc-948c-f1e245f83962"},"vehicle_type_id":"4","last_reported":1734797400,"current_range_meters":30400,"station_id":"ce4bhbh2rcd13ifvqepg","pricing_plan_id":"cebpf4jnsgd1na2vs0mg"},{"bike_id":"6df5a6e4-dc93-4423-a003-8952925ec435","system_id":"levelo_inurba_marseille","lat":43.30151,"lon":5.38082,"is_reserved":false,"is_disabled":false,"rental_uris":{"android":"levelo://app?vid=6df5a6e4-dc93-4423-a003-8952925ec435","ios":"levelo://app?vid=6df5a6e4-dc93-4423-a003-8952925ec435"},"vehicle_type_id":"4","last_reported":1734797400,"current_range_meters":29600,"station_id":"ce4bgjp2rcd13ifvqbh0","pricing_plan_id":"cebpf4jnsgd1na2vs0mg"},{"bike_id":"9aef9e7d-9aaa-4da0-94c9-a99f36275cf8","system_id":"levelo_inurba_marseille","lat":43.31759,"lon":5.39006,"is_reserved":false,"is_disabled":true,"rental_uris":{"android":"levelo://app?vid=9aef9e7d-9aaa-4da0-94c9-a99f36275cf8","ios":"levelo://app?vid=9aef9e7d-9aaa-4da0-94c9-a99f36275cf8"},"vehicle_type_id":"4","last_reported":1734797400,"current_range_meters":37600,"station_id":"ce4bhqp2rcd13ifvqhng","pricing_plan_id":"cebpf4jnsgd1na2vs0mg"},