{"last_updated":1747073659,"ttl":60,"version":"2.2","data":{"bikes":[{"bike_id":"c0b9fd4f-e181-46ce-b0bf-f5119973334f","system_id":"levelo_inurba_marseille","lat":43.33771,"lon":5.37424,"is_reserved":false,"is_disabled":false,"rental_uris":{"android":"levelo://app?vid=c0b9fd4f-e181-46ce-b0bf-f5119973334f","ios":"levelo://app?vid=c0b9fd4f-e181-46ce-b0bf-f5119973334f"},"vehicle_type_id":"4","last_reported":1747073659,"current_range_meters":27200,"station_id":"","pricing_plan_id":"cebpf4jnsgd1na2vs0mg"},{"bike_id":"229001d2-7627-43e0-aeea-2d75580fd339","system_id":"levelo_inurba_marseille","lat":43.33753,"lon":5.37493,"is_reserved":false,"is_disabled":true,"rental_uris":{"android":"levelo://app?vid=229001d2-7627-43e0-aeea-2d75580fd339","ios":"levelo://app?vid=229001d2-7627-43e0-aeea-2d75580fd339"},"vehicle_type_id":"4","last_reported":1747073659,"current_range_meters":0,"station_id":"","pricing_plan_id":"cebpf4jnsgd1na2vs0mg"},{"bike_id":"828418bc-b6f3-4668-865d-c3a8b014b129","system_id":"levelo_inurba_marseille","lat":43.33771,"lon":5.374695,"is_reserved":false,"is_disabled":true,"rental_uris":{"android":"levelo://app?vid=828418bc-b6f3-4668-865d-c3a8b014b129","ios":"levelo://app?vid=828418bc-b6f3-4668-865d-c3a8b014b129"},"vehicle_type_id":"4","last_reported":1747073659,"current_range_meters":0,"station_id":"","pricing_plan_id":"cebpf4jnsgd1na2vs0mg"},{"bike_id":"96c72210-ffd5-494a-89c0-bed5ae154cce","system_id":"levelo_inurba_marseille","lat":43.268246,"lon":5.41097,"is_reserved":false,"is_disabled":true,"rental_uris":{"android":"levelo://app?vid=96c72210-ffd5-494a-89c0-bed5ae154cce","ios":"levelo://app?vid=96c72210-ffd5-494a-89c0-bed5ae154cce"},"vehicle_type_id":"4","last_reported":1747073659,"current_range_meters":0,"station_id":"","pricing_plan_id":"cebpf4jnsgd1na2vs0mg"},{"bike_id":"610117e8-7be2-4f3d-9ec2-420166ac7a29","system_id":"levelo_inurba_marseille","lat":43.29872,"lon":5.38165,"is_reserved":false,"is_disabled":true,"rental_uris":{"android":"levelo://app?vid=610117e8-7be2-4f3d-9ec2-420166ac7a29","ios":"levelo://app?vid=610117e8-7be2-4f3d-9ec2-420166ac7a29"},"vehicle_type_id":"4","last_reported":1747073659,"current_range_meters":0,"station_id":"ce4bgj12rcd13ifvqbc0","pricing_plan_id":"cebpf4jnsgd1na2vs0mg"},{"bike_id":"a589b337-6200-4cb2-9335-06560d6de94a","system_id":"levelo_inurba_marseille","lat":43.29037,"lon":5.39961,"is_reserved":false,"is_disabled":true,"rental_uris":{"android":"levelo://app?vid=a589b337-6200-4cb2-9335-06560d6de94a","ios":"levelo://app?vid=a589b337-6200-4cb2-9335-06560d6de94a"},"vehicle_type_id":"4","last_reported":1747073659,"current_range_meters":0,"station_id":"ce4bh392rcd13ifvqdm0","pricing_plan_id":"cebpf4jnsgd1na2vs0mg"},{"bike_id":"bf53f49e-e099-4ec3-8bbe-98b35c27c75f","system_id":"levelo_inurba_marseille","lat":43.28483,"lon":5.38571,"is_reserved":false,"is_disabled":true,"rental_uris":{"android":"levelo://app?vid=bf53f49e-e099-4ec3-8bbe-98b35c27c75f","ios":"levelo://app?vid=bf53f49e-e099-4ec3-8bbe-98b35c27c75f"},"vehicle_type_id":"4","last_reported":1747073659,"current_range_meters":0,"station_id":"ce4bh8p2rcd13ifvqeb0","pricing_plan_id":"cebpf4jnsgd1na2vs0mg"},{"bike_id":"2260403f-43f9-4065-9cff-ffe87f6ee025","system_id":"levelo_inurba_marseille","lat":43.28936,"lon":5.36645,"is_reserved":false,"is_disabled":true,"rental_uris":{"android":"levelo://app?vid=2260403f-43f9-4065-9cff-ffe87f6ee025","ios":"levelo://app?vid=2260403f-43f9-4065-9cff-ffe87f6ee025"},"vehicle_type_id":"4","last_reported":1747073659,"current_range_meters":0,"station_id":"ce4bhap2rcd13ifvqek0","pricing_plan_id":"cebpf4jnsgd1na2vs0mg"},{"bike_id":"d660cb3e-5644-48d0-92dd-d1a420ec9282","system_id":"levelo_inurba_marseille","lat":43.28269,"lon":5.35059,"is_reserved":false,"is_disabled":true,"rental_uris":{"android":"levelo://app?vid=d660cb3e-5644-48d0-92dd-d1a420ec9282","ios":"levelo://app?vid=d660cb3e-5644-48d0-92dd-d1a420ec9282"},"vehicle_type_id":"4","last_reported":1747073659,"current_range_meters":0,"station_id":"ce4bhbp2rcd13ifvqerg","pricing_plan_id":"cebpf4jnsgd1na2vs0mg"},{"bike_id":"a147f0e6-7981-44c6-9364-cdd01d784595","system_id":"levelo_inurba_marseille","lat":43.28612,"lon":5.35106,"is_reserved":false,"is_disabled":true,"rental_uris":{"android":"levelo://app?vid=a147f0e6-7981-44c6-9364-cdd01d784595","ios":"levelo://app?vid=a147f0e6-7981-44c6-9364-cdd01d784595"},"vehicle_type_id":"4","last_reported":1747073659,"current_range_meters":0,"station_id":"ce4bhch2rcd13ifvqeug","pricing_plan_id":"cebpf4jnsgd1na2vs0mg"},{"bike_id":"483b6843-77aa-4a0c-bb57-0ca39c233276","system_id":"levelo_inurba_marseille","lat":43.267803,"lon":5.394213,"is_reserved":false,"is_disabled":true,"rental_uris":{"android":"levelo://app?vid=483b6843-77aa-4a0c-bb57-0ca39c233276","ios":"levelo://app?vid=483b6843-77aa-4a0c-bb57-0ca39c233276"},"vehicle_type_id":"4","last_reported":1747073659,"current_range_meters":0,"station_id":"ce4bhh12rcd13ifvqfg0","pricing_plan_id":"cebpf4jnsgd1na2vs0mg"},{"bike_id":"d649da37-d8e6-42d9-b280-1dd466033649","system_id":"levelo_inurba_marseille","lat":43.23963,"lon":5.3663,"is_reserved":false,"is_disabled":true,"rental_uris":{"android":"levelo://app?vid=d649da37-d8e6-42d9-b280-1dd466033649","ios":"levelo://app?vid=d649da37-d8e6-42d9-b280-1dd466033649"},"vehicle_type_id":"4","last_reported":1747073659,"current_range_meters":0,"station_id":"ce4bhi12rcd13ifvqfp0","pricing_plan_id":"cebpf4jnsgd1na2vs0mg"},{"bike_id":"b82fa79d-ba0f-48d1-a101-c4dac4b7de4e","system_id":"levelo_inurba_marseille","lat":43.29896,"lon":5.43664,"is_reserved":false,"is_disabled":true,"rental_uris":{"android":"levelo://app?vid=b82fa79d-ba0f-48d1-a101-c4dac4b7de4e","ios":"levelo://app?vid=b82fa79d-ba0f-48d1-a101-c4dac4b7de4e"},"vehicle_type_id":"4","last_reported":1747073659,"current_range_meters":0,"station_id":"ce4bhpp2rcd13ifvqhfg","pricing_plan_id":"cebpf4jnsgd1na2vs0mg"},{"bike_id":"5e7c9b6b-7695-49ad-8d53-ad1ae3069955","system_id":"levelo_inurba_marseille","lat":43.23192,"lon":5.3555,"is_reserved":false,"is_disabled":true,"rental_uris":{"android":"levelo://app?vid=5e7c9b6b-7695-49ad-8d53-ad1ae3069955","ios":"levelo://app?vid=5e7c9b6b-7695-49ad-8d53-ad1ae3069955"},"vehicle_type_id":"4","last_reported":1747073659,"current_range_meters":0,"station_id":"ce4bhu92rcd13ifvqi70","pricing_plan_id":"cebpf4jnsgd1na2vs0mg"},{"bike_id":"0548899a-bf12-456a-b9a6-b776aa865108","system_id":"levelo_inurba_marseille","lat":43.28921,"lon":5.38385,"is_reserved":false,"is_disabled":true,"rental_uris":{"android":"levelo://app?vid=0548899a-bf12-456a-b9a6-b776aa865108","ios":"levelo://app?vid=0548899a-bf12-456a-b9a6-b776aa865108"},"vehicle_type_id":"4","last_reported":1747073659,"current_range_meters":400,"station_id":"ce4bh612rcd13ifvqe6g","pricing_plan_id":"cebpf4jnsgd1na2vs0mg"},{"bike_id":"f6ab34af-636f-49f8-9d14-467777b7f337","system_id":"levelo_inurba_marseille","lat":43.28251,"lon":5.35082,"is_reserved":false,"is_disabled":true,"rental_uris":{"android":"levelo://app?vid=f6ab34af-636f-49f8-9d14-467777b7f337","ios":"levelo://app?vid=f6ab34af-636f-49f8-9d14-467777b7f337"},"vehicle_type_id":"4","last_reported":1747073659,"current_range_meters":400,"station_id":"ce4bhbp2rcd13ifvqerg","pricing_plan_id":"cebpf4jnsgd1na2vs0mg"},{"bike_id":"30ecb071-49a5-45de-b294-6e710f99ee43","system_id":"levelo_inurba_marseille","lat":43.23055,"lon":5.35493,"is_reserved":false,"is_disabled":true,"rental_uris":{"android":"levelo://app?vid=30ecb071-49a5-45de-b294-6e710f99ee43","ios":"levelo://app?vid=30ecb071-49a5-45de-b294-6e710f99ee43"},"vehicle_type_id":"4","last_reported":1747073659,"current_range_meters":400,"station_id":"cpo3342slgdg3j2ifvpg","pricing_plan_id":"cebpf4jnsgd1na2vs0mg"},{"bike_id":"b96e4101-34bc-4cf7-9bf4-f8e31aaa2b15","system_id":"levelo_inurba_marseille","lat":43.28196,"lon":5.38582,"is_reserved":false,"is_disabled":true,"rental_uris":{"android":"levelo://app?vid=b96e4101-34bc-4cf7-9bf4-f8e31aaa2b15","ios":"levelo://app?vid=b96e4101-34bc-4cf7-9bf4-f8e31aaa2b15"},"vehicle_type_id":"4","last_reported":1747073659,"current_range_meters":800,"station_id":"","pricing_plan_id":"cebpf4jnsgd1na2vs0mg"},{"bike_id":"9b25bf3d-7022-42a8-80c6-d97f7188a347","system_id":"levelo_inurba_marseille","lat":43.29372,"lon":5.37841,"is_reserved":false,"is_disabled":true,"rental_uris":{"android":"levelo://app?vid=9b25bf3d-7022-42a8-80c6-d97f7188a347","ios":"levelo://app?vid=9b25bf3d-7022-42a8-80c6-d97f7188a347"},"vehicle_type_id":"4","last_reported":1747073659,"current_range_meters":800,"station_id":"ce4bgjh2rcd13ifvqbf0","pricing_plan_id":"cebpf4jnsgd1na2vs0mg"},{"bike_id":"63699005-594f-48e7-a237-78f12d06b439","system_id":"levelo_inurba_marseille","lat":43.30306,"lon":5.39213,"is_reserved":false,"is_disabled":true,"rental_uris":{"android":"levelo://app?vid=63699005-594f-48e7-a237-78f12d06b439","ios":"levelo://app?vid=63699005-594f-48e7-a237-78f12d06b439"},"vehicle_type_id":"4","last_reported":1747073659,"current_range_meters":800,"station_id":"ce4bgkh2rcd13ifvqbk0","pricing_plan_id":"cebpf4jnsgd1na2vs0mg"},{"bike_id":"b37d6bae-69d3-4fa7-a804-e12bfde8d577","system_id":"levelo_inurba_marseille","lat":43.30319,"lon":5.40446,"is_reserved":false,"is_disabled":true,"rental_uris":{"android":"levelo://app?vid=b37d6bae-69d3-4fa7-a804-e12bfde8d577","ios":"levelo://app?vid=b37d6bae-69d3-4fa7-a804-e12bfde8d577"},"vehicle_type_id":"4","last_reported":1747073659,"current_range_meters":800,"station_id":"ce4bh012rcd13ifvqd10","pricing_plan_id":"cebpf4jnsgd1na2vs0mg"},{"bike_id":"ff94de9d-9cb9-47a3-9f44-ffe102f93e35","system_id":"levelo_inurba_marseille","lat":43.28711,"lon":5.37378,"is_reserved":false,"is_disabled":true,"rental_uris":{"android":"levelo://app?vid=ff94de9d-9cb9-47a3-9f44-ffe102f93e35","ios":"levelo://app?vid=ff94de9d-9cb9-47a3-9f44-ffe102f93e35"},"vehicle_type_id":"4","last_reported":1747073659,"current_range_meters":800,"station_id":"ce4bh3p2rcd13ifvqdq0","pricing_plan_id":"cebpf4jnsgd1na2vs0mg"},{"bike_id":"376be7fd-eac2-45f1-9d85-3b8996cef28d","system_id":"levelo_inurba_marseille","lat":43.28466,"lon":5.35886,"is_reserved":false,"is_disabled":true,"rental_uris":{"android":"levelo://app?vid=376be7fd-eac2-45f1-9d85-3b8996cef28d","ios":"levelo://app?vid=376be7fd-eac2-45f1-9d85-3b8996cef28d"},"vehicle_type_id":"4","last_reported":1747073659,"current_range_meters":800,"station_id":"ce4bhah2rcd13ifvqei0","pricing_plan_id":"cebpf4jnsgd1na2vs0mg"},{"bike_id":"7f8c7345-d406-4807-af7f-35cfceed3814","system_id":"levelo_inurba_marseille","lat":43.22927,"lon":5.35376,"is_reserved":false,"is_disabled":true,"rental_uris":{"android":"levelo://app?vid=7f8c7345-d406-4807-af7f-35cfceed3814","ios":"levelo://app?vid=7f8c7345-d406-4807-af7f-35cfceed3814"},"vehicle_type_id":"4","last_reported":1747073659,"current_range_meters":800,"station_id":"cpo3532slgdg3j2ikp40","pricing_plan_id":"cebpf4jnsgd1na2vs0mg"},{"bike_id":"3ae1cd74-71fb-47ba-ac9b-3b9bc8cd8449","system_id":"levelo_inurba_marseille","lat":43.21743,"lon":5.34604,"is_reserved":false,"is_disabled":true,"rental_uris":{"android":"levelo://app?vid=3ae1cd74-71fb-47ba-ac9b-3b9bc8cd8449","ios":"levelo://app?vid=3ae1cd74-71fb-47ba-ac9b-3b9bc8cd8449"},"vehicle_type_id":"4","last_reported":1747073659,"current_range_meters":800,"station_id":"st_cvj6r9ubvosntc0bgbag","pricing_plan_id":"cebpf4jnsgd1na2vs0mg"},{"bike_id":"6c711820-c488-445b-8149-fed7e0e25b14","system_id":"levelo_inurba_marseille","lat":43.2953,"lon":5.38541,"is_reserved":false,"is_disabled":true,"rental_uris":{"android":"levelo://app?vid=6c711820-c488-445b-8149-fed7e0e25b14","ios":"levelo://app?vid=6c711820-c488-445b-8149-fed7e0e25b14"},"vehicle_type_id":"4","last_reported":1747073659,"current_range_meters":1200,"station_id":"ce4bgih2rcd13ifvqba0","pricing_plan_id":"cebpf4jnsgd1na2vs0mg"},{"bike_id":"2124b95d-d7d0-4412-a6d4-5fe39492162e","system_id":"levelo_inurba_marseille","lat":43.27949,"lon":5.38727,"is_reserved":false,"is_disabled":true,"rental_uris":{"android":"levelo://app?vid=2124b95d-d7d0-4412-a6d4-5fe39492162e","ios":"levelo://app?vid=2124b95d-d7d0-4412-a6d4-5fe39492162e"},"vehicle_type_id":"4","last_reported":1747073659,"current_range_meters":1200,"station_id":"ce4bhg12rcd13ifvqf80","pricing_plan_id":"cebpf4jnsgd1na2vs0mg"},{"bike_id":"79109602-19c9-412e-bedf-fc7560399bf7","system_id":"levelo_inurba_marseille","lat":43.24809,"lon":5.37445,"is_reserved":false,"is_disabled":true,"rental_uris":{"android":"levelo://app?vid=79109602-19c9-412e-bedf-fc7560399bf7","ios":"levelo://app?vid=79109602-19c9-412e-bedf-fc7560399bf7"},"vehicle_type_id":"4","last_reported":1747073659,"current_range_meters":1200,"station_id":"ce4bhgh2rcd13ifvqfb0","pricing_plan_id":"cebpf4jnsgd1na2vs0mg"},{"bike_id":"8ef3a439-78ec-4045-a192-49c2d98aa65b","system_id":"levelo_inurba_marseille","lat":43.244,"lon":5.37055,"is_reserved":false,"is_disabled":true,"rental_uris":{"android":"levelo://app?vid=8ef3a439-78ec-4045-a192-49c2d98aa65b","ios":"levelo://app?vid=8ef3a439-78ec-4045-a192-49c2d98aa65b"},"vehicle_type_id":"4","last_reported":1747073659,"current_range_meters":1200,"station_id":"ce4bhhh2rcd13ifvqfk0","pricing_plan_id":"cebpf4jnsgd1na2vs0mg"},{"bike_id":"f46cae84-d1f2-4a66-9c17-9100ad5c16a5","system_id":"levelo_inurba_marseille","lat":43.27837,"lon":5.39204,"is_reserved":false,"is_disabled":true,"rental_uris":{"android":"levelo://app?vid=f46cae84-d1f2-4a66-9c17-9100ad5c16a5","ios":"levelo://app?vid=f46cae84-d1f2-4a66-9c17-9100ad5c16a5"},"vehicle_type_id":"4","last_reported":1747073659,"current_range_meters":1200,"station_id":"ce4bhjp2rcd13ifvqga0","pricing_plan_id":"cebpf4jnsgd1na2vs0mg"},{"bike_id":"91197375-8ba8-4b46-91ac-badcd70c35a5","system_id":"levelo_inurba_marseille","lat":43.27998,"lon":5.41661,"is_reserved":false,"is_disabled":true,"rental_uris":{"android":"levelo://app?vid=91197375-8ba8-4b46-91ac-badcd70c35a5","ios":"levelo://app?vid=91197375-8ba8-4b46-91ac-badcd70c35a5"},"vehicle_type_id":"4","last_reported":1747073659,"current_range_meters":1200,"station_id":"ce4bho12rcd13ifvqh1g","pricing_plan_id":"cebpf4jnsgd1na2vs0mg"},{"bike_id":"de509f93-44db-4c59-9e0c-6498ee8ab7c0","system_id":"levelo_inurba_marseille","lat":43.23085,"lon":5.35484,"is_reserved":false,"is_disabled":true,"rental_uris":{"android":"levelo://app?vid=de509f93-44db-4c59-9e0c-6498ee8ab7c0","ios":"levelo://app?vid=de509f93-44db-4c59-9e0c-6498ee8ab7c0"},"vehicle_type_id":"4","last_reported":1747073659,"current_range_meters":1200,"station_id":"cpo3342slgdg3j2ifvpg","pricing_plan_id":"cebpf4jnsgd1na2vs0mg"},{"bike_id":"d399eac4-621a-4322-a006-70581e4be089","system_id":"levelo_inurba_marseille","lat":43.31225,"lon":5.38012,"is_reserved":false,"is_disabled":true,"rental_uris":{"android":"levelo://app?vid=d399eac4-621a-4322-a006-70581e4be089","ios":"levelo://app?vid=d399eac4-621a-4322-a006-70581e4be089"},"vehicle_type_id":"4","last_reported":1747073659,"current_range_meters":1600,"station_id":"","pricing_plan_id":"cebpf4jnsgd1na2vs0mg"},{"bike_id":"79c1b035-cbbf-49b9-b793-b52f4aaa4be8","system_id":"levelo_inurba_marseille","lat":43.30802,"lon":5.38133,"is_reserved":false,"is_disabled":true,"rental_uris":{"android":"levelo://app?vid=79c1b035-cbbf-49b9-b793-b52f4aaa4be8","ios":"levelo://app?vid=79c1b035-cbbf-49b9-b793-b52f4aaa4be8"},"vehicle_type_id":"4","last_reported":1747073659,"current_range_meters":1600,"station_id":"ce4bgt12rcd13ifvqce0","pricing_plan_id":"cebpf4jnsgd1na2vs0mg"},{"bike_id":"89261a5a-c4e8-48b2-88c0-f3fd93103ab8","system_id":"levelo_inurba_marseille","lat":43.29042,"lon":5.39965,"is_reserved":false,"is_disabled":true,"rental_uris":{"android":"levelo://app?vid=89261a5a-c4e8-48b2-88c0-f3fd93103ab8","ios":"levelo://app?vid=89261a5a-c4e8-48b2-88c0-f3fd93103ab8"},"vehicle_type_id":"4","last_reported":1747073659,"current_range_meters":1600,"station_id":"ce4bh392rcd13ifvqdm0","pricing_plan_id":"cebpf4jnsgd1na2vs0mg"},{"bike_id":"d5a1e2fa-7b36-483e-bf55-e0f44df4e1bc","system_id":"levelo_inurba_marseille","lat":43.2789,"lon":5.38002,"is_reserved":false,"is_disabled":true,"rental_uris":{"android":"levelo://app?vid=d5a1e2fa-7b36-483e-bf55-e0f44df4e1bc","ios":"levelo://app?vid=d5a1e2fa-7b36-483e-bf55-e0f44df4e1bc"},"vehicle_type_id":"4","last_reported":1747073659,"current_range_meters":1600,"station_id":"ce4bhf92rcd13ifvqf50","pricing_plan_id":"cebpf4jnsgd1na2vs0mg"},{"bike_id":"25d8a206-bcec-4065-9acf-29ec04d6cea4","system_id":"levelo_inurba_marseille","lat":43.27976,"lon":5.38767,"is_reserved":false,"is_disabled":true,"rental_uris":{"android":"levelo://app?vid=25d8a206-bcec-4065-9acf-29ec04d6cea4","ios":"levelo://app?vid=25d8a206-bcec-4065-9acf-29ec04d6cea4"},"vehicle_type_id":"4","last_reported":1747073659,"current_range_meters":1600,"station_id":"ce4bhg12rcd13ifvqf80","pricing_plan_id":"cebpf4jnsgd1na2vs0mg"},{"bike_id":"1e8b8f71-ab8e-48f0-b175-0c9b4d41efd1","system_id":"levelo_inurba_marseille","lat":43.24806,"lon":5.37456,"is_reserved":false,"is_disabled":true,"rental_uris":{"android":"levelo://app?vid=1e8b8f71-ab8e-48f0-b175-0c9b4d41efd1","ios":"levelo://app?vid=1e8b8f71-ab8e-48f0-b175-0c9b4d41efd1"},"vehicle_type_id":"4","last_reported":1747073659,"current_range_meters":1600,"station_id":"ce4bhgh2rcd13ifvqfb0","pricing_plan_id":"cebpf4jnsgd1na2vs0mg"},{"bike_id":"0bbb5a21-6908-4dc1-8951-4a3261e45f93","system_id":"levelo_inurba_marseille","lat":43.31222,"lon":5.368536,"is_reserved":false,"is_disabled":true,"rental_uris":{"android":"levelo://app?vid=0bbb5a21-6908-4dc1-8951-4a3261e45f93","ios":"levelo://app?vid=0bbb5a21-6908-4dc1-8951-4a3261e45f93"},"vehicle_type_id":"4","last_reported":1747073659,"current_range_meters":2000,"station_id":"ce4bgl92rcd13ifvqbq0","pricing_plan_id":"cebpf4jnsgd1na2vs0mg"},{"bike_id":"cb27393e-a944-41cc-baef-2db59f6bc096","system_id":"levelo_inurba_marseille","lat":43.31505,"lon":5.3729,"is_reserved":false,"is_disabled":true,"rental_uris":{"android":"levelo://app?vid=cb27393e-a944-41cc-baef-2db59f6bc096","ios":"levelo://app?vid=cb27393e-a944-41cc-baef-2db59f6bc096"},"vehicle_type_id":"4","last_reported":1747073659,"current_range_meters":2000,"station_id":"ce4bgt12rcd13ifvqcd0","pricing_plan_id":"cebpf4jnsgd1na2vs0mg"},{"bike_id":"a5c6b50e-0041-48d0-953e-6b68ac3a8fb7","system_id":"levelo_inurba_marseille","lat":43.30803,"lon":5.38161,"is_reserved":false,"is_disabled":true,"rental_uris":{"android":"levelo://app?vid=a5c6b50e-0041-48d0-953e-6b68ac3a8fb7","ios":"levelo://app?vid=a5c6b50e-0041-48d0-953e-6b68ac3a8fb7"},"vehicle_type_id":"4","last_reported":1747073659,"current_range_meters":2000,"station_id":"ce4bgt12rcd13ifvqce0","pricing_plan_id":"cebpf4jnsgd1na2vs0mg"},{"bike_id":"60243525-9a26-4add-96da-32391522f556","system_id":"levelo_inurba_marseille","lat":43.24813,"lon":5.37461,"is_reserved":false,"is_disabled":true,"rental_uris":{"android":"levelo://app?vid=60243525-9a26-4add-96da-32391522f556","ios":"levelo://app?vid=60243525-9a26-4add-96da-32391522f556"},"vehicle_type_id":"4","last_reported":1747073659,"current_range_meters":2000,"station_id":"ce4bhgh2rcd13ifvqfb0","pricing_plan_id":"cebpf4jnsgd1na2vs0mg"},{"bike_id":"90220bdd-1887-4618-8a26-fcc02b7b06b3","system_id":"levelo_inurba_marseille","lat":43.30701,"lon":5.41028,"is_reserved":false,"is_disabled":false,"rental_uris":{"android":"levelo://app?vid=90220bdd-1887-4618-8a26-fcc02b7b06b3","ios":"levelo://app?vid=90220bdd-1887-4618-8a26-fcc02b7b06b3"},"vehicle_type_id":"4","last_reported":1747073659,"current_range_meters":2800,"station_id":"","pricing_plan_id":"cebpf4jnsgd1na2vs0mg"},{"bike_id":"a0920cd3-75e0-4245-895a-992ad88ad8a7","system_id":"levelo_inurba_marseille","lat":43.28439,"lon":5.41051,"is_reserved":false,"is_disabled":false,"rental_uris":{"android":"levelo://app?vid=a0920cd3-75e0-4245-895a-992ad88ad8a7","ios":"levelo://app?vid=a0920cd3-75e0-4245-895a-992ad88ad8a7"},"vehicle_type_id":"4","last_reported":1747073659,"current_range_meters":2800,"station_id":"","pricing_plan_id":"cebpf4jnsgd1na2vs0mg"},{"bike_id":"ae272bca-5ccc-4b46-8b65-79d7bb1de0eb","system_id":"levelo_inurba_marseille","lat":43.27281,"lon":5.41049,"is_reserved":false,"is_disabled":false,"rental_uris":{"android":"levelo://app?vid=ae272bca-5ccc-4b46-8b65-79d7bb1de0eb","ios":"levelo://app?vid=ae272bca-5ccc-4b46-8b65-79d7bb1de0eb"},"vehicle_type_id":"4","last_reported":1747073659,"current_range_meters":3200,"station_id":"","pricing_plan_id":"cebpf4jnsgd1na2vs0mg"},{"bike_id":"dbaaa883-be1e-471d-9a94-4592135fe25d","system_id":"levelo_inurba_marseille","lat":43.3033,"lon":5.40425,"is_reserved":false,"is_disabled":false,"rental_uris":{"android":"levelo://app?vid=dbaaa883-be1e-471d-9a94-4592135fe25d","ios":"levelo://app?vid=dbaaa883-be1e-471d-9a94-4592135fe25d"},"vehicle_type_id":"4","last_reported":1747073659,"current_range_meters":3200,"station_id":"ce4bh012rcd13ifvqd10","pricing_plan_id":"cebpf4jnsgd1na2vs0mg"},{"bike_id":"f9ff0d06-073a-4cb9-a9a1-de0fd88f94b7","system_id":"levelo_inurba_marseille","lat":43.2953,"lon":5.3904,"is_reserved":false,"is_disabled":false,"rental_uris":{"android":"levelo://app?vid=f9ff0d06-073a-4cb9-a9a1-de0fd88f94b7","ios":"levelo://app?vid=f9ff0d06-073a-4cb9-a9a1-de0fd88f94b7"},"vehicle_type_id":"4","last_reported":1747073659,"current_range_meters":3200,"station_id":"ce4bh3p2rcd13ifvqdp0","pricing_plan_id":"cebpf4jnsgd1na2vs0mg"},{"bike_id":"f3dad5a5-15b3-4274-bedd-b2f8f4371872","system_id":"levelo_inurba_marseille","lat":43.2842,"lon":5.37501,"is_reserved":false,"is_disabled":false,"rental_uris":{"android":"levelo://app?vid=f3dad5a5-15b3-4274-bedd-b2f8f4371872","ios":"levelo://app?vid=f3dad5a5-15b3-4274-bedd-b2f8f4371872"},"vehicle_type_id":"4","last_reported":1747073659,"current_range_meters":3200,"station_id":"ce4bh412rcd13ifvqds0","pricing_plan_id":"cebpf4jnsgd1na2vs0mg"},{"bike_id":"f7af3a7d-4ab9-4d1c-925a-f67956210004","system_id":"levelo_inurba_marseille","lat":43.29027,"lon":5.38145,"is_reserved":false,"is_disabled":false,"rental_uris":{"android":"levelo://app?vid=f7af3a7d-4ab9-4d1c-925a-f67956210004","ios":"levelo://app?vid=f7af3a7d-4ab9-4d1c-925a-f67956210004"},"vehicle_type_id":"4","last_reported":1747073659,"current_range_meters":3200,"station_id":"ce4bh4p2rcd13ifvqe1g","pricing_plan_id":"cebpf4jnsgd1na2vs0mg"},{"bike_id":"25684216-a3fc-4916-8e05-9505382e4ab5","system_id":"levelo_inurba_marseille","lat":43.27333,"lon":5.39032,"is_reserved":false,"is_disabled":false,"rental_uris":{"android":"levelo://app?vid=25684216-a3fc-4916-8e05-9505382e4ab5","ios":"levelo://app?vid=25684216-a3fc-4916-8e05-9505382e4ab5"},"vehicle_type_id":"4","last_reported":1747073659,"current_range_meters":3200,"station_id":"ce4bhgp2rcd13ifvqfe0","pricing_plan_id":"cebpf4jnsgd1na2vs0mg"},{"bike_id":"f6638646-3512-49b2-ae43-816fd5c11578","system_id":"levelo_inurba_marseille","lat":43.28077,"lon":5.39663,"is_reserved":false,"is_disabled":false,"rental_uris":{"android":"levelo://app?vid=f6638646-3512-49b2-ae43-816fd5c11578","ios":"levelo://app?vid=f6638646-3512-49b2-ae43-816fd5c11578"},"vehicle_type_id":"4","last_reported":1747073659,"current_range_meters":3200,"station_id":"ce4bho12rcd13ifvqh2g","pricing_plan_id":"cebpf4jnsgd1na2vs0mg"},{"bike_id":"3ff0f524-d6af-475d-9b49-2c819f48f3ad","system_id":"levelo_inurba_marseille","lat":43.28411,"lon":5.37502,"is_reserved":false,"is_disabled":false,"rental_uris":{"android":"levelo://app?vid=3ff0f524-d6af-475d-9b49-2c819f48f3ad","ios":"levelo://app?vid=3ff0f524-d6af-475d-9b49-2c819f48f3ad"},"vehicle_type_id":"4","last_reported":1747073659,"current_range_meters":3600,"station_id":"ce4bh412rcd13ifvqds0","pricing_plan_id":"cebpf4jnsgd1na2vs0mg"},{"bike_id":"c7a0d3ae-97d1-4a54-8dcb-370177963a02","system_id":"levelo_inurba_marseille","lat":43.27805,"lon":5.40744,"is_reserved":false,"is_disabled":false,"rental_uris":{"android":"levelo://app?vid=c7a0d3ae-97d1-4a54-8dcb-370177963a02","ios":"levelo://app?vid=c7a0d3ae-97d1-4a54-8dcb-370177963a02"},"vehicle_type_id":"4","last_reported":1747073659,"current_range_meters":3600,"station_id":"ce4bhnh2rcd13ifvqgtg","pricing_plan_id":"cebpf4jnsgd1na2vs0mg"},{"bike_id":"72fb020e-49e6-4e6b-ab53-015ac8ea2d73","system_id":"levelo_inurba_marseille","lat":43.281535,"lon":5.426465,"is_reserved":false,"is_disabled":false,"rental_uris":{"android":"levelo://app?vid=72fb020e-49e6-4e6b-ab53-015ac8ea2d73","ios":"levelo://app?vid=72fb020e-49e6-4e6b-ab53-015ac8ea2d73"},"vehicle_type_id":"4","last_reported":1747073659,"current_range_meters":3600,"station_id":"ce4bhnh2rcd13ifvqgug","pricing_plan_id":"cebpf4jnsgd1na2vs0mg"},{"bike_id":"d7311524-6541-457e-a9c0-5e7d8aad03b2","system_id":"levelo_inurba_marseille","lat":43.31766,"lon":5.39015,"is_reserved":false,"is_disabled":false,"rental_uris":{"android":"levelo://app?vid=d7311524-6541-457e-a9c0-5e7d8aad03b2","ios":"levelo://app?vid=d7311524-6541-457e-a9c0-5e7d8aad03b2"},"vehicle_type_id":"4","last_reported":1747073659,"current_range_meters":3600,"station_id":"ce4bhqp2rcd13ifvqhng","pricing_plan_id":"cebpf4jnsgd1na2vs0mg"},{"bike_id":"0b424141-5139-4eb5-9af1-b2085da37b0c","system_id":"levelo_inurba_marseille","lat":43.28846,"lon":5.393,"is_reserved":false,"is_disabled":false,"rental_uris":{"android":"levelo://app?vid=0b424141-5139-4eb5-9af1-b2085da37b0c","ios":"levelo://app?vid=0b424141-5139-4eb5-9af1-b2085da37b0c"},"vehicle_type_id":"4","last_reported":1747073659,"current_range_meters":4000,"station_id":"ce4bh2p2rcd13ifvqdi0","pricing_plan_id":"cebpf4jnsgd1na2vs0mg"},{"bike_id":"fc2577e7-1497-425b-9d4f-ab8d7dc843c6","system_id":"levelo_inurba_marseille","lat":43.33771,"lon":5.37485,"is_reserved":false,"is_disabled":false,"rental_uris":{"android":"levelo://app?vid=fc2577e7-1497-425b-9d4f-ab8d7dc843c6","ios":"levelo://app?vid=fc2577e7-1497-425b-9d4f-ab8d7dc843c6"},"vehicle_type_id":"4","last_reported":1747073659,"current_range_meters":4400,"station_id":"","pricing_plan_id":"cebpf4jnsgd1na2vs0mg"},{"bike_id":"25e8dc29-f97b-444d-bd1a-25fb4504425f","system_id":"levelo_inurba_marseille","lat":43.30212,"lon":5.39467,"is_reserved":false,"is_disabled":false,"rental_uris":{"android":"levelo://app?vid=25e8dc29-f97b-444d-bd1a-25fb4504425f","ios":"levelo://app?vid=25e8dc29-f97b-444d-bd1a-25fb4504425f"},"vehicle_type_id":"4","last_reported":1747073659,"current_range_meters":4400,"station_id":"ce4bh0p2rcd13ifvqd70","pricing_plan_id":"cebpf4jnsgd1na2vs0mg"},{"bike_id":"7db81cf5-0da3-4332-8f40-50b9d34505af","system_id":"levelo_inurba_marseille","lat":43.2952,"lon":5.39396,"is_reserved":false,"is_disabled":false,"rental_uris":{"android":"levelo://app?vid=7db81cf5-0da3-4332-8f40-50b9d34505af","ios":"levelo://app?vid=7db81cf5-0da3-4332-8f40-50b9d34505af"},"vehicle_type_id":"4","last_reported":1747073659,"current_range_meters":4400,"station_id":"ce4bh292rcd13ifvqdf0","pricing_plan_id":"cebpf4jnsgd1na2vs0mg"},{"bike_id":"d46c6c20-b53b-481a-a3b3-445900a300c6","system_id":"levelo_inurba_marseille","lat":43.29202,"lon":5.358,"is_reserved":false,"is_disabled":false,"rental_uris":{"android":"levelo://app?vid=d46c6c20-b53b-481a-a3b3-445900a300c6","ios":"levelo://app?vid=d46c6c20-b53b-481a-a3b3-445900a300c6"},"vehicle_type_id":"4","last_reported":1747073659,"current_range_meters":4400,"station_id":"ce4bhb12rcd13ifvqel0","pricing_plan_id":"cebpf4jnsgd1na2vs0mg"},{"bike_id":"55954bea-9160-47b0-80a4-47a5f5380298","system_id":"levelo_inurba_marseille","lat":43.28414,"lon":5.34997,"is_reserved":false,"is_disabled":false,"rental_uris":{"android":"levelo://app?vid=55954bea-9160-47b0-80a4-47a5f5380298","ios":"levelo://app?vid=55954bea-9160-47b0-80a4-47a5f5380298"},"vehicle_type_id":"4","last_reported":1747073659,"current_range_meters":4800,"station_id":"ce4bhbh2rcd13ifvqepg","pricing_plan_id":"cebpf4jnsgd1na2vs0mg"},{"bike_id":"0702edf7-2d68-4817-bbd8-90dc263c7465","system_id":"levelo_inurba_marseille","lat":43.25823,"lon":5.39435,"is_reserved":false,"is_disabled":false,"rental_uris":{"android":"levelo://app?vid=0702edf7-2d68-4817-bbd8-90dc263c7465","ios":"levelo://app?vid=0702edf7-2d68-4817-bbd8-90dc263c7465"},"vehicle_type_id":"4","last_reported":1747073659,"current_range_meters":4800,"station_id":"ce4bhip2rcd13ifvqft0","pricing_plan_id":"cebpf4jnsgd1na2vs0mg"},{"bike_id":"b1b8c807-8597-4a9c-bbcd-a2746fd63865","system_id":"levelo_inurba_marseille","lat":43.25284,"lon":5.39916,"is_reserved":false,"is_disabled":false,"rental_uris":{"android":"levelo://app?vid=b1b8c807-8597-4a9c-bbcd-a2746fd63865","ios":"levelo://app?vid=b1b8c807-8597-4a9c-bbcd-a2746fd63865"},"vehicle_type_id":"4","last_reported":1747073659,"current_range_meters":5600,"station_id":"","pricing_plan_id":"cebpf4jnsgd1na2vs0mg"},{"bike_id":"283c2bc2-16f4-4881-86c2-19db72c85c9f","system_id":"levelo_inurba_marseille","lat":43.25717,"lon":5.41116,"is_reserved":false,"is_disabled":false,"rental_uris":{"android":"levelo://app?vid=283c2bc2-16f4-4881-86c2-19db72c85c9f","ios":"levelo://app?vid=283c2bc2-16f4-4881-86c2-19db72c85c9f"},"vehicle_type_id":"4","last_reported":1747073659,"current_range_meters":5600,"station_id":"ce4bhkp2rcd13ifvqgd0","pricing_plan_id":"cebpf4jnsgd1na2vs0mg"},{"bike_id":"e6d0a96a-a5ae-48bd-ad20-397a5c71089b","system_id":"levelo_inurba_marseille","lat":43.23194,"lon":5.39971,"is_reserved":false,"is_disabled":false,"rental_uris":{"android":"levelo://app?vid=e6d0a96a-a5ae-48bd-ad20-397a5c71089b","ios":"levelo://app?vid=e6d0a96a-a5ae-48bd-ad20-397a5c71089b"},"vehicle_type_id":"4","last_reported":1747073659,"current_range_meters":5600,"station_id":"ce4bhn12rcd13ifvqgqg","pricing_plan_id":"cebpf4jnsgd1na2vs0mg"},{"bike_id":"46d1bf55-48a6-47c3-b234-ead95f794316","system_id":"levelo_inurba_marseille","lat":43.28562,"lon":5.39487,"is_reserved":false,"is_disabled":false,"rental_uris":{"android":"levelo://app?vid=46d1bf55-48a6-47c3-b234-ead95f794316","ios":"levelo://app?vid=46d1bf55-48a6-47c3-b234-ead95f794316"},"vehicle_type_id":"4","last_reported":1747073659,"current_range_meters":6000,"station_id":"ce4bh292rcd13ifvqdg0","pricing_plan_id":"cebpf4jnsgd1na2vs0mg"},{"bike_id":"807e3ba3-ae29-4c07-b0a0-95402b0eca9e","system_id":"levelo_inurba_marseille","lat":43.28938,"lon":5.36639,"is_reserved":false,"is_disabled":false,"rental_uris":{"android":"levelo://app?vid=807e3ba3-ae29-4c07-b0a0-95402b0eca9e","ios":"levelo://app?vid=807e3ba3-ae29-4c07-b0a0-95402b0eca9e"},"vehicle_type_id":"4","last_reported":1747073659,"current_range_meters":6000,"station_id":"ce4bhap2rcd13ifvqek0","pricing_plan_id":"cebpf4jnsgd1na2vs0mg"},{"bike_id":"8cae1286-680a-4645-89fd-0aa147fd39b4","system_id":"levelo_inurba_marseille","lat":43.2582,"lon":5.39442,"is_reserved":false,"is_disabled":false,"rental_uris":{"android":"levelo://app?vid=8cae1286-680a-4645-89fd-0aa147fd39b4","ios":"levelo://app?vid=8cae1286-680a-4645-89fd-0aa147fd39b4"},"vehicle_type_id":"4","last_reported":1747073659,"current_range_meters":6000,"station_id":"ce4bhip2rcd13ifvqft0","pricing_plan_id":"cebpf4jnsgd1na2vs0mg"},{"bike_id":"da29f565-f020-454b-8145-9ccee9424261","system_id":"levelo_inurba_marseille","lat":43.25818,"lon":5.39439,"is_reserved":false,"is_disabled":false,"rental_uris":{"android":"levelo://app?vid=da29f565-f020-454b-8145-9ccee9424261","ios":"levelo://app?vid=da29f565-f020-454b-8145-9ccee9424261"},"vehicle_type_id":"4","last_reported":1747073659,"current_range_meters":6000,"station_id":"ce4bhip2rcd13ifvqft0","pricing_plan_id":"cebpf4jnsgd1na2vs0mg"},{"bike_id":"cb4aa7f8-5e58-4103-827e-f5aa7f653469","system_id":"levelo_inurba_marseille","lat":43.23192,"lon":5.35563,"is_reserved":false,"is_disabled":false,"rental_uris":{"android":"levelo://app?vid=cb4aa7f8-5e58-4103-827e-f5aa7f653469","ios":"levelo://app?vid=cb4aa7f8-5e58-4103-827e-f5aa7f653469"},"vehicle_type_id":"4","last_reported":1747073659,"current_range_meters":6000,"station_id":"ce4bhu92rcd13ifvqi70","pricing_plan_id":"cebpf4jnsgd1na2vs0mg"},{"bike_id":"b2511b1e-8d38-4903-ace7-7302bdcb0717","system_id":"levelo_inurba_marseille","lat":43.3248,"lon":5.36562,"is_reserved":false,"is_disabled":false,"rental_uris":{"android":"levelo://app?vid=b2511b1e-8d38-4903-ace7-7302bdcb0717","ios":"levelo://app?vid=b2511b1e-8d38-4903-ace7-7302bdcb0717"},"vehicle_type_id":"4","last_reported":1747073659,"current_range_meters":6400,"station_id":"ce4bhs12rcd13ifvqhvg","pricing_plan_id":"cebpf4jnsgd1na2vs0mg"},{"bike_id":"5d8d9d93-d6f4-48b8-a891-3bdb84a02602","system_id":"levelo_inurba_marseille","lat":43.29418,"lon":5.38618,"is_reserved":false,"is_disabled":false,"rental_uris":{"android":"levelo://app?vid=5d8d9d93-d6f4-48b8-a891-3bdb84a02602","ios":"levelo://app?vid=5d8d9d93-d6f4-48b8-a891-3bdb84a02602"},"vehicle_type_id":"4","last_reported":1747073659,"current_range_meters":6800,"station_id":"","pricing_plan_id":"cebpf4jnsgd1na2vs0mg"},{"bike_id":"1a770ac8-f695-431f-b034-edb44b90e1f9","system_id":"levelo_inurba_marseille","lat":43.28564,"lon":5.39493,"is_reserved":false,"is_disabled":false,"rental_uris":{"android":"levelo://app?vid=1a770ac8-f695-431f-b034-edb44b90e1f9","ios":"levelo://app?vid=1a770ac8-f695-431f-b034-edb44b90e1f9"},"vehicle_type_id":"4","last_reported":1747073659,"current_range_meters":6800,"station_id":"ce4bh292rcd13ifvqdg0","pricing_plan_id":"cebpf4jnsgd1na2vs0mg"},{"bike_id":"1c2db275-4159-4bb8-b7aa-9c61f015dd23","system_id":"levelo_inurba_marseille","lat":43.27556,"lon":5.38434,"is_reserved":false,"is_disabled":false,"rental_uris":{"android":"levelo://app?vid=1c2db275-4159-4bb8-b7aa-9c61f015dd23","ios":"levelo://app?vid=1c2db275-4159-4bb8-b7aa-9c61f015dd23"},"vehicle_type_id":"4","last_reported":1747073659,"current_range_meters":6800,"station_id":"ce4bhh92rcd13ifvqfi0","pricing_plan_id":"cebpf4jnsgd1na2vs0mg"},{"bike_id":"5f9b62df-1db7-4452-8caf-5538e3287ca8","system_id":"levelo_inurba_marseille","lat":43.29346,"lon":5.42826,"is_reserved":false,"is_disabled":false,"rental_uris":{"android":"levelo://app?vid=5f9b62df-1db7-4452-8caf-5538e3287ca8","ios":"levelo://app?vid=5f9b62df-1db7-4452-8caf-5538e3287ca8"},"vehicle_type_id":"4","last_reported":1747073659,"current_range_meters":7200,"station_id":"","pricing_plan_id":"cebpf4jnsgd1na2vs0mg"},{"bike_id":"01782675-3ee3-4a89-84bf-d4822d94ece7","system_id":"levelo_inurba_marseille","lat":43.30248,"lon":5.40054,"is_reserved":false,"is_disabled":false,"rental_uris":{"android":"levelo://app?vid=01782675-3ee3-4a89-84bf-d4822d94ece7","ios":"levelo://app?vid=01782675-3ee3-4a89-84bf-d4822d94ece7"},"vehicle_type_id":"4","last_reported":1747073659,"current_range_meters":7200,"station_id":"ce4bgvh2rcd13ifvqcs0","pricing_plan_id":"cebpf4jnsgd1na2vs0mg"},{"bike_id":"40ddaf6c-90b8-4dba-ac3f-301c4aadf62a","system_id":"levelo_inurba_marseille","lat":43.30434,"lon":5.39756,"is_reserved":false,"is_disabled":false,"rental_uris":{"android":"levelo://app?vid=40ddaf6c-90b8-4dba-ac3f-301c4aadf62a","ios":"levelo://app?vid=40ddaf6c-90b8-4dba-ac3f-301c4aadf62a"},"vehicle_type_id":"4","last_reported":1747073659,"current_range_meters":7200,"station_id":"ce4bh092rcd13ifvqd20","pricing_plan_id":"cebpf4jnsgd1na2vs0mg"},{"bike_id":"c46f4903-75ef-4434-a135-95dc6930f323","system_id":"levelo_inurba_marseille","lat":43.30087,"lon":5.39075,"is_reserved":false,"is_disabled":false,"rental_uris":{"android":"levelo://app?vid=c46f4903-75ef-4434-a135-95dc6930f323","ios":"levelo://app?vid=c46f4903-75ef-4434-a135-95dc6930f323"},"vehicle_type_id":"4","last_reported":1747073659,"current_range_meters":7200,"station_id":"ce4bh192rcd13ifvqdb0","pricing_plan_id":"cebpf4jnsgd1na2vs0mg"},{"bike_id":"5ec26f90-8dd6-447d-b560-18c3f69a73f3","system_id":"levelo_inurba_marseille","lat":43.28467,"lon":5.35884,"is_reserved":false,"is_disabled":false,"rental_uris":{"android":"levelo://app?vid=5ec26f90-8dd6-447d-b560-18c3f69a73f3","ios":"levelo://app?vid=5ec26f90-8dd6-447d-b560-18c3f69a73f3"},"vehicle_type_id":"4","last_reported":1747073659,"current_range_meters":7200,"station_id":"ce4bhah2rcd13ifvqei0","pricing_plan_id":"cebpf4jnsgd1na2vs0mg"},{"bike_id":"79f767b1-523b-4188-996e-cfe61a261e86","system_id":"levelo_inurba_marseille","lat":43.24192,"lon":5.39727,"is_reserved":false,"is_disabled":false,"rental_uris":{"android":"levelo://app?vid=79f767b1-523b-4188-996e-cfe61a261e86","ios":"levelo://app?vid=79f767b1-523b-4188-996e-cfe61a261e86"},"vehicle_type_id":"4","last_reported":1747073659,"current_range_meters":7200,"station_id":"ce4bhn12rcd13ifvqgpg","pricing_plan_id":"cebpf4jnsgd1na2vs0mg"},{"bike_id":"e0b16578-b75c-49a0-be9b-59a4685629b7","system_id":"levelo_inurba_marseille","lat":43.28154,"lon":5.42644,"is_reserved":false,"is_disabled":false,"rental_uris":{"android":"levelo://app?vid=e0b16578-b75c-49a0-be9b-59a4685629b7","ios":"levelo://app?vid=e0b16578-b75c-49a0-be9b-59a4685629b7"},"vehicle_type_id":"4","last_reported":1747073659,"current_range_meters":7200,"station_id":"ce4bhnh2rcd13ifvqgug","pricing_plan_id":"cebpf4jnsgd1na2vs0mg"},{"bike_id":"63145f11-71fe-43d0-bd5d-fd07dfaef998","system_id":"levelo_inurba_marseille","lat":43.28002,"lon":5.41666,"is_reserved":false,"is_disabled":false,"rental_uris":{"android":"levelo://app?vid=63145f11-71fe-43d0-bd5d-fd07dfaef998","ios":"levelo://app?vid=63145f11-71fe-43d0-bd5d-fd07dfaef998"},"vehicle_type_id":"4","last_reported":1747073659,"current_range_meters":7200,"station_id":"ce4bho12rcd13ifvqh1g","pricing_plan_id":"cebpf4jnsgd1na2vs0mg"},{"bike_id":"730a1eb6-a927-47f6-b91f-a2d24a5eb680","system_id":"levelo_inurba_marseille","lat":43.24167,"lon":5.36394,"is_reserved":false,"is_disabled":false,"rental_uris":{"android":"levelo://app?vid=730a1eb6-a927-47f6-b91f-a2d24a5eb680","ios":"levelo://app?vid=730a1eb6-a927-47f6-b91f-a2d24a5eb680"},"vehicle_type_id":"4","last_reported":1747073659,"current_range_meters":7200,"station_id":"cpo36qri1sfpv3e86is0","pricing_plan_id":"cebpf4jnsgd1na2vs0mg"},{"bike_id":"c166edd6-904a-4bc0-bde0-4462b8738864","system_id":"levelo_inurba_marseille","lat":43.2417,"lon":5.36401,"is_reserved":false,"is_disabled":false,"rental_uris":{"android":"levelo://app?vid=c166edd6-904a-4bc0-bde0-4462b8738864","ios":"levelo://app?vid=c166edd6-904a-4bc0-bde0-4462b8738864"},"vehicle_type_id":"4","last_reported":1747073659,"current_range_meters":7200,"station_id":"cpo36qri1sfpv3e86is0","pricing_plan_id":"cebpf4jnsgd1na2vs0mg"},{"bike_id":"ec6fdea9-4343-4054-8a60-192993d40c69","system_id":"levelo_inurba_marseille","lat":43.28716,"lon":5.37398,"is_reserved":false,"is_disabled":false,"rental_uris":{"android":"levelo://app?vid=ec6fdea9-4343-4054-8a60-192993d40c69","ios":"levelo://app?vid=ec6fdea9-4343-4054-8a60-192993d40c69"},"vehicle_type_id":"4","last_reported":1747073659,"current_range_meters":8000,"station_id":"ce4bh3p2rcd13ifvqdq0","pricing_plan_id":"cebpf4jnsgd1na2vs0mg"},{"bike_id":"1da0eeca-6e59-40b8-a976-b9e38a336ed5","system_id":"levelo_inurba_marseille","lat":43.2439,"lon":5.37053,"is_reserved":false,"is_disabled":false,"rental_uris":{"android":"levelo://app?vid=1da0eeca-6e59-40b8-a976-b9e38a336ed5","ios":"levelo://app?vid=1da0eeca-6e59-40b8-a976-b9e38a336ed5"},"vehicle_type_id":"4","last_reported":1747073659,"current_range_meters":8000,"station_id":"ce4bhhh2rcd13ifvqfk0","pricing_plan_id":"cebpf4jnsgd1na2vs0mg"},{"bike_id":"fb81b49f-e2db-41a6-bb50-8e9459c1d7ab","system_id":"levelo_inurba_marseille","lat":43.2622,"lon":5.40445,"is_reserved":false,"is_disabled":false,"rental_uris":{"android":"levelo://app?vid=fb81b49f-e2db-41a6-bb50-8e9459c1d7ab","ios":"levelo://app?vid=fb81b49f-e2db-41a6-bb50-8e9459c1d7ab"},"vehicle_type_id":"4","last_reported":1747073659,"current_range_meters":8000,"station_id":"ce4bhmh2rcd13ifvqgmg","pricing_plan_id":"cebpf4jnsgd1na2vs0mg"},{"bike_id":"bdef21f8-fc90-4949-9c48-d78ba43a978e","system_id":"levelo_inurba_marseille","lat":43.28606,"lon":5.37069,"is_reserved":false,"is_disabled":false,"rental_uris":{"android":"levelo://app?vid=bdef21f8-fc90-4949-9c48-d78ba43a978e","ios":"levelo://app?vid=bdef21f8-fc90-4949-9c48-d78ba43a978e"},"vehicle_type_id":"4","last_reported":1747073659,"current_range_meters":8000,"station_id":"ce4bht12rcd13ifvqi60","pricing_plan_id":"cebpf4jnsgd1na2vs0mg"},{"bike_id":"4db0c718-9591-4c66-8edb-dc6022405be9","system_id":"levelo_inurba_marseille","lat":43.297913,"lon":5.393428,"is_reserved":false,"is_disabled":false,"rental_uris":{"android":"levelo://app?vid=4db0c718-9591-4c66-8edb-dc6022405be9","ios":"levelo://app?vid=4db0c718-9591-4c66-8edb-dc6022405be9"},"vehicle_type_id":"4","last_reported":1747073659,"current_range_meters":8000,"station_id":"chh1huq6cuj3fo74tm60","pricing_plan_id":"cebpf4jnsgd1na2vs0mg"},{"bike_id":"39680af5-5e6f-49d8-8b05-6a0a53b62e37","system_id":"levelo_inurba_marseille","lat":43.2294,"lon":5.35376,"is_reserved":false,"is_disabled":false,"rental_uris":{"android":"levelo://app?vid=39680af5-5e6f-49d8-8b05-6a0a53b62e37","ios":"levelo://app?vid=39680af5-5e6f-49d8-8b05-6a0a53b62e37"},"vehicle_type_id":"4","last_reported":1747073659,"current_range_meters":8000,"station_id":"cpo3532slgdg3j2ikp40","pricing_plan_id":"cebpf4jnsgd1na2vs0mg"},{"bike_id":"b236b14f-f65c-40cc-a156-7acad8a6c7ca","system_id":"levelo_inurba_marseille","lat":43.30418,"lon":5.39753,"is_reserved":false,"is_disabled":false,"rental_uris":{"android":"levelo://app?vid=b236b14f-f65c-40cc-a156-7acad8a6c7ca","ios":"levelo://app?vid=b236b14f-f65c-40cc-a156-7acad8a6c7ca"},"vehicle_type_id":"4","last_reported":1747073659,"current_range_meters":8400,"station_id":"ce4bh092rcd13ifvqd20","pricing_plan_id":"cebpf4jnsgd1na2vs0mg"},{"bike_id":"aa9a901d-2a7e-41ed-97e8-9ff553b5fe0f","system_id":"levelo_inurba_marseille","lat":43.30639,"lon":5.40088,"is_reserved":false,"is_disabled":false,"rental_uris":{"android":"levelo://app?vid=aa9a901d-2a7e-41ed-97e8-9ff553b5fe0f","ios":"levelo://app?vid=aa9a901d-2a7e-41ed-97e8-9ff553b5fe0f"},"vehicle_type_id":"4","last_reported":1747073659,"current_range_meters":8400,"station_id":"ce4bh112rcd13ifvqda0","pricing_plan_id":"cebpf4jnsgd1na2vs0mg"},{"bike_id":"66c821ef-14f6-4a0c-8e3f-36d80d814692","system_id":"levelo_inurba_marseille","lat":43.29174,"lon":5.35797,"is_reserved":false,"is_disabled":false,"rental_uris":{"android":"levelo://app?vid=66c821ef-14f6-4a0c-8e3f-36d80d814692","ios":"levelo://app?vid=66c821ef-14f6-4a0c-8e3f-36d80d814692"},"vehicle_type_id":"4","last_reported":1747073659,"current_range_meters":8400,"station_id":"ce4bhb12rcd13ifvqel0","pricing_plan_id":"cebpf4jnsgd1na2vs0mg"},{"bike_id":"858953ad-ba79-49ed-80c5-86ef14dbf593","system_id":"levelo_inurba_marseille","lat":43.28413,"lon":5.34995,"is_reserved":false,"is_disabled":false,"rental_uris":{"android":"levelo://app?vid=858953ad-ba79-49ed-80c5-86ef14dbf593","ios":"levelo://app?vid=858953ad-ba79-49ed-80c5-86ef14dbf593"},"vehicle_type_id":"4","last_reported":1747073659,"current_range_meters":8400,"station_id":"ce4bhbh2rcd13ifvqepg","pricing_plan_id":"cebpf4jnsgd1na2vs0mg"},{"bike_id":"949d568c-3a4b-48b4-8305-9cbf03e239a4","system_id":"levelo_inurba_marseille","lat":43.25583,"lon":5.38233,"is_reserved":false,"is_disabled":false,"rental_uris":{"android":"levelo://app?vid=949d568c-3a4b-48b4-8305-9cbf03e239a4","ios":"levelo://app?vid=949d568c-3a4b-48b4-8305-9cbf03e239a4"},"vehicle_type_id":"4","last_reported":1747073659,"current_range_meters":8400,"station_id":"ce4bhih2rcd13ifvqfs0","pricing_plan_id":"cebpf4jnsgd1na2vs0mg"},{"bike_id":"5cb13f10-276f-4306-abd4-5aa4bc8113aa","system_id":"levelo_inurba_marseille","lat":43.25114,"lon":5.40324,"is_reserved":false,"is_disabled":false,"rental_uris":{"android":"levelo://app?vid=5cb13f10-276f-4306-abd4-5aa4bc8113aa","ios":"levelo://app?vid=5cb13f10-276f-4306-abd4-5aa4bc8113aa"},"vehicle_type_id":"4","last_reported":1747073659,"current_range_meters":8400,"station_id":"ce4bhlh2rcd13ifvqgig","pricing_plan_id":"cebpf4jnsgd1na2vs0mg"},{"bike_id":"4193b3ff-7911-46cf-aafe-21c4ebe7fd24","system_id":"levelo_inurba_marseille","lat":43.231843,"lon":5.399849,"is_reserved":false,"is_disabled":false,"rental_uris":{"android":"levelo://app?vid=4193b3ff-7911-46cf-aafe-21c4ebe7fd24","ios":"levelo://app?vid=4193b3ff-7911-46cf-aafe-21c4ebe7fd24"},"vehicle_type_id":"4","last_reported":1747073659,"current_range_meters":8400,"station_id":"ce4bhn12rcd13ifvqgqg","pricing_plan_id":"cebpf4jnsgd1na2vs0mg"},{"bike_id":"8cad80b9-40f1-4238-b3c2-e7e97d51aeba","system_id":"levelo_inurba_marseille","lat":43.32374,"lon":5.38875,"is_reserved":false,"is_disabled":false,"rental_uris":{"android":"levelo://app?vid=8cad80b9-40f1-4238-b3c2-e7e97d51aeba","ios":"levelo://app?vid=8cad80b9-40f1-4238-b3c2-e7e97d51aeba"},"vehicle_type_id":"4","last_reported":1747073659,"current_range_meters":8400,"station_id":"ce4bhqp2rcd13ifvqhog","pricing_plan_id":"cebpf4jnsgd1na2vs0mg"},{"bike_id":"f78c7277-5a2d-4d73-b79d-de53660175c4","system_id":"levelo_inurba_marseille","lat":43.28105,"lon":5.37845,"is_reserved":false,"is_disabled":false,"rental_uris":{"android":"levelo://app?vid=f78c7277-5a2d-4d73-b79d-de53660175c4","ios":"levelo://app?vid=f78c7277-5a2d-4d73-b79d-de53660175c4"},"vehicle_type_id":"4","last_reported":1747073659,"current_range_meters":8800,"station_id":"ce4bha12rcd13ifvqee0","pricing_plan_id":"cebpf4jnsgd1na2vs0mg"},{"bike_id":"4dbf90db-02b6-4ba4-bbf8-1306397bf18b","system_id":"levelo_inurba_marseille","lat":43.24387,"lon":5.37057,"is_reserved":false,"is_disabled":false,"rental_uris":{"android":"levelo://app?vid=4dbf90db-02b6-4ba4-bbf8-1306397bf18b","ios":"levelo://app?vid=4dbf90db-02b6-4ba4-bbf8-1306397bf18b"},"vehicle_type_id":"4","last_reported":1747073659,"current_range_meters":8800,"station_id":"ce4bhhh2rcd13ifvqfk0","pricing_plan_id":"cebpf4jnsgd1na2vs0mg"},{"bike_id":"de4a530f-3b17-41b9-bd98-d22e64d46bdc","system_id":"levelo_inurba_marseille","lat":43.32114,"lon":5.36786,"is_reserved":false,"is_disabled":false,"rental_uris":{"android":"levelo://app?vid=de4a530f-3b17-41b9-bd98-d22e64d46bdc","ios":"levelo://app?vid=de4a530f-3b17-41b9-bd98-d22e64d46bdc"},"vehicle_type_id":"4","last_reported":1747073659,"current_range_meters":8800,"station_id":"ce4bhrh2rcd13ifvqhug","pricing_plan_id":"cebpf4jnsgd1na2vs0mg"},{"bike_id":"529a868f-ad07-477e-9ed3-ce3f84e44e3e","system_id":"levelo_inurba_marseille","lat":43.31592,"lon":5.3889,"is_reserved":false,"is_disabled":false,"rental_uris":{"android":"levelo://app?vid=529a868f-ad07-477e-9ed3-ce3f84e44e3e","ios":"levelo://app?vid=529a868f-ad07-477e-9ed3-ce3f84e44e3e"},"vehicle_type_id":"4","last_reported":1747073659,"current_range_meters":9200,"station_id":"","pricing_plan_id":"cebpf4jnsgd1na2vs0mg"},{"bike_id":"3be9a70c-edb0-4504-9fb1-123ebcc89139","system_id":"levelo_inurba_marseille","lat":43.29,"lon":5.35619,"is_reserved":false,"is_disabled":false,"rental_uris":{"android":"levelo://app?vid=3be9a70c-edb0-4504-9fb1-123ebcc89139","ios":"levelo://app?vid=3be9a70c-edb0-4504-9fb1-123ebcc89139"},"vehicle_type_id":"4","last_reported":1747073659,"current_range_meters":9200,"station_id":"ce4bhb92rcd13ifvqen0","pricing_plan_id":"cebpf4jnsgd1na2vs0mg"},{"bike_id":"c39ffec0-bf54-4b94-892c-11b3ef277137","system_id":"levelo_inurba_marseille","lat":43.23192,"lon":5.39971,"is_reserved":false,"is_disabled":false,"rental_uris":{"android":"levelo://app?vid=c39ffec0-bf54-4b94-892c-11b3ef277137","ios":"levelo://app?vid=c39ffec0-bf54-4b94-892c-11b3ef277137"},"vehicle_type_id":"4","last_reported":1747073659,"current_range_meters":9200,"station_id":"ce4bhn12rcd13ifvqgqg","pricing_plan_id":"cebpf4jnsgd1na2vs0mg"},{"bike_id":"e0a37378-cf02-46bf-85b9-78090a9e4d3a","system_id":"levelo_inurba_marseille","lat":43.29296,"lon":5.374599,"is_reserved":false,"is_disabled":false,"rental_uris":{"android":"levelo://app?vid=e0a37378-cf02-46bf-85b9-78090a9e4d3a","ios":"levelo://app?vid=e0a37378-cf02-46bf-85b9-78090a9e4d3a"},"vehicle_type_id":"4","last_reported":1747073659,"current_range_meters":9600,"station_id":"ce4bgi12rcd13ifvqb70","pricing_plan_id":"cebpf4jnsgd1na2vs0mg"},{"bike_id":"cdb582d4-026f-4c94-abbb-a3b4013f07dd","system_id":"levelo_inurba_marseille","lat":43.30211,"lon":5.39469,"is_reserved":false,"is_disabled":false,"rental_uris":{"android":"levelo://app?vid=cdb582d4-026f-4c94-abbb-a3b4013f07dd","ios":"levelo://app?vid=cdb582d4-026f-4c94-abbb-a3b4013f07dd"},"vehicle_type_id":"4","last_reported":1747073659,"current_range_meters":9600,"station_id":"ce4bh0p2rcd13ifvqd70","pricing_plan_id":"cebpf4jnsgd1na2vs0mg"},{"bike_id":"cb5e49de-7d1e-4ad0-aec2-ac0559145703","system_id":"levelo_inurba_marseille","lat":43.28392,"lon":5.35705,"is_reserved":false,"is_disabled":false,"rental_uris":{"android":"levelo://app?vid=cb5e49de-7d1e-4ad0-aec2-ac0559145703","ios":"levelo://app?vid=cb5e49de-7d1e-4ad0-aec2-ac0559145703"},"vehicle_type_id":"4","last_reported":1747073659,"current_range_meters":9600,"station_id":"ce4bhah2rcd13ifvqei0","pricing_plan_id":"cebpf4jnsgd1na2vs0mg"},{"bike_id":"cf7bf50a-9787-4df9-9279-dc78aee23686","system_id":"levelo_inurba_marseille","lat":43.3171,"lon":5.4371,"is_reserved":false,"is_disabled":false,"rental_uris":{"android":"levelo://app?vid=cf7bf50a-9787-4df9-9279-dc78aee23686","ios":"levelo://app?vid=cf7bf50a-9787-4df9-9279-dc78aee23686"},"vehicle_type_id":"4","last_reported":1747073659,"current_range_meters":9600,"station_id":"ce4bhp92rcd13ifvqhcg","pricing_plan_id":"cebpf4jnsgd1na2vs0mg"},{"bike_id":"b17dafb7-358d-4406-ba39-62c8f6eab219","system_id":"levelo_inurba_marseille","lat":43.28607,"lon":5.37065,"is_reserved":false,"is_disabled":false,"rental_uris":{"android":"levelo://app?vid=b17dafb7-358d-4406-ba39-62c8f6eab219","ios":"levelo://app?vid=b17dafb7-358d-4406-ba39-62c8f6eab219"},"vehicle_type_id":"4","last_reported":1747073659,"current_range_meters":9600,"station_id":"ce4bht12rcd13ifvqi60","pricing_plan_id":"cebpf4jnsgd1na2vs0mg"},{"bike_id":"71dcef97-5ca8-4f84-8ca3-ae96d0a35658","system_id":"levelo_inurba_marseille","lat":43.28739,"lon":5.37935,"is_reserved":false,"is_disabled":false,"rental_uris":{"android":"levelo://app?vid=71dcef97-5ca8-4f84-8ca3-ae96d0a35658","ios":"levelo://app?vid=71dcef97-5ca8-4f84-8ca3-ae96d0a35658"},"vehicle_type_id":"4","last_reported":1747073659,"current_range_meters":10000,"station_id":"ce4bh9p2rcd13ifvqec0","pricing_plan_id":"cebpf4jnsgd1na2vs0mg"},{"bike_id":"c36d9358-0b02-4eac-92dc-5f498d83b458","system_id":"levelo_inurba_marseille","lat":43.28042,"lon":5.36955,"is_reserved":false,"is_disabled":false,"rental_uris":{"android":"levelo://app?vid=c36d9358-0b02-4eac-92dc-5f498d83b458","ios":"levelo://app?vid=c36d9358-0b02-4eac-92dc-5f498d83b458"},"vehicle_type_id":"4","last_reported":1747073659,"current_range_meters":10000,"station_id":"ce4bha12rcd13ifvqef0","pricing_plan_id":"cebpf4jnsgd1na2vs0mg"},{"bike_id":"ae832c73-b524-49ae-8488-bd4723d91399","system_id":"levelo_inurba_marseille","lat":43.26507,"lon":5.39533,"is_reserved":false,"is_disabled":false,"rental_uris":{"android":"levelo://app?vid=ae832c73-b524-49ae-8488-bd4723d91399","ios":"levelo://app?vid=ae832c73-b524-49ae-8488-bd4723d91399"},"vehicle_type_id":"4","last_reported":1747073659,"current_range_meters":10000,"station_id":"ce4bhi12rcd13ifvqfq0","pricing_plan_id":"cebpf4jnsgd1na2vs0mg"},{"bike_id":"2fff9ad7-4815-4d6d-8c8d-468aafe1f8e7","system_id":"levelo_inurba_marseille","lat":43.28434,"lon":5.39211,"is_reserved":false,"is_disabled":false,"rental_uris":{"android":"levelo://app?vid=2fff9ad7-4815-4d6d-8c8d-468aafe1f8e7","ios":"levelo://app?vid=2fff9ad7-4815-4d6d-8c8d-468aafe1f8e7"},"vehicle_type_id":"4","last_reported":1747073659,"current_range_meters":10000,"station_id":"ce4bhoh2rcd13ifvqh5g","pricing_plan_id":"cebpf4jnsgd1na2vs0mg"},{"bike_id":"2ee4d910-0ee1-4bc5-86c8-c77afad12b4f","system_id":"levelo_inurba_marseille","lat":43.32106,"lon":5.36782,"is_reserved":false,"is_disabled":false,"rental_uris":{"android":"levelo://app?vid=2ee4d910-0ee1-4bc5-86c8-c77afad12b4f","ios":"levelo://app?vid=2ee4d910-0ee1-4bc5-86c8-c77afad12b4f"},"vehicle_type_id":"4","last_reported":1747073659,"current_range_meters":10000,"station_id":"ce4bhrh2rcd13ifvqhug","pricing_plan_id":"cebpf4jnsgd1na2vs0mg"},{"bike_id":"a540e8f8-29dd-4bca-a243-a8f68eaa725a","system_id":"levelo_inurba_marseille","lat":43.28348,"lon":5.38112,"is_reserved":false,"is_disabled":false,"rental_uris":{"android":"levelo://app?vid=a540e8f8-29dd-4bca-a243-a8f68eaa725a","ios":"levelo://app?vid=a540e8f8-29dd-4bca-a243-a8f68eaa725a"},"vehicle_type_id":"4","last_reported":1747073659,"current_range_meters":10800,"station_id":"ce4bh412rcd13ifvqdr0","pricing_plan_id":"cebpf4jnsgd1na2vs0mg"},{"bike_id":"520f7c34-2dae-45f0-822d-f77db022ad72","system_id":"levelo_inurba_marseille","lat":43.28609,"lon":5.37067,"is_reserved":false,"is_disabled":false,"rental_uris":{"android":"levelo://app?vid=520f7c34-2dae-45f0-822d-f77db022ad72","ios":"levelo://app?vid=520f7c34-2dae-45f0-822d-f77db022ad72"},"vehicle_type_id":"4","last_reported":1747073659,"current_range_meters":10800,"station_id":"ce4bht12rcd13ifvqi60","pricing_plan_id":"cebpf4jnsgd1na2vs0mg"},{"bike_id":"14974396-773a-4225-b2c9-f2fca04895a5","system_id":"levelo_inurba_marseille","lat":43.28462,"lon":5.35872,"is_reserved":false,"is_disabled":false,"rental_uris":{"android":"levelo://app?vid=14974396-773a-4225-b2c9-f2fca04895a5","ios":"levelo://app?vid=14974396-773a-4225-b2c9-f2fca04895a5"},"vehicle_type_id":"4","last_reported":1747073659,"current_range_meters":11200,"station_id":"ce4bhah2rcd13ifvqei0","pricing_plan_id":"cebpf4jnsgd1na2vs0mg"},{"bike_id":"96d556d4-b7d8-4c65-a386-61709550a2f7","system_id":"levelo_inurba_marseille","lat":43.28615,"lon":5.35106,"is_reserved":false,"is_disabled":false,"rental_uris":{"android":"levelo://app?vid=96d556d4-b7d8-4c65-a386-61709550a2f7","ios":"levelo://app?vid=96d556d4-b7d8-4c65-a386-61709550a2f7"},"vehicle_type_id":"4","last_reported":1747073659,"current_range_meters":11200,"station_id":"ce4bhch2rcd13ifvqeug","pricing_plan_id":"cebpf4jnsgd1na2vs0mg"},{"bike_id":"71a05a9f-4fc6-4e86-bce3-828b69e800c0","system_id":"levelo_inurba_marseille","lat":43.28441,"lon":5.39207,"is_reserved":false,"is_disabled":false,"rental_uris":{"android":"levelo://app?vid=71a05a9f-4fc6-4e86-bce3-828b69e800c0","ios":"levelo://app?vid=71a05a9f-4fc6-4e86-bce3-828b69e800c0"},"vehicle_type_id":"4","last_reported":1747073659,"current_range_meters":11200,"station_id":"ce4bhoh2rcd13ifvqh5g","pricing_plan_id":"cebpf4jnsgd1na2vs0mg"},{"bike_id":"ccc7ae41-f7d9-4638-9018-d2b136547b67","system_id":"levelo_inurba_marseille","lat":43.33026,"lon":5.39037,"is_reserved":false,"is_disabled":false,"rental_uris":{"android":"levelo://app?vid=ccc7ae41-f7d9-4638-9018-d2b136547b67","ios":"levelo://app?vid=ccc7ae41-f7d9-4638-9018-d2b136547b67"},"vehicle_type_id":"4","last_reported":1747073659,"current_range_meters":11200,"station_id":"ce4bhr92rcd13ifvqhrg","pricing_plan_id":"cebpf4jnsgd1na2vs0mg"},{"bike_id":"e871eb6d-2558-4ae8-b874-5787eb923450","system_id":"levelo_inurba_marseille","lat":43.31166,"lon":5.38712,"is_reserved":false,"is_disabled":false,"rental_uris":{"android":"levelo://app?vid=e871eb6d-2558-4ae8-b874-5787eb923450","ios":"levelo://app?vid=e871eb6d-2558-4ae8-b874-5787eb923450"},"vehicle_type_id":"4","last_reported":1747073659,"current_range_meters":11600,"station_id":"ce4bgv12rcd13ifvqcp0","pricing_plan_id":"cebpf4jnsgd1na2vs0mg"},{"bike_id":"a5113190-7cee-4402-a567-48cf5d155348","system_id":"levelo_inurba_marseille","lat":43.28482,"lon":5.38553,"is_reserved":false,"is_disabled":false,"rental_uris":{"android":"levelo://app?vid=a5113190-7cee-4402-a567-48cf5d155348","ios":"levelo://app?vid=a5113190-7cee-4402-a567-48cf5d155348"},"vehicle_type_id":"4","last_reported":1747073659,"current_range_meters":11600,"station_id":"ce4bh8p2rcd13ifvqeb0","pricing_plan_id":"cebpf4jnsgd1na2vs0mg"},{"bike_id":"09667552-604c-472f-b05c-2be0e1fd2bf4","system_id":"levelo_inurba_marseille","lat":43.28036,"lon":5.36942,"is_reserved":false,"is_disabled":false,"rental_uris":{"android":"levelo://app?vid=09667552-604c-472f-b05c-2be0e1fd2bf4","ios":"levelo://app?vid=09667552-604c-472f-b05c-2be0e1fd2bf4"},"vehicle_type_id":"4","last_reported":1747073659,"current_range_meters":11600,"station_id":"ce4bha12rcd13ifvqef0","pricing_plan_id":"cebpf4jnsgd1na2vs0mg"},{"bike_id":"38f40c67-13e3-4793-95c4-fc7879612a2e","system_id":"levelo_inurba_marseille","lat":43.28269,"lon":5.35064,"is_reserved":false,"is_disabled":false,"rental_uris":{"android":"levelo://app?vid=38f40c67-13e3-4793-95c4-fc7879612a2e","ios":"levelo://app?vid=38f40c67-13e3-4793-95c4-fc7879612a2e"},"vehicle_type_id":"4","last_reported":1747073659,"current_range_meters":11600,"station_id":"ce4bhbp2rcd13ifvqerg","pricing_plan_id":"cebpf4jnsgd1na2vs0mg"},{"bike_id":"41da10f9-c4df-4a4d-81d7-007f46c00b73","system_id":"levelo_inurba_marseille","lat":43.23188,"lon":5.39976,"is_reserved":false,"is_disabled":false,"rental_uris":{"android":"levelo://app?vid=41da10f9-c4df-4a4d-81d7-007f46c00b73","ios":"levelo://app?vid=41da10f9-c4df-4a4d-81d7-007f46c00b73"},"vehicle_type_id":"4","last_reported":1747073659,"current_range_meters":11600,"station_id":"ce4bhn12rcd13ifvqgqg","pricing_plan_id":"cebpf4jnsgd1na2vs0mg"},{"bike_id":"ed3fff22-f120-41ec-80ac-a8a2d51d248b","system_id":"levelo_inurba_marseille","lat":43.28355,"lon":5.38101,"is_reserved":false,"is_disabled":false,"rental_uris":{"android":"levelo://app?vid=ed3fff22-f120-41ec-80ac-a8a2d51d248b","ios":"levelo://app?vid=ed3fff22-f120-41ec-80ac-a8a2d51d248b"},"vehicle_type_id":"4","last_reported":1747073659,"current_range_meters":12000,"station_id":"ce4bh412rcd13ifvqdr0","pricing_plan_id":"cebpf4jnsgd1na2vs0mg"},{"bike_id":"2426c398-e9ff-4bc6-af2e-6b6e8459674c","system_id":"levelo_inurba_marseille","lat":43.284215,"lon":5.349907,"is_reserved":false,"is_disabled":false,"rental_uris":{"android":"levelo://app?vid=2426c398-e9ff-4bc6-af2e-6b6e8459674c","ios":"levelo://app?vid=2426c398-e9ff-4bc6-af2e-6b6e8459674c"},"vehicle_type_id":"4","last_reported":1747073659,"current_range_meters":12000,"station_id":"ce4bhbh2rcd13ifvqepg","pricing_plan_id":"cebpf4jnsgd1na2vs0mg"},{"bike_id":"5ad10f0c-1842-4f0c-a6de-42f46d3c34c2","system_id":"levelo_inurba_marseille","lat":43.28615,"lon":5.35108,"is_reserved":false,"is_disabled":false,"rental_uris":{"android":"levelo://app?vid=5ad10f0c-1842-4f0c-a6de-42f46d3c34c2","ios":"levelo://app?vid=5ad10f0c-1842-4f0c-a6de-42f46d3c34c2"},"vehicle_type_id":"4","last_reported":1747073659,"current_range_meters":12000,"station_id":"ce4bhch2rcd13ifvqeug","pricing_plan_id":"cebpf4jnsgd1na2vs0mg"},{"bike_id":"f56d3504-b03c-47f5-af59-870c458dfc1c","system_id":"levelo_inurba_marseille","lat":43.26196,"lon":5.37932,"is_reserved":false,"is_disabled":false,"rental_uris":{"android":"levelo://app?vid=f56d3504-b03c-47f5-af59-870c458dfc1c","ios":"levelo://app?vid=f56d3504-b03c-47f5-af59-870c458dfc1c"},"vehicle_type_id":"4","last_reported":1747073659,"current_range_meters":12000,"station_id":"ce4bhjp2rcd13ifvqg90","pricing_plan_id":"cebpf4jnsgd1na2vs0mg"},{"bike_id":"94a56d00-e51a-49fe-8515-81faf65d104f","system_id":"levelo_inurba_marseille","lat":43.28074,"lon":5.39638,"is_reserved":false,"is_disabled":false,"rental_uris":{"android":"levelo://app?vid=94a56d00-e51a-49fe-8515-81faf65d104f","ios":"levelo://app?vid=94a56d00-e51a-49fe-8515-81faf65d104f"},"vehicle_type_id":"4","last_reported":1747073659,"current_range_meters":12000,"station_id":"ce4bho12rcd13ifvqh2g","pricing_plan_id":"cebpf4jnsgd1na2vs0mg"},{"bike_id":"942af74c-4c59-43c4-ae88-9b86f4c6a98d","system_id":"levelo_inurba_marseille","lat":43.2861,"lon":5.37057,"is_reserved":false,"is_disabled":false,"rental_uris":{"android":"levelo://app?vid=942af74c-4c59-43c4-ae88-9b86f4c6a98d","ios":"levelo://app?vid=942af74c-4c59-43c4-ae88-9b86f4c6a98d"},"vehicle_type_id":"4","last_reported":1747073659,"current_range_meters":12000,"station_id":"ce4bht12rcd13ifvqi60","pricing_plan_id":"cebpf4jnsgd1na2vs0mg"},{"bike_id":"4ab0f769-9e93-40fd-8b7a-5ef1943991cf","system_id":"levelo_inurba_marseille","lat":43.28149,"lon":5.42633,"is_reserved":false,"is_disabled":false,"rental_uris":{"android":"levelo://app?vid=4ab0f769-9e93-40fd-8b7a-5ef1943991cf","ios":"levelo://app?vid=4ab0f769-9e93-40fd-8b7a-5ef1943991cf"},"vehicle_type_id":"4","last_reported":1747073659,"current_range_meters":12800,"station_id":"ce4bhnh2rcd13ifvqgug","pricing_plan_id":"cebpf4jnsgd1na2vs0mg"},{"bike_id":"f3f30ef5-78ef-4805-8fb2-cbd995947f93","system_id":"levelo_inurba_marseille","lat":43.281498,"lon":5.426483,"is_reserved":false,"is_disabled":false,"rental_uris":{"android":"levelo://app?vid=f3f30ef5-78ef-4805-8fb2-cbd995947f93","ios":"levelo://app?vid=f3f30ef5-78ef-4805-8fb2-cbd995947f93"},"vehicle_type_id":"4","last_reported":1747073659,"current_range_meters":12800,"station_id":"ce4bhnh2rcd13ifvqgug","pricing_plan_id":"cebpf4jnsgd1na2vs0mg"},{"bike_id":"09845d8e-115d-4fe8-bbbf-5f60b06c5c0a","system_id":"levelo_inurba_marseille","lat":43.27997,"lon":5.40011,"is_reserved":false,"is_disabled":false,"rental_uris":{"android":"levelo://app?vid=09845d8e-115d-4fe8-bbbf-5f60b06c5c0a","ios":"levelo://app?vid=09845d8e-115d-4fe8-bbbf-5f60b06c5c0a"},"vehicle_type_id":"4","last_reported":1747073659,"current_range_meters":12800,"station_id":"ce4bho92rcd13ifvqh4g","pricing_plan_id":"cebpf4jnsgd1na2vs0mg"},{"bike_id":"0e89a721-196d-4572-b905-e39e1dafff7a","system_id":"levelo_inurba_marseille","lat":43.32111,"lon":5.36769,"is_reserved":false,"is_disabled":false,"rental_uris":{"android":"levelo://app?vid=0e89a721-196d-4572-b905-e39e1dafff7a","ios":"levelo://app?vid=0e89a721-196d-4572-b905-e39e1dafff7a"},"vehicle_type_id":"4","last_reported":1747073659,"current_range_meters":12800,"station_id":"ce4bhrh2rcd13ifvqhug","pricing_plan_id":"cebpf4jnsgd1na2vs0mg"},{"bike_id":"89c550d1-b31b-49dc-bb41-cd52ba1ad9f2","system_id":"levelo_inurba_marseille","lat":43.241657,"lon":5.364209,"is_reserved":false,"is_disabled":false,"rental_uris":{"android":"levelo://app?vid=89c550d1-b31b-49dc-bb41-cd52ba1ad9f2","ios":"levelo://app?vid=89c550d1-b31b-49dc-bb41-cd52ba1ad9f2"},"vehicle_type_id":"4","last_reported":1747073659,"current_range_meters":12800,"station_id":"cpo36qri1sfpv3e86is0","pricing_plan_id":"cebpf4jnsgd1na2vs0mg"},{"bike_id":"2a8d6c84-f97c-47ac-97e8-b5252d886c6b","system_id":"levelo_inurba_marseille","lat":43.30634,"lon":5.40081,"is_reserved":false,"is_disabled":false,"rental_uris":{"android":"levelo://app?vid=2a8d6c84-f97c-47ac-97e8-b5252d886c6b","ios":"levelo://app?vid=2a8d6c84-f97c-47ac-97e8-b5252d886c6b"},"vehicle_type_id":"4","last_reported":1747073659,"current_range_meters":13600,"station_id":"ce4bh112rcd13ifvqda0","pricing_plan_id":"cebpf4jnsgd1na2vs0mg"},{"bike_id":"de95d53c-a8d8-42e2-bf5c-cb50d31548c5","system_id":"levelo_inurba_marseille","lat":43.28105,"lon":5.3784,"is_reserved":false,"is_disabled":false,"rental_uris":{"android":"levelo://app?vid=de95d53c-a8d8-42e2-bf5c-cb50d31548c5","ios":"levelo://app?vid=de95d53c-a8d8-42e2-bf5c-cb50d31548c5"},"vehicle_type_id":"4","last_reported":1747073659,"current_range_meters":13600,"station_id":"ce4bha12rcd13ifvqee0","pricing_plan_id":"cebpf4jnsgd1na2vs0mg"},{"bike_id":"c2b2d3c5-e5f6-41b1-b5ba-61c3aa197436","system_id":"levelo_inurba_marseille","lat":43.229297,"lon":5.35373,"is_reserved":false,"is_disabled":false,"rental_uris":{"android":"levelo://app?vid=c2b2d3c5-e5f6-41b1-b5ba-61c3aa197436","ios":"levelo://app?vid=c2b2d3c5-e5f6-41b1-b5ba-61c3aa197436"},"vehicle_type_id":"4","last_reported":1747073659,"current_range_meters":13600,"station_id":"cpo3532slgdg3j2ikp40","pricing_plan_id":"cebpf4jnsgd1na2vs0mg"},{"bike_id":"0a3be8f0-e72d-4619-9f27-ddec73517034","system_id":"levelo_inurba_marseille","lat":43.31326,"lon":5.39695,"is_reserved":false,"is_disabled":false,"rental_uris":{"android":"levelo://app?vid=0a3be8f0-e72d-4619-9f27-ddec73517034","ios":"levelo://app?vid=0a3be8f0-e72d-4619-9f27-ddec73517034"},"vehicle_type_id":"4","last_reported":1747073659,"current_range_meters":14000,"station_id":"ce4bgvp2rcd13ifvqcu0","pricing_plan_id":"cebpf4jnsgd1na2vs0mg"},{"bike_id":"e20c0ab0-90ea-460e-bcc0-e5fa98547380","system_id":"levelo_inurba_marseille","lat":43.31706,"lon":5.43707,"is_reserved":false,"is_disabled":false,"rental_uris":{"android":"levelo://app?vid=e20c0ab0-90ea-460e-bcc0-e5fa98547380","ios":"levelo://app?vid=e20c0ab0-90ea-460e-bcc0-e5fa98547380"},"vehicle_type_id":"4","last_reported":1747073659,"current_range_meters":14400,"station_id":"ce4bhp92rcd13ifvqhcg","pricing_plan_id":"cebpf4jnsgd1na2vs0mg"},{"bike_id":"7d4ff94c-3cc1-4489-bf49-823fa273f79e","system_id":"levelo_inurba_marseille","lat":43.284532,"lon":5.349735,"is_reserved":false,"is_disabled":false,"rental_uris":{"android":"levelo://app?vid=7d4ff94c-3cc1-4489-bf49-823fa273f79e","ios":"levelo://app?vid=7d4ff94c-3cc1-4489-bf49-823fa273f79e"},"vehicle_type_id":"4","last_reported":1747073659,"current_range_meters":14800,"station_id":"ce4bhbp2rcd13ifvqerg","pricing_plan_id":"cebpf4jnsgd1na2vs0mg"},{"bike_id":"9c116be9-de81-44dd-b14a-9c70c63b1d51","system_id":"levelo_inurba_marseille","lat":43.25104,"lon":5.40325,"is_reserved":false,"is_disabled":false,"rental_uris":{"android":"levelo://app?vid=9c116be9-de81-44dd-b14a-9c70c63b1d51","ios":"levelo://app?vid=9c116be9-de81-44dd-b14a-9c70c63b1d51"},"vehicle_type_id":"4","last_reported":1747073659,"current_range_meters":14800,"station_id":"ce4bhlh2rcd13ifvqgig","pricing_plan_id":"cebpf4jnsgd1na2vs0mg"},{"bike_id":"ffba7e07-a177-45fc-8052-5780e83be4cc","system_id":"levelo_inurba_marseille","lat":43.28418,"lon":5.37523,"is_reserved":false,"is_disabled":false,"rental_uris":{"android":"levelo://app?vid=ffba7e07-a177-45fc-8052-5780e83be4cc","ios":"levelo://app?vid=ffba7e07-a177-45fc-8052-5780e83be4cc"},"vehicle_type_id":"4","last_reported":1747073659,"current_range_meters":15200,"station_id":"ce4bh412rcd13ifvqds0","pricing_plan_id":"cebpf4jnsgd1na2vs0mg"},{"bike_id":"b0b19ceb-4747-4321-9edf-d6a6d8e3361c","system_id":"levelo_inurba_marseille","lat":43.28106,"lon":5.37842,"is_reserved":false,"is_disabled":false,"rental_uris":{"android":"levelo://app?vid=b0b19ceb-4747-4321-9edf-d6a6d8e3361c","ios":"levelo://app?vid=b0b19ceb-4747-4321-9edf-d6a6d8e3361c"},"vehicle_type_id":"4","last_reported":1747073659,"current_range_meters":15200,"station_id":"ce4bha12rcd13ifvqee0","pricing_plan_id":"cebpf4jnsgd1na2vs0mg"},{"bike_id":"92565a29-4ac7-40fc-9275-44b1191aa2b4","system_id":"levelo_inurba_marseille","lat":43.28129,"lon":5.44225,"is_reserved":false,"is_disabled":false,"rental_uris":{"android":"levelo://app?vid=92565a29-4ac7-40fc-9275-44b1191aa2b4","ios":"levelo://app?vid=92565a29-4ac7-40fc-9275-44b1191aa2b4"},"vehicle_type_id":"4","last_reported":1747073659,"current_range_meters":16000,"station_id":"","pricing_plan_id":"cebpf4jnsgd1na2vs0mg"},{"bike_id":"b1bbb46c-ac7f-4ff7-8117-28230c45cc69","system_id":"levelo_inurba_marseille","lat":43.3059,"lon":5.39364,"is_reserved":false,"is_disabled":false,"rental_uris":{"android":"levelo://app?vid=b1bbb46c-ac7f-4ff7-8117-28230c45cc69","ios":"levelo://app?vid=b1bbb46c-ac7f-4ff7-8117-28230c45cc69"},"vehicle_type_id":"4","last_reported":1747073659,"current_range_meters":16000,"station_id":"ce4bh0p2rcd13ifvqd80","pricing_plan_id":"cebpf4jnsgd1na2vs0mg"},{"bike_id":"8e95347d-b9f3-4e80-9ed5-cb2c6f13242c","system_id":"levelo_inurba_marseille","lat":43.29802,"lon":5.40407,"is_reserved":false,"is_disabled":false,"rental_uris":{"android":"levelo://app?vid=8e95347d-b9f3-4e80-9ed5-cb2c6f13242c","ios":"levelo://app?vid=8e95347d-b9f3-4e80-9ed5-cb2c6f13242c"},"vehicle_type_id":"4","last_reported":1747073659,"current_range_meters":16000,"station_id":"ce4bh112rcd13ifvqd90","pricing_plan_id":"cebpf4jnsgd1na2vs0mg"},{"bike_id":"000c2252-d60d-4b91-ba5f-00ffe8c20d8c","system_id":"levelo_inurba_marseille","lat":43.28669,"lon":5.38668,"is_reserved":false,"is_disabled":false,"rental_uris":{"android":"levelo://app?vid=000c2252-d60d-4b91-ba5f-00ffe8c20d8c","ios":"levelo://app?vid=000c2252-d60d-4b91-ba5f-00ffe8c20d8c"},"vehicle_type_id":"4","last_reported":1747073659,"current_range_meters":16000,"station_id":"ce4bh492rcd13ifvqdug","pricing_plan_id":"cebpf4jnsgd1na2vs0mg"},{"bike_id":"2f360fa9-5bf0-43a0-a9aa-9f84b5589295","system_id":"levelo_inurba_marseille","lat":43.28074,"lon":5.39659,"is_reserved":false,"is_disabled":false,"rental_uris":{"android":"levelo://app?vid=2f360fa9-5bf0-43a0-a9aa-9f84b5589295","ios":"levelo://app?vid=2f360fa9-5bf0-43a0-a9aa-9f84b5589295"},"vehicle_type_id":"4","last_reported":1747073659,"current_range_meters":16000,"station_id":"ce4bho12rcd13ifvqh2g","pricing_plan_id":"cebpf4jnsgd1na2vs0mg"},{"bike_id":"8f6efa6c-d47f-4e8e-a628-454887459c5e","system_id":"levelo_inurba_marseille","lat":43.28674,"lon":5.40005,"is_reserved":false,"is_disabled":false,"rental_uris":{"android":"levelo://app?vid=8f6efa6c-d47f-4e8e-a628-454887459c5e","ios":"levelo://app?vid=8f6efa6c-d47f-4e8e-a628-454887459c5e"},"vehicle_type_id":"4","last_reported":1747073659,"current_range_meters":16000,"station_id":"ce4bho92rcd13ifvqh3g","pricing_plan_id":"cebpf4jnsgd1na2vs0mg"},{"bike_id":"e6ad97f1-b73e-46fd-a80f-360ecb6587de","system_id":"levelo_inurba_marseille","lat":43.28015,"lon":5.40009,"is_reserved":false,"is_disabled":false,"rental_uris":{"android":"levelo://app?vid=e6ad97f1-b73e-46fd-a80f-360ecb6587de","ios":"levelo://app?vid=e6ad97f1-b73e-46fd-a80f-360ecb6587de"},"vehicle_type_id":"4","last_reported":1747073659,"current_range_meters":16000,"station_id":"ce4bho92rcd13ifvqh4g","pricing_plan_id":"cebpf4jnsgd1na2vs0mg"},{"bike_id":"e716c36d-0ebf-4712-875d-b4d1fdfbe716","system_id":"levelo_inurba_marseille","lat":43.31347,"lon":5.36702,"is_reserved":false,"is_disabled":false,"rental_uris":{"android":"levelo://app?vid=e716c36d-0ebf-4712-875d-b4d1fdfbe716","ios":"levelo://app?vid=e716c36d-0ebf-4712-875d-b4d1fdfbe716"},"vehicle_type_id":"4","last_reported":1747073659,"current_range_meters":16400,"station_id":"ce4bgr92rcd13ifvqc6g","pricing_plan_id":"cebpf4jnsgd1na2vs0mg"},{"bike_id":"f62276fb-848b-4df9-8fbb-0d5184364b8d","system_id":"levelo_inurba_marseille","lat":43.31173,"lon":5.38716,"is_reserved":false,"is_disabled":false,"rental_uris":{"android":"levelo://app?vid=f62276fb-848b-4df9-8fbb-0d5184364b8d","ios":"levelo://app?vid=f62276fb-848b-4df9-8fbb-0d5184364b8d"},"vehicle_type_id":"4","last_reported":1747073659,"current_range_meters":16400,"station_id":"ce4bgv12rcd13ifvqcp0","pricing_plan_id":"cebpf4jnsgd1na2vs0mg"},{"bike_id":"11d0e761-9181-4e2d-aaa9-1b130e56791e","system_id":"levelo_inurba_marseille","lat":43.28845,"lon":5.39312,"is_reserved":false,"is_disabled":false,"rental_uris":{"android":"levelo://app?vid=11d0e761-9181-4e2d-aaa9-1b130e56791e","ios":"levelo://app?vid=11d0e761-9181-4e2d-aaa9-1b130e56791e"},"vehicle_type_id":"4","last_reported":1747073659,"current_range_meters":16400,"station_id":"ce4bh2p2rcd13ifvqdi0","pricing_plan_id":"cebpf4jnsgd1na2vs0mg"},{"bike_id":"dd9a6dc4-ea33-4ad1-a005-584b45b67fc6","system_id":"levelo_inurba_marseille","lat":43.284,"lon":5.37519,"is_reserved":false,"is_disabled":false,"rental_uris":{"android":"levelo://app?vid=dd9a6dc4-ea33-4ad1-a005-584b45b67fc6","ios":"levelo://app?vid=dd9a6dc4-ea33-4ad1-a005-584b45b67fc6"},"vehicle_type_id":"4","last_reported":1747073659,"current_range_meters":16400,"station_id":"ce4bh412rcd13ifvqds0","pricing_plan_id":"cebpf4jnsgd1na2vs0mg"},{"bike_id":"c74774ea-5b27-4f1f-a03b-78e1f5388188","system_id":"levelo_inurba_marseille","lat":43.290313,"lon":5.386456,"is_reserved":false,"is_disabled":false,"rental_uris":{"android":"levelo://app?vid=c74774ea-5b27-4f1f-a03b-78e1f5388188","ios":"levelo://app?vid=c74774ea-5b27-4f1f-a03b-78e1f5388188"},"vehicle_type_id":"4","last_reported":1747073659,"current_range_meters":16400,"station_id":"ce4bh4p2rcd13ifvqe0g","pricing_plan_id":"cebpf4jnsgd1na2vs0mg"},{"bike_id":"106eb206-51bf-43cb-a6c5-ca9ab95c5e14","system_id":"levelo_inurba_marseille","lat":43.31712,"lon":5.43694,"is_reserved":false,"is_disabled":false,"rental_uris":{"android":"levelo://app?vid=106eb206-51bf-43cb-a6c5-ca9ab95c5e14","ios":"levelo://app?vid=106eb206-51bf-43cb-a6c5-ca9ab95c5e14"},"vehicle_type_id":"4","last_reported":1747073659,"current_range_meters":16400,"station_id":"ce4bhp92rcd13ifvqhcg","pricing_plan_id":"cebpf4jnsgd1na2vs0mg"},{"bike_id":"8f5e649e-51d4-4b6a-988d-ee8a50a10194","system_id":"levelo_inurba_marseille","lat":43.29522,"lon":5.39062,"is_reserved":false,"is_disabled":false,"rental_uris":{"android":"levelo://app?vid=8f5e649e-51d4-4b6a-988d-ee8a50a10194","ios":"levelo://app?vid=8f5e649e-51d4-4b6a-988d-ee8a50a10194"},"vehicle_type_id":"4","last_reported":1747073659,"current_range_meters":16800,"station_id":"ce4bh3p2rcd13ifvqdp0","pricing_plan_id":"cebpf4jnsgd1na2vs0mg"},{"bike_id":"a43e7f60-9ee5-440d-be16-0215cf310d19","system_id":"levelo_inurba_marseille","lat":43.29033,"lon":5.37575,"is_reserved":false,"is_disabled":false,"rental_uris":{"android":"levelo://app?vid=a43e7f60-9ee5-440d-be16-0215cf310d19","ios":"levelo://app?vid=a43e7f60-9ee5-440d-be16-0215cf310d19"},"vehicle_type_id":"4","last_reported":1747073659,"current_range_meters":16800,"station_id":"ce4bh692rcd13ifvqe90","pricing_plan_id":"cebpf4jnsgd1na2vs0mg"},{"bike_id":"2b02467a-5ffd-42c5-bd01-79712910f637","system_id":"levelo_inurba_marseille","lat":43.28154,"lon":5.42642,"is_reserved":false,"is_disabled":false,"rental_uris":{"android":"levelo://app?vid=2b02467a-5ffd-42c5-bd01-79712910f637","ios":"levelo://app?vid=2b02467a-5ffd-42c5-bd01-79712910f637"},"vehicle_type_id":"4","last_reported":1747073659,"current_range_meters":16800,"station_id":"ce4bhnh2rcd13ifvqgug","pricing_plan_id":"cebpf4jnsgd1na2vs0mg"},{"bike_id":"78a336b2-7d28-4a19-a82c-6806dcf329c6","system_id":"levelo_inurba_marseille","lat":43.286161,"lon":5.351092,"is_reserved":false,"is_disabled":false,"rental_uris":{"android":"levelo://app?vid=78a336b2-7d28-4a19-a82c-6806dcf329c6","ios":"levelo://app?vid=78a336b2-7d28-4a19-a82c-6806dcf329c6"},"vehicle_type_id":"4","last_reported":1747073659,"current_range_meters":17200,"station_id":"ce4bhch2rcd13ifvqeug","pricing_plan_id":"cebpf4jnsgd1na2vs0mg"},{"bike_id":"074545cc-39c8-4852-bc40-79cf812156a7","system_id":"levelo_inurba_marseille","lat":43.2815,"lon":5.42638,"is_reserved":false,"is_disabled":false,"rental_uris":{"android":"levelo://app?vid=074545cc-39c8-4852-bc40-79cf812156a7","ios":"levelo://app?vid=074545cc-39c8-4852-bc40-79cf812156a7"},"vehicle_type_id":"4","last_reported":1747073659,"current_range_meters":17200,"station_id":"ce4bhnh2rcd13ifvqgug","pricing_plan_id":"cebpf4jnsgd1na2vs0mg"},{"bike_id":"02e49da1-337b-4b85-8ea3-d59b8d4959bd","system_id":"levelo_inurba_marseille","lat":43.28002,"lon":5.40001,"is_reserved":false,"is_disabled":false,"rental_uris":{"android":"levelo://app?vid=02e49da1-337b-4b85-8ea3-d59b8d4959bd","ios":"levelo://app?vid=02e49da1-337b-4b85-8ea3-d59b8d4959bd"},"vehicle_type_id":"4","last_reported":1747073659,"current_range_meters":17200,"station_id":"ce4bho92rcd13ifvqh4g","pricing_plan_id":"cebpf4jnsgd1na2vs0mg"},{"bike_id":"47d1412a-baaa-4068-91c4-e734560a4da3","system_id":"levelo_inurba_marseille","lat":43.2799,"lon":5.40022,"is_reserved":false,"is_disabled":false,"rental_uris":{"android":"levelo://app?vid=47d1412a-baaa-4068-91c4-e734560a4da3","ios":"levelo://app?vid=47d1412a-baaa-4068-91c4-e734560a4da3"},"vehicle_type_id":"4","last_reported":1747073659,"current_range_meters":17200,"station_id":"ce4bho92rcd13ifvqh4g","pricing_plan_id":"cebpf4jnsgd1na2vs0mg"},{"bike_id":"d9337eae-c7ab-47e1-be08-1f719d217e4f","system_id":"levelo_inurba_marseille","lat":43.297965,"lon":5.40398,"is_reserved":false,"is_disabled":false,"rental_uris":{"android":"levelo://app?vid=d9337eae-c7ab-47e1-be08-1f719d217e4f","ios":"levelo://app?vid=d9337eae-c7ab-47e1-be08-1f719d217e4f"},"vehicle_type_id":"4","last_reported":1747073659,"current_range_meters":17600,"station_id":"ce4bh112rcd13ifvqd90","pricing_plan_id":"cebpf4jnsgd1na2vs0mg"},{"bike_id":"86689108-8b6c-425a-98ae-946b288cf2c2","system_id":"levelo_inurba_marseille","lat":43.28431,"lon":5.35932,"is_reserved":false,"is_disabled":false,"rental_uris":{"android":"levelo://app?vid=86689108-8b6c-425a-98ae-946b288cf2c2","ios":"levelo://app?vid=86689108-8b6c-425a-98ae-946b288cf2c2"},"vehicle_type_id":"4","last_reported":1747073659,"current_range_meters":17600,"station_id":"ce4bhah2rcd13ifvqei0","pricing_plan_id":"cebpf4jnsgd1na2vs0mg"},{"bike_id":"111998c6-70e8-4823-85aa-cbe0eb12546b","system_id":"levelo_inurba_marseille","lat":43.28416,"lon":5.34994,"is_reserved":false,"is_disabled":false,"rental_uris":{"android":"levelo://app?vid=111998c6-70e8-4823-85aa-cbe0eb12546b","ios":"levelo://app?vid=111998c6-70e8-4823-85aa-cbe0eb12546b"},"vehicle_type_id":"4","last_reported":1747073659,"current_range_meters":17600,"station_id":"ce4bhbh2rcd13ifvqepg","pricing_plan_id":"cebpf4jnsgd1na2vs0mg"},{"bike_id":"338fbc92-a219-4a91-b120-b30a6c702ad2","system_id":"levelo_inurba_marseille","lat":43.27055,"lon":5.4026,"is_reserved":false,"is_disabled":false,"rental_uris":{"android":"levelo://app?vid=338fbc92-a219-4a91-b120-b30a6c702ad2","ios":"levelo://app?vid=338fbc92-a219-4a91-b120-b30a6c702ad2"},"vehicle_type_id":"4","last_reported":1747073659,"current_range_meters":17600,"station_id":"ce4bhk92rcd13ifvqgc0","pricing_plan_id":"cebpf4jnsgd1na2vs0mg"},{"bike_id":"f09f24ed-e0a6-408c-962b-12a7c9678f67","system_id":"levelo_inurba_marseille","lat":43.25711,"lon":5.41117,"is_reserved":false,"is_disabled":false,"rental_uris":{"android":"levelo://app?vid=f09f24ed-e0a6-408c-962b-12a7c9678f67","ios":"levelo://app?vid=f09f24ed-e0a6-408c-962b-12a7c9678f67"},"vehicle_type_id":"4","last_reported":1747073659,"current_range_meters":17600,"station_id":"ce4bhkp2rcd13ifvqgd0","pricing_plan_id":"cebpf4jnsgd1na2vs0mg"},{"bike_id":"fb11fd6a-5fed-4f33-9bc3-fde63d37c35d","system_id":"levelo_inurba_marseille","lat":43.27996,"lon":5.40009,"is_reserved":false,"is_disabled":false,"rental_uris":{"android":"levelo://app?vid=fb11fd6a-5fed-4f33-9bc3-fde63d37c35d","ios":"levelo://app?vid=fb11fd6a-5fed-4f33-9bc3-fde63d37c35d"},"vehicle_type_id":"4","last_reported":1747073659,"current_range_meters":17600,"station_id":"ce4bho92rcd13ifvqh4g","pricing_plan_id":"cebpf4jnsgd1na2vs0mg"},{"bike_id":"691ad911-b1d0-47fc-a77d-e5e3db08d382","system_id":"levelo_inurba_marseille","lat":43.21726,"lon":5.34617,"is_reserved":false,"is_disabled":false,"rental_uris":{"android":"levelo://app?vid=691ad911-b1d0-47fc-a77d-e5e3db08d382","ios":"levelo://app?vid=691ad911-b1d0-47fc-a77d-e5e3db08d382"},"vehicle_type_id":"4","last_reported":1747073659,"current_range_meters":17600,"station_id":"st_cvj6r9ubvosntc0bgbag","pricing_plan_id":"cebpf4jnsgd1na2vs0mg"},{"bike_id":"8350d676-db30-438c-8a91-21b6774b844b","system_id":"levelo_inurba_marseille","lat":43.296059,"lon":5.369237,"is_reserved":false,"is_disabled":false,"rental_uris":{"android":"levelo://app?vid=8350d676-db30-438c-8a91-21b6774b844b","ios":"levelo://app?vid=8350d676-db30-438c-8a91-21b6774b844b"},"vehicle_type_id":"4","last_reported":1747073659,"current_range_meters":18000,"station_id":"ce4bgph2rcd13ifvqc2g","pricing_plan_id":"cebpf4jnsgd1na2vs0mg"},{"bike_id":"0a520b42-35f8-46bf-b32b-64cd9bb0e22b","system_id":"levelo_inurba_marseille","lat":43.30621,"lon":5.39344,"is_reserved":false,"is_disabled":false,"rental_uris":{"android":"levelo://app?vid=0a520b42-35f8-46bf-b32b-64cd9bb0e22b","ios":"levelo://app?vid=0a520b42-35f8-46bf-b32b-64cd9bb0e22b"},"vehicle_type_id":"4","last_reported":1747073659,"current_range_meters":18000,"station_id":"ce4bh0p2rcd13ifvqd80","pricing_plan_id":"cebpf4jnsgd1na2vs0mg"},{"bike_id":"7701db23-af6f-4dc7-bd67-f1db74ee5d49","system_id":"levelo_inurba_marseille","lat":43.2827,"lon":5.35063,"is_reserved":false,"is_disabled":false,"rental_uris":{"android":"levelo://app?vid=7701db23-af6f-4dc7-bd67-f1db74ee5d49","ios":"levelo://app?vid=7701db23-af6f-4dc7-bd67-f1db74ee5d49"},"vehicle_type_id":"4","last_reported":1747073659,"current_range_meters":18000,"station_id":"ce4bhbp2rcd13ifvqerg","pricing_plan_id":"cebpf4jnsgd1na2vs0mg"},{"bike_id":"3ec115cc-2441-4e15-a356-7b19855e9178","system_id":"levelo_inurba_marseille","lat":43.28624,"lon":5.3511,"is_reserved":false,"is_disabled":false,"rental_uris":{"android":"levelo://app?vid=3ec115cc-2441-4e15-a356-7b19855e9178","ios":"levelo://app?vid=3ec115cc-2441-4e15-a356-7b19855e9178"},"vehicle_type_id":"4","last_reported":1747073659,"current_range_meters":18000,"station_id":"ce4bhch2rcd13ifvqeug","pricing_plan_id":"cebpf4jnsgd1na2vs0mg"},{"bike_id":"8f898ea4-0b70-46db-b495-a08fd22223a4","system_id":"levelo_inurba_marseille","lat":43.2293,"lon":5.35388,"is_reserved":false,"is_disabled":false,"rental_uris":{"android":"levelo://app?vid=8f898ea4-0b70-46db-b495-a08fd22223a4","ios":"levelo://app?vid=8f898ea4-0b70-46db-b495-a08fd22223a4"},"vehicle_type_id":"4","last_reported":1747073659,"current_range_meters":18000,"station_id":"cpo3532slgdg3j2ikp40","pricing_plan_id":"cebpf4jnsgd1na2vs0mg"},{"bike_id":"67fcc0e9-89f0-43e5-8fb2-7e58db7fa614","system_id":"levelo_inurba_marseille","lat":43.25818,"lon":5.39442,"is_reserved":false,"is_disabled":false,"rental_uris":{"android":"levelo://app?vid=67fcc0e9-89f0-43e5-8fb2-7e58db7fa614","ios":"levelo://app?vid=67fcc0e9-89f0-43e5-8fb2-7e58db7fa614"},"vehicle_type_id":"4","last_reported":1747073659,"current_range_meters":18800,"station_id":"ce4bhip2rcd13ifvqft0","pricing_plan_id":"cebpf4jnsgd1na2vs0mg"},{"bike_id":"0b3816f7-20f9-4122-9c74-bd0a4f3227eb","system_id":"levelo_inurba_marseille","lat":43.281537,"lon":5.426468,"is_reserved":false,"is_disabled":false,"rental_uris":{"android":"levelo://app?vid=0b3816f7-20f9-4122-9c74-bd0a4f3227eb","ios":"levelo://app?vid=0b3816f7-20f9-4122-9c74-bd0a4f3227eb"},"vehicle_type_id":"4","last_reported":1747073659,"current_range_meters":18800,"station_id":"ce4bhnh2rcd13ifvqgug","pricing_plan_id":"cebpf4jnsgd1na2vs0mg"},{"bike_id":"487ddcd3-6977-49be-84cb-d1c89a49dd82","system_id":"levelo_inurba_marseille","lat":43.28095,"lon":5.39641,"is_reserved":false,"is_disabled":false,"rental_uris":{"android":"levelo://app?vid=487ddcd3-6977-49be-84cb-d1c89a49dd82","ios":"levelo://app?vid=487ddcd3-6977-49be-84cb-d1c89a49dd82"},"vehicle_type_id":"4","last_reported":1747073659,"current_range_meters":18800,"station_id":"ce4bho12rcd13ifvqh2g","pricing_plan_id":"cebpf4jnsgd1na2vs0mg"},{"bike_id":"849551c5-240b-48cd-88b2-3e23f9d3b406","system_id":"levelo_inurba_marseille","lat":43.284093,"lon":5.375123,"is_reserved":false,"is_disabled":false,"rental_uris":{"android":"levelo://app?vid=849551c5-240b-48cd-88b2-3e23f9d3b406","ios":"levelo://app?vid=849551c5-240b-48cd-88b2-3e23f9d3b406"},"vehicle_type_id":"4","last_reported":1747073659,"current_range_meters":19200,"station_id":"ce4bh412rcd13ifvqds0","pricing_plan_id":"cebpf4jnsgd1na2vs0mg"},{"bike_id":"6751c3af-2785-42de-bc81-f466abd046af","system_id":"levelo_inurba_marseille","lat":43.28394,"lon":5.35005,"is_reserved":false,"is_disabled":false,"rental_uris":{"android":"levelo://app?vid=6751c3af-2785-42de-bc81-f466abd046af","ios":"levelo://app?vid=6751c3af-2785-42de-bc81-f466abd046af"},"vehicle_type_id":"4","last_reported":1747073659,"current_range_meters":19200,"station_id":"ce4bhbh2rcd13ifvqepg","pricing_plan_id":"cebpf4jnsgd1na2vs0mg"},{"bike_id":"18916864-de49-4baa-b6b1-e75e35bd231e","system_id":"levelo_inurba_marseille","lat":43.275675,"lon":5.384356,"is_reserved":false,"is_disabled":false,"rental_uris":{"android":"levelo://app?vid=18916864-de49-4baa-b6b1-e75e35bd231e","ios":"levelo://app?vid=18916864-de49-4baa-b6b1-e75e35bd231e"},"vehicle_type_id":"4","last_reported":1747073659,"current_range_meters":19200,"station_id":"ce4bhh92rcd13ifvqfi0","pricing_plan_id":"cebpf4jnsgd1na2vs0mg"},{"bike_id":"89bc804b-6a4f-4be5-a519-203cf29233b2","system_id":"levelo_inurba_marseille","lat":43.28159,"lon":5.42638,"is_reserved":false,"is_disabled":false,"rental_uris":{"android":"levelo://app?vid=89bc804b-6a4f-4be5-a519-203cf29233b2","ios":"levelo://app?vid=89bc804b-6a4f-4be5-a519-203cf29233b2"},"vehicle_type_id":"4","last_reported":1747073659,"current_range_meters":19200,"station_id":"ce4bhnh2rcd13ifvqgug","pricing_plan_id":"cebpf4jnsgd1na2vs0mg"},{"bike_id":"b446482a-7667-494e-966a-90dac0adfbe0","system_id":"levelo_inurba_marseille","lat":43.29259,"lon":5.40913,"is_reserved":false,"is_disabled":false,"rental_uris":{"android":"levelo://app?vid=b446482a-7667-494e-966a-90dac0adfbe0","ios":"levelo://app?vid=b446482a-7667-494e-966a-90dac0adfbe0"},"vehicle_type_id":"4","last_reported":1747073659,"current_range_meters":19600,"station_id":"ce4bh192rcd13ifvqdc0","pricing_plan_id":"cebpf4jnsgd1na2vs0mg"},{"bike_id":"1e76b10d-bb0d-4ba3-bc4e-41ce9c4e24f9","system_id":"levelo_inurba_marseille","lat":43.28858,"lon":5.35836,"is_reserved":false,"is_disabled":false,"rental_uris":{"android":"levelo://app?vid=1e76b10d-bb0d-4ba3-bc4e-41ce9c4e24f9","ios":"levelo://app?vid=1e76b10d-bb0d-4ba3-bc4e-41ce9c4e24f9"},"vehicle_type_id":"4","last_reported":1747073659,"current_range_meters":19600,"station_id":"ce4bhb12rcd13ifvqem0","pricing_plan_id":"cebpf4jnsgd1na2vs0mg"},{"bike_id":"8a11d058-a2a1-4ae4-bbcc-1853616c395d","system_id":"levelo_inurba_marseille","lat":43.27816,"lon":5.4072,"is_reserved":false,"is_disabled":false,"rental_uris":{"android":"levelo://app?vid=8a11d058-a2a1-4ae4-bbcc-1853616c395d","ios":"levelo://app?vid=8a11d058-a2a1-4ae4-bbcc-1853616c395d"},"vehicle_type_id":"4","last_reported":1747073659,"current_range_meters":19600,"station_id":"ce4bhnh2rcd13ifvqgtg","pricing_plan_id":"cebpf4jnsgd1na2vs0mg"},{"bike_id":"ae2670a2-585e-4081-a3e0-8ca36e005485","system_id":"levelo_inurba_marseille","lat":43.24068,"lon":5.37748,"is_reserved":false,"is_disabled":false,"rental_uris":{"android":"levelo://app?vid=ae2670a2-585e-4081-a3e0-8ca36e005485","ios":"levelo://app?vid=ae2670a2-585e-4081-a3e0-8ca36e005485"},"vehicle_type_id":"4","last_reported":1747073659,"current_range_meters":19600,"station_id":"ce4bhnp2rcd13ifvqgvg","pricing_plan_id":"cebpf4jnsgd1na2vs0mg"},{"bike_id":"43174096-74b8-4ff0-9475-94ea631bcd47","system_id":"levelo_inurba_marseille","lat":43.29848,"lon":5.36287,"is_reserved":false,"is_disabled":false,"rental_uris":{"android":"levelo://app?vid=43174096-74b8-4ff0-9475-94ea631bcd47","ios":"levelo://app?vid=43174096-74b8-4ff0-9475-94ea631bcd47"},"vehicle_type_id":"4","last_reported":1747073659,"current_range_meters":20000,"station_id":"ce4bgpp2rcd13ifvqc3g","pricing_plan_id":"cebpf4jnsgd1na2vs0mg"},{"bike_id":"98287a2d-31c5-496b-8810-799511f5da39","system_id":"levelo_inurba_marseille","lat":43.30932,"lon":5.40144,"is_reserved":false,"is_disabled":false,"rental_uris":{"android":"levelo://app?vid=98287a2d-31c5-496b-8810-799511f5da39","ios":"levelo://app?vid=98287a2d-31c5-496b-8810-799511f5da39"},"vehicle_type_id":"4","last_reported":1747073659,"current_range_meters":20000,"station_id":"ce4bgvp2rcd13ifvqct0","pricing_plan_id":"cebpf4jnsgd1na2vs0mg"},{"bike_id":"0c893fb7-8626-4706-85bf-f404b871dea5","system_id":"levelo_inurba_marseille","lat":43.28123,"lon":5.44643,"is_reserved":false,"is_disabled":false,"rental_uris":{"android":"levelo://app?vid=0c893fb7-8626-4706-85bf-f404b871dea5","ios":"levelo://app?vid=0c893fb7-8626-4706-85bf-f404b871dea5"},"vehicle_type_id":"4","last_reported":1747073659,"current_range_meters":20400,"station_id":"","pricing_plan_id":"cebpf4jnsgd1na2vs0mg"},{"bike_id":"48a10332-9549-440f-8b24-26e80d8f2d17","system_id":"levelo_inurba_marseille","lat":43.28344,"lon":5.3811,"is_reserved":false,"is_disabled":false,"rental_uris":{"android":"levelo://app?vid=48a10332-9549-440f-8b24-26e80d8f2d17","ios":"levelo://app?vid=48a10332-9549-440f-8b24-26e80d8f2d17"},"vehicle_type_id":"4","last_reported":1747073659,"current_range_meters":20400,"station_id":"ce4bh412rcd13ifvqdr0","pricing_plan_id":"cebpf4jnsgd1na2vs0mg"},{"bike_id":"73d572df-7d42-47fb-8629-a6d0610243cc","system_id":"levelo_inurba_marseille","lat":43.28619,"lon":5.35103,"is_reserved":false,"is_disabled":false,"rental_uris":{"android":"levelo://app?vid=73d572df-7d42-47fb-8629-a6d0610243cc","ios":"levelo://app?vid=73d572df-7d42-47fb-8629-a6d0610243cc"},"vehicle_type_id":"4","last_reported":1747073659,"current_range_meters":20400,"station_id":"ce4bhch2rcd13ifvqeug","pricing_plan_id":"cebpf4jnsgd1na2vs0mg"},{"bike_id":"4187b095-6b3b-4ad7-ab58-e419591834c9","system_id":"levelo_inurba_marseille","lat":43.27815,"lon":5.40718,"is_reserved":false,"is_disabled":false,"rental_uris":{"android":"levelo://app?vid=4187b095-6b3b-4ad7-ab58-e419591834c9","ios":"levelo://app?vid=4187b095-6b3b-4ad7-ab58-e419591834c9"},"vehicle_type_id":"4","last_reported":1747073659,"current_range_meters":20400,"station_id":"ce4bhnh2rcd13ifvqgtg","pricing_plan_id":"cebpf4jnsgd1na2vs0mg"},{"bike_id":"a3f263bd-eb91-45bd-8cb0-f0647cb0177e","system_id":"levelo_inurba_marseille","lat":43.265517,"lon":5.372963,"is_reserved":false,"is_disabled":false,"rental_uris":{"android":"levelo://app?vid=a3f263bd-eb91-45bd-8cb0-f0647cb0177e","ios":"levelo://app?vid=a3f263bd-eb91-45bd-8cb0-f0647cb0177e"},"vehicle_type_id":"4","last_reported":1747073659,"current_range_meters":20800,"station_id":"ce4bhg12rcd13ifvqf70","pricing_plan_id":"cebpf4jnsgd1na2vs0mg"},{"bike_id":"c2c29ebb-dc36-4802-9324-7740bd5dac03","system_id":"levelo_inurba_marseille","lat":43.27834,"lon":5.39207,"is_reserved":false,"is_disabled":false,"rental_uris":{"android":"levelo://app?vid=c2c29ebb-dc36-4802-9324-7740bd5dac03","ios":"levelo://app?vid=c2c29ebb-dc36-4802-9324-7740bd5dac03"},"vehicle_type_id":"4","last_reported":1747073659,"current_range_meters":20800,"station_id":"ce4bhjp2rcd13ifvqga0","pricing_plan_id":"cebpf4jnsgd1na2vs0mg"},{"bike_id":"3c7a4194-6ae5-45d2-a7f1-60a7ea69e2e3","system_id":"levelo_inurba_marseille","lat":43.30417,"lon":5.41275,"is_reserved":false,"is_disabled":false,"rental_uris":{"android":"levelo://app?vid=3c7a4194-6ae5-45d2-a7f1-60a7ea69e2e3","ios":"levelo://app?vid=3c7a4194-6ae5-45d2-a7f1-60a7ea69e2e3"},"vehicle_type_id":"4","last_reported":1747073659,"current_range_meters":20800,"station_id":"ce4bhop2rcd13ifvqh8g","pricing_plan_id":"cebpf4jnsgd1na2vs0mg"},{"bike_id":"79a159ab-e07d-4aaa-a58e-b008b50fb3e3","system_id":"levelo_inurba_marseille","lat":43.28351,"lon":5.38108,"is_reserved":false,"is_disabled":false,"rental_uris":{"android":"levelo://app?vid=79a159ab-e07d-4aaa-a58e-b008b50fb3e3","ios":"levelo://app?vid=79a159ab-e07d-4aaa-a58e-b008b50fb3e3"},"vehicle_type_id":"4","last_reported":1747073659,"current_range_meters":21600,"station_id":"ce4bh412rcd13ifvqdr0","pricing_plan_id":"cebpf4jnsgd1na2vs0mg"},{"bike_id":"8d127219-3e54-486f-b2e2-8a03defce842","system_id":"levelo_inurba_marseille","lat":43.29035,"lon":5.37563,"is_reserved":false,"is_disabled":false,"rental_uris":{"android":"levelo://app?vid=8d127219-3e54-486f-b2e2-8a03defce842","ios":"levelo://app?vid=8d127219-3e54-486f-b2e2-8a03defce842"},"vehicle_type_id":"4","last_reported":1747073659,"current_range_meters":21600,"station_id":"ce4bh692rcd13ifvqe90","pricing_plan_id":"cebpf4jnsgd1na2vs0mg"},{"bike_id":"afb8c01c-5dae-4521-8af2-6298cc52c8fd","system_id":"levelo_inurba_marseille","lat":43.28043,"lon":5.36944,"is_reserved":false,"is_disabled":false,"rental_uris":{"android":"levelo://app?vid=afb8c01c-5dae-4521-8af2-6298cc52c8fd","ios":"levelo://app?vid=afb8c01c-5dae-4521-8af2-6298cc52c8fd"},"vehicle_type_id":"4","last_reported":1747073659,"current_range_meters":21600,"station_id":"ce4bha12rcd13ifvqef0","pricing_plan_id":"cebpf4jnsgd1na2vs0mg"},{"bike_id":"1095b252-790e-4155-ab4e-86136a24d6fc","system_id":"levelo_inurba_marseille","lat":43.28484,"lon":5.35894,"is_reserved":false,"is_disabled":false,"rental_uris":{"android":"levelo://app?vid=1095b252-790e-4155-ab4e-86136a24d6fc","ios":"levelo://app?vid=1095b252-790e-4155-ab4e-86136a24d6fc"},"vehicle_type_id":"4","last_reported":1747073659,"current_range_meters":21600,"station_id":"ce4bhah2rcd13ifvqei0","pricing_plan_id":"cebpf4jnsgd1na2vs0mg"},{"bike_id":"93d33e52-622b-436d-a322-4bf04c6af5e4","system_id":"levelo_inurba_marseille","lat":43.27069,"lon":5.42283,"is_reserved":false,"is_disabled":false,"rental_uris":{"android":"levelo://app?vid=93d33e52-622b-436d-a322-4bf04c6af5e4","ios":"levelo://app?vid=93d33e52-622b-436d-a322-4bf04c6af5e4"},"vehicle_type_id":"4","last_reported":1747073659,"current_range_meters":21600,"station_id":"ce4bhk92rcd13ifvqgb0","pricing_plan_id":"cebpf4jnsgd1na2vs0mg"},{"bike_id":"8f3b25c8-3b5b-46a1-800f-8531851f1c12","system_id":"levelo_inurba_marseille","lat":43.2455,"lon":5.39527,"is_reserved":false,"is_disabled":false,"rental_uris":{"android":"levelo://app?vid=8f3b25c8-3b5b-46a1-800f-8531851f1c12","ios":"levelo://app?vid=8f3b25c8-3b5b-46a1-800f-8531851f1c12"},"vehicle_type_id":"4","last_reported":1747073659,"current_range_meters":21600,"station_id":"ce4bhlp2rcd13ifvqgjg","pricing_plan_id":"cebpf4jnsgd1na2vs0mg"},{"bike_id":"134fb9f5-0ab9-42de-aaf9-ca2f76860f09","system_id":"levelo_inurba_marseille","lat":43.31088,"lon":5.42425,"is_reserved":false,"is_disabled":false,"rental_uris":{"android":"levelo://app?vid=134fb9f5-0ab9-42de-aaf9-ca2f76860f09","ios":"levelo://app?vid=134fb9f5-0ab9-42de-aaf9-ca2f76860f09"},"vehicle_type_id":"4","last_reported":1747073659,"current_range_meters":21600,"station_id":"ce4bhp92rcd13ifvqhag","pricing_plan_id":"cebpf4jnsgd1na2vs0mg"},{"bike_id":"c1234833-9229-4e89-b9fe-8e9717a034dd","system_id":"levelo_inurba_marseille","lat":43.32359,"lon":5.38894,"is_reserved":false,"is_disabled":false,"rental_uris":{"android":"levelo://app?vid=c1234833-9229-4e89-b9fe-8e9717a034dd","ios":"levelo://app?vid=c1234833-9229-4e89-b9fe-8e9717a034dd"},"vehicle_type_id":"4","last_reported":1747073659,"current_range_meters":21600,"station_id":"ce4bhqp2rcd13ifvqhog","pricing_plan_id":"cebpf4jnsgd1na2vs0mg"},{"bike_id":"e6244eb6-80e9-45f6-b2c2-9ce030763685","system_id":"levelo_inurba_marseille","lat":43.28721,"lon":5.36084,"is_reserved":false,"is_disabled":false,"rental_uris":{"android":"levelo://app?vid=e6244eb6-80e9-45f6-b2c2-9ce030763685","ios":"levelo://app?vid=e6244eb6-80e9-45f6-b2c2-9ce030763685"},"vehicle_type_id":"4","last_reported":1747073659,"current_range_meters":21600,"station_id":"cki0cbj6b192h4jlfktg","pricing_plan_id":"cebpf4jnsgd1na2vs0mg"},{"bike_id":"81f3507a-5e2e-4b43-a6b2-446d24c7963c","system_id":"levelo_inurba_marseille","lat":43.28669,"lon":5.3635,"is_reserved":false,"is_disabled":false,"rental_uris":{"android":"levelo://app?vid=81f3507a-5e2e-4b43-a6b2-446d24c7963c","ios":"levelo://app?vid=81f3507a-5e2e-4b43-a6b2-446d24c7963c"},"vehicle_type_id":"4","last_reported":1747073659,"current_range_meters":22000,"station_id":"ce4bhah2rcd13ifvqej0","pricing_plan_id":"cebpf4jnsgd1na2vs0mg"},{"bike_id":"dc641743-b968-4496-812a-3b41120ce533","system_id":"levelo_inurba_marseille","lat":43.28398,"lon":5.35013,"is_reserved":false,"is_disabled":false,"rental_uris":{"android":"levelo://app?vid=dc641743-b968-4496-812a-3b41120ce533","ios":"levelo://app?vid=dc641743-b968-4496-812a-3b41120ce533"},"vehicle_type_id":"4","last_reported":1747073659,"current_range_meters":22000,"station_id":"ce4bhbh2rcd13ifvqepg","pricing_plan_id":"cebpf4jnsgd1na2vs0mg"},{"bike_id":"a2f7bdd6-b33a-4317-9ead-03c69ab1dd6e","system_id":"levelo_inurba_marseille","lat":43.2842,"lon":5.34992,"is_reserved":false,"is_disabled":false,"rental_uris":{"android":"levelo://app?vid=a2f7bdd6-b33a-4317-9ead-03c69ab1dd6e","ios":"levelo://app?vid=a2f7bdd6-b33a-4317-9ead-03c69ab1dd6e"},"vehicle_type_id":"4","last_reported":1747073659,"current_range_meters":22000,"station_id":"ce4bhbh2rcd13ifvqepg","pricing_plan_id":"cebpf4jnsgd1na2vs0mg"},{"bike_id":"210164ef-1e30-448d-9bb5-104c77bd8c4c","system_id":"levelo_inurba_marseille","lat":43.26939,"lon":5.38923,"is_reserved":false,"is_disabled":false,"rental_uris":{"android":"levelo://app?vid=210164ef-1e30-448d-9bb5-104c77bd8c4c","ios":"levelo://app?vid=210164ef-1e30-448d-9bb5-104c77bd8c4c"},"vehicle_type_id":"4","last_reported":1747073659,"current_range_meters":22000,"station_id":"ce4bhhh2rcd13ifvqfl0","pricing_plan_id":"cebpf4jnsgd1na2vs0mg"},{"bike_id":"2c2a2d36-fcd4-4908-b3fe-6a00f0b38b09","system_id":"levelo_inurba_marseille","lat":43.25085,"lon":5.3951,"is_reserved":false,"is_disabled":false,"rental_uris":{"android":"levelo://app?vid=2c2a2d36-fcd4-4908-b3fe-6a00f0b38b09","ios":"levelo://app?vid=2c2a2d36-fcd4-4908-b3fe-6a00f0b38b09"},"vehicle_type_id":"4","last_reported":1747073659,"current_range_meters":22000,"station_id":"ce4bhm12rcd13ifvqgkg","pricing_plan_id":"cebpf4jnsgd1na2vs0mg"},{"bike_id":"e83dcaca-181c-4b02-bf44-8d4da8809b5b","system_id":"levelo_inurba_marseille","lat":43.31704,"lon":5.43703,"is_reserved":false,"is_disabled":false,"rental_uris":{"android":"levelo://app?vid=e83dcaca-181c-4b02-bf44-8d4da8809b5b","ios":"levelo://app?vid=e83dcaca-181c-4b02-bf44-8d4da8809b5b"},"vehicle_type_id":"4","last_reported":1747073659,"current_range_meters":22000,"station_id":"ce4bhp92rcd13ifvqhcg","pricing_plan_id":"cebpf4jnsgd1na2vs0mg"},{"bike_id":"711c3665-551b-4176-9dc3-d824e9806ffd","system_id":"levelo_inurba_marseille","lat":43.31494,"lon":5.3847,"is_reserved":false,"is_disabled":false,"rental_uris":{"android":"levelo://app?vid=711c3665-551b-4176-9dc3-d824e9806ffd","ios":"levelo://app?vid=711c3665-551b-4176-9dc3-d824e9806ffd"},"vehicle_type_id":"4","last_reported":1747073659,"current_range_meters":22400,"station_id":"","pricing_plan_id":"cebpf4jnsgd1na2vs0mg"},{"bike_id":"f62005be-5b82-4800-b223-510086bf8a98","system_id":"levelo_inurba_marseille","lat":43.30137,"lon":5.39877,"is_reserved":false,"is_disabled":false,"rental_uris":{"android":"levelo://app?vid=f62005be-5b82-4800-b223-510086bf8a98","ios":"levelo://app?vid=f62005be-5b82-4800-b223-510086bf8a98"},"vehicle_type_id":"4","last_reported":1747073659,"current_range_meters":22400,"station_id":"ce4bh0h2rcd13ifvqd40","pricing_plan_id":"cebpf4jnsgd1na2vs0mg"},{"bike_id":"ded21d3b-017a-431c-a119-0da980f4a122","system_id":"levelo_inurba_marseille","lat":43.28399,"lon":5.35012,"is_reserved":false,"is_disabled":false,"rental_uris":{"android":"levelo://app?vid=ded21d3b-017a-431c-a119-0da980f4a122","ios":"levelo://app?vid=ded21d3b-017a-431c-a119-0da980f4a122"},"vehicle_type_id":"4","last_reported":1747073659,"current_range_meters":22400,"station_id":"ce4bhbh2rcd13ifvqepg","pricing_plan_id":"cebpf4jnsgd1na2vs0mg"},{"bike_id":"16d2344a-4046-452f-9734-a4a0a5dcc5c5","system_id":"levelo_inurba_marseille","lat":43.27169,"lon":5.41005,"is_reserved":false,"is_disabled":false,"rental_uris":{"android":"levelo://app?vid=16d2344a-4046-452f-9734-a4a0a5dcc5c5","ios":"levelo://app?vid=16d2344a-4046-452f-9734-a4a0a5dcc5c5"},"vehicle_type_id":"4","last_reported":1747073659,"current_range_meters":22400,"station_id":"ce4bhl12rcd13ifvqgf0","pricing_plan_id":"cebpf4jnsgd1na2vs0mg"},{"bike_id":"581a76c6-406f-436c-80cf-424046378536","system_id":"levelo_inurba_marseille","lat":43.23137,"lon":5.43716,"is_reserved":false,"is_disabled":false,"rental_uris":{"android":"levelo://app?vid=581a76c6-406f-436c-80cf-424046378536","ios":"levelo://app?vid=581a76c6-406f-436c-80cf-424046378536"},"vehicle_type_id":"4","last_reported":1747073659,"current_range_meters":22400,"station_id":"ce4bhmp2rcd13ifvqgog","pricing_plan_id":"cebpf4jnsgd1na2vs0mg"},{"bike_id":"24dea86b-f038-4b9a-989c-82db780e5bdc","system_id":"levelo_inurba_marseille","lat":43.28,"lon":5.41667,"is_reserved":false,"is_disabled":false,"rental_uris":{"android":"levelo://app?vid=24dea86b-f038-4b9a-989c-82db780e5bdc","ios":"levelo://app?vid=24dea86b-f038-4b9a-989c-82db780e5bdc"},"vehicle_type_id":"4","last_reported":1747073659,"current_range_meters":22400,"station_id":"ce4bho12rcd13ifvqh1g","pricing_plan_id":"cebpf4jnsgd1na2vs0mg"},{"bike_id":"d0d57b1e-193c-4f21-9118-f46e78552955","system_id":"levelo_inurba_marseille","lat":43.33014,"lon":5.39049,"is_reserved":false,"is_disabled":false,"rental_uris":{"android":"levelo://app?vid=d0d57b1e-193c-4f21-9118-f46e78552955","ios":"levelo://app?vid=d0d57b1e-193c-4f21-9118-f46e78552955"},"vehicle_type_id":"4","last_reported":1747073659,"current_range_meters":22400,"station_id":"ce4bhr92rcd13ifvqhrg","pricing_plan_id":"cebpf4jnsgd1na2vs0mg"},{"bike_id":"c5355429-24ef-46d2-b727-87d07ef61499","system_id":"levelo_inurba_marseille","lat":43.29035,"lon":5.39961,"is_reserved":false,"is_disabled":false,"rental_uris":{"android":"levelo://app?vid=c5355429-24ef-46d2-b727-87d07ef61499","ios":"levelo://app?vid=c5355429-24ef-46d2-b727-87d07ef61499"},