{"last_updated":1781545080,"ttl":60,"version":"2.2","data":{"bikes":[{"bike_id":"a01f69c1-4d52-4c5e-a7ec-e3322fdec9e3","system_id":"levelo_inurba_marseille","lat":43.337444,"lon":5.374475,"is_reserved":false,"is_disabled":false,"rental_uris":{"android":"levelo://app?vid=a01f69c1-4d52-4c5e-a7ec-e3322fdec9e3","ios":"levelo://app?vid=a01f69c1-4d52-4c5e-a7ec-e3322fdec9e3"},"vehicle_type_id":"4","last_reported":1781545081,"current_range_meters":0,"station_id":"","pricing_plan_id":"cebpf4jnsgd1na2vs0mg"},{"bike_id":"a9994688-9bd3-404d-9ed0-3757664b0064","system_id":"levelo_inurba_marseille","lat":43.28251,"lon":5.34855,"is_reserved":false,"is_disabled":false,"rental_uris":{"android":"levelo://app?vid=a9994688-9bd3-404d-9ed0-3757664b0064","ios":"levelo://app?vid=a9994688-9bd3-404d-9ed0-3757664b0064"},"vehicle_type_id":"4","last_reported":1781545081,"current_range_meters":2800,"station_id":"","pricing_plan_id":"cebpf4jnsgd1na2vs0mg"},{"bike_id":"2dac9548-9b3a-4eca-9f94-8ab909f793b6","system_id":"levelo_inurba_marseille","lat":43.29563,"lon":5.3753,"is_reserved":false,"is_disabled":false,"rental_uris":{"android":"levelo://app?vid=2dac9548-9b3a-4eca-9f94-8ab909f793b6","ios":"levelo://app?vid=2dac9548-9b3a-4eca-9f94-8ab909f793b6"},"vehicle_type_id":"4","last_reported":1781545081,"current_range_meters":2800,"station_id":"ce4bgh92rcd13ifvqb50","pricing_plan_id":"cebpf4jnsgd1na2vs0mg"},{"bike_id":"11e6a5ba-ead1-4442-8782-52bef7e9aa7c","system_id":"levelo_inurba_marseille","lat":43.27564,"lon":5.38425,"is_reserved":false,"is_disabled":false,"rental_uris":{"android":"levelo://app?vid=11e6a5ba-ead1-4442-8782-52bef7e9aa7c","ios":"levelo://app?vid=11e6a5ba-ead1-4442-8782-52bef7e9aa7c"},"vehicle_type_id":"4","last_reported":1781545081,"current_range_meters":2800,"station_id":"ce4bhh92rcd13ifvqfi0","pricing_plan_id":"cebpf4jnsgd1na2vs0mg"},{"bike_id":"3929d3c5-ebc0-4085-9601-55c6caf31f37","system_id":"levelo_inurba_marseille","lat":43.26048,"lon":5.3752,"is_reserved":false,"is_disabled":false,"rental_uris":{"android":"levelo://app?vid=3929d3c5-ebc0-4085-9601-55c6caf31f37","ios":"levelo://app?vid=3929d3c5-ebc0-4085-9601-55c6caf31f37"},"vehicle_type_id":"4","last_reported":1781545081,"current_range_meters":2800,"station_id":"ce4bhgh2rcd13ifvqfa0","pricing_plan_id":"cebpf4jnsgd1na2vs0mg"},{"bike_id":"e37e978e-6591-4583-991c-3865c0ed5069","system_id":"levelo_inurba_marseille","lat":43.28711,"lon":5.39987,"is_reserved":false,"is_disabled":false,"rental_uris":{"android":"levelo://app?vid=e37e978e-6591-4583-991c-3865c0ed5069","ios":"levelo://app?vid=e37e978e-6591-4583-991c-3865c0ed5069"},"vehicle_type_id":"4","last_reported":1781545081,"current_range_meters":2800,"station_id":"ce4bho92rcd13ifvqh3g","pricing_plan_id":"cebpf4jnsgd1na2vs0mg"},{"bike_id":"21ffb014-4935-43d3-ac54-a0279be69d8d","system_id":"levelo_inurba_marseille","lat":43.2255,"lon":5.41625,"is_reserved":false,"is_disabled":false,"rental_uris":{"android":"levelo://app?vid=21ffb014-4935-43d3-ac54-a0279be69d8d","ios":"levelo://app?vid=21ffb014-4935-43d3-ac54-a0279be69d8d"},"vehicle_type_id":"4","last_reported":1781545081,"current_range_meters":2800,"station_id":"st_d2o4gvlbi1j2169b742g","pricing_plan_id":"cebpf4jnsgd1na2vs0mg"},{"bike_id":"4a25cc02-083e-4d84-a29b-43f1e6b2343d","system_id":"levelo_inurba_marseille","lat":43.24804,"lon":5.37446,"is_reserved":false,"is_disabled":false,"rental_uris":{"android":"levelo://app?vid=4a25cc02-083e-4d84-a29b-43f1e6b2343d","ios":"levelo://app?vid=4a25cc02-083e-4d84-a29b-43f1e6b2343d"},"vehicle_type_id":"4","last_reported":1781545081,"current_range_meters":2800,"station_id":"ce4bhgh2rcd13ifvqfb0","pricing_plan_id":"cebpf4jnsgd1na2vs0mg"},{"bike_id":"05301206-aaf9-4d90-9f4e-9d0a3f245e2d","system_id":"levelo_inurba_marseille","lat":43.31516,"lon":5.37292,"is_reserved":false,"is_disabled":true,"rental_uris":{"android":"levelo://app?vid=05301206-aaf9-4d90-9f4e-9d0a3f245e2d","ios":"levelo://app?vid=05301206-aaf9-4d90-9f4e-9d0a3f245e2d"},"vehicle_type_id":"4","last_reported":1781545081,"current_range_meters":2800,"station_id":"ce4bgt12rcd13ifvqcd0","pricing_plan_id":"cebpf4jnsgd1na2vs0mg"},{"bike_id":"9e942943-4d2b-4618-b6db-acb25580f273","system_id":"levelo_inurba_marseille","lat":43.31711,"lon":5.40445,"is_reserved":false,"is_disabled":false,"rental_uris":{"android":"levelo://app?vid=9e942943-4d2b-4618-b6db-acb25580f273","ios":"levelo://app?vid=9e942943-4d2b-4618-b6db-acb25580f273"},"vehicle_type_id":"4","last_reported":1781545081,"current_range_meters":2800,"station_id":"ce4bh012rcd13ifvqd00","pricing_plan_id":"cebpf4jnsgd1na2vs0mg"},{"bike_id":"01b45927-ee3c-440c-975d-aeef504de959","system_id":"levelo_inurba_marseille","lat":43.28159,"lon":5.42645,"is_reserved":false,"is_disabled":false,"rental_uris":{"android":"levelo://app?vid=01b45927-ee3c-440c-975d-aeef504de959","ios":"levelo://app?vid=01b45927-ee3c-440c-975d-aeef504de959"},"vehicle_type_id":"4","last_reported":1781545081,"current_range_meters":2800,"station_id":"ce4bhnh2rcd13ifvqgug","pricing_plan_id":"cebpf4jnsgd1na2vs0mg"},{"bike_id":"ca094ce5-39db-4aaf-9160-0feb825b58f2","system_id":"levelo_inurba_marseille","lat":43.297877,"lon":5.371067,"is_reserved":false,"is_disabled":false,"rental_uris":{"android":"levelo://app?vid=ca094ce5-39db-4aaf-9160-0feb825b58f2","ios":"levelo://app?vid=ca094ce5-39db-4aaf-9160-0feb825b58f2"},"vehicle_type_id":"4","last_reported":1781545081,"current_range_meters":2800,"station_id":"ce4bgop2rcd13ifvqc1g","pricing_plan_id":"cebpf4jnsgd1na2vs0mg"},{"bike_id":"ee7bc1f7-1004-4400-9c4f-73f8dcc5737f","system_id":"levelo_inurba_marseille","lat":43.27994,"lon":5.40022,"is_reserved":false,"is_disabled":false,"rental_uris":{"android":"levelo://app?vid=ee7bc1f7-1004-4400-9c4f-73f8dcc5737f","ios":"levelo://app?vid=ee7bc1f7-1004-4400-9c4f-73f8dcc5737f"},"vehicle_type_id":"4","last_reported":1781545081,"current_range_meters":3200,"station_id":"ce4bho92rcd13ifvqh4g","pricing_plan_id":"cebpf4jnsgd1na2vs0mg"},{"bike_id":"94792ff1-805a-49f3-9a0e-6d8db333b836","system_id":"levelo_inurba_marseille","lat":43.25864,"lon":5.39899,"is_reserved":false,"is_disabled":false,"rental_uris":{"android":"levelo://app?vid=94792ff1-805a-49f3-9a0e-6d8db333b836","ios":"levelo://app?vid=94792ff1-805a-49f3-9a0e-6d8db333b836"},"vehicle_type_id":"4","last_reported":1781545081,"current_range_meters":3200,"station_id":"ce4bhl92rcd13ifvqghg","pricing_plan_id":"cebpf4jnsgd1na2vs0mg"},{"bike_id":"588fc41e-2043-4bc0-afd0-8bcc32277373","system_id":"levelo_inurba_marseille","lat":43.29265,"lon":5.38427,"is_reserved":false,"is_disabled":false,"rental_uris":{"android":"levelo://app?vid=588fc41e-2043-4bc0-afd0-8bcc32277373","ios":"levelo://app?vid=588fc41e-2043-4bc0-afd0-8bcc32277373"},"vehicle_type_id":"4","last_reported":1781545081,"current_range_meters":3200,"station_id":"ce4bh692rcd13ifvqea0","pricing_plan_id":"cebpf4jnsgd1na2vs0mg"},{"bike_id":"7eeed1c9-3363-4427-9681-1b77313d9956","system_id":"levelo_inurba_marseille","lat":43.26983,"lon":5.39281,"is_reserved":false,"is_disabled":false,"rental_uris":{"android":"levelo://app?vid=7eeed1c9-3363-4427-9681-1b77313d9956","ios":"levelo://app?vid=7eeed1c9-3363-4427-9681-1b77313d9956"},"vehicle_type_id":"4","last_reported":1781545081,"current_range_meters":3200,"station_id":"","pricing_plan_id":"cebpf4jnsgd1na2vs0mg"},{"bike_id":"b1e94b10-2892-4955-8b92-7f45d61bb8c7","system_id":"levelo_inurba_marseille","lat":43.30793,"lon":5.38177,"is_reserved":false,"is_disabled":false,"rental_uris":{"android":"levelo://app?vid=b1e94b10-2892-4955-8b92-7f45d61bb8c7","ios":"levelo://app?vid=b1e94b10-2892-4955-8b92-7f45d61bb8c7"},"vehicle_type_id":"4","last_reported":1781545081,"current_range_meters":3200,"station_id":"ce4bgt12rcd13ifvqce0","pricing_plan_id":"cebpf4jnsgd1na2vs0mg"},{"bike_id":"17e0512c-8f97-4909-99a0-670e2b71537d","system_id":"levelo_inurba_marseille","lat":43.31271,"lon":5.40161,"is_reserved":false,"is_disabled":false,"rental_uris":{"android":"levelo://app?vid=17e0512c-8f97-4909-99a0-670e2b71537d","ios":"levelo://app?vid=17e0512c-8f97-4909-99a0-670e2b71537d"},"vehicle_type_id":"4","last_reported":1781545081,"current_range_meters":3200,"station_id":"ce4bh092rcd13ifvqd30","pricing_plan_id":"cebpf4jnsgd1na2vs0mg"},{"bike_id":"9cb54a11-4ca5-4138-a0cd-455137399e57","system_id":"levelo_inurba_marseille","lat":43.29816,"lon":5.38077,"is_reserved":false,"is_disabled":false,"rental_uris":{"android":"levelo://app?vid=9cb54a11-4ca5-4138-a0cd-455137399e57","ios":"levelo://app?vid=9cb54a11-4ca5-4138-a0cd-455137399e57"},"vehicle_type_id":"4","last_reported":1781545081,"current_range_meters":3200,"station_id":"ce4bgip2rcd13ifvqbb0","pricing_plan_id":"cebpf4jnsgd1na2vs0mg"},{"bike_id":"0de29505-63a8-43a9-b55a-7168ebc62ddd","system_id":"levelo_inurba_marseille","lat":43.28838,"lon":5.35846,"is_reserved":false,"is_disabled":false,"rental_uris":{"android":"levelo://app?vid=0de29505-63a8-43a9-b55a-7168ebc62ddd","ios":"levelo://app?vid=0de29505-63a8-43a9-b55a-7168ebc62ddd"},"vehicle_type_id":"4","last_reported":1781545081,"current_range_meters":3200,"station_id":"ce4bhb12rcd13ifvqem0","pricing_plan_id":"cebpf4jnsgd1na2vs0mg"},{"bike_id":"91bf3bf3-316c-4053-bf99-4fa9f93303a7","system_id":"levelo_inurba_marseille","lat":43.33027,"lon":5.39041,"is_reserved":false,"is_disabled":false,"rental_uris":{"android":"levelo://app?vid=91bf3bf3-316c-4053-bf99-4fa9f93303a7","ios":"levelo://app?vid=91bf3bf3-316c-4053-bf99-4fa9f93303a7"},"vehicle_type_id":"4","last_reported":1781545081,"current_range_meters":3200,"station_id":"ce4bhr92rcd13ifvqhrg","pricing_plan_id":"cebpf4jnsgd1na2vs0mg"},{"bike_id":"4987fdcc-ee89-445a-9372-ad14340ddb6c","system_id":"levelo_inurba_marseille","lat":43.22269,"lon":5.40493,"is_reserved":false,"is_disabled":false,"rental_uris":{"android":"levelo://app?vid=4987fdcc-ee89-445a-9372-ad14340ddb6c","ios":"levelo://app?vid=4987fdcc-ee89-445a-9372-ad14340ddb6c"},"vehicle_type_id":"4","last_reported":1781545081,"current_range_meters":3200,"station_id":"","pricing_plan_id":"cebpf4jnsgd1na2vs0mg"},{"bike_id":"c466c8b2-6c2a-49da-9758-ff6436a3d685","system_id":"levelo_inurba_marseille","lat":43.27479,"lon":5.4397,"is_reserved":false,"is_disabled":false,"rental_uris":{"android":"levelo://app?vid=c466c8b2-6c2a-49da-9758-ff6436a3d685","ios":"levelo://app?vid=c466c8b2-6c2a-49da-9758-ff6436a3d685"},"vehicle_type_id":"4","last_reported":1781545081,"current_range_meters":3200,"station_id":"","pricing_plan_id":"cebpf4jnsgd1na2vs0mg"},{"bike_id":"9dd627a6-7b34-42d6-941c-f11c82ce1437","system_id":"levelo_inurba_marseille","lat":43.24468,"lon":5.42537,"is_reserved":false,"is_disabled":false,"rental_uris":{"android":"levelo://app?vid=9dd627a6-7b34-42d6-941c-f11c82ce1437","ios":"levelo://app?vid=9dd627a6-7b34-42d6-941c-f11c82ce1437"},"vehicle_type_id":"4","last_reported":1781545081,"current_range_meters":3200,"station_id":"st_d4a3vfp97mjs738cd8kg","pricing_plan_id":"cebpf4jnsgd1na2vs0mg"},{"bike_id":"dac3d99a-bb6e-47eb-b2fe-d719882b3c69","system_id":"levelo_inurba_marseille","lat":43.2964,"lon":5.37698,"is_reserved":false,"is_disabled":false,"rental_uris":{"android":"levelo://app?vid=dac3d99a-bb6e-47eb-b2fe-d719882b3c69","ios":"levelo://app?vid=dac3d99a-bb6e-47eb-b2fe-d719882b3c69"},"vehicle_type_id":"4","last_reported":1781545081,"current_range_meters":3200,"station_id":"ce4bgi92rcd13ifvqb90","pricing_plan_id":"cebpf4jnsgd1na2vs0mg"},{"bike_id":"878f9134-699e-467b-b3c9-22374bd49288","system_id":"levelo_inurba_marseille","lat":43.27174,"lon":5.40994,"is_reserved":false,"is_disabled":true,"rental_uris":{"android":"levelo://app?vid=878f9134-699e-467b-b3c9-22374bd49288","ios":"levelo://app?vid=878f9134-699e-467b-b3c9-22374bd49288"},"vehicle_type_id":"4","last_reported":1781545081,"current_range_meters":3200,"station_id":"ce4bhl12rcd13ifvqgf0","pricing_plan_id":"cebpf4jnsgd1na2vs0mg"},{"bike_id":"05107269-b6ac-42d8-b316-bf409f0f943b","system_id":"levelo_inurba_marseille","lat":43.29781,"lon":5.37095,"is_reserved":false,"is_disabled":false,"rental_uris":{"android":"levelo://app?vid=05107269-b6ac-42d8-b316-bf409f0f943b","ios":"levelo://app?vid=05107269-b6ac-42d8-b316-bf409f0f943b"},"vehicle_type_id":"4","last_reported":1781545081,"current_range_meters":3200,"station_id":"ce4bgop2rcd13ifvqc1g","pricing_plan_id":"cebpf4jnsgd1na2vs0mg"},{"bike_id":"a9a48bf6-f2f1-4f0d-818a-d0f5b1873b95","system_id":"levelo_inurba_marseille","lat":43.273228,"lon":5.39078,"is_reserved":false,"is_disabled":false,"rental_uris":{"android":"levelo://app?vid=a9a48bf6-f2f1-4f0d-818a-d0f5b1873b95","ios":"levelo://app?vid=a9a48bf6-f2f1-4f0d-818a-d0f5b1873b95"},"vehicle_type_id":"4","last_reported":1781545081,"current_range_meters":3600,"station_id":"ce4bhgp2rcd13ifvqfe0","pricing_plan_id":"cebpf4jnsgd1na2vs0mg"},{"bike_id":"f1098126-164f-4509-9fa5-c9bde6e145ba","system_id":"levelo_inurba_marseille","lat":43.24816,"lon":5.37458,"is_reserved":false,"is_disabled":false,"rental_uris":{"android":"levelo://app?vid=f1098126-164f-4509-9fa5-c9bde6e145ba","ios":"levelo://app?vid=f1098126-164f-4509-9fa5-c9bde6e145ba"},"vehicle_type_id":"4","last_reported":1781545081,"current_range_meters":3600,"station_id":"ce4bhgh2rcd13ifvqfb0","pricing_plan_id":"cebpf4jnsgd1na2vs0mg"},{"bike_id":"c799e829-076f-4182-b605-67222339dd23","system_id":"levelo_inurba_marseille","lat":43.29985,"lon":5.37569,"is_reserved":false,"is_disabled":false,"rental_uris":{"android":"levelo://app?vid=c799e829-076f-4182-b605-67222339dd23","ios":"levelo://app?vid=c799e829-076f-4182-b605-67222339dd23"},"vehicle_type_id":"4","last_reported":1781545081,"current_range_meters":3600,"station_id":"","pricing_plan_id":"cebpf4jnsgd1na2vs0mg"},{"bike_id":"b8f10d9c-7a25-43d0-ac95-8e048eb9cf75","system_id":"levelo_inurba_marseille","lat":43.26226,"lon":5.38834,"is_reserved":false,"is_disabled":false,"rental_uris":{"android":"levelo://app?vid=b8f10d9c-7a25-43d0-ac95-8e048eb9cf75","ios":"levelo://app?vid=b8f10d9c-7a25-43d0-ac95-8e048eb9cf75"},"vehicle_type_id":"4","last_reported":1781545081,"current_range_meters":3600,"station_id":"","pricing_plan_id":"cebpf4jnsgd1na2vs0mg"},{"bike_id":"99a28611-b789-47cf-96ab-e396378889f7","system_id":"levelo_inurba_marseille","lat":43.265483,"lon":5.372874,"is_reserved":false,"is_disabled":false,"rental_uris":{"android":"levelo://app?vid=99a28611-b789-47cf-96ab-e396378889f7","ios":"levelo://app?vid=99a28611-b789-47cf-96ab-e396378889f7"},"vehicle_type_id":"4","last_reported":1781545081,"current_range_meters":3600,"station_id":"ce4bhg12rcd13ifvqf70","pricing_plan_id":"cebpf4jnsgd1na2vs0mg"},{"bike_id":"ccfff5c2-4487-4869-a5d6-b65e2bf4b1f9","system_id":"levelo_inurba_marseille","lat":43.290658,"lon":5.371604,"is_reserved":false,"is_disabled":false,"rental_uris":{"android":"levelo://app?vid=ccfff5c2-4487-4869-a5d6-b65e2bf4b1f9","ios":"levelo://app?vid=ccfff5c2-4487-4869-a5d6-b65e2bf4b1f9"},"vehicle_type_id":"4","last_reported":1781545081,"current_range_meters":3600,"station_id":"ce4bh5p2rcd13ifvqe4g","pricing_plan_id":"cebpf4jnsgd1na2vs0mg"},{"bike_id":"8c975fd9-be15-437e-b9f1-c96ff01ff70a","system_id":"levelo_inurba_marseille","lat":43.28371,"lon":5.38618,"is_reserved":false,"is_disabled":false,"rental_uris":{"android":"levelo://app?vid=8c975fd9-be15-437e-b9f1-c96ff01ff70a","ios":"levelo://app?vid=8c975fd9-be15-437e-b9f1-c96ff01ff70a"},"vehicle_type_id":"4","last_reported":1781545081,"current_range_meters":3600,"station_id":"ce4bh492rcd13ifvqdvg","pricing_plan_id":"cebpf4jnsgd1na2vs0mg"},{"bike_id":"d456644d-6d5e-41bd-aa4b-f9dc5e0fcbc7","system_id":"levelo_inurba_marseille","lat":43.29531,"lon":5.38532,"is_reserved":false,"is_disabled":false,"rental_uris":{"android":"levelo://app?vid=d456644d-6d5e-41bd-aa4b-f9dc5e0fcbc7","ios":"levelo://app?vid=d456644d-6d5e-41bd-aa4b-f9dc5e0fcbc7"},"vehicle_type_id":"4","last_reported":1781545081,"current_range_meters":3600,"station_id":"ce4bgih2rcd13ifvqba0","pricing_plan_id":"cebpf4jnsgd1na2vs0mg"},{"bike_id":"73c6292d-2ede-46a3-be1a-03ce9a36e1d1","system_id":"levelo_inurba_marseille","lat":43.28745,"lon":5.35202,"is_reserved":false,"is_disabled":false,"rental_uris":{"android":"levelo://app?vid=73c6292d-2ede-46a3-be1a-03ce9a36e1d1","ios":"levelo://app?vid=73c6292d-2ede-46a3-be1a-03ce9a36e1d1"},"vehicle_type_id":"4","last_reported":1781545081,"current_range_meters":3600,"station_id":"","pricing_plan_id":"cebpf4jnsgd1na2vs0mg"},{"bike_id":"584a2fa7-339f-42a7-9901-60b2df2436a6","system_id":"levelo_inurba_marseille","lat":43.2837,"lon":5.38632,"is_reserved":false,"is_disabled":false,"rental_uris":{"android":"levelo://app?vid=584a2fa7-339f-42a7-9901-60b2df2436a6","ios":"levelo://app?vid=584a2fa7-339f-42a7-9901-60b2df2436a6"},"vehicle_type_id":"4","last_reported":1781545081,"current_range_meters":3600,"station_id":"ce4bh492rcd13ifvqdvg","pricing_plan_id":"cebpf4jnsgd1na2vs0mg"},{"bike_id":"ea414a50-d2cc-40fc-838c-896e6a957b4c","system_id":"levelo_inurba_marseille","lat":43.28254,"lon":5.35071,"is_reserved":false,"is_disabled":false,"rental_uris":{"android":"levelo://app?vid=ea414a50-d2cc-40fc-838c-896e6a957b4c","ios":"levelo://app?vid=ea414a50-d2cc-40fc-838c-896e6a957b4c"},"vehicle_type_id":"4","last_reported":1781545081,"current_range_meters":3600,"station_id":"ce4bhbp2rcd13ifvqerg","pricing_plan_id":"cebpf4jnsgd1na2vs0mg"},{"bike_id":"5a7140f4-d510-4e85-b959-b4ea1ff8dc71","system_id":"levelo_inurba_marseille","lat":43.28371,"lon":5.38622,"is_reserved":false,"is_disabled":false,"rental_uris":{"android":"levelo://app?vid=5a7140f4-d510-4e85-b959-b4ea1ff8dc71","ios":"levelo://app?vid=5a7140f4-d510-4e85-b959-b4ea1ff8dc71"},"vehicle_type_id":"4","last_reported":1781545081,"current_range_meters":3600,"station_id":"ce4bh492rcd13ifvqdvg","pricing_plan_id":"cebpf4jnsgd1na2vs0mg"},{"bike_id":"42a93172-847b-4c57-905f-c92664f09ce8","system_id":"levelo_inurba_marseille","lat":43.25349,"lon":5.42171,"is_reserved":false,"is_disabled":true,"rental_uris":{"android":"levelo://app?vid=42a93172-847b-4c57-905f-c92664f09ce8","ios":"levelo://app?vid=42a93172-847b-4c57-905f-c92664f09ce8"},"vehicle_type_id":"4","last_reported":1781545081,"current_range_meters":3600,"station_id":"st_d2m65c5bi1j21697t3ng","pricing_plan_id":"cebpf4jnsgd1na2vs0mg"},{"bike_id":"47ee7479-c67d-47c2-9021-0b77ce3eadab","system_id":"levelo_inurba_marseille","lat":43.304651,"lon":5.379121,"is_reserved":false,"is_disabled":false,"rental_uris":{"android":"levelo://app?vid=47ee7479-c67d-47c2-9021-0b77ce3eadab","ios":"levelo://app?vid=47ee7479-c67d-47c2-9021-0b77ce3eadab"},"vehicle_type_id":"4","last_reported":1781545081,"current_range_meters":3600,"station_id":"ce4bgup2rcd13ifvqcn0","pricing_plan_id":"cebpf4jnsgd1na2vs0mg"},{"bike_id":"1bdb5646-b704-40c9-85d8-ddf4ee03c851","system_id":"levelo_inurba_marseille","lat":43.29567,"lon":5.39957,"is_reserved":false,"is_disabled":false,"rental_uris":{"android":"levelo://app?vid=1bdb5646-b704-40c9-85d8-ddf4ee03c851","ios":"levelo://app?vid=1bdb5646-b704-40c9-85d8-ddf4ee03c851"},"vehicle_type_id":"4","last_reported":1781545081,"current_range_meters":3600,"station_id":"ce4bh312rcd13ifvqdj0","pricing_plan_id":"cebpf4jnsgd1na2vs0mg"},{"bike_id":"d9480805-2d33-4f61-a318-91aabcd7d623","system_id":"levelo_inurba_marseille","lat":43.27381,"lon":5.36267,"is_reserved":false,"is_disabled":false,"rental_uris":{"android":"levelo://app?vid=d9480805-2d33-4f61-a318-91aabcd7d623","ios":"levelo://app?vid=d9480805-2d33-4f61-a318-91aabcd7d623"},"vehicle_type_id":"4","last_reported":1781545081,"current_range_meters":3600,"station_id":"ce4bhbh2rcd13ifvqeo0","pricing_plan_id":"cebpf4jnsgd1na2vs0mg"},{"bike_id":"179d7943-e7fa-42e2-891d-f0ffe704b076","system_id":"levelo_inurba_marseille","lat":43.28934,"lon":5.36637,"is_reserved":false,"is_disabled":false,"rental_uris":{"android":"levelo://app?vid=179d7943-e7fa-42e2-891d-f0ffe704b076","ios":"levelo://app?vid=179d7943-e7fa-42e2-891d-f0ffe704b076"},"vehicle_type_id":"4","last_reported":1781545081,"current_range_meters":3600,"station_id":"ce4bhap2rcd13ifvqek0","pricing_plan_id":"cebpf4jnsgd1na2vs0mg"},{"bike_id":"c65772ee-c010-4523-8d92-355141ae0307","system_id":"levelo_inurba_marseille","lat":43.28747,"lon":5.36063,"is_reserved":false,"is_disabled":false,"rental_uris":{"android":"levelo://app?vid=c65772ee-c010-4523-8d92-355141ae0307","ios":"levelo://app?vid=c65772ee-c010-4523-8d92-355141ae0307"},"vehicle_type_id":"4","last_reported":1781545081,"current_range_meters":3600,"station_id":"cki0cbj6b192h4jlfktg","pricing_plan_id":"cebpf4jnsgd1na2vs0mg"},{"bike_id":"6a4c8fd6-60ee-49b6-8975-e839260444f5","system_id":"levelo_inurba_marseille","lat":43.29918,"lon":5.40992,"is_reserved":false,"is_disabled":false,"rental_uris":{"android":"levelo://app?vid=6a4c8fd6-60ee-49b6-8975-e839260444f5","ios":"levelo://app?vid=6a4c8fd6-60ee-49b6-8975-e839260444f5"},"vehicle_type_id":"4","last_reported":1781545081,"current_range_meters":3600,"station_id":"","pricing_plan_id":"cebpf4jnsgd1na2vs0mg"},{"bike_id":"90ee0f01-1530-4896-b0b7-84917d85e2c3","system_id":"levelo_inurba_marseille","lat":43.27997,"lon":5.40008,"is_reserved":false,"is_disabled":false,"rental_uris":{"android":"levelo://app?vid=90ee0f01-1530-4896-b0b7-84917d85e2c3","ios":"levelo://app?vid=90ee0f01-1530-4896-b0b7-84917d85e2c3"},"vehicle_type_id":"4","last_reported":1781545081,"current_range_meters":4000,"station_id":"ce4bho92rcd13ifvqh4g","pricing_plan_id":"cebpf4jnsgd1na2vs0mg"},{"bike_id":"558a5184-0ea9-405a-97b7-8e331fcbdb8b","system_id":"levelo_inurba_marseille","lat":43.24552,"lon":5.4117,"is_reserved":false,"is_disabled":true,"rental_uris":{"android":"levelo://app?vid=558a5184-0ea9-405a-97b7-8e331fcbdb8b","ios":"levelo://app?vid=558a5184-0ea9-405a-97b7-8e331fcbdb8b"},"vehicle_type_id":"4","last_reported":1781545081,"current_range_meters":4000,"station_id":"","pricing_plan_id":"cebpf4jnsgd1na2vs0mg"},{"bike_id":"5027ff90-395f-42e4-898e-e5662595b6cd","system_id":"levelo_inurba_marseille","lat":43.26036,"lon":5.3754,"is_reserved":false,"is_disabled":false,"rental_uris":{"android":"levelo://app?vid=5027ff90-395f-42e4-898e-e5662595b6cd","ios":"levelo://app?vid=5027ff90-395f-42e4-898e-e5662595b6cd"},"vehicle_type_id":"4","last_reported":1781545081,"current_range_meters":4000,"station_id":"ce4bhgh2rcd13ifvqfa0","pricing_plan_id":"cebpf4jnsgd1na2vs0mg"},{"bike_id":"d1186790-7eb4-4505-961e-6b62a869868a","system_id":"levelo_inurba_marseille","lat":43.2793,"lon":5.39571,"is_reserved":false,"is_disabled":false,"rental_uris":{"android":"levelo://app?vid=d1186790-7eb4-4505-961e-6b62a869868a","ios":"levelo://app?vid=d1186790-7eb4-4505-961e-6b62a869868a"},"vehicle_type_id":"4","last_reported":1781545081,"current_range_meters":4000,"station_id":"ce4bhf92rcd13ifvqf40","pricing_plan_id":"cebpf4jnsgd1na2vs0mg"},{"bike_id":"ab5964f0-01ca-454a-9179-417db9823db6","system_id":"levelo_inurba_marseille","lat":43.24816,"lon":5.3746,"is_reserved":false,"is_disabled":false,"rental_uris":{"android":"levelo://app?vid=ab5964f0-01ca-454a-9179-417db9823db6","ios":"levelo://app?vid=ab5964f0-01ca-454a-9179-417db9823db6"},"vehicle_type_id":"4","last_reported":1781545081,"current_range_meters":4000,"station_id":"ce4bhgh2rcd13ifvqfb0","pricing_plan_id":"cebpf4jnsgd1na2vs0mg"},{"bike_id":"a60dfc0f-b9f2-4a62-84b2-a659ed75a1ae","system_id":"levelo_inurba_marseille","lat":43.29628,"lon":5.39067,"is_reserved":false,"is_disabled":false,"rental_uris":{"android":"levelo://app?vid=a60dfc0f-b9f2-4a62-84b2-a659ed75a1ae","ios":"levelo://app?vid=a60dfc0f-b9f2-4a62-84b2-a659ed75a1ae"},"vehicle_type_id":"4","last_reported":1781545081,"current_range_meters":4000,"station_id":"","pricing_plan_id":"cebpf4jnsgd1na2vs0mg"},{"bike_id":"7b27f962-6865-40b2-8d23-82d543714ed1","system_id":"levelo_inurba_marseille","lat":43.27612,"lon":5.36114,"is_reserved":false,"is_disabled":false,"rental_uris":{"android":"levelo://app?vid=7b27f962-6865-40b2-8d23-82d543714ed1","ios":"levelo://app?vid=7b27f962-6865-40b2-8d23-82d543714ed1"},"vehicle_type_id":"4","last_reported":1781545081,"current_range_meters":4000,"station_id":"ce4bgj92rcd13ifvqbe0","pricing_plan_id":"cebpf4jnsgd1na2vs0mg"},{"bike_id":"8070557e-e3c0-4e1a-a82e-0b2b1f129cfd","system_id":"levelo_inurba_marseille","lat":43.22545,"lon":5.34821,"is_reserved":false,"is_disabled":false,"rental_uris":{"android":"levelo://app?vid=8070557e-e3c0-4e1a-a82e-0b2b1f129cfd","ios":"levelo://app?vid=8070557e-e3c0-4e1a-a82e-0b2b1f129cfd"},"vehicle_type_id":"4","last_reported":1781545081,"current_range_meters":4000,"station_id":"st_cvj5dfep6f1abm77gieg","pricing_plan_id":"cebpf4jnsgd1na2vs0mg"},{"bike_id":"7db57886-79c0-4e62-9d9a-13dd2f78254e","system_id":"levelo_inurba_marseille","lat":43.27832,"lon":5.39212,"is_reserved":false,"is_disabled":false,"rental_uris":{"android":"levelo://app?vid=7db57886-79c0-4e62-9d9a-13dd2f78254e","ios":"levelo://app?vid=7db57886-79c0-4e62-9d9a-13dd2f78254e"},"vehicle_type_id":"4","last_reported":1781545081,"current_range_meters":4000,"station_id":"ce4bhjp2rcd13ifvqga0","pricing_plan_id":"cebpf4jnsgd1na2vs0mg"},{"bike_id":"5e8c250d-bb85-4201-90d0-68a8c30cdfcf","system_id":"levelo_inurba_marseille","lat":43.316616,"lon":5.373274,"is_reserved":false,"is_disabled":false,"rental_uris":{"android":"levelo://app?vid=5e8c250d-bb85-4201-90d0-68a8c30cdfcf","ios":"levelo://app?vid=5e8c250d-bb85-4201-90d0-68a8c30cdfcf"},"vehicle_type_id":"4","last_reported":1781545081,"current_range_meters":4000,"station_id":"ce4bgth2rcd13ifvqch0","pricing_plan_id":"cebpf4jnsgd1na2vs0mg"},{"bike_id":"afa77d6f-ce78-4eee-9727-eb59efef4334","system_id":"levelo_inurba_marseille","lat":43.22558,"lon":5.41625,"is_reserved":false,"is_disabled":false,"rental_uris":{"android":"levelo://app?vid=afa77d6f-ce78-4eee-9727-eb59efef4334","ios":"levelo://app?vid=afa77d6f-ce78-4eee-9727-eb59efef4334"},"vehicle_type_id":"4","last_reported":1781545081,"current_range_meters":4000,"station_id":"st_d2o4gvlbi1j2169b742g","pricing_plan_id":"cebpf4jnsgd1na2vs0mg"},{"bike_id":"1a6ed284-a9f1-42e2-8277-cd30b10679de","system_id":"levelo_inurba_marseille","lat":43.29289,"lon":5.40118,"is_reserved":false,"is_disabled":false,"rental_uris":{"android":"levelo://app?vid=1a6ed284-a9f1-42e2-8277-cd30b10679de","ios":"levelo://app?vid=1a6ed284-a9f1-42e2-8277-cd30b10679de"},"vehicle_type_id":"4","last_reported":1781545081,"current_range_meters":4000,"station_id":"ce4bh312rcd13ifvqdk0","pricing_plan_id":"cebpf4jnsgd1na2vs0mg"},{"bike_id":"8bbcd48e-8342-4a7e-85dc-1ebd147c41f1","system_id":"levelo_inurba_marseille","lat":43.225316,"lon":5.348504,"is_reserved":false,"is_disabled":false,"rental_uris":{"android":"levelo://app?vid=8bbcd48e-8342-4a7e-85dc-1ebd147c41f1","ios":"levelo://app?vid=8bbcd48e-8342-4a7e-85dc-1ebd147c41f1"},"vehicle_type_id":"4","last_reported":1781545081,"current_range_meters":4000,"station_id":"st_cvj5dfep6f1abm77gieg","pricing_plan_id":"cebpf4jnsgd1na2vs0mg"},{"bike_id":"e5b5070e-f226-4051-aa16-641d4b13886e","system_id":"levelo_inurba_marseille","lat":43.28403,"lon":5.34976,"is_reserved":false,"is_disabled":false,"rental_uris":{"android":"levelo://app?vid=e5b5070e-f226-4051-aa16-641d4b13886e","ios":"levelo://app?vid=e5b5070e-f226-4051-aa16-641d4b13886e"},"vehicle_type_id":"4","last_reported":1781545081,"current_range_meters":4000,"station_id":"ce4bhbh2rcd13ifvqepg","pricing_plan_id":"cebpf4jnsgd1na2vs0mg"},{"bike_id":"f6615619-2d25-4189-bcb5-12ad464a7c08","system_id":"levelo_inurba_marseille","lat":43.31467,"lon":5.38593,"is_reserved":false,"is_disabled":false,"rental_uris":{"android":"levelo://app?vid=f6615619-2d25-4189-bcb5-12ad464a7c08","ios":"levelo://app?vid=f6615619-2d25-4189-bcb5-12ad464a7c08"},"vehicle_type_id":"4","last_reported":1781545081,"current_range_meters":4400,"station_id":"","pricing_plan_id":"cebpf4jnsgd1na2vs0mg"},{"bike_id":"da5d8d1c-8084-46da-b65d-4193194e5c0a","system_id":"levelo_inurba_marseille","lat":43.28488,"lon":5.48381,"is_reserved":false,"is_disabled":false,"rental_uris":{"android":"levelo://app?vid=da5d8d1c-8084-46da-b65d-4193194e5c0a","ios":"levelo://app?vid=da5d8d1c-8084-46da-b65d-4193194e5c0a"},"vehicle_type_id":"4","last_reported":1781545081,"current_range_meters":4400,"station_id":"st_d3svhcjqgbts73a3dn0g","pricing_plan_id":"cebpf4jnsgd1na2vs0mg"},{"bike_id":"d0e687e2-d20a-45a3-9426-b5631dc5dae4","system_id":"levelo_inurba_marseille","lat":43.31891,"lon":5.36812,"is_reserved":false,"is_disabled":false,"rental_uris":{"android":"levelo://app?vid=d0e687e2-d20a-45a3-9426-b5631dc5dae4","ios":"levelo://app?vid=d0e687e2-d20a-45a3-9426-b5631dc5dae4"},"vehicle_type_id":"4","last_reported":1781545081,"current_range_meters":4400,"station_id":"st_d6o2h0d0559c73evc1b0","pricing_plan_id":"cebpf4jnsgd1na2vs0mg"},{"bike_id":"dedeacb4-a3e0-4382-b85d-0876f418ac21","system_id":"levelo_inurba_marseille","lat":43.292205,"lon":5.360727,"is_reserved":false,"is_disabled":false,"rental_uris":{"android":"levelo://app?vid=dedeacb4-a3e0-4382-b85d-0876f418ac21","ios":"levelo://app?vid=dedeacb4-a3e0-4382-b85d-0876f418ac21"},"vehicle_type_id":"4","last_reported":1781545081,"current_range_meters":4400,"station_id":"ce4bhbh2rcd13ifvqeqg","pricing_plan_id":"cebpf4jnsgd1na2vs0mg"},{"bike_id":"cf6805a6-6f9c-4862-9067-853782c81024","system_id":"levelo_inurba_marseille","lat":43.3144,"lon":5.3739,"is_reserved":false,"is_disabled":false,"rental_uris":{"android":"levelo://app?vid=cf6805a6-6f9c-4862-9067-853782c81024","ios":"levelo://app?vid=cf6805a6-6f9c-4862-9067-853782c81024"},"vehicle_type_id":"4","last_reported":1781545081,"current_range_meters":4400,"station_id":"","pricing_plan_id":"cebpf4jnsgd1na2vs0mg"},{"bike_id":"923ef575-f029-4ee9-bacf-74054f682f6d","system_id":"levelo_inurba_marseille","lat":43.29013,"lon":5.35596,"is_reserved":false,"is_disabled":false,"rental_uris":{"android":"levelo://app?vid=923ef575-f029-4ee9-bacf-74054f682f6d","ios":"levelo://app?vid=923ef575-f029-4ee9-bacf-74054f682f6d"},"vehicle_type_id":"4","last_reported":1781545081,"current_range_meters":4400,"station_id":"ce4bhb92rcd13ifvqen0","pricing_plan_id":"cebpf4jnsgd1na2vs0mg"},{"bike_id":"ce11bf98-817d-4a7d-8177-ed164075125e","system_id":"levelo_inurba_marseille","lat":43.28422,"lon":5.34985,"is_reserved":false,"is_disabled":false,"rental_uris":{"android":"levelo://app?vid=ce11bf98-817d-4a7d-8177-ed164075125e","ios":"levelo://app?vid=ce11bf98-817d-4a7d-8177-ed164075125e"},"vehicle_type_id":"4","last_reported":1781545081,"current_range_meters":4400,"station_id":"ce4bhbh2rcd13ifvqepg","pricing_plan_id":"cebpf4jnsgd1na2vs0mg"},{"bike_id":"9a1cc2c6-f125-4427-9576-1ea54006fd27","system_id":"levelo_inurba_marseille","lat":43.28343,"lon":5.38831,"is_reserved":false,"is_disabled":false,"rental_uris":{"android":"levelo://app?vid=9a1cc2c6-f125-4427-9576-1ea54006fd27","ios":"levelo://app?vid=9a1cc2c6-f125-4427-9576-1ea54006fd27"},"vehicle_type_id":"4","last_reported":1781545081,"current_range_meters":4400,"station_id":"","pricing_plan_id":"cebpf4jnsgd1na2vs0mg"},{"bike_id":"b2ea6d31-3125-4c8f-9bbf-89e8f92228e9","system_id":"levelo_inurba_marseille","lat":43.29935,"lon":5.38202,"is_reserved":false,"is_disabled":false,"rental_uris":{"android":"levelo://app?vid=b2ea6d31-3125-4c8f-9bbf-89e8f92228e9","ios":"levelo://app?vid=b2ea6d31-3125-4c8f-9bbf-89e8f92228e9"},"vehicle_type_id":"4","last_reported":1781545081,"current_range_meters":4400,"station_id":"","pricing_plan_id":"cebpf4jnsgd1na2vs0mg"},{"bike_id":"67673a61-485e-4b57-b6dd-3fdcede3eb72","system_id":"levelo_inurba_marseille","lat":43.2955,"lon":5.38593,"is_reserved":false,"is_disabled":false,"rental_uris":{"android":"levelo://app?vid=67673a61-485e-4b57-b6dd-3fdcede3eb72","ios":"levelo://app?vid=67673a61-485e-4b57-b6dd-3fdcede3eb72"},"vehicle_type_id":"4","last_reported":1781545081,"current_range_meters":4400,"station_id":"ce4bgih2rcd13ifvqba0","pricing_plan_id":"cebpf4jnsgd1na2vs0mg"},{"bike_id":"62353bcf-a361-4942-9966-85ff14654d77","system_id":"levelo_inurba_marseille","lat":43.26231,"lon":5.38763,"is_reserved":false,"is_disabled":false,"rental_uris":{"android":"levelo://app?vid=62353bcf-a361-4942-9966-85ff14654d77","ios":"levelo://app?vid=62353bcf-a361-4942-9966-85ff14654d77"},"vehicle_type_id":"4","last_reported":1781545081,"current_range_meters":4400,"station_id":"st_d8gjfg747rts73coq3b0","pricing_plan_id":"cebpf4jnsgd1na2vs0mg"},{"bike_id":"63d3a6d8-b748-4cc0-8b0d-63913bc8d235","system_id":"levelo_inurba_marseille","lat":43.29273,"lon":5.38429,"is_reserved":false,"is_disabled":false,"rental_uris":{"android":"levelo://app?vid=63d3a6d8-b748-4cc0-8b0d-63913bc8d235","ios":"levelo://app?vid=63d3a6d8-b748-4cc0-8b0d-63913bc8d235"},"vehicle_type_id":"4","last_reported":1781545081,"current_range_meters":4400,"station_id":"ce4bh692rcd13ifvqea0","pricing_plan_id":"cebpf4jnsgd1na2vs0mg"},{"bike_id":"948e3cb9-f1b3-4011-9e3b-50a9ba1dee13","system_id":"levelo_inurba_marseille","lat":43.243915,"lon":5.370698,"is_reserved":false,"is_disabled":false,"rental_uris":{"android":"levelo://app?vid=948e3cb9-f1b3-4011-9e3b-50a9ba1dee13","ios":"levelo://app?vid=948e3cb9-f1b3-4011-9e3b-50a9ba1dee13"},"vehicle_type_id":"4","last_reported":1781545081,"current_range_meters":4400,"station_id":"ce4bhhh2rcd13ifvqfk0","pricing_plan_id":"cebpf4jnsgd1na2vs0mg"},{"bike_id":"8ed01824-88a4-4d11-9491-91231461a64a","system_id":"levelo_inurba_marseille","lat":43.22536,"lon":5.3482,"is_reserved":false,"is_disabled":false,"rental_uris":{"android":"levelo://app?vid=8ed01824-88a4-4d11-9491-91231461a64a","ios":"levelo://app?vid=8ed01824-88a4-4d11-9491-91231461a64a"},"vehicle_type_id":"4","last_reported":1781545081,"current_range_meters":4400,"station_id":"st_cvj5dfep6f1abm77gieg","pricing_plan_id":"cebpf4jnsgd1na2vs0mg"},{"bike_id":"c19fb9c2-349c-48e3-8780-585b6749c07b","system_id":"levelo_inurba_marseille","lat":43.25178,"lon":5.37458,"is_reserved":false,"is_disabled":false,"rental_uris":{"android":"levelo://app?vid=c19fb9c2-349c-48e3-8780-585b6749c07b","ios":"levelo://app?vid=c19fb9c2-349c-48e3-8780-585b6749c07b"},"vehicle_type_id":"4","last_reported":1781545081,"current_range_meters":4400,"station_id":"","pricing_plan_id":"cebpf4jnsgd1na2vs0mg"},{"bike_id":"c1f68980-2c23-4bea-a5b7-10eab983fb1d","system_id":"levelo_inurba_marseille","lat":43.29212,"lon":5.36025,"is_reserved":false,"is_disabled":true,"rental_uris":{"android":"levelo://app?vid=c1f68980-2c23-4bea-a5b7-10eab983fb1d","ios":"levelo://app?vid=c1f68980-2c23-4bea-a5b7-10eab983fb1d"},"vehicle_type_id":"4","last_reported":1781545081,"current_range_meters":4800,"station_id":"ce4bhbh2rcd13ifvqeqg","pricing_plan_id":"cebpf4jnsgd1na2vs0mg"},{"bike_id":"9b8180d1-5de8-4b06-a649-5b9887f66a0d","system_id":"levelo_inurba_marseille","lat":43.32562,"lon":5.38756,"is_reserved":false,"is_disabled":false,"rental_uris":{"android":"levelo://app?vid=9b8180d1-5de8-4b06-a649-5b9887f66a0d","ios":"levelo://app?vid=9b8180d1-5de8-4b06-a649-5b9887f66a0d"},"vehicle_type_id":"4","last_reported":1781545081,"current_range_meters":4800,"station_id":"","pricing_plan_id":"cebpf4jnsgd1na2vs0mg"},{"bike_id":"9e780a07-5609-4021-8fe1-465144d05c90","system_id":"levelo_inurba_marseille","lat":43.28708,"lon":5.37725,"is_reserved":false,"is_disabled":false,"rental_uris":{"android":"levelo://app?vid=9e780a07-5609-4021-8fe1-465144d05c90","ios":"levelo://app?vid=9e780a07-5609-4021-8fe1-465144d05c90"},"vehicle_type_id":"4","last_reported":1781545081,"current_range_meters":4800,"station_id":"","pricing_plan_id":"cebpf4jnsgd1na2vs0mg"},{"bike_id":"20fc192c-f63d-43c9-9482-378005b6e430","system_id":"levelo_inurba_marseille","lat":43.24806,"lon":5.37448,"is_reserved":false,"is_disabled":false,"rental_uris":{"android":"levelo://app?vid=20fc192c-f63d-43c9-9482-378005b6e430","ios":"levelo://app?vid=20fc192c-f63d-43c9-9482-378005b6e430"},"vehicle_type_id":"4","last_reported":1781545081,"current_range_meters":4800,"station_id":"ce4bhgh2rcd13ifvqfb0","pricing_plan_id":"cebpf4jnsgd1na2vs0mg"},{"bike_id":"ecb13e5f-b21f-43d0-b5cf-eebfab7c2616","system_id":"levelo_inurba_marseille","lat":43.25588,"lon":5.3824,"is_reserved":false,"is_disabled":false,"rental_uris":{"android":"levelo://app?vid=ecb13e5f-b21f-43d0-b5cf-eebfab7c2616","ios":"levelo://app?vid=ecb13e5f-b21f-43d0-b5cf-eebfab7c2616"},"vehicle_type_id":"4","last_reported":1781545081,"current_range_meters":4800,"station_id":"ce4bhih2rcd13ifvqfs0","pricing_plan_id":"cebpf4jnsgd1na2vs0mg"},{"bike_id":"731979a3-bc68-4c96-92fd-1f561806c240","system_id":"levelo_inurba_marseille","lat":43.303128,"lon":5.369038,"is_reserved":false,"is_disabled":true,"rental_uris":{"android":"levelo://app?vid=731979a3-bc68-4c96-92fd-1f561806c240","ios":"levelo://app?vid=731979a3-bc68-4c96-92fd-1f561806c240"},"vehicle_type_id":"4","last_reported":1781545081,"current_range_meters":4800,"station_id":"ce4bhgh2rcd13ifvqfb0","pricing_plan_id":"cebpf4jnsgd1na2vs0mg"},{"bike_id":"75b7acde-35e3-4f99-a181-df047454304b","system_id":"levelo_inurba_marseille","lat":43.24636,"lon":5.37971,"is_reserved":false,"is_disabled":false,"rental_uris":{"android":"levelo://app?vid=75b7acde-35e3-4f99-a181-df047454304b","ios":"levelo://app?vid=75b7acde-35e3-4f99-a181-df047454304b"},"vehicle_type_id":"4","last_reported":1781545081,"current_range_meters":4800,"station_id":"","pricing_plan_id":"cebpf4jnsgd1na2vs0mg"},{"bike_id":"efe86296-843c-47d1-abf7-44fe56da5375","system_id":"levelo_inurba_marseille","lat":43.28624,"lon":5.35098,"is_reserved":false,"is_disabled":false,"rental_uris":{"android":"levelo://app?vid=efe86296-843c-47d1-abf7-44fe56da5375","ios":"levelo://app?vid=efe86296-843c-47d1-abf7-44fe56da5375"},"vehicle_type_id":"4","last_reported":1781545081,"current_range_meters":4800,"station_id":"ce4bhch2rcd13ifvqeug","pricing_plan_id":"cebpf4jnsgd1na2vs0mg"},{"bike_id":"2f3ad772-8d8c-42a1-8875-892caab1f437","system_id":"levelo_inurba_marseille","lat":43.27182,"lon":5.40985,"is_reserved":false,"is_disabled":false,"rental_uris":{"android":"levelo://app?vid=2f3ad772-8d8c-42a1-8875-892caab1f437","ios":"levelo://app?vid=2f3ad772-8d8c-42a1-8875-892caab1f437"},"vehicle_type_id":"4","last_reported":1781545081,"current_range_meters":4800,"station_id":"ce4bhl12rcd13ifvqgf0","pricing_plan_id":"cebpf4jnsgd1na2vs0mg"},{"bike_id":"f12b692b-f1b2-43c8-8309-4b487cabc646","system_id":"levelo_inurba_marseille","lat":43.29139,"lon":5.38491,"is_reserved":false,"is_disabled":false,"rental_uris":{"android":"levelo://app?vid=f12b692b-f1b2-43c8-8309-4b487cabc646","ios":"levelo://app?vid=f12b692b-f1b2-43c8-8309-4b487cabc646"},"vehicle_type_id":"4","last_reported":1781545081,"current_range_meters":4800,"station_id":"","pricing_plan_id":"cebpf4jnsgd1na2vs0mg"},{"bike_id":"2c75c1c6-bae4-4171-ae0e-793c3e6eb9d7","system_id":"levelo_inurba_marseille","lat":43.23178,"lon":5.39987,"is_reserved":false,"is_disabled":false,"rental_uris":{"android":"levelo://app?vid=2c75c1c6-bae4-4171-ae0e-793c3e6eb9d7","ios":"levelo://app?vid=2c75c1c6-bae4-4171-ae0e-793c3e6eb9d7"},"vehicle_type_id":"4","last_reported":1781545081,"current_range_meters":4800,"station_id":"ce4bhn12rcd13ifvqgqg","pricing_plan_id":"cebpf4jnsgd1na2vs0mg"},{"bike_id":"0d401724-f879-4d14-a30f-7c158e1ef518","system_id":"levelo_inurba_marseille","lat":43.2861,"lon":5.39867,"is_reserved":false,"is_disabled":false,"rental_uris":{"android":"levelo://app?vid=0d401724-f879-4d14-a30f-7c158e1ef518","ios":"levelo://app?vid=0d401724-f879-4d14-a30f-7c158e1ef518"},"vehicle_type_id":"4","last_reported":1781545081,"current_range_meters":4800,"station_id":"st_d4a7ka997mjs738ck50g","pricing_plan_id":"cebpf4jnsgd1na2vs0mg"},{"bike_id":"d6660c42-9ba9-4252-a096-0766a265d0eb","system_id":"levelo_inurba_marseille","lat":43.286102,"lon":5.351149,"is_reserved":false,"is_disabled":false,"rental_uris":{"android":"levelo://app?vid=d6660c42-9ba9-4252-a096-0766a265d0eb","ios":"levelo://app?vid=d6660c42-9ba9-4252-a096-0766a265d0eb"},"vehicle_type_id":"4","last_reported":1781545081,"current_range_meters":4800,"station_id":"ce4bhch2rcd13ifvqeug","pricing_plan_id":"cebpf4jnsgd1na2vs0mg"},{"bike_id":"5023d706-2a76-4f18-adbc-09b16eee5684","system_id":"levelo_inurba_marseille","lat":43.28626,"lon":5.35098,"is_reserved":false,"is_disabled":false,"rental_uris":{"android":"levelo://app?vid=5023d706-2a76-4f18-adbc-09b16eee5684","ios":"levelo://app?vid=5023d706-2a76-4f18-adbc-09b16eee5684"},"vehicle_type_id":"4","last_reported":1781545081,"current_range_meters":4800,"station_id":"ce4bhch2rcd13ifvqeug","pricing_plan_id":"cebpf4jnsgd1na2vs0mg"},{"bike_id":"aae1128c-de11-4114-8f67-ae5282eca02e","system_id":"levelo_inurba_marseille","lat":43.23759,"lon":5.37774,"is_reserved":false,"is_disabled":false,"rental_uris":{"android":"levelo://app?vid=aae1128c-de11-4114-8f67-ae5282eca02e","ios":"levelo://app?vid=aae1128c-de11-4114-8f67-ae5282eca02e"},"vehicle_type_id":"4","last_reported":1781545081,"current_range_meters":5600,"station_id":"","pricing_plan_id":"cebpf4jnsgd1na2vs0mg"},{"bike_id":"898e24cd-99b5-473a-86d2-3c5d60a94605","system_id":"levelo_inurba_marseille","lat":43.296177,"lon":5.380267,"is_reserved":false,"is_disabled":false,"rental_uris":{"android":"levelo://app?vid=898e24cd-99b5-473a-86d2-3c5d60a94605","ios":"levelo://app?vid=898e24cd-99b5-473a-86d2-3c5d60a94605"},"vehicle_type_id":"4","last_reported":1781545081,"current_range_meters":5600,"station_id":"","pricing_plan_id":"cebpf4jnsgd1na2vs0mg"},{"bike_id":"98ab1956-4acb-488e-a7f1-0334d6f147ee","system_id":"levelo_inurba_marseille","lat":43.31375,"lon":5.38485,"is_reserved":false,"is_disabled":false,"rental_uris":{"android":"levelo://app?vid=98ab1956-4acb-488e-a7f1-0334d6f147ee","ios":"levelo://app?vid=98ab1956-4acb-488e-a7f1-0334d6f147ee"},"vehicle_type_id":"4","last_reported":1781545081,"current_range_meters":5600,"station_id":"ce4bgt92rcd13ifvqcf0","pricing_plan_id":"cebpf4jnsgd1na2vs0mg"},{"bike_id":"cc88ac88-6fa6-4664-9c80-b91e0849a824","system_id":"levelo_inurba_marseille","lat":43.23878,"lon":5.36537,"is_reserved":false,"is_disabled":false,"rental_uris":{"android":"levelo://app?vid=cc88ac88-6fa6-4664-9c80-b91e0849a824","ios":"levelo://app?vid=cc88ac88-6fa6-4664-9c80-b91e0849a824"},"vehicle_type_id":"4","last_reported":1781545081,"current_range_meters":5600,"station_id":"","pricing_plan_id":"cebpf4jnsgd1na2vs0mg"},{"bike_id":"5766ad62-d2d6-4325-a825-1796d7732601","system_id":"levelo_inurba_marseille","lat":43.28653,"lon":5.36336,"is_reserved":false,"is_disabled":false,"rental_uris":{"android":"levelo://app?vid=5766ad62-d2d6-4325-a825-1796d7732601","ios":"levelo://app?vid=5766ad62-d2d6-4325-a825-1796d7732601"},"vehicle_type_id":"4","last_reported":1781545081,"current_range_meters":5600,"station_id":"ce4bhah2rcd13ifvqej0","pricing_plan_id":"cebpf4jnsgd1na2vs0mg"},{"bike_id":"b154b0db-799b-455f-882e-6d5608114467","system_id":"levelo_inurba_marseille","lat":43.32075,"lon":5.41521,"is_reserved":false,"is_disabled":false,"rental_uris":{"android":"levelo://app?vid=b154b0db-799b-455f-882e-6d5608114467","ios":"levelo://app?vid=b154b0db-799b-455f-882e-6d5608114467"},"vehicle_type_id":"4","last_reported":1781545081,"current_range_meters":5600,"station_id":"ce4bhq92rcd13ifvqhkg","pricing_plan_id":"cebpf4jnsgd1na2vs0mg"},{"bike_id":"eb024924-297d-4cda-a3a6-6ccebef8827c","system_id":"levelo_inurba_marseille","lat":43.28414,"lon":5.34979,"is_reserved":false,"is_disabled":false,"rental_uris":{"android":"levelo://app?vid=eb024924-297d-4cda-a3a6-6ccebef8827c","ios":"levelo://app?vid=eb024924-297d-4cda-a3a6-6ccebef8827c"},"vehicle_type_id":"4","last_reported":1781545081,"current_range_meters":5600,"station_id":"ce4bhbh2rcd13ifvqepg","pricing_plan_id":"cebpf4jnsgd1na2vs0mg"},{"bike_id":"14ff1532-e62f-4525-9484-7fdc80f48377","system_id":"levelo_inurba_marseille","lat":43.29264,"lon":5.40131,"is_reserved":false,"is_disabled":false,"rental_uris":{"android":"levelo://app?vid=14ff1532-e62f-4525-9484-7fdc80f48377","ios":"levelo://app?vid=14ff1532-e62f-4525-9484-7fdc80f48377"},"vehicle_type_id":"4","last_reported":1781545081,"current_range_meters":5600,"station_id":"ce4bh312rcd13ifvqdk0","pricing_plan_id":"cebpf4jnsgd1na2vs0mg"},{"bike_id":"928ddb80-8db9-42c3-9070-4ced6814c293","system_id":"levelo_inurba_marseille","lat":43.29557,"lon":5.42278,"is_reserved":false,"is_disabled":false,"rental_uris":{"android":"levelo://app?vid=928ddb80-8db9-42c3-9070-4ced6814c293","ios":"levelo://app?vid=928ddb80-8db9-42c3-9070-4ced6814c293"},"vehicle_type_id":"4","last_reported":1781545081,"current_range_meters":5600,"station_id":"ce4bhph2rcd13ifvqhdg","pricing_plan_id":"cebpf4jnsgd1na2vs0mg"},{"bike_id":"80835841-fb7b-45ca-a651-3ab4925221b2","system_id":"levelo_inurba_marseille","lat":43.27951,"lon":5.38694,"is_reserved":false,"is_disabled":false,"rental_uris":{"android":"levelo://app?vid=80835841-fb7b-45ca-a651-3ab4925221b2","ios":"levelo://app?vid=80835841-fb7b-45ca-a651-3ab4925221b2"},"vehicle_type_id":"4","last_reported":1781545081,"current_range_meters":5600,"station_id":"ce4bhg12rcd13ifvqf80","pricing_plan_id":"cebpf4jnsgd1na2vs0mg"},{"bike_id":"f77f62af-4e2f-4be0-b792-3c8e2ea50b20","system_id":"levelo_inurba_marseille","lat":43.28411,"lon":5.34987,"is_reserved":false,"is_disabled":false,"rental_uris":{"android":"levelo://app?vid=f77f62af-4e2f-4be0-b792-3c8e2ea50b20","ios":"levelo://app?vid=f77f62af-4e2f-4be0-b792-3c8e2ea50b20"},"vehicle_type_id":"4","last_reported":1781545081,"current_range_meters":5600,"station_id":"ce4bhbh2rcd13ifvqepg","pricing_plan_id":"cebpf4jnsgd1na2vs0mg"},{"bike_id":"747952ef-f5ec-4808-9c4c-7971cc6e70ca","system_id":"levelo_inurba_marseille","lat":43.308905,"lon":5.396628,"is_reserved":false,"is_disabled":false,"rental_uris":{"android":"levelo://app?vid=747952ef-f5ec-4808-9c4c-7971cc6e70ca","ios":"levelo://app?vid=747952ef-f5ec-4808-9c4c-7971cc6e70ca"},"vehicle_type_id":"4","last_reported":1781545081,"current_range_meters":5600,"station_id":"ce4bh012rcd13ifvqcv0","pricing_plan_id":"cebpf4jnsgd1na2vs0mg"},{"bike_id":"ba6353a6-cab8-40f2-9c45-a007b7c7f3c1","system_id":"levelo_inurba_marseille","lat":43.27997,"lon":5.4001,"is_reserved":false,"is_disabled":false,"rental_uris":{"android":"levelo://app?vid=ba6353a6-cab8-40f2-9c45-a007b7c7f3c1","ios":"levelo://app?vid=ba6353a6-cab8-40f2-9c45-a007b7c7f3c1"},"vehicle_type_id":"4","last_reported":1781545081,"current_range_meters":5600,"station_id":"ce4bho92rcd13ifvqh4g","pricing_plan_id":"cebpf4jnsgd1na2vs0mg"},{"bike_id":"aa40453d-3411-4ef5-b447-87689c2c4123","system_id":"levelo_inurba_marseille","lat":43.30948,"lon":5.39033,"is_reserved":false,"is_disabled":false,"rental_uris":{"android":"levelo://app?vid=aa40453d-3411-4ef5-b447-87689c2c4123","ios":"levelo://app?vid=aa40453d-3411-4ef5-b447-87689c2c4123"},"vehicle_type_id":"4","last_reported":1781545081,"current_range_meters":5600,"station_id":"ce4bgup2rcd13ifvqco0","pricing_plan_id":"cebpf4jnsgd1na2vs0mg"},{"bike_id":"25baf129-7bee-40b4-8dee-5b36cf5181d1","system_id":"levelo_inurba_marseille","lat":43.27437,"lon":5.394,"is_reserved":false,"is_disabled":true,"rental_uris":{"android":"levelo://app?vid=25baf129-7bee-40b4-8dee-5b36cf5181d1","ios":"levelo://app?vid=25baf129-7bee-40b4-8dee-5b36cf5181d1"},"vehicle_type_id":"4","last_reported":1781545081,"current_range_meters":6000,"station_id":"ce4bhdp2rcd13ifvqf20","pricing_plan_id":"cebpf4jnsgd1na2vs0mg"},{"bike_id":"86d3e13b-e744-40cf-914c-091c3931bc83","system_id":"levelo_inurba_marseille","lat":43.32374,"lon":5.36761,"is_reserved":false,"is_disabled":false,"rental_uris":{"android":"levelo://app?vid=86d3e13b-e744-40cf-914c-091c3931bc83","ios":"levelo://app?vid=86d3e13b-e744-40cf-914c-091c3931bc83"},"vehicle_type_id":"4","last_reported":1781545081,"current_range_meters":6000,"station_id":"ce4bhsh2rcd13ifvqi2g","pricing_plan_id":"cebpf4jnsgd1na2vs0mg"},{"bike_id":"da0be67b-b8b1-4e87-aae7-77c540e2eb4c","system_id":"levelo_inurba_marseille","lat":43.25522,"lon":5.37624,"is_reserved":false,"is_disabled":false,"rental_uris":{"android":"levelo://app?vid=da0be67b-b8b1-4e87-aae7-77c540e2eb4c","ios":"levelo://app?vid=da0be67b-b8b1-4e87-aae7-77c540e2eb4c"},"vehicle_type_id":"4","last_reported":1781545081,"current_range_meters":6000,"station_id":"ce4bhh12rcd13ifvqff0","pricing_plan_id":"cebpf4jnsgd1na2vs0mg"},{"bike_id":"d26b57ff-d875-4335-9808-23eb8ac8bbd5","system_id":"levelo_inurba_marseille","lat":43.29979,"lon":5.38549,"is_reserved":false,"is_disabled":false,"rental_uris":{"android":"levelo://app?vid=d26b57ff-d875-4335-9808-23eb8ac8bbd5","ios":"levelo://app?vid=d26b57ff-d875-4335-9808-23eb8ac8bbd5"},"vehicle_type_id":"4","last_reported":1781545081,"current_range_meters":6000,"station_id":"","pricing_plan_id":"cebpf4jnsgd1na2vs0mg"},{"bike_id":"d4fe8964-e566-4595-91e3-77ebf8c748b4","system_id":"levelo_inurba_marseille","lat":43.27614,"lon":5.36108,"is_reserved":false,"is_disabled":false,"rental_uris":{"android":"levelo://app?vid=d4fe8964-e566-4595-91e3-77ebf8c748b4","ios":"levelo://app?vid=d4fe8964-e566-4595-91e3-77ebf8c748b4"},"vehicle_type_id":"4","last_reported":1781545081,"current_range_meters":6000,"station_id":"ce4bgj92rcd13ifvqbe0","pricing_plan_id":"cebpf4jnsgd1na2vs0mg"},{"bike_id":"d687948e-ed06-40fd-ab0e-1aa0824c6ef3","system_id":"levelo_inurba_marseille","lat":43.24272,"lon":5.3677,"is_reserved":false,"is_disabled":false,"rental_uris":{"android":"levelo://app?vid=d687948e-ed06-40fd-ab0e-1aa0824c6ef3","ios":"levelo://app?vid=d687948e-ed06-40fd-ab0e-1aa0824c6ef3"},"vehicle_type_id":"4","last_reported":1781545081,"current_range_meters":6000,"station_id":"","pricing_plan_id":"cebpf4jnsgd1na2vs0mg"},{"bike_id":"ec1e0657-3d78-47c9-8cd9-8693c0d09e60","system_id":"levelo_inurba_marseille","lat":43.31058,"lon":5.37182,"is_reserved":false,"is_disabled":false,"rental_uris":{"android":"levelo://app?vid=ec1e0657-3d78-47c9-8cd9-8693c0d09e60","ios":"levelo://app?vid=ec1e0657-3d78-47c9-8cd9-8693c0d09e60"},"vehicle_type_id":"4","last_reported":1781545081,"current_range_meters":6000,"station_id":"st_d4kl2rp97mjs73e7tdfg","pricing_plan_id":"cebpf4jnsgd1na2vs0mg"},{"bike_id":"2530435d-7444-4e5d-966d-a9f15c89889a","system_id":"levelo_inurba_marseille","lat":43.27939,"lon":5.38733,"is_reserved":false,"is_disabled":true,"rental_uris":{"android":"levelo://app?vid=2530435d-7444-4e5d-966d-a9f15c89889a","ios":"levelo://app?vid=2530435d-7444-4e5d-966d-a9f15c89889a"},"vehicle_type_id":"4","last_reported":1781545081,"current_range_meters":6000,"station_id":"ce4bhg12rcd13ifvqf80","pricing_plan_id":"cebpf4jnsgd1na2vs0mg"},{"bike_id":"88e0467f-aeab-4bbb-8cc5-c1c661d4c951","system_id":"levelo_inurba_marseille","lat":43.26582,"lon":5.39005,"is_reserved":false,"is_disabled":false,"rental_uris":{"android":"levelo://app?vid=88e0467f-aeab-4bbb-8cc5-c1c661d4c951","ios":"levelo://app?vid=88e0467f-aeab-4bbb-8cc5-c1c661d4c951"},"vehicle_type_id":"4","last_reported":1781545081,"current_range_meters":6000,"station_id":"ce4bhe12rcd13ifvqf30","pricing_plan_id":"cebpf4jnsgd1na2vs0mg"},{"bike_id":"00b9e272-757b-4ad7-8d45-e1e6ab66a9e6","system_id":"levelo_inurba_marseille","lat":43.255167,"lon":5.37651,"is_reserved":false,"is_disabled":false,"rental_uris":{"android":"levelo://app?vid=00b9e272-757b-4ad7-8d45-e1e6ab66a9e6","ios":"levelo://app?vid=00b9e272-757b-4ad7-8d45-e1e6ab66a9e6"},"vehicle_type_id":"4","last_reported":1781545081,"current_range_meters":6000,"station_id":"ce4bhh12rcd13ifvqff0","pricing_plan_id":"cebpf4jnsgd1na2vs0mg"},{"bike_id":"18dd5a61-21c6-4084-b646-913ebd7479f2","system_id":"levelo_inurba_marseille","lat":43.29546,"lon":5.3671,"is_reserved":false,"is_disabled":true,"rental_uris":{"android":"levelo://app?vid=18dd5a61-21c6-4084-b646-913ebd7479f2","ios":"levelo://app?vid=18dd5a61-21c6-4084-b646-913ebd7479f2"},"vehicle_type_id":"4","last_reported":1781545081,"current_range_meters":6000,"station_id":"ce4bgph2rcd13ifvqc2g","pricing_plan_id":"cebpf4jnsgd1na2vs0mg"},{"bike_id":"4ba85918-e763-45d0-8b19-56a5d37bd7c9","system_id":"levelo_inurba_marseille","lat":43.26494,"lon":5.39538,"is_reserved":false,"is_disabled":false,"rental_uris":{"android":"levelo://app?vid=4ba85918-e763-45d0-8b19-56a5d37bd7c9","ios":"levelo://app?vid=4ba85918-e763-45d0-8b19-56a5d37bd7c9"},"vehicle_type_id":"4","last_reported":1781545081,"current_range_meters":6000,"station_id":"ce4bhi12rcd13ifvqfq0","pricing_plan_id":"cebpf4jnsgd1na2vs0mg"},{"bike_id":"6f345ef8-e668-4412-8376-27ee7b7ee8b4","system_id":"levelo_inurba_marseille","lat":43.28664,"lon":5.3635,"is_reserved":false,"is_disabled":false,"rental_uris":{"android":"levelo://app?vid=6f345ef8-e668-4412-8376-27ee7b7ee8b4","ios":"levelo://app?vid=6f345ef8-e668-4412-8376-27ee7b7ee8b4"},"vehicle_type_id":"4","last_reported":1781545081,"current_range_meters":6000,"station_id":"ce4bhah2rcd13ifvqej0","pricing_plan_id":"cebpf4jnsgd1na2vs0mg"},{"bike_id":"f70d3549-be27-4605-85f6-ad4923d8b4de","system_id":"levelo_inurba_marseille","lat":43.25826,"lon":5.39426,"is_reserved":false,"is_disabled":false,"rental_uris":{"android":"levelo://app?vid=f70d3549-be27-4605-85f6-ad4923d8b4de","ios":"levelo://app?vid=f70d3549-be27-4605-85f6-ad4923d8b4de"},"vehicle_type_id":"4","last_reported":1781545081,"current_range_meters":6000,"station_id":"ce4bhip2rcd13ifvqft0","pricing_plan_id":"cebpf4jnsgd1na2vs0mg"},{"bike_id":"54f2d078-6439-4ce6-8725-248b8420e9cc","system_id":"levelo_inurba_marseille","lat":43.29391,"lon":5.37847,"is_reserved":false,"is_disabled":true,"rental_uris":{"android":"levelo://app?vid=54f2d078-6439-4ce6-8725-248b8420e9cc","ios":"levelo://app?vid=54f2d078-6439-4ce6-8725-248b8420e9cc"},"vehicle_type_id":"4","last_reported":1781545081,"current_range_meters":6000,"station_id":"ce4bgjh2rcd13ifvqbf0","pricing_plan_id":"cebpf4jnsgd1na2vs0mg"},{"bike_id":"1dd4d99c-2fc3-44a6-a4b7-fcb7c5c7fdd1","system_id":"levelo_inurba_marseille","lat":43.27379,"lon":5.3625,"is_reserved":false,"is_disabled":false,"rental_uris":{"android":"levelo://app?vid=1dd4d99c-2fc3-44a6-a4b7-fcb7c5c7fdd1","ios":"levelo://app?vid=1dd4d99c-2fc3-44a6-a4b7-fcb7c5c7fdd1"},"vehicle_type_id":"4","last_reported":1781545081,"current_range_meters":6000,"station_id":"ce4bhbh2rcd13ifvqeo0","pricing_plan_id":"cebpf4jnsgd1na2vs0mg"},{"bike_id":"a1a38277-f994-4bb1-afab-6b21b53b5c63","system_id":"levelo_inurba_marseille","lat":43.25094,"lon":5.39517,"is_reserved":false,"is_disabled":false,"rental_uris":{"android":"levelo://app?vid=a1a38277-f994-4bb1-afab-6b21b53b5c63","ios":"levelo://app?vid=a1a38277-f994-4bb1-afab-6b21b53b5c63"},"vehicle_type_id":"4","last_reported":1781545081,"current_range_meters":6000,"station_id":"ce4bhm12rcd13ifvqgkg","pricing_plan_id":"cebpf4jnsgd1na2vs0mg"},{"bike_id":"f56c6d4a-4a65-4f40-8692-135b5472bf8a","system_id":"levelo_inurba_marseille","lat":43.29222,"lon":5.36079,"is_reserved":false,"is_disabled":false,"rental_uris":{"android":"levelo://app?vid=f56c6d4a-4a65-4f40-8692-135b5472bf8a","ios":"levelo://app?vid=f56c6d4a-4a65-4f40-8692-135b5472bf8a"},"vehicle_type_id":"4","last_reported":1781545081,"current_range_meters":6000,"station_id":"ce4bhbh2rcd13ifvqeqg","pricing_plan_id":"cebpf4jnsgd1na2vs0mg"},{"bike_id":"4115eb0c-08e4-4e8d-aadc-935e7aca0a80","system_id":"levelo_inurba_marseille","lat":43.24392,"lon":5.36915,"is_reserved":false,"is_disabled":false,"rental_uris":{"android":"levelo://app?vid=4115eb0c-08e4-4e8d-aadc-935e7aca0a80","ios":"levelo://app?vid=4115eb0c-08e4-4e8d-aadc-935e7aca0a80"},"vehicle_type_id":"4","last_reported":1781545081,"current_range_meters":6000,"station_id":"","pricing_plan_id":"cebpf4jnsgd1na2vs0mg"},{"bike_id":"4873709b-fab3-4914-bf90-19fef5a192f2","system_id":"levelo_inurba_marseille","lat":43.30329,"lon":5.40429,"is_reserved":false,"is_disabled":false,"rental_uris":{"android":"levelo://app?vid=4873709b-fab3-4914-bf90-19fef5a192f2","ios":"levelo://app?vid=4873709b-fab3-4914-bf90-19fef5a192f2"},"vehicle_type_id":"4","last_reported":1781545081,"current_range_meters":6000,"station_id":"ce4bh012rcd13ifvqd10","pricing_plan_id":"cebpf4jnsgd1na2vs0mg"},{"bike_id":"9869e9cf-a0f3-4092-bb4e-507f0e8bf6b2","system_id":"levelo_inurba_marseille","lat":43.286138,"lon":5.398678,"is_reserved":false,"is_disabled":false,"rental_uris":{"android":"levelo://app?vid=9869e9cf-a0f3-4092-bb4e-507f0e8bf6b2","ios":"levelo://app?vid=9869e9cf-a0f3-4092-bb4e-507f0e8bf6b2"},"vehicle_type_id":"4","last_reported":1781545081,"current_range_meters":6000,"station_id":"st_d4a7ka997mjs738ck50g","pricing_plan_id":"cebpf4jnsgd1na2vs0mg"},{"bike_id":"8e11bdcc-3830-43f9-85bb-e20b96fade53","system_id":"levelo_inurba_marseille","lat":43.308779,"lon":5.375144,"is_reserved":false,"is_disabled":false,"rental_uris":{"android":"levelo://app?vid=8e11bdcc-3830-43f9-85bb-e20b96fade53","ios":"levelo://app?vid=8e11bdcc-3830-43f9-85bb-e20b96fade53"},"vehicle_type_id":"4","last_reported":1781545081,"current_range_meters":6000,"station_id":"ce4bgth2rcd13ifvqch0","pricing_plan_id":"cebpf4jnsgd1na2vs0mg"},{"bike_id":"5c35d71a-ca25-4c82-91d8-783744c6fbea","system_id":"levelo_inurba_marseille","lat":43.29249,"lon":5.38043,"is_reserved":false,"is_disabled":false,"rental_uris":{"android":"levelo://app?vid=5c35d71a-ca25-4c82-91d8-783744c6fbea","ios":"levelo://app?vid=5c35d71a-ca25-4c82-91d8-783744c6fbea"},"vehicle_type_id":"4","last_reported":1781545081,"current_range_meters":6000,"station_id":"","pricing_plan_id":"cebpf4jnsgd1na2vs0mg"},{"bike_id":"fadae890-46f0-4f74-a58d-c219c325acfa","system_id":"levelo_inurba_marseille","lat":43.29258,"lon":5.40904,"is_reserved":false,"is_disabled":false,"rental_uris":{"android":"levelo://app?vid=fadae890-46f0-4f74-a58d-c219c325acfa","ios":"levelo://app?vid=fadae890-46f0-4f74-a58d-c219c325acfa"},"vehicle_type_id":"4","last_reported":1781545081,"current_range_meters":6000,"station_id":"ce4bh192rcd13ifvqdc0","pricing_plan_id":"cebpf4jnsgd1na2vs0mg"},{"bike_id":"4028198a-9e81-483c-8ef9-7423981e50fe","system_id":"levelo_inurba_marseille","lat":43.29607,"lon":5.38111,"is_reserved":false,"is_disabled":true,"rental_uris":{"android":"levelo://app?vid=4028198a-9e81-483c-8ef9-7423981e50fe","ios":"levelo://app?vid=4028198a-9e81-483c-8ef9-7423981e50fe"},"vehicle_type_id":"4","last_reported":1781545081,"current_range_meters":6400,"station_id":"ce4bgl12rcd13ifvqbo0","pricing_plan_id":"cebpf4jnsgd1na2vs0mg"},{"bike_id":"0b0d4586-6533-49fa-8864-229a805f4fde","system_id":"levelo_inurba_marseille","lat":43.28626,"lon":5.35099,"is_reserved":false,"is_disabled":false,"rental_uris":{"android":"levelo://app?vid=0b0d4586-6533-49fa-8864-229a805f4fde","ios":"levelo://app?vid=0b0d4586-6533-49fa-8864-229a805f4fde"},"vehicle_type_id":"4","last_reported":1781545081,"current_range_meters":6400,"station_id":"ce4bhch2rcd13ifvqeug","pricing_plan_id":"cebpf4jnsgd1na2vs0mg"},{"bike_id":"4d8662e4-932b-430b-ad6d-cb5d003b32c3","system_id":"levelo_inurba_marseille","lat":43.25504,"lon":5.37634,"is_reserved":false,"is_disabled":false,"rental_uris":{"android":"levelo://app?vid=4d8662e4-932b-430b-ad6d-cb5d003b32c3","ios":"levelo://app?vid=4d8662e4-932b-430b-ad6d-cb5d003b32c3"},"vehicle_type_id":"4","last_reported":1781545081,"current_range_meters":6400,"station_id":"ce4bhh12rcd13ifvqff0","pricing_plan_id":"cebpf4jnsgd1na2vs0mg"},{"bike_id":"27cd54cb-40ab-41d3-bf86-67c6c0385086","system_id":"levelo_inurba_marseille","lat":43.28609,"lon":5.37065,"is_reserved":false,"is_disabled":false,"rental_uris":{"android":"levelo://app?vid=27cd54cb-40ab-41d3-bf86-67c6c0385086","ios":"levelo://app?vid=27cd54cb-40ab-41d3-bf86-67c6c0385086"},"vehicle_type_id":"4","last_reported":1781545081,"current_range_meters":6400,"station_id":"ce4bht12rcd13ifvqi60","pricing_plan_id":"cebpf4jnsgd1na2vs0mg"},{"bike_id":"d50528a5-fefe-4ae8-ac8a-a3b213073c1f","system_id":"levelo_inurba_marseille","lat":43.30278,"lon":5.37714,"is_reserved":false,"is_disabled":false,"rental_uris":{"android":"levelo://app?vid=d50528a5-fefe-4ae8-ac8a-a3b213073c1f","ios":"levelo://app?vid=d50528a5-fefe-4ae8-ac8a-a3b213073c1f"},"vehicle_type_id":"4","last_reported":1781545081,"current_range_meters":6400,"station_id":"ce4bguh2rcd13ifvqcj0","pricing_plan_id":"cebpf4jnsgd1na2vs0mg"},{"bike_id":"5b15569f-29ee-4137-9d5b-76fb77ec565f","system_id":"levelo_inurba_marseille","lat":43.27719,"lon":5.3962,"is_reserved":false,"is_disabled":false,"rental_uris":{"android":"levelo://app?vid=5b15569f-29ee-4137-9d5b-76fb77ec565f","ios":"levelo://app?vid=5b15569f-29ee-4137-9d5b-76fb77ec565f"},"vehicle_type_id":"4","last_reported":1781545081,"current_range_meters":6400,"station_id":"","pricing_plan_id":"cebpf4jnsgd1na2vs0mg"},{"bike_id":"fc4dda04-7313-4525-af8e-84d6fdabe8ab","system_id":"levelo_inurba_marseille","lat":43.24468,"lon":5.4253,"is_reserved":false,"is_disabled":true,"rental_uris":{"android":"levelo://app?vid=fc4dda04-7313-4525-af8e-84d6fdabe8ab","ios":"levelo://app?vid=fc4dda04-7313-4525-af8e-84d6fdabe8ab"},"vehicle_type_id":"4","last_reported":1781545081,"current_range_meters":6400,"station_id":"st_d4a3vfp97mjs738cd8kg","pricing_plan_id":"cebpf4jnsgd1na2vs0mg"},{"bike_id":"57e0cdb7-800e-4839-a4dd-8be41a76a04e","system_id":"levelo_inurba_marseille","lat":43.21757,"lon":5.34595,"is_reserved":false,"is_disabled":true,"rental_uris":{"android":"levelo://app?vid=57e0cdb7-800e-4839-a4dd-8be41a76a04e","ios":"levelo://app?vid=57e0cdb7-800e-4839-a4dd-8be41a76a04e"},"vehicle_type_id":"4","last_reported":1781545081,"current_range_meters":6400,"station_id":"st_cvj6r9ubvosntc0bgbag","pricing_plan_id":"cebpf4jnsgd1na2vs0mg"},{"bike_id":"df5530a7-21fa-4b46-8240-706d85d915cf","system_id":"levelo_inurba_marseille","lat":43.29252,"lon":5.3827,"is_reserved":false,"is_disabled":false,"rental_uris":{"android":"levelo://app?vid=df5530a7-21fa-4b46-8240-706d85d915cf","ios":"levelo://app?vid=df5530a7-21fa-4b46-8240-706d85d915cf"},"vehicle_type_id":"4","last_reported":1781545081,"current_range_meters":6400,"station_id":"","pricing_plan_id":"cebpf4jnsgd1na2vs0mg"},{"bike_id":"3478ec42-e182-46b5-89c0-5a9050acee79","system_id":"levelo_inurba_marseille","lat":43.26216,"lon":5.37439,"is_reserved":false,"is_disabled":false,"rental_uris":{"android":"levelo://app?vid=3478ec42-e182-46b5-89c0-5a9050acee79","ios":"levelo://app?vid=3478ec42-e182-46b5-89c0-5a9050acee79"},"vehicle_type_id":"4","last_reported":1781545081,"current_range_meters":6400,"station_id":"ce4bhgp2rcd13ifvqfc0","pricing_plan_id":"cebpf4jnsgd1na2vs0mg"},{"bike_id":"028f22c6-d3b4-4c0c-8701-3c382e9de3cf","system_id":"levelo_inurba_marseille","lat":43.28616,"lon":5.35101,"is_reserved":false,"is_disabled":false,"rental_uris":{"android":"levelo://app?vid=028f22c6-d3b4-4c0c-8701-3c382e9de3cf","ios":"levelo://app?vid=028f22c6-d3b4-4c0c-8701-3c382e9de3cf"},"vehicle_type_id":"4","last_reported":1781545081,"current_range_meters":6400,"station_id":"ce4bhch2rcd13ifvqeug","pricing_plan_id":"cebpf4jnsgd1na2vs0mg"},{"bike_id":"2384406c-73f9-4040-9407-d6b11ac0d4cc","system_id":"levelo_inurba_marseille","lat":43.225344,"lon":5.348326,"is_reserved":false,"is_disabled":false,"rental_uris":{"android":"levelo://app?vid=2384406c-73f9-4040-9407-d6b11ac0d4cc","ios":"levelo://app?vid=2384406c-73f9-4040-9407-d6b11ac0d4cc"},"vehicle_type_id":"4","last_reported":1781545081,"current_range_meters":6400,"station_id":"st_cvj5dfep6f1abm77gieg","pricing_plan_id":"cebpf4jnsgd1na2vs0mg"},{"bike_id":"5a63f7d3-5d71-4ee7-9556-3a2928da16e7","system_id":"levelo_inurba_marseille","lat":43.28618,"lon":5.39889,"is_reserved":false,"is_disabled":true,"rental_uris":{"android":"levelo://app?vid=5a63f7d3-5d71-4ee7-9556-3a2928da16e7","ios":"levelo://app?vid=5a63f7d3-5d71-4ee7-9556-3a2928da16e7"},"vehicle_type_id":"4","last_reported":1781545081,"current_range_meters":6400,"station_id":"ce4bho92rcd13ifvqh3g","pricing_plan_id":"cebpf4jnsgd1na2vs0mg"},{"bike_id":"264256c6-f907-4b20-8b1b-1ec6a19ebc37","system_id":"levelo_inurba_marseille","lat":43.23327,"lon":5.43599,"is_reserved":false,"is_disabled":false,"rental_uris":{"android":"levelo://app?vid=264256c6-f907-4b20-8b1b-1ec6a19ebc37","ios":"levelo://app?vid=264256c6-f907-4b20-8b1b-1ec6a19ebc37"},"vehicle_type_id":"4","last_reported":1781545081,"current_range_meters":6400,"station_id":"","pricing_plan_id":"cebpf4jnsgd1na2vs0mg"},{"bike_id":"fdb5b8b6-5e5b-4247-a153-64f403e939b4","system_id":"levelo_inurba_marseille","lat":43.3219,"lon":5.4402,"is_reserved":false,"is_disabled":false,"rental_uris":{"android":"levelo://app?vid=fdb5b8b6-5e5b-4247-a153-64f403e939b4","ios":"levelo://app?vid=fdb5b8b6-5e5b-4247-a153-64f403e939b4"},"vehicle_type_id":"4","last_reported":1781545081,"current_range_meters":6400,"station_id":"","pricing_plan_id":"cebpf4jnsgd1na2vs0mg"},{"bike_id":"d9b79bb6-96f5-4c1e-884f-f35383075c50","system_id":"levelo_inurba_marseille","lat":43.27614,"lon":5.36115,"is_reserved":false,"is_disabled":false,"rental_uris":{"android":"levelo://app?vid=d9b79bb6-96f5-4c1e-884f-f35383075c50","ios":"levelo://app?vid=d9b79bb6-96f5-4c1e-884f-f35383075c50"},"vehicle_type_id":"4","last_reported":1781545081,"current_range_meters":6400,"station_id":"ce4bgj92rcd13ifvqbe0","pricing_plan_id":"cebpf4jnsgd1na2vs0mg"},{"bike_id":"0c298aba-32c4-4c05-b253-7dc8ba94669e","system_id":"levelo_inurba_marseille","lat":43.29544,"lon":5.38533,"is_reserved":false,"is_disabled":false,"rental_uris":{"android":"levelo://app?vid=0c298aba-32c4-4c05-b253-7dc8ba94669e","ios":"levelo://app?vid=0c298aba-32c4-4c05-b253-7dc8ba94669e"},"vehicle_type_id":"4","last_reported":1781545081,"current_range_meters":6400,"station_id":"ce4bgih2rcd13ifvqba0","pricing_plan_id":"cebpf4jnsgd1na2vs0mg"},{"bike_id":"4239410f-b893-4d50-bfb4-3019b4224f36","system_id":"levelo_inurba_marseille","lat":43.24811,"lon":5.37457,"is_reserved":false,"is_disabled":false,"rental_uris":{"android":"levelo://app?vid=4239410f-b893-4d50-bfb4-3019b4224f36","ios":"levelo://app?vid=4239410f-b893-4d50-bfb4-3019b4224f36"},"vehicle_type_id":"4","last_reported":1781545081,"current_range_meters":6800,"station_id":"ce4bhgh2rcd13ifvqfb0","pricing_plan_id":"cebpf4jnsgd1na2vs0mg"},{"bike_id":"4469bc20-06c8-4eb7-bd1c-bed3289e0fcc","system_id":"levelo_inurba_marseille","lat":43.25407,"lon":5.42787,"is_reserved":false,"is_disabled":false,"rental_uris":{"android":"levelo://app?vid=4469bc20-06c8-4eb7-bd1c-bed3289e0fcc","ios":"levelo://app?vid=4469bc20-06c8-4eb7-bd1c-bed3289e0fcc"},"vehicle_type_id":"4","last_reported":1781545081,"current_range_meters":6800,"station_id":"","pricing_plan_id":"cebpf4jnsgd1na2vs0mg"},{"bike_id":"2e0dec05-ab65-4434-b819-7f88777a6502","system_id":"levelo_inurba_marseille","lat":43.23157,"lon":5.43701,"is_reserved":false,"is_disabled":false,"rental_uris":{"android":"levelo://app?vid=2e0dec05-ab65-4434-b819-7f88777a6502","ios":"levelo://app?vid=2e0dec05-ab65-4434-b819-7f88777a6502"},"vehicle_type_id":"4","last_reported":1781545081,"current_range_meters":6800,"station_id":"ce4bhmp2rcd13ifvqgog","pricing_plan_id":"cebpf4jnsgd1na2vs0mg"},{"bike_id":"fffd48a5-ee48-4940-b365-edd09f9ad2bd","system_id":"levelo_inurba_marseille","lat":43.337533,"lon":5.374474,"is_reserved":false,"is_disabled":false,"rental_uris":{"android":"levelo://app?vid=fffd48a5-ee48-4940-b365-edd09f9ad2bd","ios":"levelo://app?vid=fffd48a5-ee48-4940-b365-edd09f9ad2bd"},"vehicle_type_id":"4","last_reported":1781545081,"current_range_meters":6800,"station_id":"","pricing_plan_id":"cebpf4jnsgd1na2vs0mg"},{"bike_id":"977d25d4-b487-4e5f-8d6e-5b12c547beeb","system_id":"levelo_inurba_marseille","lat":43.29803,"lon":5.38108,"is_reserved":false,"is_disabled":false,"rental_uris":{"android":"levelo://app?vid=977d25d4-b487-4e5f-8d6e-5b12c547beeb","ios":"levelo://app?vid=977d25d4-b487-4e5f-8d6e-5b12c547beeb"},"vehicle_type_id":"4","last_reported":1781545081,"current_range_meters":6800,"station_id":"ce4bgip2rcd13ifvqbb0","pricing_plan_id":"cebpf4jnsgd1na2vs0mg"},{"bike_id":"5a46bc5f-00c5-447a-91e8-806beef338a5","system_id":"levelo_inurba_marseille","lat":43.33005,"lon":5.38041,"is_reserved":false,"is_disabled":false,"rental_uris":{"android":"levelo://app?vid=5a46bc5f-00c5-447a-91e8-806beef338a5","ios":"levelo://app?vid=5a46bc5f-00c5-447a-91e8-806beef338a5"},"vehicle_type_id":"4","last_reported":1781545081,"current_range_meters":6800,"station_id":"","pricing_plan_id":"cebpf4jnsgd1na2vs0mg"},{"bike_id":"514ad5a1-61ae-4009-b8a5-32c8e7c6f63e","system_id":"levelo_inurba_marseille","lat":43.28478,"lon":5.48391,"is_reserved":false,"is_disabled":false,"rental_uris":{"android":"levelo://app?vid=514ad5a1-61ae-4009-b8a5-32c8e7c6f63e","ios":"levelo://app?vid=514ad5a1-61ae-4009-b8a5-32c8e7c6f63e"},"vehicle_type_id":"4","last_reported":1781545081,"current_range_meters":6800,"station_id":"st_d3svhcjqgbts73a3dn0g","pricing_plan_id":"cebpf4jnsgd1na2vs0mg"},{"bike_id":"a8b1da20-8c09-45b1-86bd-2a0fcd1602bb","system_id":"levelo_inurba_marseille","lat":43.27997,"lon":5.41661,"is_reserved":false,"is_disabled":false,"rental_uris":{"android":"levelo://app?vid=a8b1da20-8c09-45b1-86bd-2a0fcd1602bb","ios":"levelo://app?vid=a8b1da20-8c09-45b1-86bd-2a0fcd1602bb"},"vehicle_type_id":"4","last_reported":1781545081,"current_range_meters":6800,"station_id":"ce4bho12rcd13ifvqh1g","pricing_plan_id":"cebpf4jnsgd1na2vs0mg"},{"bike_id":"b915dcf7-afdc-44ac-8933-b1781538d337","system_id":"levelo_inurba_marseille","lat":43.302,"lon":5.41773,"is_reserved":false,"is_disabled":false,"rental_uris":{"android":"levelo://app?vid=b915dcf7-afdc-44ac-8933-b1781538d337","ios":"levelo://app?vid=b915dcf7-afdc-44ac-8933-b1781538d337"},"vehicle_type_id":"4","last_reported":1781545081,"current_range_meters":6800,"station_id":"","pricing_plan_id":"cebpf4jnsgd1na2vs0mg"},{"bike_id":"7734302c-16e9-4487-b744-d70c97a4f433","system_id":"levelo_inurba_marseille","lat":43.23069,"lon":5.35498,"is_reserved":false,"is_disabled":false,"rental_uris":{"android":"levelo://app?vid=7734302c-16e9-4487-b744-d70c97a4f433","ios":"levelo://app?vid=7734302c-16e9-4487-b744-d70c97a4f433"},"vehicle_type_id":"4","last_reported":1781545081,"current_range_meters":6800,"station_id":"cpo3342slgdg3j2ifvpg","pricing_plan_id":"cebpf4jnsgd1na2vs0mg"},{"bike_id":"52ad14f9-2cd2-403b-956e-bb5713f6d5cd","system_id":"levelo_inurba_marseille","lat":43.2797,"lon":5.38681,"is_reserved":false,"is_disabled":true,"rental_uris":{"android":"levelo://app?vid=52ad14f9-2cd2-403b-956e-bb5713f6d5cd","ios":"levelo://app?vid=52ad14f9-2cd2-403b-956e-bb5713f6d5cd"},"vehicle_type_id":"4","last_reported":1781545081,"current_range_meters":6800,"station_id":"","pricing_plan_id":"cebpf4jnsgd1na2vs0mg"},{"bike_id":"0c195c54-93c2-41c2-b970-fee608b9aaec","system_id":"levelo_inurba_marseille","lat":43.29585,"lon":5.37505,"is_reserved":false,"is_disabled":true,"rental_uris":{"android":"levelo://app?vid=0c195c54-93c2-41c2-b970-fee608b9aaec","ios":"levelo://app?vid=0c195c54-93c2-41c2-b970-fee608b9aaec"},"vehicle_type_id":"4","last_reported":1781545081,"current_range_meters":6800,"station_id":"ce4bgh92rcd13ifvqb50","pricing_plan_id":"cebpf4jnsgd1na2vs0mg"},{"bike_id":"f78c900c-397f-446c-bf5a-14f01e6bbf8e","system_id":"levelo_inurba_marseille","lat":43.23193,"lon":5.35623,"is_reserved":false,"is_disabled":false,"rental_uris":{"android":"levelo://app?vid=f78c900c-397f-446c-bf5a-14f01e6bbf8e","ios":"levelo://app?vid=f78c900c-397f-446c-bf5a-14f01e6bbf8e"},"vehicle_type_id":"4","last_reported":1781545081,"current_range_meters":6800,"station_id":"","pricing_plan_id":"cebpf4jnsgd1na2vs0mg"},{"bike_id":"d34ae922-d7d3-4471-a834-c93efa1516d8","system_id":"levelo_inurba_marseille","lat":43.24465,"lon":5.43976,"is_reserved":false,"is_disabled":false,"rental_uris":{"android":"levelo://app?vid=d34ae922-d7d3-4471-a834-c93efa1516d8","ios":"levelo://app?vid=d34ae922-d7d3-4471-a834-c93efa1516d8"},"vehicle_type_id":"4","last_reported":1781545081,"current_range_meters":6800,"station_id":"","pricing_plan_id":"cebpf4jnsgd1na2vs0mg"},{"bike_id":"2e477fe4-f286-45b0-ac1f-20901f97aedf","system_id":"levelo_inurba_marseille","lat":43.25511,"lon":5.37648,"is_reserved":false,"is_disabled":false,"rental_uris":{"android":"levelo://app?vid=2e477fe4-f286-45b0-ac1f-20901f97aedf","ios":"levelo://app?vid=2e477fe4-f286-45b0-ac1f-20901f97aedf"},"vehicle_type_id":"4","last_reported":1781545081,"current_range_meters":6800,"station_id":"ce4bhh12rcd13ifvqff0","pricing_plan_id":"cebpf4jnsgd1na2vs0mg"},{"bike_id":"4984d2d6-e795-4db4-8088-2f70b4c08342","system_id":"levelo_inurba_marseille","lat":43.30947,"lon":5.39056,"is_reserved":false,"is_disabled":false,"rental_uris":{"android":"levelo://app?vid=4984d2d6-e795-4db4-8088-2f70b4c08342","ios":"levelo://app?vid=4984d2d6-e795-4db4-8088-2f70b4c08342"},"vehicle_type_id":"4","last_reported":1781545081,"current_range_meters":6800,"station_id":"ce4bgup2rcd13ifvqco0","pricing_plan_id":"cebpf4jnsgd1na2vs0mg"},{"bike_id":"63bc1fb1-b7f9-4b2d-8c90-39b05e53e9ac","system_id":"levelo_inurba_marseille","lat":43.25817,"lon":5.3942,"is_reserved":false,"is_disabled":false,"rental_uris":{"android":"levelo://app?vid=63bc1fb1-b7f9-4b2d-8c90-39b05e53e9ac","ios":"levelo://app?vid=63bc1fb1-b7f9-4b2d-8c90-39b05e53e9ac"},"vehicle_type_id":"4","last_reported":1781545081,"current_range_meters":6800,"station_id":"ce4bhip2rcd13ifvqft0","pricing_plan_id":"cebpf4jnsgd1na2vs0mg"},{"bike_id":"1c1912ec-87db-4c14-9b0e-15c5d601300d","system_id":"levelo_inurba_marseille","lat":43.30648,"lon":5.4007,"is_reserved":false,"is_disabled":false,"rental_uris":{"android":"levelo://app?vid=1c1912ec-87db-4c14-9b0e-15c5d601300d","ios":"levelo://app?vid=1c1912ec-87db-4c14-9b0e-15c5d601300d"},"vehicle_type_id":"4","last_reported":1781545081,"current_range_meters":6800,"station_id":"ce4bh112rcd13ifvqda0","pricing_plan_id":"cebpf4jnsgd1na2vs0mg"},{"bike_id":"6accb6a8-fdf2-4b2c-ae33-7a7ff7593d6d","system_id":"levelo_inurba_marseille","lat":43.28685,"lon":5.46897,"is_reserved":false,"is_disabled":false,"rental_uris":{"android":"levelo://app?vid=6accb6a8-fdf2-4b2c-ae33-7a7ff7593d6d","ios":"levelo://app?vid=6accb6a8-fdf2-4b2c-ae33-7a7ff7593d6d"},"vehicle_type_id":"4","last_reported":1781545081,"current_range_meters":6800,"station_id":"","pricing_plan_id":"cebpf4jnsgd1na2vs0mg"},{"bike_id":"b26efffe-5f1a-43fa-84d5-1eebe159e691","system_id":"levelo_inurba_marseille","lat":43.30934,"lon":5.40142,"is_reserved":false,"is_disabled":false,"rental_uris":{"android":"levelo://app?vid=b26efffe-5f1a-43fa-84d5-1eebe159e691","ios":"levelo://app?vid=b26efffe-5f1a-43fa-84d5-1eebe159e691"},"vehicle_type_id":"4","last_reported":1781545081,"current_range_meters":6800,"station_id":"ce4bgvp2rcd13ifvqct0","pricing_plan_id":"cebpf4jnsgd1na2vs0mg"},{"bike_id":"8d2b85d4-013b-4169-8c19-6392b742f75d","system_id":"levelo_inurba_marseille","lat":43.28995,"lon":5.42821,"is_reserved":false,"is_disabled":false,"rental_uris":{"android":"levelo://app?vid=8d2b85d4-013b-4169-8c19-6392b742f75d","ios":"levelo://app?vid=8d2b85d4-013b-4169-8c19-6392b742f75d"},"vehicle_type_id":"4","last_reported":1781545081,"current_range_meters":6800,"station_id":"","pricing_plan_id":"cebpf4jnsgd1na2vs0mg"},{"bike_id":"f854f22f-9f77-48cb-8427-d4809c3d512e","system_id":"levelo_inurba_marseille","lat":43.28414,"lon":5.34988,"is_reserved":false,"is_disabled":false,"rental_uris":{"android":"levelo://app?vid=f854f22f-9f77-48cb-8427-d4809c3d512e","ios":"levelo://app?vid=f854f22f-9f77-48cb-8427-d4809c3d512e"},"vehicle_type_id":"4","last_reported":1781545081,"current_range_meters":6800,"station_id":"ce4bhbh2rcd13ifvqepg","pricing_plan_id":"cebpf4jnsgd1na2vs0mg"},{"bike_id":"223a3ce5-f549-4e85-a6cc-909446f1e745","system_id":"levelo_inurba_marseille","lat":43.298677,"lon":5.397285,"is_reserved":false,"is_disabled":false,"rental_uris":{"android":"levelo://app?vid=223a3ce5-f549-4e85-a6cc-909446f1e745","ios":"levelo://app?vid=223a3ce5-f549-4e85-a6cc-909446f1e745"},"vehicle_type_id":"4","last_reported":1781545081,"current_range_meters":6800,"station_id":"ce4bh0h2rcd13ifvqd50","pricing_plan_id":"cebpf4jnsgd1na2vs0mg"},{"bike_id":"7abce733-51e5-4857-85a3-3c384760651f","system_id":"levelo_inurba_marseille","lat":43.28397,"lon":5.45934,"is_reserved":false,"is_disabled":false,"rental_uris":{"android":"levelo://app?vid=7abce733-51e5-4857-85a3-3c384760651f","ios":"levelo://app?vid=7abce733-51e5-4857-85a3-3c384760651f"},"vehicle_type_id":"4","last_reported":1781545081,"current_range_meters":6800,"station_id":"","pricing_plan_id":"cebpf4jnsgd1na2vs0mg"},{"bike_id":"766b31e4-05f8-4c45-94ea-ce5d21ea4288","system_id":"levelo_inurba_marseille","lat":43.27384,"lon":5.36253,"is_reserved":false,"is_disabled":false,"rental_uris":{"android":"levelo://app?vid=766b31e4-05f8-4c45-94ea-ce5d21ea4288","ios":"levelo://app?vid=766b31e4-05f8-4c45-94ea-ce5d21ea4288"},"vehicle_type_id":"4","last_reported":1781545081,"current_range_meters":6800,"station_id":"ce4bhbh2rcd13ifvqeo0","pricing_plan_id":"cebpf4jnsgd1na2vs0mg"},{"bike_id":"91e1501e-e8b1-4669-b8db-896969b7b9a8","system_id":"levelo_inurba_marseille","lat":43.24464,"lon":5.42534,"is_reserved":false,"is_disabled":false,"rental_uris":{"android":"levelo://app?vid=91e1501e-e8b1-4669-b8db-896969b7b9a8","ios":"levelo://app?vid=91e1501e-e8b1-4669-b8db-896969b7b9a8"},"vehicle_type_id":"4","last_reported":1781545081,"current_range_meters":6800,"station_id":"st_d4a3vfp97mjs738cd8kg","pricing_plan_id":"cebpf4jnsgd1na2vs0mg"},{"bike_id":"d0ca3541-2406-4469-9fb1-54ad9239d57a","system_id":"levelo_inurba_marseille","lat":43.29596,"lon":5.38079,"is_reserved":false,"is_disabled":true,"rental_uris":{"android":"levelo://app?vid=d0ca3541-2406-4469-9fb1-54ad9239d57a","ios":"levelo://app?vid=d0ca3541-2406-4469-9fb1-54ad9239d57a"},"vehicle_type_id":"4","last_reported":1781545081,"current_range_meters":6800,"station_id":"ce4bgl12rcd13ifvqbo0","pricing_plan_id":"cebpf4jnsgd1na2vs0mg"},{"bike_id":"0ae515a4-152b-4613-bceb-744adefbb17b","system_id":"levelo_inurba_marseille","lat":43.28849,"lon":5.39314,"is_reserved":false,"is_disabled":true,"rental_uris":{"android":"levelo://app?vid=0ae515a4-152b-4613-bceb-744adefbb17b","ios":"levelo://app?vid=0ae515a4-152b-4613-bceb-744adefbb17b"},"vehicle_type_id":"4","last_reported":1781545081,"current_range_meters":6800,"station_id":"ce4bh2p2rcd13ifvqdi0","pricing_plan_id":"cebpf4jnsgd1na2vs0mg"},{"bike_id":"92bf9054-a105-4e04-bf23-42e28393b390","system_id":"levelo_inurba_marseille","lat":43.28464,"lon":5.35879,"is_reserved":false,"is_disabled":false,"rental_uris":{"android":"levelo://app?vid=92bf9054-a105-4e04-bf23-42e28393b390","ios":"levelo://app?vid=92bf9054-a105-4e04-bf23-42e28393b390"},"vehicle_type_id":"4","last_reported":1781545081,"current_range_meters":6800,"station_id":"ce4bhah2rcd13ifvqei0","pricing_plan_id":"cebpf4jnsgd1na2vs0mg"},{"bike_id":"36004b31-9421-4fdb-9dc9-ae4623f37898","system_id":"levelo_inurba_marseille","lat":43.29531,"lon":5.39032,"is_reserved":false,"is_disabled":false,"rental_uris":{"android":"levelo://app?vid=36004b31-9421-4fdb-9dc9-ae4623f37898","ios":"levelo://app?vid=36004b31-9421-4fdb-9dc9-ae4623f37898"},"vehicle_type_id":"4","last_reported":1781545081,"current_range_meters":6800,"station_id":"ce4bh3p2rcd13ifvqdp0","pricing_plan_id":"cebpf4jnsgd1na2vs0mg"},{"bike_id":"08c1038f-e698-4ff6-a3dd-a9cbeeb0d16f","system_id":"levelo_inurba_marseille","lat":43.26602,"lon":5.39033,"is_reserved":false,"is_disabled":false,"rental_uris":{"android":"levelo://app?vid=08c1038f-e698-4ff6-a3dd-a9cbeeb0d16f","ios":"levelo://app?vid=08c1038f-e698-4ff6-a3dd-a9cbeeb0d16f"},"vehicle_type_id":"4","last_reported":1781545081,"current_range_meters":7200,"station_id":"","pricing_plan_id":"cebpf4jnsgd1na2vs0mg"},{"bike_id":"6b507c7f-aef9-4aed-abcb-3537109a6a20","system_id":"levelo_inurba_marseille","lat":43.29906,"lon":5.3814,"is_reserved":false,"is_disabled":false,"rental_uris":{"android":"levelo://app?vid=6b507c7f-aef9-4aed-abcb-3537109a6a20","ios":"levelo://app?vid=6b507c7f-aef9-4aed-abcb-3537109a6a20"},"vehicle_type_id":"4","last_reported":1781545081,"current_range_meters":7200,"station_id":"ce4bgj12rcd13ifvqbc0","pricing_plan_id":"cebpf4jnsgd1na2vs0mg"},{"bike_id":"aee75bf6-71a6-43d1-91b2-09056927aa11","system_id":"levelo_inurba_marseille","lat":43.27379,"lon":5.36258,"is_reserved":false,"is_disabled":false,"rental_uris":{"android":"levelo://app?vid=aee75bf6-71a6-43d1-91b2-09056927aa11","ios":"levelo://app?vid=aee75bf6-71a6-43d1-91b2-09056927aa11"},"vehicle_type_id":"4","last_reported":1781545081,"current_range_meters":7200,"station_id":"ce4bhbh2rcd13ifvqeo0","pricing_plan_id":"cebpf4jnsgd1na2vs0mg"},{"bike_id":"c348c5c7-00b9-4bb5-ab51-2a5a4908764c","system_id":"levelo_inurba_marseille","lat":43.23956,"lon":5.36643,"is_reserved":false,"is_disabled":false,"rental_uris":{"android":"levelo://app?vid=c348c5c7-00b9-4bb5-ab51-2a5a4908764c","ios":"levelo://app?vid=c348c5c7-00b9-4bb5-ab51-2a5a4908764c"},"vehicle_type_id":"4","last_reported":1781545081,"current_range_meters":7200,"station_id":"ce4bhi12rcd13ifvqfp0","pricing_plan_id":"cebpf4jnsgd1na2vs0mg"},{"bike_id":"7cea1339-93f2-4eac-8106-2c8bd9e5ca92","system_id":"levelo_inurba_marseille","lat":43.2955,"lon":5.38535,"is_reserved":false,"is_disabled":false,"rental_uris":{"android":"levelo://app?vid=7cea1339-93f2-4eac-8106-2c8bd9e5ca92","ios":"levelo://app?vid=7cea1339-93f2-4eac-8106-2c8bd9e5ca92"},"vehicle_type_id":"4","last_reported":1781545081,"current_range_meters":7200,"station_id":"ce4bgih2rcd13ifvqba0","pricing_plan_id":"cebpf4jnsgd1na2vs0mg"},{"bike_id":"c4291419-3c6e-43b5-aad7-4b8b119e37dc","system_id":"levelo_inurba_marseille","lat":43.2814,"lon":5.37858,"is_reserved":false,"is_disabled":false,"rental_uris":{"android":"levelo://app?vid=c4291419-3c6e-43b5-aad7-4b8b119e37dc","ios":"levelo://app?vid=c4291419-3c6e-43b5-aad7-4b8b119e37dc"},"vehicle_type_id":"4","last_reported":1781545081,"current_range_meters":7200,"station_id":"ce4bha12rcd13ifvqee0","pricing_plan_id":"cebpf4jnsgd1na2vs0mg"},{"bike_id":"eccd1f27-52db-47b0-a383-ef7f274a50ce","system_id":"levelo_inurba_marseille","lat":43.27211,"lon":5.39187,"is_reserved":false,"is_disabled":true,"rental_uris":{"android":"levelo://app?vid=eccd1f27-52db-47b0-a383-ef7f274a50ce","ios":"levelo://app?vid=eccd1f27-52db-47b0-a383-ef7f274a50ce"},"vehicle_type_id":"4","last_reported":1781545081,"current_range_meters":7200,"station_id":"ce4bhhp2rcd13ifvqfm0","pricing_plan_id":"cebpf4jnsgd1na2vs0mg"},{"bike_id":"e933d61b-3cd1-4af0-991c-343cf9692d81","system_id":"levelo_inurba_marseille","lat":43.28608,"lon":5.37059,"is_reserved":false,"is_disabled":false,"rental_uris":{"android":"levelo://app?vid=e933d61b-3cd1-4af0-991c-343cf9692d81","ios":"levelo://app?vid=e933d61b-3cd1-4af0-991c-343cf9692d81"},"vehicle_type_id":"4","last_reported":1781545081,"current_range_meters":7200,"station_id":"ce4bht12rcd13ifvqi60","pricing_plan_id":"cebpf4jnsgd1na2vs0mg"},{"bike_id":"39732b60-e47e-4d4e-b685-395d5f2db983","system_id":"levelo_inurba_marseille","lat":43.24185,"lon":5.39713,"is_reserved":false,"is_disabled":false,"rental_uris":{"android":"levelo://app?vid=39732b60-e47e-4d4e-b685-395d5f2db983","ios":"levelo://app?vid=39732b60-e47e-4d4e-b685-395d5f2db983"},"vehicle_type_id":"4","last_reported":1781545081,"current_range_meters":7200,"station_id":"ce4bhn12rcd13ifvqgpg","pricing_plan_id":"cebpf4jnsgd1na2vs0mg"},{"bike_id":"9b01f73c-21da-4ef4-8ec9-9599640630d0","system_id":"levelo_inurba_marseille","lat":43.2624,"lon":5.38768,"is_reserved":false,"is_disabled":false,"rental_uris":{"android":"levelo://app?vid=9b01f73c-21da-4ef4-8ec9-9599640630d0","ios":"levelo://app?vid=9b01f73c-21da-4ef4-8ec9-9599640630d0"},"vehicle_type_id":"4","last_reported":1781545081,"current_range_meters":7200,"station_id":"st_d8gjfg747rts73coq3b0","pricing_plan_id":"cebpf4jnsgd1na2vs0mg"},{"bike_id":"db014b8f-dd9b-447a-a5f1-aba3185a4ce4","system_id":"levelo_inurba_marseille","lat":43.29258,"lon":5.36851,"is_reserved":false,"is_disabled":false,"rental_uris":{"android":"levelo://app?vid=db014b8f-dd9b-447a-a5f1-aba3185a4ce4","ios":"levelo://app?vid=db014b8f-dd9b-447a-a5f1-aba3185a4ce4"},"vehicle_type_id":"4","last_reported":1781545081,"current_range_meters":7200,"station_id":"ce4bhbp2rcd13ifvqesg","pricing_plan_id":"cebpf4jnsgd1na2vs0mg"},{"bike_id":"03c1c7ad-ca54-4ddc-822b-fce926c89717","system_id":"levelo_inurba_marseille","lat":43.33096,"lon":5.43754,"is_reserved":false,"is_disabled":false,"rental_uris":{"android":"levelo://app?vid=03c1c7ad-ca54-4ddc-822b-fce926c89717","ios":"levelo://app?vid=03c1c7ad-ca54-4ddc-822b-fce926c89717"},"vehicle_type_id":"4","last_reported":1781545081,"current_range_meters":7200,"station_id":"","pricing_plan_id":"cebpf4jnsgd1na2vs0mg"},{"bike_id":"425fd772-cd58-4358-9f8d-671e7767099f","system_id":"levelo_inurba_marseille","lat":43.28822,"lon":5.35229,"is_reserved":false,"is_disabled":false,"rental_uris":{"android":"levelo://app?vid=425fd772-cd58-4358-9f8d-671e7767099f","ios":"levelo://app?vid=425fd772-cd58-4358-9f8d-671e7767099f"},"vehicle_type_id":"4","last_reported":1781545081,"current_range_meters":7200,"station_id":"","pricing_plan_id":"cebpf4jnsgd1na2vs0mg"},{"bike_id":"5673cc33-ef56-4446-9a25-7697c6486684","system_id":"levelo_inurba_marseille","lat":43.25506,"lon":5.37656,"is_reserved":false,"is_disabled":false,"rental_uris":{"android":"levelo://app?vid=5673cc33-ef56-4446-9a25-7697c6486684","ios":"levelo://app?vid=5673cc33-ef56-4446-9a25-7697c6486684"},"vehicle_type_id":"4","last_reported":1781545081,"current_range_meters":7200,"station_id":"ce4bhh12rcd13ifvqff0","pricing_plan_id":"cebpf4jnsgd1na2vs0mg"},{"bike_id":"59eb5f6a-d750-47b1-b136-3f8193d39faf","system_id":"levelo_inurba_marseille","lat":43.30126,"lon":5.43113,"is_reserved":false,"is_disabled":false,"rental_uris":{"android":"levelo://app?vid=59eb5f6a-d750-47b1-b136-3f8193d39faf","ios":"levelo://app?vid=59eb5f6a-d750-47b1-b136-3f8193d39faf"},"vehicle_type_id":"4","last_reported":1781545081,"current_range_meters":7200,"station_id":"st_d3js3co5814s73ftftug","pricing_plan_id":"cebpf4jnsgd1na2vs0mg"},{"bike_id":"875d67cc-7fe5-4b7c-93a0-e4b3e17fbd88","system_id":"levelo_inurba_marseille","lat":43.27373,"lon":5.3625,"is_reserved":false,"is_disabled":false,"rental_uris":{"android":"levelo://app?vid=875d67cc-7fe5-4b7c-93a0-e4b3e17fbd88","ios":"levelo://app?vid=875d67cc-7fe5-4b7c-93a0-e4b3e17fbd88"},"vehicle_type_id":"4","last_reported":1781545081,"current_range_meters":7200,"station_id":"ce4bhbh2rcd13ifvqeo0","pricing_plan_id":"cebpf4jnsgd1na2vs0mg"},{"bike_id":"99c5440d-eaaa-41f5-8822-fe7a423c5f27","system_id":"levelo_inurba_marseille","lat":43.276,"lon":5.43393,"is_reserved":false,"is_disabled":false,"rental_uris":{"android":"levelo://app?vid=99c5440d-eaaa-41f5-8822-fe7a423c5f27","ios":"levelo://app?vid=99c5440d-eaaa-41f5-8822-fe7a423c5f27"},"vehicle_type_id":"4","last_reported":1781545081,"current_range_meters":7200,"station_id":"","pricing_plan_id":"cebpf4jnsgd1na2vs0mg"},{"bike_id":"2e438fa0-b7bb-45a2-9d68-f52aabde5a0b","system_id":"levelo_inurba_marseille","lat":43.28871,"lon":5.42519,"is_reserved":false,"is_disabled":false,"rental_uris":{"android":"levelo://app?vid=2e438fa0-b7bb-45a2-9d68-f52aabde5a0b","ios":"levelo://app?vid=2e438fa0-b7bb-45a2-9d68-f52aabde5a0b"},"vehicle_type_id":"4","last_reported":1781545081,"current_range_meters":7200,"station_id":"st_d3b462108ojc7389ooeg","pricing_plan_id":"cebpf4jnsgd1na2vs0mg"},{"bike_id":"317f59d6-759f-412e-ab00-d2f7e2c3881f","system_id":"levelo_inurba_marseille","lat":43.28044,"lon":5.35314,"is_reserved":false,"is_disabled":true,"rental_uris":{"android":"levelo://app?vid=317f59d6-759f-412e-ab00-d2f7e2c3881f","ios":"levelo://app?vid=317f59d6-759f-412e-ab00-d2f7e2c3881f"},"vehicle_type_id":"4","last_reported":1781545081,"current_range_meters":7200,"station_id":"","pricing_plan_id":"cebpf4jnsgd1na2vs0mg"},{"bike_id":"ea4ac8b9-3a56-4f1c-9d51-a59abed78c49","system_id":"levelo_inurba_marseille","lat":43.2845,"lon":5.35873,"is_reserved":false,"is_disabled":false,"rental_uris":{"android":"levelo://app?vid=ea4ac8b9-3a56-4f1c-9d51-a59abed78c49","ios":"levelo://app?vid=ea4ac8b9-3a56-4f1c-9d51-a59abed78c49"},"vehicle_type_id":"4","last_reported":1781545081,"current_range_meters":7200,"station_id":"ce4bhah2rcd13ifvqei0","pricing_plan_id":"cebpf4jnsgd1na2vs0mg"},{"bike_id":"ba578f76-4f77-4a92-9e59-486dd42b04ae","system_id":"levelo_inurba_marseille","lat":43.29318,"lon":5.3718,"is_reserved":false,"is_disabled":false,"rental_uris":{"android":"levelo://app?vid=ba578f76-4f77-4a92-9e59-486dd42b04ae","ios":"levelo://app?vid=ba578f76-4f77-4a92-9e59-486dd42b04ae"},"vehicle_type_id":"4","last_reported":1781545081,"current_range_meters":7200,"station_id":"ce4bgh92rcd13ifvqb40","pricing_plan_id":"cebpf4jnsgd1na2vs0mg"},{"bike_id":"c3967c59-ec2f-4048-b0d5-6cd98dfa60d8","system_id":"levelo_inurba_marseille","lat":43.28672,"lon":5.36309,"is_reserved":false,"is_disabled":false,"rental_uris":{"android":"levelo://app?vid=c3967c59-ec2f-4048-b0d5-6cd98dfa60d8","ios":"levelo://app?vid=c3967c59-ec2f-4048-b0d5-6cd98dfa60d8"},"vehicle_type_id":"4","last_reported":1781545081,"current_range_meters":7200,"station_id":"ce4bhah2rcd13ifvqej0","pricing_plan_id":"cebpf4jnsgd1na2vs0mg"},{"bike_id":"c56a031f-85c4-401b-9e02-cd83c3e055fb","system_id":"levelo_inurba_marseille","lat":43.23068,"lon":5.35484,"is_reserved":false,"is_disabled":false,"rental_uris":{"android":"levelo://app?vid=c56a031f-85c4-401b-9e02-cd83c3e055fb","ios":"levelo://app?vid=c56a031f-85c4-401b-9e02-cd83c3e055fb"},"vehicle_type_id":"4","last_reported":1781545081,"current_range_meters":7200,"station_id":"cpo3342slgdg3j2ifvpg","pricing_plan_id":"cebpf4jnsgd1na2vs0mg"},{"bike_id":"7f5cf6e2-9a0e-47db-b44a-328b79f3ac7d","system_id":"levelo_inurba_marseille","lat":43.31154,"lon":5.36959,"is_reserved":false,"is_disabled":true,"rental_uris":{"android":"levelo://app?vid=7f5cf6e2-9a0e-47db-b44a-328b79f3ac7d","ios":"levelo://app?vid=7f5cf6e2-9a0e-47db-b44a-328b79f3ac7d"},"vehicle_type_id":"4","last_reported":1781545081,"current_range_meters":7200,"station_id":"","pricing_plan_id":"cebpf4jnsgd1na2vs0mg"},{"bike_id":"c26438ac-2ef4-4370-8452-6da7292e16f8","system_id":"levelo_inurba_marseille","lat":43.24963,"lon":5.40478,"is_reserved":false,"is_disabled":false,"rental_uris":{"android":"levelo://app?vid=c26438ac-2ef4-4370-8452-6da7292e16f8","ios":"levelo://app?vid=c26438ac-2ef4-4370-8452-6da7292e16f8"},"vehicle_type_id":"4","last_reported":1781545081,"current_range_meters":7200,"station_id":"st_d2ngiaodas8pm72gd1h0","pricing_plan_id":"cebpf4jnsgd1na2vs0mg"},{"bike_id":"581ed491-d1c5-40b7-83c6-b01d6e0b909d","system_id":"levelo_inurba_marseille","lat":43.22702,"lon":5.34784,"is_reserved":false,"is_disabled":false,"rental_uris":{"android":"levelo://app?vid=581ed491-d1c5-40b7-83c6-b01d6e0b909d","ios":"levelo://app?vid=581ed491-d1c5-40b7-83c6-b01d6e0b909d"},"vehicle_type_id":"4","last_reported":1781545081,"current_range_meters":7200,"station_id":"","pricing_plan_id":"cebpf4jnsgd1na2vs0mg"},{"bike_id":"110554fd-d52e-4d6b-9b57-7d395db7f6d9","system_id":"levelo_inurba_marseille","lat":43.22564,"lon":5.41632,"is_reserved":false,"is_disabled":false,"rental_uris":{"android":"levelo://app?vid=110554fd-d52e-4d6b-9b57-7d395db7f6d9","ios":"levelo://app?vid=110554fd-d52e-4d6b-9b57-7d395db7f6d9"},"vehicle_type_id":"4","last_reported":1781545081,"current_range_meters":8000,"station_id":"st_d2o4gvlbi1j2169b742g","pricing_plan_id":"cebpf4jnsgd1na2vs0mg"},{"bike_id":"2e387dff-fefe-4f0a-8707-69db60928bfa","system_id":"levelo_inurba_marseille","lat":43.29513,"lon":5.39408,"is_reserved":false,"is_disabled":false,"rental_uris":{"android":"levelo://app?vid=2e387dff-fefe-4f0a-8707-69db60928bfa","ios":"levelo://app?vid=2e387dff-fefe-4f0a-8707-69db60928bfa"},"vehicle_type_id":"4","last_reported":1781545081,"current_range_meters":8000,"station_id":"ce4bh292rcd13ifvqdf0","pricing_plan_id":"cebpf4jnsgd1na2vs0mg"},{"bike_id":"6b37c16b-7f85-4a61-812d-fe95caee304e","system_id":"levelo_inurba_marseille","lat":43.24544,"lon":5.39524,"is_reserved":false,"is_disabled":false,"rental_uris":{"android":"levelo://app?vid=6b37c16b-7f85-4a61-812d-fe95caee304e","ios":"levelo://app?vid=6b37c16b-7f85-4a61-812d-fe95caee304e"},"vehicle_type_id":"4","last_reported":1781545081,"current_range_meters":8000,"station_id":"ce4bhlp2rcd13ifvqgjg","pricing_plan_id":"cebpf4jnsgd1na2vs0mg"},{"bike_id":"edbcf738-cc51-4877-aa19-e1b3cc203563","system_id":"levelo_inurba_marseille","lat":43.30776,"lon":5.37652,"is_reserved":false,"is_disabled":false,"rental_uris":{"android":"levelo://app?vid=edbcf738-cc51-4877-aa19-e1b3cc203563","ios":"levelo://app?vid=edbcf738-cc51-4877-aa19-e1b3cc203563"},"vehicle_type_id":"4","last_reported":1781545081,"current_range_meters":8000,"station_id":"ce4bgv92rcd13ifvqcq0","pricing_plan_id":"cebpf4jnsgd1na2vs0mg"},{"bike_id":"d1eca450-adbb-446f-937d-137a8ef08dcf","system_id":"levelo_inurba_marseille","lat":43.24666,"lon":5.43129,"is_reserved":false,"is_disabled":false,"rental_uris":{"android":"levelo://app?vid=d1eca450-adbb-446f-937d-137a8ef08dcf","ios":"levelo://app?vid=d1eca450-adbb-446f-937d-137a8ef08dcf"},"vehicle_type_id":"4","last_reported":1781545081,"current_range_meters":8000,"station_id":"st_d2m6c4gdas8pm72e190g","pricing_plan_id":"cebpf4jnsgd1na2vs0mg"},{"bike_id":"221c5759-4233-46d1-b7e3-0baf3f07bb76","system_id":"levelo_inurba_marseille","lat":43.23065,"lon":5.354879,"is_reserved":false,"is_disabled":false,"rental_uris":{"android":"levelo://app?vid=221c5759-4233-46d1-b7e3-0baf3f07bb76","ios":"levelo://app?vid=221c5759-4233-46d1-b7e3-0baf3f07bb76"},"vehicle_type_id":"4","last_reported":1781545081,"current_range_meters":8000,"station_id":"cpo3342slgdg3j2ifvpg","pricing_plan_id":"cebpf4jnsgd1na2vs0mg"},{"bike_id":"8d74ed63-d8ba-43ba-a428-2f6446bb0647","system_id":"levelo_inurba_marseille","lat":43.28103,"lon":5.37835,"is_reserved":false,"is_disabled":false,"rental_uris":{"android":"levelo://app?vid=8d74ed63-d8ba-43ba-a428-2f6446bb0647","ios":"levelo://app?vid=8d74ed63-d8ba-43ba-a428-2f6446bb0647"},"vehicle_type_id":"4","last_reported":1781545081,"current_range_meters":8000,"station_id":"ce4bha12rcd13ifvqee0","pricing_plan_id":"cebpf4jnsgd1na2vs0mg"},{"bike_id":"ae4c351c-9c0d-4f23-89df-10839fd7ad8b","system_id":"levelo_inurba_marseille","lat":43.24397,"lon":5.37036,"is_reserved":false,"is_disabled":false,"rental_uris":{"android":"levelo://app?vid=ae4c351c-9c0d-4f23-89df-10839fd7ad8b","ios":"levelo://app?vid=ae4c351c-9c0d-4f23-89df-10839fd7ad8b"},"vehicle_type_id":"4","last_reported":1781545081,"current_range_meters":8000,"station_id":"ce4bhhh2rcd13ifvqfk0","pricing_plan_id":"cebpf4jnsgd1na2vs0mg"},{"bike_id":"7cb0c3fa-34a4-4af6-b055-18103afda2e8","system_id":"levelo_inurba_marseille","lat":43.24735,"lon":5.39483,"is_reserved":false,"is_disabled":false,"rental_uris":{"android":"levelo://app?vid=7cb0c3fa-34a4-4af6-b055-18103afda2e8","ios":"levelo://app?vid=7cb0c3fa-34a4-4af6-b055-18103afda2e8"},"vehicle_type_id":"4","last_reported":1781545081,"current_range_meters":8000,"station_id":"","pricing_plan_id":"cebpf4jnsgd1na2vs0mg"},{"bike_id":"4fc12be7-8fb3-443b-af1e-2b7ee564a9af","system_id":"levelo_inurba_marseille","lat":43.30888,"lon":5.3965,"is_reserved":false,"is_disabled":false,"rental_uris":{"android":"levelo://app?vid=4fc12be7-8fb3-443b-af1e-2b7ee564a9af","ios":"levelo://app?vid=4fc12be7-8fb3-443b-af1e-2b7ee564a9af"},"vehicle_type_id":"4","last_reported":1781545081,"current_range_meters":8000,"station_id":"ce4bh012rcd13ifvqcv0","pricing_plan_id":"cebpf4jnsgd1na2vs0mg"},{"bike_id":"0aeecc6e-2f2d-4254-833a-49b6e9ee10a4","system_id":"levelo_inurba_marseille","lat":43.28453,"lon":5.37179,"is_reserved":false,"is_disabled":true,"rental_uris":{"android":"levelo://app?vid=0aeecc6e-2f2d-4254-833a-49b6e9ee10a4","ios":"levelo://app?vid=0aeecc6e-2f2d-4254-833a-49b6e9ee10a4"},"vehicle_type_id":"4","last_reported":1781545081,"current_range_meters":8000,"station_id":"","pricing_plan_id":"cebpf4jnsgd1na2vs0mg"},{"bike_id":"4155d93a-b4c3-4020-bb5c-74b3c8e65f1f","system_id":"levelo_inurba_marseille","lat":43.241608,"lon":5.364045,"is_reserved":false,"is_disabled":false,"rental_uris":{"android":"levelo://app?vid=4155d93a-b4c3-4020-bb5c-74b3c8e65f1f","ios":"levelo://app?vid=4155d93a-b4c3-4020-bb5c-74b3c8e65f1f"},"vehicle_type_id":"4","last_reported":1781545081,"current_range_meters":8000,"station_id":"cpo36qri1sfpv3e86is0","pricing_plan_id":"cebpf4jnsgd1na2vs0mg"},{"bike_id":"14c725e0-c1e6-41be-ba32-bfb498542268","system_id":"levelo_inurba_marseille","lat":43.27072,"lon":5.42278,"is_reserved":false,"is_disabled":false,"rental_uris":{"android":"levelo://app?vid=14c725e0-c1e6-41be-ba32-bfb498542268","ios":"levelo://app?vid=14c725e0-c1e6-41be-ba32-bfb498542268"},"vehicle_type_id":"4","last_reported":1781545081,"current_range_meters":8000,"station_id":"ce4bhk92rcd13ifvqgb0","pricing_plan_id":"cebpf4jnsgd1na2vs0mg"},{"bike_id":"a10ac536-0911-4259-a26c-5f3cb6d4d462","system_id":"levelo_inurba_marseille","lat":43.27384,"lon":5.36251,"is_reserved":false,"is_disabled":false,"rental_uris":{"android":"levelo://app?vid=a10ac536-0911-4259-a26c-5f3cb6d4d462","ios":"levelo://app?vid=a10ac536-0911-4259-a26c-5f3cb6d4d462"},"vehicle_type_id":"4","last_reported":1781545081,"current_range_meters":8000,"station_id":"ce4bhbh2rcd13ifvqeo0","pricing_plan_id":"cebpf4jnsgd1na2vs0mg"},{"bike_id":"b60fc35f-5157-40f6-9a74-f3097bb2511c","system_id":"levelo_inurba_marseille","lat":43.28958,"lon":5.36391,"is_reserved":false,"is_disabled":true,"rental_uris":{"android":"levelo://app?vid=b60fc35f-5157-40f6-9a74-f3097bb2511c","ios":"levelo://app?vid=b60fc35f-5157-40f6-9a74-f3097bb2511c"},"vehicle_type_id":"4","last_reported":1781545081,"current_range_meters":8000,"station_id":"ce4bhc92rcd13ifvqetg","pricing_plan_id":"cebpf4jnsgd1na2vs0mg"},{"bike_id":"6c8cf44d-935a-4a8f-88e0-f709dfd927d0","system_id":"levelo_inurba_marseille","lat":43.29195,"lon":5.39309,"is_reserved":false,"is_disabled":true,"rental_uris":{"android":"levelo://app?vid=6c8cf44d-935a-4a8f-88e0-f709dfd927d0","ios":"levelo://app?vid=6c8cf44d-935a-4a8f-88e0-f709dfd927d0"},"vehicle_type_id":"4","last_reported":1781545081,"current_range_meters":8000,"station_id":"ce4bh192rcd13ifvqdd0","pricing_plan_id":"cebpf4jnsgd1na2vs0mg"},{"bike_id":"f8df55f8-4db2-404d-b864-f4552faa75ed","system_id":"levelo_inurba_marseille","lat":43.26507,"lon":5.40716,"is_reserved":false,"is_disabled":false,"rental_uris":{"android":"levelo://app?vid=f8df55f8-4db2-404d-b864-f4552faa75ed","ios":"levelo://app?vid=f8df55f8-4db2-404d-b864-f4552faa75ed"},"vehicle_type_id":"4","last_reported":1781545081,"current_range_meters":8000,"station_id":"","pricing_plan_id":"cebpf4jnsgd1na2vs0mg"},{"bike_id":"493ce22c-5d29-40c8-927d-233c76c13d78","system_id":"levelo_inurba_marseille","lat":43.32493,"lon":5.36554,"is_reserved":false,"is_disabled":false,"rental_uris":{"android":"levelo://app?vid=493ce22c-5d29-40c8-927d-233c76c13d78","ios":"levelo://app?vid=493ce22c-5d29-40c8-927d-233c76c13d78"},"vehicle_type_id":"4","last_reported":1781545081,"current_range_meters":8000,"station_id":"ce4bhs12rcd13ifvqhvg","pricing_plan_id":"cebpf4jnsgd1na2vs0mg"},{"bike_id":"07129178-a5ef-4a64-9ce7-16768644bd37","system_id":"levelo_inurba_marseille","lat":43.24392,"lon":5.3706,"is_reserved":false,"is_disabled":false,"rental_uris":{"android":"levelo://app?vid=07129178-a5ef-4a64-9ce7-16768644bd37","ios":"levelo://app?vid=07129178-a5ef-4a64-9ce7-16768644bd37"},"vehicle_type_id":"4","last_reported":1781545081,"current_range_meters":8000,"station_id":"ce4bhhh2rcd13ifvqfk0","pricing_plan_id":"cebpf4jnsgd1na2vs0mg"},{"bike_id":"310ce947-3c40-456a-b56c-0041bafa5a73","system_id":"levelo_inurba_marseille","lat":43.29705,"lon":5.37677,"is_reserved":false,"is_disabled":true,"rental_uris":{"android":"levelo://app?vid=310ce947-3c40-456a-b56c-0041bafa5a73","ios":"levelo://app?vid=310ce947-3c40-456a-b56c-0041bafa5a73"},"vehicle_type_id":"4","last_reported":1781545081,"current_range_meters":8000,"station_id":"ce4bgkh2rcd13ifvqbl0","pricing_plan_id":"cebpf4jnsgd1na2vs0mg"},{"bike_id":"8a911aab-0874-4b37-83bd-3da10c1d9db3","system_id":"levelo_inurba_marseille","lat":43.27057,"lon":5.38309,"is_reserved":false,"is_disabled":false,"rental_uris":{"android":"levelo://app?vid=8a911aab-0874-4b37-83bd-3da10c1d9db3","ios":"levelo://app?vid=8a911aab-0874-4b37-83bd-3da10c1d9db3"},"vehicle_type_id":"4","last_reported":1781545081,"current_range_meters":8000,"station_id":"st_d3n2fo6cfp8s73cte1j0","pricing_plan_id":"cebpf4jnsgd1na2vs0mg"},