{"last_updated":1729307624,"ttl":60,"version":"2.2","data":{"bikes":[{"bike_id":"ca7e5631-a51e-4eca-b04b-58e9489e7be0","system_id":"levelo_inurba_marseille","lat":43.30934,"lon":5.40145,"is_reserved":false,"is_disabled":false,"rental_uris":{"android":"levelo://app?vid=ca7e5631-a51e-4eca-b04b-58e9489e7be0","ios":"levelo://app?vid=ca7e5631-a51e-4eca-b04b-58e9489e7be0"},"vehicle_type_id":"4","last_reported":1729307624,"current_range_meters":31200,"station_id":"ce4bgvp2rcd13ifvqct0","pricing_plan_id":"cebpf4jnsgd1na2vs0mg"},{"bike_id":"7c215bb1-a727-4569-986d-c8f6cf1e676e","system_id":"levelo_inurba_marseille","lat":43.31712,"lon":5.43702,"is_reserved":false,"is_disabled":false,"rental_uris":{"android":"levelo://app?vid=7c215bb1-a727-4569-986d-c8f6cf1e676e","ios":"levelo://app?vid=7c215bb1-a727-4569-986d-c8f6cf1e676e"},"vehicle_type_id":"4","last_reported":1729307624,"current_range_meters":38000,"station_id":"ce4bhp92rcd13ifvqhcg","pricing_plan_id":"cebpf4jnsgd1na2vs0mg"},{"bike_id":"ef47d04a-d623-4923-9ac4-d8403fc9a216","system_id":"levelo_inurba_marseille","lat":43.3373,"lon":5.39184,"is_reserved":false,"is_disabled":false,"rental_uris":{"android":"levelo://app?vid=ef47d04a-d623-4923-9ac4-d8403fc9a216","ios":"levelo://app?vid=ef47d04a-d623-4923-9ac4-d8403fc9a216"},"vehicle_type_id":"4","last_reported":1729307624,"current_range_meters":39200,"station_id":"ce4bhr92rcd13ifvqhsg","pricing_plan_id":"cebpf4jnsgd1na2vs0mg"},{"bike_id":"10a9ece6-ff34-482d-8185-60ac6265c523","system_id":"levelo_inurba_marseille","lat":43.32642,"lon":5.38991,"is_reserved":false,"is_disabled":false,"rental_uris":{"android":"levelo://app?vid=10a9ece6-ff34-482d-8185-60ac6265c523","ios":"levelo://app?vid=10a9ece6-ff34-482d-8185-60ac6265c523"},"vehicle_type_id":"4","last_reported":1729307624,"current_range_meters":22800,"station_id":"","pricing_plan_id":"cebpf4jnsgd1na2vs0mg"},{"bike_id":"676ec6c4-6b42-43e0-81fe-327782965da5","system_id":"levelo_inurba_marseille","lat":43.33765,"lon":5.37484,"is_reserved":false,"is_disabled":false,"rental_uris":{"android":"levelo://app?vid=676ec6c4-6b42-43e0-81fe-327782965da5","ios":"levelo://app?vid=676ec6c4-6b42-43e0-81fe-327782965da5"},"vehicle_type_id":"4","last_reported":1729307624,"current_range_meters":15200,"station_id":"","pricing_plan_id":"cebpf4jnsgd1na2vs0mg"},{"bike_id":"79e585c7-8231-4426-9d79-db268f2ac09d","system_id":"levelo_inurba_marseille","lat":43.30885,"lon":5.37185,"is_reserved":false,"is_disabled":false,"rental_uris":{"android":"levelo://app?vid=79e585c7-8231-4426-9d79-db268f2ac09d","ios":"levelo://app?vid=79e585c7-8231-4426-9d79-db268f2ac09d"},"vehicle_type_id":"4","last_reported":1729307624,"current_range_meters":38400,"station_id":"ce4bguh2rcd13ifvqckg","pricing_plan_id":"cebpf4jnsgd1na2vs0mg"},{"bike_id":"0ff8ad56-acc1-47eb-b2a7-24957200f757","system_id":"levelo_inurba_marseille","lat":43.27671,"lon":5.38907,"is_reserved":false,"is_disabled":false,"rental_uris":{"android":"levelo://app?vid=0ff8ad56-acc1-47eb-b2a7-24957200f757","ios":"levelo://app?vid=0ff8ad56-acc1-47eb-b2a7-24957200f757"},"vehicle_type_id":"4","last_reported":1729307624,"current_range_meters":38000,"station_id":"ce4bhi12rcd13ifvqfo0","pricing_plan_id":"cebpf4jnsgd1na2vs0mg"},{"bike_id":"7c211f13-8b61-4402-8ed3-420ceb6cdf6a","system_id":"levelo_inurba_marseille","lat":43.28443,"lon":5.39185,"is_reserved":false,"is_disabled":false,"rental_uris":{"android":"levelo://app?vid=7c211f13-8b61-4402-8ed3-420ceb6cdf6a","ios":"levelo://app?vid=7c211f13-8b61-4402-8ed3-420ceb6cdf6a"},"vehicle_type_id":"4","last_reported":1729307624,"current_range_meters":39200,"station_id":"ce4bhoh2rcd13ifvqh5g","pricing_plan_id":"cebpf4jnsgd1na2vs0mg"},{"bike_id":"966f251d-4412-4e77-82b7-c125675614ef","system_id":"levelo_inurba_marseille","lat":43.337444,"lon":5.374475,"is_reserved":false,"is_disabled":false,"rental_uris":{"android":"levelo://app?vid=966f251d-4412-4e77-82b7-c125675614ef","ios":"levelo://app?vid=966f251d-4412-4e77-82b7-c125675614ef"},"vehicle_type_id":"4","last_reported":1729307624,"current_range_meters":5600,"station_id":"","pricing_plan_id":"cebpf4jnsgd1na2vs0mg"},{"bike_id":"4c1edc5c-7c39-409a-881e-4ccb4d014cd4","system_id":"levelo_inurba_marseille","lat":43.31712,"lon":5.43701,"is_reserved":false,"is_disabled":false,"rental_uris":{"android":"levelo://app?vid=4c1edc5c-7c39-409a-881e-4ccb4d014cd4","ios":"levelo://app?vid=4c1edc5c-7c39-409a-881e-4ccb4d014cd4"},"vehicle_type_id":"4","last_reported":1729307624,"current_range_meters":38800,"station_id":"ce4bhp92rcd13ifvqhcg","pricing_plan_id":"cebpf4jnsgd1na2vs0mg"},{"bike_id":"7695e951-fe49-466c-b1f2-4e44e5b9e14c","system_id":"levelo_inurba_marseille","lat":43.30796,"lon":5.43521,"is_reserved":false,"is_disabled":false,"rental_uris":{"android":"levelo://app?vid=7695e951-fe49-466c-b1f2-4e44e5b9e14c","ios":"levelo://app?vid=7695e951-fe49-466c-b1f2-4e44e5b9e14c"},"vehicle_type_id":"4","last_reported":1729307624,"current_range_meters":38800,"station_id":"ce4bhph2rcd13ifvqheg","pricing_plan_id":"cebpf4jnsgd1na2vs0mg"},{"bike_id":"9e23534c-3873-44a5-b32e-f42e453f7851","system_id":"levelo_inurba_marseille","lat":43.31083,"lon":5.42429,"is_reserved":false,"is_disabled":false,"rental_uris":{"android":"levelo://app?vid=9e23534c-3873-44a5-b32e-f42e453f7851","ios":"levelo://app?vid=9e23534c-3873-44a5-b32e-f42e453f7851"},"vehicle_type_id":"4","last_reported":1729307624,"current_range_meters":38800,"station_id":"ce4bhp92rcd13ifvqhag","pricing_plan_id":"cebpf4jnsgd1na2vs0mg"},{"bike_id":"bdac7045-6822-4f98-8d23-075c35d4893f","system_id":"levelo_inurba_marseille","lat":43.29347,"lon":5.42826,"is_reserved":false,"is_disabled":false,"rental_uris":{"android":"levelo://app?vid=bdac7045-6822-4f98-8d23-075c35d4893f","ios":"levelo://app?vid=bdac7045-6822-4f98-8d23-075c35d4893f"},"vehicle_type_id":"4","last_reported":1729307624,"current_range_meters":7200,"station_id":"","pricing_plan_id":"cebpf4jnsgd1na2vs0mg"},{"bike_id":"8026e345-ee5f-499a-a48f-cdcd6de8dba0","system_id":"levelo_inurba_marseille","lat":43.32366,"lon":5.38885,"is_reserved":false,"is_disabled":false,"rental_uris":{"android":"levelo://app?vid=8026e345-ee5f-499a-a48f-cdcd6de8dba0","ios":"levelo://app?vid=8026e345-ee5f-499a-a48f-cdcd6de8dba0"},"vehicle_type_id":"4","last_reported":1729307624,"current_range_meters":14400,"station_id":"ce4bhqp2rcd13ifvqhog","pricing_plan_id":"cebpf4jnsgd1na2vs0mg"},{"bike_id":"a94a90cf-4975-4f69-8ba1-73130188f59c","system_id":"levelo_inurba_marseille","lat":43.27952,"lon":5.3871,"is_reserved":false,"is_disabled":false,"rental_uris":{"android":"levelo://app?vid=a94a90cf-4975-4f69-8ba1-73130188f59c","ios":"levelo://app?vid=a94a90cf-4975-4f69-8ba1-73130188f59c"},"vehicle_type_id":"4","last_reported":1729307624,"current_range_meters":36800,"station_id":"ce4bhg12rcd13ifvqf80","pricing_plan_id":"cebpf4jnsgd1na2vs0mg"},{"bike_id":"a1bc83eb-3e7d-4aeb-8f33-0d62b4b22772","system_id":"levelo_inurba_marseille","lat":43.28482,"lon":5.38553,"is_reserved":false,"is_disabled":false,"rental_uris":{"android":"levelo://app?vid=a1bc83eb-3e7d-4aeb-8f33-0d62b4b22772","ios":"levelo://app?vid=a1bc83eb-3e7d-4aeb-8f33-0d62b4b22772"},"vehicle_type_id":"4","last_reported":1729307624,"current_range_meters":38800,"station_id":"ce4bh8p2rcd13ifvqeb0","pricing_plan_id":"cebpf4jnsgd1na2vs0mg"},{"bike_id":"8536bdf8-a581-4680-941a-442b5d864722","system_id":"levelo_inurba_marseille","lat":43.30933,"lon":5.40144,"is_reserved":false,"is_disabled":false,"rental_uris":{"android":"levelo://app?vid=8536bdf8-a581-4680-941a-442b5d864722","ios":"levelo://app?vid=8536bdf8-a581-4680-941a-442b5d864722"},"vehicle_type_id":"4","last_reported":1729307624,"current_range_meters":39200,"station_id":"ce4bgvp2rcd13ifvqct0","pricing_plan_id":"cebpf4jnsgd1na2vs0mg"},{"bike_id":"90b73402-bc44-408d-9b3e-fab7aec736a5","system_id":"levelo_inurba_marseille","lat":43.26068,"lon":5.39387,"is_reserved":false,"is_disabled":false,"rental_uris":{"android":"levelo://app?vid=90b73402-bc44-408d-9b3e-fab7aec736a5","ios":"levelo://app?vid=90b73402-bc44-408d-9b3e-fab7aec736a5"},"vehicle_type_id":"4","last_reported":1729307624,"current_range_meters":28800,"station_id":"ce4bhh92rcd13ifvqfj0","pricing_plan_id":"cebpf4jnsgd1na2vs0mg"},{"bike_id":"71da9dc6-dba4-49c4-8067-135146d7a6c9","system_id":"levelo_inurba_marseille","lat":43.241767,"lon":5.397322,"is_reserved":false,"is_disabled":false,"rental_uris":{"android":"levelo://app?vid=71da9dc6-dba4-49c4-8067-135146d7a6c9","ios":"levelo://app?vid=71da9dc6-dba4-49c4-8067-135146d7a6c9"},"vehicle_type_id":"4","last_reported":1729307624,"current_range_meters":26000,"station_id":"ce4bhn12rcd13ifvqgpg","pricing_plan_id":"cebpf4jnsgd1na2vs0mg"},{"bike_id":"ead18ffd-ff4d-42d6-84be-3ac0202bb1f1","system_id":"levelo_inurba_marseille","lat":43.31895,"lon":5.40731,"is_reserved":false,"is_disabled":false,"rental_uris":{"android":"levelo://app?vid=ead18ffd-ff4d-42d6-84be-3ac0202bb1f1","ios":"levelo://app?vid=ead18ffd-ff4d-42d6-84be-3ac0202bb1f1"},"vehicle_type_id":"4","last_reported":1729307624,"current_range_meters":40000,"station_id":"ce4bhq12rcd13ifvqhig","pricing_plan_id":"cebpf4jnsgd1na2vs0mg"},{"bike_id":"40302e19-028a-44eb-9abb-29a38b86aa5e","system_id":"levelo_inurba_marseille","lat":43.31163,"lon":5.38716,"is_reserved":false,"is_disabled":false,"rental_uris":{"android":"levelo://app?vid=40302e19-028a-44eb-9abb-29a38b86aa5e","ios":"levelo://app?vid=40302e19-028a-44eb-9abb-29a38b86aa5e"},"vehicle_type_id":"4","last_reported":1729307624,"current_range_meters":38000,"station_id":"ce4bgv12rcd13ifvqcp0","pricing_plan_id":"cebpf4jnsgd1na2vs0mg"},{"bike_id":"83729cb6-71ab-4370-8190-3d8c8681e30a","system_id":"levelo_inurba_marseille","lat":43.30776,"lon":5.37656,"is_reserved":false,"is_disabled":false,"rental_uris":{"android":"levelo://app?vid=83729cb6-71ab-4370-8190-3d8c8681e30a","ios":"levelo://app?vid=83729cb6-71ab-4370-8190-3d8c8681e30a"},"vehicle_type_id":"4","last_reported":1729307624,"current_range_meters":40000,"station_id":"ce4bgv92rcd13ifvqcq0","pricing_plan_id":"cebpf4jnsgd1na2vs0mg"},{"bike_id":"c9df7be6-3ec5-4763-987a-e5182f17ad36","system_id":"levelo_inurba_marseille","lat":43.31076,"lon":5.38356,"is_reserved":false,"is_disabled":false,"rental_uris":{"android":"levelo://app?vid=c9df7be6-3ec5-4763-987a-e5182f17ad36","ios":"levelo://app?vid=c9df7be6-3ec5-4763-987a-e5182f17ad36"},"vehicle_type_id":"4","last_reported":1729307624,"current_range_meters":30400,"station_id":"ce4bgv92rcd13ifvqcr0","pricing_plan_id":"cebpf4jnsgd1na2vs0mg"},{"bike_id":"f19a4aa9-4156-4792-aeae-06dfeace7cb1","system_id":"levelo_inurba_marseille","lat":43.30782,"lon":5.37648,"is_reserved":false,"is_disabled":false,"rental_uris":{"android":"levelo://app?vid=f19a4aa9-4156-4792-aeae-06dfeace7cb1","ios":"levelo://app?vid=f19a4aa9-4156-4792-aeae-06dfeace7cb1"},"vehicle_type_id":"4","last_reported":1729307624,"current_range_meters":29600,"station_id":"ce4bgv92rcd13ifvqcq0","pricing_plan_id":"cebpf4jnsgd1na2vs0mg"},{"bike_id":"f6755470-c9b3-459f-beaa-c4c3f6562c74","system_id":"levelo_inurba_marseille","lat":43.31686,"lon":5.40472,"is_reserved":false,"is_disabled":false,"rental_uris":{"android":"levelo://app?vid=f6755470-c9b3-459f-beaa-c4c3f6562c74","ios":"levelo://app?vid=f6755470-c9b3-459f-beaa-c4c3f6562c74"},"vehicle_type_id":"4","last_reported":1729307624,"current_range_meters":33600,"station_id":"ce4bh012rcd13ifvqd00","pricing_plan_id":"cebpf4jnsgd1na2vs0mg"},{"bike_id":"006ddbf4-82cb-41c3-a643-0f3a1c8bb945","system_id":"levelo_inurba_marseille","lat":43.27069,"lon":5.42275,"is_reserved":false,"is_disabled":false,"rental_uris":{"android":"levelo://app?vid=006ddbf4-82cb-41c3-a643-0f3a1c8bb945","ios":"levelo://app?vid=006ddbf4-82cb-41c3-a643-0f3a1c8bb945"},"vehicle_type_id":"4","last_reported":1729307624,"current_range_meters":39200,"station_id":"ce4bhk92rcd13ifvqgb0","pricing_plan_id":"cebpf4jnsgd1na2vs0mg"},{"bike_id":"af1e8a64-3c2f-4d6e-a783-f80957976387","system_id":"levelo_inurba_marseille","lat":43.30631,"lon":5.40073,"is_reserved":false,"is_disabled":false,"rental_uris":{"android":"levelo://app?vid=af1e8a64-3c2f-4d6e-a783-f80957976387","ios":"levelo://app?vid=af1e8a64-3c2f-4d6e-a783-f80957976387"},"vehicle_type_id":"4","last_reported":1729307624,"current_range_meters":38400,"station_id":"ce4bh112rcd13ifvqda0","pricing_plan_id":"cebpf4jnsgd1na2vs0mg"},{"bike_id":"7b3f724b-2116-4434-9bb6-e8fb7b762ce7","system_id":"levelo_inurba_marseille","lat":43.28426,"lon":5.39179,"is_reserved":false,"is_disabled":false,"rental_uris":{"android":"levelo://app?vid=7b3f724b-2116-4434-9bb6-e8fb7b762ce7","ios":"levelo://app?vid=7b3f724b-2116-4434-9bb6-e8fb7b762ce7"},"vehicle_type_id":"4","last_reported":1729307624,"current_range_meters":25600,"station_id":"ce4bhoh2rcd13ifvqh5g","pricing_plan_id":"cebpf4jnsgd1na2vs0mg"},{"bike_id":"11dd6f88-d49b-4809-98d2-b460f57954ed","system_id":"levelo_inurba_marseille","lat":43.27177,"lon":5.40991,"is_reserved":false,"is_disabled":false,"rental_uris":{"android":"levelo://app?vid=11dd6f88-d49b-4809-98d2-b460f57954ed","ios":"levelo://app?vid=11dd6f88-d49b-4809-98d2-b460f57954ed"},"vehicle_type_id":"4","last_reported":1729307624,"current_range_meters":34800,"station_id":"ce4bhl12rcd13ifvqgf0","pricing_plan_id":"cebpf4jnsgd1na2vs0mg"},{"bike_id":"ab44298b-6a88-486a-ba74-a620c29f37fd","system_id":"levelo_inurba_marseille","lat":43.30886,"lon":5.3719,"is_reserved":false,"is_disabled":false,"rental_uris":{"android":"levelo://app?vid=ab44298b-6a88-486a-ba74-a620c29f37fd","ios":"levelo://app?vid=ab44298b-6a88-486a-ba74-a620c29f37fd"},"vehicle_type_id":"4","last_reported":1729307624,"current_range_meters":38000,"station_id":"ce4bguh2rcd13ifvqckg","pricing_plan_id":"cebpf4jnsgd1na2vs0mg"},{"bike_id":"9e833968-4b5b-4a32-a96b-8431979de98c","system_id":"levelo_inurba_marseille","lat":43.25729,"lon":5.41103,"is_reserved":false,"is_disabled":false,"rental_uris":{"android":"levelo://app?vid=9e833968-4b5b-4a32-a96b-8431979de98c","ios":"levelo://app?vid=9e833968-4b5b-4a32-a96b-8431979de98c"},"vehicle_type_id":"4","last_reported":1729307624,"current_range_meters":14000,"station_id":"ce4bhkp2rcd13ifvqgd0","pricing_plan_id":"cebpf4jnsgd1na2vs0mg"},{"bike_id":"84a71244-fc5a-453f-b683-69ed4c14244f","system_id":"levelo_inurba_marseille","lat":43.28013,"lon":5.41652,"is_reserved":false,"is_disabled":false,"rental_uris":{"android":"levelo://app?vid=84a71244-fc5a-453f-b683-69ed4c14244f","ios":"levelo://app?vid=84a71244-fc5a-453f-b683-69ed4c14244f"},"vehicle_type_id":"4","last_reported":1729307624,"current_range_meters":10000,"station_id":"ce4bho12rcd13ifvqh1g","pricing_plan_id":"cebpf4jnsgd1na2vs0mg"},{"bike_id":"2aa30074-a798-4517-9910-408fe840d5c0","system_id":"levelo_inurba_marseille","lat":43.23191,"lon":5.35554,"is_reserved":false,"is_disabled":false,"rental_uris":{"android":"levelo://app?vid=2aa30074-a798-4517-9910-408fe840d5c0","ios":"levelo://app?vid=2aa30074-a798-4517-9910-408fe840d5c0"},"vehicle_type_id":"4","last_reported":1729307624,"current_range_meters":26000,"station_id":"ce4bhu92rcd13ifvqi70","pricing_plan_id":"cebpf4jnsgd1na2vs0mg"},{"bike_id":"573c3e46-5354-4148-8c68-231f16c2f7a8","system_id":"levelo_inurba_marseille","lat":43.32107,"lon":5.36783,"is_reserved":false,"is_disabled":false,"rental_uris":{"android":"levelo://app?vid=573c3e46-5354-4148-8c68-231f16c2f7a8","ios":"levelo://app?vid=573c3e46-5354-4148-8c68-231f16c2f7a8"},"vehicle_type_id":"4","last_reported":1729307624,"current_range_meters":38800,"station_id":"ce4bhrh2rcd13ifvqhug","pricing_plan_id":"cebpf4jnsgd1na2vs0mg"},{"bike_id":"63c779f4-5e78-452e-adcf-fb89700c4c27","system_id":"levelo_inurba_marseille","lat":43.29628,"lon":5.37339,"is_reserved":false,"is_disabled":false,"rental_uris":{"android":"levelo://app?vid=63c779f4-5e78-452e-adcf-fb89700c4c27","ios":"levelo://app?vid=63c779f4-5e78-452e-adcf-fb89700c4c27"},"vehicle_type_id":"4","last_reported":1729307624,"current_range_meters":32400,"station_id":"","pricing_plan_id":"cebpf4jnsgd1na2vs0mg"},{"bike_id":"b8be9637-1596-480b-9b66-d74595d15a54","system_id":"levelo_inurba_marseille","lat":43.3078,"lon":5.37657,"is_reserved":false,"is_disabled":false,"rental_uris":{"android":"levelo://app?vid=b8be9637-1596-480b-9b66-d74595d15a54","ios":"levelo://app?vid=b8be9637-1596-480b-9b66-d74595d15a54"},"vehicle_type_id":"4","last_reported":1729307624,"current_range_meters":39200,"station_id":"ce4bgv92rcd13ifvqcq0","pricing_plan_id":"cebpf4jnsgd1na2vs0mg"},{"bike_id":"9c38f013-47e1-43a0-8d8e-166169bbe85e","system_id":"levelo_inurba_marseille","lat":43.31272,"lon":5.40161,"is_reserved":false,"is_disabled":false,"rental_uris":{"android":"levelo://app?vid=9c38f013-47e1-43a0-8d8e-166169bbe85e","ios":"levelo://app?vid=9c38f013-47e1-43a0-8d8e-166169bbe85e"},"vehicle_type_id":"4","last_reported":1729307624,"current_range_meters":24800,"station_id":"ce4bh092rcd13ifvqd30","pricing_plan_id":"cebpf4jnsgd1na2vs0mg"},{"bike_id":"729179c8-7a5b-4dd4-9b70-b7cfb266c4ae","system_id":"levelo_inurba_marseille","lat":43.275668,"lon":5.384258,"is_reserved":false,"is_disabled":false,"rental_uris":{"android":"levelo://app?vid=729179c8-7a5b-4dd4-9b70-b7cfb266c4ae","ios":"levelo://app?vid=729179c8-7a5b-4dd4-9b70-b7cfb266c4ae"},"vehicle_type_id":"4","last_reported":1729307624,"current_range_meters":40000,"station_id":"ce4bhh92rcd13ifvqfi0","pricing_plan_id":"cebpf4jnsgd1na2vs0mg"},{"bike_id":"ceb0491a-517a-4b57-9f9c-a08e3213a3b0","system_id":"levelo_inurba_marseille","lat":43.30952,"lon":5.39043,"is_reserved":false,"is_disabled":false,"rental_uris":{"android":"levelo://app?vid=ceb0491a-517a-4b57-9f9c-a08e3213a3b0","ios":"levelo://app?vid=ceb0491a-517a-4b57-9f9c-a08e3213a3b0"},"vehicle_type_id":"4","last_reported":1729307624,"current_range_meters":9200,"station_id":"ce4bgup2rcd13ifvqco0","pricing_plan_id":"cebpf4jnsgd1na2vs0mg"},{"bike_id":"bc4dfd71-cdf3-45e3-8aa3-c5528379f96a","system_id":"levelo_inurba_marseille","lat":43.27615,"lon":5.36112,"is_reserved":false,"is_disabled":false,"rental_uris":{"android":"levelo://app?vid=bc4dfd71-cdf3-45e3-8aa3-c5528379f96a","ios":"levelo://app?vid=bc4dfd71-cdf3-45e3-8aa3-c5528379f96a"},"vehicle_type_id":"4","last_reported":1729307624,"current_range_meters":21600,"station_id":"ce4bgj92rcd13ifvqbe0","pricing_plan_id":"cebpf4jnsgd1na2vs0mg"},{"bike_id":"85027572-b906-4112-9dd3-cf8608421aeb","system_id":"levelo_inurba_marseille","lat":43.26958,"lon":5.38633,"is_reserved":false,"is_disabled":false,"rental_uris":{"android":"levelo://app?vid=85027572-b906-4112-9dd3-cf8608421aeb","ios":"levelo://app?vid=85027572-b906-4112-9dd3-cf8608421aeb"},"vehicle_type_id":"4","last_reported":1729307624,"current_range_meters":25600,"station_id":"ce4bhh92rcd13ifvqfh0","pricing_plan_id":"cebpf4jnsgd1na2vs0mg"},{"bike_id":"c746da30-0175-4c63-8cc4-f4d0284e8127","system_id":"levelo_inurba_marseille","lat":43.23963,"lon":5.36634,"is_reserved":false,"is_disabled":false,"rental_uris":{"android":"levelo://app?vid=c746da30-0175-4c63-8cc4-f4d0284e8127","ios":"levelo://app?vid=c746da30-0175-4c63-8cc4-f4d0284e8127"},"vehicle_type_id":"4","last_reported":1729307624,"current_range_meters":18000,"station_id":"ce4bhi12rcd13ifvqfp0","pricing_plan_id":"cebpf4jnsgd1na2vs0mg"},{"bike_id":"6188b269-e9bb-48ab-9c37-ab69aeff6abc","system_id":"levelo_inurba_marseille","lat":43.28407,"lon":5.37509,"is_reserved":false,"is_disabled":false,"rental_uris":{"android":"levelo://app?vid=6188b269-e9bb-48ab-9c37-ab69aeff6abc","ios":"levelo://app?vid=6188b269-e9bb-48ab-9c37-ab69aeff6abc"},"vehicle_type_id":"4","last_reported":1729307624,"current_range_meters":32800,"station_id":"ce4bh412rcd13ifvqds0","pricing_plan_id":"cebpf4jnsgd1na2vs0mg"},{"bike_id":"f2256217-bfb2-4971-9ee0-6f6eb89890ff","system_id":"levelo_inurba_marseille","lat":43.30589,"lon":5.39346,"is_reserved":false,"is_disabled":false,"rental_uris":{"android":"levelo://app?vid=f2256217-bfb2-4971-9ee0-6f6eb89890ff","ios":"levelo://app?vid=f2256217-bfb2-4971-9ee0-6f6eb89890ff"},"vehicle_type_id":"4","last_reported":1729307624,"current_range_meters":9600,"station_id":"ce4bh0p2rcd13ifvqd80","pricing_plan_id":"cebpf4jnsgd1na2vs0mg"},{"bike_id":"d3c6423b-559d-4e53-82ea-52f46901a741","system_id":"levelo_inurba_marseille","lat":43.26942,"lon":5.40248,"is_reserved":false,"is_disabled":false,"rental_uris":{"android":"levelo://app?vid=d3c6423b-559d-4e53-82ea-52f46901a741","ios":"levelo://app?vid=d3c6423b-559d-4e53-82ea-52f46901a741"},"vehicle_type_id":"4","last_reported":1729307624,"current_range_meters":39200,"station_id":"cjm6bp8fraef2m0cb0m0","pricing_plan_id":"cebpf4jnsgd1na2vs0mg"},{"bike_id":"28e3118e-6c8f-4a75-a996-b10c34037a75","system_id":"levelo_inurba_marseille","lat":43.27495,"lon":5.42456,"is_reserved":false,"is_disabled":false,"rental_uris":{"android":"levelo://app?vid=28e3118e-6c8f-4a75-a996-b10c34037a75","ios":"levelo://app?vid=28e3118e-6c8f-4a75-a996-b10c34037a75"},"vehicle_type_id":"4","last_reported":1729307624,"current_range_meters":30400,"station_id":"ce4bhn92rcd13ifvqgrg","pricing_plan_id":"cebpf4jnsgd1na2vs0mg"},{"bike_id":"1dc42c89-5aa7-41d8-bc93-1f8f11dcaf4d","system_id":"levelo_inurba_marseille","lat":43.31174,"lon":5.38717,"is_reserved":false,"is_disabled":false,"rental_uris":{"android":"levelo://app?vid=1dc42c89-5aa7-41d8-bc93-1f8f11dcaf4d","ios":"levelo://app?vid=1dc42c89-5aa7-41d8-bc93-1f8f11dcaf4d"},"vehicle_type_id":"4","last_reported":1729307624,"current_range_meters":24400,"station_id":"ce4bgv12rcd13ifvqcp0","pricing_plan_id":"cebpf4jnsgd1na2vs0mg"},{"bike_id":"31ecba0a-e641-462b-b59a-6987acdb359b","system_id":"levelo_inurba_marseille","lat":43.28438,"lon":5.39195,"is_reserved":false,"is_disabled":false,"rental_uris":{"android":"levelo://app?vid=31ecba0a-e641-462b-b59a-6987acdb359b","ios":"levelo://app?vid=31ecba0a-e641-462b-b59a-6987acdb359b"},"vehicle_type_id":"4","last_reported":1729307624,"current_range_meters":38800,"station_id":"ce4bhoh2rcd13ifvqh5g","pricing_plan_id":"cebpf4jnsgd1na2vs0mg"},{"bike_id":"6f034070-ee6f-4e30-853e-ccd43834685f","system_id":"levelo_inurba_marseille","lat":43.28012,"lon":5.41657,"is_reserved":false,"is_disabled":false,"rental_uris":{"android":"levelo://app?vid=6f034070-ee6f-4e30-853e-ccd43834685f","ios":"levelo://app?vid=6f034070-ee6f-4e30-853e-ccd43834685f"},"vehicle_type_id":"4","last_reported":1729307624,"current_range_meters":12800,"station_id":"ce4bho12rcd13ifvqh1g","pricing_plan_id":"cebpf4jnsgd1na2vs0mg"},{"bike_id":"eca218d1-7119-492a-ba62-cb52d239834b","system_id":"levelo_inurba_marseille","lat":43.27815,"lon":5.40721,"is_reserved":false,"is_disabled":false,"rental_uris":{"android":"levelo://app?vid=eca218d1-7119-492a-ba62-cb52d239834b","ios":"levelo://app?vid=eca218d1-7119-492a-ba62-cb52d239834b"},"vehicle_type_id":"4","last_reported":1729307624,"current_range_meters":34800,"station_id":"ce4bhnh2rcd13ifvqgtg","pricing_plan_id":"cebpf4jnsgd1na2vs0mg"},{"bike_id":"4f8bd11b-a06a-4d2a-bee0-a05a0caa7df3","system_id":"levelo_inurba_marseille","lat":43.23187,"lon":5.39976,"is_reserved":false,"is_disabled":false,"rental_uris":{"android":"levelo://app?vid=4f8bd11b-a06a-4d2a-bee0-a05a0caa7df3","ios":"levelo://app?vid=4f8bd11b-a06a-4d2a-bee0-a05a0caa7df3"},"vehicle_type_id":"4","last_reported":1729307624,"current_range_meters":22000,"station_id":"ce4bhn12rcd13ifvqgqg","pricing_plan_id":"cebpf4jnsgd1na2vs0mg"},{"bike_id":"996fe878-5b5d-4603-a6c3-9fb689e4747b","system_id":"levelo_inurba_marseille","lat":43.27491,"lon":5.42452,"is_reserved":false,"is_disabled":false,"rental_uris":{"android":"levelo://app?vid=996fe878-5b5d-4603-a6c3-9fb689e4747b","ios":"levelo://app?vid=996fe878-5b5d-4603-a6c3-9fb689e4747b"},"vehicle_type_id":"4","last_reported":1729307624,"current_range_meters":14400,"station_id":"ce4bhn92rcd13ifvqgrg","pricing_plan_id":"cebpf4jnsgd1na2vs0mg"},{"bike_id":"fc6e513b-da81-4d34-a427-493e42edd768","system_id":"levelo_inurba_marseille","lat":43.29264,"lon":5.38278,"is_reserved":false,"is_disabled":false,"rental_uris":{"android":"levelo://app?vid=fc6e513b-da81-4d34-a427-493e42edd768","ios":"levelo://app?vid=fc6e513b-da81-4d34-a427-493e42edd768"},"vehicle_type_id":"4","last_reported":1729307624,"current_range_meters":24400,"station_id":"","pricing_plan_id":"cebpf4jnsgd1na2vs0mg"},{"bike_id":"ac231a2e-1def-435c-8990-198f2e08ac8d","system_id":"levelo_inurba_marseille","lat":43.23055,"lon":5.35494,"is_reserved":false,"is_disabled":false,"rental_uris":{"android":"levelo://app?vid=ac231a2e-1def-435c-8990-198f2e08ac8d","ios":"levelo://app?vid=ac231a2e-1def-435c-8990-198f2e08ac8d"},"vehicle_type_id":"4","last_reported":1729307624,"current_range_meters":19600,"station_id":"cpo3342slgdg3j2ifvpg","pricing_plan_id":"cebpf4jnsgd1na2vs0mg"},{"bike_id":"0092393c-5fa7-4d7e-96ae-1d3cba232a3c","system_id":"levelo_inurba_marseille","lat":43.23188,"lon":5.39978,"is_reserved":false,"is_disabled":false,"rental_uris":{"android":"levelo://app?vid=0092393c-5fa7-4d7e-96ae-1d3cba232a3c","ios":"levelo://app?vid=0092393c-5fa7-4d7e-96ae-1d3cba232a3c"},"vehicle_type_id":"4","last_reported":1729307624,"current_range_meters":37600,"station_id":"ce4bhn12rcd13ifvqgqg","pricing_plan_id":"cebpf4jnsgd1na2vs0mg"},{"bike_id":"bec130fa-48ec-42db-9ef3-6b66981d3b69","system_id":"levelo_inurba_marseille","lat":43.3171,"lon":5.37748,"is_reserved":false,"is_disabled":false,"rental_uris":{"android":"levelo://app?vid=bec130fa-48ec-42db-9ef3-6b66981d3b69","ios":"levelo://app?vid=bec130fa-48ec-42db-9ef3-6b66981d3b69"},"vehicle_type_id":"4","last_reported":1729307624,"current_range_meters":33600,"station_id":"ce4bgth2rcd13ifvqch0","pricing_plan_id":"cebpf4jnsgd1na2vs0mg"},{"bike_id":"54d48b81-1591-4196-8f81-497bfda51331","system_id":"levelo_inurba_marseille","lat":43.29258,"lon":5.4091,"is_reserved":false,"is_disabled":false,"rental_uris":{"android":"levelo://app?vid=54d48b81-1591-4196-8f81-497bfda51331","ios":"levelo://app?vid=54d48b81-1591-4196-8f81-497bfda51331"},"vehicle_type_id":"4","last_reported":1729307624,"current_range_meters":38800,"station_id":"ce4bh192rcd13ifvqdc0","pricing_plan_id":"cebpf4jnsgd1na2vs0mg"},{"bike_id":"586c3761-8b32-493f-b466-fecd8a579e02","system_id":"levelo_inurba_marseille","lat":43.30809,"lon":5.3815,"is_reserved":false,"is_disabled":false,"rental_uris":{"android":"levelo://app?vid=586c3761-8b32-493f-b466-fecd8a579e02","ios":"levelo://app?vid=586c3761-8b32-493f-b466-fecd8a579e02"},"vehicle_type_id":"4","last_reported":1729307624,"current_range_meters":21600,"station_id":"ce4bgt12rcd13ifvqce0","pricing_plan_id":"cebpf4jnsgd1na2vs0mg"},{"bike_id":"d4068582-21b6-44c6-9075-fbf9736b5674","system_id":"levelo_inurba_marseille","lat":43.28709,"lon":5.37383,"is_reserved":false,"is_disabled":false,"rental_uris":{"android":"levelo://app?vid=d4068582-21b6-44c6-9075-fbf9736b5674","ios":"levelo://app?vid=d4068582-21b6-44c6-9075-fbf9736b5674"},"vehicle_type_id":"4","last_reported":1729307624,"current_range_meters":38400,"station_id":"ce4bh3p2rcd13ifvqdq0","pricing_plan_id":"cebpf4jnsgd1na2vs0mg"},{"bike_id":"aac282ef-7d0d-4cf6-a738-a10a76319aa8","system_id":"levelo_inurba_marseille","lat":43.2509,"lon":5.39508,"is_reserved":false,"is_disabled":false,"rental_uris":{"android":"levelo://app?vid=aac282ef-7d0d-4cf6-a738-a10a76319aa8","ios":"levelo://app?vid=aac282ef-7d0d-4cf6-a738-a10a76319aa8"},"vehicle_type_id":"4","last_reported":1729307624,"current_range_meters":31200,"station_id":"ce4bhm12rcd13ifvqgkg","pricing_plan_id":"cebpf4jnsgd1na2vs0mg"},{"bike_id":"a0cb4fb3-e0ce-4e83-b306-1f074bb2598b","system_id":"levelo_inurba_marseille","lat":43.24077,"lon":5.37746,"is_reserved":false,"is_disabled":false,"rental_uris":{"android":"levelo://app?vid=a0cb4fb3-e0ce-4e83-b306-1f074bb2598b","ios":"levelo://app?vid=a0cb4fb3-e0ce-4e83-b306-1f074bb2598b"},"vehicle_type_id":"4","last_reported":1729307624,"current_range_meters":20400,"station_id":"ce4bhnp2rcd13ifvqgvg","pricing_plan_id":"cebpf4jnsgd1na2vs0mg"},{"bike_id":"30d1db0e-5168-47b3-88a3-3977dd5e4ed1","system_id":"levelo_inurba_marseille","lat":43.25115,"lon":5.40327,"is_reserved":false,"is_disabled":false,"rental_uris":{"android":"levelo://app?vid=30d1db0e-5168-47b3-88a3-3977dd5e4ed1","ios":"levelo://app?vid=30d1db0e-5168-47b3-88a3-3977dd5e4ed1"},"vehicle_type_id":"4","last_reported":1729307624,"current_range_meters":4400,"station_id":"ce4bhlh2rcd13ifvqgig","pricing_plan_id":"cebpf4jnsgd1na2vs0mg"},{"bike_id":"65a67f11-6e2e-4b06-8422-bf4f01279b58","system_id":"levelo_inurba_marseille","lat":43.32655,"lon":5.40992,"is_reserved":false,"is_disabled":false,"rental_uris":{"android":"levelo://app?vid=65a67f11-6e2e-4b06-8422-bf4f01279b58","ios":"levelo://app?vid=65a67f11-6e2e-4b06-8422-bf4f01279b58"},"vehicle_type_id":"4","last_reported":1729307624,"current_range_meters":38800,"station_id":"ce4bhpp2rcd13ifvqhgg","pricing_plan_id":"cebpf4jnsgd1na2vs0mg"},{"bike_id":"6a17560c-e982-4f70-afa6-b4ec03264eaa","system_id":"levelo_inurba_marseille","lat":43.28429,"lon":5.39181,"is_reserved":false,"is_disabled":false,"rental_uris":{"android":"levelo://app?vid=6a17560c-e982-4f70-afa6-b4ec03264eaa","ios":"levelo://app?vid=6a17560c-e982-4f70-afa6-b4ec03264eaa"},"vehicle_type_id":"4","last_reported":1729307624,"current_range_meters":40000,"station_id":"ce4bhoh2rcd13ifvqh5g","pricing_plan_id":"cebpf4jnsgd1na2vs0mg"},{"bike_id":"0f7a4bfe-534e-492b-af20-5af5bfaad3bc","system_id":"levelo_inurba_marseille","lat":43.31173,"lon":5.38717,"is_reserved":false,"is_disabled":false,"rental_uris":{"android":"levelo://app?vid=0f7a4bfe-534e-492b-af20-5af5bfaad3bc","ios":"levelo://app?vid=0f7a4bfe-534e-492b-af20-5af5bfaad3bc"},"vehicle_type_id":"4","last_reported":1729307624,"current_range_meters":24400,"station_id":"ce4bgv12rcd13ifvqcp0","pricing_plan_id":"cebpf4jnsgd1na2vs0mg"},{"bike_id":"d460f678-798f-4131-b9af-59a044783950","system_id":"levelo_inurba_marseille","lat":43.28435,"lon":5.39188,"is_reserved":false,"is_disabled":false,"rental_uris":{"android":"levelo://app?vid=d460f678-798f-4131-b9af-59a044783950","ios":"levelo://app?vid=d460f678-798f-4131-b9af-59a044783950"},"vehicle_type_id":"4","last_reported":1729307624,"current_range_meters":29600,"station_id":"ce4bhoh2rcd13ifvqh5g","pricing_plan_id":"cebpf4jnsgd1na2vs0mg"},{"bike_id":"3d7546d0-4dba-4212-88c9-dfe9a2032237","system_id":"levelo_inurba_marseille","lat":43.24165,"lon":5.36395,"is_reserved":false,"is_disabled":false,"rental_uris":{"android":"levelo://app?vid=3d7546d0-4dba-4212-88c9-dfe9a2032237","ios":"levelo://app?vid=3d7546d0-4dba-4212-88c9-dfe9a2032237"},"vehicle_type_id":"4","last_reported":1729307624,"current_range_meters":36000,"station_id":"cpo36qri1sfpv3e86is0","pricing_plan_id":"cebpf4jnsgd1na2vs0mg"},{"bike_id":"6c9b629f-479b-4863-8967-3a50e4f4a607","system_id":"levelo_inurba_marseille","lat":43.3117,"lon":5.38719,"is_reserved":false,"is_disabled":false,"rental_uris":{"android":"levelo://app?vid=6c9b629f-479b-4863-8967-3a50e4f4a607","ios":"levelo://app?vid=6c9b629f-479b-4863-8967-3a50e4f4a607"},"vehicle_type_id":"4","last_reported":1729307624,"current_range_meters":27600,"station_id":"ce4bgv12rcd13ifvqcp0","pricing_plan_id":"cebpf4jnsgd1na2vs0mg"},{"bike_id":"1fced045-2bcf-4102-8af5-79010acf1fb4","system_id":"levelo_inurba_marseille","lat":43.28706,"lon":5.39978,"is_reserved":false,"is_disabled":false,"rental_uris":{"android":"levelo://app?vid=1fced045-2bcf-4102-8af5-79010acf1fb4","ios":"levelo://app?vid=1fced045-2bcf-4102-8af5-79010acf1fb4"},"vehicle_type_id":"4","last_reported":1729307624,"current_range_meters":8400,"station_id":"ce4bho92rcd13ifvqh3g","pricing_plan_id":"cebpf4jnsgd1na2vs0mg"},{"bike_id":"1ddfad71-8e85-46b3-83a9-5930855c2591","system_id":"levelo_inurba_marseille","lat":43.26215,"lon":5.3744,"is_reserved":false,"is_disabled":false,"rental_uris":{"android":"levelo://app?vid=1ddfad71-8e85-46b3-83a9-5930855c2591","ios":"levelo://app?vid=1ddfad71-8e85-46b3-83a9-5930855c2591"},"vehicle_type_id":"4","last_reported":1729307624,"current_range_meters":19200,"station_id":"ce4bhgp2rcd13ifvqfc0","pricing_plan_id":"cebpf4jnsgd1na2vs0mg"},{"bike_id":"3b850a87-1d1d-4353-9089-e64aa78e9a1e","system_id":"levelo_inurba_marseille","lat":43.30464,"lon":5.37901,"is_reserved":false,"is_disabled":false,"rental_uris":{"android":"levelo://app?vid=3b850a87-1d1d-4353-9089-e64aa78e9a1e","ios":"levelo://app?vid=3b850a87-1d1d-4353-9089-e64aa78e9a1e"},"vehicle_type_id":"4","last_reported":1729307624,"current_range_meters":37600,"station_id":"ce4bgup2rcd13ifvqcn0","pricing_plan_id":"cebpf4jnsgd1na2vs0mg"},{"bike_id":"8b10c252-b32b-40ef-b8da-9d1c9158f577","system_id":"levelo_inurba_marseille","lat":43.26036,"lon":5.37545,"is_reserved":false,"is_disabled":false,"rental_uris":{"android":"levelo://app?vid=8b10c252-b32b-40ef-b8da-9d1c9158f577","ios":"levelo://app?vid=8b10c252-b32b-40ef-b8da-9d1c9158f577"},"vehicle_type_id":"4","last_reported":1729307624,"current_range_meters":39200,"station_id":"ce4bhgh2rcd13ifvqfa0","pricing_plan_id":"cebpf4jnsgd1na2vs0mg"},{"bike_id":"2e24b2f7-04d9-4aa5-a803-56fcc770dc64","system_id":"levelo_inurba_marseille","lat":43.31753,"lon":5.3813,"is_reserved":false,"is_disabled":false,"rental_uris":{"android":"levelo://app?vid=2e24b2f7-04d9-4aa5-a803-56fcc770dc64","ios":"levelo://app?vid=2e24b2f7-04d9-4aa5-a803-56fcc770dc64"},"vehicle_type_id":"4","last_reported":1729307624,"current_range_meters":28400,"station_id":"","pricing_plan_id":"cebpf4jnsgd1na2vs0mg"},{"bike_id":"ec4b27f4-1f33-4e93-ba08-7796dfb9a476","system_id":"levelo_inurba_marseille","lat":43.24807,"lon":5.37456,"is_reserved":false,"is_disabled":false,"rental_uris":{"android":"levelo://app?vid=ec4b27f4-1f33-4e93-ba08-7796dfb9a476","ios":"levelo://app?vid=ec4b27f4-1f33-4e93-ba08-7796dfb9a476"},"vehicle_type_id":"4","last_reported":1729307624,"current_range_meters":40000,"station_id":"ce4bhgh2rcd13ifvqfb0","pricing_plan_id":"cebpf4jnsgd1na2vs0mg"},{"bike_id":"90b7df2b-2805-4913-a745-07d80216980c","system_id":"levelo_inurba_marseille","lat":43.30806,"lon":5.43529,"is_reserved":false,"is_disabled":false,"rental_uris":{"android":"levelo://app?vid=90b7df2b-2805-4913-a745-07d80216980c","ios":"levelo://app?vid=90b7df2b-2805-4913-a745-07d80216980c"},"vehicle_type_id":"4","last_reported":1729307624,"current_range_meters":8800,"station_id":"ce4bhph2rcd13ifvqheg","pricing_plan_id":"cebpf4jnsgd1na2vs0mg"},{"bike_id":"32ce68a3-3fc7-4257-974f-ab657619c295","system_id":"levelo_inurba_marseille","lat":43.33751,"lon":5.37456,"is_reserved":false,"is_disabled":false,"rental_uris":{"android":"levelo://app?vid=32ce68a3-3fc7-4257-974f-ab657619c295","ios":"levelo://app?vid=32ce68a3-3fc7-4257-974f-ab657619c295"},"vehicle_type_id":"4","last_reported":1729307624,"current_range_meters":8000,"station_id":"","pricing_plan_id":"cebpf4jnsgd1na2vs0mg"},{"bike_id":"1f428da8-d1b3-40f1-b1b1-4e10de55465e","system_id":"levelo_inurba_marseille","lat":43.34146,"lon":5.4091,"is_reserved":false,"is_disabled":false,"rental_uris":{"android":"levelo://app?vid=1f428da8-d1b3-40f1-b1b1-4e10de55465e","ios":"levelo://app?vid=1f428da8-d1b3-40f1-b1b1-4e10de55465e"},"vehicle_type_id":"4","last_reported":1729307624,"current_range_meters":10000,"station_id":"","pricing_plan_id":"cebpf4jnsgd1na2vs0mg"},{"bike_id":"e5dab1ea-a810-41a0-a6cd-403085d8bf13","system_id":"levelo_inurba_marseille","lat":43.27368,"lon":5.36259,"is_reserved":false,"is_disabled":false,"rental_uris":{"android":"levelo://app?vid=e5dab1ea-a810-41a0-a6cd-403085d8bf13","ios":"levelo://app?vid=e5dab1ea-a810-41a0-a6cd-403085d8bf13"},"vehicle_type_id":"4","last_reported":1729307624,"current_range_meters":38400,"station_id":"ce4bhbh2rcd13ifvqeo0","pricing_plan_id":"cebpf4jnsgd1na2vs0mg"},{"bike_id":"6fa8926f-237e-48d9-9d80-3fc30425cc34","system_id":"levelo_inurba_marseille","lat":43.298026,"lon":5.376826,"is_reserved":false,"is_disabled":false,"rental_uris":{"android":"levelo://app?vid=6fa8926f-237e-48d9-9d80-3fc30425cc34","ios":"levelo://app?vid=6fa8926f-237e-48d9-9d80-3fc30425cc34"},"vehicle_type_id":"4","last_reported":1729307624,"current_range_meters":34800,"station_id":"ce4bgkh2rcd13ifvqbl0","pricing_plan_id":"cebpf4jnsgd1na2vs0mg"},{"bike_id":"24006af0-6d99-4618-900d-347dba8daf73","system_id":"levelo_inurba_marseille","lat":43.2994,"lon":5.36539,"is_reserved":false,"is_disabled":false,"rental_uris":{"android":"levelo://app?vid=24006af0-6d99-4618-900d-347dba8daf73","ios":"levelo://app?vid=24006af0-6d99-4618-900d-347dba8daf73"},"vehicle_type_id":"4","last_reported":1729307624,"current_range_meters":36000,"station_id":"ce4bgm92rcd13ifvqbr0","pricing_plan_id":"cebpf4jnsgd1na2vs0mg"},{"bike_id":"0731144f-d516-4e8c-bd4b-e4db30e19069","system_id":"levelo_inurba_marseille","lat":43.25089,"lon":5.39522,"is_reserved":false,"is_disabled":false,"rental_uris":{"android":"levelo://app?vid=0731144f-d516-4e8c-bd4b-e4db30e19069","ios":"levelo://app?vid=0731144f-d516-4e8c-bd4b-e4db30e19069"},"vehicle_type_id":"4","last_reported":1729307624,"current_range_meters":28400,"station_id":"ce4bhm12rcd13ifvqgkg","pricing_plan_id":"cebpf4jnsgd1na2vs0mg"},{"bike_id":"b64362e2-b043-4f67-8e42-f68524e828ed","system_id":"levelo_inurba_marseille","lat":43.2418,"lon":5.39721,"is_reserved":false,"is_disabled":false,"rental_uris":{"android":"levelo://app?vid=b64362e2-b043-4f67-8e42-f68524e828ed","ios":"levelo://app?vid=b64362e2-b043-4f67-8e42-f68524e828ed"},"vehicle_type_id":"4","last_reported":1729307624,"current_range_meters":22400,"station_id":"ce4bhn12rcd13ifvqgpg","pricing_plan_id":"cebpf4jnsgd1na2vs0mg"},{"bike_id":"9c4ce615-a0f2-4a80-9f5a-6c09c506e130","system_id":"levelo_inurba_marseille","lat":43.2407,"lon":5.37752,"is_reserved":false,"is_disabled":false,"rental_uris":{"android":"levelo://app?vid=9c4ce615-a0f2-4a80-9f5a-6c09c506e130","ios":"levelo://app?vid=9c4ce615-a0f2-4a80-9f5a-6c09c506e130"},"vehicle_type_id":"4","last_reported":1729307624,"current_range_meters":7200,"station_id":"ce4bhnp2rcd13ifvqgvg","pricing_plan_id":"cebpf4jnsgd1na2vs0mg"},{"bike_id":"cf061d41-a7d4-4425-846b-482b54ab40c9","system_id":"levelo_inurba_marseille","lat":43.306536,"lon":5.400926,"is_reserved":false,"is_disabled":false,"rental_uris":{"android":"levelo://app?vid=cf061d41-a7d4-4425-846b-482b54ab40c9","ios":"levelo://app?vid=cf061d41-a7d4-4425-846b-482b54ab40c9"},"vehicle_type_id":"4","last_reported":1729307624,"current_range_meters":39200,"station_id":"ce4bh112rcd13ifvqda0","pricing_plan_id":"cebpf4jnsgd1na2vs0mg"},{"bike_id":"a03ad401-b342-4ea6-b5f8-045dc51ff989","system_id":"levelo_inurba_marseille","lat":43.25869,"lon":5.399,"is_reserved":false,"is_disabled":false,"rental_uris":{"android":"levelo://app?vid=a03ad401-b342-4ea6-b5f8-045dc51ff989","ios":"levelo://app?vid=a03ad401-b342-4ea6-b5f8-045dc51ff989"},"vehicle_type_id":"4","last_reported":1729307624,"current_range_meters":22800,"station_id":"ce4bhl92rcd13ifvqghg","pricing_plan_id":"cebpf4jnsgd1na2vs0mg"},{"bike_id":"dfb160c5-111e-4fc3-88c2-fba8af64107f","system_id":"levelo_inurba_marseille","lat":43.32339,"lon":5.40624,"is_reserved":false,"is_disabled":false,"rental_uris":{"android":"levelo://app?vid=dfb160c5-111e-4fc3-88c2-fba8af64107f","ios":"levelo://app?vid=dfb160c5-111e-4fc3-88c2-fba8af64107f"},"vehicle_type_id":"4","last_reported":1729307624,"current_range_meters":38800,"station_id":"ce4bhq92rcd13ifvqhjg","pricing_plan_id":"cebpf4jnsgd1na2vs0mg"},{"bike_id":"9b3634d5-4e72-451e-8e6a-a08db11f6ba6","system_id":"levelo_inurba_marseille","lat":43.27058,"lon":5.40266,"is_reserved":false,"is_disabled":false,"rental_uris":{"android":"levelo://app?vid=9b3634d5-4e72-451e-8e6a-a08db11f6ba6","ios":"levelo://app?vid=9b3634d5-4e72-451e-8e6a-a08db11f6ba6"},"vehicle_type_id":"4","last_reported":1729307624,"current_range_meters":10000,"station_id":"ce4bhk92rcd13ifvqgc0","pricing_plan_id":"cebpf4jnsgd1na2vs0mg"},{"bike_id":"d17131ad-5754-45e1-99fb-1ebf68f852ae","system_id":"levelo_inurba_marseille","lat":43.27908,"lon":5.38016,"is_reserved":false,"is_disabled":false,"rental_uris":{"android":"levelo://app?vid=d17131ad-5754-45e1-99fb-1ebf68f852ae","ios":"levelo://app?vid=d17131ad-5754-45e1-99fb-1ebf68f852ae"},"vehicle_type_id":"4","last_reported":1729307624,"current_range_meters":33600,"station_id":"ce4bhf92rcd13ifvqf50","pricing_plan_id":"cebpf4jnsgd1na2vs0mg"},{"bike_id":"ddd62ba3-c050-46d2-a8ed-02c4b983589b","system_id":"levelo_inurba_marseille","lat":43.32482,"lon":5.36571,"is_reserved":false,"is_disabled":false,"rental_uris":{"android":"levelo://app?vid=ddd62ba3-c050-46d2-a8ed-02c4b983589b","ios":"levelo://app?vid=ddd62ba3-c050-46d2-a8ed-02c4b983589b"},"vehicle_type_id":"4","last_reported":1729307624,"current_range_meters":29600,"station_id":"ce4bhs12rcd13ifvqhvg","pricing_plan_id":"cebpf4jnsgd1na2vs0mg"},{"bike_id":"8c1ec6cb-2291-4814-837b-be8625c706f3","system_id":"levelo_inurba_marseille","lat":43.23203,"lon":5.35546,"is_reserved":false,"is_disabled":false,"rental_uris":{"android":"levelo://app?vid=8c1ec6cb-2291-4814-837b-be8625c706f3","ios":"levelo://app?vid=8c1ec6cb-2291-4814-837b-be8625c706f3"},"vehicle_type_id":"4","last_reported":1729307624,"current_range_meters":29600,"station_id":"ce4bhu92rcd13ifvqi70","pricing_plan_id":"cebpf4jnsgd1na2vs0mg"},{"bike_id":"24d51479-5034-4c6f-a657-09075865709c","system_id":"levelo_inurba_marseille","lat":43.31337,"lon":5.39699,"is_reserved":false,"is_disabled":false,"rental_uris":{"android":"levelo://app?vid=24d51479-5034-4c6f-a657-09075865709c","ios":"levelo://app?vid=24d51479-5034-4c6f-a657-09075865709c"},"vehicle_type_id":"4","last_reported":1729307624,"current_range_meters":40000,"station_id":"ce4bgvp2rcd13ifvqcu0","pricing_plan_id":"cebpf4jnsgd1na2vs0mg"},{"bike_id":"74046f04-796f-44fa-933a-59b975083b5b","system_id":"levelo_inurba_marseille","lat":43.29265,"lon":5.40122,"is_reserved":false,"is_disabled":false,"rental_uris":{"android":"levelo://app?vid=74046f04-796f-44fa-933a-59b975083b5b","ios":"levelo://app?vid=74046f04-796f-44fa-933a-59b975083b5b"},"vehicle_type_id":"4","last_reported":1729307624,"current_range_meters":38800,"station_id":"ce4bh312rcd13ifvqdk0","pricing_plan_id":"cebpf4jnsgd1na2vs0mg"},{"bike_id":"8429a31c-77f3-41b6-b710-38d8ca6d27dc","system_id":"levelo_inurba_marseille","lat":43.25082,"lon":5.39523,"is_reserved":false,"is_disabled":false,"rental_uris":{"android":"levelo://app?vid=8429a31c-77f3-41b6-b710-38d8ca6d27dc","ios":"levelo://app?vid=8429a31c-77f3-41b6-b710-38d8ca6d27dc"},"vehicle_type_id":"4","last_reported":1729307624,"current_range_meters":40000,"station_id":"ce4bhm12rcd13ifvqgkg","pricing_plan_id":"cebpf4jnsgd1na2vs0mg"},{"bike_id":"d83644d7-34fa-42f0-ad05-bc31d2cb6379","system_id":"levelo_inurba_marseille","lat":43.31497,"lon":5.37297,"is_reserved":false,"is_disabled":false,"rental_uris":{"android":"levelo://app?vid=d83644d7-34fa-42f0-ad05-bc31d2cb6379","ios":"levelo://app?vid=d83644d7-34fa-42f0-ad05-bc31d2cb6379"},"vehicle_type_id":"4","last_reported":1729307624,"current_range_meters":31200,"station_id":"ce4bgt12rcd13ifvqcd0","pricing_plan_id":"cebpf4jnsgd1na2vs0mg"},{"bike_id":"18361c49-bdac-4926-a222-92101c5ffc08","system_id":"levelo_inurba_marseille","lat":43.3248,"lon":5.36566,"is_reserved":false,"is_disabled":false,"rental_uris":{"android":"levelo://app?vid=18361c49-bdac-4926-a222-92101c5ffc08","ios":"levelo://app?vid=18361c49-bdac-4926-a222-92101c5ffc08"},"vehicle_type_id":"4","last_reported":1729307624,"current_range_meters":34800,"station_id":"ce4bhs12rcd13ifvqhvg","pricing_plan_id":"cebpf4jnsgd1na2vs0mg"},{"bike_id":"9f6f86b4-798e-4075-859a-e1e34f084eef","system_id":"levelo_inurba_marseille","lat":43.28464,"lon":5.35889,"is_reserved":false,"is_disabled":false,"rental_uris":{"android":"levelo://app?vid=9f6f86b4-798e-4075-859a-e1e34f084eef","ios":"levelo://app?vid=9f6f86b4-798e-4075-859a-e1e34f084eef"},"vehicle_type_id":"4","last_reported":1729307624,"current_range_meters":15200,"station_id":"ce4bhah2rcd13ifvqei0","pricing_plan_id":"cebpf4jnsgd1na2vs0mg"},{"bike_id":"8e9c6055-8067-43c8-b7e5-0ce9b2b9299f","system_id":"levelo_inurba_marseille","lat":43.28072,"lon":5.3964,"is_reserved":false,"is_disabled":false,"rental_uris":{"android":"levelo://app?vid=8e9c6055-8067-43c8-b7e5-0ce9b2b9299f","ios":"levelo://app?vid=8e9c6055-8067-43c8-b7e5-0ce9b2b9299f"},"vehicle_type_id":"4","last_reported":1729307624,"current_range_meters":40000,"station_id":"ce4bho12rcd13ifvqh2g","pricing_plan_id":"cebpf4jnsgd1na2vs0mg"},{"bike_id":"cfe78fd2-5ebc-40fb-858b-89aa9fc29771","system_id":"levelo_inurba_marseille","lat":43.2941,"lon":5.37799,"is_reserved":false,"is_disabled":false,"rental_uris":{"android":"levelo://app?vid=cfe78fd2-5ebc-40fb-858b-89aa9fc29771","ios":"levelo://app?vid=cfe78fd2-5ebc-40fb-858b-89aa9fc29771"},"vehicle_type_id":"4","last_reported":1729307624,"current_range_meters":22800,"station_id":"","pricing_plan_id":"cebpf4jnsgd1na2vs0mg"},{"bike_id":"dd2b4f0c-6344-4a16-bdd5-9a39e0be809c","system_id":"levelo_inurba_marseille","lat":43.27993,"lon":5.41659,"is_reserved":false,"is_disabled":false,"rental_uris":{"android":"levelo://app?vid=dd2b4f0c-6344-4a16-bdd5-9a39e0be809c","ios":"levelo://app?vid=dd2b4f0c-6344-4a16-bdd5-9a39e0be809c"},"vehicle_type_id":"4","last_reported":1729307624,"current_range_meters":36400,"station_id":"ce4bho12rcd13ifvqh1g","pricing_plan_id":"cebpf4jnsgd1na2vs0mg"},{"bike_id":"c28dcc41-e290-4ac5-920f-78c8b4b9a18e","system_id":"levelo_inurba_marseille","lat":43.27612,"lon":5.36108,"is_reserved":false,"is_disabled":false,"rental_uris":{"android":"levelo://app?vid=c28dcc41-e290-4ac5-920f-78c8b4b9a18e","ios":"levelo://app?vid=c28dcc41-e290-4ac5-920f-78c8b4b9a18e"},"vehicle_type_id":"4","last_reported":1729307624,"current_range_meters":34000,"station_id":"ce4bgj92rcd13ifvqbe0","pricing_plan_id":"cebpf4jnsgd1na2vs0mg"},{"bike_id":"4ce82a4a-83c0-4545-b012-7447fd0c0c13","system_id":"levelo_inurba_marseille","lat":43.23186,"lon":5.39985,"is_reserved":false,"is_disabled":false,"rental_uris":{"android":"levelo://app?vid=4ce82a4a-83c0-4545-b012-7447fd0c0c13","ios":"levelo://app?vid=4ce82a4a-83c0-4545-b012-7447fd0c0c13"},"vehicle_type_id":"4","last_reported":1729307624,"current_range_meters":34800,"station_id":"ce4bhn12rcd13ifvqgqg","pricing_plan_id":"cebpf4jnsgd1na2vs0mg"},{"bike_id":"d9384299-89f4-4a8e-80cc-9de225b16f8d","system_id":"levelo_inurba_marseille","lat":43.28704,"lon":5.39977,"is_reserved":false,"is_disabled":false,"rental_uris":{"android":"levelo://app?vid=d9384299-89f4-4a8e-80cc-9de225b16f8d","ios":"levelo://app?vid=d9384299-89f4-4a8e-80cc-9de225b16f8d"},"vehicle_type_id":"4","last_reported":1729307624,"current_range_meters":30800,"station_id":"ce4bho92rcd13ifvqh3g","pricing_plan_id":"cebpf4jnsgd1na2vs0mg"},{"bike_id":"38d67d90-2d95-4f6e-9a9f-a5ffab1fba2c","system_id":"levelo_inurba_marseille","lat":43.29901,"lon":5.43669,"is_reserved":false,"is_disabled":false,"rental_uris":{"android":"levelo://app?vid=38d67d90-2d95-4f6e-9a9f-a5ffab1fba2c","ios":"levelo://app?vid=38d67d90-2d95-4f6e-9a9f-a5ffab1fba2c"},"vehicle_type_id":"4","last_reported":1729307624,"current_range_meters":24400,"station_id":"ce4bhpp2rcd13ifvqhfg","pricing_plan_id":"cebpf4jnsgd1na2vs0mg"},{"bike_id":"c3e96844-a086-4aa5-9bfc-7d20b2956570","system_id":"levelo_inurba_marseille","lat":43.308835,"lon":5.39643,"is_reserved":false,"is_disabled":false,"rental_uris":{"android":"levelo://app?vid=c3e96844-a086-4aa5-9bfc-7d20b2956570","ios":"levelo://app?vid=c3e96844-a086-4aa5-9bfc-7d20b2956570"},"vehicle_type_id":"4","last_reported":1729307624,"current_range_meters":29600,"station_id":"ce4bh012rcd13ifvqcv0","pricing_plan_id":"cebpf4jnsgd1na2vs0mg"},{"bike_id":"fd772f6d-f0c8-4d64-973c-7125d611e024","system_id":"levelo_inurba_marseille","lat":43.28349,"lon":5.3811,"is_reserved":false,"is_disabled":false,"rental_uris":{"android":"levelo://app?vid=fd772f6d-f0c8-4d64-973c-7125d611e024","ios":"levelo://app?vid=fd772f6d-f0c8-4d64-973c-7125d611e024"},"vehicle_type_id":"4","last_reported":1729307624,"current_range_meters":38800,"station_id":"ce4bh412rcd13ifvqdr0","pricing_plan_id":"cebpf4jnsgd1na2vs0mg"},{"bike_id":"7c0319e6-ac57-4bdf-b077-513d80357757","system_id":"levelo_inurba_marseille","lat":43.28863,"lon":5.35853,"is_reserved":false,"is_disabled":false,"rental_uris":{"android":"levelo://app?vid=7c0319e6-ac57-4bdf-b077-513d80357757","ios":"levelo://app?vid=7c0319e6-ac57-4bdf-b077-513d80357757"},"vehicle_type_id":"4","last_reported":1729307624,"current_range_meters":38800,"station_id":"ce4bhb12rcd13ifvqem0","pricing_plan_id":"cebpf4jnsgd1na2vs0mg"},{"bike_id":"7bc23e55-0cb5-4e2e-8439-3972f0a178dc","system_id":"levelo_inurba_marseille","lat":43.32364,"lon":5.38882,"is_reserved":false,"is_disabled":false,"rental_uris":{"android":"levelo://app?vid=7bc23e55-0cb5-4e2e-8439-3972f0a178dc","ios":"levelo://app?vid=7bc23e55-0cb5-4e2e-8439-3972f0a178dc"},"vehicle_type_id":"4","last_reported":1729307624,"current_range_meters":12000,"station_id":"ce4bhqp2rcd13ifvqhog","pricing_plan_id":"cebpf4jnsgd1na2vs0mg"},{"bike_id":"d8b6aae6-0385-4b47-8ef5-41883b3602da","system_id":"levelo_inurba_marseille","lat":43.27379,"lon":5.36253,"is_reserved":false,"is_disabled":false,"rental_uris":{"android":"levelo://app?vid=d8b6aae6-0385-4b47-8ef5-41883b3602da","ios":"levelo://app?vid=d8b6aae6-0385-4b47-8ef5-41883b3602da"},"vehicle_type_id":"4","last_reported":1729307624,"current_range_meters":24400,"station_id":"ce4bhbh2rcd13ifvqeo0","pricing_plan_id":"cebpf4jnsgd1na2vs0mg"},{"bike_id":"8b33911e-5d42-46bd-b00d-c1d5ce72f577","system_id":"levelo_inurba_marseille","lat":43.23185,"lon":5.39983,"is_reserved":false,"is_disabled":false,"rental_uris":{"android":"levelo://app?vid=8b33911e-5d42-46bd-b00d-c1d5ce72f577","ios":"levelo://app?vid=8b33911e-5d42-46bd-b00d-c1d5ce72f577"},"vehicle_type_id":"4","last_reported":1729307624,"current_range_meters":38800,"station_id":"ce4bhn12rcd13ifvqgqg","pricing_plan_id":"cebpf4jnsgd1na2vs0mg"},{"bike_id":"296ffdda-7909-4ac7-a901-f96d7dc1d70e","system_id":"levelo_inurba_marseille","lat":43.308899,"lon":5.396439,"is_reserved":false,"is_disabled":false,"rental_uris":{"android":"levelo://app?vid=296ffdda-7909-4ac7-a901-f96d7dc1d70e","ios":"levelo://app?vid=296ffdda-7909-4ac7-a901-f96d7dc1d70e"},"vehicle_type_id":"4","last_reported":1729307624,"current_range_meters":24400,"station_id":"ce4bh012rcd13ifvqcv0","pricing_plan_id":"cebpf4jnsgd1na2vs0mg"},{"bike_id":"f5390347-4979-4481-8f4f-864601bda794","system_id":"levelo_inurba_marseille","lat":43.2757,"lon":5.38419,"is_reserved":false,"is_disabled":false,"rental_uris":{"android":"levelo://app?vid=f5390347-4979-4481-8f4f-864601bda794","ios":"levelo://app?vid=f5390347-4979-4481-8f4f-864601bda794"},"vehicle_type_id":"4","last_reported":1729307624,"current_range_meters":36400,"station_id":"ce4bhh92rcd13ifvqfi0","pricing_plan_id":"cebpf4jnsgd1na2vs0mg"},{"bike_id":"530b3e6a-6ea3-4d2b-a2e5-ee614161872a","system_id":"levelo_inurba_marseille","lat":43.28698,"lon":5.39982,"is_reserved":false,"is_disabled":false,"rental_uris":{"android":"levelo://app?vid=530b3e6a-6ea3-4d2b-a2e5-ee614161872a","ios":"levelo://app?vid=530b3e6a-6ea3-4d2b-a2e5-ee614161872a"},"vehicle_type_id":"4","last_reported":1729307624,"current_range_meters":30000,"station_id":"ce4bho92rcd13ifvqh3g","pricing_plan_id":"cebpf4jnsgd1na2vs0mg"},{"bike_id":"0994d7f0-fa2e-480f-b967-2b1e1b476b78","system_id":"levelo_inurba_marseille","lat":43.23187,"lon":5.3555,"is_reserved":false,"is_disabled":false,"rental_uris":{"android":"levelo://app?vid=0994d7f0-fa2e-480f-b967-2b1e1b476b78","ios":"levelo://app?vid=0994d7f0-fa2e-480f-b967-2b1e1b476b78"},"vehicle_type_id":"4","last_reported":1729307624,"current_range_meters":5600,"station_id":"ce4bhu92rcd13ifvqi70","pricing_plan_id":"cebpf4jnsgd1na2vs0mg"},{"bike_id":"e6789174-ca29-4f3e-b4c1-26a6f6f7478b","system_id":"levelo_inurba_marseille","lat":43.2572,"lon":5.41114,"is_reserved":false,"is_disabled":false,"rental_uris":{"android":"levelo://app?vid=e6789174-ca29-4f3e-b4c1-26a6f6f7478b","ios":"levelo://app?vid=e6789174-ca29-4f3e-b4c1-26a6f6f7478b"},"vehicle_type_id":"4","last_reported":1729307624,"current_range_meters":40000,"station_id":"ce4bhkp2rcd13ifvqgd0","pricing_plan_id":"cebpf4jnsgd1na2vs0mg"},{"bike_id":"41352ecd-ccf7-4501-b52c-c09f6f495c10","system_id":"levelo_inurba_marseille","lat":43.27176,"lon":5.40983,"is_reserved":false,"is_disabled":false,"rental_uris":{"android":"levelo://app?vid=41352ecd-ccf7-4501-b52c-c09f6f495c10","ios":"levelo://app?vid=41352ecd-ccf7-4501-b52c-c09f6f495c10"},"vehicle_type_id":"4","last_reported":1729307624,"current_range_meters":39200,"station_id":"ce4bhl12rcd13ifvqgf0","pricing_plan_id":"cebpf4jnsgd1na2vs0mg"},{"bike_id":"78e9b825-7485-4c0b-9a07-fd02679da1eb","system_id":"levelo_inurba_marseille","lat":43.27616,"lon":5.36111,"is_reserved":false,"is_disabled":false,"rental_uris":{"android":"levelo://app?vid=78e9b825-7485-4c0b-9a07-fd02679da1eb","ios":"levelo://app?vid=78e9b825-7485-4c0b-9a07-fd02679da1eb"},"vehicle_type_id":"4","last_reported":1729307624,"current_range_meters":38000,"station_id":"ce4bgj92rcd13ifvqbe0","pricing_plan_id":"cebpf4jnsgd1na2vs0mg"},{"bike_id":"66ccc46d-618e-4760-b09c-27382152bdab","system_id":"levelo_inurba_marseille","lat":43.23193,"lon":5.35547,"is_reserved":false,"is_disabled":false,"rental_uris":{"android":"levelo://app?vid=66ccc46d-618e-4760-b09c-27382152bdab","ios":"levelo://app?vid=66ccc46d-618e-4760-b09c-27382152bdab"},"vehicle_type_id":"4","last_reported":1729307624,"current_range_meters":25600,"station_id":"ce4bhu92rcd13ifvqi70","pricing_plan_id":"cebpf4jnsgd1na2vs0mg"},{"bike_id":"47b0677d-f1ea-44b9-ad27-95f55e4f3816","system_id":"levelo_inurba_marseille","lat":43.23965,"lon":5.36619,"is_reserved":false,"is_disabled":false,"rental_uris":{"android":"levelo://app?vid=47b0677d-f1ea-44b9-ad27-95f55e4f3816","ios":"levelo://app?vid=47b0677d-f1ea-44b9-ad27-95f55e4f3816"},"vehicle_type_id":"4","last_reported":1729307624,"current_range_meters":38000,"station_id":"ce4bhi12rcd13ifvqfp0","pricing_plan_id":"cebpf4jnsgd1na2vs0mg"},{"bike_id":"1860d57b-1c18-4f47-82b0-bfd50055f289","system_id":"levelo_inurba_marseille","lat":43.31127,"lon":5.37766,"is_reserved":false,"is_disabled":false,"rental_uris":{"android":"levelo://app?vid=1860d57b-1c18-4f47-82b0-bfd50055f289","ios":"levelo://app?vid=1860d57b-1c18-4f47-82b0-bfd50055f289"},"vehicle_type_id":"4","last_reported":1729307624,"current_range_meters":32400,"station_id":"ce4bgt92rcd13ifvqcg0","pricing_plan_id":"cebpf4jnsgd1na2vs0mg"},{"bike_id":"cef018dd-bd38-4d1c-a68f-1ff97d712d7d","system_id":"levelo_inurba_marseille","lat":43.30324,"lon":5.40437,"is_reserved":false,"is_disabled":false,"rental_uris":{"android":"levelo://app?vid=cef018dd-bd38-4d1c-a68f-1ff97d712d7d","ios":"levelo://app?vid=cef018dd-bd38-4d1c-a68f-1ff97d712d7d"},"vehicle_type_id":"4","last_reported":1729307624,"current_range_meters":34000,"station_id":"ce4bh012rcd13ifvqd10","pricing_plan_id":"cebpf4jnsgd1na2vs0mg"},{"bike_id":"4e1deea3-41e2-46a7-8ecd-5cb596af9c5f","system_id":"levelo_inurba_marseille","lat":43.30423,"lon":5.41293,"is_reserved":false,"is_disabled":false,"rental_uris":{"android":"levelo://app?vid=4e1deea3-41e2-46a7-8ecd-5cb596af9c5f","ios":"levelo://app?vid=4e1deea3-41e2-46a7-8ecd-5cb596af9c5f"},"vehicle_type_id":"4","last_reported":1729307624,"current_range_meters":40000,"station_id":"ce4bhop2rcd13ifvqh8g","pricing_plan_id":"cebpf4jnsgd1na2vs0mg"},{"bike_id":"87b27491-5215-4140-9db2-06195f6f5368","system_id":"levelo_inurba_marseille","lat":43.28457,"lon":5.35894,"is_reserved":false,"is_disabled":false,"rental_uris":{"android":"levelo://app?vid=87b27491-5215-4140-9db2-06195f6f5368","ios":"levelo://app?vid=87b27491-5215-4140-9db2-06195f6f5368"},"vehicle_type_id":"4","last_reported":1729307624,"current_range_meters":38800,"station_id":"ce4bhah2rcd13ifvqei0","pricing_plan_id":"cebpf4jnsgd1na2vs0mg"},{"bike_id":"419a9d7d-2a1b-40b7-a37f-e4605d93d1f7","system_id":"levelo_inurba_marseille","lat":43.2319,"lon":5.39989,"is_reserved":false,"is_disabled":false,"rental_uris":{"android":"levelo://app?vid=419a9d7d-2a1b-40b7-a37f-e4605d93d1f7","ios":"levelo://app?vid=419a9d7d-2a1b-40b7-a37f-e4605d93d1f7"},"vehicle_type_id":"4","last_reported":1729307624,"current_range_meters":38000,"station_id":"ce4bhn12rcd13ifvqgqg","pricing_plan_id":"cebpf4jnsgd1na2vs0mg"},{"bike_id":"fbcdd40a-223e-4740-bca1-d5de715a7938","system_id":"levelo_inurba_marseille","lat":43.26196,"lon":5.37449,"is_reserved":false,"is_disabled":false,"rental_uris":{"android":"levelo://app?vid=fbcdd40a-223e-4740-bca1-d5de715a7938","ios":"levelo://app?vid=fbcdd40a-223e-4740-bca1-d5de715a7938"},"vehicle_type_id":"4","last_reported":1729307624,"current_range_meters":29600,"station_id":"ce4bhgp2rcd13ifvqfc0","pricing_plan_id":"cebpf4jnsgd1na2vs0mg"},{"bike_id":"89468fa1-c2b2-468b-96f1-dbbebe9ba41b","system_id":"levelo_inurba_marseille","lat":43.30538,"lon":5.36703,"is_reserved":false,"is_disabled":false,"rental_uris":{"android":"levelo://app?vid=89468fa1-c2b2-468b-96f1-dbbebe9ba41b","ios":"levelo://app?vid=89468fa1-c2b2-468b-96f1-dbbebe9ba41b"},"vehicle_type_id":"4","last_reported":1729307624,"current_range_meters":37600,"station_id":"ce4bgrp2rcd13ifvqc9g","pricing_plan_id":"cebpf4jnsgd1na2vs0mg"},{"bike_id":"802c3928-97cc-44c8-a177-8b622a90a969","system_id":"levelo_inurba_marseille","lat":43.23197,"lon":5.39977,"is_reserved":false,"is_disabled":false,"rental_uris":{"android":"levelo://app?vid=802c3928-97cc-44c8-a177-8b622a90a969","ios":"levelo://app?vid=802c3928-97cc-44c8-a177-8b622a90a969"},"vehicle_type_id":"4","last_reported":1729307624,"current_range_meters":4000,"station_id":"ce4bhn12rcd13ifvqgqg","pricing_plan_id":"cebpf4jnsgd1na2vs0mg"},{"bike_id":"2416bf3c-f3b1-4a53-b130-133f9ffa03f1","system_id":"levelo_inurba_marseille","lat":43.33608,"lon":5.41022,"is_reserved":false,"is_disabled":false,"rental_uris":{"android":"levelo://app?vid=2416bf3c-f3b1-4a53-b130-133f9ffa03f1","ios":"levelo://app?vid=2416bf3c-f3b1-4a53-b130-133f9ffa03f1"},"vehicle_type_id":"4","last_reported":1729307624,"current_range_meters":40000,"station_id":"ce4bhqh2rcd13ifvqhmg","pricing_plan_id":"cebpf4jnsgd1na2vs0mg"},{"bike_id":"907d90e2-7e08-4846-bbc2-01977b54a9bd","system_id":"levelo_inurba_marseille","lat":43.24165,"lon":5.36395,"is_reserved":false,"is_disabled":false,"rental_uris":{"android":"levelo://app?vid=907d90e2-7e08-4846-bbc2-01977b54a9bd","ios":"levelo://app?vid=907d90e2-7e08-4846-bbc2-01977b54a9bd"},"vehicle_type_id":"4","last_reported":1729307624,"current_range_meters":14400,"station_id":"cpo36qri1sfpv3e86is0","pricing_plan_id":"cebpf4jnsgd1na2vs0mg"},{"bike_id":"48836f4d-12e6-41c1-a5c7-c5ab40f084cd","system_id":"levelo_inurba_marseille","lat":43.25582,"lon":5.38241,"is_reserved":false,"is_disabled":false,"rental_uris":{"android":"levelo://app?vid=48836f4d-12e6-41c1-a5c7-c5ab40f084cd","ios":"levelo://app?vid=48836f4d-12e6-41c1-a5c7-c5ab40f084cd"},"vehicle_type_id":"4","last_reported":1729307624,"current_range_meters":39200,"station_id":"ce4bhih2rcd13ifvqfs0","pricing_plan_id":"cebpf4jnsgd1na2vs0mg"},{"bike_id":"eb6d1ebd-084f-4340-b44b-2c28d5719fea","system_id":"levelo_inurba_marseille","lat":43.32341,"lon":5.40615,"is_reserved":false,"is_disabled":false,"rental_uris":{"android":"levelo://app?vid=eb6d1ebd-084f-4340-b44b-2c28d5719fea","ios":"levelo://app?vid=eb6d1ebd-084f-4340-b44b-2c28d5719fea"},"vehicle_type_id":"4","last_reported":1729307624,"current_range_meters":16000,"station_id":"ce4bhq92rcd13ifvqhjg","pricing_plan_id":"cebpf4jnsgd1na2vs0mg"},{"bike_id":"98cad050-14af-4056-a7e8-4f4e519efd8d","system_id":"levelo_inurba_marseille","lat":43.284619,"lon":5.358867,"is_reserved":false,"is_disabled":false,"rental_uris":{"android":"levelo://app?vid=98cad050-14af-4056-a7e8-4f4e519efd8d","ios":"levelo://app?vid=98cad050-14af-4056-a7e8-4f4e519efd8d"},"vehicle_type_id":"4","last_reported":1729307624,"current_range_meters":12400,"station_id":"ce4bhah2rcd13ifvqei0","pricing_plan_id":"cebpf4jnsgd1na2vs0mg"},{"bike_id":"f8b7bc80-3175-48ed-998b-b93301eb09d5","system_id":"levelo_inurba_marseille","lat":43.30802,"lon":5.38156,"is_reserved":false,"is_disabled":false,"rental_uris":{"android":"levelo://app?vid=f8b7bc80-3175-48ed-998b-b93301eb09d5","ios":"levelo://app?vid=f8b7bc80-3175-48ed-998b-b93301eb09d5"},"vehicle_type_id":"4","last_reported":1729307624,"current_range_meters":28400,"station_id":"ce4bgt12rcd13ifvqce0","pricing_plan_id":"cebpf4jnsgd1na2vs0mg"},{"bike_id":"7a2bb7f2-3789-46f5-9d33-46e12d7b9996","system_id":"levelo_inurba_marseille","lat":43.30535,"lon":5.36539,"is_reserved":false,"is_disabled":false,"rental_uris":{"android":"levelo://app?vid=7a2bb7f2-3789-46f5-9d33-46e12d7b9996","ios":"levelo://app?vid=7a2bb7f2-3789-46f5-9d33-46e12d7b9996"},"vehicle_type_id":"4","last_reported":1729307624,"current_range_meters":25600,"station_id":"ce4bgs12rcd13ifvqcag","pricing_plan_id":"cebpf4jnsgd1na2vs0mg"},{"bike_id":"ed913017-0c45-4c1c-b4ff-feacb7ef44ac","system_id":"levelo_inurba_marseille","lat":43.31327,"lon":5.39692,"is_reserved":false,"is_disabled":false,"rental_uris":{"android":"levelo://app?vid=ed913017-0c45-4c1c-b4ff-feacb7ef44ac","ios":"levelo://app?vid=ed913017-0c45-4c1c-b4ff-feacb7ef44ac"},"vehicle_type_id":"4","last_reported":1729307624,"current_range_meters":40000,"station_id":"ce4bgvp2rcd13ifvqcu0","pricing_plan_id":"cebpf4jnsgd1na2vs0mg"},{"bike_id":"1cabbdc9-dc41-45af-857a-2dd3849f5472","system_id":"levelo_inurba_marseille","lat":43.25504,"lon":5.37656,"is_reserved":false,"is_disabled":false,"rental_uris":{"android":"levelo://app?vid=1cabbdc9-dc41-45af-857a-2dd3849f5472","ios":"levelo://app?vid=1cabbdc9-dc41-45af-857a-2dd3849f5472"},"vehicle_type_id":"4","last_reported":1729307624,"current_range_meters":39200,"station_id":"ce4bhh12rcd13ifvqff0","pricing_plan_id":"cebpf4jnsgd1na2vs0mg"},{"bike_id":"30b33eb0-74bb-4628-9ed5-599c2ab46a26","system_id":"levelo_inurba_marseille","lat":43.254929,"lon":5.376496,"is_reserved":false,"is_disabled":false,"rental_uris":{"android":"levelo://app?vid=30b33eb0-74bb-4628-9ed5-599c2ab46a26","ios":"levelo://app?vid=30b33eb0-74bb-4628-9ed5-599c2ab46a26"},"vehicle_type_id":"4","last_reported":1729307624,"current_range_meters":20000,"station_id":"ce4bhh12rcd13ifvqff0","pricing_plan_id":"cebpf4jnsgd1na2vs0mg"},{"bike_id":"2c9239f6-536e-46f1-91f2-9cd7a2645cd3","system_id":"levelo_inurba_marseille","lat":43.31275,"lon":5.40173,"is_reserved":false,"is_disabled":false,"rental_uris":{"android":"levelo://app?vid=2c9239f6-536e-46f1-91f2-9cd7a2645cd3","ios":"levelo://app?vid=2c9239f6-536e-46f1-91f2-9cd7a2645cd3"},"vehicle_type_id":"4","last_reported":1729307624,"current_range_meters":39200,"station_id":"ce4bh092rcd13ifvqd30","pricing_plan_id":"cebpf4jnsgd1na2vs0mg"},{"bike_id":"9b697ce4-04b2-4aeb-ad1d-d9c602b75937","system_id":"levelo_inurba_marseille","lat":43.317009,"lon":5.377472,"is_reserved":false,"is_disabled":false,"rental_uris":{"android":"levelo://app?vid=9b697ce4-04b2-4aeb-ad1d-d9c602b75937","ios":"levelo://app?vid=9b697ce4-04b2-4aeb-ad1d-d9c602b75937"},"vehicle_type_id":"4","last_reported":1729307624,"current_range_meters":39200,"station_id":"ce4bgth2rcd13ifvqch0","pricing_plan_id":"cebpf4jnsgd1na2vs0mg"},{"bike_id":"94dad7f8-6585-4b37-b691-74420d23ef13","system_id":"levelo_inurba_marseille","lat":43.30801,"lon":5.43525,"is_reserved":false,"is_disabled":false,"rental_uris":{"android":"levelo://app?vid=94dad7f8-6585-4b37-b691-74420d23ef13","ios":"levelo://app?vid=94dad7f8-6585-4b37-b691-74420d23ef13"},"vehicle_type_id":"4","last_reported":1729307624,"current_range_meters":33200,"station_id":"ce4bhph2rcd13ifvqheg","pricing_plan_id":"cebpf4jnsgd1na2vs0mg"},{"bike_id":"4220bd28-8637-4fab-b51a-804b2c018ca1","system_id":"levelo_inurba_marseille","lat":43.26784,"lon":5.39416,"is_reserved":false,"is_disabled":false,"rental_uris":{"android":"levelo://app?vid=4220bd28-8637-4fab-b51a-804b2c018ca1","ios":"levelo://app?vid=4220bd28-8637-4fab-b51a-804b2c018ca1"},"vehicle_type_id":"4","last_reported":1729307624,"current_range_meters":30800,"station_id":"ce4bhh12rcd13ifvqfg0","pricing_plan_id":"cebpf4jnsgd1na2vs0mg"},{"bike_id":"4562e9bb-7c1e-4e0e-95e1-858d0f8d86d1","system_id":"levelo_inurba_marseille","lat":43.23192,"lon":5.35555,"is_reserved":false,"is_disabled":false,"rental_uris":{"android":"levelo://app?vid=4562e9bb-7c1e-4e0e-95e1-858d0f8d86d1","ios":"levelo://app?vid=4562e9bb-7c1e-4e0e-95e1-858d0f8d86d1"},"vehicle_type_id":"4","last_reported":1729307624,"current_range_meters":28800,"station_id":"ce4bhu92rcd13ifvqi70","pricing_plan_id":"cebpf4jnsgd1na2vs0mg"},{"bike_id":"251d1e7f-8f9a-4fc2-9c26-e8756ab4b7e9","system_id":"levelo_inurba_marseille","lat":43.30807,"lon":5.38154,"is_reserved":false,"is_disabled":false,"rental_uris":{"android":"levelo://app?vid=251d1e7f-8f9a-4fc2-9c26-e8756ab4b7e9","ios":"levelo://app?vid=251d1e7f-8f9a-4fc2-9c26-e8756ab4b7e9"},"vehicle_type_id":"4","last_reported":1729307624,"current_range_meters":16400,"station_id":"ce4bgt12rcd13ifvqce0","pricing_plan_id":"cebpf4jnsgd1na2vs0mg"},{"bike_id":"dd9307fb-a903-4696-857c-e556a5e3b34e","system_id":"levelo_inurba_marseille","lat":43.24538,"lon":5.39518,"is_reserved":false,"is_disabled":false,"rental_uris":{"android":"levelo://app?vid=dd9307fb-a903-4696-857c-e556a5e3b34e","ios":"levelo://app?vid=dd9307fb-a903-4696-857c-e556a5e3b34e"},"vehicle_type_id":"4","last_reported":1729307624,"current_range_meters":38800,"station_id":"ce4bhlp2rcd13ifvqgjg","pricing_plan_id":"cebpf4jnsgd1na2vs0mg"},{"bike_id":"2140b6a3-5118-4150-823e-9225aeb56201","system_id":"levelo_inurba_marseille","lat":43.23195,"lon":5.35548,"is_reserved":false,"is_disabled":false,"rental_uris":{"android":"levelo://app?vid=2140b6a3-5118-4150-823e-9225aeb56201","ios":"levelo://app?vid=2140b6a3-5118-4150-823e-9225aeb56201"},"vehicle_type_id":"4","last_reported":1729307624,"current_range_meters":29600,"station_id":"ce4bhu92rcd13ifvqi70","pricing_plan_id":"cebpf4jnsgd1na2vs0mg"},{"bike_id":"8e9b33fe-7aab-4b00-8c78-4b60494c42f4","system_id":"levelo_inurba_marseille","lat":43.30232,"lon":5.40062,"is_reserved":false,"is_disabled":false,"rental_uris":{"android":"levelo://app?vid=8e9b33fe-7aab-4b00-8c78-4b60494c42f4","ios":"levelo://app?vid=8e9b33fe-7aab-4b00-8c78-4b60494c42f4"},"vehicle_type_id":"4","last_reported":1729307624,"current_range_meters":37600,"station_id":"ce4bgvh2rcd13ifvqcs0","pricing_plan_id":"cebpf4jnsgd1na2vs0mg"},{"bike_id":"e26e90c1-5cac-408e-9a41-0f25402b2953","system_id":"levelo_inurba_marseille","lat":43.29257,"lon":5.4091,"is_reserved":false,"is_disabled":false,"rental_uris":{"android":"levelo://app?vid=e26e90c1-5cac-408e-9a41-0f25402b2953","ios":"levelo://app?vid=e26e90c1-5cac-408e-9a41-0f25402b2953"},"vehicle_type_id":"4","last_reported":1729307624,"current_range_meters":38800,"station_id":"ce4bh192rcd13ifvqdc0","pricing_plan_id":"cebpf4jnsgd1na2vs0mg"},{"bike_id":"f2522823-27ea-43cf-8234-ee5a9dcca0a3","system_id":"levelo_inurba_marseille","lat":43.32359,"lon":5.38876,"is_reserved":false,"is_disabled":false,"rental_uris":{"android":"levelo://app?vid=f2522823-27ea-43cf-8234-ee5a9dcca0a3","ios":"levelo://app?vid=f2522823-27ea-43cf-8234-ee5a9dcca0a3"},"vehicle_type_id":"4","last_reported":1729307624,"current_range_meters":29600,"station_id":"ce4bhqp2rcd13ifvqhog","pricing_plan_id":"cebpf4jnsgd1na2vs0mg"},{"bike_id":"7432de2d-1f24-4882-a60a-5b80baf9818f","system_id":"levelo_inurba_marseille","lat":43.30419,"lon":5.4129,"is_reserved":false,"is_disabled":false,"rental_uris":{"android":"levelo://app?vid=7432de2d-1f24-4882-a60a-5b80baf9818f","ios":"levelo://app?vid=7432de2d-1f24-4882-a60a-5b80baf9818f"},"vehicle_type_id":"4","last_reported":1729307624,"current_range_meters":38800,"station_id":"ce4bhop2rcd13ifvqh8g","pricing_plan_id":"cebpf4jnsgd1na2vs0mg"},{"bike_id":"40589edc-baeb-4043-9212-ab10116ce0d0","system_id":"levelo_inurba_marseille","lat":43.28463,"lon":5.35885,"is_reserved":false,"is_disabled":false,"rental_uris":{"android":"levelo://app?vid=40589edc-baeb-4043-9212-ab10116ce0d0","ios":"levelo://app?vid=40589edc-baeb-4043-9212-ab10116ce0d0"},"vehicle_type_id":"4","last_reported":1729307624,"current_range_meters":24400,"station_id":"ce4bhah2rcd13ifvqei0","pricing_plan_id":"cebpf4jnsgd1na2vs0mg"},{"bike_id":"d116ab63-54e5-422b-8ef9-2c8c31901cde","system_id":"levelo_inurba_marseille","lat":43.26029,"lon":5.37546,"is_reserved":false,"is_disabled":false,"rental_uris":{"android":"levelo://app?vid=d116ab63-54e5-422b-8ef9-2c8c31901cde","ios":"levelo://app?vid=d116ab63-54e5-422b-8ef9-2c8c31901cde"},"vehicle_type_id":"4","last_reported":1729307624,"current_range_meters":39200,"station_id":"ce4bhgh2rcd13ifvqfa0","pricing_plan_id":"cebpf4jnsgd1na2vs0mg"},{"bike_id":"167e160b-0c17-49ce-a07b-7b05c5eba7ef","system_id":"levelo_inurba_marseille","lat":43.29802,"lon":5.40404,"is_reserved":false,"is_disabled":false,"rental_uris":{"android":"levelo://app?vid=167e160b-0c17-49ce-a07b-7b05c5eba7ef","ios":"levelo://app?vid=167e160b-0c17-49ce-a07b-7b05c5eba7ef"},"vehicle_type_id":"4","last_reported":1729307624,"current_range_meters":4400,"station_id":"ce4bh112rcd13ifvqd90","pricing_plan_id":"cebpf4jnsgd1na2vs0mg"},{"bike_id":"6e706dcb-6e41-41b6-a172-73765c66fdaa","system_id":"levelo_inurba_marseille","lat":43.26239,"lon":5.37592,"is_reserved":false,"is_disabled":false,"rental_uris":{"android":"levelo://app?vid=6e706dcb-6e41-41b6-a172-73765c66fdaa","ios":"levelo://app?vid=6e706dcb-6e41-41b6-a172-73765c66fdaa"},"vehicle_type_id":"4","last_reported":1729307624,"current_range_meters":38800,"station_id":"ce4bhhp2rcd13ifvqfm0","pricing_plan_id":"cebpf4jnsgd1na2vs0mg"},{"bike_id":"1601a383-f0c6-479d-8219-594013c0df01","system_id":"levelo_inurba_marseille","lat":43.28461,"lon":5.35881,"is_reserved":false,"is_disabled":false,"rental_uris":{"android":"levelo://app?vid=1601a383-f0c6-479d-8219-594013c0df01","ios":"levelo://app?vid=1601a383-f0c6-479d-8219-594013c0df01"},"vehicle_type_id":"4","last_reported":1729307624,"current_range_meters":8400,"station_id":"ce4bhah2rcd13ifvqei0","pricing_plan_id":"cebpf4jnsgd1na2vs0mg"},{"bike_id":"41086fee-693b-42f4-87db-3ee8b69c646e","system_id":"levelo_inurba_marseille","lat":43.26803,"lon":5.40265,"is_reserved":false,"is_disabled":false,"rental_uris":{"android":"levelo://app?vid=41086fee-693b-42f4-87db-3ee8b69c646e","ios":"levelo://app?vid=41086fee-693b-42f4-87db-3ee8b69c646e"},"vehicle_type_id":"4","last_reported":1729307624,"current_range_meters":38000,"station_id":"ce501612rcd8frsf0b60","pricing_plan_id":"cebpf4jnsgd1na2vs0mg"},{"bike_id":"71ff7bf5-519f-4879-804f-e6ebaab58e8f","system_id":"levelo_inurba_marseille","lat":43.28437,"lon":5.39192,"is_reserved":false,"is_disabled":false,"rental_uris":{"android":"levelo://app?vid=71ff7bf5-519f-4879-804f-e6ebaab58e8f","ios":"levelo://app?vid=71ff7bf5-519f-4879-804f-e6ebaab58e8f"},"vehicle_type_id":"4","last_reported":1729307624,"current_range_meters":37600,"station_id":"ce4bhoh2rcd13ifvqh5g","pricing_plan_id":"cebpf4jnsgd1na2vs0mg"},{"bike_id":"9a54bdf2-c459-4c1c-8ed0-1de6fb699d45","system_id":"levelo_inurba_marseille","lat":43.32454,"lon":5.36704,"is_reserved":false,"is_disabled":false,"rental_uris":{"android":"levelo://app?vid=9a54bdf2-c459-4c1c-8ed0-1de6fb699d45","ios":"levelo://app?vid=9a54bdf2-c459-4c1c-8ed0-1de6fb699d45"},"vehicle_type_id":"4","last_reported":1729307624,"current_range_meters":14000,"station_id":"ce4bhs12rcd13ifvqhvg","pricing_plan_id":"cebpf4jnsgd1na2vs0mg"},{"bike_id":"a18535a0-cb28-480e-a864-fa10915da656","system_id":"levelo_inurba_marseille","lat":43.28463,"lon":5.3841,"is_reserved":false,"is_disabled":false,"rental_uris":{"android":"levelo://app?vid=a18535a0-cb28-480e-a864-fa10915da656","ios":"levelo://app?vid=a18535a0-cb28-480e-a864-fa10915da656"},"vehicle_type_id":"4","last_reported":1729307624,"current_range_meters":25600,"station_id":"ce4bh512rcd13ifvqe3g","pricing_plan_id":"cebpf4jnsgd1na2vs0mg"},{"bike_id":"ab49cb35-2101-457d-97ab-33a97c5a4bee","system_id":"levelo_inurba_marseille","lat":43.32656,"lon":5.40987,"is_reserved":false,"is_disabled":false,"rental_uris":{"android":"levelo://app?vid=ab49cb35-2101-457d-97ab-33a97c5a4bee","ios":"levelo://app?vid=ab49cb35-2101-457d-97ab-33a97c5a4bee"},"vehicle_type_id":"4","last_reported":1729307624,"current_range_meters":38400,"station_id":"ce4bhpp2rcd13ifvqhgg","pricing_plan_id":"cebpf4jnsgd1na2vs0mg"},{"bike_id":"7772d39f-5e28-445c-af91-069b0cf63793","system_id":"levelo_inurba_marseille","lat":43.33765,"lon":5.37438,"is_reserved":false,"is_disabled":false,"rental_uris":{"android":"levelo://app?vid=7772d39f-5e28-445c-af91-069b0cf63793","ios":"levelo://app?vid=7772d39f-5e28-445c-af91-069b0cf63793"},"vehicle_type_id":"4","last_reported":1729307624,"current_range_meters":10800,"station_id":"","pricing_plan_id":"cebpf4jnsgd1na2vs0mg"},{"bike_id":"eb1aa966-8978-4c04-8d39-8d9901f8d888","system_id":"levelo_inurba_marseille","lat":43.28358,"lon":5.38618,"is_reserved":false,"is_disabled":false,"rental_uris":{"android":"levelo://app?vid=eb1aa966-8978-4c04-8d39-8d9901f8d888","ios":"levelo://app?vid=eb1aa966-8978-4c04-8d39-8d9901f8d888"},"vehicle_type_id":"4","last_reported":1729307624,"current_range_meters":38800,"station_id":"ce4bh492rcd13ifvqdvg","pricing_plan_id":"cebpf4jnsgd1na2vs0mg"},{"bike_id":"b61da1b6-317b-4ec8-8881-65a401d43674","system_id":"levelo_inurba_marseille","lat":43.32475,"lon":5.36567,"is_reserved":false,"is_disabled":false,"rental_uris":{"android":"levelo://app?vid=b61da1b6-317b-4ec8-8881-65a401d43674","ios":"levelo://app?vid=b61da1b6-317b-4ec8-8881-65a401d43674"},"vehicle_type_id":"4","last_reported":1729307624,"current_range_meters":32000,"station_id":"ce4bhs12rcd13ifvqhvg","pricing_plan_id":"cebpf4jnsgd1na2vs0mg"},{"bike_id":"3213665e-989c-4d22-9f5a-31c8522597dd","system_id":"levelo_inurba_marseille","lat":43.296,"lon":5.36142,"is_reserved":false,"is_disabled":false,"rental_uris":{"android":"levelo://app?vid=3213665e-989c-4d22-9f5a-31c8522597dd","ios":"levelo://app?vid=3213665e-989c-4d22-9f5a-31c8522597dd"},"vehicle_type_id":"4","last_reported":1729307624,"current_range_meters":21600,"station_id":"","pricing_plan_id":"cebpf4jnsgd1na2vs0mg"},{"bike_id":"a4115a63-1609-4834-be11-0c1a60ce541a","system_id":"levelo_inurba_marseille","lat":43.31068,"lon":5.38347,"is_reserved":false,"is_disabled":false,"rental_uris":{"android":"levelo://app?vid=a4115a63-1609-4834-be11-0c1a60ce541a","ios":"levelo://app?vid=a4115a63-1609-4834-be11-0c1a60ce541a"},"vehicle_type_id":"4","last_reported":1729307624,"current_range_meters":26800,"station_id":"ce4bgv92rcd13ifvqcr0","pricing_plan_id":"cebpf4jnsgd1na2vs0mg"},{"bike_id":"cddb2538-acdb-46a5-bc95-6e0a8d74ef0c","system_id":"levelo_inurba_marseille","lat":43.30795,"lon":5.43521,"is_reserved":false,"is_disabled":false,"rental_uris":{"android":"levelo://app?vid=cddb2538-acdb-46a5-bc95-6e0a8d74ef0c","ios":"levelo://app?vid=cddb2538-acdb-46a5-bc95-6e0a8d74ef0c"},"vehicle_type_id":"4","last_reported":1729307624,"current_range_meters":28400,"station_id":"ce4bhph2rcd13ifvqheg","pricing_plan_id":"cebpf4jnsgd1na2vs0mg"},{"bike_id":"0b800deb-d8de-4017-9625-270fd2e8f5e0","system_id":"levelo_inurba_marseille","lat":43.28725,"lon":5.3608,"is_reserved":false,"is_disabled":false,"rental_uris":{"android":"levelo://app?vid=0b800deb-d8de-4017-9625-270fd2e8f5e0","ios":"levelo://app?vid=0b800deb-d8de-4017-9625-270fd2e8f5e0"},"vehicle_type_id":"4","last_reported":1729307624,"current_range_meters":19600,"station_id":"cki0cbj6b192h4jlfktg","pricing_plan_id":"cebpf4jnsgd1na2vs0mg"},{"bike_id":"4fbbfab7-5970-4a84-85d1-212875289a2b","system_id":"levelo_inurba_marseille","lat":43.28861,"lon":5.35852,"is_reserved":false,"is_disabled":false,"rental_uris":{"android":"levelo://app?vid=4fbbfab7-5970-4a84-85d1-212875289a2b","ios":"levelo://app?vid=4fbbfab7-5970-4a84-85d1-212875289a2b"},"vehicle_type_id":"4","last_reported":1729307624,"current_range_meters":38800,"station_id":"ce4bhb12rcd13ifvqem0","pricing_plan_id":"cebpf4jnsgd1na2vs0mg"},{"bike_id":"85978b2d-96a1-4496-a15d-3917a97b0613","system_id":"levelo_inurba_marseille","lat":43.32367,"lon":5.38884,"is_reserved":false,"is_disabled":false,"rental_uris":{"android":"levelo://app?vid=85978b2d-96a1-4496-a15d-3917a97b0613","ios":"levelo://app?vid=85978b2d-96a1-4496-a15d-3917a97b0613"},"vehicle_type_id":"4","last_reported":1729307624,"current_range_meters":38400,"station_id":"ce4bhqp2rcd13ifvqhog","pricing_plan_id":"cebpf4jnsgd1na2vs0mg"},{"bike_id":"89211ee2-076f-4df3-92bd-cd8885f2e76d","system_id":"levelo_inurba_marseille","lat":43.23194,"lon":5.35556,"is_reserved":false,"is_disabled":false,"rental_uris":{"android":"levelo://app?vid=89211ee2-076f-4df3-92bd-cd8885f2e76d","ios":"levelo://app?vid=89211ee2-076f-4df3-92bd-cd8885f2e76d"},"vehicle_type_id":"4","last_reported":1729307624,"current_range_meters":25600,"station_id":"ce4bhu92rcd13ifvqi70","pricing_plan_id":"cebpf4jnsgd1na2vs0mg"},{"bike_id":"35a4a067-6724-4af6-9ac7-d2fc1a807c6b","system_id":"levelo_inurba_marseille","lat":43.23149,"lon":5.43714,"is_reserved":false,"is_disabled":false,"rental_uris":{"android":"levelo://app?vid=35a4a067-6724-4af6-9ac7-d2fc1a807c6b","ios":"levelo://app?vid=35a4a067-6724-4af6-9ac7-d2fc1a807c6b"},"vehicle_type_id":"4","last_reported":1729307624,"current_range_meters":2800,"station_id":"ce4bhmp2rcd13ifvqgog","pricing_plan_id":"cebpf4jnsgd1na2vs0mg"},{"bike_id":"a42d053b-efc3-4d04-88dc-06d3f1dc7ac8","system_id":"levelo_inurba_marseille","lat":43.30413,"lon":5.41284,"is_reserved":false,"is_disabled":false,"rental_uris":{"android":"levelo://app?vid=a42d053b-efc3-4d04-88dc-06d3f1dc7ac8","ios":"levelo://app?vid=a42d053b-efc3-4d04-88dc-06d3f1dc7ac8"},"vehicle_type_id":"4","last_reported":1729307624,"current_range_meters":39200,"station_id":"ce4bhop2rcd13ifvqh8g","pricing_plan_id":"cebpf4jnsgd1na2vs0mg"},{"bike_id":"21aaee1d-0adc-4710-9422-cb485f7de930","system_id":"levelo_inurba_marseille","lat":43.27906,"lon":5.38009,"is_reserved":false,"is_disabled":false,"rental_uris":{"android":"levelo://app?vid=21aaee1d-0adc-4710-9422-cb485f7de930","ios":"levelo://app?vid=21aaee1d-0adc-4710-9422-cb485f7de930"},"vehicle_type_id":"4","last_reported":1729307624,"current_range_meters":38000,"station_id":"ce4bhf92rcd13ifvqf50","pricing_plan_id":"cebpf4jnsgd1na2vs0mg"},{"bike_id":"720f32bc-f057-41f4-aebc-3fd98c4f7d49","system_id":"levelo_inurba_marseille","lat":43.30412,"lon":5.36762,"is_reserved":false,"is_disabled":false,"rental_uris":{"android":"levelo://app?vid=720f32bc-f057-41f4-aebc-3fd98c4f7d49","ios":"levelo://app?vid=720f32bc-f057-41f4-aebc-3fd98c4f7d49"},"vehicle_type_id":"4","last_reported":1729307624,"current_range_meters":8800,"station_id":"","pricing_plan_id":"cebpf4jnsgd1na2vs0mg"},{"bike_id":"e187053f-8652-47c0-b30c-5eceeadb8962","system_id":"levelo_inurba_marseille","lat":43.273757,"lon":5.362493,"is_reserved":false,"is_disabled":false,"rental_uris":{"android":"levelo://app?vid=e187053f-8652-47c0-b30c-5eceeadb8962","ios":"levelo://app?vid=e187053f-8652-47c0-b30c-5eceeadb8962"},"vehicle_type_id":"4","last_reported":1729307624,"current_range_meters":20400,"station_id":"ce4bhbh2rcd13ifvqeo0","pricing_plan_id":"cebpf4jnsgd1na2vs0mg"},{"bike_id":"ec856568-8217-4dcd-acd9-cbc0c1bd9ea0","system_id":"levelo_inurba_marseille","lat":43.31074,"lon":5.38345,"is_reserved":false,"is_disabled":false,"rental_uris":{"android":"levelo://app?vid=ec856568-8217-4dcd-acd9-cbc0c1bd9ea0","ios":"levelo://app?vid=ec856568-8217-4dcd-acd9-cbc0c1bd9ea0"},"vehicle_type_id":"4","last_reported":1729307624,"current_range_meters":32800,"station_id":"ce4bgv92rcd13ifvqcr0","pricing_plan_id":"cebpf4jnsgd1na2vs0mg"},{"bike_id":"48f2469d-4594-4ecb-a7ea-698cf7713650","system_id":"levelo_inurba_marseille","lat":43.33026,"lon":5.39036,"is_reserved":false,"is_disabled":false,"rental_uris":{"android":"levelo://app?vid=48f2469d-4594-4ecb-a7ea-698cf7713650","ios":"levelo://app?vid=48f2469d-4594-4ecb-a7ea-698cf7713650"},"vehicle_type_id":"4","last_reported":1729307624,"current_range_meters":27200,"station_id":"ce4bhr92rcd13ifvqhrg","pricing_plan_id":"cebpf4jnsgd1na2vs0mg"},{"bike_id":"2c81d88a-0d30-4f4d-a873-7d5197d088f1","system_id":"levelo_inurba_marseille","lat":43.2985,"lon":5.36283,"is_reserved":false,"is_disabled":false,"rental_uris":{"android":"levelo://app?vid=2c81d88a-0d30-4f4d-a873-7d5197d088f1","ios":"levelo://app?vid=2c81d88a-0d30-4f4d-a873-7d5197d088f1"},"vehicle_type_id":"4","last_reported":1729307624,"current_range_meters":38000,"station_id":"ce4bgpp2rcd13ifvqc3g","pricing_plan_id":"cebpf4jnsgd1na2vs0mg"},{"bike_id":"9aea9002-a689-48d3-b310-466b79893bd3","system_id":"levelo_inurba_marseille","lat":43.30634,"lon":5.40067,"is_reserved":false,"is_disabled":false,"rental_uris":{"android":"levelo://app?vid=9aea9002-a689-48d3-b310-466b79893bd3","ios":"levelo://app?vid=9aea9002-a689-48d3-b310-466b79893bd3"},"vehicle_type_id":"4","last_reported":1729307624,"current_range_meters":39200,"station_id":"ce4bh112rcd13ifvqda0","pricing_plan_id":"cebpf4jnsgd1na2vs0mg"},{"bike_id":"11a21bb0-f15a-49f4-8d19-d7ea309cb0d1","system_id":"levelo_inurba_marseille","lat":43.3176,"lon":5.39012,"is_reserved":false,"is_disabled":false,"rental_uris":{"android":"levelo://app?vid=11a21bb0-f15a-49f4-8d19-d7ea309cb0d1","ios":"levelo://app?vid=11a21bb0-f15a-49f4-8d19-d7ea309cb0d1"},"vehicle_type_id":"4","last_reported":1729307624,"current_range_meters":10800,"station_id":"ce4bhqp2rcd13ifvqhng","pricing_plan_id":"cebpf4jnsgd1na2vs0mg"},{"bike_id":"77beba7d-a141-4422-8ee2-04dbcdb74b98","system_id":"levelo_inurba_marseille","lat":43.28457,"lon":5.35875,"is_reserved":false,"is_disabled":false,"rental_uris":{"android":"levelo://app?vid=77beba7d-a141-4422-8ee2-04dbcdb74b98","ios":"levelo://app?vid=77beba7d-a141-4422-8ee2-04dbcdb74b98"},"vehicle_type_id":"4","last_reported":1729307624,"current_range_meters":9600,"station_id":"ce4bhah2rcd13ifvqei0","pricing_plan_id":"cebpf4jnsgd1na2vs0mg"},{"bike_id":"349d02b4-9b44-4c01-b73c-982963eba25c","system_id":"levelo_inurba_marseille","lat":43.32338,"lon":5.40622,"is_reserved":false,"is_disabled":false,"rental_uris":{"android":"levelo://app?vid=349d02b4-9b44-4c01-b73c-982963eba25c","ios":"levelo://app?vid=349d02b4-9b44-4c01-b73c-982963eba25c"},"vehicle_type_id":"4","last_reported":1729307624,"current_range_meters":36400,"station_id":"ce4bhq92rcd13ifvqhjg","pricing_plan_id":"cebpf4jnsgd1na2vs0mg"},{"bike_id":"1a033abb-16f6-452d-8850-1323583b7cab","system_id":"levelo_inurba_marseille","lat":43.28153,"lon":5.42639,"is_reserved":false,"is_disabled":false,"rental_uris":{"android":"levelo://app?vid=1a033abb-16f6-452d-8850-1323583b7cab","ios":"levelo://app?vid=1a033abb-16f6-452d-8850-1323583b7cab"},"vehicle_type_id":"4","last_reported":1729307624,"current_range_meters":37600,"station_id":"ce4bhnh2rcd13ifvqgug","pricing_plan_id":"cebpf4jnsgd1na2vs0mg"},{"bike_id":"717a8e4c-4f2a-40ca-9b97-5909c033b2ff","system_id":"levelo_inurba_marseille","lat":43.2846,"lon":5.35895,"is_reserved":false,"is_disabled":false,"rental_uris":{"android":"levelo://app?vid=717a8e4c-4f2a-40ca-9b97-5909c033b2ff","ios":"levelo://app?vid=717a8e4c-4f2a-40ca-9b97-5909c033b2ff"},"vehicle_type_id":"4","last_reported":1729307624,"current_range_meters":27600,"station_id":"ce4bhah2rcd13ifvqei0","pricing_plan_id":"cebpf4jnsgd1na2vs0mg"},{"bike_id":"87440bd7-4730-412f-b52f-03b263c3d6ba","system_id":"levelo_inurba_marseille","lat":43.23189,"lon":5.35554,"is_reserved":false,"is_disabled":false,"rental_uris":{"android":"levelo://app?vid=87440bd7-4730-412f-b52f-03b263c3d6ba","ios":"levelo://app?vid=87440bd7-4730-412f-b52f-03b263c3d6ba"},"vehicle_type_id":"4","last_reported":1729307624,"current_range_meters":9600,"station_id":"ce4bhu92rcd13ifvqi70","pricing_plan_id":"cebpf4jnsgd1na2vs0mg"},{"bike_id":"ad74c3de-b207-4df4-9baa-693d37227d7d","system_id":"levelo_inurba_marseille","lat":43.231864,"lon":5.399817,"is_reserved":false,"is_disabled":false,"rental_uris":{"android":"levelo://app?vid=ad74c3de-b207-4df4-9baa-693d37227d7d","ios":"levelo://app?vid=ad74c3de-b207-4df4-9baa-693d37227d7d"},"vehicle_type_id":"4","last_reported":1729307624,"current_range_meters":17200,"station_id":"ce4bhn12rcd13ifvqgqg","pricing_plan_id":"cebpf4jnsgd1na2vs0mg"},{"bike_id":"55808fba-1d42-4ff1-81c8-34437b7a9fd4","system_id":"levelo_inurba_marseille","lat":43.307978,"lon":5.381537,"is_reserved":false,"is_disabled":false,"rental_uris":{"android":"levelo://app?vid=55808fba-1d42-4ff1-81c8-34437b7a9fd4","ios":"levelo://app?vid=55808fba-1d42-4ff1-81c8-34437b7a9fd4"},"vehicle_type_id":"4","last_reported":1729307624,"current_range_meters":38800,"station_id":"ce4bgt12rcd13ifvqce0","pricing_plan_id":"cebpf4jnsgd1na2vs0mg"},{"bike_id":"c54aa037-7b33-4a8f-a1bc-453b7edcd41d","system_id":"levelo_inurba_marseille","lat":43.31124,"lon":5.37765,"is_reserved":false,"is_disabled":false,"rental_uris":{"android":"levelo://app?vid=c54aa037-7b33-4a8f-a1bc-453b7edcd41d","ios":"levelo://app?vid=c54aa037-7b33-4a8f-a1bc-453b7edcd41d"},"vehicle_type_id":"4","last_reported":1729307624,"current_range_meters":38000,"station_id":"ce4bgt92rcd13ifvqcg0","pricing_plan_id":"cebpf4jnsgd1na2vs0mg"},{"bike_id":"0f37c429-2b27-4590-a481-e57dda794b52","system_id":"levelo_inurba_marseille","lat":43.296499,"lon":5.405564,"is_reserved":false,"is_disabled":false,"rental_uris":{"android":"levelo://app?vid=0f37c429-2b27-4590-a481-e57dda794b52","ios":"levelo://app?vid=0f37c429-2b27-4590-a481-e57dda794b52"},"vehicle_type_id":"4","last_reported":1729307624,"current_range_meters":8400,"station_id":"ce4bh0h2rcd13ifvqd60","pricing_plan_id":"cebpf4jnsgd1na2vs0mg"},{"bike_id":"4ff7bc80-ac31-458a-842b-165b12ffbbbb","system_id":"levelo_inurba_marseille","lat":43.24071,"lon":5.37753,"is_reserved":false,"is_disabled":false,"rental_uris":{"android":"levelo://app?vid=4ff7bc80-ac31-458a-842b-165b12ffbbbb","ios":"levelo://app?vid=4ff7bc80-ac31-458a-842b-165b12ffbbbb"},"vehicle_type_id":"4","last_reported":1729307624,"current_range_meters":30000,"station_id":"ce4bhnp2rcd13ifvqgvg","pricing_plan_id":"cebpf4jnsgd1na2vs0mg"},{"bike_id":"498c65bc-a0a9-4bdc-ab57-fc39c98d5eee","system_id":"levelo_inurba_marseille","lat":43.26939,"lon":5.40254,"is_reserved":false,"is_disabled":false,"rental_uris":{"android":"levelo://app?vid=498c65bc-a0a9-4bdc-ab57-fc39c98d5eee","ios":"levelo://app?vid=498c65bc-a0a9-4bdc-ab57-fc39c98d5eee"},"vehicle_type_id":"4","last_reported":1729307624,"current_range_meters":28400,"station_id":"cjm6bp8fraef2m0cb0m0","pricing_plan_id":"cebpf4jnsgd1na2vs0mg"},{"bike_id":"f54a6788-34a3-4b1e-94af-30c754533eb3","system_id":"levelo_inurba_marseille","lat":43.28669,"lon":5.36353,"is_reserved":false,"is_disabled":false,"rental_uris":{"android":"levelo://app?vid=f54a6788-34a3-4b1e-94af-30c754533eb3","ios":"levelo://app?vid=f54a6788-34a3-4b1e-94af-30c754533eb3"},"vehicle_type_id":"4","last_reported":1729307624,"current_range_meters":39200,"station_id":"ce4bhah2rcd13ifvqej0","pricing_plan_id":"cebpf4jnsgd1na2vs0mg"},{"bike_id":"a1674350-ccd0-4497-ad56-b3ec52cd6e94","system_id":"levelo_inurba_marseille","lat":43.24557,"lon":5.37979,"is_reserved":false,"is_disabled":false,"rental_uris":{"android":"levelo://app?vid=a1674350-ccd0-4497-ad56-b3ec52cd6e94","ios":"levelo://app?vid=a1674350-ccd0-4497-ad56-b3ec52cd6e94"},"vehicle_type_id":"4","last_reported":1729307624,"current_range_meters":10000,"station_id":"","pricing_plan_id":"cebpf4jnsgd1na2vs0mg"},{"bike_id":"1039a80c-3e61-459d-8a4d-8d8111647939","system_id":"levelo_inurba_marseille","lat":43.26678,"lon":5.38268,"is_reserved":false,"is_disabled":false,"rental_uris":{"android":"levelo://app?vid=1039a80c-3e61-459d-8a4d-8d8111647939","ios":"levelo://app?vid=1039a80c-3e61-459d-8a4d-8d8111647939"},"vehicle_type_id":"4","last_reported":1729307624,"current_range_meters":38000,"station_id":"ce4bhg92rcd13ifvqf90","pricing_plan_id":"cebpf4jnsgd1na2vs0mg"},{"bike_id":"d2deb079-c00f-40b2-ac02-53e99dfb152e","system_id":"levelo_inurba_marseille","lat":43.24809,"lon":5.37456,"is_reserved":false,"is_disabled":false,"rental_uris":{"android":"levelo://app?vid=d2deb079-c00f-40b2-ac02-53e99dfb152e","ios":"levelo://app?vid=d2deb079-c00f-40b2-ac02-53e99dfb152e"},"vehicle_type_id":"4","last_reported":1729307624,"current_range_meters":30800,"station_id":"ce4bhgh2rcd13ifvqfb0","pricing_plan_id":"cebpf4jnsgd1na2vs0mg"},{"bike_id":"1cdfed0b-9cc0-4f1d-8b9f-0fbd48d86cf3","system_id":"levelo_inurba_marseille","lat":43.26562,"lon":5.37291,"is_reserved":false,"is_disabled":false,"rental_uris":{"android":"levelo://app?vid=1cdfed0b-9cc0-4f1d-8b9f-0fbd48d86cf3","ios":"levelo://app?vid=1cdfed0b-9cc0-4f1d-8b9f-0fbd48d86cf3"},"vehicle_type_id":"4","last_reported":1729307624,"current_range_meters":24000,"station_id":"ce4bhg12rcd13ifvqf70","pricing_plan_id":"cebpf4jnsgd1na2vs0mg"},{"bike_id":"1f8fe77f-c28a-493e-8046-17ab0ea5d03a","system_id":"levelo_inurba_marseille","lat":43.28729,"lon":5.36084,"is_reserved":false,"is_disabled":false,"rental_uris":{"android":"levelo://app?vid=1f8fe77f-c28a-493e-8046-17ab0ea5d03a","ios":"levelo://app?vid=1f8fe77f-c28a-493e-8046-17ab0ea5d03a"},"vehicle_type_id":"4","last_reported":1729307624,"current_range_meters":38000,"station_id":"cki0cbj6b192h4jlfktg","pricing_plan_id":"cebpf4jnsgd1na2vs0mg"},{"bike_id":"87c019bf-c20e-487f-8ad1-be0fc5d90c65","system_id":"levelo_inurba_marseille","lat":43.31531,"lon":5.38027,"is_reserved":false,"is_disabled":false,"rental_uris":{"android":"levelo://app?vid=87c019bf-c20e-487f-8ad1-be0fc5d90c65","ios":"levelo://app?vid=87c019bf-c20e-487f-8ad1-be0fc5d90c65"},"vehicle_type_id":"4","last_reported":1729307624,"current_range_meters":9600,"station_id":"ce4bhsp2rcd13ifvqi50","pricing_plan_id":"cebpf4jnsgd1na2vs0mg"},{"bike_id":"e445c19a-69b3-4427-a681-19f4a04e6978","system_id":"levelo_inurba_marseille","lat":43.32365,"lon":5.38879,"is_reserved":false,"is_disabled":false,"rental_uris":{"android":"levelo://app?vid=e445c19a-69b3-4427-a681-19f4a04e6978","ios":"levelo://app?vid=e445c19a-69b3-4427-a681-19f4a04e6978"},"vehicle_type_id":"4","last_reported":1729307624,"current_range_meters":28000,"station_id":"ce4bhqp2rcd13ifvqhog","pricing_plan_id":"cebpf4jnsgd1na2vs0mg"},{"bike_id":"d6d97e79-ad75-4866-abbe-862773c33435","system_id":"levelo_inurba_marseille","lat":43.32292,"lon":5.38275,"is_reserved":false,"is_disabled":false,"rental_uris":{"android":"levelo://app?vid=d6d97e79-ad75-4866-abbe-862773c33435","ios":"levelo://app?vid=d6d97e79-ad75-4866-abbe-862773c33435"},"vehicle_type_id":"4","last_reported":1729307624,"current_range_meters":39200,"station_id":"ce4bhr12rcd13ifvqhqg","pricing_plan_id":"cebpf4jnsgd1na2vs0mg"},{"bike_id":"e8da62c6-bbec-48e4-86d2-9e1bf2d17e6b","system_id":"levelo_inurba_marseille","lat":43.324872,"lon":5.365643,"is_reserved":false,"is_disabled":false,"rental_uris":{"android":"levelo://app?vid=e8da62c6-bbec-48e4-86d2-9e1bf2d17e6b","ios":"levelo://app?vid=e8da62c6-bbec-48e4-86d2-9e1bf2d17e6b"},"vehicle_type_id":"4","last_reported":1729307624,"current_range_meters":40000,"station_id":"ce4bhs12rcd13ifvqhvg","pricing_plan_id":"cebpf4jnsgd1na2vs0mg"},{"bike_id":"006bbfd0-294d-4716-b026-030ad88cf679","system_id":"levelo_inurba_marseille","lat":43.24392,"lon":5.37056,"is_reserved":false,"is_disabled":false,"rental_uris":{"android":"levelo://app?vid=006bbfd0-294d-4716-b026-030ad88cf679","ios":"levelo://app?vid=006bbfd0-294d-4716-b026-030ad88cf679"},"vehicle_type_id":"4","last_reported":1729307624,"current_range_meters":35200,"station_id":"ce4bhhh2rcd13ifvqfk0","pricing_plan_id":"cebpf4jnsgd1na2vs0mg"},{"bike_id":"c1cfbd29-e858-4d20-a958-3e360d8a56ad","system_id":"levelo_inurba_marseille","lat":43.24178,"lon":5.3972,"is_reserved":false,"is_disabled":false,"rental_uris":{"android":"levelo://app?vid=c1cfbd29-e858-4d20-a958-3e360d8a56ad","ios":"levelo://app?vid=c1cfbd29-e858-4d20-a958-3e360d8a56ad"},"vehicle_type_id":"4","last_reported":1729307624,"current_range_meters":30800,"station_id":"ce4bhn12rcd13ifvqgpg","pricing_plan_id":"cebpf4jnsgd1na2vs0mg"},{"bike_id":"f966ff40-d3ef-4e40-807c-412a1505a3e6","system_id":"levelo_inurba_marseille","lat":43.24811,"lon":5.37457,"is_reserved":false,"is_disabled":false,"rental_uris":{"android":"levelo://app?vid=f966ff40-d3ef-4e40-807c-412a1505a3e6","ios":"levelo://app?vid=f966ff40-d3ef-4e40-807c-412a1505a3e6"},"vehicle_type_id":"4","last_reported":1729307624,"current_range_meters":31200,"station_id":"ce4bhgh2rcd13ifvqfb0","pricing_plan_id":"cebpf4jnsgd1na2vs0mg"},{"bike_id":"7b5164b4-90cc-41bc-a797-681402c746de","system_id":"levelo_inurba_marseille","lat":43.25,"lon":5.38932,"is_reserved":false,"is_disabled":false,"rental_uris":{"android":"levelo://app?vid=7b5164b4-90cc-41bc-a797-681402c746de","ios":"levelo://app?vid=7b5164b4-90cc-41bc-a797-681402c746de"},"vehicle_type_id":"4","last_reported":1729307624,"current_range_meters":11600,"station_id":"ce4bhgp2rcd13ifvqfd0","pricing_plan_id":"cebpf4jnsgd1na2vs0mg"},{"bike_id":"4e1a62e3-b235-4b7a-a036-2056b75ba4dd","system_id":"levelo_inurba_marseille","lat":43.25002,"lon":5.38925,"is_reserved":false,"is_disabled":false,"rental_uris":{"android":"levelo://app?vid=4e1a62e3-b235-4b7a-a036-2056b75ba4dd","ios":"levelo://app?vid=4e1a62e3-b235-4b7a-a036-2056b75ba4dd"},"vehicle_type_id":"4","last_reported":1729307624,"current_range_meters":26800,"station_id":"ce4bhgp2rcd13ifvqfd0","pricing_plan_id":"cebpf4jnsgd1na2vs0mg"},{"bike_id":"d77de414-ca1a-409e-b7a6-47916177fca8","system_id":"levelo_inurba_marseille","lat":43.24999,"lon":5.38931,"is_reserved":false,"is_disabled":false,"rental_uris":{"android":"levelo://app?vid=d77de414-ca1a-409e-b7a6-47916177fca8","ios":"levelo://app?vid=d77de414-ca1a-409e-b7a6-47916177fca8"},"vehicle_type_id":"4","last_reported":1729307624,"current_range_meters":30000,"station_id":"ce4bhgp2rcd13ifvqfd0","pricing_plan_id":"cebpf4jnsgd1na2vs0mg"},{"bike_id":"3a9de80a-7d96-474b-9a25-5deaf3f8324c","system_id":"levelo_inurba_marseille","lat":43.30782,"lon":5.37658,"is_reserved":false,"is_disabled":false,"rental_uris":{"android":"levelo://app?vid=3a9de80a-7d96-474b-9a25-5deaf3f8324c","ios":"levelo://app?vid=3a9de80a-7d96-474b-9a25-5deaf3f8324c"},"vehicle_type_id":"4","last_reported":1729307624,"current_range_meters":17600,"station_id":"","pricing_plan_id":"cebpf4jnsgd1na2vs0mg"},{"bike_id":"99a4b7b5-8914-4330-85d9-ded1ccb6a91a","system_id":"levelo_inurba_marseille","lat":43.31171,"lon":5.38716,"is_reserved":false,"is_disabled":false,"rental_uris":{"android":"levelo://app?vid=99a4b7b5-8914-4330-85d9-ded1ccb6a91a","ios":"levelo://app?vid=99a4b7b5-8914-4330-85d9-ded1ccb6a91a"},"vehicle_type_id":"4","last_reported":1729307624,"current_range_meters":30000,"station_id":"ce4bgv12rcd13ifvqcp0","pricing_plan_id":"cebpf4jnsgd1na2vs0mg"},{"bike_id":"a4b68ade-3015-4e5f-9f20-2b9cf9653466","system_id":"levelo_inurba_marseille","lat":43.30804,"lon":5.38149,"is_reserved":false,"is_disabled":false,"rental_uris":{"android":"levelo://app?vid=a4b68ade-3015-4e5f-9f20-2b9cf9653466","ios":"levelo://app?vid=a4b68ade-3015-4e5f-9f20-2b9cf9653466"},"vehicle_type_id":"4","last_reported":1729307624,"current_range_meters":6800,"station_id":"ce4bgt12rcd13ifvqce0","pricing_plan_id":"cebpf4jnsgd1na2vs0mg"},{"bike_id":"5b033739-1b95-49da-9b8d-294c3cabbf99","system_id":"levelo_inurba_marseille","lat":43.24184,"lon":5.39726,"is_reserved":false,"is_disabled":false,"rental_uris":{"android":"levelo://app?vid=5b033739-1b95-49da-9b8d-294c3cabbf99","ios":"levelo://app?vid=5b033739-1b95-49da-9b8d-294c3cabbf99"},"vehicle_type_id":"4","last_reported":1729307624,"current_range_meters":28400,"station_id":"ce4bhn12rcd13ifvqgpg","pricing_plan_id":"cebpf4jnsgd1na2vs0mg"},{"bike_id":"1366bcbe-b9f7-41a3-be95-c893488e61d1","system_id":"levelo_inurba_marseille","lat":43.28104,"lon":5.37852,"is_reserved":false,"is_disabled":false,"rental_uris":{"android":"levelo://app?vid=1366bcbe-b9f7-41a3-be95-c893488e61d1","ios":"levelo://app?vid=1366bcbe-b9f7-41a3-be95-c893488e61d1"},"vehicle_type_id":"4","last_reported":1729307624,"current_range_meters":22800,"station_id":"ce4bha12rcd13ifvqee0","pricing_plan_id":"cebpf4jnsgd1na2vs0mg"},{"bike_id":"e349a00d-cda7-44c4-92e7-545ff20e7ee9","system_id":"levelo_inurba_marseille","lat":43.305994,"lon":5.372086,"is_reserved":false,"is_disabled":false,"rental_uris":{"android":"levelo://app?vid=e349a00d-cda7-44c4-92e7-545ff20e7ee9","ios":"levelo://app?vid=e349a00d-cda7-44c4-92e7-545ff20e7ee9"},"vehicle_type_id":"4","last_reported":1729307624,"current_range_meters":38400,"station_id":"ce4bgqh2rcd13ifvqc4g","pricing_plan_id":"cebpf4jnsgd1na2vs0mg"},{"bike_id":"ecf5cd40-9aad-4b30-9849-ba305daf63ca","system_id":"levelo_inurba_marseille","lat":43.31689,"lon":5.40463,"is_reserved":false,"is_disabled":false,"rental_uris":{"android":"levelo://app?vid=ecf5cd40-9aad-4b30-9849-ba305daf63ca","ios":"levelo://app?vid=ecf5cd40-9aad-4b30-9849-ba305daf63ca"},"vehicle_type_id":"4","last_reported":1729307624,"current_range_meters":26000,"station_id":"ce4bh012rcd13ifvqd00","pricing_plan_id":"cebpf4jnsgd1na2vs0mg"},{"bike_id":"4dbbf305-7300-417e-a06a-9158dedb68cb","system_id":"levelo_inurba_marseille","lat":43.2656,"lon":5.3901,"is_reserved":false,"is_disabled":false,"rental_uris":{"android":"levelo://app?vid=4dbbf305-7300-417e-a06a-9158dedb68cb","ios":"levelo://app?vid=4dbbf305-7300-417e-a06a-9158dedb68cb"},"vehicle_type_id":"4","last_reported":1729307624,"current_range_meters":31200,"station_id":"ce4bhe12rcd13ifvqf30","pricing_plan_id":"cebpf4jnsgd1na2vs0mg"},{"bike_id":"adff1b27-f863-42dd-b7da-202c55f6518b","system_id":"levelo_inurba_marseille","lat":43.23971,"lon":5.3663,"is_reserved":false,"is_disabled":false,"rental_uris":{"android":"levelo://app?vid=adff1b27-f863-42dd-b7da-202c55f6518b","ios":"levelo://app?vid=adff1b27-f863-42dd-b7da-202c55f6518b"},"vehicle_type_id":"4","last_reported":1729307624,"current_range_meters":20800,"station_id":"ce4bhi12rcd13ifvqfp0","pricing_plan_id":"cebpf4jnsgd1na2vs0mg"},{"bike_id":"f8550026-9d66-40c7-9cd0-f63b41bf941a","system_id":"levelo_inurba_marseille","lat":43.30356,"lon":5.41876,"is_reserved":false,"is_disabled":false,"rental_uris":{"android":"levelo://app?vid=f8550026-9d66-40c7-9cd0-f63b41bf941a","ios":"levelo://app?vid=f8550026-9d66-40c7-9cd0-f63b41bf941a"},"vehicle_type_id":"4","last_reported":1729307624,"current_range_meters":38800,"station_id":"ce4bhop2rcd13ifvqh7g","pricing_plan_id":"cebpf4jnsgd1na2vs0mg"},{"bike_id":"2efb1272-3ee9-4aef-890e-f081f26e6e75","system_id":"levelo_inurba_marseille","lat":43.24181,"lon":5.39726,"is_reserved":false,"is_disabled":false,"rental_uris":{"android":"levelo://app?vid=2efb1272-3ee9-4aef-890e-f081f26e6e75","ios":"levelo://app?vid=2efb1272-3ee9-4aef-890e-f081f26e6e75"},"vehicle_type_id":"4","last_reported":1729307624,"current_range_meters":8400,"station_id":"ce4bhn12rcd13ifvqgpg","pricing_plan_id":"cebpf4jnsgd1na2vs0mg"},{"bike_id":"be2bbaa1-f672-4dc8-a1c0-85466066b76d","system_id":"levelo_inurba_marseille","lat":43.2319,"lon":5.35548,"is_reserved":false,"is_disabled":false,"rental_uris":{"android":"levelo://app?vid=be2bbaa1-f672-4dc8-a1c0-85466066b76d","ios":"levelo://app?vid=be2bbaa1-f672-4dc8-a1c0-85466066b76d"},"vehicle_type_id":"4","last_reported":1729307624,"current_range_meters":26000,"station_id":"ce4bhu92rcd13ifvqi70","pricing_plan_id":"cebpf4jnsgd1na2vs0mg"},{"bike_id":"a4b68d83-e5a3-486e-a921-b7a81ceaf128","system_id":"levelo_inurba_marseille","lat":43.25496,"lon":5.37648,"is_reserved":false,"is_disabled":false,"rental_uris":{"android":"levelo://app?vid=a4b68d83-e5a3-486e-a921-b7a81ceaf128","ios":"levelo://app?vid=a4b68d83-e5a3-486e-a921-b7a81ceaf128"},"vehicle_type_id":"4","last_reported":1729307624,"current_range_meters":11600,"station_id":"ce4bhh12rcd13ifvqff0","pricing_plan_id":"cebpf4jnsgd1na2vs0mg"},{"bike_id":"13c0e492-f9b8-4a11-ae61-82c5b16733b1","system_id":"levelo_inurba_marseille","lat":43.30801,"lon":5.38149,"is_reserved":false,"is_disabled":false,"rental_uris":{"android":"levelo://app?vid=13c0e492-f9b8-4a11-ae61-82c5b16733b1","ios":"levelo://app?vid=13c0e492-f9b8-4a11-ae61-82c5b16733b1"},"vehicle_type_id":"4","last_reported":1729307624,"current_range_meters":11600,"station_id":"ce4bgt12rcd13ifvqce0","pricing_plan_id":"cebpf4jnsgd1na2vs0mg"},