{"last_updated":1740427870,"ttl":60,"version":"2.2","data":{"bikes":[{"bike_id":"aa76b520-bcd7-441a-bea8-826e13b5a7b5","system_id":"levelo_inurba_marseille","lat":43.28841,"lon":5.39312,"is_reserved":false,"is_disabled":false,"rental_uris":{"android":"levelo://app?vid=aa76b520-bcd7-441a-bea8-826e13b5a7b5","ios":"levelo://app?vid=aa76b520-bcd7-441a-bea8-826e13b5a7b5"},"vehicle_type_id":"4","last_reported":1740427870,"current_range_meters":4000,"station_id":"ce4bh2p2rcd13ifvqdi0","pricing_plan_id":"cebpf4jnsgd1na2vs0mg"},{"bike_id":"92317a60-6a74-41c8-83a2-7dc37d3268e0","system_id":"levelo_inurba_marseille","lat":43.31702,"lon":5.37743,"is_reserved":false,"is_disabled":false,"rental_uris":{"android":"levelo://app?vid=92317a60-6a74-41c8-83a2-7dc37d3268e0","ios":"levelo://app?vid=92317a60-6a74-41c8-83a2-7dc37d3268e0"},"vehicle_type_id":"4","last_reported":1740427870,"current_range_meters":0,"station_id":"ce4bgth2rcd13ifvqch0","pricing_plan_id":"cebpf4jnsgd1na2vs0mg"},{"bike_id":"8825da9a-338a-43f1-904f-825e636e0a6d","system_id":"levelo_inurba_marseille","lat":43.28713,"lon":5.37928,"is_reserved":false,"is_disabled":false,"rental_uris":{"android":"levelo://app?vid=8825da9a-338a-43f1-904f-825e636e0a6d","ios":"levelo://app?vid=8825da9a-338a-43f1-904f-825e636e0a6d"},"vehicle_type_id":"4","last_reported":1740427870,"current_range_meters":3200,"station_id":"ce4bh9p2rcd13ifvqec0","pricing_plan_id":"cebpf4jnsgd1na2vs0mg"},{"bike_id":"50a03b29-b76f-4fb2-91d7-00d2a75d785c","system_id":"levelo_inurba_marseille","lat":43.29247,"lon":5.37635,"is_reserved":false,"is_disabled":true,"rental_uris":{"android":"levelo://app?vid=50a03b29-b76f-4fb2-91d7-00d2a75d785c","ios":"levelo://app?vid=50a03b29-b76f-4fb2-91d7-00d2a75d785c"},"vehicle_type_id":"4","last_reported":1740427870,"current_range_meters":3600,"station_id":"ce4bgi12rcd13ifvqb80","pricing_plan_id":"cebpf4jnsgd1na2vs0mg"},{"bike_id":"413dc171-4546-4050-9354-c607ae4433bf","system_id":"levelo_inurba_marseille","lat":43.30167,"lon":5.39583,"is_reserved":false,"is_disabled":true,"rental_uris":{"android":"levelo://app?vid=413dc171-4546-4050-9354-c607ae4433bf","ios":"levelo://app?vid=413dc171-4546-4050-9354-c607ae4433bf"},"vehicle_type_id":"4","last_reported":1740427870,"current_range_meters":4000,"station_id":"","pricing_plan_id":"cebpf4jnsgd1na2vs0mg"},{"bike_id":"fc2e876a-46b8-45ed-be50-09af9450335d","system_id":"levelo_inurba_marseille","lat":43.27947,"lon":5.41094,"is_reserved":false,"is_disabled":false,"rental_uris":{"android":"levelo://app?vid=fc2e876a-46b8-45ed-be50-09af9450335d","ios":"levelo://app?vid=fc2e876a-46b8-45ed-be50-09af9450335d"},"vehicle_type_id":"4","last_reported":1740427870,"current_range_meters":4000,"station_id":"ce4bhnp2rcd13ifvqh0g","pricing_plan_id":"cebpf4jnsgd1na2vs0mg"},{"bike_id":"a3a66ae9-6129-4d54-a38a-45c6cef0fccf","system_id":"levelo_inurba_marseille","lat":43.309,"lon":5.39619,"is_reserved":false,"is_disabled":false,"rental_uris":{"android":"levelo://app?vid=a3a66ae9-6129-4d54-a38a-45c6cef0fccf","ios":"levelo://app?vid=a3a66ae9-6129-4d54-a38a-45c6cef0fccf"},"vehicle_type_id":"4","last_reported":1740427870,"current_range_meters":4000,"station_id":"ce4bh012rcd13ifvqcv0","pricing_plan_id":"cebpf4jnsgd1na2vs0mg"},{"bike_id":"d6dab869-145b-4c56-b714-96bc9173d708","system_id":"levelo_inurba_marseille","lat":43.30618,"lon":5.37185,"is_reserved":false,"is_disabled":false,"rental_uris":{"android":"levelo://app?vid=d6dab869-145b-4c56-b714-96bc9173d708","ios":"levelo://app?vid=d6dab869-145b-4c56-b714-96bc9173d708"},"vehicle_type_id":"4","last_reported":1740427870,"current_range_meters":4400,"station_id":"ce4bgqh2rcd13ifvqc4g","pricing_plan_id":"cebpf4jnsgd1na2vs0mg"},{"bike_id":"7ab00857-0d57-4e81-a5b9-a5f793a0fdb5","system_id":"levelo_inurba_marseille","lat":43.29305,"lon":5.37164,"is_reserved":false,"is_disabled":false,"rental_uris":{"android":"levelo://app?vid=7ab00857-0d57-4e81-a5b9-a5f793a0fdb5","ios":"levelo://app?vid=7ab00857-0d57-4e81-a5b9-a5f793a0fdb5"},"vehicle_type_id":"4","last_reported":1740427870,"current_range_meters":4400,"station_id":"ce4bgh92rcd13ifvqb40","pricing_plan_id":"cebpf4jnsgd1na2vs0mg"},{"bike_id":"b9348c55-732b-41c3-868e-5ef0a78ee787","system_id":"levelo_inurba_marseille","lat":43.31759,"lon":5.39032,"is_reserved":false,"is_disabled":false,"rental_uris":{"android":"levelo://app?vid=b9348c55-732b-41c3-868e-5ef0a78ee787","ios":"levelo://app?vid=b9348c55-732b-41c3-868e-5ef0a78ee787"},"vehicle_type_id":"4","last_reported":1740427870,"current_range_meters":8400,"station_id":"ce4bhqp2rcd13ifvqhng","pricing_plan_id":"cebpf4jnsgd1na2vs0mg"},{"bike_id":"8c39fbcb-bc41-49a9-ad4d-cc55d2a50515","system_id":"levelo_inurba_marseille","lat":43.29508,"lon":5.39034,"is_reserved":false,"is_disabled":true,"rental_uris":{"android":"levelo://app?vid=8c39fbcb-bc41-49a9-ad4d-cc55d2a50515","ios":"levelo://app?vid=8c39fbcb-bc41-49a9-ad4d-cc55d2a50515"},"vehicle_type_id":"4","last_reported":1740427870,"current_range_meters":4800,"station_id":"ce4bh3p2rcd13ifvqdp0","pricing_plan_id":"cebpf4jnsgd1na2vs0mg"},{"bike_id":"76b417ec-d64b-4105-bb54-e1299d1ff102","system_id":"levelo_inurba_marseille","lat":43.2796,"lon":5.41045,"is_reserved":false,"is_disabled":false,"rental_uris":{"android":"levelo://app?vid=76b417ec-d64b-4105-bb54-e1299d1ff102","ios":"levelo://app?vid=76b417ec-d64b-4105-bb54-e1299d1ff102"},"vehicle_type_id":"4","last_reported":1740427870,"current_range_meters":4800,"station_id":"ce4bhnp2rcd13ifvqh0g","pricing_plan_id":"cebpf4jnsgd1na2vs0mg"},{"bike_id":"00c0018a-a97a-4d44-95a8-51f214e2ecc2","system_id":"levelo_inurba_marseille","lat":43.31358,"lon":5.38494,"is_reserved":false,"is_disabled":false,"rental_uris":{"android":"levelo://app?vid=00c0018a-a97a-4d44-95a8-51f214e2ecc2","ios":"levelo://app?vid=00c0018a-a97a-4d44-95a8-51f214e2ecc2"},"vehicle_type_id":"4","last_reported":1740427870,"current_range_meters":4800,"station_id":"ce4bgt92rcd13ifvqcf0","pricing_plan_id":"cebpf4jnsgd1na2vs0mg"},{"bike_id":"46d62d47-2866-4677-a448-8339dc1770f7","system_id":"levelo_inurba_marseille","lat":43.28447,"lon":5.39189,"is_reserved":false,"is_disabled":false,"rental_uris":{"android":"levelo://app?vid=46d62d47-2866-4677-a448-8339dc1770f7","ios":"levelo://app?vid=46d62d47-2866-4677-a448-8339dc1770f7"},"vehicle_type_id":"4","last_reported":1740427870,"current_range_meters":5600,"station_id":"ce4bhoh2rcd13ifvqh5g","pricing_plan_id":"cebpf4jnsgd1na2vs0mg"},{"bike_id":"3a528fcd-e8c1-4fcb-a0b7-218c73b9e505","system_id":"levelo_inurba_marseille","lat":43.24182,"lon":5.39741,"is_reserved":false,"is_disabled":false,"rental_uris":{"android":"levelo://app?vid=3a528fcd-e8c1-4fcb-a0b7-218c73b9e505","ios":"levelo://app?vid=3a528fcd-e8c1-4fcb-a0b7-218c73b9e505"},"vehicle_type_id":"4","last_reported":1740427870,"current_range_meters":6400,"station_id":"ce4bhn12rcd13ifvqgpg","pricing_plan_id":"cebpf4jnsgd1na2vs0mg"},{"bike_id":"05ca5bb2-d0ec-402f-b569-04ba07ccd5d3","system_id":"levelo_inurba_marseille","lat":43.30419,"lon":5.39762,"is_reserved":false,"is_disabled":false,"rental_uris":{"android":"levelo://app?vid=05ca5bb2-d0ec-402f-b569-04ba07ccd5d3","ios":"levelo://app?vid=05ca5bb2-d0ec-402f-b569-04ba07ccd5d3"},"vehicle_type_id":"4","last_reported":1740427870,"current_range_meters":6000,"station_id":"ce4bh092rcd13ifvqd20","pricing_plan_id":"cebpf4jnsgd1na2vs0mg"},{"bike_id":"16a64962-c840-403e-8215-260ce50518b7","system_id":"levelo_inurba_marseille","lat":43.2815,"lon":5.42649,"is_reserved":false,"is_disabled":true,"rental_uris":{"android":"levelo://app?vid=16a64962-c840-403e-8215-260ce50518b7","ios":"levelo://app?vid=16a64962-c840-403e-8215-260ce50518b7"},"vehicle_type_id":"4","last_reported":1740427870,"current_range_meters":6800,"station_id":"ce4bhnh2rcd13ifvqgug","pricing_plan_id":"cebpf4jnsgd1na2vs0mg"},{"bike_id":"97d726ed-4183-4544-8274-4d89eaa2f547","system_id":"levelo_inurba_marseille","lat":43.2571,"lon":5.41112,"is_reserved":false,"is_disabled":false,"rental_uris":{"android":"levelo://app?vid=97d726ed-4183-4544-8274-4d89eaa2f547","ios":"levelo://app?vid=97d726ed-4183-4544-8274-4d89eaa2f547"},"vehicle_type_id":"4","last_reported":1740427870,"current_range_meters":6000,"station_id":"ce4bhkp2rcd13ifvqgd0","pricing_plan_id":"cebpf4jnsgd1na2vs0mg"},{"bike_id":"3e7d99b0-ccb5-450f-944d-95e765ac866f","system_id":"levelo_inurba_marseille","lat":43.33028,"lon":5.39042,"is_reserved":false,"is_disabled":false,"rental_uris":{"android":"levelo://app?vid=3e7d99b0-ccb5-450f-944d-95e765ac866f","ios":"levelo://app?vid=3e7d99b0-ccb5-450f-944d-95e765ac866f"},"vehicle_type_id":"4","last_reported":1740427870,"current_range_meters":6400,"station_id":"ce4bhr92rcd13ifvqhrg","pricing_plan_id":"cebpf4jnsgd1na2vs0mg"},{"bike_id":"fe24a87f-7b49-42de-8300-10dd570d6595","system_id":"levelo_inurba_marseille","lat":43.27424,"lon":5.39415,"is_reserved":false,"is_disabled":false,"rental_uris":{"android":"levelo://app?vid=fe24a87f-7b49-42de-8300-10dd570d6595","ios":"levelo://app?vid=fe24a87f-7b49-42de-8300-10dd570d6595"},"vehicle_type_id":"4","last_reported":1740427870,"current_range_meters":6800,"station_id":"ce4bhdp2rcd13ifvqf20","pricing_plan_id":"cebpf4jnsgd1na2vs0mg"},{"bike_id":"0423d920-4043-4652-b688-10bf2d3098cd","system_id":"levelo_inurba_marseille","lat":43.25584,"lon":5.38234,"is_reserved":false,"is_disabled":false,"rental_uris":{"android":"levelo://app?vid=0423d920-4043-4652-b688-10bf2d3098cd","ios":"levelo://app?vid=0423d920-4043-4652-b688-10bf2d3098cd"},"vehicle_type_id":"4","last_reported":1740427870,"current_range_meters":6800,"station_id":"ce4bhih2rcd13ifvqfs0","pricing_plan_id":"cebpf4jnsgd1na2vs0mg"},{"bike_id":"97cdb9e4-b20c-4955-a480-535e5e43cd38","system_id":"levelo_inurba_marseille","lat":43.28415,"lon":5.37511,"is_reserved":false,"is_disabled":false,"rental_uris":{"android":"levelo://app?vid=97cdb9e4-b20c-4955-a480-535e5e43cd38","ios":"levelo://app?vid=97cdb9e4-b20c-4955-a480-535e5e43cd38"},"vehicle_type_id":"4","last_reported":1740427870,"current_range_meters":6800,"station_id":"ce4bh412rcd13ifvqds0","pricing_plan_id":"cebpf4jnsgd1na2vs0mg"},{"bike_id":"8b4a594c-e565-4be1-9ea8-9ac8bb13bcc8","system_id":"levelo_inurba_marseille","lat":43.304632,"lon":5.379134,"is_reserved":false,"is_disabled":false,"rental_uris":{"android":"levelo://app?vid=8b4a594c-e565-4be1-9ea8-9ac8bb13bcc8","ios":"levelo://app?vid=8b4a594c-e565-4be1-9ea8-9ac8bb13bcc8"},"vehicle_type_id":"4","last_reported":1740427870,"current_range_meters":6800,"station_id":"ce4bgup2rcd13ifvqcn0","pricing_plan_id":"cebpf4jnsgd1na2vs0mg"},{"bike_id":"da0a113e-a981-49bc-a2b9-3bea86e6c760","system_id":"levelo_inurba_marseille","lat":43.31275,"lon":5.40165,"is_reserved":false,"is_disabled":false,"rental_uris":{"android":"levelo://app?vid=da0a113e-a981-49bc-a2b9-3bea86e6c760","ios":"levelo://app?vid=da0a113e-a981-49bc-a2b9-3bea86e6c760"},"vehicle_type_id":"4","last_reported":1740427870,"current_range_meters":12800,"station_id":"ce4bh092rcd13ifvqd30","pricing_plan_id":"cebpf4jnsgd1na2vs0mg"},{"bike_id":"e425124f-0e43-4bb3-903c-c410badfece2","system_id":"levelo_inurba_marseille","lat":43.24552,"lon":5.39525,"is_reserved":false,"is_disabled":false,"rental_uris":{"android":"levelo://app?vid=e425124f-0e43-4bb3-903c-c410badfece2","ios":"levelo://app?vid=e425124f-0e43-4bb3-903c-c410badfece2"},"vehicle_type_id":"4","last_reported":1740427870,"current_range_meters":6800,"station_id":"ce4bhlp2rcd13ifvqgjg","pricing_plan_id":"cebpf4jnsgd1na2vs0mg"},{"bike_id":"c4760d54-2826-4722-bc5f-83b0828f8d4b","system_id":"levelo_inurba_marseille","lat":43.29528,"lon":5.39396,"is_reserved":false,"is_disabled":false,"rental_uris":{"android":"levelo://app?vid=c4760d54-2826-4722-bc5f-83b0828f8d4b","ios":"levelo://app?vid=c4760d54-2826-4722-bc5f-83b0828f8d4b"},"vehicle_type_id":"4","last_reported":1740427870,"current_range_meters":15200,"station_id":"ce4bh292rcd13ifvqdf0","pricing_plan_id":"cebpf4jnsgd1na2vs0mg"},{"bike_id":"3e3bde6f-8dc0-41cf-8fe6-f850e893e1da","system_id":"levelo_inurba_marseille","lat":43.27948,"lon":5.41048,"is_reserved":false,"is_disabled":false,"rental_uris":{"android":"levelo://app?vid=3e3bde6f-8dc0-41cf-8fe6-f850e893e1da","ios":"levelo://app?vid=3e3bde6f-8dc0-41cf-8fe6-f850e893e1da"},"vehicle_type_id":"4","last_reported":1740427870,"current_range_meters":7200,"station_id":"ce4bhnp2rcd13ifvqh0g","pricing_plan_id":"cebpf4jnsgd1na2vs0mg"},{"bike_id":"fe24a78e-bf1d-45eb-ba52-22aee4feb68e","system_id":"levelo_inurba_marseille","lat":43.29199,"lon":5.39313,"is_reserved":false,"is_disabled":false,"rental_uris":{"android":"levelo://app?vid=fe24a78e-bf1d-45eb-ba52-22aee4feb68e","ios":"levelo://app?vid=fe24a78e-bf1d-45eb-ba52-22aee4feb68e"},"vehicle_type_id":"4","last_reported":1740427870,"current_range_meters":7200,"station_id":"","pricing_plan_id":"cebpf4jnsgd1na2vs0mg"},{"bike_id":"74128d98-69d1-466b-81b0-2547ee8616c9","system_id":"levelo_inurba_marseille","lat":43.26806,"lon":5.40266,"is_reserved":false,"is_disabled":false,"rental_uris":{"android":"levelo://app?vid=74128d98-69d1-466b-81b0-2547ee8616c9","ios":"levelo://app?vid=74128d98-69d1-466b-81b0-2547ee8616c9"},"vehicle_type_id":"4","last_reported":1740427870,"current_range_meters":7200,"station_id":"ce501612rcd8frsf0b60","pricing_plan_id":"cebpf4jnsgd1na2vs0mg"},{"bike_id":"4e76829f-70cf-4d94-80fd-c186bc55f908","system_id":"levelo_inurba_marseille","lat":43.27985,"lon":5.41664,"is_reserved":false,"is_disabled":false,"rental_uris":{"android":"levelo://app?vid=4e76829f-70cf-4d94-80fd-c186bc55f908","ios":"levelo://app?vid=4e76829f-70cf-4d94-80fd-c186bc55f908"},"vehicle_type_id":"4","last_reported":1740427870,"current_range_meters":7200,"station_id":"ce4bho12rcd13ifvqh1g","pricing_plan_id":"cebpf4jnsgd1na2vs0mg"},{"bike_id":"0138c2d1-b24e-4b37-a0b5-8434c375e239","system_id":"levelo_inurba_marseille","lat":43.32376,"lon":5.38877,"is_reserved":false,"is_disabled":false,"rental_uris":{"android":"levelo://app?vid=0138c2d1-b24e-4b37-a0b5-8434c375e239","ios":"levelo://app?vid=0138c2d1-b24e-4b37-a0b5-8434c375e239"},"vehicle_type_id":"4","last_reported":1740427870,"current_range_meters":7200,"station_id":"ce4bhqp2rcd13ifvqhog","pricing_plan_id":"cebpf4jnsgd1na2vs0mg"},{"bike_id":"7764cb33-5426-4b94-909c-ac480986db17","system_id":"levelo_inurba_marseille","lat":43.29339,"lon":5.37256,"is_reserved":false,"is_disabled":false,"rental_uris":{"android":"levelo://app?vid=7764cb33-5426-4b94-909c-ac480986db17","ios":"levelo://app?vid=7764cb33-5426-4b94-909c-ac480986db17"},"vehicle_type_id":"4","last_reported":1740427870,"current_range_meters":7200,"station_id":"","pricing_plan_id":"cebpf4jnsgd1na2vs0mg"},{"bike_id":"1c6af964-a4fd-406e-994b-9fe62360a43b","system_id":"levelo_inurba_marseille","lat":43.29533,"lon":5.39405,"is_reserved":false,"is_disabled":false,"rental_uris":{"android":"levelo://app?vid=1c6af964-a4fd-406e-994b-9fe62360a43b","ios":"levelo://app?vid=1c6af964-a4fd-406e-994b-9fe62360a43b"},"vehicle_type_id":"4","last_reported":1740427870,"current_range_meters":7200,"station_id":"ce4bh292rcd13ifvqdf0","pricing_plan_id":"cebpf4jnsgd1na2vs0mg"},{"bike_id":"59846488-27fb-4521-8ee4-2b2fbde1ef4f","system_id":"levelo_inurba_marseille","lat":43.2928,"lon":5.394773,"is_reserved":false,"is_disabled":false,"rental_uris":{"android":"levelo://app?vid=59846488-27fb-4521-8ee4-2b2fbde1ef4f","ios":"levelo://app?vid=59846488-27fb-4521-8ee4-2b2fbde1ef4f"},"vehicle_type_id":"4","last_reported":1740427870,"current_range_meters":8000,"station_id":"ce4bh2p2rcd13ifvqdi0","pricing_plan_id":"cebpf4jnsgd1na2vs0mg"},{"bike_id":"59422e92-f9f1-4326-97e8-7da3700ed321","system_id":"levelo_inurba_marseille","lat":43.264946,"lon":5.39541,"is_reserved":false,"is_disabled":false,"rental_uris":{"android":"levelo://app?vid=59422e92-f9f1-4326-97e8-7da3700ed321","ios":"levelo://app?vid=59422e92-f9f1-4326-97e8-7da3700ed321"},"vehicle_type_id":"4","last_reported":1740427870,"current_range_meters":8000,"station_id":"ce4bh312rcd13ifvqdj0","pricing_plan_id":"cebpf4jnsgd1na2vs0mg"},{"bike_id":"502f98d1-fa4f-4f82-9afe-dc5225b2ecc0","system_id":"levelo_inurba_marseille","lat":43.28713,"lon":5.39948,"is_reserved":false,"is_disabled":false,"rental_uris":{"android":"levelo://app?vid=502f98d1-fa4f-4f82-9afe-dc5225b2ecc0","ios":"levelo://app?vid=502f98d1-fa4f-4f82-9afe-dc5225b2ecc0"},"vehicle_type_id":"4","last_reported":1740427870,"current_range_meters":8000,"station_id":"ce4bh392rcd13ifvqdl0","pricing_plan_id":"cebpf4jnsgd1na2vs0mg"},{"bike_id":"9912bd3b-182f-467c-92db-65e052c11af3","system_id":"levelo_inurba_marseille","lat":43.24259,"lon":5.43835,"is_reserved":false,"is_disabled":false,"rental_uris":{"android":"levelo://app?vid=9912bd3b-182f-467c-92db-65e052c11af3","ios":"levelo://app?vid=9912bd3b-182f-467c-92db-65e052c11af3"},"vehicle_type_id":"4","last_reported":1740427870,"current_range_meters":8000,"station_id":"","pricing_plan_id":"cebpf4jnsgd1na2vs0mg"},{"bike_id":"735470d2-1397-44a5-b56e-f70aa7aef316","system_id":"levelo_inurba_marseille","lat":43.25112,"lon":5.40323,"is_reserved":false,"is_disabled":false,"rental_uris":{"android":"levelo://app?vid=735470d2-1397-44a5-b56e-f70aa7aef316","ios":"levelo://app?vid=735470d2-1397-44a5-b56e-f70aa7aef316"},"vehicle_type_id":"4","last_reported":1740427870,"current_range_meters":1600,"station_id":"ce4bhlh2rcd13ifvqgig","pricing_plan_id":"cebpf4jnsgd1na2vs0mg"},{"bike_id":"87bbda1f-0db0-4d79-a046-a87b5e94995a","system_id":"levelo_inurba_marseille","lat":43.2415,"lon":5.36423,"is_reserved":false,"is_disabled":false,"rental_uris":{"android":"levelo://app?vid=87bbda1f-0db0-4d79-a046-a87b5e94995a","ios":"levelo://app?vid=87bbda1f-0db0-4d79-a046-a87b5e94995a"},"vehicle_type_id":"4","last_reported":1740427870,"current_range_meters":8800,"station_id":"cpo36qri1sfpv3e86is0","pricing_plan_id":"cebpf4jnsgd1na2vs0mg"},{"bike_id":"fdf8b5f8-56fb-47df-8a62-b41412a1ff6a","system_id":"levelo_inurba_marseille","lat":43.28356,"lon":5.38097,"is_reserved":false,"is_disabled":false,"rental_uris":{"android":"levelo://app?vid=fdf8b5f8-56fb-47df-8a62-b41412a1ff6a","ios":"levelo://app?vid=fdf8b5f8-56fb-47df-8a62-b41412a1ff6a"},"vehicle_type_id":"4","last_reported":1740427870,"current_range_meters":13600,"station_id":"ce4bh412rcd13ifvqdr0","pricing_plan_id":"cebpf4jnsgd1na2vs0mg"},{"bike_id":"f139f0af-c7e7-43ab-8141-187d3fbf1bc6","system_id":"levelo_inurba_marseille","lat":43.29194,"lon":5.39323,"is_reserved":false,"is_disabled":false,"rental_uris":{"android":"levelo://app?vid=f139f0af-c7e7-43ab-8141-187d3fbf1bc6","ios":"levelo://app?vid=f139f0af-c7e7-43ab-8141-187d3fbf1bc6"},"vehicle_type_id":"4","last_reported":1740427870,"current_range_meters":8400,"station_id":"ce4bh192rcd13ifvqdd0","pricing_plan_id":"cebpf4jnsgd1na2vs0mg"},{"bike_id":"2ce5a7a3-ebc5-4542-8581-83c42fa52a52","system_id":"levelo_inurba_marseille","lat":43.30955,"lon":5.39038,"is_reserved":false,"is_disabled":true,"rental_uris":{"android":"levelo://app?vid=2ce5a7a3-ebc5-4542-8581-83c42fa52a52","ios":"levelo://app?vid=2ce5a7a3-ebc5-4542-8581-83c42fa52a52"},"vehicle_type_id":"4","last_reported":1740427870,"current_range_meters":8400,"station_id":"ce4bgup2rcd13ifvqco0","pricing_plan_id":"cebpf4jnsgd1na2vs0mg"},{"bike_id":"b21c77a5-e540-4cda-8ea5-f87eb6cea310","system_id":"levelo_inurba_marseille","lat":43.29286,"lon":5.37461,"is_reserved":false,"is_disabled":true,"rental_uris":{"android":"levelo://app?vid=b21c77a5-e540-4cda-8ea5-f87eb6cea310","ios":"levelo://app?vid=b21c77a5-e540-4cda-8ea5-f87eb6cea310"},"vehicle_type_id":"4","last_reported":1740427870,"current_range_meters":8400,"station_id":"ce4bgi12rcd13ifvqb70","pricing_plan_id":"cebpf4jnsgd1na2vs0mg"},{"bike_id":"d5a5b1cf-8def-4209-b638-317902f7a0c1","system_id":"levelo_inurba_marseille","lat":43.27998,"lon":5.40018,"is_reserved":false,"is_disabled":false,"rental_uris":{"android":"levelo://app?vid=d5a5b1cf-8def-4209-b638-317902f7a0c1","ios":"levelo://app?vid=d5a5b1cf-8def-4209-b638-317902f7a0c1"},"vehicle_type_id":"4","last_reported":1740427870,"current_range_meters":8400,"station_id":"ce4bho92rcd13ifvqh4g","pricing_plan_id":"cebpf4jnsgd1na2vs0mg"},{"bike_id":"2cb7d57a-765c-43a5-a974-f0405a9bc842","system_id":"levelo_inurba_marseille","lat":43.302474,"lon":5.400748,"is_reserved":false,"is_disabled":false,"rental_uris":{"android":"levelo://app?vid=2cb7d57a-765c-43a5-a974-f0405a9bc842","ios":"levelo://app?vid=2cb7d57a-765c-43a5-a974-f0405a9bc842"},"vehicle_type_id":"4","last_reported":1740427870,"current_range_meters":8400,"station_id":"ce4bgvh2rcd13ifvqcs0","pricing_plan_id":"cebpf4jnsgd1na2vs0mg"},{"bike_id":"4c676afd-aabb-48c7-9c62-f89205cd3f4a","system_id":"levelo_inurba_marseille","lat":43.27806,"lon":5.4072,"is_reserved":false,"is_disabled":false,"rental_uris":{"android":"levelo://app?vid=4c676afd-aabb-48c7-9c62-f89205cd3f4a","ios":"levelo://app?vid=4c676afd-aabb-48c7-9c62-f89205cd3f4a"},"vehicle_type_id":"4","last_reported":1740427870,"current_range_meters":8400,"station_id":"ce4bhnh2rcd13ifvqgtg","pricing_plan_id":"cebpf4jnsgd1na2vs0mg"},{"bike_id":"7e26a3e9-4c57-4918-aa17-698a0ce4ac78","system_id":"levelo_inurba_marseille","lat":43.30619,"lon":5.37504,"is_reserved":false,"is_disabled":false,"rental_uris":{"android":"levelo://app?vid=7e26a3e9-4c57-4918-aa17-698a0ce4ac78","ios":"levelo://app?vid=7e26a3e9-4c57-4918-aa17-698a0ce4ac78"},"vehicle_type_id":"4","last_reported":1740427870,"current_range_meters":8400,"station_id":"","pricing_plan_id":"cebpf4jnsgd1na2vs0mg"},{"bike_id":"17da1feb-9abe-4e1d-9544-5a842d8f1b8a","system_id":"levelo_inurba_marseille","lat":43.27823,"lon":5.40727,"is_reserved":false,"is_disabled":false,"rental_uris":{"android":"levelo://app?vid=17da1feb-9abe-4e1d-9544-5a842d8f1b8a","ios":"levelo://app?vid=17da1feb-9abe-4e1d-9544-5a842d8f1b8a"},"vehicle_type_id":"4","last_reported":1740427870,"current_range_meters":8400,"station_id":"ce4bhnh2rcd13ifvqgtg","pricing_plan_id":"cebpf4jnsgd1na2vs0mg"},{"bike_id":"5f618fd8-4c1d-4b98-9d96-80413e9c5e2b","system_id":"levelo_inurba_marseille","lat":43.3234,"lon":5.40632,"is_reserved":false,"is_disabled":true,"rental_uris":{"android":"levelo://app?vid=5f618fd8-4c1d-4b98-9d96-80413e9c5e2b","ios":"levelo://app?vid=5f618fd8-4c1d-4b98-9d96-80413e9c5e2b"},"vehicle_type_id":"4","last_reported":1740427870,"current_range_meters":8800,"station_id":"ce4bhq92rcd13ifvqhjg","pricing_plan_id":"cebpf4jnsgd1na2vs0mg"},{"bike_id":"bd1c9204-109d-453d-a655-cc2878aad0c5","system_id":"levelo_inurba_marseille","lat":43.29905,"lon":5.43668,"is_reserved":false,"is_disabled":false,"rental_uris":{"android":"levelo://app?vid=bd1c9204-109d-453d-a655-cc2878aad0c5","ios":"levelo://app?vid=bd1c9204-109d-453d-a655-cc2878aad0c5"},"vehicle_type_id":"4","last_reported":1740427870,"current_range_meters":8800,"station_id":"ce4bhpp2rcd13ifvqhfg","pricing_plan_id":"cebpf4jnsgd1na2vs0mg"},{"bike_id":"f3e30e62-56b7-4bd0-8b4e-2aa90ccf661c","system_id":"levelo_inurba_marseille","lat":43.32974,"lon":5.39166,"is_reserved":false,"is_disabled":false,"rental_uris":{"android":"levelo://app?vid=f3e30e62-56b7-4bd0-8b4e-2aa90ccf661c","ios":"levelo://app?vid=f3e30e62-56b7-4bd0-8b4e-2aa90ccf661c"},"vehicle_type_id":"4","last_reported":1740427870,"current_range_meters":8800,"station_id":"","pricing_plan_id":"cebpf4jnsgd1na2vs0mg"},{"bike_id":"f80a79d6-1c74-4e76-8ed2-23203ade1d35","system_id":"levelo_inurba_marseille","lat":43.278143,"lon":5.407124,"is_reserved":false,"is_disabled":false,"rental_uris":{"android":"levelo://app?vid=f80a79d6-1c74-4e76-8ed2-23203ade1d35","ios":"levelo://app?vid=f80a79d6-1c74-4e76-8ed2-23203ade1d35"},"vehicle_type_id":"4","last_reported":1740427870,"current_range_meters":8800,"station_id":"ce4bhnh2rcd13ifvqgtg","pricing_plan_id":"cebpf4jnsgd1na2vs0mg"},{"bike_id":"216bb77f-c769-4011-8970-e66d63254aa2","system_id":"levelo_inurba_marseille","lat":43.29898,"lon":5.37835,"is_reserved":false,"is_disabled":false,"rental_uris":{"android":"levelo://app?vid=216bb77f-c769-4011-8970-e66d63254aa2","ios":"levelo://app?vid=216bb77f-c769-4011-8970-e66d63254aa2"},"vehicle_type_id":"4","last_reported":1740427870,"current_range_meters":8800,"station_id":"","pricing_plan_id":"cebpf4jnsgd1na2vs0mg"},{"bike_id":"32094923-0451-41c4-92eb-0df62740ff3a","system_id":"levelo_inurba_marseille","lat":43.29109,"lon":5.38155,"is_reserved":false,"is_disabled":false,"rental_uris":{"android":"levelo://app?vid=32094923-0451-41c4-92eb-0df62740ff3a","ios":"levelo://app?vid=32094923-0451-41c4-92eb-0df62740ff3a"},"vehicle_type_id":"4","last_reported":1740427870,"current_range_meters":8800,"station_id":"ce4bh512rcd13ifvqe2g","pricing_plan_id":"cebpf4jnsgd1na2vs0mg"},{"bike_id":"99e11aa5-2a69-4b97-b202-0544f0eb0875","system_id":"levelo_inurba_marseille","lat":43.27998,"lon":5.41654,"is_reserved":false,"is_disabled":false,"rental_uris":{"android":"levelo://app?vid=99e11aa5-2a69-4b97-b202-0544f0eb0875","ios":"levelo://app?vid=99e11aa5-2a69-4b97-b202-0544f0eb0875"},"vehicle_type_id":"4","last_reported":1740427870,"current_range_meters":8800,"station_id":"ce4bho12rcd13ifvqh1g","pricing_plan_id":"cebpf4jnsgd1na2vs0mg"},{"bike_id":"838cbc23-851d-4061-951a-ef34293e55b4","system_id":"levelo_inurba_marseille","lat":43.30355,"lon":5.41881,"is_reserved":false,"is_disabled":false,"rental_uris":{"android":"levelo://app?vid=838cbc23-851d-4061-951a-ef34293e55b4","ios":"levelo://app?vid=838cbc23-851d-4061-951a-ef34293e55b4"},"vehicle_type_id":"4","last_reported":1740427870,"current_range_meters":6800,"station_id":"ce4bhop2rcd13ifvqh7g","pricing_plan_id":"cebpf4jnsgd1na2vs0mg"},{"bike_id":"5b7b3143-c922-4b62-9780-1c8638559b87","system_id":"levelo_inurba_marseille","lat":43.31658,"lon":5.39614,"is_reserved":false,"is_disabled":false,"rental_uris":{"android":"levelo://app?vid=5b7b3143-c922-4b62-9780-1c8638559b87","ios":"levelo://app?vid=5b7b3143-c922-4b62-9780-1c8638559b87"},"vehicle_type_id":"4","last_reported":1740427870,"current_range_meters":5600,"station_id":"","pricing_plan_id":"cebpf4jnsgd1na2vs0mg"},{"bike_id":"0fb91322-5e5f-4a3d-9459-f51d2c869552","system_id":"levelo_inurba_marseille","lat":43.28104,"lon":5.37853,"is_reserved":false,"is_disabled":false,"rental_uris":{"android":"levelo://app?vid=0fb91322-5e5f-4a3d-9459-f51d2c869552","ios":"levelo://app?vid=0fb91322-5e5f-4a3d-9459-f51d2c869552"},"vehicle_type_id":"4","last_reported":1740427870,"current_range_meters":11200,"station_id":"ce4bha12rcd13ifvqee0","pricing_plan_id":"cebpf4jnsgd1na2vs0mg"},{"bike_id":"74ea3a4d-f387-4a53-9c1d-7c7cb9d3ad0e","system_id":"levelo_inurba_marseille","lat":43.29889,"lon":5.38894,"is_reserved":false,"is_disabled":false,"rental_uris":{"android":"levelo://app?vid=74ea3a4d-f387-4a53-9c1d-7c7cb9d3ad0e","ios":"levelo://app?vid=74ea3a4d-f387-4a53-9c1d-7c7cb9d3ad0e"},"vehicle_type_id":"4","last_reported":1740427870,"current_range_meters":9200,"station_id":"ce4bh392rcd13ifvqdl0","pricing_plan_id":"cebpf4jnsgd1na2vs0mg"},{"bike_id":"bd6d7fc7-5342-4175-83d2-79c1a28fd998","system_id":"levelo_inurba_marseille","lat":43.28152,"lon":5.42651,"is_reserved":false,"is_disabled":false,"rental_uris":{"android":"levelo://app?vid=bd6d7fc7-5342-4175-83d2-79c1a28fd998","ios":"levelo://app?vid=bd6d7fc7-5342-4175-83d2-79c1a28fd998"},"vehicle_type_id":"4","last_reported":1740427870,"current_range_meters":9200,"station_id":"ce4bhnh2rcd13ifvqgug","pricing_plan_id":"cebpf4jnsgd1na2vs0mg"},{"bike_id":"56b367f3-0952-4c21-b496-4f5a14b839e4","system_id":"levelo_inurba_marseille","lat":43.2512,"lon":5.40319,"is_reserved":false,"is_disabled":false,"rental_uris":{"android":"levelo://app?vid=56b367f3-0952-4c21-b496-4f5a14b839e4","ios":"levelo://app?vid=56b367f3-0952-4c21-b496-4f5a14b839e4"},"vehicle_type_id":"4","last_reported":1740427870,"current_range_meters":9600,"station_id":"ce4bhlh2rcd13ifvqgig","pricing_plan_id":"cebpf4jnsgd1na2vs0mg"},{"bike_id":"54bdd379-6e67-4669-a3da-6fd10d7eee89","system_id":"levelo_inurba_marseille","lat":43.2885,"lon":5.35856,"is_reserved":false,"is_disabled":false,"rental_uris":{"android":"levelo://app?vid=54bdd379-6e67-4669-a3da-6fd10d7eee89","ios":"levelo://app?vid=54bdd379-6e67-4669-a3da-6fd10d7eee89"},"vehicle_type_id":"4","last_reported":1740427870,"current_range_meters":11200,"station_id":"ce4bhb12rcd13ifvqem0","pricing_plan_id":"cebpf4jnsgd1na2vs0mg"},{"bike_id":"43283546-0c6f-4116-b0be-3b4e91fa7c5f","system_id":"levelo_inurba_marseille","lat":43.29406,"lon":5.38486,"is_reserved":false,"is_disabled":false,"rental_uris":{"android":"levelo://app?vid=43283546-0c6f-4116-b0be-3b4e91fa7c5f","ios":"levelo://app?vid=43283546-0c6f-4116-b0be-3b4e91fa7c5f"},"vehicle_type_id":"4","last_reported":1740427870,"current_range_meters":9200,"station_id":"","pricing_plan_id":"cebpf4jnsgd1na2vs0mg"},{"bike_id":"f5e523f2-246d-474c-808f-a050215d7059","system_id":"levelo_inurba_marseille","lat":43.23193,"lon":5.35554,"is_reserved":false,"is_disabled":false,"rental_uris":{"android":"levelo://app?vid=f5e523f2-246d-474c-808f-a050215d7059","ios":"levelo://app?vid=f5e523f2-246d-474c-808f-a050215d7059"},"vehicle_type_id":"4","last_reported":1740427870,"current_range_meters":9600,"station_id":"ce4bhu92rcd13ifvqi70","pricing_plan_id":"cebpf4jnsgd1na2vs0mg"},{"bike_id":"11cd2877-68ae-41a2-a08a-17ff4cae18f6","system_id":"levelo_inurba_marseille","lat":43.25575,"lon":5.38228,"is_reserved":false,"is_disabled":false,"rental_uris":{"android":"levelo://app?vid=11cd2877-68ae-41a2-a08a-17ff4cae18f6","ios":"levelo://app?vid=11cd2877-68ae-41a2-a08a-17ff4cae18f6"},"vehicle_type_id":"4","last_reported":1740427870,"current_range_meters":9600,"station_id":"ce4bhih2rcd13ifvqfs0","pricing_plan_id":"cebpf4jnsgd1na2vs0mg"},{"bike_id":"2c79d0e9-b47c-4e9e-90d0-9d0bb000588f","system_id":"levelo_inurba_marseille","lat":43.29515,"lon":5.39413,"is_reserved":false,"is_disabled":false,"rental_uris":{"android":"levelo://app?vid=2c79d0e9-b47c-4e9e-90d0-9d0bb000588f","ios":"levelo://app?vid=2c79d0e9-b47c-4e9e-90d0-9d0bb000588f"},"vehicle_type_id":"4","last_reported":1740427870,"current_range_meters":9600,"station_id":"ce4bh292rcd13ifvqdf0","pricing_plan_id":"cebpf4jnsgd1na2vs0mg"},{"bike_id":"8788e12a-f05c-45b2-9570-f7c7ac9b560c","system_id":"levelo_inurba_marseille","lat":43.27953,"lon":5.41012,"is_reserved":false,"is_disabled":false,"rental_uris":{"android":"levelo://app?vid=8788e12a-f05c-45b2-9570-f7c7ac9b560c","ios":"levelo://app?vid=8788e12a-f05c-45b2-9570-f7c7ac9b560c"},"vehicle_type_id":"4","last_reported":1740427870,"current_range_meters":9600,"station_id":"ce4bhnp2rcd13ifvqh0g","pricing_plan_id":"cebpf4jnsgd1na2vs0mg"},{"bike_id":"c31330c5-97ae-498d-ae41-a0306e72b8d1","system_id":"levelo_inurba_marseille","lat":43.28401,"lon":5.37534,"is_reserved":false,"is_disabled":false,"rental_uris":{"android":"levelo://app?vid=c31330c5-97ae-498d-ae41-a0306e72b8d1","ios":"levelo://app?vid=c31330c5-97ae-498d-ae41-a0306e72b8d1"},"vehicle_type_id":"4","last_reported":1740427870,"current_range_meters":10000,"station_id":"ce4bh412rcd13ifvqds0","pricing_plan_id":"cebpf4jnsgd1na2vs0mg"},{"bike_id":"74cddf93-1fa4-4837-a2dc-07fb47f307a3","system_id":"levelo_inurba_marseille","lat":43.29033,"lon":5.38644,"is_reserved":false,"is_disabled":false,"rental_uris":{"android":"levelo://app?vid=74cddf93-1fa4-4837-a2dc-07fb47f307a3","ios":"levelo://app?vid=74cddf93-1fa4-4837-a2dc-07fb47f307a3"},"vehicle_type_id":"4","last_reported":1740427870,"current_range_meters":10000,"station_id":"ce4bh4p2rcd13ifvqe0g","pricing_plan_id":"cebpf4jnsgd1na2vs0mg"},{"bike_id":"e49232ce-36e0-478c-a319-bb8d76abfc7f","system_id":"levelo_inurba_marseille","lat":43.29711,"lon":5.36577,"is_reserved":false,"is_disabled":false,"rental_uris":{"android":"levelo://app?vid=e49232ce-36e0-478c-a319-bb8d76abfc7f","ios":"levelo://app?vid=e49232ce-36e0-478c-a319-bb8d76abfc7f"},"vehicle_type_id":"4","last_reported":1740427870,"current_range_meters":10000,"station_id":"ce4bgn12rcd13ifvqbt0","pricing_plan_id":"cebpf4jnsgd1na2vs0mg"},{"bike_id":"44a26479-5e14-41e7-8403-4cb654b4fceb","system_id":"levelo_inurba_marseille","lat":43.29703,"lon":5.36626,"is_reserved":false,"is_disabled":false,"rental_uris":{"android":"levelo://app?vid=44a26479-5e14-41e7-8403-4cb654b4fceb","ios":"levelo://app?vid=44a26479-5e14-41e7-8403-4cb654b4fceb"},"vehicle_type_id":"4","last_reported":1740427870,"current_range_meters":10000,"station_id":"ce4bgn12rcd13ifvqbt0","pricing_plan_id":"cebpf4jnsgd1na2vs0mg"},{"bike_id":"b72264de-d072-4c80-b404-f4b5240a1b06","system_id":"levelo_inurba_marseille","lat":43.29536,"lon":5.38533,"is_reserved":false,"is_disabled":false,"rental_uris":{"android":"levelo://app?vid=b72264de-d072-4c80-b404-f4b5240a1b06","ios":"levelo://app?vid=b72264de-d072-4c80-b404-f4b5240a1b06"},"vehicle_type_id":"4","last_reported":1740427870,"current_range_meters":10000,"station_id":"ce4bgih2rcd13ifvqba0","pricing_plan_id":"cebpf4jnsgd1na2vs0mg"},{"bike_id":"a03f1e5c-6ee2-493b-8528-d8322245ef54","system_id":"levelo_inurba_marseille","lat":43.27916,"lon":5.39578,"is_reserved":false,"is_disabled":false,"rental_uris":{"android":"levelo://app?vid=a03f1e5c-6ee2-493b-8528-d8322245ef54","ios":"levelo://app?vid=a03f1e5c-6ee2-493b-8528-d8322245ef54"},"vehicle_type_id":"4","last_reported":1740427870,"current_range_meters":10000,"station_id":"ce4bhf92rcd13ifvqf40","pricing_plan_id":"cebpf4jnsgd1na2vs0mg"},{"bike_id":"446313c8-37fc-4f36-b9c3-a1d481dfb62b","system_id":"levelo_inurba_marseille","lat":43.26837,"lon":5.41134,"is_reserved":false,"is_disabled":false,"rental_uris":{"android":"levelo://app?vid=446313c8-37fc-4f36-b9c3-a1d481dfb62b","ios":"levelo://app?vid=446313c8-37fc-4f36-b9c3-a1d481dfb62b"},"vehicle_type_id":"4","last_reported":1740427870,"current_range_meters":10800,"station_id":"","pricing_plan_id":"cebpf4jnsgd1na2vs0mg"},{"bike_id":"ae9b3dbc-3097-4009-8f5c-e3f39bbb950c","system_id":"levelo_inurba_marseille","lat":43.29551,"lon":5.42283,"is_reserved":false,"is_disabled":false,"rental_uris":{"android":"levelo://app?vid=ae9b3dbc-3097-4009-8f5c-e3f39bbb950c","ios":"levelo://app?vid=ae9b3dbc-3097-4009-8f5c-e3f39bbb950c"},"vehicle_type_id":"4","last_reported":1740427870,"current_range_meters":11200,"station_id":"ce4bhph2rcd13ifvqhdg","pricing_plan_id":"cebpf4jnsgd1na2vs0mg"},{"bike_id":"2a7f643d-ca75-4fb9-a512-c92fa3bc22ba","system_id":"levelo_inurba_marseille","lat":43.28013,"lon":5.39997,"is_reserved":false,"is_disabled":false,"rental_uris":{"android":"levelo://app?vid=2a7f643d-ca75-4fb9-a512-c92fa3bc22ba","ios":"levelo://app?vid=2a7f643d-ca75-4fb9-a512-c92fa3bc22ba"},"vehicle_type_id":"4","last_reported":1740427870,"current_range_meters":10800,"station_id":"ce4bho92rcd13ifvqh4g","pricing_plan_id":"cebpf4jnsgd1na2vs0mg"},{"bike_id":"f788bb2d-32a0-4899-888c-a7e94d7b4b8b","system_id":"levelo_inurba_marseille","lat":43.29887,"lon":5.38894,"is_reserved":false,"is_disabled":false,"rental_uris":{"android":"levelo://app?vid=f788bb2d-32a0-4899-888c-a7e94d7b4b8b","ios":"levelo://app?vid=f788bb2d-32a0-4899-888c-a7e94d7b4b8b"},"vehicle_type_id":"4","last_reported":1740427870,"current_range_meters":10800,"station_id":"ce4bh392rcd13ifvqdl0","pricing_plan_id":"cebpf4jnsgd1na2vs0mg"},{"bike_id":"d525ca76-caa8-4a03-90d9-340115dcba41","system_id":"levelo_inurba_marseille","lat":43.29881,"lon":5.389,"is_reserved":false,"is_disabled":false,"rental_uris":{"android":"levelo://app?vid=d525ca76-caa8-4a03-90d9-340115dcba41","ios":"levelo://app?vid=d525ca76-caa8-4a03-90d9-340115dcba41"},"vehicle_type_id":"4","last_reported":1740427870,"current_range_meters":10800,"station_id":"ce4bh392rcd13ifvqdl0","pricing_plan_id":"cebpf4jnsgd1na2vs0mg"},{"bike_id":"7e0d8977-0d5b-416e-a581-3528048b4a43","system_id":"levelo_inurba_marseille","lat":43.32476,"lon":5.36572,"is_reserved":false,"is_disabled":false,"rental_uris":{"android":"levelo://app?vid=7e0d8977-0d5b-416e-a581-3528048b4a43","ios":"levelo://app?vid=7e0d8977-0d5b-416e-a581-3528048b4a43"},"vehicle_type_id":"4","last_reported":1740427870,"current_range_meters":10800,"station_id":"ce4bhs12rcd13ifvqhvg","pricing_plan_id":"cebpf4jnsgd1na2vs0mg"},{"bike_id":"25bb617c-23e3-460d-8a6a-13de43dc25bf","system_id":"levelo_inurba_marseille","lat":43.29512,"lon":5.39408,"is_reserved":false,"is_disabled":false,"rental_uris":{"android":"levelo://app?vid=25bb617c-23e3-460d-8a6a-13de43dc25bf","ios":"levelo://app?vid=25bb617c-23e3-460d-8a6a-13de43dc25bf"},"vehicle_type_id":"4","last_reported":1740427870,"current_range_meters":10800,"station_id":"ce4bh292rcd13ifvqdf0","pricing_plan_id":"cebpf4jnsgd1na2vs0mg"},{"bike_id":"60b558e9-c2ce-4e57-905e-a11156fb05d2","system_id":"levelo_inurba_marseille","lat":43.29884,"lon":5.38915,"is_reserved":false,"is_disabled":false,"rental_uris":{"android":"levelo://app?vid=60b558e9-c2ce-4e57-905e-a11156fb05d2","ios":"levelo://app?vid=60b558e9-c2ce-4e57-905e-a11156fb05d2"},"vehicle_type_id":"4","last_reported":1740427870,"current_range_meters":10800,"station_id":"ce4bh392rcd13ifvqdl0","pricing_plan_id":"cebpf4jnsgd1na2vs0mg"},{"bike_id":"1a0b050f-f33f-48d2-9894-613d93a341cc","system_id":"levelo_inurba_marseille","lat":43.23192,"lon":5.39987,"is_reserved":false,"is_disabled":false,"rental_uris":{"android":"levelo://app?vid=1a0b050f-f33f-48d2-9894-613d93a341cc","ios":"levelo://app?vid=1a0b050f-f33f-48d2-9894-613d93a341cc"},"vehicle_type_id":"4","last_reported":1740427870,"current_range_meters":11200,"station_id":"ce4bhn12rcd13ifvqgqg","pricing_plan_id":"cebpf4jnsgd1na2vs0mg"},{"bike_id":"19a8f35e-59c5-4bff-a8e1-1e0d52f1d0ca","system_id":"levelo_inurba_marseille","lat":43.28439,"lon":5.39183,"is_reserved":false,"is_disabled":false,"rental_uris":{"android":"levelo://app?vid=19a8f35e-59c5-4bff-a8e1-1e0d52f1d0ca","ios":"levelo://app?vid=19a8f35e-59c5-4bff-a8e1-1e0d52f1d0ca"},"vehicle_type_id":"4","last_reported":1740427870,"current_range_meters":11200,"station_id":"ce4bhoh2rcd13ifvqh5g","pricing_plan_id":"cebpf4jnsgd1na2vs0mg"},{"bike_id":"634d867d-e3c0-4a4a-b901-1c16de17e039","system_id":"levelo_inurba_marseille","lat":43.26946,"lon":5.40245,"is_reserved":false,"is_disabled":false,"rental_uris":{"android":"levelo://app?vid=634d867d-e3c0-4a4a-b901-1c16de17e039","ios":"levelo://app?vid=634d867d-e3c0-4a4a-b901-1c16de17e039"},"vehicle_type_id":"4","last_reported":1740427870,"current_range_meters":11200,"station_id":"cjm6bp8fraef2m0cb0m0","pricing_plan_id":"cebpf4jnsgd1na2vs0mg"},{"bike_id":"a60afddc-3823-42ce-add8-6667041ce07b","system_id":"levelo_inurba_marseille","lat":43.28924,"lon":5.36634,"is_reserved":false,"is_disabled":false,"rental_uris":{"android":"levelo://app?vid=a60afddc-3823-42ce-add8-6667041ce07b","ios":"levelo://app?vid=a60afddc-3823-42ce-add8-6667041ce07b"},"vehicle_type_id":"4","last_reported":1740427870,"current_range_meters":11200,"station_id":"ce4bhap2rcd13ifvqek0","pricing_plan_id":"cebpf4jnsgd1na2vs0mg"},{"bike_id":"7cbe92d9-d0f5-4fe2-b61c-1266d7aa9e2d","system_id":"levelo_inurba_marseille","lat":43.27992,"lon":5.40014,"is_reserved":false,"is_disabled":false,"rental_uris":{"android":"levelo://app?vid=7cbe92d9-d0f5-4fe2-b61c-1266d7aa9e2d","ios":"levelo://app?vid=7cbe92d9-d0f5-4fe2-b61c-1266d7aa9e2d"},"vehicle_type_id":"4","last_reported":1740427870,"current_range_meters":11600,"station_id":"ce4bho92rcd13ifvqh4g","pricing_plan_id":"cebpf4jnsgd1na2vs0mg"},{"bike_id":"d6e9473b-dc2e-415e-a49b-32762a351f28","system_id":"levelo_inurba_marseille","lat":43.28858,"lon":5.35852,"is_reserved":false,"is_disabled":false,"rental_uris":{"android":"levelo://app?vid=d6e9473b-dc2e-415e-a49b-32762a351f28","ios":"levelo://app?vid=d6e9473b-dc2e-415e-a49b-32762a351f28"},"vehicle_type_id":"4","last_reported":1740427870,"current_range_meters":11600,"station_id":"ce4bhb12rcd13ifvqem0","pricing_plan_id":"cebpf4jnsgd1na2vs0mg"},{"bike_id":"e37ffcf5-bb0c-47f5-a826-7f04d919fa4b","system_id":"levelo_inurba_marseille","lat":43.28455,"lon":5.35893,"is_reserved":false,"is_disabled":false,"rental_uris":{"android":"levelo://app?vid=e37ffcf5-bb0c-47f5-a826-7f04d919fa4b","ios":"levelo://app?vid=e37ffcf5-bb0c-47f5-a826-7f04d919fa4b"},"vehicle_type_id":"4","last_reported":1740427870,"current_range_meters":11600,"station_id":"ce4bhah2rcd13ifvqei0","pricing_plan_id":"cebpf4jnsgd1na2vs0mg"},{"bike_id":"ce08e129-3210-4784-8e00-3661099c392d","system_id":"levelo_inurba_marseille","lat":43.29903,"lon":5.43668,"is_reserved":false,"is_disabled":false,"rental_uris":{"android":"levelo://app?vid=ce08e129-3210-4784-8e00-3661099c392d","ios":"levelo://app?vid=ce08e129-3210-4784-8e00-3661099c392d"},"vehicle_type_id":"4","last_reported":1740427870,"current_range_meters":11600,"station_id":"ce4bhpp2rcd13ifvqhfg","pricing_plan_id":"cebpf4jnsgd1na2vs0mg"},{"bike_id":"0f2b7d90-1a6b-440b-a341-2e440900f3d4","system_id":"levelo_inurba_marseille","lat":43.28941,"lon":5.3663,"is_reserved":false,"is_disabled":false,"rental_uris":{"android":"levelo://app?vid=0f2b7d90-1a6b-440b-a341-2e440900f3d4","ios":"levelo://app?vid=0f2b7d90-1a6b-440b-a341-2e440900f3d4"},"vehicle_type_id":"4","last_reported":1740427870,"current_range_meters":11600,"station_id":"ce4bhap2rcd13ifvqek0","pricing_plan_id":"cebpf4jnsgd1na2vs0mg"},{"bike_id":"860fbfeb-5bae-4548-8e91-5df9f4b250ab","system_id":"levelo_inurba_marseille","lat":43.28143,"lon":5.42668,"is_reserved":false,"is_disabled":false,"rental_uris":{"android":"levelo://app?vid=860fbfeb-5bae-4548-8e91-5df9f4b250ab","ios":"levelo://app?vid=860fbfeb-5bae-4548-8e91-5df9f4b250ab"},"vehicle_type_id":"4","last_reported":1740427870,"current_range_meters":11600,"station_id":"ce4bhnh2rcd13ifvqgug","pricing_plan_id":"cebpf4jnsgd1na2vs0mg"},{"bike_id":"0d86b6de-ddbd-4bbb-9bf1-ef0af2e74c96","system_id":"levelo_inurba_marseille","lat":43.26817,"lon":5.40257,"is_reserved":false,"is_disabled":false,"rental_uris":{"android":"levelo://app?vid=0d86b6de-ddbd-4bbb-9bf1-ef0af2e74c96","ios":"levelo://app?vid=0d86b6de-ddbd-4bbb-9bf1-ef0af2e74c96"},"vehicle_type_id":"4","last_reported":1740427870,"current_range_meters":11600,"station_id":"ce501612rcd8frsf0b60","pricing_plan_id":"cebpf4jnsgd1na2vs0mg"},{"bike_id":"054a8c13-e003-4a19-8213-3d429c22f36e","system_id":"levelo_inurba_marseille","lat":43.24152,"lon":5.36412,"is_reserved":false,"is_disabled":false,"rental_uris":{"android":"levelo://app?vid=054a8c13-e003-4a19-8213-3d429c22f36e","ios":"levelo://app?vid=054a8c13-e003-4a19-8213-3d429c22f36e"},"vehicle_type_id":"4","last_reported":1740427870,"current_range_meters":12000,"station_id":"cpo36qri1sfpv3e86is0","pricing_plan_id":"cebpf4jnsgd1na2vs0mg"},{"bike_id":"7017dd5d-52f3-4f63-b9b0-ffdb8d04bba3","system_id":"levelo_inurba_marseille","lat":43.29712,"lon":5.38431,"is_reserved":false,"is_disabled":false,"rental_uris":{"android":"levelo://app?vid=7017dd5d-52f3-4f63-b9b0-ffdb8d04bba3","ios":"levelo://app?vid=7017dd5d-52f3-4f63-b9b0-ffdb8d04bba3"},"vehicle_type_id":"4","last_reported":1740427870,"current_range_meters":12000,"station_id":"","pricing_plan_id":"cebpf4jnsgd1na2vs0mg"},{"bike_id":"cafd7f33-9808-404a-b6af-22e15a18d7e0","system_id":"levelo_inurba_marseille","lat":43.290454,"lon":5.359138,"is_reserved":false,"is_disabled":false,"rental_uris":{"android":"levelo://app?vid=cafd7f33-9808-404a-b6af-22e15a18d7e0","ios":"levelo://app?vid=cafd7f33-9808-404a-b6af-22e15a18d7e0"},"vehicle_type_id":"4","last_reported":1740427870,"current_range_meters":12400,"station_id":"ce4bha92rcd13ifvqeg0","pricing_plan_id":"cebpf4jnsgd1na2vs0mg"},{"bike_id":"6b1795cd-5f7d-425e-a877-938e7267b66a","system_id":"levelo_inurba_marseille","lat":43.29192,"lon":5.39314,"is_reserved":false,"is_disabled":false,"rental_uris":{"android":"levelo://app?vid=6b1795cd-5f7d-425e-a877-938e7267b66a","ios":"levelo://app?vid=6b1795cd-5f7d-425e-a877-938e7267b66a"},"vehicle_type_id":"4","last_reported":1740427870,"current_range_meters":12400,"station_id":"ce4bh192rcd13ifvqdd0","pricing_plan_id":"cebpf4jnsgd1na2vs0mg"},{"bike_id":"c8ac5d5c-ac5b-42a0-b37c-1ee0be279889","system_id":"levelo_inurba_marseille","lat":43.28854,"lon":5.3587,"is_reserved":false,"is_disabled":false,"rental_uris":{"android":"levelo://app?vid=c8ac5d5c-ac5b-42a0-b37c-1ee0be279889","ios":"levelo://app?vid=c8ac5d5c-ac5b-42a0-b37c-1ee0be279889"},"vehicle_type_id":"4","last_reported":1740427870,"current_range_meters":12400,"station_id":"ce4bhb12rcd13ifvqem0","pricing_plan_id":"cebpf4jnsgd1na2vs0mg"},{"bike_id":"c806e66a-ae05-45b4-b912-01c1e8730711","system_id":"levelo_inurba_marseille","lat":43.293023,"lon":5.371558,"is_reserved":false,"is_disabled":false,"rental_uris":{"android":"levelo://app?vid=c806e66a-ae05-45b4-b912-01c1e8730711","ios":"levelo://app?vid=c806e66a-ae05-45b4-b912-01c1e8730711"},"vehicle_type_id":"4","last_reported":1740427870,"current_range_meters":12400,"station_id":"ce4bgh92rcd13ifvqb40","pricing_plan_id":"cebpf4jnsgd1na2vs0mg"},{"bike_id":"7333f5f0-71fa-4cf2-9e94-a5d02574b956","system_id":"levelo_inurba_marseille","lat":43.28371,"lon":5.38619,"is_reserved":false,"is_disabled":false,"rental_uris":{"android":"levelo://app?vid=7333f5f0-71fa-4cf2-9e94-a5d02574b956","ios":"levelo://app?vid=7333f5f0-71fa-4cf2-9e94-a5d02574b956"},"vehicle_type_id":"4","last_reported":1740427870,"current_range_meters":12800,"station_id":"ce4bh492rcd13ifvqdvg","pricing_plan_id":"cebpf4jnsgd1na2vs0mg"},{"bike_id":"da8aae24-d77f-409d-bcac-75053e374e5e","system_id":"levelo_inurba_marseille","lat":43.293701,"lon":5.378341,"is_reserved":false,"is_disabled":false,"rental_uris":{"android":"levelo://app?vid=da8aae24-d77f-409d-bcac-75053e374e5e","ios":"levelo://app?vid=da8aae24-d77f-409d-bcac-75053e374e5e"},"vehicle_type_id":"4","last_reported":1740427870,"current_range_meters":12800,"station_id":"ce4bhph2rcd13ifvqheg","pricing_plan_id":"cebpf4jnsgd1na2vs0mg"},{"bike_id":"d630238b-e434-4009-a114-1268aae217f8","system_id":"levelo_inurba_marseille","lat":43.292023,"lon":5.393338,"is_reserved":false,"is_disabled":false,"rental_uris":{"android":"levelo://app?vid=d630238b-e434-4009-a114-1268aae217f8","ios":"levelo://app?vid=d630238b-e434-4009-a114-1268aae217f8"},"vehicle_type_id":"4","last_reported":1740427870,"current_range_meters":12800,"station_id":"ce4bh192rcd13ifvqdd0","pricing_plan_id":"cebpf4jnsgd1na2vs0mg"},{"bike_id":"5757030f-5d5e-43cd-b5d7-04ffe7a839ac","system_id":"levelo_inurba_marseille","lat":43.28845,"lon":5.35848,"is_reserved":false,"is_disabled":false,"rental_uris":{"android":"levelo://app?vid=5757030f-5d5e-43cd-b5d7-04ffe7a839ac","ios":"levelo://app?vid=5757030f-5d5e-43cd-b5d7-04ffe7a839ac"},"vehicle_type_id":"4","last_reported":1740427870,"current_range_meters":12800,"station_id":"ce4bhb12rcd13ifvqem0","pricing_plan_id":"cebpf4jnsgd1na2vs0mg"},{"bike_id":"130ab319-f673-4e36-9717-343d196c6cce","system_id":"levelo_inurba_marseille","lat":43.23184,"lon":5.39986,"is_reserved":false,"is_disabled":false,"rental_uris":{"android":"levelo://app?vid=130ab319-f673-4e36-9717-343d196c6cce","ios":"levelo://app?vid=130ab319-f673-4e36-9717-343d196c6cce"},"vehicle_type_id":"4","last_reported":1740427870,"current_range_meters":12800,"station_id":"ce4bhn12rcd13ifvqgqg","pricing_plan_id":"cebpf4jnsgd1na2vs0mg"},{"bike_id":"3fc75de2-3def-4a7c-b0c2-670a2cfd0e3b","system_id":"levelo_inurba_marseille","lat":43.29203,"lon":5.39332,"is_reserved":false,"is_disabled":false,"rental_uris":{"android":"levelo://app?vid=3fc75de2-3def-4a7c-b0c2-670a2cfd0e3b","ios":"levelo://app?vid=3fc75de2-3def-4a7c-b0c2-670a2cfd0e3b"},"vehicle_type_id":"4","last_reported":1740427870,"current_range_meters":12800,"station_id":"ce4bh192rcd13ifvqdd0","pricing_plan_id":"cebpf4jnsgd1na2vs0mg"},{"bike_id":"7ebf91f5-a3c3-42a0-8339-bfa27ae50e1a","system_id":"levelo_inurba_marseille","lat":43.29414,"lon":5.38625,"is_reserved":false,"is_disabled":false,"rental_uris":{"android":"levelo://app?vid=7ebf91f5-a3c3-42a0-8339-bfa27ae50e1a","ios":"levelo://app?vid=7ebf91f5-a3c3-42a0-8339-bfa27ae50e1a"},"vehicle_type_id":"4","last_reported":1740427870,"current_range_meters":13600,"station_id":"","pricing_plan_id":"cebpf4jnsgd1na2vs0mg"},{"bike_id":"4536875f-604a-454e-9383-c4f436e97a01","system_id":"levelo_inurba_marseille","lat":43.28088,"lon":5.3964,"is_reserved":false,"is_disabled":false,"rental_uris":{"android":"levelo://app?vid=4536875f-604a-454e-9383-c4f436e97a01","ios":"levelo://app?vid=4536875f-604a-454e-9383-c4f436e97a01"},"vehicle_type_id":"4","last_reported":1740427870,"current_range_meters":12800,"station_id":"ce4bho12rcd13ifvqh2g","pricing_plan_id":"cebpf4jnsgd1na2vs0mg"},{"bike_id":"d9a1f7ae-7837-4268-a9b4-f34563c0a14f","system_id":"levelo_inurba_marseille","lat":43.28665,"lon":5.36345,"is_reserved":false,"is_disabled":false,"rental_uris":{"android":"levelo://app?vid=d9a1f7ae-7837-4268-a9b4-f34563c0a14f","ios":"levelo://app?vid=d9a1f7ae-7837-4268-a9b4-f34563c0a14f"},"vehicle_type_id":"4","last_reported":1740427870,"current_range_meters":12800,"station_id":"ce4bhah2rcd13ifvqej0","pricing_plan_id":"cebpf4jnsgd1na2vs0mg"},{"bike_id":"674cb057-5d42-4512-ae8c-448c1f63016b","system_id":"levelo_inurba_marseille","lat":43.30362,"lon":5.39443,"is_reserved":false,"is_disabled":false,"rental_uris":{"android":"levelo://app?vid=674cb057-5d42-4512-ae8c-448c1f63016b","ios":"levelo://app?vid=674cb057-5d42-4512-ae8c-448c1f63016b"},"vehicle_type_id":"4","last_reported":1740427870,"current_range_meters":13600,"station_id":"","pricing_plan_id":"cebpf4jnsgd1na2vs0mg"},{"bike_id":"0bad05ad-939e-4072-80eb-2d68e698bd0b","system_id":"levelo_inurba_marseille","lat":43.29776,"lon":5.39356,"is_reserved":false,"is_disabled":false,"rental_uris":{"android":"levelo://app?vid=0bad05ad-939e-4072-80eb-2d68e698bd0b","ios":"levelo://app?vid=0bad05ad-939e-4072-80eb-2d68e698bd0b"},"vehicle_type_id":"4","last_reported":1740427870,"current_range_meters":13600,"station_id":"chh1huq6cuj3fo74tm60","pricing_plan_id":"cebpf4jnsgd1na2vs0mg"},{"bike_id":"0338d931-1b59-4131-9010-881f558f192e","system_id":"levelo_inurba_marseille","lat":43.2886,"lon":5.35864,"is_reserved":false,"is_disabled":false,"rental_uris":{"android":"levelo://app?vid=0338d931-1b59-4131-9010-881f558f192e","ios":"levelo://app?vid=0338d931-1b59-4131-9010-881f558f192e"},"vehicle_type_id":"4","last_reported":1740427870,"current_range_meters":13600,"station_id":"ce4bhb12rcd13ifvqem0","pricing_plan_id":"cebpf4jnsgd1na2vs0mg"},{"bike_id":"ef18fbd6-85fe-4257-aaef-cd0fcf515452","system_id":"levelo_inurba_marseille","lat":43.30322,"lon":5.4044,"is_reserved":false,"is_disabled":false,"rental_uris":{"android":"levelo://app?vid=ef18fbd6-85fe-4257-aaef-cd0fcf515452","ios":"levelo://app?vid=ef18fbd6-85fe-4257-aaef-cd0fcf515452"},"vehicle_type_id":"4","last_reported":1740427870,"current_range_meters":13600,"station_id":"ce4bh012rcd13ifvqd10","pricing_plan_id":"cebpf4jnsgd1na2vs0mg"},{"bike_id":"d90fc6d7-871e-4fc4-950b-c963063affa1","system_id":"levelo_inurba_marseille","lat":43.25108,"lon":5.39529,"is_reserved":false,"is_disabled":false,"rental_uris":{"android":"levelo://app?vid=d90fc6d7-871e-4fc4-950b-c963063affa1","ios":"levelo://app?vid=d90fc6d7-871e-4fc4-950b-c963063affa1"},"vehicle_type_id":"4","last_reported":1740427870,"current_range_meters":13600,"station_id":"ce4bhm12rcd13ifvqgkg","pricing_plan_id":"cebpf4jnsgd1na2vs0mg"},{"bike_id":"7152cafa-1634-4db9-9fd6-93705c425f63","system_id":"levelo_inurba_marseille","lat":43.32005,"lon":5.38156,"is_reserved":false,"is_disabled":false,"rental_uris":{"android":"levelo://app?vid=7152cafa-1634-4db9-9fd6-93705c425f63","ios":"levelo://app?vid=7152cafa-1634-4db9-9fd6-93705c425f63"},"vehicle_type_id":"4","last_reported":1740427870,"current_range_meters":13600,"station_id":"ce4bhr12rcd13ifvqhpg","pricing_plan_id":"cebpf4jnsgd1na2vs0mg"},{"bike_id":"e8530cd8-3a67-4743-b0bd-e60a4a4e515e","system_id":"levelo_inurba_marseille","lat":43.24411,"lon":5.37147,"is_reserved":false,"is_disabled":false,"rental_uris":{"android":"levelo://app?vid=e8530cd8-3a67-4743-b0bd-e60a4a4e515e","ios":"levelo://app?vid=e8530cd8-3a67-4743-b0bd-e60a4a4e515e"},"vehicle_type_id":"4","last_reported":1740427870,"current_range_meters":13600,"station_id":"ce4bh4p2rcd13ifvqe0g","pricing_plan_id":"cebpf4jnsgd1na2vs0mg"},{"bike_id":"d9539a63-7677-4fd2-a172-046d356a2529","system_id":"levelo_inurba_marseille","lat":43.29987,"lon":5.37158,"is_reserved":false,"is_disabled":false,"rental_uris":{"android":"levelo://app?vid=d9539a63-7677-4fd2-a172-046d356a2529","ios":"levelo://app?vid=d9539a63-7677-4fd2-a172-046d356a2529"},"vehicle_type_id":"4","last_reported":1740427870,"current_range_meters":14000,"station_id":"ce4bgr92rcd13ifvqc7g","pricing_plan_id":"cebpf4jnsgd1na2vs0mg"},{"bike_id":"ee1cc184-b471-4e01-af9a-6fb78cd696ff","system_id":"levelo_inurba_marseille","lat":43.30806,"lon":5.38149,"is_reserved":false,"is_disabled":false,"rental_uris":{"android":"levelo://app?vid=ee1cc184-b471-4e01-af9a-6fb78cd696ff","ios":"levelo://app?vid=ee1cc184-b471-4e01-af9a-6fb78cd696ff"},"vehicle_type_id":"4","last_reported":1740427870,"current_range_meters":13600,"station_id":"ce4bgt12rcd13ifvqce0","pricing_plan_id":"cebpf4jnsgd1na2vs0mg"},{"bike_id":"ce37476d-88a8-4f83-9893-e3f4fffefa17","system_id":"levelo_inurba_marseille","lat":43.29878,"lon":5.38917,"is_reserved":false,"is_disabled":false,"rental_uris":{"android":"levelo://app?vid=ce37476d-88a8-4f83-9893-e3f4fffefa17","ios":"levelo://app?vid=ce37476d-88a8-4f83-9893-e3f4fffefa17"},"vehicle_type_id":"4","last_reported":1740427870,"current_range_meters":14000,"station_id":"ce4bh392rcd13ifvqdl0","pricing_plan_id":"cebpf4jnsgd1na2vs0mg"},{"bike_id":"e5c275a2-a964-47d8-9489-ed1126cf4cef","system_id":"levelo_inurba_marseille","lat":43.29627,"lon":5.37937,"is_reserved":false,"is_disabled":false,"rental_uris":{"android":"levelo://app?vid=e5c275a2-a964-47d8-9489-ed1126cf4cef","ios":"levelo://app?vid=e5c275a2-a964-47d8-9489-ed1126cf4cef"},"vehicle_type_id":"4","last_reported":1740427870,"current_range_meters":14400,"station_id":"","pricing_plan_id":"cebpf4jnsgd1na2vs0mg"},{"bike_id":"586669f8-515b-4b4e-99dc-71379d358c44","system_id":"levelo_inurba_marseille","lat":43.28923,"lon":5.36642,"is_reserved":false,"is_disabled":false,"rental_uris":{"android":"levelo://app?vid=586669f8-515b-4b4e-99dc-71379d358c44","ios":"levelo://app?vid=586669f8-515b-4b4e-99dc-71379d358c44"},"vehicle_type_id":"4","last_reported":1740427870,"current_range_meters":14000,"station_id":"ce4bhap2rcd13ifvqek0","pricing_plan_id":"cebpf4jnsgd1na2vs0mg"},{"bike_id":"a9f238df-8d0d-4ea2-9e32-72272684dc3f","system_id":"levelo_inurba_marseille","lat":43.32347,"lon":5.38967,"is_reserved":false,"is_disabled":false,"rental_uris":{"android":"levelo://app?vid=a9f238df-8d0d-4ea2-9e32-72272684dc3f","ios":"levelo://app?vid=a9f238df-8d0d-4ea2-9e32-72272684dc3f"},"vehicle_type_id":"4","last_reported":1740427870,"current_range_meters":14400,"station_id":"ce4bhqp2rcd13ifvqhog","pricing_plan_id":"cebpf4jnsgd1na2vs0mg"},{"bike_id":"0ba7beb2-bd69-4c76-b51f-5d6b0f428287","system_id":"levelo_inurba_marseille","lat":43.28349,"lon":5.38107,"is_reserved":false,"is_disabled":false,"rental_uris":{"android":"levelo://app?vid=0ba7beb2-bd69-4c76-b51f-5d6b0f428287","ios":"levelo://app?vid=0ba7beb2-bd69-4c76-b51f-5d6b0f428287"},"vehicle_type_id":"4","last_reported":1740427870,"current_range_meters":14000,"station_id":"ce4bh412rcd13ifvqdr0","pricing_plan_id":"cebpf4jnsgd1na2vs0mg"},{"bike_id":"d2610799-3b25-4010-8a8a-a9ba4108f5fb","system_id":"levelo_inurba_marseille","lat":43.25021,"lon":5.38906,"is_reserved":false,"is_disabled":false,"rental_uris":{"android":"levelo://app?vid=d2610799-3b25-4010-8a8a-a9ba4108f5fb","ios":"levelo://app?vid=d2610799-3b25-4010-8a8a-a9ba4108f5fb"},"vehicle_type_id":"4","last_reported":1740427870,"current_range_meters":14400,"station_id":"ce4bhgp2rcd13ifvqfd0","pricing_plan_id":"cebpf4jnsgd1na2vs0mg"},{"bike_id":"666c6b12-9e12-4f3b-9e89-6b2aa26441bb","system_id":"levelo_inurba_marseille","lat":43.29266,"lon":5.38435,"is_reserved":false,"is_disabled":false,"rental_uris":{"android":"levelo://app?vid=666c6b12-9e12-4f3b-9e89-6b2aa26441bb","ios":"levelo://app?vid=666c6b12-9e12-4f3b-9e89-6b2aa26441bb"},"vehicle_type_id":"4","last_reported":1740427870,"current_range_meters":14400,"station_id":"ce4bh692rcd13ifvqea0","pricing_plan_id":"cebpf4jnsgd1na2vs0mg"},{"bike_id":"64b31661-9e5a-46b2-8f94-ad465732c441","system_id":"levelo_inurba_marseille","lat":43.23185,"lon":5.39985,"is_reserved":false,"is_disabled":false,"rental_uris":{"android":"levelo://app?vid=64b31661-9e5a-46b2-8f94-ad465732c441","ios":"levelo://app?vid=64b31661-9e5a-46b2-8f94-ad465732c441"},"vehicle_type_id":"4","last_reported":1740427870,"current_range_meters":14400,"station_id":"ce4bhn12rcd13ifvqgqg","pricing_plan_id":"cebpf4jnsgd1na2vs0mg"},{"bike_id":"29d22a29-9abf-4dc1-96d2-42754b1c2890","system_id":"levelo_inurba_marseille","lat":43.30425,"lon":5.39745,"is_reserved":false,"is_disabled":false,"rental_uris":{"android":"levelo://app?vid=29d22a29-9abf-4dc1-96d2-42754b1c2890","ios":"levelo://app?vid=29d22a29-9abf-4dc1-96d2-42754b1c2890"},"vehicle_type_id":"4","last_reported":1740427870,"current_range_meters":14400,"station_id":"ce4bh092rcd13ifvqd20","pricing_plan_id":"cebpf4jnsgd1na2vs0mg"},{"bike_id":"760eb658-016e-422a-925a-e97810424e09","system_id":"levelo_inurba_marseille","lat":43.27946,"lon":5.41046,"is_reserved":false,"is_disabled":false,"rental_uris":{"android":"levelo://app?vid=760eb658-016e-422a-925a-e97810424e09","ios":"levelo://app?vid=760eb658-016e-422a-925a-e97810424e09"},"vehicle_type_id":"4","last_reported":1740427870,"current_range_meters":14800,"station_id":"ce4bhnp2rcd13ifvqh0g","pricing_plan_id":"cebpf4jnsgd1na2vs0mg"},{"bike_id":"763a38cd-b50b-4187-a9a7-e0318d9aae60","system_id":"levelo_inurba_marseille","lat":43.2501,"lon":5.3892,"is_reserved":false,"is_disabled":false,"rental_uris":{"android":"levelo://app?vid=763a38cd-b50b-4187-a9a7-e0318d9aae60","ios":"levelo://app?vid=763a38cd-b50b-4187-a9a7-e0318d9aae60"},"vehicle_type_id":"4","last_reported":1740427870,"current_range_meters":14800,"station_id":"ce4bhgp2rcd13ifvqfd0","pricing_plan_id":"cebpf4jnsgd1na2vs0mg"},{"bike_id":"bbf369d1-ee7c-44f3-85f9-0b420810bb71","system_id":"levelo_inurba_marseille","lat":43.26573,"lon":5.38988,"is_reserved":false,"is_disabled":false,"rental_uris":{"android":"levelo://app?vid=bbf369d1-ee7c-44f3-85f9-0b420810bb71","ios":"levelo://app?vid=bbf369d1-ee7c-44f3-85f9-0b420810bb71"},"vehicle_type_id":"4","last_reported":1740427870,"current_range_meters":14800,"station_id":"ce4bhe12rcd13ifvqf30","pricing_plan_id":"cebpf4jnsgd1na2vs0mg"},{"bike_id":"ea0d3a66-f09c-46f7-8f85-b6911e09ecfb","system_id":"levelo_inurba_marseille","lat":43.30928,"lon":5.40145,"is_reserved":false,"is_disabled":false,"rental_uris":{"android":"levelo://app?vid=ea0d3a66-f09c-46f7-8f85-b6911e09ecfb","ios":"levelo://app?vid=ea0d3a66-f09c-46f7-8f85-b6911e09ecfb"},"vehicle_type_id":"4","last_reported":1740427870,"current_range_meters":15200,"station_id":"ce4bgvp2rcd13ifvqct0","pricing_plan_id":"cebpf4jnsgd1na2vs0mg"},{"bike_id":"26967d0b-6005-40e2-bf5b-5a3a4c5827df","system_id":"levelo_inurba_marseille","lat":43.29511,"lon":5.39411,"is_reserved":false,"is_disabled":false,"rental_uris":{"android":"levelo://app?vid=26967d0b-6005-40e2-bf5b-5a3a4c5827df","ios":"levelo://app?vid=26967d0b-6005-40e2-bf5b-5a3a4c5827df"},"vehicle_type_id":"4","last_reported":1740427870,"current_range_meters":15200,"station_id":"ce4bh292rcd13ifvqdf0","pricing_plan_id":"cebpf4jnsgd1na2vs0mg"},{"bike_id":"a2d8ea4e-4036-4515-9af1-5dd302c7e6d5","system_id":"levelo_inurba_marseille","lat":43.28406,"lon":5.37503,"is_reserved":false,"is_disabled":false,"rental_uris":{"android":"levelo://app?vid=a2d8ea4e-4036-4515-9af1-5dd302c7e6d5","ios":"levelo://app?vid=a2d8ea4e-4036-4515-9af1-5dd302c7e6d5"},"vehicle_type_id":"4","last_reported":1740427870,"current_range_meters":16000,"station_id":"ce4bh412rcd13ifvqds0","pricing_plan_id":"cebpf4jnsgd1na2vs0mg"},{"bike_id":"893f0949-de5b-4083-b654-3fa44fd95a90","system_id":"levelo_inurba_marseille","lat":43.29275,"lon":5.36841,"is_reserved":false,"is_disabled":false,"rental_uris":{"android":"levelo://app?vid=893f0949-de5b-4083-b654-3fa44fd95a90","ios":"levelo://app?vid=893f0949-de5b-4083-b654-3fa44fd95a90"},"vehicle_type_id":"4","last_reported":1740427870,"current_range_meters":15200,"station_id":"ce4bhbp2rcd13ifvqesg","pricing_plan_id":"cebpf4jnsgd1na2vs0mg"},{"bike_id":"5435865c-3120-44b2-a6c3-b3611ddd99d3","system_id":"levelo_inurba_marseille","lat":43.3237,"lon":5.38891,"is_reserved":false,"is_disabled":false,"rental_uris":{"android":"levelo://app?vid=5435865c-3120-44b2-a6c3-b3611ddd99d3","ios":"levelo://app?vid=5435865c-3120-44b2-a6c3-b3611ddd99d3"},"vehicle_type_id":"4","last_reported":1740427870,"current_range_meters":16000,"station_id":"ce4bhqp2rcd13ifvqhog","pricing_plan_id":"cebpf4jnsgd1na2vs0mg"},{"bike_id":"6f9eb619-ce1a-440a-9085-673242f78425","system_id":"levelo_inurba_marseille","lat":43.29496,"lon":5.37529,"is_reserved":false,"is_disabled":true,"rental_uris":{"android":"levelo://app?vid=6f9eb619-ce1a-440a-9085-673242f78425","ios":"levelo://app?vid=6f9eb619-ce1a-440a-9085-673242f78425"},"vehicle_type_id":"4","last_reported":1740427870,"current_range_meters":16000,"station_id":"","pricing_plan_id":"cebpf4jnsgd1na2vs0mg"},{"bike_id":"d138a461-3692-438c-aa9e-f46d4dedee6d","system_id":"levelo_inurba_marseille","lat":43.25076,"lon":5.39536,"is_reserved":false,"is_disabled":false,"rental_uris":{"android":"levelo://app?vid=d138a461-3692-438c-aa9e-f46d4dedee6d","ios":"levelo://app?vid=d138a461-3692-438c-aa9e-f46d4dedee6d"},"vehicle_type_id":"4","last_reported":1740427870,"current_range_meters":16000,"station_id":"ce4bhm12rcd13ifvqgkg","pricing_plan_id":"cebpf4jnsgd1na2vs0mg"},{"bike_id":"c089c19a-9e3a-4f5f-8b9c-a99d357a37fa","system_id":"levelo_inurba_marseille","lat":43.2951,"lon":5.39402,"is_reserved":false,"is_disabled":false,"rental_uris":{"android":"levelo://app?vid=c089c19a-9e3a-4f5f-8b9c-a99d357a37fa","ios":"levelo://app?vid=c089c19a-9e3a-4f5f-8b9c-a99d357a37fa"},"vehicle_type_id":"4","last_reported":1740427870,"current_range_meters":16000,"station_id":"ce4bh292rcd13ifvqdf0","pricing_plan_id":"cebpf4jnsgd1na2vs0mg"},{"bike_id":"9131f719-5fdd-4ab0-9dfb-257f2ccc13cb","system_id":"levelo_inurba_marseille","lat":43.28944,"lon":5.36626,"is_reserved":false,"is_disabled":false,"rental_uris":{"android":"levelo://app?vid=9131f719-5fdd-4ab0-9dfb-257f2ccc13cb","ios":"levelo://app?vid=9131f719-5fdd-4ab0-9dfb-257f2ccc13cb"},"vehicle_type_id":"4","last_reported":1740427870,"current_range_meters":16000,"station_id":"ce4bhap2rcd13ifvqek0","pricing_plan_id":"cebpf4jnsgd1na2vs0mg"},{"bike_id":"c7141c64-f04f-4dca-bf0b-c87dedcef0a3","system_id":"levelo_inurba_marseille","lat":43.292512,"lon":5.38433,"is_reserved":false,"is_disabled":false,"rental_uris":{"android":"levelo://app?vid=c7141c64-f04f-4dca-bf0b-c87dedcef0a3","ios":"levelo://app?vid=c7141c64-f04f-4dca-bf0b-c87dedcef0a3"},"vehicle_type_id":"4","last_reported":1740427870,"current_range_meters":16000,"station_id":"ce4bgvh2rcd13ifvqcs0","pricing_plan_id":"cebpf4jnsgd1na2vs0mg"},{"bike_id":"bfa9685d-08c6-470b-9281-df9fdec5f34c","system_id":"levelo_inurba_marseille","lat":43.28425,"lon":5.34977,"is_reserved":false,"is_disabled":false,"rental_uris":{"android":"levelo://app?vid=bfa9685d-08c6-470b-9281-df9fdec5f34c","ios":"levelo://app?vid=bfa9685d-08c6-470b-9281-df9fdec5f34c"},"vehicle_type_id":"4","last_reported":1740427870,"current_range_meters":16400,"station_id":"ce4bhbh2rcd13ifvqepg","pricing_plan_id":"cebpf4jnsgd1na2vs0mg"},{"bike_id":"de54b84e-d754-4cf9-97ed-7d6cd44576a6","system_id":"levelo_inurba_marseille","lat":43.27816,"lon":5.40737,"is_reserved":false,"is_disabled":false,"rental_uris":{"android":"levelo://app?vid=de54b84e-d754-4cf9-97ed-7d6cd44576a6","ios":"levelo://app?vid=de54b84e-d754-4cf9-97ed-7d6cd44576a6"},"vehicle_type_id":"4","last_reported":1740427870,"current_range_meters":16000,"station_id":"ce4bhnh2rcd13ifvqgtg","pricing_plan_id":"cebpf4jnsgd1na2vs0mg"},{"bike_id":"05f51bd6-bf8c-4b6c-ba2f-d7bf7cec3006","system_id":"levelo_inurba_marseille","lat":43.23194,"lon":5.35559,"is_reserved":false,"is_disabled":false,"rental_uris":{"android":"levelo://app?vid=05f51bd6-bf8c-4b6c-ba2f-d7bf7cec3006","ios":"levelo://app?vid=05f51bd6-bf8c-4b6c-ba2f-d7bf7cec3006"},"vehicle_type_id":"4","last_reported":1740427870,"current_range_meters":16000,"station_id":"ce4bhu92rcd13ifvqi70","pricing_plan_id":"cebpf4jnsgd1na2vs0mg"},{"bike_id":"03c502df-c0d3-4ad7-b038-d3923b426e2e","system_id":"levelo_inurba_marseille","lat":43.29365,"lon":5.38802,"is_reserved":false,"is_disabled":true,"rental_uris":{"android":"levelo://app?vid=03c502df-c0d3-4ad7-b038-d3923b426e2e","ios":"levelo://app?vid=03c502df-c0d3-4ad7-b038-d3923b426e2e"},"vehicle_type_id":"4","last_reported":1740427870,"current_range_meters":16000,"station_id":"ce4bh2h2rcd13ifvqdh0","pricing_plan_id":"cebpf4jnsgd1na2vs0mg"},{"bike_id":"d34538b8-2f35-4994-b4c2-333707080028","system_id":"levelo_inurba_marseille","lat":43.29194,"lon":5.39314,"is_reserved":false,"is_disabled":false,"rental_uris":{"android":"levelo://app?vid=d34538b8-2f35-4994-b4c2-333707080028","ios":"levelo://app?vid=d34538b8-2f35-4994-b4c2-333707080028"},"vehicle_type_id":"4","last_reported":1740427870,"current_range_meters":16000,"station_id":"ce4bh192rcd13ifvqdd0","pricing_plan_id":"cebpf4jnsgd1na2vs0mg"},{"bike_id":"92ed7cef-280a-478a-a395-78128812bf52","system_id":"levelo_inurba_marseille","lat":43.2847,"lon":5.38446,"is_reserved":false,"is_disabled":true,"rental_uris":{"android":"levelo://app?vid=92ed7cef-280a-478a-a395-78128812bf52","ios":"levelo://app?vid=92ed7cef-280a-478a-a395-78128812bf52"},"vehicle_type_id":"4","last_reported":1740427870,"current_range_meters":16000,"station_id":"ce4bh512rcd13ifvqe3g","pricing_plan_id":"cebpf4jnsgd1na2vs0mg"},{"bike_id":"aaadca7b-4d70-48bf-9241-055d058794e7","system_id":"levelo_inurba_marseille","lat":43.28037,"lon":5.36946,"is_reserved":false,"is_disabled":false,"rental_uris":{"android":"levelo://app?vid=aaadca7b-4d70-48bf-9241-055d058794e7","ios":"levelo://app?vid=aaadca7b-4d70-48bf-9241-055d058794e7"},"vehicle_type_id":"4","last_reported":1740427870,"current_range_meters":16000,"station_id":"ce4bha12rcd13ifvqef0","pricing_plan_id":"cebpf4jnsgd1na2vs0mg"},{"bike_id":"b1e68bfa-e0ad-4a40-b063-e1ce6dcea5ff","system_id":"levelo_inurba_marseille","lat":43.28943,"lon":5.36392,"is_reserved":false,"is_disabled":false,"rental_uris":{"android":"levelo://app?vid=b1e68bfa-e0ad-4a40-b063-e1ce6dcea5ff","ios":"levelo://app?vid=b1e68bfa-e0ad-4a40-b063-e1ce6dcea5ff"},"vehicle_type_id":"4","last_reported":1740427870,"current_range_meters":16000,"station_id":"ce4bhc92rcd13ifvqetg","pricing_plan_id":"cebpf4jnsgd1na2vs0mg"},{"bike_id":"edcda027-c358-47a1-a22d-16a6283f9d65","system_id":"levelo_inurba_marseille","lat":43.24648,"lon":5.38889,"is_reserved":false,"is_disabled":false,"rental_uris":{"android":"levelo://app?vid=edcda027-c358-47a1-a22d-16a6283f9d65","ios":"levelo://app?vid=edcda027-c358-47a1-a22d-16a6283f9d65"},"vehicle_type_id":"4","last_reported":1740427870,"current_range_meters":16000,"station_id":"ce4bhg12rcd13ifvqf60","pricing_plan_id":"cebpf4jnsgd1na2vs0mg"},{"bike_id":"c08ee2e6-fdf1-4ded-9dac-f5139a08339c","system_id":"levelo_inurba_marseille","lat":43.29788,"lon":5.3711,"is_reserved":false,"is_disabled":false,"rental_uris":{"android":"levelo://app?vid=c08ee2e6-fdf1-4ded-9dac-f5139a08339c","ios":"levelo://app?vid=c08ee2e6-fdf1-4ded-9dac-f5139a08339c"},"vehicle_type_id":"4","last_reported":1740427870,"current_range_meters":17600,"station_id":"ce4bgop2rcd13ifvqc1g","pricing_plan_id":"cebpf4jnsgd1na2vs0mg"},{"bike_id":"f5c4c4b8-eb45-4518-8657-9a759655e111","system_id":"levelo_inurba_marseille","lat":43.29195,"lon":5.39327,"is_reserved":false,"is_disabled":false,"rental_uris":{"android":"levelo://app?vid=f5c4c4b8-eb45-4518-8657-9a759655e111","ios":"levelo://app?vid=f5c4c4b8-eb45-4518-8657-9a759655e111"},"vehicle_type_id":"4","last_reported":1740427870,"current_range_meters":16800,"station_id":"ce4bh192rcd13ifvqdd0","pricing_plan_id":"cebpf4jnsgd1na2vs0mg"},{"bike_id":"f4629c6e-36fc-402c-93ca-7566da9b882d","system_id":"levelo_inurba_marseille","lat":43.27816,"lon":5.40728,"is_reserved":false,"is_disabled":false,"rental_uris":{"android":"levelo://app?vid=f4629c6e-36fc-402c-93ca-7566da9b882d","ios":"levelo://app?vid=f4629c6e-36fc-402c-93ca-7566da9b882d"},"vehicle_type_id":"4","last_reported":1740427870,"current_range_meters":16400,"station_id":"ce4bhnh2rcd13ifvqgtg","pricing_plan_id":"cebpf4jnsgd1na2vs0mg"},{"bike_id":"1c2f3bdc-68fa-40a8-b99e-fcf41f32f9e4","system_id":"levelo_inurba_marseille","lat":43.29223,"lon":5.40516,"is_reserved":false,"is_disabled":false,"rental_uris":{"android":"levelo://app?vid=1c2f3bdc-68fa-40a8-b99e-fcf41f32f9e4","ios":"levelo://app?vid=1c2f3bdc-68fa-40a8-b99e-fcf41f32f9e4"},"vehicle_type_id":"4","last_reported":1740427870,"current_range_meters":16400,"station_id":"","pricing_plan_id":"cebpf4jnsgd1na2vs0mg"},{"bike_id":"c9a1858d-786d-4197-a639-046d237805f3","system_id":"levelo_inurba_marseille","lat":43.2841,"lon":5.3752,"is_reserved":false,"is_disabled":false,"rental_uris":{"android":"levelo://app?vid=c9a1858d-786d-4197-a639-046d237805f3","ios":"levelo://app?vid=c9a1858d-786d-4197-a639-046d237805f3"},"vehicle_type_id":"4","last_reported":1740427870,"current_range_meters":16400,"station_id":"ce4bh412rcd13ifvqds0","pricing_plan_id":"cebpf4jnsgd1na2vs0mg"},{"bike_id":"4e3d95db-b14e-4d03-8d1e-d28aadd835b3","system_id":"levelo_inurba_marseille","lat":43.28072,"lon":5.39654,"is_reserved":false,"is_disabled":false,"rental_uris":{"android":"levelo://app?vid=4e3d95db-b14e-4d03-8d1e-d28aadd835b3","ios":"levelo://app?vid=4e3d95db-b14e-4d03-8d1e-d28aadd835b3"},"vehicle_type_id":"4","last_reported":1740427870,"current_range_meters":16400,"station_id":"ce4bho12rcd13ifvqh2g","pricing_plan_id":"cebpf4jnsgd1na2vs0mg"},{"bike_id":"27df2c47-30b9-42a1-a17f-d05f9ce10835","system_id":"levelo_inurba_marseille","lat":43.28423,"lon":5.37566,"is_reserved":false,"is_disabled":false,"rental_uris":{"android":"levelo://app?vid=27df2c47-30b9-42a1-a17f-d05f9ce10835","ios":"levelo://app?vid=27df2c47-30b9-42a1-a17f-d05f9ce10835"},"vehicle_type_id":"4","last_reported":1740427870,"current_range_meters":16800,"station_id":"","pricing_plan_id":"cebpf4jnsgd1na2vs0mg"},{"bike_id":"ea96d41c-01a9-440f-9def-3e243141c897","system_id":"levelo_inurba_marseille","lat":43.29881,"lon":5.39778,"is_reserved":false,"is_disabled":false,"rental_uris":{"android":"levelo://app?vid=ea96d41c-01a9-440f-9def-3e243141c897","ios":"levelo://app?vid=ea96d41c-01a9-440f-9def-3e243141c897"},"vehicle_type_id":"4","last_reported":1740427870,"current_range_meters":16800,"station_id":"ce4bh0h2rcd13ifvqd50","pricing_plan_id":"cebpf4jnsgd1na2vs0mg"},{"bike_id":"9062f7b6-9c81-49b8-a1bd-5df58202afcd","system_id":"levelo_inurba_marseille","lat":43.31728,"lon":5.43654,"is_reserved":false,"is_disabled":false,"rental_uris":{"android":"levelo://app?vid=9062f7b6-9c81-49b8-a1bd-5df58202afcd","ios":"levelo://app?vid=9062f7b6-9c81-49b8-a1bd-5df58202afcd"},"vehicle_type_id":"4","last_reported":1740427870,"current_range_meters":16800,"station_id":"ce4bhp92rcd13ifvqhcg","pricing_plan_id":"cebpf4jnsgd1na2vs0mg"},{"bike_id":"8514fc45-931a-4d33-8ebd-119ca23a33dc","system_id":"levelo_inurba_marseille","lat":43.27829,"lon":5.40733,"is_reserved":false,"is_disabled":false,"rental_uris":{"android":"levelo://app?vid=8514fc45-931a-4d33-8ebd-119ca23a33dc","ios":"levelo://app?vid=8514fc45-931a-4d33-8ebd-119ca23a33dc"},"vehicle_type_id":"4","last_reported":1740427870,"current_range_meters":16800,"station_id":"ce4bhnh2rcd13ifvqgtg","pricing_plan_id":"cebpf4jnsgd1na2vs0mg"},{"bike_id":"021de705-4edf-49f3-897a-7f5b766577b3","system_id":"levelo_inurba_marseille","lat":43.29537,"lon":5.38541,"is_reserved":false,"is_disabled":false,"rental_uris":{"android":"levelo://app?vid=021de705-4edf-49f3-897a-7f5b766577b3","ios":"levelo://app?vid=021de705-4edf-49f3-897a-7f5b766577b3"},"vehicle_type_id":"4","last_reported":1740427870,"current_range_meters":16800,"station_id":"ce4bgih2rcd13ifvqba0","pricing_plan_id":"cebpf4jnsgd1na2vs0mg"},{"bike_id":"fb352528-6dce-483c-a4f0-c367df3759b9","system_id":"levelo_inurba_marseille","lat":43.29029,"lon":5.37564,"is_reserved":false,"is_disabled":true,"rental_uris":{"android":"levelo://app?vid=fb352528-6dce-483c-a4f0-c367df3759b9","ios":"levelo://app?vid=fb352528-6dce-483c-a4f0-c367df3759b9"},"vehicle_type_id":"4","last_reported":1740427870,"current_range_meters":16800,"station_id":"ce4bh692rcd13ifvqe90","pricing_plan_id":"cebpf4jnsgd1na2vs0mg"},{"bike_id":"aff7a8a1-5476-44b3-8b23-aa5705650095","system_id":"levelo_inurba_marseille","lat":43.29527,"lon":5.39404,"is_reserved":false,"is_disabled":false,"rental_uris":{"android":"levelo://app?vid=aff7a8a1-5476-44b3-8b23-aa5705650095","ios":"levelo://app?vid=aff7a8a1-5476-44b3-8b23-aa5705650095"},"vehicle_type_id":"4","last_reported":1740427870,"current_range_meters":17200,"station_id":"ce4bh292rcd13ifvqdf0","pricing_plan_id":"cebpf4jnsgd1na2vs0mg"},{"bike_id":"053f57a8-2b87-4441-b640-0e0cd10e21c4","system_id":"levelo_inurba_marseille","lat":43.27822,"lon":5.39186,"is_reserved":false,"is_disabled":false,"rental_uris":{"android":"levelo://app?vid=053f57a8-2b87-4441-b640-0e0cd10e21c4","ios":"levelo://app?vid=053f57a8-2b87-4441-b640-0e0cd10e21c4"},"vehicle_type_id":"4","last_reported":1740427870,"current_range_meters":16800,"station_id":"ce4bhjp2rcd13ifvqga0","pricing_plan_id":"cebpf4jnsgd1na2vs0mg"},{"bike_id":"f7b1904a-e706-46d3-9acc-c42a6ddbcbe8","system_id":"levelo_inurba_marseille","lat":43.28701,"lon":5.39983,"is_reserved":false,"is_disabled":false,"rental_uris":{"android":"levelo://app?vid=f7b1904a-e706-46d3-9acc-c42a6ddbcbe8","ios":"levelo://app?vid=f7b1904a-e706-46d3-9acc-c42a6ddbcbe8"},"vehicle_type_id":"4","last_reported":1740427870,"current_range_meters":17200,"station_id":"ce4bho92rcd13ifvqh3g","pricing_plan_id":"cebpf4jnsgd1na2vs0mg"},{"bike_id":"123873b6-0553-4b01-8057-3a4fedeb0171","system_id":"levelo_inurba_marseille","lat":43.25093,"lon":5.39516,"is_reserved":false,"is_disabled":false,"rental_uris":{"android":"levelo://app?vid=123873b6-0553-4b01-8057-3a4fedeb0171","ios":"levelo://app?vid=123873b6-0553-4b01-8057-3a4fedeb0171"},"vehicle_type_id":"4","last_reported":1740427870,"current_range_meters":17600,"station_id":"ce4bhm12rcd13ifvqgkg","pricing_plan_id":"cebpf4jnsgd1na2vs0mg"},{"bike_id":"6239f636-804f-46f9-bccd-f6be6568ba35","system_id":"levelo_inurba_marseille","lat":43.25097,"lon":5.39494,"is_reserved":false,"is_disabled":false,"rental_uris":{"android":"levelo://app?vid=6239f636-804f-46f9-bccd-f6be6568ba35","ios":"levelo://app?vid=6239f636-804f-46f9-bccd-f6be6568ba35"},"vehicle_type_id":"4","last_reported":1740427870,"current_range_meters":17200,"station_id":"ce4bhm12rcd13ifvqgkg","pricing_plan_id":"cebpf4jnsgd1na2vs0mg"},{"bike_id":"d779347d-5ff4-4ee3-a513-9e652b2a1f7b","system_id":"levelo_inurba_marseille","lat":43.30528,"lon":5.36537,"is_reserved":false,"is_disabled":false,"rental_uris":{"android":"levelo://app?vid=d779347d-5ff4-4ee3-a513-9e652b2a1f7b","ios":"levelo://app?vid=d779347d-5ff4-4ee3-a513-9e652b2a1f7b"},"vehicle_type_id":"4","last_reported":1740427870,"current_range_meters":16400,"station_id":"ce4bgs12rcd13ifvqcag","pricing_plan_id":"cebpf4jnsgd1na2vs0mg"},{"bike_id":"63d2dc5a-e03c-4909-9269-36c39633100a","system_id":"levelo_inurba_marseille","lat":43.28418,"lon":5.34996,"is_reserved":false,"is_disabled":true,"rental_uris":{"android":"levelo://app?vid=63d2dc5a-e03c-4909-9269-36c39633100a","ios":"levelo://app?vid=63d2dc5a-e03c-4909-9269-36c39633100a"},"vehicle_type_id":"4","last_reported":1740427870,"current_range_meters":17200,"station_id":"ce4bhbh2rcd13ifvqepg","pricing_plan_id":"cebpf4jnsgd1na2vs0mg"},{"bike_id":"46455735-1dab-4610-8eb6-3c16d93ce19b","system_id":"levelo_inurba_marseille","lat":43.27933,"lon":5.41041,"is_reserved":false,"is_disabled":false,"rental_uris":{"android":"levelo://app?vid=46455735-1dab-4610-8eb6-3c16d93ce19b","ios":"levelo://app?vid=46455735-1dab-4610-8eb6-3c16d93ce19b"},"vehicle_type_id":"4","last_reported":1740427870,"current_range_meters":17600,"station_id":"ce4bhnp2rcd13ifvqh0g","pricing_plan_id":"cebpf4jnsgd1na2vs0mg"},{"bike_id":"0dc77e2f-ce80-4f7e-b672-b7d704534da5","system_id":"levelo_inurba_marseille","lat":43.27994,"lon":5.40009,"is_reserved":false,"is_disabled":false,"rental_uris":{"android":"levelo://app?vid=0dc77e2f-ce80-4f7e-b672-b7d704534da5","ios":"levelo://app?vid=0dc77e2f-ce80-4f7e-b672-b7d704534da5"},"vehicle_type_id":"4","last_reported":1740427870,"current_range_meters":17200,"station_id":"ce4bho92rcd13ifvqh4g","pricing_plan_id":"cebpf4jnsgd1na2vs0mg"},{"bike_id":"50b9e7f1-d5b7-48de-8ca6-621b5cbacc19","system_id":"levelo_inurba_marseille","lat":43.28715,"lon":5.39977,"is_reserved":false,"is_disabled":false,"rental_uris":{"android":"levelo://app?vid=50b9e7f1-d5b7-48de-8ca6-621b5cbacc19","ios":"levelo://app?vid=50b9e7f1-d5b7-48de-8ca6-621b5cbacc19"},"vehicle_type_id":"4","last_reported":1740427870,"current_range_meters":16800,"station_id":"ce4bho92rcd13ifvqh3g","pricing_plan_id":"cebpf4jnsgd1na2vs0mg"},{"bike_id":"ea376147-3ba8-46aa-82ad-8b7165f8a67f","system_id":"levelo_inurba_marseille","lat":43.26552,"lon":5.37286,"is_reserved":false,"is_disabled":false,"rental_uris":{"android":"levelo://app?vid=ea376147-3ba8-46aa-82ad-8b7165f8a67f","ios":"levelo://app?vid=ea376147-3ba8-46aa-82ad-8b7165f8a67f"},"vehicle_type_id":"4","last_reported":1740427870,"current_range_meters":17600,"station_id":"ce4bhg12rcd13ifvqf70","pricing_plan_id":"cebpf4jnsgd1na2vs0mg"},{"bike_id":"d3a624d3-140c-4015-8254-af12ae2df535","system_id":"levelo_inurba_marseille","lat":43.29887,"lon":5.39758,"is_reserved":false,"is_disabled":false,"rental_uris":{"android":"levelo://app?vid=d3a624d3-140c-4015-8254-af12ae2df535","ios":"levelo://app?vid=d3a624d3-140c-4015-8254-af12ae2df535"},"vehicle_type_id":"4","last_reported":1740427870,"current_range_meters":17600,"station_id":"ce4bh0h2rcd13ifvqd50","pricing_plan_id":"cebpf4jnsgd1na2vs0mg"},{"bike_id":"db8f7a43-768b-45ca-9dfa-098c5d9697d5","system_id":"levelo_inurba_marseille","lat":43.28839,"lon":5.35877,"is_reserved":false,"is_disabled":false,"rental_uris":{"android":"levelo://app?vid=db8f7a43-768b-45ca-9dfa-098c5d9697d5","ios":"levelo://app?vid=db8f7a43-768b-45ca-9dfa-098c5d9697d5"},"vehicle_type_id":"4","last_reported":1740427870,"current_range_meters":17600,"station_id":"ce4bhb12rcd13ifvqem0","pricing_plan_id":"cebpf4jnsgd1na2vs0mg"},{"bike_id":"413ec3c7-cce0-49b0-af1f-822f6462690e","system_id":"levelo_inurba_marseille","lat":43.29364,"lon":5.37836,"is_reserved":false,"is_disabled":false,"rental_uris":{"android":"levelo://app?vid=413ec3c7-cce0-49b0-af1f-822f6462690e","ios":"levelo://app?vid=413ec3c7-cce0-49b0-af1f-822f6462690e"},"vehicle_type_id":"4","last_reported":1740427870,"current_range_meters":17200,"station_id":"ce4bgjh2rcd13ifvqbf0","pricing_plan_id":"cebpf4jnsgd1na2vs0mg"},{"bike_id":"7c45866a-bd99-4c12-9747-66203f12a96e","system_id":"levelo_inurba_marseille","lat":43.23142,"lon":5.35502,"is_reserved":false,"is_disabled":false,"rental_uris":{"android":"levelo://app?vid=7c45866a-bd99-4c12-9747-66203f12a96e","ios":"levelo://app?vid=7c45866a-bd99-4c12-9747-66203f12a96e"},"vehicle_type_id":"4","last_reported":1740427870,"current_range_meters":18000,"station_id":"","pricing_plan_id":"cebpf4jnsgd1na2vs0mg"},{"bike_id":"b586ccca-63f7-43ab-896e-5f0991884ff6","system_id":"levelo_inurba_marseille","lat":43.31525,"lon":5.38033,"is_reserved":false,"is_disabled":false,"rental_uris":{"android":"levelo://app?vid=b586ccca-63f7-43ab-896e-5f0991884ff6","ios":"levelo://app?vid=b586ccca-63f7-43ab-896e-5f0991884ff6"},"vehicle_type_id":"4","last_reported":1740427870,"current_range_meters":17600,"station_id":"ce4bhsp2rcd13ifvqi50","pricing_plan_id":"cebpf4jnsgd1na2vs0mg"},{"bike_id":"c3d0fefa-5db4-49bd-a964-1a22da440d36","system_id":"levelo_inurba_marseille","lat":43.269559,"lon":5.386313,"is_reserved":false,"is_disabled":false,"rental_uris":{"android":"levelo://app?vid=c3d0fefa-5db4-49bd-a964-1a22da440d36","ios":"levelo://app?vid=c3d0fefa-5db4-49bd-a964-1a22da440d36"},"vehicle_type_id":"4","last_reported":1740427870,"current_range_meters":17600,"station_id":"","pricing_plan_id":"cebpf4jnsgd1na2vs0mg"},{"bike_id":"48cd24b6-6d9d-440b-9450-0fec3fc9894e","system_id":"levelo_inurba_marseille","lat":43.28854,"lon":5.35863,"is_reserved":false,"is_disabled":false,"rental_uris":{"android":"levelo://app?vid=48cd24b6-6d9d-440b-9450-0fec3fc9894e","ios":"levelo://app?vid=48cd24b6-6d9d-440b-9450-0fec3fc9894e"},"vehicle_type_id":"4","last_reported":1740427870,"current_range_meters":18800,"station_id":"ce4bhb12rcd13ifvqem0","pricing_plan_id":"cebpf4jnsgd1na2vs0mg"},{"bike_id":"9d549952-9466-4489-b61b-7432469c4640","system_id":"levelo_inurba_marseille","lat":43.32948,"lon":5.39042,"is_reserved":false,"is_disabled":false,"rental_uris":{"android":"levelo://app?vid=9d549952-9466-4489-b61b-7432469c4640","ios":"levelo://app?vid=9d549952-9466-4489-b61b-7432469c4640"},"vehicle_type_id":"4","last_reported":1740427870,"current_range_meters":18000,"station_id":"","pricing_plan_id":"cebpf4jnsgd1na2vs0mg"},{"bike_id":"c8152869-b893-4020-9754-2f419e8b4551","system_id":"levelo_inurba_marseille","lat":43.3053,"lon":5.36706,"is_reserved":false,"is_disabled":false,"rental_uris":{"android":"levelo://app?vid=c8152869-b893-4020-9754-2f419e8b4551","ios":"levelo://app?vid=c8152869-b893-4020-9754-2f419e8b4551"},"vehicle_type_id":"4","last_reported":1740427870,"current_range_meters":17600,"station_id":"ce4bgrp2rcd13ifvqc9g","pricing_plan_id":"cebpf4jnsgd1na2vs0mg"},{"bike_id":"cdde8eb1-59b8-4a20-8210-6e0a2c1d0159","system_id":"levelo_inurba_marseille","lat":43.30321,"lon":5.40429,"is_reserved":false,"is_disabled":false,"rental_uris":{"android":"levelo://app?vid=cdde8eb1-59b8-4a20-8210-6e0a2c1d0159","ios":"levelo://app?vid=cdde8eb1-59b8-4a20-8210-6e0a2c1d0159"},"vehicle_type_id":"4","last_reported":1740427870,"current_range_meters":18000,"station_id":"ce4bh012rcd13ifvqd10","pricing_plan_id":"cebpf4jnsgd1na2vs0mg"},{"bike_id":"a4f152b7-c308-4166-88c1-c50087f48bb5","system_id":"levelo_inurba_marseille","lat":43.2885,"lon":5.39302,"is_reserved":false,"is_disabled":false,"rental_uris":{"android":"levelo://app?vid=a4f152b7-c308-4166-88c1-c50087f48bb5","ios":"levelo://app?vid=a4f152b7-c308-4166-88c1-c50087f48bb5"},"vehicle_type_id":"4","last_reported":1740427870,"current_range_meters":18000,"station_id":"ce4bh2p2rcd13ifvqdi0","pricing_plan_id":"cebpf4jnsgd1na2vs0mg"},{"bike_id":"dc60fb4e-1bd2-41f4-b91d-5636e79a1845","system_id":"levelo_inurba_marseille","lat":43.29531,"lon":5.38545,"is_reserved":false,"is_disabled":false,"rental_uris":{"android":"levelo://app?vid=dc60fb4e-1bd2-41f4-b91d-5636e79a1845","ios":"levelo://app?vid=dc60fb4e-1bd2-41f4-b91d-5636e79a1845"},"vehicle_type_id":"4","last_reported":1740427870,"current_range_meters":18000,"station_id":"ce4bgih2rcd13ifvqba0","pricing_plan_id":"cebpf4jnsgd1na2vs0mg"},{"bike_id":"67462c7c-fcd4-47dc-94d8-9d7a33d5da2f","system_id":"levelo_inurba_marseille","lat":43.27943,"lon":5.41055,"is_reserved":false,"is_disabled":false,"rental_uris":{"android":"levelo://app?vid=67462c7c-fcd4-47dc-94d8-9d7a33d5da2f","ios":"levelo://app?vid=67462c7c-fcd4-47dc-94d8-9d7a33d5da2f"},"vehicle_type_id":"4","last_reported":1740427870,"current_range_meters":18800,"station_id":"ce4bhnp2rcd13ifvqh0g","pricing_plan_id":"cebpf4jnsgd1na2vs0mg"},{"bike_id":"c068dcb4-6111-4494-92b0-fe59cb336012","system_id":"levelo_inurba_marseille","lat":43.29865,"lon":5.38912,"is_reserved":false,"is_disabled":false,"rental_uris":{"android":"levelo://app?vid=c068dcb4-6111-4494-92b0-fe59cb336012","ios":"levelo://app?vid=c068dcb4-6111-4494-92b0-fe59cb336012"},"vehicle_type_id":"4","last_reported":1740427870,"current_range_meters":18000,"station_id":"ce4bh392rcd13ifvqdl0","pricing_plan_id":"cebpf4jnsgd1na2vs0mg"},{"bike_id":"7951ec82-c1c3-436f-b4bb-ea3dd1dc5ab6","system_id":"levelo_inurba_marseille","lat":43.28626,"lon":5.3509,"is_reserved":false,"is_disabled":false,"rental_uris":{"android":"levelo://app?vid=7951ec82-c1c3-436f-b4bb-ea3dd1dc5ab6","ios":"levelo://app?vid=7951ec82-c1c3-436f-b4bb-ea3dd1dc5ab6"},"vehicle_type_id":"4","last_reported":1740427870,"current_range_meters":18800,"station_id":"ce4bhch2rcd13ifvqeug","pricing_plan_id":"cebpf4jnsgd1na2vs0mg"},{"bike_id":"fecb5daa-a777-44eb-ad60-faaf813f5687","system_id":"levelo_inurba_marseille","lat":43.29021,"lon":5.35924,"is_reserved":false,"is_disabled":false,"rental_uris":{"android":"levelo://app?vid=fecb5daa-a777-44eb-ad60-faaf813f5687","ios":"levelo://app?vid=fecb5daa-a777-44eb-ad60-faaf813f5687"},"vehicle_type_id":"4","last_reported":1740427870,"current_range_meters":19200,"station_id":"ce4bha92rcd13ifvqeg0","pricing_plan_id":"cebpf4jnsgd1na2vs0mg"},{"bike_id":"68c1dbe0-bf11-4c1e-bf5a-5c0dbcb528d8","system_id":"levelo_inurba_marseille","lat":43.30331,"lon":5.40429,"is_reserved":false,"is_disabled":false,"rental_uris":{"android":"levelo://app?vid=68c1dbe0-bf11-4c1e-bf5a-5c0dbcb528d8","ios":"levelo://app?vid=68c1dbe0-bf11-4c1e-bf5a-5c0dbcb528d8"},"vehicle_type_id":"4","last_reported":1740427870,"current_range_meters":18000,"station_id":"ce4bh012rcd13ifvqd10","pricing_plan_id":"cebpf4jnsgd1na2vs0mg"},{"bike_id":"d55c4ee3-7586-4e31-9568-a3f286cfdc5d","system_id":"levelo_inurba_marseille","lat":43.28469,"lon":5.38405,"is_reserved":false,"is_disabled":false,"rental_uris":{"android":"levelo://app?vid=d55c4ee3-7586-4e31-9568-a3f286cfdc5d","ios":"levelo://app?vid=d55c4ee3-7586-4e31-9568-a3f286cfdc5d"},"vehicle_type_id":"4","last_reported":1740427870,"current_range_meters":18800,"station_id":"ce4bh512rcd13ifvqe3g","pricing_plan_id":"cebpf4jnsgd1na2vs0mg"},{"bike_id":"c68f3a0b-e764-4bf3-9b63-b72387fdffb5","system_id":"levelo_inurba_marseille","lat":43.28854,"lon":5.35843,"is_reserved":false,"is_disabled":false,"rental_uris":{"android":"levelo://app?vid=c68f3a0b-e764-4bf3-9b63-b72387fdffb5","ios":"levelo://app?vid=c68f3a0b-e764-4bf3-9b63-b72387fdffb5"},"vehicle_type_id":"4","last_reported":1740427870,"current_range_meters":18800,"station_id":"ce4bhb12rcd13ifvqem0","pricing_plan_id":"cebpf4jnsgd1na2vs0mg"},{"bike_id":"fc4fc2bc-cc85-4ec8-a7e7-3a6ae146cf46","system_id":"levelo_inurba_marseille","lat":43.292,"lon":5.39337,"is_reserved":false,"is_disabled":false,"rental_uris":{"android":"levelo://app?vid=fc4fc2bc-cc85-4ec8-a7e7-3a6ae146cf46","ios":"levelo://app?vid=fc4fc2bc-cc85-4ec8-a7e7-3a6ae146cf46"},"vehicle_type_id":"4","last_reported":1740427870,"current_range_meters":19200,"station_id":"ce4bh192rcd13ifvqdd0","pricing_plan_id":"cebpf4jnsgd1na2vs0mg"},{"bike_id":"51b24e95-d415-47d6-8082-4a4c58d92f47","system_id":"levelo_inurba_marseille","lat":43.29909,"lon":5.38148,"is_reserved":false,"is_disabled":false,"rental_uris":{"android":"levelo://app?vid=51b24e95-d415-47d6-8082-4a4c58d92f47","ios":"levelo://app?vid=51b24e95-d415-47d6-8082-4a4c58d92f47"},"vehicle_type_id":"4","last_reported":1740427870,"current_range_meters":18800,"station_id":"ce4bgj12rcd13ifvqbc0","pricing_plan_id":"cebpf4jnsgd1na2vs0mg"},{"bike_id":"eea46f47-e6ec-4c1d-a173-6d051008e29b","system_id":"levelo_inurba_marseille","lat":43.31892,"lon":5.40732,"is_reserved":false,"is_disabled":false,"rental_uris":{"android":"levelo://app?vid=eea46f47-e6ec-4c1d-a173-6d051008e29b","ios":"levelo://app?vid=eea46f47-e6ec-4c1d-a173-6d051008e29b"},"vehicle_type_id":"4","last_reported":1740427870,"current_range_meters":18800,"station_id":"ce4bhq12rcd13ifvqhig","pricing_plan_id":"cebpf4jnsgd1na2vs0mg"},{"bike_id":"c364a0e1-27de-4f50-ab82-dd4204b33450","system_id":"levelo_inurba_marseille","lat":43.32338,"lon":5.40625,"is_reserved":false,"is_disabled":false,"rental_uris":{"android":"levelo://app?vid=c364a0e1-27de-4f50-ab82-dd4204b33450","ios":"levelo://app?vid=c364a0e1-27de-4f50-ab82-dd4204b33450"},"vehicle_type_id":"4","last_reported":1740427870,"current_range_meters":18800,"station_id":"ce4bhq92rcd13ifvqhjg","pricing_plan_id":"cebpf4jnsgd1na2vs0mg"},{"bike_id":"2c5b41d8-2247-4fb1-8662-067a63dc29af","system_id":"levelo_inurba_marseille","lat":43.29922,"lon":5.36547,"is_reserved":false,"is_disabled":false,"rental_uris":{"android":"levelo://app?vid=2c5b41d8-2247-4fb1-8662-067a63dc29af","ios":"levelo://app?vid=2c5b41d8-2247-4fb1-8662-067a63dc29af"},"vehicle_type_id":"4","last_reported":1740427870,"current_range_meters":19200,"station_id":"ce4bgm92rcd13ifvqbr0","pricing_plan_id":"cebpf4jnsgd1na2vs0mg"},{"bike_id":"be85351f-f433-4123-a449-d91dbc845699","system_id":"levelo_inurba_marseille","lat":43.29518,"lon":5.39405,"is_reserved":false,"is_disabled":false,"rental_uris":{"android":"levelo://app?vid=be85351f-f433-4123-a449-d91dbc845699","ios":"levelo://app?vid=be85351f-f433-4123-a449-d91dbc845699"},"vehicle_type_id":"4","last_reported":1740427870,"current_range_meters":19200,"station_id":"ce4bh292rcd13ifvqdf0","pricing_plan_id":"cebpf4jnsgd1na2vs0mg"},{"bike_id":"2cf32f17-b1f3-4e21-8a4e-80a791fe2694","system_id":"levelo_inurba_marseille","lat":43.28154,"lon":5.42646,"is_reserved":false,"is_disabled":false,"rental_uris":{"android":"levelo://app?vid=2cf32f17-b1f3-4e21-8a4e-80a791fe2694","ios":"levelo://app?vid=2cf32f17-b1f3-4e21-8a4e-80a791fe2694"},"vehicle_type_id":"4","last_reported":1740427870,"current_range_meters":19200,"station_id":"ce4bhnh2rcd13ifvqgug","pricing_plan_id":"cebpf4jnsgd1na2vs0mg"},{"bike_id":"8a916661-8d5e-44e4-95f9-51026e366cbb","system_id":"levelo_inurba_marseille","lat":43.29802,"lon":5.38077,"is_reserved":false,"is_disabled":false,"rental_uris":{"android":"levelo://app?vid=8a916661-8d5e-44e4-95f9-51026e366cbb","ios":"levelo://app?vid=8a916661-8d5e-44e4-95f9-51026e366cbb"},"vehicle_type_id":"4","last_reported":1740427870,"current_range_meters":19200,"station_id":"ce4bgip2rcd13ifvqbb0","pricing_plan_id":"cebpf4jnsgd1na2vs0mg"},{"bike_id":"671ffd6b-fb18-4511-a942-851cf9fc2515","system_id":"levelo_inurba_marseille","lat":43.29176,"lon":5.3716,"is_reserved":false,"is_disabled":false,"rental_uris":{"android":"levelo://app?vid=671ffd6b-fb18-4511-a942-851cf9fc2515","ios":"levelo://app?vid=671ffd6b-fb18-4511-a942-851cf9fc2515"},"vehicle_type_id":"4","last_reported":1740427870,"current_range_meters":18800,"station_id":"ce4bha92rcd13ifvqeh0","pricing_plan_id":"cebpf4jnsgd1na2vs0mg"},{"bike_id":"807c40ef-1f52-496f-b8e7-ed028d32efd5","system_id":"levelo_inurba_marseille","lat":43.29432,"lon":5.39748,"is_reserved":false,"is_disabled":false,"rental_uris":{"android":"levelo://app?vid=807c40ef-1f52-496f-b8e7-ed028d32efd5","ios":"levelo://app?vid=807c40ef-1f52-496f-b8e7-ed028d32efd5"},"vehicle_type_id":"4","last_reported":1740427870,"current_range_meters":20400,"station_id":"ce4bh3h2rcd13ifvqdo0","pricing_plan_id":"cebpf4jnsgd1na2vs0mg"},{"bike_id":"45fe7840-4422-4624-b0ce-d0c37bff5dc3","system_id":"levelo_inurba_marseille","lat":43.32365,"lon":5.3888,"is_reserved":false,"is_disabled":false,"rental_uris":{"android":"levelo://app?vid=45fe7840-4422-4624-b0ce-d0c37bff5dc3","ios":"levelo://app?vid=45fe7840-4422-4624-b0ce-d0c37bff5dc3"},"vehicle_type_id":"4","last_reported":1740427870,"current_range_meters":19200,"station_id":"ce4bhqp2rcd13ifvqhog","pricing_plan_id":"cebpf4jnsgd1na2vs0mg"},{"bike_id":"5b05002f-7e6a-4c47-97c7-0858f4fd1ce4","system_id":"levelo_inurba_marseille","lat":43.28939,"lon":5.36646,"is_reserved":false,"is_disabled":false,"rental_uris":{"android":"levelo://app?vid=5b05002f-7e6a-4c47-97c7-0858f4fd1ce4","ios":"levelo://app?vid=5b05002f-7e6a-4c47-97c7-0858f4fd1ce4"},"vehicle_type_id":"4","last_reported":1740427870,"current_range_meters":19200,"station_id":"ce4bhap2rcd13ifvqek0","pricing_plan_id":"cebpf4jnsgd1na2vs0mg"},{"bike_id":"210d5388-34ba-40b7-b56a-1d8e212d202e","system_id":"levelo_inurba_marseille","lat":43.30257,"lon":5.40046,"is_reserved":false,"is_disabled":false,"rental_uris":{"android":"levelo://app?vid=210d5388-34ba-40b7-b56a-1d8e212d202e","ios":"levelo://app?vid=210d5388-34ba-40b7-b56a-1d8e212d202e"},"vehicle_type_id":"4","last_reported":1740427870,"current_range_meters":19600,"station_id":"ce4bgvh2rcd13ifvqcs0","pricing_plan_id":"cebpf4jnsgd1na2vs0mg"},{"bike_id":"ccad3b11-6784-42f3-be2f-a09578fd0c1b","system_id":"levelo_inurba_marseille","lat":43.24069,"lon":5.37789,"is_reserved":false,"is_disabled":false,"rental_uris":{"android":"levelo://app?vid=ccad3b11-6784-42f3-be2f-a09578fd0c1b","ios":"levelo://app?vid=ccad3b11-6784-42f3-be2f-a09578fd0c1b"},"vehicle_type_id":"4","last_reported":1740427870,"current_range_meters":19200,"station_id":"ce4bhnp2rcd13ifvqgvg","pricing_plan_id":"cebpf4jnsgd1na2vs0mg"},{"bike_id":"d4570eea-a55a-4c88-9027-6d4887d6c4b8","system_id":"levelo_inurba_marseille","lat":43.28355,"lon":5.38108,"is_reserved":false,"is_disabled":false,"rental_uris":{"android":"levelo://app?vid=d4570eea-a55a-4c88-9027-6d4887d6c4b8","ios":"levelo://app?vid=d4570eea-a55a-4c88-9027-6d4887d6c4b8"},"vehicle_type_id":"4","last_reported":1740427870,"current_range_meters":18800,"station_id":"ce4bh412rcd13ifvqdr0","pricing_plan_id":"cebpf4jnsgd1na2vs0mg"},{"bike_id":"9a11ec48-998c-4e7a-80c1-6a36f276d3e0","system_id":"levelo_inurba_marseille","lat":43.29272,"lon":5.36844,"is_reserved":false,"is_disabled":false,"rental_uris":{"android":"levelo://app?vid=9a11ec48-998c-4e7a-80c1-6a36f276d3e0","ios":"levelo://app?vid=9a11ec48-998c-4e7a-80c1-6a36f276d3e0"},"vehicle_type_id":"4","last_reported":1740427870,"current_range_meters":19600,"station_id":"ce4bhbp2rcd13ifvqesg","pricing_plan_id":"cebpf4jnsgd1na2vs0mg"},{"bike_id":"bd6716eb-2dca-42c3-8129-75c59fb93b56","system_id":"levelo_inurba_marseille","lat":43.31374,"lon":5.38511,"is_reserved":false,"is_disabled":false,"rental_uris":{"android":"levelo://app?vid=bd6716eb-2dca-42c3-8129-75c59fb93b56","ios":"levelo://app?vid=bd6716eb-2dca-42c3-8129-75c59fb93b56"},"vehicle_type_id":"4","last_reported":1740427870,"current_range_meters":19600,"station_id":"ce4bgt92rcd13ifvqcf0","pricing_plan_id":"cebpf4jnsgd1na2vs0mg"},{"bike_id":"342f6faa-d7db-4869-a8c6-15f071610b9c","system_id":"levelo_inurba_marseille","lat":43.29896,"lon":5.4365,"is_reserved":false,"is_disabled":false,"rental_uris":{"android":"levelo://app?vid=342f6faa-d7db-4869-a8c6-15f071610b9c","ios":"levelo://app?vid=342f6faa-d7db-4869-a8c6-15f071610b9c"},"vehicle_type_id":"4","last_reported":1740427870,"current_range_meters":19600,"station_id":"ce4bhpp2rcd13ifvqhfg","pricing_plan_id":"cebpf4jnsgd1na2vs0mg"},{"bike_id":"24321f04-4876-410a-8a83-40b77f261433","system_id":"levelo_inurba_marseille","lat":43.27489,"lon":5.42449,"is_reserved":false,"is_disabled":false,"rental_uris":{"android":"levelo://app?vid=24321f04-4876-410a-8a83-40b77f261433","ios":"levelo://app?vid=24321f04-4876-410a-8a83-40b77f261433"},"vehicle_type_id":"4","last_reported":1740427870,"current_range_meters":19200,"station_id":"ce4bhn92rcd13ifvqgrg","pricing_plan_id":"cebpf4jnsgd1na2vs0mg"},{"bike_id":"c6a36f08-ce5f-45a3-8813-39608040a9bb","system_id":"levelo_inurba_marseille","lat":43.27988,"lon":5.40028,"is_reserved":false,"is_disabled":false,"rental_uris":{"android":"levelo://app?vid=c6a36f08-ce5f-45a3-8813-39608040a9bb","ios":"levelo://app?vid=c6a36f08-ce5f-45a3-8813-39608040a9bb"},"vehicle_type_id":"4","last_reported":1740427870,"current_range_meters":19600,"station_id":"ce4bho92rcd13ifvqh4g","pricing_plan_id":"cebpf4jnsgd1na2vs0mg"},{"bike_id":"87da33cb-ae2d-49fd-b9a4-688154999413","system_id":"levelo_inurba_marseille","lat":43.25398,"lon":5.3841,"is_reserved":false,"is_disabled":false,"rental_uris":{"android":"levelo://app?vid=87da33cb-ae2d-49fd-b9a4-688154999413","ios":"levelo://app?vid=87da33cb-ae2d-49fd-b9a4-688154999413"},"vehicle_type_id":"4","last_reported":1740427870,"current_range_meters":21600,"station_id":"","pricing_plan_id":"cebpf4jnsgd1na2vs0mg"},{"bike_id":"c3eaf577-384f-49be-90a6-7d88e2904d90","system_id":"levelo_inurba_marseille","lat":43.33637,"lon":5.40973,"is_reserved":false,"is_disabled":true,"rental_uris":{"android":"levelo://app?vid=c3eaf577-384f-49be-90a6-7d88e2904d90","ios":"levelo://app?vid=c3eaf577-384f-49be-90a6-7d88e2904d90"},"vehicle_type_id":"4","last_reported":1740427870,"current_range_meters":19600,"station_id":"ce4bhqh2rcd13ifvqhmg","pricing_plan_id":"cebpf4jnsgd1na2vs0mg"},{"bike_id":"44561a30-5099-4bf3-b0f6-de2ae4e1bdcb","system_id":"levelo_inurba_marseille","lat":43.30252,"lon":5.40082,"is_reserved":false,"is_disabled":false,"rental_uris":{"android":"levelo://app?vid=44561a30-5099-4bf3-b0f6-de2ae4e1bdcb","ios":"levelo://app?vid=44561a30-5099-4bf3-b0f6-de2ae4e1bdcb"},"vehicle_type_id":"4","last_reported":1740427870,"current_range_meters":19600,"station_id":"ce4bgvh2rcd13ifvqcs0","pricing_plan_id":"cebpf4jnsgd1na2vs0mg"},{"bike_id":"2d50fb33-49cb-450e-a873-325ea39b74f3","system_id":"levelo_inurba_marseille","lat":43.29695,"lon":5.36584,"is_reserved":false,"is_disabled":false,"rental_uris":{"android":"levelo://app?vid=2d50fb33-49cb-450e-a873-325ea39b74f3","ios":"levelo://app?vid=2d50fb33-49cb-450e-a873-325ea39b74f3"},"vehicle_type_id":"4","last_reported":1740427870,"current_range_meters":19600,"station_id":"ce4bgn12rcd13ifvqbt0","pricing_plan_id":"cebpf4jnsgd1na2vs0mg"},{"bike_id":"6ab61c77-2b78-4944-929b-3625fab47136","system_id":"levelo_inurba_marseille","lat":43.28724,"lon":5.36103,"is_reserved":false,"is_disabled":false,"rental_uris":{"android":"levelo://app?vid=6ab61c77-2b78-4944-929b-3625fab47136","ios":"levelo://app?vid=6ab61c77-2b78-4944-929b-3625fab47136"},"vehicle_type_id":"4","last_reported":1740427870,"current_range_meters":20000,"station_id":"cki0cbj6b192h4jlfktg","pricing_plan_id":"cebpf4jnsgd1na2vs0mg"},{"bike_id":"eae38a93-dd09-49e3-895a-a41c8fd42355","system_id":"levelo_inurba_marseille","lat":43.30327,"lon":5.40434,"is_reserved":false,"is_disabled":false,"rental_uris":{"android":"levelo://app?vid=eae38a93-dd09-49e3-895a-a41c8fd42355","ios":"levelo://app?vid=eae38a93-dd09-49e3-895a-a41c8fd42355"},"vehicle_type_id":"4","last_reported":1740427870,"current_range_meters":20400,"station_id":"ce4bh012rcd13ifvqd10","pricing_plan_id":"cebpf4jnsgd1na2vs0mg"},{"bike_id":"31aa4ce3-7fdb-4bf9-879c-e8ffabfc2798","system_id":"levelo_inurba_marseille","lat":43.29889,"lon":5.38893,"is_reserved":false,"is_disabled":false,"rental_uris":{"android":"levelo://app?vid=31aa4ce3-7fdb-4bf9-879c-e8ffabfc2798","ios":"levelo://app?vid=31aa4ce3-7fdb-4bf9-879c-e8ffabfc2798"},"vehicle_type_id":"4","last_reported":1740427870,"current_range_meters":20000,"station_id":"ce4bh392rcd13ifvqdl0","pricing_plan_id":"cebpf4jnsgd1na2vs0mg"},{"bike_id":"89d5e616-67c2-487d-84fa-df030ec505c6","system_id":"levelo_inurba_marseille","lat":43.32491,"lon":5.36555,"is_reserved":false,"is_disabled":false,"rental_uris":{"android":"levelo://app?vid=89d5e616-67c2-487d-84fa-df030ec505c6","ios":"levelo://app?vid=89d5e616-67c2-487d-84fa-df030ec505c6"},"vehicle_type_id":"4","last_reported":1740427870,"current_range_meters":19600,"station_id":"ce4bhs12rcd13ifvqhvg","pricing_plan_id":"cebpf4jnsgd1na2vs0mg"},{"bike_id":"9058162c-9726-4271-98e4-01eeb1dafe81","system_id":"levelo_inurba_marseille","lat":43.29684,"lon":5.37289,"is_reserved":false,"is_disabled":false,"rental_uris":{"android":"levelo://app?vid=9058162c-9726-4271-98e4-01eeb1dafe81","ios":"levelo://app?vid=9058162c-9726-4271-98e4-01eeb1dafe81"},"vehicle_type_id":"4","last_reported":1740427870,"current_range_meters":20000,"station_id":"ce4bgk12rcd13ifvqbj0","pricing_plan_id":"cebpf4jnsgd1na2vs0mg"},{"bike_id":"9bb96cdf-78d2-4f2d-a906-dc0df595fac7","system_id":"levelo_inurba_marseille","lat":43.26207,"lon":5.40473,"is_reserved":false,"is_disabled":false,"rental_uris":{"android":"levelo://app?vid=9bb96cdf-78d2-4f2d-a906-dc0df595fac7","ios":"levelo://app?vid=9bb96cdf-78d2-4f2d-a906-dc0df595fac7"},"vehicle_type_id":"4","last_reported":1740427870,"current_range_meters":20000,"station_id":"ce4bhmh2rcd13ifvqgmg","pricing_plan_id":"cebpf4jnsgd1na2vs0mg"},{"bike_id":"0405ecb7-d759-436b-8e27-cc5f65ed09ae","system_id":"levelo_inurba_marseille","lat":43.29702,"lon":5.36602,"is_reserved":false,"is_disabled":false,"rental_uris":{"android":"levelo://app?vid=0405ecb7-d759-436b-8e27-cc5f65ed09ae","ios":"levelo://app?vid=0405ecb7-d759-436b-8e27-cc5f65ed09ae"},