{"last_updated":1734602995,"ttl":60,"version":"2.2","data":{"bikes":[{"bike_id":"efd3baf0-d6cb-458c-9685-429603436550","system_id":"levelo_inurba_marseille","lat":43.24992,"lon":5.38969,"is_reserved":false,"is_disabled":false,"rental_uris":{"android":"levelo://app?vid=efd3baf0-d6cb-458c-9685-429603436550","ios":"levelo://app?vid=efd3baf0-d6cb-458c-9685-429603436550"},"vehicle_type_id":"4","last_reported":1734602995,"current_range_meters":19600,"station_id":"ce4bhgp2rcd13ifvqfd0","pricing_plan_id":"cebpf4jnsgd1na2vs0mg"},{"bike_id":"74dc27b5-e2a4-4b1e-9dc3-5894ac4bda0a","system_id":"levelo_inurba_marseille","lat":43.296,"lon":5.37201,"is_reserved":false,"is_disabled":false,"rental_uris":{"android":"levelo://app?vid=74dc27b5-e2a4-4b1e-9dc3-5894ac4bda0a","ios":"levelo://app?vid=74dc27b5-e2a4-4b1e-9dc3-5894ac4bda0a"},"vehicle_type_id":"4","last_reported":1734602995,"current_range_meters":8000,"station_id":"ce4bgnh2rcd13ifvqc0g","pricing_plan_id":"cebpf4jnsgd1na2vs0mg"},{"bike_id":"b8829d85-2ac3-47d9-a3f0-e980ddf998e1","system_id":"levelo_inurba_marseille","lat":43.30139,"lon":5.37422,"is_reserved":false,"is_disabled":false,"rental_uris":{"android":"levelo://app?vid=b8829d85-2ac3-47d9-a3f0-e980ddf998e1","ios":"levelo://app?vid=b8829d85-2ac3-47d9-a3f0-e980ddf998e1"},"vehicle_type_id":"4","last_reported":1734602995,"current_range_meters":28000,"station_id":"ce4bgs92rcd13ifvqcc0","pricing_plan_id":"cebpf4jnsgd1na2vs0mg"},{"bike_id":"8f438070-4379-48f1-b4d7-f27398447f3e","system_id":"levelo_inurba_marseille","lat":43.337444,"lon":5.374475,"is_reserved":false,"is_disabled":false,"rental_uris":{"android":"levelo://app?vid=8f438070-4379-48f1-b4d7-f27398447f3e","ios":"levelo://app?vid=8f438070-4379-48f1-b4d7-f27398447f3e"},"vehicle_type_id":"4","last_reported":1734602995,"current_range_meters":17200,"station_id":"","pricing_plan_id":"cebpf4jnsgd1na2vs0mg"},{"bike_id":"d11baf8e-015c-40b5-a1e6-f2929fc6cc45","system_id":"levelo_inurba_marseille","lat":43.23197,"lon":5.39982,"is_reserved":false,"is_disabled":false,"rental_uris":{"android":"levelo://app?vid=d11baf8e-015c-40b5-a1e6-f2929fc6cc45","ios":"levelo://app?vid=d11baf8e-015c-40b5-a1e6-f2929fc6cc45"},"vehicle_type_id":"4","last_reported":1734602995,"current_range_meters":37600,"station_id":"ce4bhn12rcd13ifvqgqg","pricing_plan_id":"cebpf4jnsgd1na2vs0mg"},{"bike_id":"adc013f9-0576-4610-9b99-b3b9fcc6fdbf","system_id":"levelo_inurba_marseille","lat":43.28158,"lon":5.4264,"is_reserved":false,"is_disabled":false,"rental_uris":{"android":"levelo://app?vid=adc013f9-0576-4610-9b99-b3b9fcc6fdbf","ios":"levelo://app?vid=adc013f9-0576-4610-9b99-b3b9fcc6fdbf"},"vehicle_type_id":"4","last_reported":1734602995,"current_range_meters":37600,"station_id":"ce4bhnh2rcd13ifvqgug","pricing_plan_id":"cebpf4jnsgd1na2vs0mg"},{"bike_id":"0b3c962c-40d1-4375-b60d-644d72aaacf1","system_id":"levelo_inurba_marseille","lat":43.28011,"lon":5.40394,"is_reserved":false,"is_disabled":true,"rental_uris":{"android":"levelo://app?vid=0b3c962c-40d1-4375-b60d-644d72aaacf1","ios":"levelo://app?vid=0b3c962c-40d1-4375-b60d-644d72aaacf1"},"vehicle_type_id":"4","last_reported":1734602995,"current_range_meters":0,"station_id":"","pricing_plan_id":"cebpf4jnsgd1na2vs0mg"},{"bike_id":"3fcb2b24-d10b-4bed-b94f-a71cb1d2dd34","system_id":"levelo_inurba_marseille","lat":43.23182,"lon":5.39995,"is_reserved":false,"is_disabled":false,"rental_uris":{"android":"levelo://app?vid=3fcb2b24-d10b-4bed-b94f-a71cb1d2dd34","ios":"levelo://app?vid=3fcb2b24-d10b-4bed-b94f-a71cb1d2dd34"},"vehicle_type_id":"4","last_reported":1734602995,"current_range_meters":38800,"station_id":"ce4bhn12rcd13ifvqgqg","pricing_plan_id":"cebpf4jnsgd1na2vs0mg"},{"bike_id":"57d20e8e-d2b1-4223-8734-4f1a79f0524a","system_id":"levelo_inurba_marseille","lat":43.28927,"lon":5.36402,"is_reserved":false,"is_disabled":false,"rental_uris":{"android":"levelo://app?vid=57d20e8e-d2b1-4223-8734-4f1a79f0524a","ios":"levelo://app?vid=57d20e8e-d2b1-4223-8734-4f1a79f0524a"},"vehicle_type_id":"4","last_reported":1734602995,"current_range_meters":35600,"station_id":"ce4bhc92rcd13ifvqetg","pricing_plan_id":"cebpf4jnsgd1na2vs0mg"},{"bike_id":"3b5b02e2-92a0-43fc-8f2d-a81d0fb57fe6","system_id":"levelo_inurba_marseille","lat":43.23151,"lon":5.43697,"is_reserved":false,"is_disabled":false,"rental_uris":{"android":"levelo://app?vid=3b5b02e2-92a0-43fc-8f2d-a81d0fb57fe6","ios":"levelo://app?vid=3b5b02e2-92a0-43fc-8f2d-a81d0fb57fe6"},"vehicle_type_id":"4","last_reported":1734602995,"current_range_meters":37600,"station_id":"ce4bhmp2rcd13ifvqgog","pricing_plan_id":"cebpf4jnsgd1na2vs0mg"},{"bike_id":"1a7a0d30-8421-4437-9d10-cf2397e85b04","system_id":"levelo_inurba_marseille","lat":43.26805,"lon":5.40266,"is_reserved":false,"is_disabled":false,"rental_uris":{"android":"levelo://app?vid=1a7a0d30-8421-4437-9d10-cf2397e85b04","ios":"levelo://app?vid=1a7a0d30-8421-4437-9d10-cf2397e85b04"},"vehicle_type_id":"4","last_reported":1734602995,"current_range_meters":38800,"station_id":"ce501612rcd8frsf0b60","pricing_plan_id":"cebpf4jnsgd1na2vs0mg"},{"bike_id":"03f1bdbc-0385-4309-afe2-78693a87e74d","system_id":"levelo_inurba_marseille","lat":43.30435,"lon":5.38892,"is_reserved":false,"is_disabled":true,"rental_uris":{"android":"levelo://app?vid=03f1bdbc-0385-4309-afe2-78693a87e74d","ios":"levelo://app?vid=03f1bdbc-0385-4309-afe2-78693a87e74d"},"vehicle_type_id":"4","last_reported":1734602995,"current_range_meters":38800,"station_id":"ce4bgk12rcd13ifvqbi0","pricing_plan_id":"cebpf4jnsgd1na2vs0mg"},{"bike_id":"53216bc0-db19-436b-803c-24b87a4c95f3","system_id":"levelo_inurba_marseille","lat":43.32486,"lon":5.36577,"is_reserved":false,"is_disabled":false,"rental_uris":{"android":"levelo://app?vid=53216bc0-db19-436b-803c-24b87a4c95f3","ios":"levelo://app?vid=53216bc0-db19-436b-803c-24b87a4c95f3"},"vehicle_type_id":"4","last_reported":1734602995,"current_range_meters":30000,"station_id":"ce4bhs12rcd13ifvqhvg","pricing_plan_id":"cebpf4jnsgd1na2vs0mg"},{"bike_id":"f69b8f76-fe8c-4abb-896e-8c2ac1e32ce2","system_id":"levelo_inurba_marseille","lat":43.30308,"lon":5.36896,"is_reserved":false,"is_disabled":false,"rental_uris":{"android":"levelo://app?vid=f69b8f76-fe8c-4abb-896e-8c2ac1e32ce2","ios":"levelo://app?vid=f69b8f76-fe8c-4abb-896e-8c2ac1e32ce2"},"vehicle_type_id":"4","last_reported":1734602995,"current_range_meters":35600,"station_id":"ce4bgqh2rcd13ifvqc5g","pricing_plan_id":"cebpf4jnsgd1na2vs0mg"},{"bike_id":"3417d897-84a9-44ba-81ef-40200cfed818","system_id":"levelo_inurba_marseille","lat":43.25709,"lon":5.41072,"is_reserved":false,"is_disabled":false,"rental_uris":{"android":"levelo://app?vid=3417d897-84a9-44ba-81ef-40200cfed818","ios":"levelo://app?vid=3417d897-84a9-44ba-81ef-40200cfed818"},"vehicle_type_id":"4","last_reported":1734602995,"current_range_meters":39200,"station_id":"ce4bhkp2rcd13ifvqgd0","pricing_plan_id":"cebpf4jnsgd1na2vs0mg"},{"bike_id":"b3a0a937-593c-426c-a8c8-0efad309623d","system_id":"levelo_inurba_marseille","lat":43.29259,"lon":5.40142,"is_reserved":false,"is_disabled":true,"rental_uris":{"android":"levelo://app?vid=b3a0a937-593c-426c-a8c8-0efad309623d","ios":"levelo://app?vid=b3a0a937-593c-426c-a8c8-0efad309623d"},"vehicle_type_id":"4","last_reported":1734602995,"current_range_meters":29600,"station_id":"ce4bh312rcd13ifvqdk0","pricing_plan_id":"cebpf4jnsgd1na2vs0mg"},{"bike_id":"ba009d8e-0840-435f-99ae-ad353dc413fa","system_id":"levelo_inurba_marseille","lat":43.296195,"lon":5.37717,"is_reserved":false,"is_disabled":true,"rental_uris":{"android":"levelo://app?vid=ba009d8e-0840-435f-99ae-ad353dc413fa","ios":"levelo://app?vid=ba009d8e-0840-435f-99ae-ad353dc413fa"},"vehicle_type_id":"4","last_reported":1734602995,"current_range_meters":38400,"station_id":"ce4bgi92rcd13ifvqb90","pricing_plan_id":"cebpf4jnsgd1na2vs0mg"},{"bike_id":"53c5dd90-208e-4b14-9aec-3133385e99e3","system_id":"levelo_inurba_marseille","lat":43.29559,"lon":5.42282,"is_reserved":false,"is_disabled":false,"rental_uris":{"android":"levelo://app?vid=53c5dd90-208e-4b14-9aec-3133385e99e3","ios":"levelo://app?vid=53c5dd90-208e-4b14-9aec-3133385e99e3"},"vehicle_type_id":"4","last_reported":1734602995,"current_range_meters":8800,"station_id":"ce4bhph2rcd13ifvqhdg","pricing_plan_id":"cebpf4jnsgd1na2vs0mg"},{"bike_id":"1aec29cd-dc50-4387-9691-f0550a02daa1","system_id":"levelo_inurba_marseille","lat":43.3091,"lon":5.36849,"is_reserved":false,"is_disabled":false,"rental_uris":{"android":"levelo://app?vid=1aec29cd-dc50-4387-9691-f0550a02daa1","ios":"levelo://app?vid=1aec29cd-dc50-4387-9691-f0550a02daa1"},"vehicle_type_id":"4","last_reported":1734602995,"current_range_meters":32400,"station_id":"ce4bgn92rcd13ifvqbvg","pricing_plan_id":"cebpf4jnsgd1na2vs0mg"},{"bike_id":"f7119de5-8b5d-4f6d-87f2-f115c52da981","system_id":"levelo_inurba_marseille","lat":43.2743,"lon":5.39397,"is_reserved":false,"is_disabled":false,"rental_uris":{"android":"levelo://app?vid=f7119de5-8b5d-4f6d-87f2-f115c52da981","ios":"levelo://app?vid=f7119de5-8b5d-4f6d-87f2-f115c52da981"},"vehicle_type_id":"4","last_reported":1734602995,"current_range_meters":10800,"station_id":"ce4bhdp2rcd13ifvqf20","pricing_plan_id":"cebpf4jnsgd1na2vs0mg"},{"bike_id":"62cc5a16-2562-4639-85b3-96bc9a8ba745","system_id":"levelo_inurba_marseille","lat":43.29845,"lon":5.36274,"is_reserved":false,"is_disabled":false,"rental_uris":{"android":"levelo://app?vid=62cc5a16-2562-4639-85b3-96bc9a8ba745","ios":"levelo://app?vid=62cc5a16-2562-4639-85b3-96bc9a8ba745"},"vehicle_type_id":"4","last_reported":1734602995,"current_range_meters":15200,"station_id":"ce4bgpp2rcd13ifvqc3g","pricing_plan_id":"cebpf4jnsgd1na2vs0mg"},{"bike_id":"56b10fd9-c1e1-4ec2-9cff-b04cc1fab7b2","system_id":"levelo_inurba_marseille","lat":43.3055,"lon":5.36544,"is_reserved":false,"is_disabled":false,"rental_uris":{"android":"levelo://app?vid=56b10fd9-c1e1-4ec2-9cff-b04cc1fab7b2","ios":"levelo://app?vid=56b10fd9-c1e1-4ec2-9cff-b04cc1fab7b2"},"vehicle_type_id":"4","last_reported":1734602995,"current_range_meters":29600,"station_id":"ce4bgs12rcd13ifvqcag","pricing_plan_id":"cebpf4jnsgd1na2vs0mg"},{"bike_id":"58e50a6c-01cd-4c92-867a-ab980279fe62","system_id":"levelo_inurba_marseille","lat":43.3266,"lon":5.40986,"is_reserved":false,"is_disabled":false,"rental_uris":{"android":"levelo://app?vid=58e50a6c-01cd-4c92-867a-ab980279fe62","ios":"levelo://app?vid=58e50a6c-01cd-4c92-867a-ab980279fe62"},"vehicle_type_id":"4","last_reported":1734602995,"current_range_meters":19200,"station_id":"ce4bhpp2rcd13ifvqhgg","pricing_plan_id":"cebpf4jnsgd1na2vs0mg"},{"bike_id":"d34bdf4f-71bc-4ae4-b273-f3852ddc692a","system_id":"levelo_inurba_marseille","lat":43.337444,"lon":5.374475,"is_reserved":false,"is_disabled":false,"rental_uris":{"android":"levelo://app?vid=d34bdf4f-71bc-4ae4-b273-f3852ddc692a","ios":"levelo://app?vid=d34bdf4f-71bc-4ae4-b273-f3852ddc692a"},"vehicle_type_id":"4","last_reported":1734602995,"current_range_meters":32000,"station_id":"","pricing_plan_id":"cebpf4jnsgd1na2vs0mg"},{"bike_id":"bec40a7c-d6af-4aad-8945-d38c44edcda9","system_id":"levelo_inurba_marseille","lat":43.29313,"lon":5.37146,"is_reserved":false,"is_disabled":false,"rental_uris":{"android":"levelo://app?vid=bec40a7c-d6af-4aad-8945-d38c44edcda9","ios":"levelo://app?vid=bec40a7c-d6af-4aad-8945-d38c44edcda9"},"vehicle_type_id":"4","last_reported":1734602995,"current_range_meters":38800,"station_id":"ce4bgh92rcd13ifvqb40","pricing_plan_id":"cebpf4jnsgd1na2vs0mg"},{"bike_id":"cece21bd-76d6-4f19-b3ff-0220eec8a48b","system_id":"levelo_inurba_marseille","lat":43.2919,"lon":5.3582,"is_reserved":false,"is_disabled":false,"rental_uris":{"android":"levelo://app?vid=cece21bd-76d6-4f19-b3ff-0220eec8a48b","ios":"levelo://app?vid=cece21bd-76d6-4f19-b3ff-0220eec8a48b"},"vehicle_type_id":"4","last_reported":1734602995,"current_range_meters":38000,"station_id":"ce4bhb12rcd13ifvqel0","pricing_plan_id":"cebpf4jnsgd1na2vs0mg"},{"bike_id":"21d59a90-3465-4ae0-adfc-6143386798fb","system_id":"levelo_inurba_marseille","lat":43.24079,"lon":5.37754,"is_reserved":false,"is_disabled":false,"rental_uris":{"android":"levelo://app?vid=21d59a90-3465-4ae0-adfc-6143386798fb","ios":"levelo://app?vid=21d59a90-3465-4ae0-adfc-6143386798fb"},"vehicle_type_id":"4","last_reported":1734602995,"current_range_meters":36000,"station_id":"ce4bhnp2rcd13ifvqgvg","pricing_plan_id":"cebpf4jnsgd1na2vs0mg"},{"bike_id":"e0cd68ca-6592-4a0b-8ec1-158f1189ddb3","system_id":"levelo_inurba_marseille","lat":43.29728,"lon":5.37693,"is_reserved":false,"is_disabled":false,"rental_uris":{"android":"levelo://app?vid=e0cd68ca-6592-4a0b-8ec1-158f1189ddb3","ios":"levelo://app?vid=e0cd68ca-6592-4a0b-8ec1-158f1189ddb3"},"vehicle_type_id":"4","last_reported":1734602995,"current_range_meters":38800,"station_id":"ce4bgkh2rcd13ifvqbl0","pricing_plan_id":"cebpf4jnsgd1na2vs0mg"},{"bike_id":"714b968a-6ecb-4bfa-a210-b7fbcf0c5de1","system_id":"levelo_inurba_marseille","lat":43.29976,"lon":5.37157,"is_reserved":false,"is_disabled":true,"rental_uris":{"android":"levelo://app?vid=714b968a-6ecb-4bfa-a210-b7fbcf0c5de1","ios":"levelo://app?vid=714b968a-6ecb-4bfa-a210-b7fbcf0c5de1"},"vehicle_type_id":"4","last_reported":1734602995,"current_range_meters":38800,"station_id":"ce4bgr92rcd13ifvqc7g","pricing_plan_id":"cebpf4jnsgd1na2vs0mg"},{"bike_id":"4cb2ad4d-0b7d-497c-b467-6d51f447e8a9","system_id":"levelo_inurba_marseille","lat":43.30136,"lon":5.37427,"is_reserved":false,"is_disabled":false,"rental_uris":{"android":"levelo://app?vid=4cb2ad4d-0b7d-497c-b467-6d51f447e8a9","ios":"levelo://app?vid=4cb2ad4d-0b7d-497c-b467-6d51f447e8a9"},"vehicle_type_id":"4","last_reported":1734602995,"current_range_meters":38800,"station_id":"ce4bgs92rcd13ifvqcc0","pricing_plan_id":"cebpf4jnsgd1na2vs0mg"},{"bike_id":"2491c714-f3f7-493b-9790-9992e16c8fb6","system_id":"levelo_inurba_marseille","lat":43.34147,"lon":5.40894,"is_reserved":false,"is_disabled":false,"rental_uris":{"android":"levelo://app?vid=2491c714-f3f7-493b-9790-9992e16c8fb6","ios":"levelo://app?vid=2491c714-f3f7-493b-9790-9992e16c8fb6"},"vehicle_type_id":"4","last_reported":1734602995,"current_range_meters":38800,"station_id":"ce4bhqh2rcd13ifvqhlg","pricing_plan_id":"cebpf4jnsgd1na2vs0mg"},{"bike_id":"d8f5e76e-f9f7-4677-b4d2-89d449c9f02e","system_id":"levelo_inurba_marseille","lat":43.29922,"lon":5.4364,"is_reserved":false,"is_disabled":false,"rental_uris":{"android":"levelo://app?vid=d8f5e76e-f9f7-4677-b4d2-89d449c9f02e","ios":"levelo://app?vid=d8f5e76e-f9f7-4677-b4d2-89d449c9f02e"},"vehicle_type_id":"4","last_reported":1734602995,"current_range_meters":14400,"station_id":"ce4bhpp2rcd13ifvqhfg","pricing_plan_id":"cebpf4jnsgd1na2vs0mg"},{"bike_id":"ea1ee0a0-f240-4d25-84d9-e6fb6fc7a18c","system_id":"levelo_inurba_marseille","lat":43.33776,"lon":5.42097,"is_reserved":false,"is_disabled":true,"rental_uris":{"android":"levelo://app?vid=ea1ee0a0-f240-4d25-84d9-e6fb6fc7a18c","ios":"levelo://app?vid=ea1ee0a0-f240-4d25-84d9-e6fb6fc7a18c"},"vehicle_type_id":"4","last_reported":1734602995,"current_range_meters":0,"station_id":"","pricing_plan_id":"cebpf4jnsgd1na2vs0mg"},{"bike_id":"3370228e-7c9e-4822-8578-b83cd1917e45","system_id":"levelo_inurba_marseille","lat":43.30521,"lon":5.36711,"is_reserved":false,"is_disabled":false,"rental_uris":{"android":"levelo://app?vid=3370228e-7c9e-4822-8578-b83cd1917e45","ios":"levelo://app?vid=3370228e-7c9e-4822-8578-b83cd1917e45"},"vehicle_type_id":"4","last_reported":1734602995,"current_range_meters":36000,"station_id":"ce4bgrp2rcd13ifvqc9g","pricing_plan_id":"cebpf4jnsgd1na2vs0mg"},{"bike_id":"77687ff1-bc20-46fa-b2be-6f78d26f691e","system_id":"levelo_inurba_marseille","lat":43.28935,"lon":5.36633,"is_reserved":false,"is_disabled":false,"rental_uris":{"android":"levelo://app?vid=77687ff1-bc20-46fa-b2be-6f78d26f691e","ios":"levelo://app?vid=77687ff1-bc20-46fa-b2be-6f78d26f691e"},"vehicle_type_id":"4","last_reported":1734602995,"current_range_meters":38800,"station_id":"ce4bhap2rcd13ifvqek0","pricing_plan_id":"cebpf4jnsgd1na2vs0mg"},{"bike_id":"c2dabcae-26dc-4862-b0b6-4388b7d32cca","system_id":"levelo_inurba_marseille","lat":43.33612,"lon":5.41041,"is_reserved":false,"is_disabled":false,"rental_uris":{"android":"levelo://app?vid=c2dabcae-26dc-4862-b0b6-4388b7d32cca","ios":"levelo://app?vid=c2dabcae-26dc-4862-b0b6-4388b7d32cca"},"vehicle_type_id":"4","last_reported":1734602995,"current_range_meters":11200,"station_id":"ce4bhqh2rcd13ifvqhmg","pricing_plan_id":"cebpf4jnsgd1na2vs0mg"},{"bike_id":"47aaaae2-a124-4877-b837-7c358b0ef4ed","system_id":"levelo_inurba_marseille","lat":43.30426,"lon":5.39745,"is_reserved":false,"is_disabled":false,"rental_uris":{"android":"levelo://app?vid=47aaaae2-a124-4877-b837-7c358b0ef4ed","ios":"levelo://app?vid=47aaaae2-a124-4877-b837-7c358b0ef4ed"},"vehicle_type_id":"4","last_reported":1734602995,"current_range_meters":36800,"station_id":"ce4bh092rcd13ifvqd20","pricing_plan_id":"cebpf4jnsgd1na2vs0mg"},{"bike_id":"761ab6a7-2ec7-4555-a1f0-2db1a19b7dee","system_id":"levelo_inurba_marseille","lat":43.28715,"lon":5.37941,"is_reserved":false,"is_disabled":false,"rental_uris":{"android":"levelo://app?vid=761ab6a7-2ec7-4555-a1f0-2db1a19b7dee","ios":"levelo://app?vid=761ab6a7-2ec7-4555-a1f0-2db1a19b7dee"},"vehicle_type_id":"4","last_reported":1734602995,"current_range_meters":39200,"station_id":"ce4bh9p2rcd13ifvqec0","pricing_plan_id":"cebpf4jnsgd1na2vs0mg"},{"bike_id":"c1a1fa5f-d29e-4426-91a1-216d47a2aade","system_id":"levelo_inurba_marseille","lat":43.29306,"lon":5.37178,"is_reserved":false,"is_disabled":false,"rental_uris":{"android":"levelo://app?vid=c1a1fa5f-d29e-4426-91a1-216d47a2aade","ios":"levelo://app?vid=c1a1fa5f-d29e-4426-91a1-216d47a2aade"},"vehicle_type_id":"4","last_reported":1734602995,"current_range_meters":21600,"station_id":"ce4bgh92rcd13ifvqb40","pricing_plan_id":"cebpf4jnsgd1na2vs0mg"},{"bike_id":"79c02cd1-ea43-4e08-8ed3-73cfd9af8b96","system_id":"levelo_inurba_marseille","lat":43.26055,"lon":5.39388,"is_reserved":false,"is_disabled":true,"rental_uris":{"android":"levelo://app?vid=79c02cd1-ea43-4e08-8ed3-73cfd9af8b96","ios":"levelo://app?vid=79c02cd1-ea43-4e08-8ed3-73cfd9af8b96"},"vehicle_type_id":"4","last_reported":1734602995,"current_range_meters":38800,"station_id":"ce4bhh92rcd13ifvqfj0","pricing_plan_id":"cebpf4jnsgd1na2vs0mg"},{"bike_id":"8104e762-91f4-43a5-8466-d7decac7c024","system_id":"levelo_inurba_marseille","lat":43.28843,"lon":5.35841,"is_reserved":false,"is_disabled":false,"rental_uris":{"android":"levelo://app?vid=8104e762-91f4-43a5-8466-d7decac7c024","ios":"levelo://app?vid=8104e762-91f4-43a5-8466-d7decac7c024"},"vehicle_type_id":"4","last_reported":1734602995,"current_range_meters":18800,"station_id":"ce4bhb12rcd13ifvqem0","pricing_plan_id":"cebpf4jnsgd1na2vs0mg"},{"bike_id":"77592e58-7330-482c-98aa-1362dec7556c","system_id":"levelo_inurba_marseille","lat":43.30531,"lon":5.36536,"is_reserved":false,"is_disabled":false,"rental_uris":{"android":"levelo://app?vid=77592e58-7330-482c-98aa-1362dec7556c","ios":"levelo://app?vid=77592e58-7330-482c-98aa-1362dec7556c"},"vehicle_type_id":"4","last_reported":1734602995,"current_range_meters":39200,"station_id":"ce4bgs12rcd13ifvqcag","pricing_plan_id":"cebpf4jnsgd1na2vs0mg"},{"bike_id":"eb037c1f-10a0-4305-ad91-41eb8f7f8fd0","system_id":"levelo_inurba_marseille","lat":43.30157,"lon":5.38081,"is_reserved":false,"is_disabled":false,"rental_uris":{"android":"levelo://app?vid=eb037c1f-10a0-4305-ad91-41eb8f7f8fd0","ios":"levelo://app?vid=eb037c1f-10a0-4305-ad91-41eb8f7f8fd0"},"vehicle_type_id":"4","last_reported":1734602995,"current_range_meters":38800,"station_id":"ce4bgjp2rcd13ifvqbh0","pricing_plan_id":"cebpf4jnsgd1na2vs0mg"},{"bike_id":"a6df0468-95a7-46f2-992a-10072363cb48","system_id":"levelo_inurba_marseille","lat":43.29099,"lon":5.38155,"is_reserved":false,"is_disabled":false,"rental_uris":{"android":"levelo://app?vid=a6df0468-95a7-46f2-992a-10072363cb48","ios":"levelo://app?vid=a6df0468-95a7-46f2-992a-10072363cb48"},"vehicle_type_id":"4","last_reported":1734602995,"current_range_meters":35600,"station_id":"ce4bh512rcd13ifvqe2g","pricing_plan_id":"cebpf4jnsgd1na2vs0mg"},{"bike_id":"3d5343bc-3c9a-4082-84d7-94a4fb11543e","system_id":"levelo_inurba_marseille","lat":43.24076,"lon":5.37748,"is_reserved":false,"is_disabled":false,"rental_uris":{"android":"levelo://app?vid=3d5343bc-3c9a-4082-84d7-94a4fb11543e","ios":"levelo://app?vid=3d5343bc-3c9a-4082-84d7-94a4fb11543e"},"vehicle_type_id":"4","last_reported":1734602995,"current_range_meters":36000,"station_id":"ce4bhnp2rcd13ifvqgvg","pricing_plan_id":"cebpf4jnsgd1na2vs0mg"},{"bike_id":"1885b7d2-ddff-41b4-b489-d8cbd47e5b4d","system_id":"levelo_inurba_marseille","lat":43.30429,"lon":5.39752,"is_reserved":false,"is_disabled":false,"rental_uris":{"android":"levelo://app?vid=1885b7d2-ddff-41b4-b489-d8cbd47e5b4d","ios":"levelo://app?vid=1885b7d2-ddff-41b4-b489-d8cbd47e5b4d"},"vehicle_type_id":"4","last_reported":1734602995,"current_range_meters":36800,"station_id":"ce4bh092rcd13ifvqd20","pricing_plan_id":"cebpf4jnsgd1na2vs0mg"},{"bike_id":"8cd6cfc8-d894-4850-bf59-7eb31e603e98","system_id":"levelo_inurba_marseille","lat":43.30537,"lon":5.36536,"is_reserved":false,"is_disabled":false,"rental_uris":{"android":"levelo://app?vid=8cd6cfc8-d894-4850-bf59-7eb31e603e98","ios":"levelo://app?vid=8cd6cfc8-d894-4850-bf59-7eb31e603e98"},"vehicle_type_id":"4","last_reported":1734602995,"current_range_meters":28800,"station_id":"ce4bgs12rcd13ifvqcag","pricing_plan_id":"cebpf4jnsgd1na2vs0mg"},{"bike_id":"0361e0da-50a7-4ddd-9d37-cf16ab600ce4","system_id":"levelo_inurba_marseille","lat":43.27964,"lon":5.38745,"is_reserved":false,"is_disabled":false,"rental_uris":{"android":"levelo://app?vid=0361e0da-50a7-4ddd-9d37-cf16ab600ce4","ios":"levelo://app?vid=0361e0da-50a7-4ddd-9d37-cf16ab600ce4"},"vehicle_type_id":"4","last_reported":1734602995,"current_range_meters":37600,"station_id":"ce4bhg12rcd13ifvqf80","pricing_plan_id":"cebpf4jnsgd1na2vs0mg"},{"bike_id":"04160c74-0c14-43dc-a1ea-014ddd2d56b6","system_id":"levelo_inurba_marseille","lat":43.29552,"lon":5.42288,"is_reserved":false,"is_disabled":false,"rental_uris":{"android":"levelo://app?vid=04160c74-0c14-43dc-a1ea-014ddd2d56b6","ios":"levelo://app?vid=04160c74-0c14-43dc-a1ea-014ddd2d56b6"},"vehicle_type_id":"4","last_reported":1734602995,"current_range_meters":30800,"station_id":"ce4bhph2rcd13ifvqhdg","pricing_plan_id":"cebpf4jnsgd1na2vs0mg"},{"bike_id":"06b03a71-2c60-49ac-ae36-76d0c0c37129","system_id":"levelo_inurba_marseille","lat":43.29919,"lon":5.3747,"is_reserved":false,"is_disabled":false,"rental_uris":{"android":"levelo://app?vid=06b03a71-2c60-49ac-ae36-76d0c0c37129","ios":"levelo://app?vid=06b03a71-2c60-49ac-ae36-76d0c0c37129"},"vehicle_type_id":"4","last_reported":1734602995,"current_range_meters":26800,"station_id":"ce4bgjh2rcd13ifvqbg0","pricing_plan_id":"cebpf4jnsgd1na2vs0mg"},{"bike_id":"71e806a8-b121-4f5b-a91d-1973653cb90c","system_id":"levelo_inurba_marseille","lat":43.337444,"lon":5.374475,"is_reserved":false,"is_disabled":false,"rental_uris":{"android":"levelo://app?vid=71e806a8-b121-4f5b-a91d-1973653cb90c","ios":"levelo://app?vid=71e806a8-b121-4f5b-a91d-1973653cb90c"},"vehicle_type_id":"4","last_reported":1734602995,"current_range_meters":26800,"station_id":"","pricing_plan_id":"cebpf4jnsgd1na2vs0mg"},{"bike_id":"0d4cf357-cd32-43d3-8971-89a7a2f06824","system_id":"levelo_inurba_marseille","lat":43.25574,"lon":5.38237,"is_reserved":false,"is_disabled":false,"rental_uris":{"android":"levelo://app?vid=0d4cf357-cd32-43d3-8971-89a7a2f06824","ios":"levelo://app?vid=0d4cf357-cd32-43d3-8971-89a7a2f06824"},"vehicle_type_id":"4","last_reported":1734602995,"current_range_meters":38000,"station_id":"ce4bhih2rcd13ifvqfs0","pricing_plan_id":"cebpf4jnsgd1na2vs0mg"},{"bike_id":"e7915aaf-2344-45ff-8491-a77eaa650ec6","system_id":"levelo_inurba_marseille","lat":43.3251,"lon":5.41444,"is_reserved":false,"is_disabled":false,"rental_uris":{"android":"levelo://app?vid=e7915aaf-2344-45ff-8491-a77eaa650ec6","ios":"levelo://app?vid=e7915aaf-2344-45ff-8491-a77eaa650ec6"},"vehicle_type_id":"4","last_reported":1734602995,"current_range_meters":36400,"station_id":"ce4bhq12rcd13ifvqhhg","pricing_plan_id":"cebpf4jnsgd1na2vs0mg"},{"bike_id":"b11dec3c-37ae-4e5f-a182-7db8571c22d2","system_id":"levelo_inurba_marseille","lat":43.29915,"lon":5.43639,"is_reserved":false,"is_disabled":false,"rental_uris":{"android":"levelo://app?vid=b11dec3c-37ae-4e5f-a182-7db8571c22d2","ios":"levelo://app?vid=b11dec3c-37ae-4e5f-a182-7db8571c22d2"},"vehicle_type_id":"4","last_reported":1734602995,"current_range_meters":37600,"station_id":"ce4bhpp2rcd13ifvqhfg","pricing_plan_id":"cebpf4jnsgd1na2vs0mg"},{"bike_id":"3fa68d7b-99f2-4b3e-a477-87ac1d8f415c","system_id":"levelo_inurba_marseille","lat":43.29232,"lon":5.38495,"is_reserved":false,"is_disabled":true,"rental_uris":{"android":"levelo://app?vid=3fa68d7b-99f2-4b3e-a477-87ac1d8f415c","ios":"levelo://app?vid=3fa68d7b-99f2-4b3e-a477-87ac1d8f415c"},"vehicle_type_id":"4","last_reported":1734602995,"current_range_meters":400,"station_id":"","pricing_plan_id":"cebpf4jnsgd1na2vs0mg"},{"bike_id":"6e62f14a-e70c-4891-9053-3720563c81cd","system_id":"levelo_inurba_marseille","lat":43.27369,"lon":5.3626,"is_reserved":false,"is_disabled":false,"rental_uris":{"android":"levelo://app?vid=6e62f14a-e70c-4891-9053-3720563c81cd","ios":"levelo://app?vid=6e62f14a-e70c-4891-9053-3720563c81cd"},"vehicle_type_id":"4","last_reported":1734602995,"current_range_meters":6400,"station_id":"ce4bhbh2rcd13ifvqeo0","pricing_plan_id":"cebpf4jnsgd1na2vs0mg"},{"bike_id":"72492ff3-d3e5-4b81-822b-1d3357339451","system_id":"levelo_inurba_marseille","lat":43.29076,"lon":5.39932,"is_reserved":false,"is_disabled":true,"rental_uris":{"android":"levelo://app?vid=72492ff3-d3e5-4b81-822b-1d3357339451","ios":"levelo://app?vid=72492ff3-d3e5-4b81-822b-1d3357339451"},"vehicle_type_id":"4","last_reported":1734602995,"current_range_meters":36400,"station_id":"ce4bh392rcd13ifvqdm0","pricing_plan_id":"cebpf4jnsgd1na2vs0mg"},{"bike_id":"700554ee-bd44-4e8d-bc99-75529e011aa1","system_id":"levelo_inurba_marseille","lat":43.30916,"lon":5.36858,"is_reserved":false,"is_disabled":false,"rental_uris":{"android":"levelo://app?vid=700554ee-bd44-4e8d-bc99-75529e011aa1","ios":"levelo://app?vid=700554ee-bd44-4e8d-bc99-75529e011aa1"},"vehicle_type_id":"4","last_reported":1734602995,"current_range_meters":39200,"station_id":"ce4bgn92rcd13ifvqbvg","pricing_plan_id":"cebpf4jnsgd1na2vs0mg"},{"bike_id":"74b5cd79-113b-453d-a7f4-a0c788312853","system_id":"levelo_inurba_marseille","lat":43.25926,"lon":5.40921,"is_reserved":false,"is_disabled":false,"rental_uris":{"android":"levelo://app?vid=74b5cd79-113b-453d-a7f4-a0c788312853","ios":"levelo://app?vid=74b5cd79-113b-453d-a7f4-a0c788312853"},"vehicle_type_id":"4","last_reported":1734602995,"current_range_meters":11600,"station_id":"ce4bhm92rcd13ifvqglg","pricing_plan_id":"cebpf4jnsgd1na2vs0mg"},{"bike_id":"f8f8ca28-08a0-4b4f-bf5a-f629e9e9330a","system_id":"levelo_inurba_marseille","lat":43.27058,"lon":5.40256,"is_reserved":false,"is_disabled":false,"rental_uris":{"android":"levelo://app?vid=f8f8ca28-08a0-4b4f-bf5a-f629e9e9330a","ios":"levelo://app?vid=f8f8ca28-08a0-4b4f-bf5a-f629e9e9330a"},"vehicle_type_id":"4","last_reported":1734602995,"current_range_meters":11600,"station_id":"ce4bhk92rcd13ifvqgc0","pricing_plan_id":"cebpf4jnsgd1na2vs0mg"},{"bike_id":"8817d0d5-9eca-431a-a655-80bc815ceaa5","system_id":"levelo_inurba_marseille","lat":43.29575,"lon":5.37509,"is_reserved":false,"is_disabled":false,"rental_uris":{"android":"levelo://app?vid=8817d0d5-9eca-431a-a655-80bc815ceaa5","ios":"levelo://app?vid=8817d0d5-9eca-431a-a655-80bc815ceaa5"},"vehicle_type_id":"4","last_reported":1734602995,"current_range_meters":35200,"station_id":"ce4bgh92rcd13ifvqb50","pricing_plan_id":"cebpf4jnsgd1na2vs0mg"},{"bike_id":"92dbe881-4d12-4807-9474-87af83394dc5","system_id":"levelo_inurba_marseille","lat":43.31365,"lon":5.36709,"is_reserved":false,"is_disabled":false,"rental_uris":{"android":"levelo://app?vid=92dbe881-4d12-4807-9474-87af83394dc5","ios":"levelo://app?vid=92dbe881-4d12-4807-9474-87af83394dc5"},"vehicle_type_id":"4","last_reported":1734602995,"current_range_meters":34000,"station_id":"ce4bgr92rcd13ifvqc6g","pricing_plan_id":"cebpf4jnsgd1na2vs0mg"},{"bike_id":"78471806-92f3-4670-9c4a-cbf55d75e3f8","system_id":"levelo_inurba_marseille","lat":43.32487,"lon":5.36566,"is_reserved":false,"is_disabled":false,"rental_uris":{"android":"levelo://app?vid=78471806-92f3-4670-9c4a-cbf55d75e3f8","ios":"levelo://app?vid=78471806-92f3-4670-9c4a-cbf55d75e3f8"},"vehicle_type_id":"4","last_reported":1734602995,"current_range_meters":38800,"station_id":"ce4bhs12rcd13ifvqhvg","pricing_plan_id":"cebpf4jnsgd1na2vs0mg"},{"bike_id":"c3f48430-88a8-4dc3-a8f8-d2830ffbfb45","system_id":"levelo_inurba_marseille","lat":43.34139,"lon":5.40907,"is_reserved":false,"is_disabled":true,"rental_uris":{"android":"levelo://app?vid=c3f48430-88a8-4dc3-a8f8-d2830ffbfb45","ios":"levelo://app?vid=c3f48430-88a8-4dc3-a8f8-d2830ffbfb45"},"vehicle_type_id":"4","last_reported":1734602995,"current_range_meters":30800,"station_id":"ce4bhqh2rcd13ifvqhlg","pricing_plan_id":"cebpf4jnsgd1na2vs0mg"},{"bike_id":"49615322-2221-4fbd-815a-d1963abbd932","system_id":"levelo_inurba_marseille","lat":43.29099,"lon":5.38155,"is_reserved":false,"is_disabled":false,"rental_uris":{"android":"levelo://app?vid=49615322-2221-4fbd-815a-d1963abbd932","ios":"levelo://app?vid=49615322-2221-4fbd-815a-d1963abbd932"},"vehicle_type_id":"4","last_reported":1734602995,"current_range_meters":17200,"station_id":"ce4bh512rcd13ifvqe2g","pricing_plan_id":"cebpf4jnsgd1na2vs0mg"},{"bike_id":"370b1eb6-4f45-4760-84c5-106172693f5d","system_id":"levelo_inurba_marseille","lat":43.23962,"lon":5.3663,"is_reserved":false,"is_disabled":false,"rental_uris":{"android":"levelo://app?vid=370b1eb6-4f45-4760-84c5-106172693f5d","ios":"levelo://app?vid=370b1eb6-4f45-4760-84c5-106172693f5d"},"vehicle_type_id":"4","last_reported":1734602995,"current_range_meters":28400,"station_id":"ce4bhi12rcd13ifvqfp0","pricing_plan_id":"cebpf4jnsgd1na2vs0mg"},{"bike_id":"3e1d0fc6-d668-4df4-9650-63e151d1989a","system_id":"levelo_inurba_marseille","lat":43.33601,"lon":5.40988,"is_reserved":false,"is_disabled":false,"rental_uris":{"android":"levelo://app?vid=3e1d0fc6-d668-4df4-9650-63e151d1989a","ios":"levelo://app?vid=3e1d0fc6-d668-4df4-9650-63e151d1989a"},"vehicle_type_id":"4","last_reported":1734602995,"current_range_meters":22000,"station_id":"ce4bhqh2rcd13ifvqhmg","pricing_plan_id":"cebpf4jnsgd1na2vs0mg"},{"bike_id":"782bcbf2-b7de-4b04-bebc-aaa0329dd90c","system_id":"levelo_inurba_marseille","lat":43.232,"lon":5.35561,"is_reserved":false,"is_disabled":false,"rental_uris":{"android":"levelo://app?vid=782bcbf2-b7de-4b04-bebc-aaa0329dd90c","ios":"levelo://app?vid=782bcbf2-b7de-4b04-bebc-aaa0329dd90c"},"vehicle_type_id":"4","last_reported":1734602995,"current_range_meters":38800,"station_id":"ce4bhu92rcd13ifvqi70","pricing_plan_id":"cebpf4jnsgd1na2vs0mg"},{"bike_id":"f5b051f4-e217-4e3b-843c-052a74518124","system_id":"levelo_inurba_marseille","lat":43.29919,"lon":5.37467,"is_reserved":false,"is_disabled":false,"rental_uris":{"android":"levelo://app?vid=f5b051f4-e217-4e3b-843c-052a74518124","ios":"levelo://app?vid=f5b051f4-e217-4e3b-843c-052a74518124"},"vehicle_type_id":"4","last_reported":1734602995,"current_range_meters":24000,"station_id":"ce4bgjh2rcd13ifvqbg0","pricing_plan_id":"cebpf4jnsgd1na2vs0mg"},{"bike_id":"84fc47e0-76ad-47ed-ac03-840ddf8b4a70","system_id":"levelo_inurba_marseille","lat":43.29309,"lon":5.3718,"is_reserved":false,"is_disabled":false,"rental_uris":{"android":"levelo://app?vid=84fc47e0-76ad-47ed-ac03-840ddf8b4a70","ios":"levelo://app?vid=84fc47e0-76ad-47ed-ac03-840ddf8b4a70"},"vehicle_type_id":"4","last_reported":1734602995,"current_range_meters":32000,"station_id":"ce4bgh92rcd13ifvqb40","pricing_plan_id":"cebpf4jnsgd1na2vs0mg"},{"bike_id":"96ff88dc-8cf7-4b0f-a345-fa00220da932","system_id":"levelo_inurba_marseille","lat":43.27417,"lon":5.42396,"is_reserved":false,"is_disabled":true,"rental_uris":{"android":"levelo://app?vid=96ff88dc-8cf7-4b0f-a345-fa00220da932","ios":"levelo://app?vid=96ff88dc-8cf7-4b0f-a345-fa00220da932"},"vehicle_type_id":"4","last_reported":1734602995,"current_range_meters":0,"station_id":"","pricing_plan_id":"cebpf4jnsgd1na2vs0mg"},{"bike_id":"d5c0e746-a9fa-4159-b28f-7d6a3cba6cea","system_id":"levelo_inurba_marseille","lat":43.24392,"lon":5.37059,"is_reserved":false,"is_disabled":false,"rental_uris":{"android":"levelo://app?vid=d5c0e746-a9fa-4159-b28f-7d6a3cba6cea","ios":"levelo://app?vid=d5c0e746-a9fa-4159-b28f-7d6a3cba6cea"},"vehicle_type_id":"4","last_reported":1734602995,"current_range_meters":15200,"station_id":"ce4bhhh2rcd13ifvqfk0","pricing_plan_id":"cebpf4jnsgd1na2vs0mg"},{"bike_id":"85eb6d48-2e0f-4b1f-8755-89aa8308a970","system_id":"levelo_inurba_marseille","lat":43.31103,"lon":5.37779,"is_reserved":false,"is_disabled":false,"rental_uris":{"android":"levelo://app?vid=85eb6d48-2e0f-4b1f-8755-89aa8308a970","ios":"levelo://app?vid=85eb6d48-2e0f-4b1f-8755-89aa8308a970"},"vehicle_type_id":"4","last_reported":1734602995,"current_range_meters":4000,"station_id":"ce4bgt92rcd13ifvqcg0","pricing_plan_id":"cebpf4jnsgd1na2vs0mg"},{"bike_id":"f6a0097d-208c-4ed5-9b7e-280c6a0f27f2","system_id":"levelo_inurba_marseille","lat":43.31271,"lon":5.40174,"is_reserved":false,"is_disabled":false,"rental_uris":{"android":"levelo://app?vid=f6a0097d-208c-4ed5-9b7e-280c6a0f27f2","ios":"levelo://app?vid=f6a0097d-208c-4ed5-9b7e-280c6a0f27f2"},"vehicle_type_id":"4","last_reported":1734602995,"current_range_meters":8800,"station_id":"ce4bh092rcd13ifvqd30","pricing_plan_id":"cebpf4jnsgd1na2vs0mg"},{"bike_id":"a2a605c8-f45e-4ab0-8cb5-731c77c85b78","system_id":"levelo_inurba_marseille","lat":43.27917,"lon":5.39573,"is_reserved":false,"is_disabled":false,"rental_uris":{"android":"levelo://app?vid=a2a605c8-f45e-4ab0-8cb5-731c77c85b78","ios":"levelo://app?vid=a2a605c8-f45e-4ab0-8cb5-731c77c85b78"},"vehicle_type_id":"4","last_reported":1734602995,"current_range_meters":24800,"station_id":"ce4bhf92rcd13ifvqf40","pricing_plan_id":"cebpf4jnsgd1na2vs0mg"},{"bike_id":"973d7989-7329-4f2e-8f6f-c396339f4a74","system_id":"levelo_inurba_marseille","lat":43.28936,"lon":5.39629,"is_reserved":false,"is_disabled":false,"rental_uris":{"android":"levelo://app?vid=973d7989-7329-4f2e-8f6f-c396339f4a74","ios":"levelo://app?vid=973d7989-7329-4f2e-8f6f-c396339f4a74"},"vehicle_type_id":"4","last_reported":1734602995,"current_range_meters":24400,"station_id":"ce4bh3h2rcd13ifvqdn0","pricing_plan_id":"cebpf4jnsgd1na2vs0mg"},{"bike_id":"65332c14-8f41-4f1a-b711-08ad210242f2","system_id":"levelo_inurba_marseille","lat":43.29588,"lon":5.38099,"is_reserved":false,"is_disabled":false,"rental_uris":{"android":"levelo://app?vid=65332c14-8f41-4f1a-b711-08ad210242f2","ios":"levelo://app?vid=65332c14-8f41-4f1a-b711-08ad210242f2"},"vehicle_type_id":"4","last_reported":1734602995,"current_range_meters":36800,"station_id":"ce4bgl12rcd13ifvqbo0","pricing_plan_id":"cebpf4jnsgd1na2vs0mg"},{"bike_id":"e0c58e14-0fb2-48ae-ada1-f5faae476746","system_id":"levelo_inurba_marseille","lat":43.29301,"lon":5.37444,"is_reserved":false,"is_disabled":false,"rental_uris":{"android":"levelo://app?vid=e0c58e14-0fb2-48ae-ada1-f5faae476746","ios":"levelo://app?vid=e0c58e14-0fb2-48ae-ada1-f5faae476746"},"vehicle_type_id":"4","last_reported":1734602995,"current_range_meters":39200,"station_id":"ce4bgi12rcd13ifvqb70","pricing_plan_id":"cebpf4jnsgd1na2vs0mg"},{"bike_id":"dabc11e5-2a8c-408a-bea8-b9245b335168","system_id":"levelo_inurba_marseille","lat":43.24095,"lon":5.37735,"is_reserved":false,"is_disabled":true,"rental_uris":{"android":"levelo://app?vid=dabc11e5-2a8c-408a-bea8-b9245b335168","ios":"levelo://app?vid=dabc11e5-2a8c-408a-bea8-b9245b335168"},"vehicle_type_id":"4","last_reported":1734602995,"current_range_meters":0,"station_id":"ce4bhnp2rcd13ifvqgvg","pricing_plan_id":"cebpf4jnsgd1na2vs0mg"},{"bike_id":"2d094e3a-4eae-4efe-9a4a-0a2fac4adf99","system_id":"levelo_inurba_marseille","lat":43.30889,"lon":5.39658,"is_reserved":false,"is_disabled":true,"rental_uris":{"android":"levelo://app?vid=2d094e3a-4eae-4efe-9a4a-0a2fac4adf99","ios":"levelo://app?vid=2d094e3a-4eae-4efe-9a4a-0a2fac4adf99"},"vehicle_type_id":"4","last_reported":1734602995,"current_range_meters":400,"station_id":"ce4bh012rcd13ifvqcv0","pricing_plan_id":"cebpf4jnsgd1na2vs0mg"},{"bike_id":"44127e4e-8e84-4a38-89f7-8f4efb63f7a5","system_id":"levelo_inurba_marseille","lat":43.31194,"lon":5.367643,"is_reserved":false,"is_disabled":true,"rental_uris":{"android":"levelo://app?vid=44127e4e-8e84-4a38-89f7-8f4efb63f7a5","ios":"levelo://app?vid=44127e4e-8e84-4a38-89f7-8f4efb63f7a5"},"vehicle_type_id":"4","last_reported":1734602995,"current_range_meters":1600,"station_id":"","pricing_plan_id":"cebpf4jnsgd1na2vs0mg"},{"bike_id":"f1856f75-e444-483a-ae81-4b55212a6e52","system_id":"levelo_inurba_marseille","lat":43.2706,"lon":5.40254,"is_reserved":false,"is_disabled":false,"rental_uris":{"android":"levelo://app?vid=f1856f75-e444-483a-ae81-4b55212a6e52","ios":"levelo://app?vid=f1856f75-e444-483a-ae81-4b55212a6e52"},"vehicle_type_id":"4","last_reported":1734602995,"current_range_meters":30000,"station_id":"ce4bhk92rcd13ifvqgc0","pricing_plan_id":"cebpf4jnsgd1na2vs0mg"},{"bike_id":"a1d1a51c-2e0a-4342-ad3a-f20395046610","system_id":"levelo_inurba_marseille","lat":43.26781,"lon":5.39417,"is_reserved":false,"is_disabled":false,"rental_uris":{"android":"levelo://app?vid=a1d1a51c-2e0a-4342-ad3a-f20395046610","ios":"levelo://app?vid=a1d1a51c-2e0a-4342-ad3a-f20395046610"},"vehicle_type_id":"4","last_reported":1734602995,"current_range_meters":36800,"station_id":"ce4bhh12rcd13ifvqfg0","pricing_plan_id":"cebpf4jnsgd1na2vs0mg"},{"bike_id":"4c349833-7eac-4d35-aa56-1dde10c4f076","system_id":"levelo_inurba_marseille","lat":43.24401,"lon":5.37049,"is_reserved":false,"is_disabled":false,"rental_uris":{"android":"levelo://app?vid=4c349833-7eac-4d35-aa56-1dde10c4f076","ios":"levelo://app?vid=4c349833-7eac-4d35-aa56-1dde10c4f076"},"vehicle_type_id":"4","last_reported":1734602995,"current_range_meters":36000,"station_id":"ce4bhhh2rcd13ifvqfk0","pricing_plan_id":"cebpf4jnsgd1na2vs0mg"},{"bike_id":"a9b3d77d-2e18-4308-9125-afba81910095","system_id":"levelo_inurba_marseille","lat":43.32478,"lon":5.36566,"is_reserved":false,"is_disabled":false,"rental_uris":{"android":"levelo://app?vid=a9b3d77d-2e18-4308-9125-afba81910095","ios":"levelo://app?vid=a9b3d77d-2e18-4308-9125-afba81910095"},"vehicle_type_id":"4","last_reported":1734602995,"current_range_meters":34800,"station_id":"ce4bhs12rcd13ifvqhvg","pricing_plan_id":"cebpf4jnsgd1na2vs0mg"},{"bike_id":"39abffba-476f-44d5-aaa0-fe5bed1d8a08","system_id":"levelo_inurba_marseille","lat":43.29619,"lon":5.37155,"is_reserved":false,"is_disabled":false,"rental_uris":{"android":"levelo://app?vid=39abffba-476f-44d5-aaa0-fe5bed1d8a08","ios":"levelo://app?vid=39abffba-476f-44d5-aaa0-fe5bed1d8a08"},"vehicle_type_id":"4","last_reported":1734602995,"current_range_meters":19200,"station_id":"ce4bgnh2rcd13ifvqc0g","pricing_plan_id":"cebpf4jnsgd1na2vs0mg"},{"bike_id":"971feb65-7437-4289-8eaa-119397ab4cf2","system_id":"levelo_inurba_marseille","lat":43.27677,"lon":5.38875,"is_reserved":false,"is_disabled":false,"rental_uris":{"android":"levelo://app?vid=971feb65-7437-4289-8eaa-119397ab4cf2","ios":"levelo://app?vid=971feb65-7437-4289-8eaa-119397ab4cf2"},"vehicle_type_id":"4","last_reported":1734602995,"current_range_meters":14800,"station_id":"ce4bhi12rcd13ifvqfo0","pricing_plan_id":"cebpf4jnsgd1na2vs0mg"},{"bike_id":"ee39a4ff-b614-4dd2-956c-b384f0742800","system_id":"levelo_inurba_marseille","lat":43.32458,"lon":5.36569,"is_reserved":false,"is_disabled":false,"rental_uris":{"android":"levelo://app?vid=ee39a4ff-b614-4dd2-956c-b384f0742800","ios":"levelo://app?vid=ee39a4ff-b614-4dd2-956c-b384f0742800"},"vehicle_type_id":"4","last_reported":1734602995,"current_range_meters":26800,"station_id":"ce4bhs12rcd13ifvqhvg","pricing_plan_id":"cebpf4jnsgd1na2vs0mg"},{"bike_id":"51aa4879-fdb8-4f21-8566-772305ea84d4","system_id":"levelo_inurba_marseille","lat":43.28727,"lon":5.37935,"is_reserved":false,"is_disabled":false,"rental_uris":{"android":"levelo://app?vid=51aa4879-fdb8-4f21-8566-772305ea84d4","ios":"levelo://app?vid=51aa4879-fdb8-4f21-8566-772305ea84d4"},"vehicle_type_id":"4","last_reported":1734602995,"current_range_meters":24800,"station_id":"ce4bh9p2rcd13ifvqec0","pricing_plan_id":"cebpf4jnsgd1na2vs0mg"},{"bike_id":"b3bec2b2-1f55-4aa9-bf02-40acba001163","system_id":"levelo_inurba_marseille","lat":43.29843,"lon":5.36263,"is_reserved":false,"is_disabled":false,"rental_uris":{"android":"levelo://app?vid=b3bec2b2-1f55-4aa9-bf02-40acba001163","ios":"levelo://app?vid=b3bec2b2-1f55-4aa9-bf02-40acba001163"},"vehicle_type_id":"4","last_reported":1734602995,"current_range_meters":39200,"station_id":"ce4bgpp2rcd13ifvqc3g","pricing_plan_id":"cebpf4jnsgd1na2vs0mg"},{"bike_id":"4c8b14c1-a279-4e3d-b684-d6545dbf4d61","system_id":"levelo_inurba_marseille","lat":43.31062,"lon":5.3757,"is_reserved":false,"is_disabled":false,"rental_uris":{"android":"levelo://app?vid=4c8b14c1-a279-4e3d-b684-d6545dbf4d61","ios":"levelo://app?vid=4c8b14c1-a279-4e3d-b684-d6545dbf4d61"},"vehicle_type_id":"4","last_reported":1734602995,"current_range_meters":28800,"station_id":"","pricing_plan_id":"cebpf4jnsgd1na2vs0mg"},{"bike_id":"e0c2eddf-4ba9-4754-b0b5-efd80badee74","system_id":"levelo_inurba_marseille","lat":43.25864,"lon":5.39436,"is_reserved":false,"is_disabled":true,"rental_uris":{"android":"levelo://app?vid=e0c2eddf-4ba9-4754-b0b5-efd80badee74","ios":"levelo://app?vid=e0c2eddf-4ba9-4754-b0b5-efd80badee74"},"vehicle_type_id":"4","last_reported":1734602995,"current_range_meters":0,"station_id":"","pricing_plan_id":"cebpf4jnsgd1na2vs0mg"},{"bike_id":"171d375c-18ea-47b4-9afc-7b2025b0138d","system_id":"levelo_inurba_marseille","lat":43.279484,"lon":5.410498,"is_reserved":false,"is_disabled":true,"rental_uris":{"android":"levelo://app?vid=171d375c-18ea-47b4-9afc-7b2025b0138d","ios":"levelo://app?vid=171d375c-18ea-47b4-9afc-7b2025b0138d"},"vehicle_type_id":"4","last_reported":1734602995,"current_range_meters":38800,"station_id":"ce4bhnp2rcd13ifvqh0g","pricing_plan_id":"cebpf4jnsgd1na2vs0mg"},{"bike_id":"3b31c2da-b8e0-4766-a4e5-a7923c3a12fe","system_id":"levelo_inurba_marseille","lat":43.23146,"lon":5.43713,"is_reserved":false,"is_disabled":false,"rental_uris":{"android":"levelo://app?vid=3b31c2da-b8e0-4766-a4e5-a7923c3a12fe","ios":"levelo://app?vid=3b31c2da-b8e0-4766-a4e5-a7923c3a12fe"},"vehicle_type_id":"4","last_reported":1734602995,"current_range_meters":30000,"station_id":"ce4bhmp2rcd13ifvqgog","pricing_plan_id":"cebpf4jnsgd1na2vs0mg"},{"bike_id":"5ebfaff4-af01-419e-86db-3cd6fa0380b0","system_id":"levelo_inurba_marseille","lat":43.25832,"lon":5.3942,"is_reserved":false,"is_disabled":false,"rental_uris":{"android":"levelo://app?vid=5ebfaff4-af01-419e-86db-3cd6fa0380b0","ios":"levelo://app?vid=5ebfaff4-af01-419e-86db-3cd6fa0380b0"},"vehicle_type_id":"4","last_reported":1734602995,"current_range_meters":36400,"station_id":"ce4bhip2rcd13ifvqft0","pricing_plan_id":"cebpf4jnsgd1na2vs0mg"},{"bike_id":"0f62bb31-c5dc-4026-9192-bdd58d140ffc","system_id":"levelo_inurba_marseille","lat":43.337444,"lon":5.374475,"is_reserved":false,"is_disabled":false,"rental_uris":{"android":"levelo://app?vid=0f62bb31-c5dc-4026-9192-bdd58d140ffc","ios":"levelo://app?vid=0f62bb31-c5dc-4026-9192-bdd58d140ffc"},"vehicle_type_id":"4","last_reported":1734602995,"current_range_meters":36400,"station_id":"","pricing_plan_id":"cebpf4jnsgd1na2vs0mg"},{"bike_id":"b628f9d2-2862-4d34-acf0-db2b437dd106","system_id":"levelo_inurba_marseille","lat":43.24998,"lon":5.38919,"is_reserved":false,"is_disabled":false,"rental_uris":{"android":"levelo://app?vid=b628f9d2-2862-4d34-acf0-db2b437dd106","ios":"levelo://app?vid=b628f9d2-2862-4d34-acf0-db2b437dd106"},"vehicle_type_id":"4","last_reported":1734602995,"current_range_meters":6000,"station_id":"ce4bhgp2rcd13ifvqfd0","pricing_plan_id":"cebpf4jnsgd1na2vs0mg"},{"bike_id":"a9245533-f318-4538-96ed-56ac3554f58c","system_id":"levelo_inurba_marseille","lat":43.30542,"lon":5.36686,"is_reserved":false,"is_disabled":false,"rental_uris":{"android":"levelo://app?vid=a9245533-f318-4538-96ed-56ac3554f58c","ios":"levelo://app?vid=a9245533-f318-4538-96ed-56ac3554f58c"},"vehicle_type_id":"4","last_reported":1734602995,"current_range_meters":12400,"station_id":"ce4bgrp2rcd13ifvqc9g","pricing_plan_id":"cebpf4jnsgd1na2vs0mg"},{"bike_id":"72878e0a-c565-4d5a-aeff-a10d34e005a6","system_id":"levelo_inurba_marseille","lat":43.30949,"lon":5.39031,"is_reserved":false,"is_disabled":false,"rental_uris":{"android":"levelo://app?vid=72878e0a-c565-4d5a-aeff-a10d34e005a6","ios":"levelo://app?vid=72878e0a-c565-4d5a-aeff-a10d34e005a6"},"vehicle_type_id":"4","last_reported":1734602995,"current_range_meters":35200,"station_id":"ce4bgup2rcd13ifvqco0","pricing_plan_id":"cebpf4jnsgd1na2vs0mg"},{"bike_id":"e8eb4654-9c33-429b-b2e8-53f8bb5d7830","system_id":"levelo_inurba_marseille","lat":43.29619,"lon":5.37718,"is_reserved":false,"is_disabled":false,"rental_uris":{"android":"levelo://app?vid=e8eb4654-9c33-429b-b2e8-53f8bb5d7830","ios":"levelo://app?vid=e8eb4654-9c33-429b-b2e8-53f8bb5d7830"},"vehicle_type_id":"4","last_reported":1734602995,"current_range_meters":26800,"station_id":"ce4bgi92rcd13ifvqb90","pricing_plan_id":"cebpf4jnsgd1na2vs0mg"},{"bike_id":"6a2e47c9-3e3c-465c-ad4d-3d4c12ac0be5","system_id":"levelo_inurba_marseille","lat":43.2693,"lon":5.3892,"is_reserved":false,"is_disabled":false,"rental_uris":{"android":"levelo://app?vid=6a2e47c9-3e3c-465c-ad4d-3d4c12ac0be5","ios":"levelo://app?vid=6a2e47c9-3e3c-465c-ad4d-3d4c12ac0be5"},"vehicle_type_id":"4","last_reported":1734602995,"current_range_meters":2000,"station_id":"ce4bhhh2rcd13ifvqfl0","pricing_plan_id":"cebpf4jnsgd1na2vs0mg"},{"bike_id":"e6f867be-a98b-43bd-be0b-12f5af66c6c4","system_id":"levelo_inurba_marseille","lat":43.309794,"lon":5.398496,"is_reserved":false,"is_disabled":false,"rental_uris":{"android":"levelo://app?vid=e6f867be-a98b-43bd-be0b-12f5af66c6c4","ios":"levelo://app?vid=e6f867be-a98b-43bd-be0b-12f5af66c6c4"},"vehicle_type_id":"4","last_reported":1734602995,"current_range_meters":32000,"station_id":"","pricing_plan_id":"cebpf4jnsgd1na2vs0mg"},{"bike_id":"ffd694cb-08e7-4f62-9fce-f00446a83792","system_id":"levelo_inurba_marseille","lat":43.33721,"lon":5.39179,"is_reserved":false,"is_disabled":false,"rental_uris":{"android":"levelo://app?vid=ffd694cb-08e7-4f62-9fce-f00446a83792","ios":"levelo://app?vid=ffd694cb-08e7-4f62-9fce-f00446a83792"},"vehicle_type_id":"4","last_reported":1734602995,"current_range_meters":38400,"station_id":"ce4bhr92rcd13ifvqhsg","pricing_plan_id":"cebpf4jnsgd1na2vs0mg"},{"bike_id":"bb337245-7c41-4671-900b-a4d92ae562c6","system_id":"levelo_inurba_marseille","lat":43.295249,"lon":5.390275,"is_reserved":false,"is_disabled":true,"rental_uris":{"android":"levelo://app?vid=bb337245-7c41-4671-900b-a4d92ae562c6","ios":"levelo://app?vid=bb337245-7c41-4671-900b-a4d92ae562c6"},"vehicle_type_id":"4","last_reported":1734602995,"current_range_meters":0,"station_id":"ce4bh3p2rcd13ifvqdp0","pricing_plan_id":"cebpf4jnsgd1na2vs0mg"},{"bike_id":"230bd479-cac1-4ef3-966a-e2f300527d57","system_id":"levelo_inurba_marseille","lat":43.31217,"lon":5.36824,"is_reserved":false,"is_disabled":false,"rental_uris":{"android":"levelo://app?vid=230bd479-cac1-4ef3-966a-e2f300527d57","ios":"levelo://app?vid=230bd479-cac1-4ef3-966a-e2f300527d57"},"vehicle_type_id":"4","last_reported":1734602995,"current_range_meters":15200,"station_id":"ce4bgl92rcd13ifvqbq0","pricing_plan_id":"cebpf4jnsgd1na2vs0mg"},{"bike_id":"17317f2c-c2e9-4c2f-a167-5ed25c17ca64","system_id":"levelo_inurba_marseille","lat":43.29369,"lon":5.37854,"is_reserved":false,"is_disabled":false,"rental_uris":{"android":"levelo://app?vid=17317f2c-c2e9-4c2f-a167-5ed25c17ca64","ios":"levelo://app?vid=17317f2c-c2e9-4c2f-a167-5ed25c17ca64"},"vehicle_type_id":"4","last_reported":1734602995,"current_range_meters":14000,"station_id":"ce4bgjh2rcd13ifvqbf0","pricing_plan_id":"cebpf4jnsgd1na2vs0mg"},{"bike_id":"30cf218e-0565-4b4d-b831-6b6e7547fc40","system_id":"levelo_inurba_marseille","lat":43.26805,"lon":5.40263,"is_reserved":false,"is_disabled":false,"rental_uris":{"android":"levelo://app?vid=30cf218e-0565-4b4d-b831-6b6e7547fc40","ios":"levelo://app?vid=30cf218e-0565-4b4d-b831-6b6e7547fc40"},"vehicle_type_id":"4","last_reported":1734602995,"current_range_meters":2800,"station_id":"ce501612rcd8frsf0b60","pricing_plan_id":"cebpf4jnsgd1na2vs0mg"},{"bike_id":"44913b5b-bf16-48bb-862f-18c53e704f39","system_id":"levelo_inurba_marseille","lat":43.29374,"lon":5.37866,"is_reserved":false,"is_disabled":false,"rental_uris":{"android":"levelo://app?vid=44913b5b-bf16-48bb-862f-18c53e704f39","ios":"levelo://app?vid=44913b5b-bf16-48bb-862f-18c53e704f39"},"vehicle_type_id":"4","last_reported":1734602995,"current_range_meters":28000,"station_id":"ce4bgjh2rcd13ifvqbf0","pricing_plan_id":"cebpf4jnsgd1na2vs0mg"},{"bike_id":"3bc7e65e-db25-43f1-84f9-8bb379b5bba6","system_id":"levelo_inurba_marseille","lat":43.2895,"lon":5.36628,"is_reserved":false,"is_disabled":true,"rental_uris":{"android":"levelo://app?vid=3bc7e65e-db25-43f1-84f9-8bb379b5bba6","ios":"levelo://app?vid=3bc7e65e-db25-43f1-84f9-8bb379b5bba6"},"vehicle_type_id":"4","last_reported":1734602995,"current_range_meters":38800,"station_id":"ce4bhap2rcd13ifvqek0","pricing_plan_id":"cebpf4jnsgd1na2vs0mg"},{"bike_id":"27c0d3da-abe6-44d1-a26f-75fe1074a3b2","system_id":"levelo_inurba_marseille","lat":43.29005,"lon":5.35613,"is_reserved":false,"is_disabled":true,"rental_uris":{"android":"levelo://app?vid=27c0d3da-abe6-44d1-a26f-75fe1074a3b2","ios":"levelo://app?vid=27c0d3da-abe6-44d1-a26f-75fe1074a3b2"},"vehicle_type_id":"4","last_reported":1734602995,"current_range_meters":37600,"station_id":"ce4bhb92rcd13ifvqen0","pricing_plan_id":"cebpf4jnsgd1na2vs0mg"},{"bike_id":"ee541765-428a-4bb1-bc90-f1a524fdccf5","system_id":"levelo_inurba_marseille","lat":43.31708,"lon":5.43698,"is_reserved":false,"is_disabled":false,"rental_uris":{"android":"levelo://app?vid=ee541765-428a-4bb1-bc90-f1a524fdccf5","ios":"levelo://app?vid=ee541765-428a-4bb1-bc90-f1a524fdccf5"},"vehicle_type_id":"4","last_reported":1734602995,"current_range_meters":27200,"station_id":"ce4bhp92rcd13ifvqhcg","pricing_plan_id":"cebpf4jnsgd1na2vs0mg"},{"bike_id":"17b2d2b0-9855-46b4-a478-0bd9c7277056","system_id":"levelo_inurba_marseille","lat":43.309048,"lon":5.378405,"is_reserved":false,"is_disabled":true,"rental_uris":{"android":"levelo://app?vid=17b2d2b0-9855-46b4-a478-0bd9c7277056","ios":"levelo://app?vid=17b2d2b0-9855-46b4-a478-0bd9c7277056"},"vehicle_type_id":"4","last_reported":1734602995,"current_range_meters":0,"station_id":"","pricing_plan_id":"cebpf4jnsgd1na2vs0mg"},{"bike_id":"7448830e-8418-4753-ac56-c801b75e9294","system_id":"levelo_inurba_marseille","lat":43.29615,"lon":5.37724,"is_reserved":false,"is_disabled":false,"rental_uris":{"android":"levelo://app?vid=7448830e-8418-4753-ac56-c801b75e9294","ios":"levelo://app?vid=7448830e-8418-4753-ac56-c801b75e9294"},"vehicle_type_id":"4","last_reported":1734602995,"current_range_meters":38800,"station_id":"ce4bgi92rcd13ifvqb90","pricing_plan_id":"cebpf4jnsgd1na2vs0mg"},{"bike_id":"a72b05a0-553d-4606-89ed-559596aa6693","system_id":"levelo_inurba_marseille","lat":43.314864,"lon":5.37306,"is_reserved":false,"is_disabled":false,"rental_uris":{"android":"levelo://app?vid=a72b05a0-553d-4606-89ed-559596aa6693","ios":"levelo://app?vid=a72b05a0-553d-4606-89ed-559596aa6693"},"vehicle_type_id":"4","last_reported":1734602995,"current_range_meters":9200,"station_id":"ce4bgt12rcd13ifvqcd0","pricing_plan_id":"cebpf4jnsgd1na2vs0mg"},{"bike_id":"67e28fa1-5c05-45ba-804f-23ff1db322b7","system_id":"levelo_inurba_marseille","lat":43.29613,"lon":5.37727,"is_reserved":false,"is_disabled":false,"rental_uris":{"android":"levelo://app?vid=67e28fa1-5c05-45ba-804f-23ff1db322b7","ios":"levelo://app?vid=67e28fa1-5c05-45ba-804f-23ff1db322b7"},"vehicle_type_id":"4","last_reported":1734602995,"current_range_meters":33200,"station_id":"ce4bgi92rcd13ifvqb90","pricing_plan_id":"cebpf4jnsgd1na2vs0mg"},{"bike_id":"9f97f512-1b19-443a-b67f-86de027e5577","system_id":"levelo_inurba_marseille","lat":43.34549,"lon":5.37605,"is_reserved":false,"is_disabled":true,"rental_uris":{"android":"levelo://app?vid=9f97f512-1b19-443a-b67f-86de027e5577","ios":"levelo://app?vid=9f97f512-1b19-443a-b67f-86de027e5577"},"vehicle_type_id":"4","last_reported":1734602995,"current_range_meters":23200,"station_id":"","pricing_plan_id":"cebpf4jnsgd1na2vs0mg"},{"bike_id":"da4cc445-7208-423d-bbea-6eed42d18866","system_id":"levelo_inurba_marseille","lat":43.29367,"lon":5.37866,"is_reserved":false,"is_disabled":false,"rental_uris":{"android":"levelo://app?vid=da4cc445-7208-423d-bbea-6eed42d18866","ios":"levelo://app?vid=da4cc445-7208-423d-bbea-6eed42d18866"},"vehicle_type_id":"4","last_reported":1734602995,"current_range_meters":30400,"station_id":"ce4bgjh2rcd13ifvqbf0","pricing_plan_id":"cebpf4jnsgd1na2vs0mg"},{"bike_id":"42057c18-a69f-4539-ad6c-9d136a2965ed","system_id":"levelo_inurba_marseille","lat":43.29033,"lon":5.3997,"is_reserved":false,"is_disabled":false,"rental_uris":{"android":"levelo://app?vid=42057c18-a69f-4539-ad6c-9d136a2965ed","ios":"levelo://app?vid=42057c18-a69f-4539-ad6c-9d136a2965ed"},"vehicle_type_id":"4","last_reported":1734602995,"current_range_meters":28800,"station_id":"ce4bh392rcd13ifvqdm0","pricing_plan_id":"cebpf4jnsgd1na2vs0mg"},{"bike_id":"a8e00bf6-f876-47bc-9a54-0fa76c609420","system_id":"levelo_inurba_marseille","lat":43.27372,"lon":5.36258,"is_reserved":false,"is_disabled":false,"rental_uris":{"android":"levelo://app?vid=a8e00bf6-f876-47bc-9a54-0fa76c609420","ios":"levelo://app?vid=a8e00bf6-f876-47bc-9a54-0fa76c609420"},"vehicle_type_id":"4","last_reported":1734602995,"current_range_meters":20800,"station_id":"ce4bhbh2rcd13ifvqeo0","pricing_plan_id":"cebpf4jnsgd1na2vs0mg"},{"bike_id":"32e2177a-a150-4fc1-8f4b-7b7586ce0edf","system_id":"levelo_inurba_marseille","lat":43.27492,"lon":5.42461,"is_reserved":false,"is_disabled":false,"rental_uris":{"android":"levelo://app?vid=32e2177a-a150-4fc1-8f4b-7b7586ce0edf","ios":"levelo://app?vid=32e2177a-a150-4fc1-8f4b-7b7586ce0edf"},"vehicle_type_id":"4","last_reported":1734602995,"current_range_meters":36000,"station_id":"ce4bhn92rcd13ifvqgrg","pricing_plan_id":"cebpf4jnsgd1na2vs0mg"},{"bike_id":"3a9f2c58-168a-43b6-bf1c-ba85eecd8717","system_id":"levelo_inurba_marseille","lat":43.30133,"lon":5.37409,"is_reserved":false,"is_disabled":false,"rental_uris":{"android":"levelo://app?vid=3a9f2c58-168a-43b6-bf1c-ba85eecd8717","ios":"levelo://app?vid=3a9f2c58-168a-43b6-bf1c-ba85eecd8717"},"vehicle_type_id":"4","last_reported":1734602995,"current_range_meters":20800,"station_id":"ce4bgs92rcd13ifvqcc0","pricing_plan_id":"cebpf4jnsgd1na2vs0mg"},{"bike_id":"d8599810-47ee-48de-8ea7-a4c2a66629c8","system_id":"levelo_inurba_marseille","lat":43.30543,"lon":5.36718,"is_reserved":false,"is_disabled":false,"rental_uris":{"android":"levelo://app?vid=d8599810-47ee-48de-8ea7-a4c2a66629c8","ios":"levelo://app?vid=d8599810-47ee-48de-8ea7-a4c2a66629c8"},"vehicle_type_id":"4","last_reported":1734602995,"current_range_meters":7200,"station_id":"ce4bgrp2rcd13ifvqc9g","pricing_plan_id":"cebpf4jnsgd1na2vs0mg"},{"bike_id":"0bf6aa79-6b54-448a-b039-02a240eb59f6","system_id":"levelo_inurba_marseille","lat":43.31265,"lon":5.40181,"is_reserved":false,"is_disabled":false,"rental_uris":{"android":"levelo://app?vid=0bf6aa79-6b54-448a-b039-02a240eb59f6","ios":"levelo://app?vid=0bf6aa79-6b54-448a-b039-02a240eb59f6"},"vehicle_type_id":"4","last_reported":1734602995,"current_range_meters":38000,"station_id":"ce4bh092rcd13ifvqd30","pricing_plan_id":"cebpf4jnsgd1na2vs0mg"},{"bike_id":"6d90c9d4-0b5c-43bf-b682-e7561e654b2c","system_id":"levelo_inurba_marseille","lat":43.29518,"lon":5.39403,"is_reserved":false,"is_disabled":true,"rental_uris":{"android":"levelo://app?vid=6d90c9d4-0b5c-43bf-b682-e7561e654b2c","ios":"levelo://app?vid=6d90c9d4-0b5c-43bf-b682-e7561e654b2c"},"vehicle_type_id":"4","last_reported":1734602995,"current_range_meters":2000,"station_id":"ce4bh292rcd13ifvqdf0","pricing_plan_id":"cebpf4jnsgd1na2vs0mg"},{"bike_id":"8381ccab-adc3-4a8a-b1d0-500b4205d6dd","system_id":"levelo_inurba_marseille","lat":43.30878,"lon":5.37202,"is_reserved":false,"is_disabled":false,"rental_uris":{"android":"levelo://app?vid=8381ccab-adc3-4a8a-b1d0-500b4205d6dd","ios":"levelo://app?vid=8381ccab-adc3-4a8a-b1d0-500b4205d6dd"},"vehicle_type_id":"4","last_reported":1734602995,"current_range_meters":38400,"station_id":"ce4bguh2rcd13ifvqckg","pricing_plan_id":"cebpf4jnsgd1na2vs0mg"},{"bike_id":"63ac9ec0-94d0-4b1e-8838-1ee7b4295fda","system_id":"levelo_inurba_marseille","lat":43.321034,"lon":5.367719,"is_reserved":false,"is_disabled":false,"rental_uris":{"android":"levelo://app?vid=63ac9ec0-94d0-4b1e-8838-1ee7b4295fda","ios":"levelo://app?vid=63ac9ec0-94d0-4b1e-8838-1ee7b4295fda"},"vehicle_type_id":"4","last_reported":1734602995,"current_range_meters":36000,"station_id":"ce4bhrh2rcd13ifvqhug","pricing_plan_id":"cebpf4jnsgd1na2vs0mg"},{"bike_id":"352972a4-c94f-4e47-92e9-3a3cb91026a4","system_id":"levelo_inurba_marseille","lat":43.2937,"lon":5.37862,"is_reserved":false,"is_disabled":false,"rental_uris":{"android":"levelo://app?vid=352972a4-c94f-4e47-92e9-3a3cb91026a4","ios":"levelo://app?vid=352972a4-c94f-4e47-92e9-3a3cb91026a4"},"vehicle_type_id":"4","last_reported":1734602995,"current_range_meters":8400,"station_id":"ce4bgjh2rcd13ifvqbf0","pricing_plan_id":"cebpf4jnsgd1na2vs0mg"},{"bike_id":"004d260c-9135-4244-94e5-751830b1074a","system_id":"levelo_inurba_marseille","lat":43.2407,"lon":5.3776,"is_reserved":false,"is_disabled":false,"rental_uris":{"android":"levelo://app?vid=004d260c-9135-4244-94e5-751830b1074a","ios":"levelo://app?vid=004d260c-9135-4244-94e5-751830b1074a"},"vehicle_type_id":"4","last_reported":1734602995,"current_range_meters":39200,"station_id":"ce4bhnp2rcd13ifvqgvg","pricing_plan_id":"cebpf4jnsgd1na2vs0mg"},{"bike_id":"34c63c6a-d747-44b4-9ae2-cc8776dcbf77","system_id":"levelo_inurba_marseille","lat":43.29718,"lon":5.37692,"is_reserved":false,"is_disabled":false,"rental_uris":{"android":"levelo://app?vid=34c63c6a-d747-44b4-9ae2-cc8776dcbf77","ios":"levelo://app?vid=34c63c6a-d747-44b4-9ae2-cc8776dcbf77"},"vehicle_type_id":"4","last_reported":1734602995,"current_range_meters":32000,"station_id":"ce4bgkh2rcd13ifvqbl0","pricing_plan_id":"cebpf4jnsgd1na2vs0mg"},{"bike_id":"38122019-0049-46a2-8c71-97505d3ac60a","system_id":"levelo_inurba_marseille","lat":43.30427,"lon":5.39752,"is_reserved":false,"is_disabled":true,"rental_uris":{"android":"levelo://app?vid=38122019-0049-46a2-8c71-97505d3ac60a","ios":"levelo://app?vid=38122019-0049-46a2-8c71-97505d3ac60a"},"vehicle_type_id":"4","last_reported":1734602995,"current_range_meters":0,"station_id":"ce4bh092rcd13ifvqd20","pricing_plan_id":"cebpf4jnsgd1na2vs0mg"},{"bike_id":"0fe0c5a6-31ce-4c65-9add-d94f480eccef","system_id":"levelo_inurba_marseille","lat":43.29968,"lon":5.38496,"is_reserved":false,"is_disabled":false,"rental_uris":{"android":"levelo://app?vid=0fe0c5a6-31ce-4c65-9add-d94f480eccef","ios":"levelo://app?vid=0fe0c5a6-31ce-4c65-9add-d94f480eccef"},"vehicle_type_id":"4","last_reported":1734602995,"current_range_meters":16400,"station_id":"ce4bgj92rcd13ifvqbd0","pricing_plan_id":"cebpf4jnsgd1na2vs0mg"},{"bike_id":"8bc50c6c-0739-429c-8ea9-92f9736d81e1","system_id":"levelo_inurba_marseille","lat":43.290734,"lon":5.371814,"is_reserved":false,"is_disabled":false,"rental_uris":{"android":"levelo://app?vid=8bc50c6c-0739-429c-8ea9-92f9736d81e1","ios":"levelo://app?vid=8bc50c6c-0739-429c-8ea9-92f9736d81e1"},"vehicle_type_id":"4","last_reported":1734602995,"current_range_meters":38800,"station_id":"ce4bh5p2rcd13ifvqe4g","pricing_plan_id":"cebpf4jnsgd1na2vs0mg"},{"bike_id":"7e309a17-acba-472d-b7d9-9b39cd54b115","system_id":"levelo_inurba_marseille","lat":43.29114,"lon":5.38132,"is_reserved":false,"is_disabled":true,"rental_uris":{"android":"levelo://app?vid=7e309a17-acba-472d-b7d9-9b39cd54b115","ios":"levelo://app?vid=7e309a17-acba-472d-b7d9-9b39cd54b115"},"vehicle_type_id":"4","last_reported":1734602995,"current_range_meters":17600,"station_id":"ce4bh512rcd13ifvqe2g","pricing_plan_id":"cebpf4jnsgd1na2vs0mg"},{"bike_id":"fdeb4ccc-d850-402e-84ed-8ebecff29977","system_id":"levelo_inurba_marseille","lat":43.29712,"lon":5.377,"is_reserved":false,"is_disabled":false,"rental_uris":{"android":"levelo://app?vid=fdeb4ccc-d850-402e-84ed-8ebecff29977","ios":"levelo://app?vid=fdeb4ccc-d850-402e-84ed-8ebecff29977"},"vehicle_type_id":"4","last_reported":1734602995,"current_range_meters":33600,"station_id":"ce4bgkh2rcd13ifvqbl0","pricing_plan_id":"cebpf4jnsgd1na2vs0mg"},{"bike_id":"6f5955f2-f150-4390-9828-ed9fb50a410b","system_id":"levelo_inurba_marseille","lat":43.29566,"lon":5.42296,"is_reserved":false,"is_disabled":false,"rental_uris":{"android":"levelo://app?vid=6f5955f2-f150-4390-9828-ed9fb50a410b","ios":"levelo://app?vid=6f5955f2-f150-4390-9828-ed9fb50a410b"},"vehicle_type_id":"4","last_reported":1734602995,"current_range_meters":20400,"station_id":"ce4bhph2rcd13ifvqhdg","pricing_plan_id":"cebpf4jnsgd1na2vs0mg"},{"bike_id":"12685c58-52ad-4b81-882b-82e16a63533b","system_id":"levelo_inurba_marseille","lat":43.31165,"lon":5.38727,"is_reserved":false,"is_disabled":false,"rental_uris":{"android":"levelo://app?vid=12685c58-52ad-4b81-882b-82e16a63533b","ios":"levelo://app?vid=12685c58-52ad-4b81-882b-82e16a63533b"},"vehicle_type_id":"4","last_reported":1734602995,"current_range_meters":16000,"station_id":"ce4bgv12rcd13ifvqcp0","pricing_plan_id":"cebpf4jnsgd1na2vs0mg"},{"bike_id":"cdec2c3d-99be-4ea0-a641-4b822f0d25e8","system_id":"levelo_inurba_marseille","lat":43.29517,"lon":5.37507,"is_reserved":false,"is_disabled":false,"rental_uris":{"android":"levelo://app?vid=cdec2c3d-99be-4ea0-a641-4b822f0d25e8","ios":"levelo://app?vid=cdec2c3d-99be-4ea0-a641-4b822f0d25e8"},"vehicle_type_id":"4","last_reported":1734602995,"current_range_meters":16400,"station_id":"ce4bgkp2rcd13ifvqbmg","pricing_plan_id":"cebpf4jnsgd1na2vs0mg"},{"bike_id":"0e228204-fb38-470f-9156-477a9839c956","system_id":"levelo_inurba_marseille","lat":43.27059,"lon":5.40257,"is_reserved":false,"is_disabled":false,"rental_uris":{"android":"levelo://app?vid=0e228204-fb38-470f-9156-477a9839c956","ios":"levelo://app?vid=0e228204-fb38-470f-9156-477a9839c956"},"vehicle_type_id":"4","last_reported":1734602995,"current_range_meters":38800,"station_id":"ce4bhk92rcd13ifvqgc0","pricing_plan_id":"cebpf4jnsgd1na2vs0mg"},{"bike_id":"17f3be34-5f41-4a43-b7e1-10d213e6ef0e","system_id":"levelo_inurba_marseille","lat":43.26209,"lon":5.37444,"is_reserved":false,"is_disabled":false,"rental_uris":{"android":"levelo://app?vid=17f3be34-5f41-4a43-b7e1-10d213e6ef0e","ios":"levelo://app?vid=17f3be34-5f41-4a43-b7e1-10d213e6ef0e"},"vehicle_type_id":"4","last_reported":1734602995,"current_range_meters":38000,"station_id":"ce4bhgp2rcd13ifvqfc0","pricing_plan_id":"cebpf4jnsgd1na2vs0mg"},{"bike_id":"f55a55a9-091b-45cd-bafe-e68f26f7c5a7","system_id":"levelo_inurba_marseille","lat":43.29858,"lon":5.36265,"is_reserved":false,"is_disabled":false,"rental_uris":{"android":"levelo://app?vid=f55a55a9-091b-45cd-bafe-e68f26f7c5a7","ios":"levelo://app?vid=f55a55a9-091b-45cd-bafe-e68f26f7c5a7"},"vehicle_type_id":"4","last_reported":1734602995,"current_range_meters":24400,"station_id":"ce4bgpp2rcd13ifvqc3g","pricing_plan_id":"cebpf4jnsgd1na2vs0mg"},{"bike_id":"79823b18-da4c-4ad6-b63a-98f586566945","system_id":"levelo_inurba_marseille","lat":43.31888,"lon":5.40729,"is_reserved":false,"is_disabled":false,"rental_uris":{"android":"levelo://app?vid=79823b18-da4c-4ad6-b63a-98f586566945","ios":"levelo://app?vid=79823b18-da4c-4ad6-b63a-98f586566945"},"vehicle_type_id":"4","last_reported":1734602995,"current_range_meters":30800,"station_id":"ce4bhq12rcd13ifvqhig","pricing_plan_id":"cebpf4jnsgd1na2vs0mg"},{"bike_id":"f0f98e1e-00ea-404a-8ec2-c3d3f0edd605","system_id":"levelo_inurba_marseille","lat":43.33612,"lon":5.41035,"is_reserved":false,"is_disabled":false,"rental_uris":{"android":"levelo://app?vid=f0f98e1e-00ea-404a-8ec2-c3d3f0edd605","ios":"levelo://app?vid=f0f98e1e-00ea-404a-8ec2-c3d3f0edd605"},"vehicle_type_id":"4","last_reported":1734602995,"current_range_meters":10000,"station_id":"ce4bhqh2rcd13ifvqhmg","pricing_plan_id":"cebpf4jnsgd1na2vs0mg"},{"bike_id":"f02c8fac-7e68-486d-8833-4aee179559b3","system_id":"levelo_inurba_marseille","lat":43.27066,"lon":5.42279,"is_reserved":false,"is_disabled":false,"rental_uris":{"android":"levelo://app?vid=f02c8fac-7e68-486d-8833-4aee179559b3","ios":"levelo://app?vid=f02c8fac-7e68-486d-8833-4aee179559b3"},"vehicle_type_id":"4","last_reported":1734602995,"current_range_meters":27200,"station_id":"ce4bhk92rcd13ifvqgb0","pricing_plan_id":"cebpf4jnsgd1na2vs0mg"},{"bike_id":"073a929d-4e5f-46c1-a47a-23cc5ce8318c","system_id":"levelo_inurba_marseille","lat":43.30966,"lon":5.39045,"is_reserved":false,"is_disabled":false,"rental_uris":{"android":"levelo://app?vid=073a929d-4e5f-46c1-a47a-23cc5ce8318c","ios":"levelo://app?vid=073a929d-4e5f-46c1-a47a-23cc5ce8318c"},"vehicle_type_id":"4","last_reported":1734602995,"current_range_meters":14800,"station_id":"ce4bgup2rcd13ifvqco0","pricing_plan_id":"cebpf4jnsgd1na2vs0mg"},{"bike_id":"a6507411-9c66-4600-a27b-20c00afbcb30","system_id":"levelo_inurba_marseille","lat":43.24807,"lon":5.37466,"is_reserved":false,"is_disabled":true,"rental_uris":{"android":"levelo://app?vid=a6507411-9c66-4600-a27b-20c00afbcb30","ios":"levelo://app?vid=a6507411-9c66-4600-a27b-20c00afbcb30"},"vehicle_type_id":"4","last_reported":1734602995,"current_range_meters":30000,"station_id":"ce4bhgh2rcd13ifvqfb0","pricing_plan_id":"cebpf4jnsgd1na2vs0mg"},{"bike_id":"53586763-e6eb-40b6-bde6-7786af1effe6","system_id":"levelo_inurba_marseille","lat":43.31195,"lon":5.36778,"is_reserved":false,"is_disabled":false,"rental_uris":{"android":"levelo://app?vid=53586763-e6eb-40b6-bde6-7786af1effe6","ios":"levelo://app?vid=53586763-e6eb-40b6-bde6-7786af1effe6"},"vehicle_type_id":"4","last_reported":1734602995,"current_range_meters":24000,"station_id":"","pricing_plan_id":"cebpf4jnsgd1na2vs0mg"},{"bike_id":"2c34e0ac-696c-4358-b5d7-1144ef6b9e89","system_id":"levelo_inurba_marseille","lat":43.29791,"lon":5.38086,"is_reserved":false,"is_disabled":false,"rental_uris":{"android":"levelo://app?vid=2c34e0ac-696c-4358-b5d7-1144ef6b9e89","ios":"levelo://app?vid=2c34e0ac-696c-4358-b5d7-1144ef6b9e89"},"vehicle_type_id":"4","last_reported":1734602995,"current_range_meters":38800,"station_id":"ce4bgip2rcd13ifvqbb0","pricing_plan_id":"cebpf4jnsgd1na2vs0mg"},{"bike_id":"699be605-c3f4-4276-babe-4ba137c46c01","system_id":"levelo_inurba_marseille","lat":43.26683,"lon":5.38272,"is_reserved":false,"is_disabled":false,"rental_uris":{"android":"levelo://app?vid=699be605-c3f4-4276-babe-4ba137c46c01","ios":"levelo://app?vid=699be605-c3f4-4276-babe-4ba137c46c01"},"vehicle_type_id":"4","last_reported":1734602995,"current_range_meters":25200,"station_id":"ce4bhg92rcd13ifvqf90","pricing_plan_id":"cebpf4jnsgd1na2vs0mg"},{"bike_id":"af958579-cc4d-44df-853f-d995a1a776b5","system_id":"levelo_inurba_marseille","lat":43.29847,"lon":5.36282,"is_reserved":false,"is_disabled":false,"rental_uris":{"android":"levelo://app?vid=af958579-cc4d-44df-853f-d995a1a776b5","ios":"levelo://app?vid=af958579-cc4d-44df-853f-d995a1a776b5"},"vehicle_type_id":"4","last_reported":1734602995,"current_range_meters":26000,"station_id":"ce4bgpp2rcd13ifvqc3g","pricing_plan_id":"cebpf4jnsgd1na2vs0mg"},{"bike_id":"5d229ec1-843c-42dd-b2d5-c6bbdc4852c3","system_id":"levelo_inurba_marseille","lat":43.33599,"lon":5.41035,"is_reserved":false,"is_disabled":true,"rental_uris":{"android":"levelo://app?vid=5d229ec1-843c-42dd-b2d5-c6bbdc4852c3","ios":"levelo://app?vid=5d229ec1-843c-42dd-b2d5-c6bbdc4852c3"},"vehicle_type_id":"4","last_reported":1734602995,"current_range_meters":25200,"station_id":"ce4bhqh2rcd13ifvqhmg","pricing_plan_id":"cebpf4jnsgd1na2vs0mg"},{"bike_id":"1f6c8910-0ea0-4154-9c68-3c4db09f57ea","system_id":"levelo_inurba_marseille","lat":43.30282,"lon":5.37717,"is_reserved":false,"is_disabled":false,"rental_uris":{"android":"levelo://app?vid=1f6c8910-0ea0-4154-9c68-3c4db09f57ea","ios":"levelo://app?vid=1f6c8910-0ea0-4154-9c68-3c4db09f57ea"},"vehicle_type_id":"4","last_reported":1734602995,"current_range_meters":24800,"station_id":"ce4bguh2rcd13ifvqcj0","pricing_plan_id":"cebpf4jnsgd1na2vs0mg"},{"bike_id":"7b159d3a-4c20-4472-bbed-20c5dde0f167","system_id":"levelo_inurba_marseille","lat":43.24061,"lon":5.37763,"is_reserved":false,"is_disabled":false,"rental_uris":{"android":"levelo://app?vid=7b159d3a-4c20-4472-bbed-20c5dde0f167","ios":"levelo://app?vid=7b159d3a-4c20-4472-bbed-20c5dde0f167"},"vehicle_type_id":"4","last_reported":1734602995,"current_range_meters":39200,"station_id":"ce4bhnp2rcd13ifvqgvg","pricing_plan_id":"cebpf4jnsgd1na2vs0mg"},{"bike_id":"9294b7c4-f950-43f8-8e30-fdbb56a51003","system_id":"levelo_inurba_marseille","lat":43.3148,"lon":5.36877,"is_reserved":false,"is_disabled":false,"rental_uris":{"android":"levelo://app?vid=9294b7c4-f950-43f8-8e30-fdbb56a51003","ios":"levelo://app?vid=9294b7c4-f950-43f8-8e30-fdbb56a51003"},"vehicle_type_id":"4","last_reported":1734602995,"current_range_meters":6800,"station_id":"","pricing_plan_id":"cebpf4jnsgd1na2vs0mg"},{"bike_id":"cf3ef334-d29e-4443-8b3c-2a11d5fc9407","system_id":"levelo_inurba_marseille","lat":43.26782,"lon":5.39417,"is_reserved":false,"is_disabled":false,"rental_uris":{"android":"levelo://app?vid=cf3ef334-d29e-4443-8b3c-2a11d5fc9407","ios":"levelo://app?vid=cf3ef334-d29e-4443-8b3c-2a11d5fc9407"},"vehicle_type_id":"4","last_reported":1734602995,"current_range_meters":38800,"station_id":"ce4bhh12rcd13ifvqfg0","pricing_plan_id":"cebpf4jnsgd1na2vs0mg"},{"bike_id":"61794759-5986-4fd0-89fa-fb2e5c3ae71a","system_id":"levelo_inurba_marseille","lat":43.29721,"lon":5.37694,"is_reserved":false,"is_disabled":false,"rental_uris":{"android":"levelo://app?vid=61794759-5986-4fd0-89fa-fb2e5c3ae71a","ios":"levelo://app?vid=61794759-5986-4fd0-89fa-fb2e5c3ae71a"},"vehicle_type_id":"4","last_reported":1734602995,"current_range_meters":36000,"station_id":"ce4bgkh2rcd13ifvqbl0","pricing_plan_id":"cebpf4jnsgd1na2vs0mg"},{"bike_id":"252bd630-4374-42f4-b54b-9ab3bc0619d4","system_id":"levelo_inurba_marseille","lat":43.30877,"lon":5.39635,"is_reserved":false,"is_disabled":false,"rental_uris":{"android":"levelo://app?vid=252bd630-4374-42f4-b54b-9ab3bc0619d4","ios":"levelo://app?vid=252bd630-4374-42f4-b54b-9ab3bc0619d4"},"vehicle_type_id":"4","last_reported":1734602995,"current_range_meters":19200,"station_id":"ce4bh012rcd13ifvqcv0","pricing_plan_id":"cebpf4jnsgd1na2vs0mg"},{"bike_id":"c3496803-beea-44f5-a957-15aa7bb7cfab","system_id":"levelo_inurba_marseille","lat":43.24079,"lon":5.37744,"is_reserved":false,"is_disabled":false,"rental_uris":{"android":"levelo://app?vid=c3496803-beea-44f5-a957-15aa7bb7cfab","ios":"levelo://app?vid=c3496803-beea-44f5-a957-15aa7bb7cfab"},"vehicle_type_id":"4","last_reported":1734602995,"current_range_meters":30400,"station_id":"ce4bhnp2rcd13ifvqgvg","pricing_plan_id":"cebpf4jnsgd1na2vs0mg"},{"bike_id":"8d1b5f91-ba60-4d3f-8a8c-fab96de6ed94","system_id":"levelo_inurba_marseille","lat":43.26203,"lon":5.37925,"is_reserved":false,"is_disabled":false,"rental_uris":{"android":"levelo://app?vid=8d1b5f91-ba60-4d3f-8a8c-fab96de6ed94","ios":"levelo://app?vid=8d1b5f91-ba60-4d3f-8a8c-fab96de6ed94"},"vehicle_type_id":"4","last_reported":1734602995,"current_range_meters":38800,"station_id":"ce4bhjp2rcd13ifvqg90","pricing_plan_id":"cebpf4jnsgd1na2vs0mg"},{"bike_id":"a3232108-6d4d-45f4-ac66-cd85d6391bc7","system_id":"levelo_inurba_marseille","lat":43.23054,"lon":5.355,"is_reserved":false,"is_disabled":true,"rental_uris":{"android":"levelo://app?vid=a3232108-6d4d-45f4-ac66-cd85d6391bc7","ios":"levelo://app?vid=a3232108-6d4d-45f4-ac66-cd85d6391bc7"},"vehicle_type_id":"4","last_reported":1734602995,"current_range_meters":35200,"station_id":"","pricing_plan_id":"cebpf4jnsgd1na2vs0mg"},{"bike_id":"14aaf123-bea1-4665-8d2d-c5a3f7c2f0cb","system_id":"levelo_inurba_marseille","lat":43.26942,"lon":5.38637,"is_reserved":false,"is_disabled":false,"rental_uris":{"android":"levelo://app?vid=14aaf123-bea1-4665-8d2d-c5a3f7c2f0cb","ios":"levelo://app?vid=14aaf123-bea1-4665-8d2d-c5a3f7c2f0cb"},"vehicle_type_id":"4","last_reported":1734602995,"current_range_meters":28400,"station_id":"ce4bhh92rcd13ifvqfh0","pricing_plan_id":"cebpf4jnsgd1na2vs0mg"},{"bike_id":"8418e734-4fcd-4b94-951b-0d0ce81a5b83","system_id":"levelo_inurba_marseille","lat":43.29682,"lon":5.37282,"is_reserved":false,"is_disabled":false,"rental_uris":{"android":"levelo://app?vid=8418e734-4fcd-4b94-951b-0d0ce81a5b83","ios":"levelo://app?vid=8418e734-4fcd-4b94-951b-0d0ce81a5b83"},"vehicle_type_id":"4","last_reported":1734602995,"current_range_meters":38000,"station_id":"ce4bgk12rcd13ifvqbj0","pricing_plan_id":"cebpf4jnsgd1na2vs0mg"},{"bike_id":"f0c0db8e-1ba6-4f9a-830c-1ca1f2f300c7","system_id":"levelo_inurba_marseille","lat":43.29723,"lon":5.37695,"is_reserved":false,"is_disabled":false,"rental_uris":{"android":"levelo://app?vid=f0c0db8e-1ba6-4f9a-830c-1ca1f2f300c7","ios":"levelo://app?vid=f0c0db8e-1ba6-4f9a-830c-1ca1f2f300c7"},"vehicle_type_id":"4","last_reported":1734602995,"current_range_meters":38800,"station_id":"ce4bgkh2rcd13ifvqbl0","pricing_plan_id":"cebpf4jnsgd1na2vs0mg"},{"bike_id":"35c55a77-c774-4274-b708-d5d20f3c0c48","system_id":"levelo_inurba_marseille","lat":43.30139,"lon":5.37419,"is_reserved":false,"is_disabled":false,"rental_uris":{"android":"levelo://app?vid=35c55a77-c774-4274-b708-d5d20f3c0c48","ios":"levelo://app?vid=35c55a77-c774-4274-b708-d5d20f3c0c48"},"vehicle_type_id":"4","last_reported":1734602995,"current_range_meters":23200,"station_id":"ce4bgs92rcd13ifvqcc0","pricing_plan_id":"cebpf4jnsgd1na2vs0mg"},{"bike_id":"45f34b4f-33e2-463f-b4f3-e9cdd91ae7c7","system_id":"levelo_inurba_marseille","lat":43.31251,"lon":5.3685,"is_reserved":false,"is_disabled":false,"rental_uris":{"android":"levelo://app?vid=45f34b4f-33e2-463f-b4f3-e9cdd91ae7c7","ios":"levelo://app?vid=45f34b4f-33e2-463f-b4f3-e9cdd91ae7c7"},"vehicle_type_id":"4","last_reported":1734602995,"current_range_meters":36800,"station_id":"ce4bgl92rcd13ifvqbq0","pricing_plan_id":"cebpf4jnsgd1na2vs0mg"},{"bike_id":"55908842-5677-4a26-9838-98b487742c62","system_id":"levelo_inurba_marseille","lat":43.29298,"lon":5.37446,"is_reserved":false,"is_disabled":false,"rental_uris":{"android":"levelo://app?vid=55908842-5677-4a26-9838-98b487742c62","ios":"levelo://app?vid=55908842-5677-4a26-9838-98b487742c62"},"vehicle_type_id":"4","last_reported":1734602995,"current_range_meters":6400,"station_id":"ce4bgi12rcd13ifvqb70","pricing_plan_id":"cebpf4jnsgd1na2vs0mg"},{"bike_id":"f5c894fa-8ab9-469e-9f79-8e652d96deb0","system_id":"levelo_inurba_marseille","lat":43.26959,"lon":5.38625,"is_reserved":false,"is_disabled":false,"rental_uris":{"android":"levelo://app?vid=f5c894fa-8ab9-469e-9f79-8e652d96deb0","ios":"levelo://app?vid=f5c894fa-8ab9-469e-9f79-8e652d96deb0"},"vehicle_type_id":"4","last_reported":1734602995,"current_range_meters":38000,"station_id":"ce4bhh92rcd13ifvqfh0","pricing_plan_id":"cebpf4jnsgd1na2vs0mg"},{"bike_id":"7c00bdc5-58f9-4826-89ff-145e98de2cc0","system_id":"levelo_inurba_marseille","lat":43.27057,"lon":5.42289,"is_reserved":false,"is_disabled":false,"rental_uris":{"android":"levelo://app?vid=7c00bdc5-58f9-4826-89ff-145e98de2cc0","ios":"levelo://app?vid=7c00bdc5-58f9-4826-89ff-145e98de2cc0"},"vehicle_type_id":"4","last_reported":1734602995,"current_range_meters":27600,"station_id":"ce4bhk92rcd13ifvqgb0","pricing_plan_id":"cebpf4jnsgd1na2vs0mg"},{"bike_id":"ffd50738-4963-47aa-ab7d-955fbc933618","system_id":"levelo_inurba_marseille","lat":43.30543,"lon":5.36538,"is_reserved":false,"is_disabled":false,"rental_uris":{"android":"levelo://app?vid=ffd50738-4963-47aa-ab7d-955fbc933618","ios":"levelo://app?vid=ffd50738-4963-47aa-ab7d-955fbc933618"},"vehicle_type_id":"4","last_reported":1734602995,"current_range_meters":38800,"station_id":"ce4bgs12rcd13ifvqcag","pricing_plan_id":"cebpf4jnsgd1na2vs0mg"},{"bike_id":"9d922ea0-81e1-443a-89af-8bd940af6d00","system_id":"levelo_inurba_marseille","lat":43.31261,"lon":5.40179,"is_reserved":false,"is_disabled":false,"rental_uris":{"android":"levelo://app?vid=9d922ea0-81e1-443a-89af-8bd940af6d00","ios":"levelo://app?vid=9d922ea0-81e1-443a-89af-8bd940af6d00"},"vehicle_type_id":"4","last_reported":1734602995,"current_range_meters":36400,"station_id":"ce4bh092rcd13ifvqd30","pricing_plan_id":"cebpf4jnsgd1na2vs0mg"},{"bike_id":"614ca12a-3413-46a7-8fd1-4e5043baf841","system_id":"levelo_inurba_marseille","lat":43.2318,"lon":5.39984,"is_reserved":false,"is_disabled":false,"rental_uris":{"android":"levelo://app?vid=614ca12a-3413-46a7-8fd1-4e5043baf841","ios":"levelo://app?vid=614ca12a-3413-46a7-8fd1-4e5043baf841"},"vehicle_type_id":"4","last_reported":1734602995,"current_range_meters":38000,"station_id":"ce4bhn12rcd13ifvqgqg","pricing_plan_id":"cebpf4jnsgd1na2vs0mg"},{"bike_id":"c6fc1f35-949d-4dc4-925e-046f798f5cdb","system_id":"levelo_inurba_marseille","lat":43.30417,"lon":5.4128,"is_reserved":false,"is_disabled":true,"rental_uris":{"android":"levelo://app?vid=c6fc1f35-949d-4dc4-925e-046f798f5cdb","ios":"levelo://app?vid=c6fc1f35-949d-4dc4-925e-046f798f5cdb"},"vehicle_type_id":"4","last_reported":1734602995,"current_range_meters":39200,"station_id":"ce4bhop2rcd13ifvqh8g","pricing_plan_id":"cebpf4jnsgd1na2vs0mg"},{"bike_id":"21d8267c-7ebf-45b3-8ab8-797456f35e60","system_id":"levelo_inurba_marseille","lat":43.24545,"lon":5.3952,"is_reserved":false,"is_disabled":false,"rental_uris":{"android":"levelo://app?vid=21d8267c-7ebf-45b3-8ab8-797456f35e60","ios":"levelo://app?vid=21d8267c-7ebf-45b3-8ab8-797456f35e60"},"vehicle_type_id":"4","last_reported":1734602995,"current_range_meters":38800,"station_id":"ce4bhlp2rcd13ifvqgjg","pricing_plan_id":"cebpf4jnsgd1na2vs0mg"},{"bike_id":"43213517-bf9a-4e83-a8fa-bab75368f158","system_id":"levelo_inurba_marseille","lat":43.26944,"lon":5.38628,"is_reserved":false,"is_disabled":false,"rental_uris":{"android":"levelo://app?vid=43213517-bf9a-4e83-a8fa-bab75368f158","ios":"levelo://app?vid=43213517-bf9a-4e83-a8fa-bab75368f158"},"vehicle_type_id":"4","last_reported":1734602995,"current_range_meters":22400,"station_id":"ce4bhh92rcd13ifvqfh0","pricing_plan_id":"cebpf4jnsgd1na2vs0mg"},{"bike_id":"cf46b794-f843-4c73-9b47-49de3373d707","system_id":"levelo_inurba_marseille","lat":43.27817,"lon":5.40709,"is_reserved":false,"is_disabled":false,"rental_uris":{"android":"levelo://app?vid=cf46b794-f843-4c73-9b47-49de3373d707","ios":"levelo://app?vid=cf46b794-f843-4c73-9b47-49de3373d707"},"vehicle_type_id":"4","last_reported":1734602995,"current_range_meters":20800,"station_id":"ce4bhnh2rcd13ifvqgtg","pricing_plan_id":"cebpf4jnsgd1na2vs0mg"},{"bike_id":"7c4d7fda-02df-4ea2-a2ca-c9e5e02d3a4a","system_id":"levelo_inurba_marseille","lat":43.23192,"lon":5.35554,"is_reserved":false,"is_disabled":false,"rental_uris":{"android":"levelo://app?vid=7c4d7fda-02df-4ea2-a2ca-c9e5e02d3a4a","ios":"levelo://app?vid=7c4d7fda-02df-4ea2-a2ca-c9e5e02d3a4a"},"vehicle_type_id":"4","last_reported":1734602995,"current_range_meters":28800,"station_id":"ce4bhu92rcd13ifvqi70","pricing_plan_id":"cebpf4jnsgd1na2vs0mg"},{"bike_id":"4a208263-5683-4c02-b8c0-8842a35d3fff","system_id":"levelo_inurba_marseille","lat":43.30527,"lon":5.36523,"is_reserved":false,"is_disabled":false,"rental_uris":{"android":"levelo://app?vid=4a208263-5683-4c02-b8c0-8842a35d3fff","ios":"levelo://app?vid=4a208263-5683-4c02-b8c0-8842a35d3fff"},"vehicle_type_id":"4","last_reported":1734602995,"current_range_meters":38400,"station_id":"ce4bgs12rcd13ifvqcag","pricing_plan_id":"cebpf4jnsgd1na2vs0mg"},{"bike_id":"149f6e59-92f2-4391-ad8d-a3c211e76bb2","system_id":"levelo_inurba_marseille","lat":43.23194,"lon":5.35546,"is_reserved":false,"is_disabled":false,"rental_uris":{"android":"levelo://app?vid=149f6e59-92f2-4391-ad8d-a3c211e76bb2","ios":"levelo://app?vid=149f6e59-92f2-4391-ad8d-a3c211e76bb2"},"vehicle_type_id":"4","last_reported":1734602995,"current_range_meters":38000,"station_id":"ce4bhu92rcd13ifvqi70","pricing_plan_id":"cebpf4jnsgd1na2vs0mg"},{"bike_id":"b34a414e-6b61-44a5-b00a-9ee7b3d9a129","system_id":"levelo_inurba_marseille","lat":43.30528,"lon":5.36705,"is_reserved":false,"is_disabled":true,"rental_uris":{"android":"levelo://app?vid=b34a414e-6b61-44a5-b00a-9ee7b3d9a129","ios":"levelo://app?vid=b34a414e-6b61-44a5-b00a-9ee7b3d9a129"},"vehicle_type_id":"4","last_reported":1734602995,"current_range_meters":36800,"station_id":"ce4bgrp2rcd13ifvqc9g","pricing_plan_id":"cebpf4jnsgd1na2vs0mg"},{"bike_id":"ee2281f4-ccac-4273-aa36-daff11bb7487","system_id":"levelo_inurba_marseille","lat":43.30805,"lon":5.38147,"is_reserved":false,"is_disabled":false,"rental_uris":{"android":"levelo://app?vid=ee2281f4-ccac-4273-aa36-daff11bb7487","ios":"levelo://app?vid=ee2281f4-ccac-4273-aa36-daff11bb7487"},"vehicle_type_id":"4","last_reported":1734602995,"current_range_meters":38800,"station_id":"ce4bgt12rcd13ifvqce0","pricing_plan_id":"cebpf4jnsgd1na2vs0mg"},{"bike_id":"25fbff89-a5d7-4935-bafe-3a7a2f605c5a","system_id":"levelo_inurba_marseille","lat":43.31173,"lon":5.38703,"is_reserved":false,"is_disabled":true,"rental_uris":{"android":"levelo://app?vid=25fbff89-a5d7-4935-bafe-3a7a2f605c5a","ios":"levelo://app?vid=25fbff89-a5d7-4935-bafe-3a7a2f605c5a"},"vehicle_type_id":"4","last_reported":1734602995,"current_range_meters":6000,"station_id":"ce4bgv12rcd13ifvqcp0","pricing_plan_id":"cebpf4jnsgd1na2vs0mg"},{"bike_id":"9d2aefec-f4a3-4a23-a13a-c09b46ffe2e4","system_id":"levelo_inurba_marseille","lat":43.31157,"lon":5.36709,"is_reserved":false,"is_disabled":false,"rental_uris":{"android":"levelo://app?vid=9d2aefec-f4a3-4a23-a13a-c09b46ffe2e4","ios":"levelo://app?vid=9d2aefec-f4a3-4a23-a13a-c09b46ffe2e4"},"vehicle_type_id":"4","last_reported":1734602995,"current_range_meters":32000,"station_id":"","pricing_plan_id":"cebpf4jnsgd1na2vs0mg"},{"bike_id":"3cc08093-500d-408c-a431-9d1286640b3b","system_id":"levelo_inurba_marseille","lat":43.30136,"lon":5.3742,"is_reserved":false,"is_disabled":false,"rental_uris":{"android":"levelo://app?vid=3cc08093-500d-408c-a431-9d1286640b3b","ios":"levelo://app?vid=3cc08093-500d-408c-a431-9d1286640b3b"},"vehicle_type_id":"4","last_reported":1734602995,"current_range_meters":38800,"station_id":"ce4bgs92rcd13ifvqcc0","pricing_plan_id":"cebpf4jnsgd1na2vs0mg"},{"bike_id":"fdb00e72-6d85-4d61-9e62-d139d7971bf0","system_id":"levelo_inurba_marseille","lat":43.26949,"lon":5.38636,"is_reserved":false,"is_disabled":false,"rental_uris":{"android":"levelo://app?vid=fdb00e72-6d85-4d61-9e62-d139d7971bf0","ios":"levelo://app?vid=fdb00e72-6d85-4d61-9e62-d139d7971bf0"},"vehicle_type_id":"4","last_reported":1734602995,"current_range_meters":38800,"station_id":"ce4bhh92rcd13ifvqfh0","pricing_plan_id":"cebpf4jnsgd1na2vs0mg"},{"bike_id":"41360683-0f69-4c62-8b87-4868ce57f8d5","system_id":"levelo_inurba_marseille","lat":43.3149,"lon":5.37305,"is_reserved":false,"is_disabled":false,"rental_uris":{"android":"levelo://app?vid=41360683-0f69-4c62-8b87-4868ce57f8d5","ios":"levelo://app?vid=41360683-0f69-4c62-8b87-4868ce57f8d5"},"vehicle_type_id":"4","last_reported":1734602995,"current_range_meters":38800,"station_id":"ce4bgt12rcd13ifvqcd0","pricing_plan_id":"cebpf4jnsgd1na2vs0mg"},{"bike_id":"a2eba22b-b0ee-4005-9bf3-576bb458d391","system_id":"levelo_inurba_marseille","lat":43.279651,"lon":5.387544,"is_reserved":false,"is_disabled":true,"rental_uris":{"android":"levelo://app?vid=a2eba22b-b0ee-4005-9bf3-576bb458d391","ios":"levelo://app?vid=a2eba22b-b0ee-4005-9bf3-576bb458d391"},"vehicle_type_id":"4","last_reported":1734602995,"current_range_meters":0,"station_id":"","pricing_plan_id":"cebpf4jnsgd1na2vs0mg"},{"bike_id":"c8ff0633-c7c0-4b79-9a35-09b7f45ed4c4","system_id":"levelo_inurba_marseille","lat":43.25577,"lon":5.38256,"is_reserved":false,"is_disabled":false,"rental_uris":{"android":"levelo://app?vid=c8ff0633-c7c0-4b79-9a35-09b7f45ed4c4","ios":"levelo://app?vid=c8ff0633-c7c0-4b79-9a35-09b7f45ed4c4"},"vehicle_type_id":"4","last_reported":1734602995,"current_range_meters":24000,"station_id":"ce4bhih2rcd13ifvqfs0","pricing_plan_id":"cebpf4jnsgd1na2vs0mg"},{"bike_id":"26312ccf-8c7f-4cef-9746-9e32e9db571f","system_id":"levelo_inurba_marseille","lat":43.33591,"lon":5.41042,"is_reserved":false,"is_disabled":false,"rental_uris":{"android":"levelo://app?vid=26312ccf-8c7f-4cef-9746-9e32e9db571f","ios":"levelo://app?vid=26312ccf-8c7f-4cef-9746-9e32e9db571f"},"vehicle_type_id":"4","last_reported":1734602995,"current_range_meters":9200,"station_id":"ce4bhqh2rcd13ifvqhmg","pricing_plan_id":"cebpf4jnsgd1na2vs0mg"},{"bike_id":"2f8de738-9cbb-45b9-9473-332b080b948c","system_id":"levelo_inurba_marseille","lat":43.28426,"lon":5.34985,"is_reserved":false,"is_disabled":true,"rental_uris":{"android":"levelo://app?vid=2f8de738-9cbb-45b9-9473-332b080b948c","ios":"levelo://app?vid=2f8de738-9cbb-45b9-9473-332b080b948c"},"vehicle_type_id":"4","last_reported":1734602995,"current_range_meters":36800,"station_id":"ce4bhbh2rcd13ifvqepg","pricing_plan_id":"cebpf4jnsgd1na2vs0mg"},{"bike_id":"f0377741-7cf6-450d-a6fd-153237b93a8a","system_id":"levelo_inurba_marseille","lat":43.25928,"lon":5.40914,"is_reserved":false,"is_disabled":false,"rental_uris":{"android":"levelo://app?vid=f0377741-7cf6-450d-a6fd-153237b93a8a","ios":"levelo://app?vid=f0377741-7cf6-450d-a6fd-153237b93a8a"},"vehicle_type_id":"4","last_reported":1734602995,"current_range_meters":18000,"station_id":"ce4bhm92rcd13ifvqglg","pricing_plan_id":"cebpf4jnsgd1na2vs0mg"},{"bike_id":"40b862ad-c49e-4129-acbb-5e704d7d9dcd","system_id":"levelo_inurba_marseille","lat":43.29001,"lon":5.35607,"is_reserved":false,"is_disabled":true,"rental_uris":{"android":"levelo://app?vid=40b862ad-c49e-4129-acbb-5e704d7d9dcd","ios":"levelo://app?vid=40b862ad-c49e-4129-acbb-5e704d7d9dcd"},"vehicle_type_id":"4","last_reported":1734602995,"current_range_meters":38800,"station_id":"ce4bhb92rcd13ifvqen0","pricing_plan_id":"cebpf4jnsgd1na2vs0mg"},{"bike_id":"82f7f145-591c-4ce0-8f76-660882a2845e","system_id":"levelo_inurba_marseille","lat":43.33635,"lon":5.41007,"is_reserved":false,"is_disabled":false,"rental_uris":{"android":"levelo://app?vid=82f7f145-591c-4ce0-8f76-660882a2845e","ios":"levelo://app?vid=82f7f145-591c-4ce0-8f76-660882a2845e"},"vehicle_type_id":"4","last_reported":1734602995,"current_range_meters":25600,"station_id":"ce4bhqh2rcd13ifvqhmg","pricing_plan_id":"cebpf4jnsgd1na2vs0mg"},{"bike_id":"c43144b8-701d-4fef-8260-134b7f7dba42","system_id":"levelo_inurba_marseille","lat":43.26196,"lon":5.37919,"is_reserved":false,"is_disabled":false,"rental_uris":{"android":"levelo://app?vid=c43144b8-701d-4fef-8260-134b7f7dba42","ios":"levelo://app?vid=c43144b8-701d-4fef-8260-134b7f7dba42"},"vehicle_type_id":"4","last_reported":1734602995,"current_range_meters":39200,"station_id":"ce4bhjp2rcd13ifvqg90","pricing_plan_id":"cebpf4jnsgd1na2vs0mg"},{"bike_id":"8b61a505-6689-4d59-bdbd-c2bc04b25a7f","system_id":"levelo_inurba_marseille","lat":43.30555,"lon":5.36526,"is_reserved":false,"is_disabled":false,"rental_uris":{"android":"levelo://app?vid=8b61a505-6689-4d59-bdbd-c2bc04b25a7f","ios":"levelo://app?vid=8b61a505-6689-4d59-bdbd-c2bc04b25a7f"},"vehicle_type_id":"4","last_reported":1734602995,"current_range_meters":26000,"station_id":"ce4bgs12rcd13ifvqcag","pricing_plan_id":"cebpf4jnsgd1na2vs0mg"},{"bike_id":"bcba2c13-fd7b-4d65-a255-388b54aedd85","system_id":"levelo_inurba_marseille","lat":43.33605,"lon":5.41002,"is_reserved":false,"is_disabled":false,"rental_uris":{"android":"levelo://app?vid=bcba2c13-fd7b-4d65-a255-388b54aedd85","ios":"levelo://app?vid=bcba2c13-fd7b-4d65-a255-388b54aedd85"},"vehicle_type_id":"4","last_reported":1734602995,"current_range_meters":37600,"station_id":"ce4bhqh2rcd13ifvqhmg","pricing_plan_id":"cebpf4jnsgd1na2vs0mg"},{"bike_id":"ac7c5f56-daad-496c-965f-9103737000e8","system_id":"levelo_inurba_marseille","lat":43.23966,"lon":5.3664,"is_reserved":false,"is_disabled":false,"rental_uris":{"android":"levelo://app?vid=ac7c5f56-daad-496c-965f-9103737000e8","ios":"levelo://app?vid=ac7c5f56-daad-496c-965f-9103737000e8"},"vehicle_type_id":"4","last_reported":1734602995,"current_range_meters":38800,"station_id":"ce4bhi12rcd13ifvqfp0","pricing_plan_id":"cebpf4jnsgd1na2vs0mg"},{"bike_id":"50f3ea1e-8d3a-452b-9061-37af2efe02cc","system_id":"levelo_inurba_marseille","lat":43.31268,"lon":5.40177,"is_reserved":false,"is_disabled":false,"rental_uris":{"android":"levelo://app?vid=50f3ea1e-8d3a-452b-9061-37af2efe02cc","ios":"levelo://app?vid=50f3ea1e-8d3a-452b-9061-37af2efe02cc"},"vehicle_type_id":"4","last_reported":1734602995,"current_range_meters":30400,"station_id":"ce4bh092rcd13ifvqd30","pricing_plan_id":"cebpf4jnsgd1na2vs0mg"},{"bike_id":"4feace51-ad76-46c2-bf1e-a105911eef0c","system_id":"levelo_inurba_marseille","lat":43.27206,"lon":5.39179,"is_reserved":false,"is_disabled":false,"rental_uris":{"android":"levelo://app?vid=4feace51-ad76-46c2-bf1e-a105911eef0c","ios":"levelo://app?vid=4feace51-ad76-46c2-bf1e-a105911eef0c"},"vehicle_type_id":"4","last_reported":1734602995,"current_range_meters":24400,"station_id":"ce4bhhp2rcd13ifvqfm0","pricing_plan_id":"cebpf4jnsgd1na2vs0mg"},{"bike_id":"0cef6d55-09da-4dff-80ee-facea058c7a5","system_id":"levelo_inurba_marseille","lat":43.30055,"lon":5.36969,"is_reserved":false,"is_disabled":false,"rental_uris":{"android":"levelo://app?vid=0cef6d55-09da-4dff-80ee-facea058c7a5","ios":"levelo://app?vid=0cef6d55-09da-4dff-80ee-facea058c7a5"},"vehicle_type_id":"4","last_reported":1734602995,"current_range_meters":33600,"station_id":"","pricing_plan_id":"cebpf4jnsgd1na2vs0mg"},{"bike_id":"23a049cd-2a20-411e-a25c-f3e09482729c","system_id":"levelo_inurba_marseille","lat":43.29971,"lon":5.37173,"is_reserved":false,"is_disabled":false,"rental_uris":{"android":"levelo://app?vid=23a049cd-2a20-411e-a25c-f3e09482729c","ios":"levelo://app?vid=23a049cd-2a20-411e-a25c-f3e09482729c"},"vehicle_type_id":"4","last_reported":1734602995,"current_range_meters":38800,"station_id":"ce4bgr92rcd13ifvqc7g","pricing_plan_id":"cebpf4jnsgd1na2vs0mg"},{"bike_id":"13edb3e7-da4c-406a-8861-02386d5cb39e","system_id":"levelo_inurba_marseille","lat":43.31374,"lon":5.36713,"is_reserved":false,"is_disabled":false,"rental_uris":{"android":"levelo://app?vid=13edb3e7-da4c-406a-8861-02386d5cb39e","ios":"levelo://app?vid=13edb3e7-da4c-406a-8861-02386d5cb39e"},"vehicle_type_id":"4","last_reported":1734602995,"current_range_meters":38800,"station_id":"ce4bgr92rcd13ifvqc6g","pricing_plan_id":"cebpf4jnsgd1na2vs0mg"},{"bike_id":"b9e0dcf9-3bb4-4708-81c1-daf6a6b0f76c","system_id":"levelo_inurba_marseille","lat":43.321108,"lon":5.367742,"is_reserved":false,"is_disabled":true,"rental_uris":{"android":"levelo://app?vid=b9e0dcf9-3bb4-4708-81c1-daf6a6b0f76c","ios":"levelo://app?vid=b9e0dcf9-3bb4-4708-81c1-daf6a6b0f76c"},"vehicle_type_id":"4","last_reported":1734602995,"current_range_meters":30800,"station_id":"ce4bhrh2rcd13ifvqhug","pricing_plan_id":"cebpf4jnsgd1na2vs0mg"},{"bike_id":"ff201bcf-1433-41ae-b3fa-223a5d4ed296","system_id":"levelo_inurba_marseille","lat":43.26783,"lon":5.39412,"is_reserved":false,"is_disabled":false,"rental_uris":{"android":"levelo://app?vid=ff201bcf-1433-41ae-b3fa-223a5d4ed296","ios":"levelo://app?vid=ff201bcf-1433-41ae-b3fa-223a5d4ed296"},"vehicle_type_id":"4","last_reported":1734602995,"current_range_meters":16000,"station_id":"ce4bhh12rcd13ifvqfg0","pricing_plan_id":"cebpf4jnsgd1na2vs0mg"},{"bike_id":"469ba671-3b65-470b-a99c-d8266fb0091a","system_id":"levelo_inurba_marseille","lat":43.31118,"lon":5.37771,"is_reserved":false,"is_disabled":false,"rental_uris":{"android":"levelo://app?vid=469ba671-3b65-470b-a99c-d8266fb0091a","ios":"levelo://app?vid=469ba671-3b65-470b-a99c-d8266fb0091a"},"vehicle_type_id":"4","last_reported":1734602995,"current_range_meters":38400,"station_id":"ce4bgt92rcd13ifvqcg0","pricing_plan_id":"cebpf4jnsgd1na2vs0mg"},{"bike_id":"c6a1874a-075d-40e1-85f7-727d81ee5ef1","system_id":"levelo_inurba_marseille","lat":43.28934,"lon":5.36421,"is_reserved":false,"is_disabled":true,"rental_uris":{"android":"levelo://app?vid=c6a1874a-075d-40e1-85f7-727d81ee5ef1","ios":"levelo://app?vid=c6a1874a-075d-40e1-85f7-727d81ee5ef1"},"vehicle_type_id":"4","last_reported":1734602995,"current_range_meters":35600,"station_id":"ce4bhc92rcd13ifvqetg","pricing_plan_id":"cebpf4jnsgd1na2vs0mg"},{"bike_id":"1f4b4904-898b-4a75-a88e-11b4de7cbd92","system_id":"levelo_inurba_marseille","lat":43.2958,"lon":5.37519,"is_reserved":false,"is_disabled":true,"rental_uris":{"android":"levelo://app?vid=1f4b4904-898b-4a75-a88e-11b4de7cbd92","ios":"levelo://app?vid=1f4b4904-898b-4a75-a88e-11b4de7cbd92"},"vehicle_type_id":"4","last_reported":1734602995,"current_range_meters":0,"station_id":"ce4bgh92rcd13ifvqb50","pricing_plan_id":"cebpf4jnsgd1na2vs0mg"},{"bike_id":"fc9ebb8f-2821-4983-a574-bd2ff1a69b42","system_id":"levelo_inurba_marseille","lat":43.29922,"lon":5.36531,"is_reserved":false,"is_disabled":false,"rental_uris":{"android":"levelo://app?vid=fc9ebb8f-2821-4983-a574-bd2ff1a69b42","ios":"levelo://app?vid=fc9ebb8f-2821-4983-a574-bd2ff1a69b42"},"vehicle_type_id":"4","last_reported":1734602995,"current_range_meters":26000,"station_id":"ce4bgm92rcd13ifvqbr0","pricing_plan_id":"cebpf4jnsgd1na2vs0mg"},{"bike_id":"7b305c6f-361b-46c6-bcc8-6b2d9fd084fa","system_id":"levelo_inurba_marseille","lat":43.28119,"lon":5.4422,"is_reserved":false,"is_disabled":true,"rental_uris":{"android":"levelo://app?vid=7b305c6f-361b-46c6-bcc8-6b2d9fd084fa","ios":"levelo://app?vid=7b305c6f-361b-46c6-bcc8-6b2d9fd084fa"},"vehicle_type_id":"4","last_reported":1734602995,"current_range_meters":0,"station_id":"","pricing_plan_id":"cebpf4jnsgd1na2vs0mg"},{"bike_id":"741ea4b3-763d-4684-9cc9-4d777e722653","system_id":"levelo_inurba_marseille","lat":43.31352,"lon":5.36722,"is_reserved":false,"is_disabled":false,"rental_uris":{"android":"levelo://app?vid=741ea4b3-763d-4684-9cc9-4d777e722653","ios":"levelo://app?vid=741ea4b3-763d-4684-9cc9-4d777e722653"},"vehicle_type_id":"4","last_reported":1734602995,"current_range_meters":35600,"station_id":"ce4bgr92rcd13ifvqc6g","pricing_plan_id":"cebpf4jnsgd1na2vs0mg"},{"bike_id":"87247de9-dc52-4f72-be45-5bc366d8d497","system_id":"levelo_inurba_marseille","lat":43.30141,"lon":5.38063,"is_reserved":false,"is_disabled":false,"rental_uris":{"android":"levelo://app?vid=87247de9-dc52-4f72-be45-5bc366d8d497","ios":"levelo://app?vid=87247de9-dc52-4f72-be45-5bc366d8d497"},"vehicle_type_id":"4","last_reported":1734602995,"current_range_meters":25200,"station_id":"ce4bgjp2rcd13ifvqbh0","pricing_plan_id":"cebpf4jnsgd1na2vs0mg"},{"bike_id":"c81d12c0-b3b4-4b91-a004-bb72046d4aaa","system_id":"levelo_inurba_marseille","lat":43.29938,"lon":5.375013,"is_reserved":false,"is_disabled":false,"rental_uris":{"android":"levelo://app?vid=c81d12c0-b3b4-4b91-a004-bb72046d4aaa","ios":"levelo://app?vid=c81d12c0-b3b4-4b91-a004-bb72046d4aaa"},"vehicle_type_id":"4","last_reported":1734602995,"current_range_meters":25200,"station_id":"ce4bgjh2rcd13ifvqbg0","pricing_plan_id":"cebpf4jnsgd1na2vs0mg"},{"bike_id":"c1b6203c-0b41-4e21-9b9d-984608f33fe2","system_id":"levelo_inurba_marseille","lat":43.29297,"lon":5.37453,"is_reserved":false,"is_disabled":false,"rental_uris":{"android":"levelo://app?vid=c1b6203c-0b41-4e21-9b9d-984608f33fe2","ios":"levelo://app?vid=c1b6203c-0b41-4e21-9b9d-984608f33fe2"},"vehicle_type_id":"4","last_reported":1734602995,"current_range_meters":36000,"station_id":"ce4bgi12rcd13ifvqb70","pricing_plan_id":"cebpf4jnsgd1na2vs0mg"},{"bike_id":"58460439-34c4-4ffd-a810-879458f6621a","system_id":"levelo_inurba_marseille","lat":43.2317,"lon":5.39974,"is_reserved":false,"is_disabled":false,"rental_uris":{"android":"levelo://app?vid=58460439-34c4-4ffd-a810-879458f6621a","ios":"levelo://app?vid=58460439-34c4-4ffd-a810-879458f6621a"},"vehicle_type_id":"4","last_reported":1734602995,"current_range_meters":23200,"station_id":"ce4bhn12rcd13ifvqgqg","pricing_plan_id":"cebpf4jnsgd1na2vs0mg"},{"bike_id":"ee01a507-8893-4440-bbe0-75da356e3a4f","system_id":"levelo_inurba_marseille","lat":43.29911,"lon":5.38142,"is_reserved":false,"is_disabled":true,"rental_uris":{"android":"levelo://app?vid=ee01a507-8893-4440-bbe0-75da356e3a4f","ios":"levelo://app?vid=ee01a507-8893-4440-bbe0-75da356e3a4f"},"vehicle_type_id":"4","last_reported":1734602995,"current_range_meters":0,"station_id":"ce4bgj12rcd13ifvqbc0","pricing_plan_id":"cebpf4jnsgd1na2vs0mg"},{"bike_id":"065296b9-c1b1-4295-be5f-ba6a4ae67e1e","system_id":"levelo_inurba_marseille","lat":43.27368,"lon":5.36255,"is_reserved":false,"is_disabled":false,"rental_uris":{"android":"levelo://app?vid=065296b9-c1b1-4295-be5f-ba6a4ae67e1e","ios":"levelo://app?vid=065296b9-c1b1-4295-be5f-ba6a4ae67e1e"},"vehicle_type_id":"4","last_reported":1734602995,"current_range_meters":37600,"station_id":"ce4bhbh2rcd13ifvqeo0","pricing_plan_id":"cebpf4jnsgd1na2vs0mg"},{"bike_id":"df2bf2aa-dff9-475f-91c3-5688aec4bd4e","system_id":"levelo_inurba_marseille","lat":43.29845,"lon":5.36275,"is_reserved":false,"is_disabled":false,"rental_uris":{"android":"levelo://app?vid=df2bf2aa-dff9-475f-91c3-5688aec4bd4e","ios":"levelo://app?vid=df2bf2aa-dff9-475f-91c3-5688aec4bd4e"},"vehicle_type_id":"4","last_reported":1734602995,"current_range_meters":20800,"station_id":"ce4bgpp2rcd13ifvqc3g","pricing_plan_id":"cebpf4jnsgd1na2vs0mg"},{"bike_id":"d21b6ac7-047a-40ac-922a-6092dc24f2e1","system_id":"levelo_inurba_marseille","lat":43.2892,"lon":5.3638,"is_reserved":false,"is_disabled":false,"rental_uris":{"android":"levelo://app?vid=d21b6ac7-047a-40ac-922a-6092dc24f2e1","ios":"levelo://app?vid=d21b6ac7-047a-40ac-922a-6092dc24f2e1"},"vehicle_type_id":"4","last_reported":1734602995,"current_range_meters":39200,"station_id":"ce4bhc92rcd13ifvqetg","pricing_plan_id":"cebpf4jnsgd1na2vs0mg"},{"bike_id":"527ec629-8c1b-48a8-8d11-c4652f8bd9de","system_id":"levelo_inurba_marseille","lat":43.29036,"lon":5.39968,"is_reserved":false,"is_disabled":false,"rental_uris":{"android":"levelo://app?vid=527ec629-8c1b-48a8-8d11-c4652f8bd9de","ios":"levelo://app?vid=527ec629-8c1b-48a8-8d11-c4652f8bd9de"},"vehicle_type_id":"4","last_reported":1734602995,"current_range_meters":17600,"station_id":"ce4bh392rcd13ifvqdm0","pricing_plan_id":"cebpf4jnsgd1na2vs0mg"},{"bike_id":"76975834-f71a-46ed-b326-a36c82696bf1","system_id":"levelo_inurba_marseille","lat":43.31266,"lon":5.40174,"is_reserved":false,"is_disabled":false,"rental_uris":{"android":"levelo://app?vid=76975834-f71a-46ed-b326-a36c82696bf1","ios":"levelo://app?vid=76975834-f71a-46ed-b326-a36c82696bf1"},"vehicle_type_id":"4","last_reported":1734602995,"current_range_meters":4800,"station_id":"ce4bh092rcd13ifvqd30","pricing_plan_id":"cebpf4jnsgd1na2vs0mg"},{"bike_id":"da6dc8d4-614c-4255-b2b3-a979754bf4d5","system_id":"levelo_inurba_marseille","lat":43.3087,"lon":5.36869,"is_reserved":false,"is_disabled":false,"rental_uris":{"android":"levelo://app?vid=da6dc8d4-614c-4255-b2b3-a979754bf4d5","ios":"levelo://app?vid=da6dc8d4-614c-4255-b2b3-a979754bf4d5"},"vehicle_type_id":"4","last_reported":1734602995,"current_range_meters":38800,"station_id":"ce4bgn92rcd13ifvqbvg","pricing_plan_id":"cebpf4jnsgd1na2vs0mg"},{"bike_id":"7c83079f-3e6a-4713-bf4a-bdb01302dd3a","system_id":"levelo_inurba_marseille","lat":43.30953,"lon":5.39036,"is_reserved":false,"is_disabled":false,"rental_uris":{"android":"levelo://app?vid=7c83079f-3e6a-4713-bf4a-bdb01302dd3a","ios":"levelo://app?vid=7c83079f-3e6a-4713-bf4a-bdb01302dd3a"},