{"last_updated":1721412642,"ttl":30,"version":"2.2","data":{"bikes":[{"bike_id":"d1d81e54-fed9-443c-944a-6820c8a62e66","system_id":"levelo_inurba_marseille","lat":43.31251,"lon":5.36793,"is_reserved":false,"is_disabled":false,"rental_uris":{"android":"levelo://app?vid=d1d81e54-fed9-443c-944a-6820c8a62e66","ios":"levelo://app?vid=d1d81e54-fed9-443c-944a-6820c8a62e66"},"vehicle_type_id":"4","last_reported":1721412642,"current_range_meters":4000,"station_id":"","pricing_plan_id":"cebpf4jnsgd1na2vs0mg"},{"bike_id":"c4d441aa-eec2-4824-9f06-fde1c220e0f8","system_id":"levelo_inurba_marseille","lat":43.31166,"lon":5.369073,"is_reserved":false,"is_disabled":false,"rental_uris":{"android":"levelo://app?vid=c4d441aa-eec2-4824-9f06-fde1c220e0f8","ios":"levelo://app?vid=c4d441aa-eec2-4824-9f06-fde1c220e0f8"},"vehicle_type_id":"4","last_reported":1721412642,"current_range_meters":0,"station_id":"","pricing_plan_id":"cebpf4jnsgd1na2vs0mg"},{"bike_id":"61c64691-bfde-469e-bb85-2d4e780a7e10","system_id":"levelo_inurba_marseille","lat":43.314811,"lon":5.373103,"is_reserved":false,"is_disabled":false,"rental_uris":{"android":"levelo://app?vid=61c64691-bfde-469e-bb85-2d4e780a7e10","ios":"levelo://app?vid=61c64691-bfde-469e-bb85-2d4e780a7e10"},"vehicle_type_id":"4","last_reported":1721412642,"current_range_meters":0,"station_id":"ce4bgt12rcd13ifvqcd0","pricing_plan_id":"cebpf4jnsgd1na2vs0mg"},{"bike_id":"509d6fe2-a9fd-46a0-a503-a1860b036dd7","system_id":"levelo_inurba_marseille","lat":43.314811,"lon":5.373103,"is_reserved":false,"is_disabled":false,"rental_uris":{"android":"levelo://app?vid=509d6fe2-a9fd-46a0-a503-a1860b036dd7","ios":"levelo://app?vid=509d6fe2-a9fd-46a0-a503-a1860b036dd7"},"vehicle_type_id":"4","last_reported":1721412642,"current_range_meters":2800,"station_id":"ce4bgt12rcd13ifvqcd0","pricing_plan_id":"cebpf4jnsgd1na2vs0mg"},{"bike_id":"e9421286-75b0-4ca9-b5b7-9c0810812e60","system_id":"levelo_inurba_marseille","lat":43.314811,"lon":5.373103,"is_reserved":false,"is_disabled":false,"rental_uris":{"android":"levelo://app?vid=e9421286-75b0-4ca9-b5b7-9c0810812e60","ios":"levelo://app?vid=e9421286-75b0-4ca9-b5b7-9c0810812e60"},"vehicle_type_id":"4","last_reported":1721412642,"current_range_meters":6000,"station_id":"ce4bgt12rcd13ifvqcd0","pricing_plan_id":"cebpf4jnsgd1na2vs0mg"},{"bike_id":"98d18d49-1497-4fb3-8686-af9b6d047c26","system_id":"levelo_inurba_marseille","lat":43.314811,"lon":5.373104,"is_reserved":false,"is_disabled":false,"rental_uris":{"android":"levelo://app?vid=98d18d49-1497-4fb3-8686-af9b6d047c26","ios":"levelo://app?vid=98d18d49-1497-4fb3-8686-af9b6d047c26"},"vehicle_type_id":"4","last_reported":1721412642,"current_range_meters":0,"station_id":"ce4bgt12rcd13ifvqcd0","pricing_plan_id":"cebpf4jnsgd1na2vs0mg"},{"bike_id":"cdbf422e-c298-449f-bbfc-36618bd8e363","system_id":"levelo_inurba_marseille","lat":43.309039,"lon":5.371797,"is_reserved":false,"is_disabled":false,"rental_uris":{"android":"levelo://app?vid=cdbf422e-c298-449f-bbfc-36618bd8e363","ios":"levelo://app?vid=cdbf422e-c298-449f-bbfc-36618bd8e363"},"vehicle_type_id":"4","last_reported":1721412642,"current_range_meters":9200,"station_id":"ce4bguh2rcd13ifvqckg","pricing_plan_id":"cebpf4jnsgd1na2vs0mg"},{"bike_id":"7df8dd4a-c865-4f29-b768-21740d0daaaa","system_id":"levelo_inurba_marseille","lat":43.314495,"lon":5.373782,"is_reserved":false,"is_disabled":false,"rental_uris":{"android":"levelo://app?vid=7df8dd4a-c865-4f29-b768-21740d0daaaa","ios":"levelo://app?vid=7df8dd4a-c865-4f29-b768-21740d0daaaa"},"vehicle_type_id":"4","last_reported":1721412642,"current_range_meters":27200,"station_id":"","pricing_plan_id":"cebpf4jnsgd1na2vs0mg"},{"bike_id":"83e79c7d-6208-4d40-9b86-5e7f43dfcc3a","system_id":"levelo_inurba_marseille","lat":43.309034,"lon":5.371783,"is_reserved":false,"is_disabled":false,"rental_uris":{"android":"levelo://app?vid=83e79c7d-6208-4d40-9b86-5e7f43dfcc3a","ios":"levelo://app?vid=83e79c7d-6208-4d40-9b86-5e7f43dfcc3a"},"vehicle_type_id":"4","last_reported":1721412642,"current_range_meters":31200,"station_id":"ce4bguh2rcd13ifvqckg","pricing_plan_id":"cebpf4jnsgd1na2vs0mg"},{"bike_id":"4f843a89-c095-43ad-810f-70f65d0849d5","system_id":"levelo_inurba_marseille","lat":43.31847,"lon":5.36264,"is_reserved":false,"is_disabled":false,"rental_uris":{"android":"levelo://app?vid=4f843a89-c095-43ad-810f-70f65d0849d5","ios":"levelo://app?vid=4f843a89-c095-43ad-810f-70f65d0849d5"},"vehicle_type_id":"4","last_reported":1721412642,"current_range_meters":7200,"station_id":"","pricing_plan_id":"cebpf4jnsgd1na2vs0mg"},{"bike_id":"70465c97-b6ce-4cce-97b8-8a7b5d6bd44e","system_id":"levelo_inurba_marseille","lat":43.3053,"lon":5.36652,"is_reserved":false,"is_disabled":false,"rental_uris":{"android":"levelo://app?vid=70465c97-b6ce-4cce-97b8-8a7b5d6bd44e","ios":"levelo://app?vid=70465c97-b6ce-4cce-97b8-8a7b5d6bd44e"},"vehicle_type_id":"4","last_reported":1721412642,"current_range_meters":800,"station_id":"","pricing_plan_id":"cebpf4jnsgd1na2vs0mg"},{"bike_id":"8f9ce201-b604-4623-a236-2853e817c254","system_id":"levelo_inurba_marseille","lat":43.307945,"lon":5.376487,"is_reserved":false,"is_disabled":false,"rental_uris":{"android":"levelo://app?vid=8f9ce201-b604-4623-a236-2853e817c254","ios":"levelo://app?vid=8f9ce201-b604-4623-a236-2853e817c254"},"vehicle_type_id":"4","last_reported":1721412642,"current_range_meters":800,"station_id":"ce4bgv92rcd13ifvqcq0","pricing_plan_id":"cebpf4jnsgd1na2vs0mg"},{"bike_id":"ce288bf5-cffc-4880-9f7a-8fa90f623cb8","system_id":"levelo_inurba_marseille","lat":43.303046,"lon":5.368981,"is_reserved":false,"is_disabled":false,"rental_uris":{"android":"levelo://app?vid=ce288bf5-cffc-4880-9f7a-8fa90f623cb8","ios":"levelo://app?vid=ce288bf5-cffc-4880-9f7a-8fa90f623cb8"},"vehicle_type_id":"4","last_reported":1721412642,"current_range_meters":27600,"station_id":"ce4bgqh2rcd13ifvqc5g","pricing_plan_id":"cebpf4jnsgd1na2vs0mg"},{"bike_id":"76a061d0-1df0-43fe-9fb7-49f46b3824e1","system_id":"levelo_inurba_marseille","lat":43.30304,"lon":5.368987,"is_reserved":false,"is_disabled":false,"rental_uris":{"android":"levelo://app?vid=76a061d0-1df0-43fe-9fb7-49f46b3824e1","ios":"levelo://app?vid=76a061d0-1df0-43fe-9fb7-49f46b3824e1"},"vehicle_type_id":"4","last_reported":1721412642,"current_range_meters":31200,"station_id":"ce4bgqh2rcd13ifvqc5g","pricing_plan_id":"cebpf4jnsgd1na2vs0mg"},{"bike_id":"01818d5c-e260-460d-a7c4-76a4dfd85404","system_id":"levelo_inurba_marseille","lat":43.315289,"lon":5.380349,"is_reserved":false,"is_disabled":false,"rental_uris":{"android":"levelo://app?vid=01818d5c-e260-460d-a7c4-76a4dfd85404","ios":"levelo://app?vid=01818d5c-e260-460d-a7c4-76a4dfd85404"},"vehicle_type_id":"4","last_reported":1721412642,"current_range_meters":28400,"station_id":"ce4bhsp2rcd13ifvqi50","pricing_plan_id":"cebpf4jnsgd1na2vs0mg"},{"bike_id":"3515b090-7721-448e-acfe-420b1cc863af","system_id":"levelo_inurba_marseille","lat":43.301939,"lon":5.366286,"is_reserved":false,"is_disabled":false,"rental_uris":{"android":"levelo://app?vid=3515b090-7721-448e-acfe-420b1cc863af","ios":"levelo://app?vid=3515b090-7721-448e-acfe-420b1cc863af"},"vehicle_type_id":"4","last_reported":1721412642,"current_range_meters":18000,"station_id":"ce4bgrh2rcd13ifvqc8g","pricing_plan_id":"cebpf4jnsgd1na2vs0mg"},{"bike_id":"f33d9d24-4c0d-4c8d-8fe5-560048431e7f","system_id":"levelo_inurba_marseille","lat":43.301939,"lon":5.366286,"is_reserved":false,"is_disabled":false,"rental_uris":{"android":"levelo://app?vid=f33d9d24-4c0d-4c8d-8fe5-560048431e7f","ios":"levelo://app?vid=f33d9d24-4c0d-4c8d-8fe5-560048431e7f"},"vehicle_type_id":"4","last_reported":1721412642,"current_range_meters":16400,"station_id":"ce4bgrh2rcd13ifvqc8g","pricing_plan_id":"cebpf4jnsgd1na2vs0mg"},{"bike_id":"4facb2f5-61ec-43fe-9727-d27078aea952","system_id":"levelo_inurba_marseille","lat":43.30838,"lon":5.38123,"is_reserved":false,"is_disabled":false,"rental_uris":{"android":"levelo://app?vid=4facb2f5-61ec-43fe-9727-d27078aea952","ios":"levelo://app?vid=4facb2f5-61ec-43fe-9727-d27078aea952"},"vehicle_type_id":"4","last_reported":1721412642,"current_range_meters":13200,"station_id":"ce4bgt12rcd13ifvqce0","pricing_plan_id":"cebpf4jnsgd1na2vs0mg"},{"bike_id":"90435d95-02a0-4959-a8f8-f578c2cdac69","system_id":"levelo_inurba_marseille","lat":43.308012,"lon":5.381511,"is_reserved":false,"is_disabled":false,"rental_uris":{"android":"levelo://app?vid=90435d95-02a0-4959-a8f8-f578c2cdac69","ios":"levelo://app?vid=90435d95-02a0-4959-a8f8-f578c2cdac69"},"vehicle_type_id":"4","last_reported":1721412642,"current_range_meters":800,"station_id":"ce4bgt12rcd13ifvqce0","pricing_plan_id":"cebpf4jnsgd1na2vs0mg"},{"bike_id":"9568a05f-6a5d-4ba1-8481-db7161abf41d","system_id":"levelo_inurba_marseille","lat":43.324771,"lon":5.36557,"is_reserved":false,"is_disabled":false,"rental_uris":{"android":"levelo://app?vid=9568a05f-6a5d-4ba1-8481-db7161abf41d","ios":"levelo://app?vid=9568a05f-6a5d-4ba1-8481-db7161abf41d"},"vehicle_type_id":"4","last_reported":1721412642,"current_range_meters":12000,"station_id":"ce4bhs12rcd13ifvqhvg","pricing_plan_id":"cebpf4jnsgd1na2vs0mg"},{"bike_id":"49c9174c-e04b-4e00-9848-b6d035396dd2","system_id":"levelo_inurba_marseille","lat":43.324771,"lon":5.36557,"is_reserved":false,"is_disabled":false,"rental_uris":{"android":"levelo://app?vid=49c9174c-e04b-4e00-9848-b6d035396dd2","ios":"levelo://app?vid=49c9174c-e04b-4e00-9848-b6d035396dd2"},"vehicle_type_id":"4","last_reported":1721412642,"current_range_meters":21600,"station_id":"ce4bhs12rcd13ifvqhvg","pricing_plan_id":"cebpf4jnsgd1na2vs0mg"},{"bike_id":"5e15dcab-a1c9-4912-9076-62d7c2dbe330","system_id":"levelo_inurba_marseille","lat":43.324771,"lon":5.36557,"is_reserved":false,"is_disabled":false,"rental_uris":{"android":"levelo://app?vid=5e15dcab-a1c9-4912-9076-62d7c2dbe330","ios":"levelo://app?vid=5e15dcab-a1c9-4912-9076-62d7c2dbe330"},"vehicle_type_id":"4","last_reported":1721412642,"current_range_meters":27200,"station_id":"ce4bhs12rcd13ifvqhvg","pricing_plan_id":"cebpf4jnsgd1na2vs0mg"},{"bike_id":"951bc901-c238-42d4-aac0-3c805623be77","system_id":"levelo_inurba_marseille","lat":43.324771,"lon":5.36557,"is_reserved":false,"is_disabled":false,"rental_uris":{"android":"levelo://app?vid=951bc901-c238-42d4-aac0-3c805623be77","ios":"levelo://app?vid=951bc901-c238-42d4-aac0-3c805623be77"},"vehicle_type_id":"4","last_reported":1721412642,"current_range_meters":0,"station_id":"ce4bhs12rcd13ifvqhvg","pricing_plan_id":"cebpf4jnsgd1na2vs0mg"},{"bike_id":"7300f5f5-41c7-4a61-bbdc-b550c07398ca","system_id":"levelo_inurba_marseille","lat":43.324771,"lon":5.36557,"is_reserved":false,"is_disabled":false,"rental_uris":{"android":"levelo://app?vid=7300f5f5-41c7-4a61-bbdc-b550c07398ca","ios":"levelo://app?vid=7300f5f5-41c7-4a61-bbdc-b550c07398ca"},"vehicle_type_id":"4","last_reported":1721412642,"current_range_meters":20000,"station_id":"ce4bhs12rcd13ifvqhvg","pricing_plan_id":"cebpf4jnsgd1na2vs0mg"},{"bike_id":"796940cd-d420-4793-85f3-3ead44f0ad2a","system_id":"levelo_inurba_marseille","lat":43.324771,"lon":5.36557,"is_reserved":false,"is_disabled":false,"rental_uris":{"android":"levelo://app?vid=796940cd-d420-4793-85f3-3ead44f0ad2a","ios":"levelo://app?vid=796940cd-d420-4793-85f3-3ead44f0ad2a"},"vehicle_type_id":"4","last_reported":1721412642,"current_range_meters":5200,"station_id":"ce4bhs12rcd13ifvqhvg","pricing_plan_id":"cebpf4jnsgd1na2vs0mg"},{"bike_id":"7be3282a-b6f6-4e7b-a1b0-43769aad1701","system_id":"levelo_inurba_marseille","lat":43.324771,"lon":5.36557,"is_reserved":false,"is_disabled":false,"rental_uris":{"android":"levelo://app?vid=7be3282a-b6f6-4e7b-a1b0-43769aad1701","ios":"levelo://app?vid=7be3282a-b6f6-4e7b-a1b0-43769aad1701"},"vehicle_type_id":"4","last_reported":1721412642,"current_range_meters":8800,"station_id":"ce4bhs12rcd13ifvqhvg","pricing_plan_id":"cebpf4jnsgd1na2vs0mg"},{"bike_id":"a355c726-fb69-4fd4-bba1-4e98caec148f","system_id":"levelo_inurba_marseille","lat":43.324771,"lon":5.36557,"is_reserved":false,"is_disabled":false,"rental_uris":{"android":"levelo://app?vid=a355c726-fb69-4fd4-bba1-4e98caec148f","ios":"levelo://app?vid=a355c726-fb69-4fd4-bba1-4e98caec148f"},"vehicle_type_id":"4","last_reported":1721412642,"current_range_meters":11200,"station_id":"ce4bhs12rcd13ifvqhvg","pricing_plan_id":"cebpf4jnsgd1na2vs0mg"},{"bike_id":"8f962ede-c569-4563-8b57-1cf223c13657","system_id":"levelo_inurba_marseille","lat":43.324771,"lon":5.36557,"is_reserved":false,"is_disabled":false,"rental_uris":{"android":"levelo://app?vid=8f962ede-c569-4563-8b57-1cf223c13657","ios":"levelo://app?vid=8f962ede-c569-4563-8b57-1cf223c13657"},"vehicle_type_id":"4","last_reported":1721412642,"current_range_meters":14800,"station_id":"ce4bhs12rcd13ifvqhvg","pricing_plan_id":"cebpf4jnsgd1na2vs0mg"},{"bike_id":"843acb09-ec00-42a4-8f8a-3a11a4562824","system_id":"levelo_inurba_marseille","lat":43.324771,"lon":5.36557,"is_reserved":false,"is_disabled":false,"rental_uris":{"android":"levelo://app?vid=843acb09-ec00-42a4-8f8a-3a11a4562824","ios":"levelo://app?vid=843acb09-ec00-42a4-8f8a-3a11a4562824"},"vehicle_type_id":"4","last_reported":1721412642,"current_range_meters":31200,"station_id":"ce4bhs12rcd13ifvqhvg","pricing_plan_id":"cebpf4jnsgd1na2vs0mg"},{"bike_id":"2cc0e66a-a2fa-466f-8a05-5990f0e1d535","system_id":"levelo_inurba_marseille","lat":43.324771,"lon":5.36557,"is_reserved":false,"is_disabled":false,"rental_uris":{"android":"levelo://app?vid=2cc0e66a-a2fa-466f-8a05-5990f0e1d535","ios":"levelo://app?vid=2cc0e66a-a2fa-466f-8a05-5990f0e1d535"},"vehicle_type_id":"4","last_reported":1721412642,"current_range_meters":6000,"station_id":"ce4bhs12rcd13ifvqhvg","pricing_plan_id":"cebpf4jnsgd1na2vs0mg"},{"bike_id":"2baca4ef-0d69-4564-91f0-6aa88a9ace5b","system_id":"levelo_inurba_marseille","lat":43.324771,"lon":5.36557,"is_reserved":false,"is_disabled":false,"rental_uris":{"android":"levelo://app?vid=2baca4ef-0d69-4564-91f0-6aa88a9ace5b","ios":"levelo://app?vid=2baca4ef-0d69-4564-91f0-6aa88a9ace5b"},"vehicle_type_id":"4","last_reported":1721412642,"current_range_meters":15200,"station_id":"ce4bhs12rcd13ifvqhvg","pricing_plan_id":"cebpf4jnsgd1na2vs0mg"},{"bike_id":"2914e2e0-418b-4aa3-b5ed-7c7a745db693","system_id":"levelo_inurba_marseille","lat":43.310804,"lon":5.38359,"is_reserved":false,"is_disabled":false,"rental_uris":{"android":"levelo://app?vid=2914e2e0-418b-4aa3-b5ed-7c7a745db693","ios":"levelo://app?vid=2914e2e0-418b-4aa3-b5ed-7c7a745db693"},"vehicle_type_id":"4","last_reported":1721412642,"current_range_meters":2400,"station_id":"ce4bgv92rcd13ifvqcr0","pricing_plan_id":"cebpf4jnsgd1na2vs0mg"},{"bike_id":"18720ed3-9068-4e60-8a9a-9fa3ec9bb83b","system_id":"levelo_inurba_marseille","lat":43.30143,"lon":5.37413,"is_reserved":false,"is_disabled":false,"rental_uris":{"android":"levelo://app?vid=18720ed3-9068-4e60-8a9a-9fa3ec9bb83b","ios":"levelo://app?vid=18720ed3-9068-4e60-8a9a-9fa3ec9bb83b"},"vehicle_type_id":"4","last_reported":1721412642,"current_range_meters":28000,"station_id":"ce4bgs92rcd13ifvqcc0","pricing_plan_id":"cebpf4jnsgd1na2vs0mg"},{"bike_id":"b58dad2e-7542-412b-a6e4-d36712e8b79c","system_id":"levelo_inurba_marseille","lat":43.30143,"lon":5.37413,"is_reserved":false,"is_disabled":false,"rental_uris":{"android":"levelo://app?vid=b58dad2e-7542-412b-a6e4-d36712e8b79c","ios":"levelo://app?vid=b58dad2e-7542-412b-a6e4-d36712e8b79c"},"vehicle_type_id":"4","last_reported":1721412642,"current_range_meters":4800,"station_id":"ce4bgs92rcd13ifvqcc0","pricing_plan_id":"cebpf4jnsgd1na2vs0mg"},{"bike_id":"11fe5231-dcda-4618-9f38-711adf09f561","system_id":"levelo_inurba_marseille","lat":43.30143,"lon":5.37413,"is_reserved":false,"is_disabled":false,"rental_uris":{"android":"levelo://app?vid=11fe5231-dcda-4618-9f38-711adf09f561","ios":"levelo://app?vid=11fe5231-dcda-4618-9f38-711adf09f561"},"vehicle_type_id":"4","last_reported":1721412642,"current_range_meters":29600,"station_id":"ce4bgs92rcd13ifvqcc0","pricing_plan_id":"cebpf4jnsgd1na2vs0mg"},{"bike_id":"ebfafa78-ac93-4db8-a622-cc365e85e17d","system_id":"levelo_inurba_marseille","lat":43.302784,"lon":5.377158,"is_reserved":false,"is_disabled":false,"rental_uris":{"android":"levelo://app?vid=ebfafa78-ac93-4db8-a622-cc365e85e17d","ios":"levelo://app?vid=ebfafa78-ac93-4db8-a622-cc365e85e17d"},"vehicle_type_id":"4","last_reported":1721412642,"current_range_meters":2400,"station_id":"ce4bguh2rcd13ifvqcj0","pricing_plan_id":"cebpf4jnsgd1na2vs0mg"},{"bike_id":"3ce919f2-2df5-4f56-83b9-a2c0725df5a1","system_id":"levelo_inurba_marseille","lat":43.3057,"lon":5.38142,"is_reserved":false,"is_disabled":false,"rental_uris":{"android":"levelo://app?vid=3ce919f2-2df5-4f56-83b9-a2c0725df5a1","ios":"levelo://app?vid=3ce919f2-2df5-4f56-83b9-a2c0725df5a1"},"vehicle_type_id":"4","last_reported":1721412642,"current_range_meters":18400,"station_id":"","pricing_plan_id":"cebpf4jnsgd1na2vs0mg"},{"bike_id":"d67b6023-5951-4f9b-860a-c179aa1d987e","system_id":"levelo_inurba_marseille","lat":43.319935,"lon":5.381699,"is_reserved":false,"is_disabled":false,"rental_uris":{"android":"levelo://app?vid=d67b6023-5951-4f9b-860a-c179aa1d987e","ios":"levelo://app?vid=d67b6023-5951-4f9b-860a-c179aa1d987e"},"vehicle_type_id":"4","last_reported":1721412642,"current_range_meters":17200,"station_id":"ce4bhr12rcd13ifvqhpg","pricing_plan_id":"cebpf4jnsgd1na2vs0mg"},{"bike_id":"a7800795-3164-40aa-8897-e93178e103e0","system_id":"levelo_inurba_marseille","lat":43.313571,"lon":5.384829,"is_reserved":false,"is_disabled":false,"rental_uris":{"android":"levelo://app?vid=a7800795-3164-40aa-8897-e93178e103e0","ios":"levelo://app?vid=a7800795-3164-40aa-8897-e93178e103e0"},"vehicle_type_id":"4","last_reported":1721412642,"current_range_meters":0,"station_id":"ce4bgt92rcd13ifvqcf0","pricing_plan_id":"cebpf4jnsgd1na2vs0mg"},{"bike_id":"59aaec4b-b7e4-4fb7-9a43-38aa2abf5751","system_id":"levelo_inurba_marseille","lat":43.299222,"lon":5.365554,"is_reserved":false,"is_disabled":false,"rental_uris":{"android":"levelo://app?vid=59aaec4b-b7e4-4fb7-9a43-38aa2abf5751","ios":"levelo://app?vid=59aaec4b-b7e4-4fb7-9a43-38aa2abf5751"},"vehicle_type_id":"4","last_reported":1721412642,"current_range_meters":10400,"station_id":"ce4bgm92rcd13ifvqbr0","pricing_plan_id":"cebpf4jnsgd1na2vs0mg"},{"bike_id":"2f1e7412-377e-46bf-8e6c-75410373d845","system_id":"levelo_inurba_marseille","lat":43.305364,"lon":5.384119,"is_reserved":false,"is_disabled":false,"rental_uris":{"android":"levelo://app?vid=2f1e7412-377e-46bf-8e6c-75410373d845","ios":"levelo://app?vid=2f1e7412-377e-46bf-8e6c-75410373d845"},"vehicle_type_id":"4","last_reported":1721412642,"current_range_meters":13600,"station_id":"ce4bgg92rcd13ifvqb30","pricing_plan_id":"cebpf4jnsgd1na2vs0mg"},{"bike_id":"27877c1c-61d1-4d84-b51f-a293d7cac9fc","system_id":"levelo_inurba_marseille","lat":43.298433,"lon":5.362774,"is_reserved":false,"is_disabled":false,"rental_uris":{"android":"levelo://app?vid=27877c1c-61d1-4d84-b51f-a293d7cac9fc","ios":"levelo://app?vid=27877c1c-61d1-4d84-b51f-a293d7cac9fc"},"vehicle_type_id":"4","last_reported":1721412642,"current_range_meters":15600,"station_id":"ce4bgpp2rcd13ifvqc3g","pricing_plan_id":"cebpf4jnsgd1na2vs0mg"},{"bike_id":"fece273a-80ab-45ab-9148-4bf8ecd05ca4","system_id":"levelo_inurba_marseille","lat":43.298433,"lon":5.362774,"is_reserved":false,"is_disabled":false,"rental_uris":{"android":"levelo://app?vid=fece273a-80ab-45ab-9148-4bf8ecd05ca4","ios":"levelo://app?vid=fece273a-80ab-45ab-9148-4bf8ecd05ca4"},"vehicle_type_id":"4","last_reported":1721412642,"current_range_meters":3600,"station_id":"ce4bgpp2rcd13ifvqc3g","pricing_plan_id":"cebpf4jnsgd1na2vs0mg"},{"bike_id":"24ee2431-9762-4d53-b6b6-c0c6b21d1bd9","system_id":"levelo_inurba_marseille","lat":43.298433,"lon":5.362774,"is_reserved":false,"is_disabled":false,"rental_uris":{"android":"levelo://app?vid=24ee2431-9762-4d53-b6b6-c0c6b21d1bd9","ios":"levelo://app?vid=24ee2431-9762-4d53-b6b6-c0c6b21d1bd9"},"vehicle_type_id":"4","last_reported":1721412642,"current_range_meters":28400,"station_id":"ce4bgpp2rcd13ifvqc3g","pricing_plan_id":"cebpf4jnsgd1na2vs0mg"},{"bike_id":"6b717657-1e79-46d8-80e4-ebb374294463","system_id":"levelo_inurba_marseille","lat":43.305364,"lon":5.384119,"is_reserved":false,"is_disabled":false,"rental_uris":{"android":"levelo://app?vid=6b717657-1e79-46d8-80e4-ebb374294463","ios":"levelo://app?vid=6b717657-1e79-46d8-80e4-ebb374294463"},"vehicle_type_id":"4","last_reported":1721412642,"current_range_meters":0,"station_id":"ce4bgg92rcd13ifvqb30","pricing_plan_id":"cebpf4jnsgd1na2vs0mg"},{"bike_id":"dd872ea6-e0ef-4d3a-a895-f3c045a917a8","system_id":"levelo_inurba_marseille","lat":43.29844,"lon":5.36277,"is_reserved":false,"is_disabled":false,"rental_uris":{"android":"levelo://app?vid=dd872ea6-e0ef-4d3a-a895-f3c045a917a8","ios":"levelo://app?vid=dd872ea6-e0ef-4d3a-a895-f3c045a917a8"},"vehicle_type_id":"4","last_reported":1721412642,"current_range_meters":0,"station_id":"ce4bgpp2rcd13ifvqc3g","pricing_plan_id":"cebpf4jnsgd1na2vs0mg"},{"bike_id":"b8883411-4140-47a5-a4a8-4e19342097b4","system_id":"levelo_inurba_marseille","lat":43.299243,"lon":5.374807,"is_reserved":false,"is_disabled":false,"rental_uris":{"android":"levelo://app?vid=b8883411-4140-47a5-a4a8-4e19342097b4","ios":"levelo://app?vid=b8883411-4140-47a5-a4a8-4e19342097b4"},"vehicle_type_id":"4","last_reported":1721412642,"current_range_meters":9200,"station_id":"ce4bgjh2rcd13ifvqbg0","pricing_plan_id":"cebpf4jnsgd1na2vs0mg"},{"bike_id":"9bb1851f-838b-423c-b34d-2d3cca3d0e45","system_id":"levelo_inurba_marseille","lat":43.298433,"lon":5.362774,"is_reserved":false,"is_disabled":false,"rental_uris":{"android":"levelo://app?vid=9bb1851f-838b-423c-b34d-2d3cca3d0e45","ios":"levelo://app?vid=9bb1851f-838b-423c-b34d-2d3cca3d0e45"},"vehicle_type_id":"4","last_reported":1721412642,"current_range_meters":800,"station_id":"ce4bgpp2rcd13ifvqc3g","pricing_plan_id":"cebpf4jnsgd1na2vs0mg"},{"bike_id":"cf4a43e0-1a5a-4422-849f-7b61071dd7df","system_id":"levelo_inurba_marseille","lat":43.298433,"lon":5.362774,"is_reserved":false,"is_disabled":false,"rental_uris":{"android":"levelo://app?vid=cf4a43e0-1a5a-4422-849f-7b61071dd7df","ios":"levelo://app?vid=cf4a43e0-1a5a-4422-849f-7b61071dd7df"},"vehicle_type_id":"4","last_reported":1721412642,"current_range_meters":16800,"station_id":"ce4bgpp2rcd13ifvqc3g","pricing_plan_id":"cebpf4jnsgd1na2vs0mg"},{"bike_id":"f45e669a-cc19-4a31-9a6f-90bcda7468bc","system_id":"levelo_inurba_marseille","lat":43.311722,"lon":5.387247,"is_reserved":false,"is_disabled":false,"rental_uris":{"android":"levelo://app?vid=f45e669a-cc19-4a31-9a6f-90bcda7468bc","ios":"levelo://app?vid=f45e669a-cc19-4a31-9a6f-90bcda7468bc"},"vehicle_type_id":"4","last_reported":1721412642,"current_range_meters":0,"station_id":"ce4bgv12rcd13ifvqcp0","pricing_plan_id":"cebpf4jnsgd1na2vs0mg"},{"bike_id":"10de2cb2-954b-424e-b813-3997d5c80f1c","system_id":"levelo_inurba_marseille","lat":43.299243,"lon":5.374807,"is_reserved":false,"is_disabled":false,"rental_uris":{"android":"levelo://app?vid=10de2cb2-954b-424e-b813-3997d5c80f1c","ios":"levelo://app?vid=10de2cb2-954b-424e-b813-3997d5c80f1c"},"vehicle_type_id":"4","last_reported":1721412642,"current_range_meters":19200,"station_id":"ce4bgjh2rcd13ifvqbg0","pricing_plan_id":"cebpf4jnsgd1na2vs0mg"},{"bike_id":"2b92627c-b076-471f-9a2c-932edfe83634","system_id":"levelo_inurba_marseille","lat":43.299243,"lon":5.37481,"is_reserved":false,"is_disabled":false,"rental_uris":{"android":"levelo://app?vid=2b92627c-b076-471f-9a2c-932edfe83634","ios":"levelo://app?vid=2b92627c-b076-471f-9a2c-932edfe83634"},"vehicle_type_id":"4","last_reported":1721412642,"current_range_meters":31200,"station_id":"ce4bgjh2rcd13ifvqbg0","pricing_plan_id":"cebpf4jnsgd1na2vs0mg"},{"bike_id":"58839e96-198f-4eaf-82c2-fcba05e32519","system_id":"levelo_inurba_marseille","lat":43.311722,"lon":5.387247,"is_reserved":false,"is_disabled":false,"rental_uris":{"android":"levelo://app?vid=58839e96-198f-4eaf-82c2-fcba05e32519","ios":"levelo://app?vid=58839e96-198f-4eaf-82c2-fcba05e32519"},"vehicle_type_id":"4","last_reported":1721412642,"current_range_meters":0,"station_id":"ce4bgv12rcd13ifvqcp0","pricing_plan_id":"cebpf4jnsgd1na2vs0mg"},{"bike_id":"dfb81b36-ea40-47a0-ae9e-aeb8ac7dcbfe","system_id":"levelo_inurba_marseille","lat":43.299243,"lon":5.37481,"is_reserved":false,"is_disabled":false,"rental_uris":{"android":"levelo://app?vid=dfb81b36-ea40-47a0-ae9e-aeb8ac7dcbfe","ios":"levelo://app?vid=dfb81b36-ea40-47a0-ae9e-aeb8ac7dcbfe"},"vehicle_type_id":"4","last_reported":1721412642,"current_range_meters":29200,"station_id":"ce4bgjh2rcd13ifvqbg0","pricing_plan_id":"cebpf4jnsgd1na2vs0mg"},{"bike_id":"7b631476-17e6-4279-bcd5-d74b0ad2fd48","system_id":"levelo_inurba_marseille","lat":43.322872,"lon":5.382756,"is_reserved":false,"is_disabled":false,"rental_uris":{"android":"levelo://app?vid=7b631476-17e6-4279-bcd5-d74b0ad2fd48","ios":"levelo://app?vid=7b631476-17e6-4279-bcd5-d74b0ad2fd48"},"vehicle_type_id":"4","last_reported":1721412642,"current_range_meters":28400,"station_id":"ce4bhr12rcd13ifvqhqg","pricing_plan_id":"cebpf4jnsgd1na2vs0mg"},{"bike_id":"f7da0e21-bcce-452b-8a19-9023500edeba","system_id":"levelo_inurba_marseille","lat":43.297163,"lon":5.365866,"is_reserved":false,"is_disabled":false,"rental_uris":{"android":"levelo://app?vid=f7da0e21-bcce-452b-8a19-9023500edeba","ios":"levelo://app?vid=f7da0e21-bcce-452b-8a19-9023500edeba"},"vehicle_type_id":"4","last_reported":1721412642,"current_range_meters":2800,"station_id":"ce4bgn12rcd13ifvqbt0","pricing_plan_id":"cebpf4jnsgd1na2vs0mg"},{"bike_id":"1f75d08e-d217-4efd-b5f8-41acd593baa5","system_id":"levelo_inurba_marseille","lat":43.297163,"lon":5.365866,"is_reserved":false,"is_disabled":false,"rental_uris":{"android":"levelo://app?vid=1f75d08e-d217-4efd-b5f8-41acd593baa5","ios":"levelo://app?vid=1f75d08e-d217-4efd-b5f8-41acd593baa5"},"vehicle_type_id":"4","last_reported":1721412642,"current_range_meters":14000,"station_id":"ce4bgn12rcd13ifvqbt0","pricing_plan_id":"cebpf4jnsgd1na2vs0mg"},{"bike_id":"8a906b5b-00b4-4232-b2a8-3927f3f89503","system_id":"levelo_inurba_marseille","lat":43.31479,"lon":5.389,"is_reserved":false,"is_disabled":false,"rental_uris":{"android":"levelo://app?vid=8a906b5b-00b4-4232-b2a8-3927f3f89503","ios":"levelo://app?vid=8a906b5b-00b4-4232-b2a8-3927f3f89503"},"vehicle_type_id":"4","last_reported":1721412642,"current_range_meters":27200,"station_id":"","pricing_plan_id":"cebpf4jnsgd1na2vs0mg"},{"bike_id":"1a3985e2-8c6c-4ef9-bfeb-ca3fdd163438","system_id":"levelo_inurba_marseille","lat":43.296827,"lon":5.372838,"is_reserved":false,"is_disabled":false,"rental_uris":{"android":"levelo://app?vid=1a3985e2-8c6c-4ef9-bfeb-ca3fdd163438","ios":"levelo://app?vid=1a3985e2-8c6c-4ef9-bfeb-ca3fdd163438"},"vehicle_type_id":"4","last_reported":1721412642,"current_range_meters":10400,"station_id":"","pricing_plan_id":"cebpf4jnsgd1na2vs0mg"},{"bike_id":"302a6ea4-09db-4b80-b260-90cbbc2f2e78","system_id":"levelo_inurba_marseille","lat":43.2968,"lon":5.37291,"is_reserved":false,"is_disabled":false,"rental_uris":{"android":"levelo://app?vid=302a6ea4-09db-4b80-b260-90cbbc2f2e78","ios":"levelo://app?vid=302a6ea4-09db-4b80-b260-90cbbc2f2e78"},"vehicle_type_id":"4","last_reported":1721412642,"current_range_meters":8400,"station_id":"ce4bgk12rcd13ifvqbj0","pricing_plan_id":"cebpf4jnsgd1na2vs0mg"},{"bike_id":"3ffff01a-51cd-474b-b10d-e5be36f0ab57","system_id":"levelo_inurba_marseille","lat":43.2968,"lon":5.37291,"is_reserved":false,"is_disabled":false,"rental_uris":{"android":"levelo://app?vid=3ffff01a-51cd-474b-b10d-e5be36f0ab57","ios":"levelo://app?vid=3ffff01a-51cd-474b-b10d-e5be36f0ab57"},"vehicle_type_id":"4","last_reported":1721412642,"current_range_meters":1200,"station_id":"ce4bgk12rcd13ifvqbj0","pricing_plan_id":"cebpf4jnsgd1na2vs0mg"},{"bike_id":"c50e88b8-49f7-46e5-98aa-4ee5a833d4ed","system_id":"levelo_inurba_marseille","lat":43.296129,"lon":5.370777,"is_reserved":false,"is_disabled":false,"rental_uris":{"android":"levelo://app?vid=c50e88b8-49f7-46e5-98aa-4ee5a833d4ed","ios":"levelo://app?vid=c50e88b8-49f7-46e5-98aa-4ee5a833d4ed"},"vehicle_type_id":"4","last_reported":1721412642,"current_range_meters":16800,"station_id":"ce4bgnh2rcd13ifvqc0g","pricing_plan_id":"cebpf4jnsgd1na2vs0mg"},{"bike_id":"2e9311c0-6431-435f-9812-1d5865c1f7c6","system_id":"levelo_inurba_marseille","lat":43.296131,"lon":5.370791,"is_reserved":false,"is_disabled":false,"rental_uris":{"android":"levelo://app?vid=2e9311c0-6431-435f-9812-1d5865c1f7c6","ios":"levelo://app?vid=2e9311c0-6431-435f-9812-1d5865c1f7c6"},"vehicle_type_id":"4","last_reported":1721412642,"current_range_meters":12400,"station_id":"ce4bgnh2rcd13ifvqc0g","pricing_plan_id":"cebpf4jnsgd1na2vs0mg"},{"bike_id":"f8bd7348-9b80-4382-a0d5-bfe7c4db70df","system_id":"levelo_inurba_marseille","lat":43.29624,"lon":5.37152,"is_reserved":false,"is_disabled":false,"rental_uris":{"android":"levelo://app?vid=f8bd7348-9b80-4382-a0d5-bfe7c4db70df","ios":"levelo://app?vid=f8bd7348-9b80-4382-a0d5-bfe7c4db70df"},"vehicle_type_id":"4","last_reported":1721412642,"current_range_meters":4800,"station_id":"ce4bgnh2rcd13ifvqc0g","pricing_plan_id":"cebpf4jnsgd1na2vs0mg"},{"bike_id":"f2aafacc-45d8-4013-8ade-e0d3cd65d0b2","system_id":"levelo_inurba_marseille","lat":43.296131,"lon":5.370791,"is_reserved":false,"is_disabled":false,"rental_uris":{"android":"levelo://app?vid=f2aafacc-45d8-4013-8ade-e0d3cd65d0b2","ios":"levelo://app?vid=f2aafacc-45d8-4013-8ade-e0d3cd65d0b2"},"vehicle_type_id":"4","last_reported":1721412642,"current_range_meters":31200,"station_id":"ce4bgnh2rcd13ifvqc0g","pricing_plan_id":"cebpf4jnsgd1na2vs0mg"},{"bike_id":"74a5493c-61ed-4a33-8535-9b9560c8d206","system_id":"levelo_inurba_marseille","lat":43.296129,"lon":5.370777,"is_reserved":false,"is_disabled":false,"rental_uris":{"android":"levelo://app?vid=74a5493c-61ed-4a33-8535-9b9560c8d206","ios":"levelo://app?vid=74a5493c-61ed-4a33-8535-9b9560c8d206"},"vehicle_type_id":"4","last_reported":1721412642,"current_range_meters":15600,"station_id":"ce4bgnh2rcd13ifvqc0g","pricing_plan_id":"cebpf4jnsgd1na2vs0mg"},{"bike_id":"491c2ac5-4b4c-4aaa-9ff7-976fbf780d31","system_id":"levelo_inurba_marseille","lat":43.296129,"lon":5.370777,"is_reserved":false,"is_disabled":false,"rental_uris":{"android":"levelo://app?vid=491c2ac5-4b4c-4aaa-9ff7-976fbf780d31","ios":"levelo://app?vid=491c2ac5-4b4c-4aaa-9ff7-976fbf780d31"},"vehicle_type_id":"4","last_reported":1721412642,"current_range_meters":28400,"station_id":"ce4bgnh2rcd13ifvqc0g","pricing_plan_id":"cebpf4jnsgd1na2vs0mg"},{"bike_id":"818df5c1-bed0-43cd-9a89-697c8601c9bd","system_id":"levelo_inurba_marseille","lat":43.296131,"lon":5.370773,"is_reserved":false,"is_disabled":false,"rental_uris":{"android":"levelo://app?vid=818df5c1-bed0-43cd-9a89-697c8601c9bd","ios":"levelo://app?vid=818df5c1-bed0-43cd-9a89-697c8601c9bd"},"vehicle_type_id":"4","last_reported":1721412642,"current_range_meters":10400,"station_id":"ce4bgnh2rcd13ifvqc0g","pricing_plan_id":"cebpf4jnsgd1na2vs0mg"},{"bike_id":"53c213d4-4b2e-4219-b62a-0e04f30b1a40","system_id":"levelo_inurba_marseille","lat":43.299028,"lon":5.381509,"is_reserved":false,"is_disabled":false,"rental_uris":{"android":"levelo://app?vid=53c213d4-4b2e-4219-b62a-0e04f30b1a40","ios":"levelo://app?vid=53c213d4-4b2e-4219-b62a-0e04f30b1a40"},"vehicle_type_id":"4","last_reported":1721412642,"current_range_meters":21600,"station_id":"ce4bgj12rcd13ifvqbc0","pricing_plan_id":"cebpf4jnsgd1na2vs0mg"},{"bike_id":"9726e420-1af4-46b9-b3db-56b88e7317a8","system_id":"levelo_inurba_marseille","lat":43.309608,"lon":5.390297,"is_reserved":false,"is_disabled":false,"rental_uris":{"android":"levelo://app?vid=9726e420-1af4-46b9-b3db-56b88e7317a8","ios":"levelo://app?vid=9726e420-1af4-46b9-b3db-56b88e7317a8"},"vehicle_type_id":"4","last_reported":1721412642,"current_range_meters":16400,"station_id":"","pricing_plan_id":"cebpf4jnsgd1na2vs0mg"},{"bike_id":"37e396b7-d5cb-414c-b979-4e62c45140d4","system_id":"levelo_inurba_marseille","lat":43.309589,"lon":5.390258,"is_reserved":false,"is_disabled":false,"rental_uris":{"android":"levelo://app?vid=37e396b7-d5cb-414c-b979-4e62c45140d4","ios":"levelo://app?vid=37e396b7-d5cb-414c-b979-4e62c45140d4"},"vehicle_type_id":"4","last_reported":1721412642,"current_range_meters":30400,"station_id":"ce4bgup2rcd13ifvqco0","pricing_plan_id":"cebpf4jnsgd1na2vs0mg"},{"bike_id":"5b4d11fb-2ee8-47ab-84bf-57bdf48a1555","system_id":"levelo_inurba_marseille","lat":43.309589,"lon":5.390258,"is_reserved":false,"is_disabled":false,"rental_uris":{"android":"levelo://app?vid=5b4d11fb-2ee8-47ab-84bf-57bdf48a1555","ios":"levelo://app?vid=5b4d11fb-2ee8-47ab-84bf-57bdf48a1555"},"vehicle_type_id":"4","last_reported":1721412642,"current_range_meters":7200,"station_id":"ce4bgup2rcd13ifvqco0","pricing_plan_id":"cebpf4jnsgd1na2vs0mg"},{"bike_id":"cf2291ee-e3b2-4a0d-9328-21cef814e885","system_id":"levelo_inurba_marseille","lat":43.309589,"lon":5.390258,"is_reserved":false,"is_disabled":false,"rental_uris":{"android":"levelo://app?vid=cf2291ee-e3b2-4a0d-9328-21cef814e885","ios":"levelo://app?vid=cf2291ee-e3b2-4a0d-9328-21cef814e885"},"vehicle_type_id":"4","last_reported":1721412642,"current_range_meters":10400,"station_id":"ce4bgup2rcd13ifvqco0","pricing_plan_id":"cebpf4jnsgd1na2vs0mg"},{"bike_id":"b7921f5b-3906-400d-87fb-d23233c0ba2b","system_id":"levelo_inurba_marseille","lat":43.309589,"lon":5.390258,"is_reserved":false,"is_disabled":false,"rental_uris":{"android":"levelo://app?vid=b7921f5b-3906-400d-87fb-d23233c0ba2b","ios":"levelo://app?vid=b7921f5b-3906-400d-87fb-d23233c0ba2b"},"vehicle_type_id":"4","last_reported":1721412642,"current_range_meters":7200,"station_id":"ce4bgup2rcd13ifvqco0","pricing_plan_id":"cebpf4jnsgd1na2vs0mg"},{"bike_id":"7f3a46d3-eee2-480d-9152-60a4949d02c6","system_id":"levelo_inurba_marseille","lat":43.309589,"lon":5.390258,"is_reserved":false,"is_disabled":false,"rental_uris":{"android":"levelo://app?vid=7f3a46d3-eee2-480d-9152-60a4949d02c6","ios":"levelo://app?vid=7f3a46d3-eee2-480d-9152-60a4949d02c6"},"vehicle_type_id":"4","last_reported":1721412642,"current_range_meters":10400,"station_id":"ce4bgup2rcd13ifvqco0","pricing_plan_id":"cebpf4jnsgd1na2vs0mg"},{"bike_id":"585de835-29fa-49b9-9e03-0d4b3cd20013","system_id":"levelo_inurba_marseille","lat":43.309589,"lon":5.390258,"is_reserved":false,"is_disabled":false,"rental_uris":{"android":"levelo://app?vid=585de835-29fa-49b9-9e03-0d4b3cd20013","ios":"levelo://app?vid=585de835-29fa-49b9-9e03-0d4b3cd20013"},"vehicle_type_id":"4","last_reported":1721412642,"current_range_meters":4000,"station_id":"ce4bgup2rcd13ifvqco0","pricing_plan_id":"cebpf4jnsgd1na2vs0mg"},{"bike_id":"1242ce38-b40c-4982-8479-f470571b71a0","system_id":"levelo_inurba_marseille","lat":43.309589,"lon":5.390258,"is_reserved":false,"is_disabled":false,"rental_uris":{"android":"levelo://app?vid=1242ce38-b40c-4982-8479-f470571b71a0","ios":"levelo://app?vid=1242ce38-b40c-4982-8479-f470571b71a0"},"vehicle_type_id":"4","last_reported":1721412642,"current_range_meters":7600,"station_id":"ce4bgup2rcd13ifvqco0","pricing_plan_id":"cebpf4jnsgd1na2vs0mg"},{"bike_id":"5f154e1d-c496-4175-9805-325468cb7673","system_id":"levelo_inurba_marseille","lat":43.317557,"lon":5.390173,"is_reserved":false,"is_disabled":false,"rental_uris":{"android":"levelo://app?vid=5f154e1d-c496-4175-9805-325468cb7673","ios":"levelo://app?vid=5f154e1d-c496-4175-9805-325468cb7673"},"vehicle_type_id":"4","last_reported":1721412642,"current_range_meters":8800,"station_id":"ce4bhqp2rcd13ifvqhng","pricing_plan_id":"cebpf4jnsgd1na2vs0mg"},{"bike_id":"95f95752-a468-4f62-83af-39f62f247a2f","system_id":"levelo_inurba_marseille","lat":43.317557,"lon":5.390173,"is_reserved":false,"is_disabled":false,"rental_uris":{"android":"levelo://app?vid=95f95752-a468-4f62-83af-39f62f247a2f","ios":"levelo://app?vid=95f95752-a468-4f62-83af-39f62f247a2f"},"vehicle_type_id":"4","last_reported":1721412642,"current_range_meters":15200,"station_id":"ce4bhqp2rcd13ifvqhng","pricing_plan_id":"cebpf4jnsgd1na2vs0mg"},{"bike_id":"fceade41-7754-4a2e-a9f5-28d21d240216","system_id":"levelo_inurba_marseille","lat":43.317557,"lon":5.390173,"is_reserved":false,"is_disabled":false,"rental_uris":{"android":"levelo://app?vid=fceade41-7754-4a2e-a9f5-28d21d240216","ios":"levelo://app?vid=fceade41-7754-4a2e-a9f5-28d21d240216"},"vehicle_type_id":"4","last_reported":1721412642,"current_range_meters":15600,"station_id":"ce4bhqp2rcd13ifvqhng","pricing_plan_id":"cebpf4jnsgd1na2vs0mg"},{"bike_id":"2eeb24e6-0b19-49f7-89a0-8f40cf58e313","system_id":"levelo_inurba_marseille","lat":43.298037,"lon":5.381066,"is_reserved":false,"is_disabled":false,"rental_uris":{"android":"levelo://app?vid=2eeb24e6-0b19-49f7-89a0-8f40cf58e313","ios":"levelo://app?vid=2eeb24e6-0b19-49f7-89a0-8f40cf58e313"},"vehicle_type_id":"4","last_reported":1721412642,"current_range_meters":1600,"station_id":"ce4bgip2rcd13ifvqbb0","pricing_plan_id":"cebpf4jnsgd1na2vs0mg"},{"bike_id":"307924ed-e316-42c6-b031-ad04035a85fc","system_id":"levelo_inurba_marseille","lat":43.29576,"lon":5.37511,"is_reserved":false,"is_disabled":false,"rental_uris":{"android":"levelo://app?vid=307924ed-e316-42c6-b031-ad04035a85fc","ios":"levelo://app?vid=307924ed-e316-42c6-b031-ad04035a85fc"},"vehicle_type_id":"4","last_reported":1721412642,"current_range_meters":0,"station_id":"ce4bgh92rcd13ifvqb50","pricing_plan_id":"cebpf4jnsgd1na2vs0mg"},{"bike_id":"20ebec99-a4af-430c-8812-aed8a46e85d5","system_id":"levelo_inurba_marseille","lat":43.29911,"lon":5.38312,"is_reserved":false,"is_disabled":false,"rental_uris":{"android":"levelo://app?vid=20ebec99-a4af-430c-8812-aed8a46e85d5","ios":"levelo://app?vid=20ebec99-a4af-430c-8812-aed8a46e85d5"},"vehicle_type_id":"4","last_reported":1721412642,"current_range_meters":2400,"station_id":"","pricing_plan_id":"cebpf4jnsgd1na2vs0mg"},{"bike_id":"7146c162-d5a9-4258-b2cd-5d2f9ca19f39","system_id":"levelo_inurba_marseille","lat":43.295748,"lon":5.37522,"is_reserved":false,"is_disabled":false,"rental_uris":{"android":"levelo://app?vid=7146c162-d5a9-4258-b2cd-5d2f9ca19f39","ios":"levelo://app?vid=7146c162-d5a9-4258-b2cd-5d2f9ca19f39"},"vehicle_type_id":"4","last_reported":1721412642,"current_range_meters":13200,"station_id":"ce4bgh92rcd13ifvqb50","pricing_plan_id":"cebpf4jnsgd1na2vs0mg"},{"bike_id":"94f8c917-9485-45d8-9cff-ada30819304e","system_id":"levelo_inurba_marseille","lat":43.295748,"lon":5.37522,"is_reserved":false,"is_disabled":false,"rental_uris":{"android":"levelo://app?vid=94f8c917-9485-45d8-9cff-ada30819304e","ios":"levelo://app?vid=94f8c917-9485-45d8-9cff-ada30819304e"},"vehicle_type_id":"4","last_reported":1721412642,"current_range_meters":28400,"station_id":"ce4bgh92rcd13ifvqb50","pricing_plan_id":"cebpf4jnsgd1na2vs0mg"},{"bike_id":"eb7b5847-b992-40b1-92d1-a584a4f7acf9","system_id":"levelo_inurba_marseille","lat":43.304278,"lon":5.388868,"is_reserved":false,"is_disabled":false,"rental_uris":{"android":"levelo://app?vid=eb7b5847-b992-40b1-92d1-a584a4f7acf9","ios":"levelo://app?vid=eb7b5847-b992-40b1-92d1-a584a4f7acf9"},"vehicle_type_id":"4","last_reported":1721412642,"current_range_meters":24800,"station_id":"ce4bgk12rcd13ifvqbi0","pricing_plan_id":"cebpf4jnsgd1na2vs0mg"},{"bike_id":"10324523-a6b3-4889-adf7-4148acc7ee7f","system_id":"levelo_inurba_marseille","lat":43.299707,"lon":5.384859,"is_reserved":false,"is_disabled":false,"rental_uris":{"android":"levelo://app?vid=10324523-a6b3-4889-adf7-4148acc7ee7f","ios":"levelo://app?vid=10324523-a6b3-4889-adf7-4148acc7ee7f"},"vehicle_type_id":"4","last_reported":1721412642,"current_range_meters":0,"station_id":"ce4bgj92rcd13ifvqbd0","pricing_plan_id":"cebpf4jnsgd1na2vs0mg"},{"bike_id":"5204a56c-4f0d-4b13-b9de-44e5a0366583","system_id":"levelo_inurba_marseille","lat":43.295279,"lon":5.375048,"is_reserved":false,"is_disabled":false,"rental_uris":{"android":"levelo://app?vid=5204a56c-4f0d-4b13-b9de-44e5a0366583","ios":"levelo://app?vid=5204a56c-4f0d-4b13-b9de-44e5a0366583"},"vehicle_type_id":"4","last_reported":1721412642,"current_range_meters":800,"station_id":"ce4bgkp2rcd13ifvqbmg","pricing_plan_id":"cebpf4jnsgd1na2vs0mg"},{"bike_id":"4cb2d564-be2d-4ec1-9901-1f08ca4eb89f","system_id":"levelo_inurba_marseille","lat":43.299724,"lon":5.384848,"is_reserved":false,"is_disabled":false,"rental_uris":{"android":"levelo://app?vid=4cb2d564-be2d-4ec1-9901-1f08ca4eb89f","ios":"levelo://app?vid=4cb2d564-be2d-4ec1-9901-1f08ca4eb89f"},"vehicle_type_id":"4","last_reported":1721412642,"current_range_meters":16800,"station_id":"ce4bgj92rcd13ifvqbd0","pricing_plan_id":"cebpf4jnsgd1na2vs0mg"},{"bike_id":"fb759668-1b97-4778-8ef1-c3428ea4e6c5","system_id":"levelo_inurba_marseille","lat":43.2997,"lon":5.38496,"is_reserved":false,"is_disabled":false,"rental_uris":{"android":"levelo://app?vid=fb759668-1b97-4778-8ef1-c3428ea4e6c5","ios":"levelo://app?vid=fb759668-1b97-4778-8ef1-c3428ea4e6c5"},"vehicle_type_id":"4","last_reported":1721412642,"current_range_meters":0,"station_id":"ce4bgj92rcd13ifvqbd0","pricing_plan_id":"cebpf4jnsgd1na2vs0mg"},{"bike_id":"18491e9b-089a-423d-92a6-2224fb4ac1cb","system_id":"levelo_inurba_marseille","lat":43.30473,"lon":5.39011,"is_reserved":false,"is_disabled":false,"rental_uris":{"android":"levelo://app?vid=18491e9b-089a-423d-92a6-2224fb4ac1cb","ios":"levelo://app?vid=18491e9b-089a-423d-92a6-2224fb4ac1cb"},"vehicle_type_id":"4","last_reported":1721412642,"current_range_meters":6800,"station_id":"","pricing_plan_id":"cebpf4jnsgd1na2vs0mg"},{"bike_id":"3a3f4173-cd0a-4043-b03c-c8d938bf8c0a","system_id":"levelo_inurba_marseille","lat":43.32367,"lon":5.388836,"is_reserved":false,"is_disabled":false,"rental_uris":{"android":"levelo://app?vid=3a3f4173-cd0a-4043-b03c-c8d938bf8c0a","ios":"levelo://app?vid=3a3f4173-cd0a-4043-b03c-c8d938bf8c0a"},"vehicle_type_id":"4","last_reported":1721412642,"current_range_meters":20000,"station_id":"ce4bhqp2rcd13ifvqhog","pricing_plan_id":"cebpf4jnsgd1na2vs0mg"},{"bike_id":"8554e74e-184d-4ac2-8478-fc240459c7ff","system_id":"levelo_inurba_marseille","lat":43.32367,"lon":5.388836,"is_reserved":false,"is_disabled":false,"rental_uris":{"android":"levelo://app?vid=8554e74e-184d-4ac2-8478-fc240459c7ff","ios":"levelo://app?vid=8554e74e-184d-4ac2-8478-fc240459c7ff"},"vehicle_type_id":"4","last_reported":1721412642,"current_range_meters":13600,"station_id":"ce4bhqp2rcd13ifvqhog","pricing_plan_id":"cebpf4jnsgd1na2vs0mg"},{"bike_id":"b157a1d9-b83a-4c27-b403-c691f7c315ff","system_id":"levelo_inurba_marseille","lat":43.32367,"lon":5.388836,"is_reserved":false,"is_disabled":false,"rental_uris":{"android":"levelo://app?vid=b157a1d9-b83a-4c27-b403-c691f7c315ff","ios":"levelo://app?vid=b157a1d9-b83a-4c27-b403-c691f7c315ff"},"vehicle_type_id":"4","last_reported":1721412642,"current_range_meters":18400,"station_id":"ce4bhqp2rcd13ifvqhog","pricing_plan_id":"cebpf4jnsgd1na2vs0mg"},{"bike_id":"bfe9ce8e-6e13-449c-93c1-aa1ea6daff5f","system_id":"levelo_inurba_marseille","lat":43.29601,"lon":5.381084,"is_reserved":false,"is_disabled":false,"rental_uris":{"android":"levelo://app?vid=bfe9ce8e-6e13-449c-93c1-aa1ea6daff5f","ios":"levelo://app?vid=bfe9ce8e-6e13-449c-93c1-aa1ea6daff5f"},"vehicle_type_id":"4","last_reported":1721412642,"current_range_meters":29200,"station_id":"ce4bgl12rcd13ifvqbo0","pricing_plan_id":"cebpf4jnsgd1na2vs0mg"},{"bike_id":"c95ec59b-5a4e-4ac2-8d62-c1be844c1056","system_id":"levelo_inurba_marseille","lat":43.29306,"lon":5.37166,"is_reserved":false,"is_disabled":false,"rental_uris":{"android":"levelo://app?vid=c95ec59b-5a4e-4ac2-8d62-c1be844c1056","ios":"levelo://app?vid=c95ec59b-5a4e-4ac2-8d62-c1be844c1056"},"vehicle_type_id":"4","last_reported":1721412642,"current_range_meters":0,"station_id":"ce4bgh92rcd13ifvqb40","pricing_plan_id":"cebpf4jnsgd1na2vs0mg"},{"bike_id":"793564a4-1f3e-44ce-a675-c6e6e47fcd0e","system_id":"levelo_inurba_marseille","lat":43.29306,"lon":5.371728,"is_reserved":false,"is_disabled":false,"rental_uris":{"android":"levelo://app?vid=793564a4-1f3e-44ce-a675-c6e6e47fcd0e","ios":"levelo://app?vid=793564a4-1f3e-44ce-a675-c6e6e47fcd0e"},"vehicle_type_id":"4","last_reported":1721412642,"current_range_meters":0,"station_id":"ce4bgh92rcd13ifvqb40","pricing_plan_id":"cebpf4jnsgd1na2vs0mg"},{"bike_id":"cd93b78d-931b-4a60-a412-4a75a32a07bf","system_id":"levelo_inurba_marseille","lat":43.292749,"lon":5.368402,"is_reserved":false,"is_disabled":false,"rental_uris":{"android":"levelo://app?vid=cd93b78d-931b-4a60-a412-4a75a32a07bf","ios":"levelo://app?vid=cd93b78d-931b-4a60-a412-4a75a32a07bf"},"vehicle_type_id":"4","last_reported":1721412642,"current_range_meters":0,"station_id":"ce4bhbp2rcd13ifvqesg","pricing_plan_id":"cebpf4jnsgd1na2vs0mg"},{"bike_id":"028e22a3-bb2e-492b-a930-a73a92a7645e","system_id":"levelo_inurba_marseille","lat":43.293259,"lon":5.371586,"is_reserved":false,"is_disabled":false,"rental_uris":{"android":"levelo://app?vid=028e22a3-bb2e-492b-a930-a73a92a7645e","ios":"levelo://app?vid=028e22a3-bb2e-492b-a930-a73a92a7645e"},"vehicle_type_id":"4","last_reported":1721412642,"current_range_meters":2000,"station_id":"ce4bgh92rcd13ifvqb40","pricing_plan_id":"cebpf4jnsgd1na2vs0mg"},{"bike_id":"81f6f935-0814-4776-86f2-77860a2ccc01","system_id":"levelo_inurba_marseille","lat":43.292683,"lon":5.368457,"is_reserved":false,"is_disabled":false,"rental_uris":{"android":"levelo://app?vid=81f6f935-0814-4776-86f2-77860a2ccc01","ios":"levelo://app?vid=81f6f935-0814-4776-86f2-77860a2ccc01"},"vehicle_type_id":"4","last_reported":1721412642,"current_range_meters":0,"station_id":"ce4bhbp2rcd13ifvqesg","pricing_plan_id":"cebpf4jnsgd1na2vs0mg"},{"bike_id":"1e5060fa-db43-451c-a492-24847f4c2cef","system_id":"levelo_inurba_marseille","lat":43.29304,"lon":5.37445,"is_reserved":false,"is_disabled":false,"rental_uris":{"android":"levelo://app?vid=1e5060fa-db43-451c-a492-24847f4c2cef","ios":"levelo://app?vid=1e5060fa-db43-451c-a492-24847f4c2cef"},"vehicle_type_id":"4","last_reported":1721412642,"current_range_meters":0,"station_id":"ce4bgi12rcd13ifvqb70","pricing_plan_id":"cebpf4jnsgd1na2vs0mg"},{"bike_id":"7d8ebbe6-b7d4-4b1d-a530-a96e193db75d","system_id":"levelo_inurba_marseille","lat":43.293009,"lon":5.374584,"is_reserved":false,"is_disabled":false,"rental_uris":{"android":"levelo://app?vid=7d8ebbe6-b7d4-4b1d-a530-a96e193db75d","ios":"levelo://app?vid=7d8ebbe6-b7d4-4b1d-a530-a96e193db75d"},"vehicle_type_id":"4","last_reported":1721412642,"current_range_meters":0,"station_id":"ce4bgi12rcd13ifvqb70","pricing_plan_id":"cebpf4jnsgd1na2vs0mg"},{"bike_id":"02714549-51dd-4a54-8fb7-6acbb19ca08d","system_id":"levelo_inurba_marseille","lat":43.293009,"lon":5.374584,"is_reserved":false,"is_disabled":false,"rental_uris":{"android":"levelo://app?vid=02714549-51dd-4a54-8fb7-6acbb19ca08d","ios":"levelo://app?vid=02714549-51dd-4a54-8fb7-6acbb19ca08d"},"vehicle_type_id":"4","last_reported":1721412642,"current_range_meters":6800,"station_id":"ce4bgi12rcd13ifvqb70","pricing_plan_id":"cebpf4jnsgd1na2vs0mg"},{"bike_id":"dcdeebc8-c373-47b0-8e1f-a5c77242e1fc","system_id":"levelo_inurba_marseille","lat":43.293009,"lon":5.374584,"is_reserved":false,"is_disabled":false,"rental_uris":{"android":"levelo://app?vid=dcdeebc8-c373-47b0-8e1f-a5c77242e1fc","ios":"levelo://app?vid=dcdeebc8-c373-47b0-8e1f-a5c77242e1fc"},"vehicle_type_id":"4","last_reported":1721412642,"current_range_meters":24400,"station_id":"ce4bgi12rcd13ifvqb70","pricing_plan_id":"cebpf4jnsgd1na2vs0mg"},{"bike_id":"f397b0d9-4a0e-443d-90b2-edbd6a66ead4","system_id":"levelo_inurba_marseille","lat":43.29294,"lon":5.3746,"is_reserved":false,"is_disabled":false,"rental_uris":{"android":"levelo://app?vid=f397b0d9-4a0e-443d-90b2-edbd6a66ead4","ios":"levelo://app?vid=f397b0d9-4a0e-443d-90b2-edbd6a66ead4"},"vehicle_type_id":"4","last_reported":1721412642,"current_range_meters":5200,"station_id":"ce4bgi12rcd13ifvqb70","pricing_plan_id":"cebpf4jnsgd1na2vs0mg"},{"bike_id":"53eeb973-4c83-4166-b554-38c54850241e","system_id":"levelo_inurba_marseille","lat":43.29288,"lon":5.37457,"is_reserved":false,"is_disabled":false,"rental_uris":{"android":"levelo://app?vid=53eeb973-4c83-4166-b554-38c54850241e","ios":"levelo://app?vid=53eeb973-4c83-4166-b554-38c54850241e"},"vehicle_type_id":"4","last_reported":1721412642,"current_range_meters":0,"station_id":"ce4bgi12rcd13ifvqb70","pricing_plan_id":"cebpf4jnsgd1na2vs0mg"},{"bike_id":"1f384032-cdf9-4cb2-8dca-80d8139e3c40","system_id":"levelo_inurba_marseille","lat":43.293009,"lon":5.374584,"is_reserved":false,"is_disabled":false,"rental_uris":{"android":"levelo://app?vid=1f384032-cdf9-4cb2-8dca-80d8139e3c40","ios":"levelo://app?vid=1f384032-cdf9-4cb2-8dca-80d8139e3c40"},"vehicle_type_id":"4","last_reported":1721412642,"current_range_meters":0,"station_id":"ce4bgi12rcd13ifvqb70","pricing_plan_id":"cebpf4jnsgd1na2vs0mg"},{"bike_id":"b28ef43a-2638-44cb-b2b9-37428fa6af93","system_id":"levelo_inurba_marseille","lat":43.2936,"lon":5.37835,"is_reserved":false,"is_disabled":false,"rental_uris":{"android":"levelo://app?vid=b28ef43a-2638-44cb-b2b9-37428fa6af93","ios":"levelo://app?vid=b28ef43a-2638-44cb-b2b9-37428fa6af93"},"vehicle_type_id":"4","last_reported":1721412642,"current_range_meters":4400,"station_id":"ce4bgjh2rcd13ifvqbf0","pricing_plan_id":"cebpf4jnsgd1na2vs0mg"},{"bike_id":"6b6198fa-d556-4c84-a794-86c9ac18c161","system_id":"levelo_inurba_marseille","lat":43.29364,"lon":5.37855,"is_reserved":false,"is_disabled":false,"rental_uris":{"android":"levelo://app?vid=6b6198fa-d556-4c84-a794-86c9ac18c161","ios":"levelo://app?vid=6b6198fa-d556-4c84-a794-86c9ac18c161"},"vehicle_type_id":"4","last_reported":1721412642,"current_range_meters":18800,"station_id":"ce4bgjh2rcd13ifvqbf0","pricing_plan_id":"cebpf4jnsgd1na2vs0mg"},{"bike_id":"01a0f93e-63d6-4ee8-8adc-63e4d55fcafa","system_id":"levelo_inurba_marseille","lat":43.292311,"lon":5.360731,"is_reserved":false,"is_disabled":false,"rental_uris":{"android":"levelo://app?vid=01a0f93e-63d6-4ee8-8adc-63e4d55fcafa","ios":"levelo://app?vid=01a0f93e-63d6-4ee8-8adc-63e4d55fcafa"},"vehicle_type_id":"4","last_reported":1721412642,"current_range_meters":16000,"station_id":"ce4bhbh2rcd13ifvqeqg","pricing_plan_id":"cebpf4jnsgd1na2vs0mg"},{"bike_id":"35564586-222f-4000-b675-052c1a0c5c22","system_id":"levelo_inurba_marseille","lat":43.292311,"lon":5.360731,"is_reserved":false,"is_disabled":false,"rental_uris":{"android":"levelo://app?vid=35564586-222f-4000-b675-052c1a0c5c22","ios":"levelo://app?vid=35564586-222f-4000-b675-052c1a0c5c22"},"vehicle_type_id":"4","last_reported":1721412642,"current_range_meters":6400,"station_id":"ce4bhbh2rcd13ifvqeqg","pricing_plan_id":"cebpf4jnsgd1na2vs0mg"},{"bike_id":"2fc7cd14-fa41-43ca-958e-e72fd9bda6ad","system_id":"levelo_inurba_marseille","lat":43.292311,"lon":5.360731,"is_reserved":false,"is_disabled":false,"rental_uris":{"android":"levelo://app?vid=2fc7cd14-fa41-43ca-958e-e72fd9bda6ad","ios":"levelo://app?vid=2fc7cd14-fa41-43ca-958e-e72fd9bda6ad"},"vehicle_type_id":"4","last_reported":1721412642,"current_range_meters":28800,"station_id":"ce4bhbh2rcd13ifvqeqg","pricing_plan_id":"cebpf4jnsgd1na2vs0mg"},{"bike_id":"b1f48966-d559-4454-874e-12529b400245","system_id":"levelo_inurba_marseille","lat":43.30091,"lon":5.39083,"is_reserved":false,"is_disabled":false,"rental_uris":{"android":"levelo://app?vid=b1f48966-d559-4454-874e-12529b400245","ios":"levelo://app?vid=b1f48966-d559-4454-874e-12529b400245"},"vehicle_type_id":"4","last_reported":1721412642,"current_range_meters":0,"station_id":"ce4bh192rcd13ifvqdb0","pricing_plan_id":"cebpf4jnsgd1na2vs0mg"},{"bike_id":"a4f79eac-1064-42db-a66b-357f7014ee31","system_id":"levelo_inurba_marseille","lat":43.292311,"lon":5.360731,"is_reserved":false,"is_disabled":false,"rental_uris":{"android":"levelo://app?vid=a4f79eac-1064-42db-a66b-357f7014ee31","ios":"levelo://app?vid=a4f79eac-1064-42db-a66b-357f7014ee31"},"vehicle_type_id":"4","last_reported":1721412642,"current_range_meters":0,"station_id":"ce4bhbh2rcd13ifvqeqg","pricing_plan_id":"cebpf4jnsgd1na2vs0mg"},{"bike_id":"253a7275-d7b5-413c-87f2-b903206f0e41","system_id":"levelo_inurba_marseille","lat":43.292311,"lon":5.360731,"is_reserved":false,"is_disabled":false,"rental_uris":{"android":"levelo://app?vid=253a7275-d7b5-413c-87f2-b903206f0e41","ios":"levelo://app?vid=253a7275-d7b5-413c-87f2-b903206f0e41"},"vehicle_type_id":"4","last_reported":1721412642,"current_range_meters":6800,"station_id":"ce4bhbh2rcd13ifvqeqg","pricing_plan_id":"cebpf4jnsgd1na2vs0mg"},{"bike_id":"16392679-af0e-40f5-9042-0cc30e9b6769","system_id":"levelo_inurba_marseille","lat":43.291671,"lon":5.371575,"is_reserved":false,"is_disabled":false,"rental_uris":{"android":"levelo://app?vid=16392679-af0e-40f5-9042-0cc30e9b6769","ios":"levelo://app?vid=16392679-af0e-40f5-9042-0cc30e9b6769"},"vehicle_type_id":"4","last_reported":1721412642,"current_range_meters":400,"station_id":"ce4bha92rcd13ifvqeh0","pricing_plan_id":"cebpf4jnsgd1na2vs0mg"},{"bike_id":"dcaf8619-979d-4600-b5c6-5678b35dd8e7","system_id":"levelo_inurba_marseille","lat":43.2936,"lon":5.37835,"is_reserved":false,"is_disabled":false,"rental_uris":{"android":"levelo://app?vid=dcaf8619-979d-4600-b5c6-5678b35dd8e7","ios":"levelo://app?vid=dcaf8619-979d-4600-b5c6-5678b35dd8e7"},"vehicle_type_id":"4","last_reported":1721412642,"current_range_meters":16800,"station_id":"ce4bgjh2rcd13ifvqbf0","pricing_plan_id":"cebpf4jnsgd1na2vs0mg"},{"bike_id":"babd661c-634f-4e11-9566-3e92babd14f0","system_id":"levelo_inurba_marseille","lat":43.291808,"lon":5.375212,"is_reserved":false,"is_disabled":false,"rental_uris":{"android":"levelo://app?vid=babd661c-634f-4e11-9566-3e92babd14f0","ios":"levelo://app?vid=babd661c-634f-4e11-9566-3e92babd14f0"},"vehicle_type_id":"4","last_reported":1721412642,"current_range_meters":0,"station_id":"","pricing_plan_id":"cebpf4jnsgd1na2vs0mg"},{"bike_id":"99bba174-f883-471d-afb9-079a4dade51c","system_id":"levelo_inurba_marseille","lat":43.309038,"lon":5.396546,"is_reserved":false,"is_disabled":false,"rental_uris":{"android":"levelo://app?vid=99bba174-f883-471d-afb9-079a4dade51c","ios":"levelo://app?vid=99bba174-f883-471d-afb9-079a4dade51c"},"vehicle_type_id":"4","last_reported":1721412642,"current_range_meters":0,"station_id":"ce4bh012rcd13ifvqcv0","pricing_plan_id":"cebpf4jnsgd1na2vs0mg"},{"bike_id":"cbb32b6d-886a-49bd-baa9-c0961cd6d411","system_id":"levelo_inurba_marseille","lat":43.290805,"lon":5.371835,"is_reserved":false,"is_disabled":false,"rental_uris":{"android":"levelo://app?vid=cbb32b6d-886a-49bd-baa9-c0961cd6d411","ios":"levelo://app?vid=cbb32b6d-886a-49bd-baa9-c0961cd6d411"},"vehicle_type_id":"4","last_reported":1721412642,"current_range_meters":16400,"station_id":"","pricing_plan_id":"cebpf4jnsgd1na2vs0mg"},{"bike_id":"abe9e133-f1ce-4cb1-852e-68d11786e824","system_id":"levelo_inurba_marseille","lat":43.290779,"lon":5.371482,"is_reserved":false,"is_disabled":false,"rental_uris":{"android":"levelo://app?vid=abe9e133-f1ce-4cb1-852e-68d11786e824","ios":"levelo://app?vid=abe9e133-f1ce-4cb1-852e-68d11786e824"},"vehicle_type_id":"4","last_reported":1721412642,"current_range_meters":400,"station_id":"ce4bh5p2rcd13ifvqe4g","pricing_plan_id":"cebpf4jnsgd1na2vs0mg"},{"bike_id":"ee58a137-0316-4452-8ae8-7864942d7aa4","system_id":"levelo_inurba_marseille","lat":43.290779,"lon":5.371482,"is_reserved":false,"is_disabled":false,"rental_uris":{"android":"levelo://app?vid=ee58a137-0316-4452-8ae8-7864942d7aa4","ios":"levelo://app?vid=ee58a137-0316-4452-8ae8-7864942d7aa4"},"vehicle_type_id":"4","last_reported":1721412642,"current_range_meters":0,"station_id":"ce4bh5p2rcd13ifvqe4g","pricing_plan_id":"cebpf4jnsgd1na2vs0mg"},{"bike_id":"cb64042c-8226-46bc-8515-46baa4799789","system_id":"levelo_inurba_marseille","lat":43.290169,"lon":5.367652,"is_reserved":false,"is_disabled":false,"rental_uris":{"android":"levelo://app?vid=cb64042c-8226-46bc-8515-46baa4799789","ios":"levelo://app?vid=cb64042c-8226-46bc-8515-46baa4799789"},"vehicle_type_id":"4","last_reported":1721412642,"current_range_meters":2800,"station_id":"","pricing_plan_id":"cebpf4jnsgd1na2vs0mg"},{"bike_id":"ef351b1f-5c0a-41d8-b645-498b42648b5f","system_id":"levelo_inurba_marseille","lat":43.290624,"lon":5.359245,"is_reserved":false,"is_disabled":false,"rental_uris":{"android":"levelo://app?vid=ef351b1f-5c0a-41d8-b645-498b42648b5f","ios":"levelo://app?vid=ef351b1f-5c0a-41d8-b645-498b42648b5f"},"vehicle_type_id":"4","last_reported":1721412642,"current_range_meters":12400,"station_id":"ce4bha92rcd13ifvqeg0","pricing_plan_id":"cebpf4jnsgd1na2vs0mg"},{"bike_id":"714762af-05c7-4007-b25d-5d3780e1a9b7","system_id":"levelo_inurba_marseille","lat":43.290631,"lon":5.359244,"is_reserved":false,"is_disabled":false,"rental_uris":{"android":"levelo://app?vid=714762af-05c7-4007-b25d-5d3780e1a9b7","ios":"levelo://app?vid=714762af-05c7-4007-b25d-5d3780e1a9b7"},"vehicle_type_id":"4","last_reported":1721412642,"current_range_meters":21600,"station_id":"ce4bha92rcd13ifvqeg0","pricing_plan_id":"cebpf4jnsgd1na2vs0mg"},{"bike_id":"26cb14d9-7332-4612-b51a-72668d5d06f9","system_id":"levelo_inurba_marseille","lat":43.290631,"lon":5.359244,"is_reserved":false,"is_disabled":false,"rental_uris":{"android":"levelo://app?vid=26cb14d9-7332-4612-b51a-72668d5d06f9","ios":"levelo://app?vid=26cb14d9-7332-4612-b51a-72668d5d06f9"},"vehicle_type_id":"4","last_reported":1721412642,"current_range_meters":19200,"station_id":"ce4bha92rcd13ifvqeg0","pricing_plan_id":"cebpf4jnsgd1na2vs0mg"},{"bike_id":"c6b7ffc7-511e-4a21-a1ba-da16d8c58da1","system_id":"levelo_inurba_marseille","lat":43.294162,"lon":5.386292,"is_reserved":false,"is_disabled":false,"rental_uris":{"android":"levelo://app?vid=c6b7ffc7-511e-4a21-a1ba-da16d8c58da1","ios":"levelo://app?vid=c6b7ffc7-511e-4a21-a1ba-da16d8c58da1"},"vehicle_type_id":"4","last_reported":1721412642,"current_range_meters":0,"station_id":"ce4bh2h2rcd13ifvqdh0","pricing_plan_id":"cebpf4jnsgd1na2vs0mg"},{"bike_id":"9f3683b6-22a0-4c48-a195-c7693138cf0c","system_id":"levelo_inurba_marseille","lat":43.294153,"lon":5.386305,"is_reserved":false,"is_disabled":false,"rental_uris":{"android":"levelo://app?vid=9f3683b6-22a0-4c48-a195-c7693138cf0c","ios":"levelo://app?vid=9f3683b6-22a0-4c48-a195-c7693138cf0c"},"vehicle_type_id":"4","last_reported":1721412642,"current_range_meters":0,"station_id":"ce4bh2h2rcd13ifvqdh0","pricing_plan_id":"cebpf4jnsgd1na2vs0mg"},{"bike_id":"7e31ec55-9add-459d-a3d9-39dd46794d41","system_id":"levelo_inurba_marseille","lat":43.290104,"lon":5.356111,"is_reserved":false,"is_disabled":false,"rental_uris":{"android":"levelo://app?vid=7e31ec55-9add-459d-a3d9-39dd46794d41","ios":"levelo://app?vid=7e31ec55-9add-459d-a3d9-39dd46794d41"},"vehicle_type_id":"4","last_reported":1721412642,"current_range_meters":0,"station_id":"ce4bhb92rcd13ifvqen0","pricing_plan_id":"cebpf4jnsgd1na2vs0mg"},{"bike_id":"5f0c1d60-b442-4b80-985d-a5aec90c198a","system_id":"levelo_inurba_marseille","lat":43.294162,"lon":5.386292,"is_reserved":false,"is_disabled":false,"rental_uris":{"android":"levelo://app?vid=5f0c1d60-b442-4b80-985d-a5aec90c198a","ios":"levelo://app?vid=5f0c1d60-b442-4b80-985d-a5aec90c198a"},"vehicle_type_id":"4","last_reported":1721412642,"current_range_meters":0,"station_id":"ce4bh2h2rcd13ifvqdh0","pricing_plan_id":"cebpf4jnsgd1na2vs0mg"},{"bike_id":"e8080569-d856-4819-9036-fe7d18c66030","system_id":"levelo_inurba_marseille","lat":43.294162,"lon":5.386292,"is_reserved":false,"is_disabled":false,"rental_uris":{"android":"levelo://app?vid=e8080569-d856-4819-9036-fe7d18c66030","ios":"levelo://app?vid=e8080569-d856-4819-9036-fe7d18c66030"},"vehicle_type_id":"4","last_reported":1721412642,"current_range_meters":0,"station_id":"ce4bh2h2rcd13ifvqdh0","pricing_plan_id":"cebpf4jnsgd1na2vs0mg"},{"bike_id":"0fbec0cd-0ae6-4e20-82fc-c311ed96c8bb","system_id":"levelo_inurba_marseille","lat":43.294162,"lon":5.386292,"is_reserved":false,"is_disabled":false,"rental_uris":{"android":"levelo://app?vid=0fbec0cd-0ae6-4e20-82fc-c311ed96c8bb","ios":"levelo://app?vid=0fbec0cd-0ae6-4e20-82fc-c311ed96c8bb"},"vehicle_type_id":"4","last_reported":1721412642,"current_range_meters":0,"station_id":"ce4bh2h2rcd13ifvqdh0","pricing_plan_id":"cebpf4jnsgd1na2vs0mg"},{"bike_id":"b8a7a29e-ca69-420d-b4cf-36a816115f99","system_id":"levelo_inurba_marseille","lat":43.294162,"lon":5.386292,"is_reserved":false,"is_disabled":false,"rental_uris":{"android":"levelo://app?vid=b8a7a29e-ca69-420d-b4cf-36a816115f99","ios":"levelo://app?vid=b8a7a29e-ca69-420d-b4cf-36a816115f99"},"vehicle_type_id":"4","last_reported":1721412642,"current_range_meters":0,"station_id":"ce4bh2h2rcd13ifvqdh0","pricing_plan_id":"cebpf4jnsgd1na2vs0mg"},{"bike_id":"30e000bf-6a7d-441f-aaa4-f626d22178dc","system_id":"levelo_inurba_marseille","lat":43.28937,"lon":5.36644,"is_reserved":false,"is_disabled":false,"rental_uris":{"android":"levelo://app?vid=30e000bf-6a7d-441f-aaa4-f626d22178dc","ios":"levelo://app?vid=30e000bf-6a7d-441f-aaa4-f626d22178dc"},"vehicle_type_id":"4","last_reported":1721412642,"current_range_meters":0,"station_id":"ce4bhap2rcd13ifvqek0","pricing_plan_id":"cebpf4jnsgd1na2vs0mg"},{"bike_id":"7becf2af-13be-4658-b510-fec55b8a368e","system_id":"levelo_inurba_marseille","lat":43.294153,"lon":5.386305,"is_reserved":false,"is_disabled":false,"rental_uris":{"android":"levelo://app?vid=7becf2af-13be-4658-b510-fec55b8a368e","ios":"levelo://app?vid=7becf2af-13be-4658-b510-fec55b8a368e"},"vehicle_type_id":"4","last_reported":1721412642,"current_range_meters":0,"station_id":"ce4bh2h2rcd13ifvqdh0","pricing_plan_id":"cebpf4jnsgd1na2vs0mg"},{"bike_id":"5b87a25d-30de-4e8d-ae1e-6a3027e0335a","system_id":"levelo_inurba_marseille","lat":43.289184,"lon":5.366408,"is_reserved":false,"is_disabled":false,"rental_uris":{"android":"levelo://app?vid=5b87a25d-30de-4e8d-ae1e-6a3027e0335a","ios":"levelo://app?vid=5b87a25d-30de-4e8d-ae1e-6a3027e0335a"},"vehicle_type_id":"4","last_reported":1721412642,"current_range_meters":800,"station_id":"ce4bhap2rcd13ifvqek0","pricing_plan_id":"cebpf4jnsgd1na2vs0mg"},{"bike_id":"3ed22f2f-4005-4164-8264-3235d5267a7e","system_id":"levelo_inurba_marseille","lat":43.292644,"lon":5.384257,"is_reserved":false,"is_disabled":false,"rental_uris":{"android":"levelo://app?vid=3ed22f2f-4005-4164-8264-3235d5267a7e","ios":"levelo://app?vid=3ed22f2f-4005-4164-8264-3235d5267a7e"},"vehicle_type_id":"4","last_reported":1721412642,"current_range_meters":0,"station_id":"ce4bh692rcd13ifvqea0","pricing_plan_id":"cebpf4jnsgd1na2vs0mg"},{"bike_id":"8cf718ef-59fd-4fe9-9b8f-55a7e7dd9b4f","system_id":"levelo_inurba_marseille","lat":43.292642,"lon":5.384254,"is_reserved":false,"is_disabled":false,"rental_uris":{"android":"levelo://app?vid=8cf718ef-59fd-4fe9-9b8f-55a7e7dd9b4f","ios":"levelo://app?vid=8cf718ef-59fd-4fe9-9b8f-55a7e7dd9b4f"},"vehicle_type_id":"4","last_reported":1721412642,"current_range_meters":13200,"station_id":"ce4bh692rcd13ifvqea0","pricing_plan_id":"cebpf4jnsgd1na2vs0mg"},{"bike_id":"9880af46-21c2-4105-82fa-a80d77ef4cd6","system_id":"levelo_inurba_marseille","lat":43.292644,"lon":5.384257,"is_reserved":false,"is_disabled":false,"rental_uris":{"android":"levelo://app?vid=9880af46-21c2-4105-82fa-a80d77ef4cd6","ios":"levelo://app?vid=9880af46-21c2-4105-82fa-a80d77ef4cd6"},"vehicle_type_id":"4","last_reported":1721412642,"current_range_meters":28400,"station_id":"ce4bh692rcd13ifvqea0","pricing_plan_id":"cebpf4jnsgd1na2vs0mg"},{"bike_id":"f06e57f6-8d71-427b-99f7-af463daeba45","system_id":"levelo_inurba_marseille","lat":43.292642,"lon":5.384254,"is_reserved":false,"is_disabled":false,"rental_uris":{"android":"levelo://app?vid=f06e57f6-8d71-427b-99f7-af463daeba45","ios":"levelo://app?vid=f06e57f6-8d71-427b-99f7-af463daeba45"},"vehicle_type_id":"4","last_reported":1721412642,"current_range_meters":13600,"station_id":"ce4bh692rcd13ifvqea0","pricing_plan_id":"cebpf4jnsgd1na2vs0mg"},{"bike_id":"5fed9da2-c59f-4d44-86ca-2ae1d7d80940","system_id":"levelo_inurba_marseille","lat":43.292644,"lon":5.384257,"is_reserved":false,"is_disabled":false,"rental_uris":{"android":"levelo://app?vid=5fed9da2-c59f-4d44-86ca-2ae1d7d80940","ios":"levelo://app?vid=5fed9da2-c59f-4d44-86ca-2ae1d7d80940"},"vehicle_type_id":"4","last_reported":1721412642,"current_range_meters":21200,"station_id":"ce4bh692rcd13ifvqea0","pricing_plan_id":"cebpf4jnsgd1na2vs0mg"},{"bike_id":"bdb73f36-11a5-4382-b07d-7930bb34b823","system_id":"levelo_inurba_marseille","lat":43.292644,"lon":5.384257,"is_reserved":false,"is_disabled":false,"rental_uris":{"android":"levelo://app?vid=bdb73f36-11a5-4382-b07d-7930bb34b823","ios":"levelo://app?vid=bdb73f36-11a5-4382-b07d-7930bb34b823"},"vehicle_type_id":"4","last_reported":1721412642,"current_range_meters":11200,"station_id":"ce4bh692rcd13ifvqea0","pricing_plan_id":"cebpf4jnsgd1na2vs0mg"},{"bike_id":"fe3e10cb-5ee8-4e69-97f7-8c7641b05875","system_id":"levelo_inurba_marseille","lat":43.290104,"lon":5.356111,"is_reserved":false,"is_disabled":false,"rental_uris":{"android":"levelo://app?vid=fe3e10cb-5ee8-4e69-97f7-8c7641b05875","ios":"levelo://app?vid=fe3e10cb-5ee8-4e69-97f7-8c7641b05875"},"vehicle_type_id":"4","last_reported":1721412642,"current_range_meters":1200,"station_id":"ce4bhb92rcd13ifvqen0","pricing_plan_id":"cebpf4jnsgd1na2vs0mg"},{"bike_id":"438765ee-d6b2-4950-a187-ca1f6f96c98f","system_id":"levelo_inurba_marseille","lat":43.28998,"lon":5.35609,"is_reserved":false,"is_disabled":false,"rental_uris":{"android":"levelo://app?vid=438765ee-d6b2-4950-a187-ca1f6f96c98f","ios":"levelo://app?vid=438765ee-d6b2-4950-a187-ca1f6f96c98f"},"vehicle_type_id":"4","last_reported":1721412642,"current_range_meters":0,"station_id":"ce4bhb92rcd13ifvqen0","pricing_plan_id":"cebpf4jnsgd1na2vs0mg"},{"bike_id":"d764cd5a-de17-44ba-961d-efa6acfc24d0","system_id":"levelo_inurba_marseille","lat":43.290995,"lon":5.381361,"is_reserved":false,"is_disabled":false,"rental_uris":{"android":"levelo://app?vid=d764cd5a-de17-44ba-961d-efa6acfc24d0","ios":"levelo://app?vid=d764cd5a-de17-44ba-961d-efa6acfc24d0"},"vehicle_type_id":"4","last_reported":1721412642,"current_range_meters":16000,"station_id":"ce4bh512rcd13ifvqe2g","pricing_plan_id":"cebpf4jnsgd1na2vs0mg"},{"bike_id":"3770954e-6a39-4a10-b149-da73272b5222","system_id":"levelo_inurba_marseille","lat":43.289741,"lon":5.378306,"is_reserved":false,"is_disabled":false,"rental_uris":{"android":"levelo://app?vid=3770954e-6a39-4a10-b149-da73272b5222","ios":"levelo://app?vid=3770954e-6a39-4a10-b149-da73272b5222"},"vehicle_type_id":"4","last_reported":1721412642,"current_range_meters":5600,"station_id":"ce4bh9p2rcd13ifvqed0","pricing_plan_id":"cebpf4jnsgd1na2vs0mg"},{"bike_id":"88d3a412-f0a8-44a7-8bf0-d203685811e3","system_id":"levelo_inurba_marseille","lat":43.289741,"lon":5.378306,"is_reserved":false,"is_disabled":false,"rental_uris":{"android":"levelo://app?vid=88d3a412-f0a8-44a7-8bf0-d203685811e3","ios":"levelo://app?vid=88d3a412-f0a8-44a7-8bf0-d203685811e3"},"vehicle_type_id":"4","last_reported":1721412642,"current_range_meters":2800,"station_id":"ce4bh9p2rcd13ifvqed0","pricing_plan_id":"cebpf4jnsgd1na2vs0mg"},{"bike_id":"ca71b044-df72-497c-b127-930bb64b32d9","system_id":"levelo_inurba_marseille","lat":43.295169,"lon":5.390426,"is_reserved":false,"is_disabled":false,"rental_uris":{"android":"levelo://app?vid=ca71b044-df72-497c-b127-930bb64b32d9","ios":"levelo://app?vid=ca71b044-df72-497c-b127-930bb64b32d9"},"vehicle_type_id":"4","last_reported":1721412642,"current_range_meters":0,"station_id":"ce4bh3p2rcd13ifvqdp0","pricing_plan_id":"cebpf4jnsgd1na2vs0mg"},{"bike_id":"63fa6db4-6276-4a43-a597-dc370ed6d729","system_id":"levelo_inurba_marseille","lat":43.29038,"lon":5.38123,"is_reserved":false,"is_disabled":false,"rental_uris":{"android":"levelo://app?vid=63fa6db4-6276-4a43-a597-dc370ed6d729","ios":"levelo://app?vid=63fa6db4-6276-4a43-a597-dc370ed6d729"},"vehicle_type_id":"4","last_reported":1721412642,"current_range_meters":0,"station_id":"ce4bh4p2rcd13ifvqe1g","pricing_plan_id":"cebpf4jnsgd1na2vs0mg"},{"bike_id":"6afa8b78-cf8c-48d9-896e-07be64797160","system_id":"levelo_inurba_marseille","lat":43.2885,"lon":5.35844,"is_reserved":false,"is_disabled":false,"rental_uris":{"android":"levelo://app?vid=6afa8b78-cf8c-48d9-896e-07be64797160","ios":"levelo://app?vid=6afa8b78-cf8c-48d9-896e-07be64797160"},"vehicle_type_id":"4","last_reported":1721412642,"current_range_meters":0,"station_id":"ce4bhb12rcd13ifvqem0","pricing_plan_id":"cebpf4jnsgd1na2vs0mg"},{"bike_id":"83430109-ecbf-47c2-8af1-be9b34e8f1b5","system_id":"levelo_inurba_marseille","lat":43.309371,"lon":5.401449,"is_reserved":false,"is_disabled":false,"rental_uris":{"android":"levelo://app?vid=83430109-ecbf-47c2-8af1-be9b34e8f1b5","ios":"levelo://app?vid=83430109-ecbf-47c2-8af1-be9b34e8f1b5"},"vehicle_type_id":"4","last_reported":1721412642,"current_range_meters":1600,"station_id":"ce4bgvp2rcd13ifvqct0","pricing_plan_id":"cebpf4jnsgd1na2vs0mg"},{"bike_id":"0b89acf7-673f-4658-ad74-d1fe71d6ca64","system_id":"levelo_inurba_marseille","lat":43.312609,"lon":5.401662,"is_reserved":false,"is_disabled":false,"rental_uris":{"android":"levelo://app?vid=0b89acf7-673f-4658-ad74-d1fe71d6ca64","ios":"levelo://app?vid=0b89acf7-673f-4658-ad74-d1fe71d6ca64"},"vehicle_type_id":"4","last_reported":1721412642,"current_range_meters":9600,"station_id":"ce4bh092rcd13ifvqd30","pricing_plan_id":"cebpf4jnsgd1na2vs0mg"},{"bike_id":"65352a96-a8d2-48cb-8724-217741fef6e1","system_id":"levelo_inurba_marseille","lat":43.306412,"lon":5.401035,"is_reserved":false,"is_disabled":false,"rental_uris":{"android":"levelo://app?vid=65352a96-a8d2-48cb-8724-217741fef6e1","ios":"levelo://app?vid=65352a96-a8d2-48cb-8724-217741fef6e1"},"vehicle_type_id":"4","last_reported":1721412642,"current_range_meters":400,"station_id":"ce4bh112rcd13ifvqda0","pricing_plan_id":"cebpf4jnsgd1na2vs0mg"},{"bike_id":"ac377a63-6a02-42fa-8a70-d5bb9b7546c9","system_id":"levelo_inurba_marseille","lat":43.337676,"lon":5.37434,"is_reserved":false,"is_disabled":false,"rental_uris":{"android":"levelo://app?vid=ac377a63-6a02-42fa-8a70-d5bb9b7546c9","ios":"levelo://app?vid=ac377a63-6a02-42fa-8a70-d5bb9b7546c9"},"vehicle_type_id":"4","last_reported":1721412642,"current_range_meters":24800,"station_id":"","pricing_plan_id":"cebpf4jnsgd1na2vs0mg"},{"bike_id":"b5f84fb0-09bb-4914-b36d-004ae4988198","system_id":"levelo_inurba_marseille","lat":43.33769,"lon":5.374615,"is_reserved":false,"is_disabled":false,"rental_uris":{"android":"levelo://app?vid=b5f84fb0-09bb-4914-b36d-004ae4988198","ios":"levelo://app?vid=b5f84fb0-09bb-4914-b36d-004ae4988198"},"vehicle_type_id":"4","last_reported":1721412642,"current_range_meters":0,"station_id":"","pricing_plan_id":"cebpf4jnsgd1na2vs0mg"},{"bike_id":"9b8810ba-d0a7-4706-89d1-850a613a88bf","system_id":"levelo_inurba_marseille","lat":43.28686,"lon":5.36368,"is_reserved":false,"is_disabled":false,"rental_uris":{"android":"levelo://app?vid=9b8810ba-d0a7-4706-89d1-850a613a88bf","ios":"levelo://app?vid=9b8810ba-d0a7-4706-89d1-850a613a88bf"},"vehicle_type_id":"4","last_reported":1721412642,"current_range_meters":7200,"station_id":"ce4bhah2rcd13ifvqej0","pricing_plan_id":"cebpf4jnsgd1na2vs0mg"},{"bike_id":"0e3e7542-db46-4d04-b107-fe71ff1988dc","system_id":"levelo_inurba_marseille","lat":43.28671,"lon":5.36345,"is_reserved":false,"is_disabled":false,"rental_uris":{"android":"levelo://app?vid=0e3e7542-db46-4d04-b107-fe71ff1988dc","ios":"levelo://app?vid=0e3e7542-db46-4d04-b107-fe71ff1988dc"},"vehicle_type_id":"4","last_reported":1721412642,"current_range_meters":0,"station_id":"ce4bhah2rcd13ifvqej0","pricing_plan_id":"cebpf4jnsgd1na2vs0mg"},{"bike_id":"eacd814a-413e-46e9-b4a4-ee796e4b2b3f","system_id":"levelo_inurba_marseille","lat":43.28669,"lon":5.363641,"is_reserved":false,"is_disabled":false,"rental_uris":{"android":"levelo://app?vid=eacd814a-413e-46e9-b4a4-ee796e4b2b3f","ios":"levelo://app?vid=eacd814a-413e-46e9-b4a4-ee796e4b2b3f"},"vehicle_type_id":"4","last_reported":1721412642,"current_range_meters":0,"station_id":"ce4bhah2rcd13ifvqej0","pricing_plan_id":"cebpf4jnsgd1na2vs0mg"},{"bike_id":"931f919c-db8f-443a-8428-ed461ef391c8","system_id":"levelo_inurba_marseille","lat":43.286677,"lon":5.363558,"is_reserved":false,"is_disabled":false,"rental_uris":{"android":"levelo://app?vid=931f919c-db8f-443a-8428-ed461ef391c8","ios":"levelo://app?vid=931f919c-db8f-443a-8428-ed461ef391c8"},"vehicle_type_id":"4","last_reported":1721412642,"current_range_meters":0,"station_id":"ce4bhah2rcd13ifvqej0","pricing_plan_id":"cebpf4jnsgd1na2vs0mg"},{"bike_id":"e298bad5-b4d9-4523-9ca4-d97e6ec08fae","system_id":"levelo_inurba_marseille","lat":43.286039,"lon":5.370681,"is_reserved":false,"is_disabled":false,"rental_uris":{"android":"levelo://app?vid=e298bad5-b4d9-4523-9ca4-d97e6ec08fae","ios":"levelo://app?vid=e298bad5-b4d9-4523-9ca4-d97e6ec08fae"},"vehicle_type_id":"4","last_reported":1721412642,"current_range_meters":18400,"station_id":"ce4bht12rcd13ifvqi60","pricing_plan_id":"cebpf4jnsgd1na2vs0mg"},{"bike_id":"09f51ef1-a50a-49d3-a2f9-60cea9e56eba","system_id":"levelo_inurba_marseille","lat":43.286039,"lon":5.370681,"is_reserved":false,"is_disabled":false,"rental_uris":{"android":"levelo://app?vid=09f51ef1-a50a-49d3-a2f9-60cea9e56eba","ios":"levelo://app?vid=09f51ef1-a50a-49d3-a2f9-60cea9e56eba"},"vehicle_type_id":"4","last_reported":1721412642,"current_range_meters":4400,"station_id":"ce4bht12rcd13ifvqi60","pricing_plan_id":"cebpf4jnsgd1na2vs0mg"},{"bike_id":"51df2eaa-2827-416e-86f7-b259157307e7","system_id":"levelo_inurba_marseille","lat":43.28607,"lon":5.37062,"is_reserved":false,"is_disabled":false,"rental_uris":{"android":"levelo://app?vid=51df2eaa-2827-416e-86f7-b259157307e7","ios":"levelo://app?vid=51df2eaa-2827-416e-86f7-b259157307e7"},"vehicle_type_id":"4","last_reported":1721412642,"current_range_meters":0,"station_id":"ce4bht12rcd13ifvqi60","pricing_plan_id":"cebpf4jnsgd1na2vs0mg"},{"bike_id":"b039964b-25c4-42fc-b651-029c0defd541","system_id":"levelo_inurba_marseille","lat":43.286039,"lon":5.370681,"is_reserved":false,"is_disabled":false,"rental_uris":{"android":"levelo://app?vid=b039964b-25c4-42fc-b651-029c0defd541","ios":"levelo://app?vid=b039964b-25c4-42fc-b651-029c0defd541"},"vehicle_type_id":"4","last_reported":1721412642,"current_range_meters":16400,"station_id":"ce4bht12rcd13ifvqi60","pricing_plan_id":"cebpf4jnsgd1na2vs0mg"},{"bike_id":"8a0b8a93-847c-4151-9960-7c09132999c6","system_id":"levelo_inurba_marseille","lat":43.28717,"lon":5.37937,"is_reserved":false,"is_disabled":false,"rental_uris":{"android":"levelo://app?vid=8a0b8a93-847c-4151-9960-7c09132999c6","ios":"levelo://app?vid=8a0b8a93-847c-4151-9960-7c09132999c6"},"vehicle_type_id":"4","last_reported":1721412642,"current_range_meters":0,"station_id":"ce4bh9p2rcd13ifvqec0","pricing_plan_id":"cebpf4jnsgd1na2vs0mg"},{"bike_id":"8af1e874-ad0d-4fcc-92c4-97a334d05bd7","system_id":"levelo_inurba_marseille","lat":43.287184,"lon":5.37937,"is_reserved":false,"is_disabled":false,"rental_uris":{"android":"levelo://app?vid=8af1e874-ad0d-4fcc-92c4-97a334d05bd7","ios":"levelo://app?vid=8af1e874-ad0d-4fcc-92c4-97a334d05bd7"},"vehicle_type_id":"4","last_reported":1721412642,"current_range_meters":14000,"station_id":"ce4bh9p2rcd13ifvqec0","pricing_plan_id":"cebpf4jnsgd1na2vs0mg"},{"bike_id":"fc6ff420-5e3e-4f3a-ab6f-8924d2f62373","system_id":"levelo_inurba_marseille","lat":43.28699,"lon":5.37929,"is_reserved":false,"is_disabled":false,"rental_uris":{"android":"levelo://app?vid=fc6ff420-5e3e-4f3a-ab6f-8924d2f62373","ios":"levelo://app?vid=fc6ff420-5e3e-4f3a-ab6f-8924d2f62373"},"vehicle_type_id":"4","last_reported":1721412642,"current_range_meters":5200,"station_id":"ce4bh9p2rcd13ifvqec0","pricing_plan_id":"cebpf4jnsgd1na2vs0mg"},{"bike_id":"678c35a7-4335-4d38-b1ea-fd61cb0fb898","system_id":"levelo_inurba_marseille","lat":43.29194,"lon":5.3931,"is_reserved":false,"is_disabled":false,"rental_uris":{"android":"levelo://app?vid=678c35a7-4335-4d38-b1ea-fd61cb0fb898","ios":"levelo://app?vid=678c35a7-4335-4d38-b1ea-fd61cb0fb898"},"vehicle_type_id":"4","last_reported":1721412642,"current_range_meters":0,"station_id":"ce4bh192rcd13ifvqdd0","pricing_plan_id":"cebpf4jnsgd1na2vs0mg"},{"bike_id":"8756910a-3424-489d-bb60-f5033d9be361","system_id":"levelo_inurba_marseille","lat":43.291994,"lon":5.392907,"is_reserved":false,"is_disabled":false,"rental_uris":{"android":"levelo://app?vid=8756910a-3424-489d-bb60-f5033d9be361","ios":"levelo://app?vid=8756910a-3424-489d-bb60-f5033d9be361"},"vehicle_type_id":"4","last_reported":1721412642,"current_range_meters":0,"station_id":"ce4bh192rcd13ifvqdd0","pricing_plan_id":"cebpf4jnsgd1na2vs0mg"},{"bike_id":"835604f5-1567-4c5b-bfd4-d2e466ed19be","system_id":"levelo_inurba_marseille","lat":43.28466,"lon":5.35885,"is_reserved":false,"is_disabled":false,"rental_uris":{"android":"levelo://app?vid=835604f5-1567-4c5b-bfd4-d2e466ed19be","ios":"levelo://app?vid=835604f5-1567-4c5b-bfd4-d2e466ed19be"},"vehicle_type_id":"4","last_reported":1721412642,"current_range_meters":28000,"station_id":"ce4bhah2rcd13ifvqei0","pricing_plan_id":"cebpf4jnsgd1na2vs0mg"},{"bike_id":"e8ff21e0-9b4c-4aa8-9274-eb281d515a81","system_id":"levelo_inurba_marseille","lat":43.28459,"lon":5.35891,"is_reserved":false,"is_disabled":false,"rental_uris":{"android":"levelo://app?vid=e8ff21e0-9b4c-4aa8-9274-eb281d515a81","ios":"levelo://app?vid=e8ff21e0-9b4c-4aa8-9274-eb281d515a81"},"vehicle_type_id":"4","last_reported":1721412642,"current_range_meters":31200,"station_id":"ce4bhah2rcd13ifvqei0","pricing_plan_id":"cebpf4jnsgd1na2vs0mg"},{"bike_id":"e07a09cd-8c54-4f02-bc4c-51b4349f94a2","system_id":"levelo_inurba_marseille","lat":43.284534,"lon":5.358662,"is_reserved":false,"is_disabled":false,"rental_uris":{"android":"levelo://app?vid=e07a09cd-8c54-4f02-bc4c-51b4349f94a2","ios":"levelo://app?vid=e07a09cd-8c54-4f02-bc4c-51b4349f94a2"},"vehicle_type_id":"4","last_reported":1721412642,"current_range_meters":8000,"station_id":"ce4bhah2rcd13ifvqei0","pricing_plan_id":"cebpf4jnsgd1na2vs0mg"},{"bike_id":"95b898a5-15af-4675-93c3-ae5c56cf6be4","system_id":"levelo_inurba_marseille","lat":43.284538,"lon":5.358657,"is_reserved":false,"is_disabled":false,"rental_uris":{"android":"levelo://app?vid=95b898a5-15af-4675-93c3-ae5c56cf6be4","ios":"levelo://app?vid=95b898a5-15af-4675-93c3-ae5c56cf6be4"},"vehicle_type_id":"4","last_reported":1721412642,"current_range_meters":14400,"station_id":"ce4bhah2rcd13ifvqei0","pricing_plan_id":"cebpf4jnsgd1na2vs0mg"},{"bike_id":"bdd59622-a905-44f2-a9a3-ebcf4ecf9050","system_id":"levelo_inurba_marseille","lat":43.284534,"lon":5.358662,"is_reserved":false,"is_disabled":false,"rental_uris":{"android":"levelo://app?vid=bdd59622-a905-44f2-a9a3-ebcf4ecf9050","ios":"levelo://app?vid=bdd59622-a905-44f2-a9a3-ebcf4ecf9050"},"vehicle_type_id":"4","last_reported":1721412642,"current_range_meters":0,"station_id":"ce4bhah2rcd13ifvqei0","pricing_plan_id":"cebpf4jnsgd1na2vs0mg"},{"bike_id":"9471963f-2beb-4507-a847-72f0a618f25c","system_id":"levelo_inurba_marseille","lat":43.28619,"lon":5.35113,"is_reserved":false,"is_disabled":false,"rental_uris":{"android":"levelo://app?vid=9471963f-2beb-4507-a847-72f0a618f25c","ios":"levelo://app?vid=9471963f-2beb-4507-a847-72f0a618f25c"},"vehicle_type_id":"4","last_reported":1721412642,"current_range_meters":30000,"station_id":"ce4bhch2rcd13ifvqeug","pricing_plan_id":"cebpf4jnsgd1na2vs0mg"},{"bike_id":"20254d2e-e622-43a9-ba54-7c3fdb3f2875","system_id":"levelo_inurba_marseille","lat":43.2862,"lon":5.35108,"is_reserved":false,"is_disabled":false,"rental_uris":{"android":"levelo://app?vid=20254d2e-e622-43a9-ba54-7c3fdb3f2875","ios":"levelo://app?vid=20254d2e-e622-43a9-ba54-7c3fdb3f2875"},"vehicle_type_id":"4","last_reported":1721412642,"current_range_meters":14400,"station_id":"ce4bhch2rcd13ifvqeug","pricing_plan_id":"cebpf4jnsgd1na2vs0mg"},{"bike_id":"df1d454e-59f8-4e0c-ba71-1e815e4969bb","system_id":"levelo_inurba_marseille","lat":43.285848,"lon":5.350787,"is_reserved":false,"is_disabled":false,"rental_uris":{"android":"levelo://app?vid=df1d454e-59f8-4e0c-ba71-1e815e4969bb","ios":"levelo://app?vid=df1d454e-59f8-4e0c-ba71-1e815e4969bb"},"vehicle_type_id":"4","last_reported":1721412642,"current_range_meters":0,"station_id":"ce4bhch2rcd13ifvqeug","pricing_plan_id":"cebpf4jnsgd1na2vs0mg"},{"bike_id":"bb16a811-dbce-4ed4-8efc-388a840a8f72","system_id":"levelo_inurba_marseille","lat":43.28619,"lon":5.35105,"is_reserved":false,"is_disabled":false,"rental_uris":{"android":"levelo://app?vid=bb16a811-dbce-4ed4-8efc-388a840a8f72","ios":"levelo://app?vid=bb16a811-dbce-4ed4-8efc-388a840a8f72"},"vehicle_type_id":"4","last_reported":1721412642,"current_range_meters":29200,"station_id":"ce4bhch2rcd13ifvqeug","pricing_plan_id":"cebpf4jnsgd1na2vs0mg"},{"bike_id":"9ab2c131-758a-4b43-89dd-016b9c016f60","system_id":"levelo_inurba_marseille","lat":43.285848,"lon":5.350787,"is_reserved":false,"is_disabled":false,"rental_uris":{"android":"levelo://app?vid=9ab2c131-758a-4b43-89dd-016b9c016f60","ios":"levelo://app?vid=9ab2c131-758a-4b43-89dd-016b9c016f60"},"vehicle_type_id":"4","last_reported":1721412642,"current_range_meters":31200,"station_id":"ce4bhch2rcd13ifvqeug","pricing_plan_id":"cebpf4jnsgd1na2vs0mg"},{"bike_id":"42609ca6-3ac0-432e-98b8-e19d4f0613a4","system_id":"levelo_inurba_marseille","lat":43.285848,"lon":5.350787,"is_reserved":false,"is_disabled":false,"rental_uris":{"android":"levelo://app?vid=42609ca6-3ac0-432e-98b8-e19d4f0613a4","ios":"levelo://app?vid=42609ca6-3ac0-432e-98b8-e19d4f0613a4"},"vehicle_type_id":"4","last_reported":1721412642,"current_range_meters":13200,"station_id":"ce4bhch2rcd13ifvqeug","pricing_plan_id":"cebpf4jnsgd1na2vs0mg"},{"bike_id":"e61f47a7-1b92-4f6c-8e19-333af80c2fb7","system_id":"levelo_inurba_marseille","lat":43.28617,"lon":5.35109,"is_reserved":false,"is_disabled":false,"rental_uris":{"android":"levelo://app?vid=e61f47a7-1b92-4f6c-8e19-333af80c2fb7","ios":"levelo://app?vid=e61f47a7-1b92-4f6c-8e19-333af80c2fb7"},"vehicle_type_id":"4","last_reported":1721412642,"current_range_meters":21200,"station_id":"ce4bhch2rcd13ifvqeug","pricing_plan_id":"cebpf4jnsgd1na2vs0mg"},{"bike_id":"54bf394c-34a7-4bd5-98c7-3b0c298b73b2","system_id":"levelo_inurba_marseille","lat":43.29427,"lon":5.39759,"is_reserved":false,"is_disabled":false,"rental_uris":{"android":"levelo://app?vid=54bf394c-34a7-4bd5-98c7-3b0c298b73b2","ios":"levelo://app?vid=54bf394c-34a7-4bd5-98c7-3b0c298b73b2"},"vehicle_type_id":"4","last_reported":1721412642,"current_range_meters":0,"station_id":"ce4bh3h2rcd13ifvqdo0","pricing_plan_id":"cebpf4jnsgd1na2vs0mg"},{"bike_id":"f9e4a096-57b7-4c67-9034-01c75cf16ffa","system_id":"levelo_inurba_marseille","lat":43.286157,"lon":5.35109,"is_reserved":false,"is_disabled":false,"rental_uris":{"android":"levelo://app?vid=f9e4a096-57b7-4c67-9034-01c75cf16ffa","ios":"levelo://app?vid=f9e4a096-57b7-4c67-9034-01c75cf16ffa"},"vehicle_type_id":"4","last_reported":1721412642,"current_range_meters":0,"station_id":"ce4bhch2rcd13ifvqeug","pricing_plan_id":"cebpf4jnsgd1na2vs0mg"},{"bike_id":"13d89773-ece6-4bf9-87c4-731dcc463a7c","system_id":"levelo_inurba_marseille","lat":43.28615,"lon":5.35111,"is_reserved":false,"is_disabled":false,"rental_uris":{"android":"levelo://app?vid=13d89773-ece6-4bf9-87c4-731dcc463a7c","ios":"levelo://app?vid=13d89773-ece6-4bf9-87c4-731dcc463a7c"},"vehicle_type_id":"4","last_reported":1721412642,"current_range_meters":0,"station_id":"ce4bhch2rcd13ifvqeug","pricing_plan_id":"cebpf4jnsgd1na2vs0mg"},{"bike_id":"3c83e445-9339-473f-8465-065d679d2502","system_id":"levelo_inurba_marseille","lat":43.285856,"lon":5.350771,"is_reserved":false,"is_disabled":false,"rental_uris":{"android":"levelo://app?vid=3c83e445-9339-473f-8465-065d679d2502","ios":"levelo://app?vid=3c83e445-9339-473f-8465-065d679d2502"},"vehicle_type_id":"4","last_reported":1721412642,"current_range_meters":0,"station_id":"ce4bhch2rcd13ifvqeug","pricing_plan_id":"cebpf4jnsgd1na2vs0mg"},{"bike_id":"1672b467-a46f-47db-90cb-fda183f3d8d0","system_id":"levelo_inurba_marseille","lat":43.28616,"lon":5.35104,"is_reserved":false,"is_disabled":false,"rental_uris":{"android":"levelo://app?vid=1672b467-a46f-47db-90cb-fda183f3d8d0","ios":"levelo://app?vid=1672b467-a46f-47db-90cb-fda183f3d8d0"},"vehicle_type_id":"4","last_reported":1721412642,"current_range_meters":31200,"station_id":"ce4bhch2rcd13ifvqeug","pricing_plan_id":"cebpf4jnsgd1na2vs0mg"},{"bike_id":"d7eeb3df-27f4-4105-818d-83beaaa7a2be","system_id":"levelo_inurba_marseille","lat":43.28616,"lon":5.35103,"is_reserved":false,"is_disabled":false,"rental_uris":{"android":"levelo://app?vid=d7eeb3df-27f4-4105-818d-83beaaa7a2be","ios":"levelo://app?vid=d7eeb3df-27f4-4105-818d-83beaaa7a2be"},"vehicle_type_id":"4","last_reported":1721412642,"current_range_meters":14400,"station_id":"ce4bhch2rcd13ifvqeug","pricing_plan_id":"cebpf4jnsgd1na2vs0mg"},{"bike_id":"624ac2a3-f6da-4cac-b267-a281fc53663d","system_id":"levelo_inurba_marseille","lat":43.285848,"lon":5.350787,"is_reserved":false,"is_disabled":false,"rental_uris":{"android":"levelo://app?vid=624ac2a3-f6da-4cac-b267-a281fc53663d","ios":"levelo://app?vid=624ac2a3-f6da-4cac-b267-a281fc53663d"},"vehicle_type_id":"4","last_reported":1721412642,"current_range_meters":7200,"station_id":"ce4bhch2rcd13ifvqeug","pricing_plan_id":"cebpf4jnsgd1na2vs0mg"},{"bike_id":"f2341a28-c9c6-4d1d-9b04-cdeccf41549d","system_id":"levelo_inurba_marseille","lat":43.28615,"lon":5.35104,"is_reserved":false,"is_disabled":false,"rental_uris":{"android":"levelo://app?vid=f2341a28-c9c6-4d1d-9b04-cdeccf41549d","ios":"levelo://app?vid=f2341a28-c9c6-4d1d-9b04-cdeccf41549d"},"vehicle_type_id":"4","last_reported":1721412642,"current_range_meters":7200,"station_id":"ce4bhch2rcd13ifvqeug","pricing_plan_id":"cebpf4jnsgd1na2vs0mg"},{"bike_id":"fcd1d44a-6fee-41fa-a06e-e203771b06cb","system_id":"levelo_inurba_marseille","lat":43.28615,"lon":5.35103,"is_reserved":false,"is_disabled":false,"rental_uris":{"android":"levelo://app?vid=fcd1d44a-6fee-41fa-a06e-e203771b06cb","ios":"levelo://app?vid=fcd1d44a-6fee-41fa-a06e-e203771b06cb"},"vehicle_type_id":"4","last_reported":1721412642,"current_range_meters":16000,"station_id":"ce4bhch2rcd13ifvqeug","pricing_plan_id":"cebpf4jnsgd1na2vs0mg"},{"bike_id":"045e79ab-f363-436b-aa1c-03e4ad56e693","system_id":"levelo_inurba_marseille","lat":43.286148,"lon":5.351032,"is_reserved":false,"is_disabled":false,"rental_uris":{"android":"levelo://app?vid=045e79ab-f363-436b-aa1c-03e4ad56e693","ios":"levelo://app?vid=045e79ab-f363-436b-aa1c-03e4ad56e693"},"vehicle_type_id":"4","last_reported":1721412642,"current_range_meters":21600,"station_id":"ce4bhch2rcd13ifvqeug","pricing_plan_id":"cebpf4jnsgd1na2vs0mg"},{"bike_id":"3f1bf83f-01a8-47aa-8bad-855bed86a15f","system_id":"levelo_inurba_marseille","lat":43.285848,"lon":5.350787,"is_reserved":false,"is_disabled":false,"rental_uris":{"android":"levelo://app?vid=3f1bf83f-01a8-47aa-8bad-855bed86a15f","ios":"levelo://app?vid=3f1bf83f-01a8-47aa-8bad-855bed86a15f"},"vehicle_type_id":"4","last_reported":1721412642,"current_range_meters":0,"station_id":"ce4bhch2rcd13ifvqeug","pricing_plan_id":"cebpf4jnsgd1na2vs0mg"},{"bike_id":"a9cac9d5-971e-4337-9c34-2508a74c87ac","system_id":"levelo_inurba_marseille","lat":43.28615,"lon":5.35101,"is_reserved":false,"is_disabled":false,"rental_uris":{"android":"levelo://app?vid=a9cac9d5-971e-4337-9c34-2508a74c87ac","ios":"levelo://app?vid=a9cac9d5-971e-4337-9c34-2508a74c87ac"},"vehicle_type_id":"4","last_reported":1721412642,"current_range_meters":19200,"station_id":"ce4bhch2rcd13ifvqeug","pricing_plan_id":"cebpf4jnsgd1na2vs0mg"},{"bike_id":"cc1f3db7-4c7d-4ac5-9d28-b171f46a2186","system_id":"levelo_inurba_marseille","lat":43.286126,"lon":5.351045,"is_reserved":false,"is_disabled":false,"rental_uris":{"android":"levelo://app?vid=cc1f3db7-4c7d-4ac5-9d28-b171f46a2186","ios":"levelo://app?vid=cc1f3db7-4c7d-4ac5-9d28-b171f46a2186"},"vehicle_type_id":"4","last_reported":1721412642,"current_range_meters":18000,"station_id":"ce4bhch2rcd13ifvqeug","pricing_plan_id":"cebpf4jnsgd1na2vs0mg"},{"bike_id":"68492d5d-cc30-47b9-8229-3b8e5a1bd167","system_id":"levelo_inurba_marseille","lat":43.285856,"lon":5.350771,"is_reserved":false,"is_disabled":false,"rental_uris":{"android":"levelo://app?vid=68492d5d-cc30-47b9-8229-3b8e5a1bd167","ios":"levelo://app?vid=68492d5d-cc30-47b9-8229-3b8e5a1bd167"},"vehicle_type_id":"4","last_reported":1721412642,"current_range_meters":28800,"station_id":"ce4bhch2rcd13ifvqeug","pricing_plan_id":"cebpf4jnsgd1na2vs0mg"},{"bike_id":"74ea1c97-9f7a-43e6-8e07-de75689e5691","system_id":"levelo_inurba_marseille","lat":43.285856,"lon":5.350771,"is_reserved":false,"is_disabled":false,"rental_uris":{"android":"levelo://app?vid=74ea1c97-9f7a-43e6-8e07-de75689e5691","ios":"levelo://app?vid=74ea1c97-9f7a-43e6-8e07-de75689e5691"},"vehicle_type_id":"4","last_reported":1721412642,"current_range_meters":31200,"station_id":"ce4bhch2rcd13ifvqeug","pricing_plan_id":"cebpf4jnsgd1na2vs0mg"},{"bike_id":"15517179-9e97-493c-a89f-27fbe2e11730","system_id":"levelo_inurba_marseille","lat":43.28611,"lon":5.35103,"is_reserved":false,"is_disabled":false,"rental_uris":{"android":"levelo://app?vid=15517179-9e97-493c-a89f-27fbe2e11730","ios":"levelo://app?vid=15517179-9e97-493c-a89f-27fbe2e11730"},"vehicle_type_id":"4","last_reported":1721412642,"current_range_meters":29600,"station_id":"ce4bhch2rcd13ifvqeug","pricing_plan_id":"cebpf4jnsgd1na2vs0mg"},{"bike_id":"614d61db-b3b9-45d0-b68b-06197b980325","system_id":"levelo_inurba_marseille","lat":43.283998,"lon":5.375062,"is_reserved":false,"is_disabled":false,"rental_uris":{"android":"levelo://app?vid=614d61db-b3b9-45d0-b68b-06197b980325","ios":"levelo://app?vid=614d61db-b3b9-45d0-b68b-06197b980325"},"vehicle_type_id":"4","last_reported":1721412642,"current_range_meters":0,"station_id":"ce4bh412rcd13ifvqds0","pricing_plan_id":"cebpf4jnsgd1na2vs0mg"},{"bike_id":"55ef4284-940d-4938-bff3-e7261db76dac","system_id":"levelo_inurba_marseille","lat":43.28407,"lon":5.37512,"is_reserved":false,"is_disabled":false,"rental_uris":{"android":"levelo://app?vid=55ef4284-940d-4938-bff3-e7261db76dac","ios":"levelo://app?vid=55ef4284-940d-4938-bff3-e7261db76dac"},"vehicle_type_id":"4","last_reported":1721412642,"current_range_meters":400,"station_id":"ce4bh412rcd13ifvqds0","pricing_plan_id":"cebpf4jnsgd1na2vs0mg"},{"bike_id":"76516f56-f48b-49ba-a985-5d6167aebea1","system_id":"levelo_inurba_marseille","lat":43.28404,"lon":5.37524,"is_reserved":false,"is_disabled":false,"rental_uris":{"android":"levelo://app?vid=76516f56-f48b-49ba-a985-5d6167aebea1","ios":"levelo://app?vid=76516f56-f48b-49ba-a985-5d6167aebea1"},"vehicle_type_id":"4","last_reported":1721412642,"current_range_meters":0,"station_id":"ce4bh412rcd13ifvqds0","pricing_plan_id":"cebpf4jnsgd1na2vs0mg"},{"bike_id":"4ae2b163-9219-450b-b361-dc3fb0eb8cd0","system_id":"levelo_inurba_marseille","lat":43.28396,"lon":5.37505,"is_reserved":false,"is_disabled":false,"rental_uris":{"android":"levelo://app?vid=4ae2b163-9219-450b-b361-dc3fb0eb8cd0","ios":"levelo://app?vid=4ae2b163-9219-450b-b361-dc3fb0eb8cd0"},"vehicle_type_id":"4","last_reported":1721412642,"current_range_meters":7200,"station_id":"ce4bh412rcd13ifvqds0","pricing_plan_id":"cebpf4jnsgd1na2vs0mg"},{"bike_id":"bf2896eb-aa36-4837-ba7e-1eb786b03e00","system_id":"levelo_inurba_marseille","lat":43.298037,"lon":5.381066,"is_reserved":false,"is_disabled":false,"rental_uris":{"android":"levelo://app?vid=bf2896eb-aa36-4837-ba7e-1eb786b03e00","ios":"levelo://app?vid=bf2896eb-aa36-4837-ba7e-1eb786b03e00"},"vehicle_type_id":"4","last_reported":1721412642,"current_range_meters":1600,"station_id":"ce4bgip2rcd13ifvqbb0","pricing_plan_id":"cebpf4jnsgd1na2vs0mg"},{"bike_id":"48bf1040-7feb-4fd8-bcc0-955cf44a9d1d","system_id":"levelo_inurba_marseille","lat":43.286595,"lon":5.386795,"is_reserved":false,"is_disabled":false,"rental_uris":{"android":"levelo://app?vid=48bf1040-7feb-4fd8-bcc0-955cf44a9d1d","ios":"levelo://app?vid=48bf1040-7feb-4fd8-bcc0-955cf44a9d1d"},"vehicle_type_id":"4","last_reported":1721412642,"current_range_meters":800,"station_id":"ce4bh492rcd13ifvqdug","pricing_plan_id":"cebpf4jnsgd1na2vs0mg"},{"bike_id":"c97c4d69-9e84-42f5-b2c6-ced8bf99daef","system_id":"levelo_inurba_marseille","lat":43.28497,"lon":5.351333,"is_reserved":false,"is_disabled":false,"rental_uris":{"android":"levelo://app?vid=c97c4d69-9e84-42f5-b2c6-ced8bf99daef","ios":"levelo://app?vid=c97c4d69-9e84-42f5-b2c6-ced8bf99daef"},"vehicle_type_id":"4","last_reported":1721412642,"current_range_meters":21600,"station_id":"","pricing_plan_id":"cebpf4jnsgd1na2vs0mg"},{"bike_id":"12b8459a-6a87-4648-bb13-5fdd4422523f","system_id":"levelo_inurba_marseille","lat":43.28833,"lon":5.39127,"is_reserved":false,"is_disabled":false,"rental_uris":{"android":"levelo://app?vid=12b8459a-6a87-4648-bb13-5fdd4422523f","ios":"levelo://app?vid=12b8459a-6a87-4648-bb13-5fdd4422523f"},"vehicle_type_id":"4","last_reported":1721412642,"current_range_meters":3200,"station_id":"","pricing_plan_id":"cebpf4jnsgd1na2vs0mg"},{"bike_id":"678b4cd7-8c11-4bb5-9c9d-96eadd96cc71","system_id":"levelo_inurba_marseille","lat":43.323464,"lon":5.406297,"is_reserved":false,"is_disabled":false,"rental_uris":{"android":"levelo://app?vid=678b4cd7-8c11-4bb5-9c9d-96eadd96cc71","ios":"levelo://app?vid=678b4cd7-8c11-4bb5-9c9d-96eadd96cc71"},"vehicle_type_id":"4","last_reported":1721412642,"current_range_meters":11600,"station_id":"ce4bhq92rcd13ifvqhjg","pricing_plan_id":"cebpf4jnsgd1na2vs0mg"},{"bike_id":"d6fc13ce-375a-44ee-b2fa-f15ebebf57af","system_id":"levelo_inurba_marseille","lat":43.33717,"lon":5.391857,"is_reserved":false,"is_disabled":false,"rental_uris":{"android":"levelo://app?vid=d6fc13ce-375a-44ee-b2fa-f15ebebf57af","ios":"levelo://app?vid=d6fc13ce-375a-44ee-b2fa-f15ebebf57af"},"vehicle_type_id":"4","last_reported":1721412642,"current_range_meters":26800,"station_id":"ce4bhr92rcd13ifvqhsg","pricing_plan_id":"cebpf4jnsgd1na2vs0mg"},{"bike_id":"effc3aae-4792-40bd-a480-1d0b281f5105","system_id":"levelo_inurba_marseille","lat":43.32336,"lon":5.40624,"is_reserved":false,"is_disabled":false,"rental_uris":{"android":"levelo://app?vid=effc3aae-4792-40bd-a480-1d0b281f5105","ios":"levelo://app?vid=effc3aae-4792-40bd-a480-1d0b281f5105"},"vehicle_type_id":"4","last_reported":1721412642,"current_range_meters":8800,"station_id":"ce4bhq92rcd13ifvqhjg","pricing_plan_id":"cebpf4jnsgd1na2vs0mg"},{"bike_id":"327bab3f-6a90-4794-8213-738797a4c412","system_id":"levelo_inurba_marseille","lat":43.323464,"lon":5.406297,"is_reserved":false,"is_disabled":false,"rental_uris":{"android":"levelo://app?vid=327bab3f-6a90-4794-8213-738797a4c412","ios":"levelo://app?vid=327bab3f-6a90-4794-8213-738797a4c412"},"vehicle_type_id":"4","last_reported":1721412642,"current_range_meters":30000,"station_id":"ce4bhq92rcd13ifvqhjg","pricing_plan_id":"cebpf4jnsgd1na2vs0mg"},{"bike_id":"d4f7d81f-312c-42f0-81df-f17fb308bcde","system_id":"levelo_inurba_marseille","lat":43.2836,"lon":5.38102,"is_reserved":false,"is_disabled":false,"rental_uris":{"android":"levelo://app?vid=d4f7d81f-312c-42f0-81df-f17fb308bcde","ios":"levelo://app?vid=d4f7d81f-312c-42f0-81df-f17fb308bcde"},"vehicle_type_id":"4","last_reported":1721412642,"current_range_meters":0,"station_id":"ce4bh412rcd13ifvqdr0","pricing_plan_id":"cebpf4jnsgd1na2vs0mg"},{"bike_id":"a1e05ecc-c603-495f-a735-f63cdd5a03dd","system_id":"levelo_inurba_marseille","lat":43.283494,"lon":5.380945,"is_reserved":false,"is_disabled":false,"rental_uris":{"android":"levelo://app?vid=a1e05ecc-c603-495f-a735-f63cdd5a03dd","ios":"levelo://app?vid=a1e05ecc-c603-495f-a735-f63cdd5a03dd"},"vehicle_type_id":"4","last_reported":1721412642,"current_range_meters":0,"station_id":"ce4bh412rcd13ifvqdr0","pricing_plan_id":"cebpf4jnsgd1na2vs0mg"},{"bike_id":"06be2453-7f64-4ee0-bb2a-eac1e782d374","system_id":"levelo_inurba_marseille","lat":43.2835,"lon":5.38109,"is_reserved":false,"is_disabled":false,"rental_uris":{"android":"levelo://app?vid=06be2453-7f64-4ee0-bb2a-eac1e782d374","ios":"levelo://app?vid=06be2453-7f64-4ee0-bb2a-eac1e782d374"},"vehicle_type_id":"4","last_reported":1721412642,"current_range_meters":0,"station_id":"ce4bh412rcd13ifvqdr0","pricing_plan_id":"cebpf4jnsgd1na2vs0mg"},{"bike_id":"3206a138-438c-4569-9709-06c0ed4a152c","system_id":"levelo_inurba_marseille","lat":43.284776,"lon":5.385603,"is_reserved":false,"is_disabled":false,"rental_uris":{"android":"levelo://app?vid=3206a138-438c-4569-9709-06c0ed4a152c","ios":"levelo://app?vid=3206a138-438c-4569-9709-06c0ed4a152c"},"vehicle_type_id":"4","last_reported":1721412642,"current_range_meters":0,"station_id":"ce4bh8p2rcd13ifvqeb0","pricing_plan_id":"cebpf4jnsgd1na2vs0mg"},{"bike_id":"e72edf5f-de15-4665-91aa-1093aaf660c2","system_id":"levelo_inurba_marseille","lat":43.284214,"lon":5.349706,"is_reserved":false,"is_disabled":false,"rental_uris":{"android":"levelo://app?vid=e72edf5f-de15-4665-91aa-1093aaf660c2","ios":"levelo://app?vid=e72edf5f-de15-4665-91aa-1093aaf660c2"},"vehicle_type_id":"4","last_reported":1721412642,"current_range_meters":9200,"station_id":"ce4bhbh2rcd13ifvqepg","pricing_plan_id":"cebpf4jnsgd1na2vs0mg"},{"bike_id":"8eab00ec-f191-4002-bd43-cde297f0632c","system_id":"levelo_inurba_marseille","lat":43.284214,"lon":5.349706,"is_reserved":false,"is_disabled":false,"rental_uris":{"android":"levelo://app?vid=8eab00ec-f191-4002-bd43-cde297f0632c","ios":"levelo://app?vid=8eab00ec-f191-4002-bd43-cde297f0632c"},"vehicle_type_id":"4","last_reported":1721412642,"current_range_meters":29200,"station_id":"ce4bhbh2rcd13ifvqepg","pricing_plan_id":"cebpf4jnsgd1na2vs0mg"},{"bike_id":"c3b9093d-1ac3-4481-af00-e9ca11259eba","system_id":"levelo_inurba_marseille","lat":43.284214,"lon":5.349706,"is_reserved":false,"is_disabled":false,"rental_uris":{"android":"levelo://app?vid=c3b9093d-1ac3-4481-af00-e9ca11259eba","ios":"levelo://app?vid=c3b9093d-1ac3-4481-af00-e9ca11259eba"},"vehicle_type_id":"4","last_reported":1721412642,"current_range_meters":17600,"station_id":"ce4bhbh2rcd13ifvqepg","pricing_plan_id":"cebpf4jnsgd1na2vs0mg"},{"bike_id":"1d20729d-6a77-4926-879d-72de4bd48bbe","system_id":"levelo_inurba_marseille","lat":43.284214,"lon":5.349706,"is_reserved":false,"is_disabled":false,"rental_uris":{"android":"levelo://app?vid=1d20729d-6a77-4926-879d-72de4bd48bbe","ios":"levelo://app?vid=1d20729d-6a77-4926-879d-72de4bd48bbe"},"vehicle_type_id":"4","last_reported":1721412642,"current_range_meters":22800,"station_id":"ce4bhbh2rcd13ifvqepg","pricing_plan_id":"cebpf4jnsgd1na2vs0mg"},{"bike_id":"5c98fc45-4306-40c6-adb8-6129c5537a52","system_id":"levelo_inurba_marseille","lat":43.284214,"lon":5.349706,"is_reserved":false,"is_disabled":false,"rental_uris":{"android":"levelo://app?vid=5c98fc45-4306-40c6-adb8-6129c5537a52","ios":"levelo://app?vid=5c98fc45-4306-40c6-adb8-6129c5537a52"},"vehicle_type_id":"4","last_reported":1721412642,"current_range_meters":8400,"station_id":"ce4bhbh2rcd13ifvqepg","pricing_plan_id":"cebpf4jnsgd1na2vs0mg"},{"bike_id":"e9482bd0-8d33-4e6e-ab1d-58cc81b2bde8","system_id":"levelo_inurba_marseille","lat":43.28425,"lon":5.34974,"is_reserved":false,"is_disabled":false,"rental_uris":{"android":"levelo://app?vid=e9482bd0-8d33-4e6e-ab1d-58cc81b2bde8","ios":"levelo://app?vid=e9482bd0-8d33-4e6e-ab1d-58cc81b2bde8"},"vehicle_type_id":"4","last_reported":1721412642,"current_range_meters":31200,"station_id":"ce4bhbh2rcd13ifvqepg","pricing_plan_id":"cebpf4jnsgd1na2vs0mg"},{"bike_id":"923aee7c-90ef-4756-8b24-f36fcae64f8b","system_id":"levelo_inurba_marseille","lat":43.28419,"lon":5.34991,"is_reserved":false,"is_disabled":false,"rental_uris":{"android":"levelo://app?vid=923aee7c-90ef-4756-8b24-f36fcae64f8b","ios":"levelo://app?vid=923aee7c-90ef-4756-8b24-f36fcae64f8b"},"vehicle_type_id":"4","last_reported":1721412642,"current_range_meters":21600,"station_id":"ce4bhbh2rcd13ifvqepg","pricing_plan_id":"cebpf4jnsgd1na2vs0mg"},