{"last_updated":1735744159,"ttl":60,"version":"2.2","data":{"bikes":[{"bike_id":"5ee06d1f-f474-4883-9d52-622f82f42531","system_id":"levelo_inurba_marseille","lat":43.32546,"lon":5.41425,"is_reserved":false,"is_disabled":false,"rental_uris":{"android":"levelo://app?vid=5ee06d1f-f474-4883-9d52-622f82f42531","ios":"levelo://app?vid=5ee06d1f-f474-4883-9d52-622f82f42531"},"vehicle_type_id":"4","last_reported":1735744160,"current_range_meters":20000,"station_id":"ce4bhq12rcd13ifvqhhg","pricing_plan_id":"cebpf4jnsgd1na2vs0mg"},{"bike_id":"57c949f2-ac1b-4830-a85c-935d8ad70f8d","system_id":"levelo_inurba_marseille","lat":43.26671,"lon":5.38273,"is_reserved":false,"is_disabled":false,"rental_uris":{"android":"levelo://app?vid=57c949f2-ac1b-4830-a85c-935d8ad70f8d","ios":"levelo://app?vid=57c949f2-ac1b-4830-a85c-935d8ad70f8d"},"vehicle_type_id":"4","last_reported":1735744160,"current_range_meters":38800,"station_id":"ce4bhg92rcd13ifvqf90","pricing_plan_id":"cebpf4jnsgd1na2vs0mg"},{"bike_id":"130a76ea-9fd9-4b61-93aa-11485e834f40","system_id":"levelo_inurba_marseille","lat":43.27917,"lon":5.39585,"is_reserved":false,"is_disabled":false,"rental_uris":{"android":"levelo://app?vid=130a76ea-9fd9-4b61-93aa-11485e834f40","ios":"levelo://app?vid=130a76ea-9fd9-4b61-93aa-11485e834f40"},"vehicle_type_id":"4","last_reported":1735744160,"current_range_meters":38000,"station_id":"ce4bhf92rcd13ifvqf40","pricing_plan_id":"cebpf4jnsgd1na2vs0mg"},{"bike_id":"7295ef51-cfcc-499e-9236-e0cf1cb9dfec","system_id":"levelo_inurba_marseille","lat":43.27979,"lon":5.41658,"is_reserved":false,"is_disabled":false,"rental_uris":{"android":"levelo://app?vid=7295ef51-cfcc-499e-9236-e0cf1cb9dfec","ios":"levelo://app?vid=7295ef51-cfcc-499e-9236-e0cf1cb9dfec"},"vehicle_type_id":"4","last_reported":1735744160,"current_range_meters":39200,"station_id":"ce4bho12rcd13ifvqh1g","pricing_plan_id":"cebpf4jnsgd1na2vs0mg"},{"bike_id":"30675ccc-9ef1-40b1-963e-228cee2b4741","system_id":"levelo_inurba_marseille","lat":43.27979,"lon":5.41068,"is_reserved":false,"is_disabled":true,"rental_uris":{"android":"levelo://app?vid=30675ccc-9ef1-40b1-963e-228cee2b4741","ios":"levelo://app?vid=30675ccc-9ef1-40b1-963e-228cee2b4741"},"vehicle_type_id":"4","last_reported":1735744160,"current_range_meters":20000,"station_id":"ce4bhnp2rcd13ifvqh0g","pricing_plan_id":"cebpf4jnsgd1na2vs0mg"},{"bike_id":"f27ba3f6-a09e-4a8c-96ed-7037d13c7179","system_id":"levelo_inurba_marseille","lat":43.29798,"lon":5.40412,"is_reserved":false,"is_disabled":false,"rental_uris":{"android":"levelo://app?vid=f27ba3f6-a09e-4a8c-96ed-7037d13c7179","ios":"levelo://app?vid=f27ba3f6-a09e-4a8c-96ed-7037d13c7179"},"vehicle_type_id":"4","last_reported":1735744160,"current_range_meters":37600,"station_id":"ce4bh112rcd13ifvqd90","pricing_plan_id":"cebpf4jnsgd1na2vs0mg"},{"bike_id":"259412ae-a9bb-43fa-89b0-91ce274ab21d","system_id":"levelo_inurba_marseille","lat":43.25725,"lon":5.41114,"is_reserved":false,"is_disabled":false,"rental_uris":{"android":"levelo://app?vid=259412ae-a9bb-43fa-89b0-91ce274ab21d","ios":"levelo://app?vid=259412ae-a9bb-43fa-89b0-91ce274ab21d"},"vehicle_type_id":"4","last_reported":1735744160,"current_range_meters":38800,"station_id":"ce4bhkp2rcd13ifvqgd0","pricing_plan_id":"cebpf4jnsgd1na2vs0mg"},{"bike_id":"817636db-1b87-4f39-b8ae-56def4443abf","system_id":"levelo_inurba_marseille","lat":43.28436,"lon":5.39188,"is_reserved":false,"is_disabled":false,"rental_uris":{"android":"levelo://app?vid=817636db-1b87-4f39-b8ae-56def4443abf","ios":"levelo://app?vid=817636db-1b87-4f39-b8ae-56def4443abf"},"vehicle_type_id":"4","last_reported":1735744160,"current_range_meters":28800,"station_id":"ce4bhoh2rcd13ifvqh5g","pricing_plan_id":"cebpf4jnsgd1na2vs0mg"},{"bike_id":"d79b271e-0cf7-4d7a-8ce3-2adb5275fea6","system_id":"levelo_inurba_marseille","lat":43.25003,"lon":5.38937,"is_reserved":false,"is_disabled":false,"rental_uris":{"android":"levelo://app?vid=d79b271e-0cf7-4d7a-8ce3-2adb5275fea6","ios":"levelo://app?vid=d79b271e-0cf7-4d7a-8ce3-2adb5275fea6"},"vehicle_type_id":"4","last_reported":1735744160,"current_range_meters":32000,"station_id":"ce4bhgp2rcd13ifvqfd0","pricing_plan_id":"cebpf4jnsgd1na2vs0mg"},{"bike_id":"f0ccbcfb-a291-421d-a580-f766a94173f1","system_id":"levelo_inurba_marseille","lat":43.27073,"lon":5.42284,"is_reserved":false,"is_disabled":false,"rental_uris":{"android":"levelo://app?vid=f0ccbcfb-a291-421d-a580-f766a94173f1","ios":"levelo://app?vid=f0ccbcfb-a291-421d-a580-f766a94173f1"},"vehicle_type_id":"4","last_reported":1735744160,"current_range_meters":27200,"station_id":"ce4bhk92rcd13ifvqgb0","pricing_plan_id":"cebpf4jnsgd1na2vs0mg"},{"bike_id":"9b630411-f5e0-4b0f-83fd-cf812c4e3656","system_id":"levelo_inurba_marseille","lat":43.29292,"lon":5.40135,"is_reserved":false,"is_disabled":false,"rental_uris":{"android":"levelo://app?vid=9b630411-f5e0-4b0f-83fd-cf812c4e3656","ios":"levelo://app?vid=9b630411-f5e0-4b0f-83fd-cf812c4e3656"},"vehicle_type_id":"4","last_reported":1735744160,"current_range_meters":36800,"station_id":"ce4bh312rcd13ifvqdk0","pricing_plan_id":"cebpf4jnsgd1na2vs0mg"},{"bike_id":"8ad09b60-3a79-4fc1-9f8d-63dc687108f3","system_id":"levelo_inurba_marseille","lat":43.33746,"lon":5.37452,"is_reserved":false,"is_disabled":false,"rental_uris":{"android":"levelo://app?vid=8ad09b60-3a79-4fc1-9f8d-63dc687108f3","ios":"levelo://app?vid=8ad09b60-3a79-4fc1-9f8d-63dc687108f3"},"vehicle_type_id":"4","last_reported":1735744160,"current_range_meters":37600,"station_id":"","pricing_plan_id":"cebpf4jnsgd1na2vs0mg"},{"bike_id":"00f109d0-2d77-4d87-a9c7-4ebcd049ec12","system_id":"levelo_inurba_marseille","lat":43.24391,"lon":5.37066,"is_reserved":false,"is_disabled":false,"rental_uris":{"android":"levelo://app?vid=00f109d0-2d77-4d87-a9c7-4ebcd049ec12","ios":"levelo://app?vid=00f109d0-2d77-4d87-a9c7-4ebcd049ec12"},"vehicle_type_id":"4","last_reported":1735744160,"current_range_meters":37600,"station_id":"ce4bhhh2rcd13ifvqfk0","pricing_plan_id":"cebpf4jnsgd1na2vs0mg"},{"bike_id":"e423629e-caf1-4427-8702-b30357fe9b81","system_id":"levelo_inurba_marseille","lat":43.25008,"lon":5.38914,"is_reserved":false,"is_disabled":false,"rental_uris":{"android":"levelo://app?vid=e423629e-caf1-4427-8702-b30357fe9b81","ios":"levelo://app?vid=e423629e-caf1-4427-8702-b30357fe9b81"},"vehicle_type_id":"4","last_reported":1735744160,"current_range_meters":23200,"station_id":"ce4bhgp2rcd13ifvqfd0","pricing_plan_id":"cebpf4jnsgd1na2vs0mg"},{"bike_id":"5430a545-a0f1-45ad-a500-b4193006fdcf","system_id":"levelo_inurba_marseille","lat":43.23206,"lon":5.35568,"is_reserved":false,"is_disabled":false,"rental_uris":{"android":"levelo://app?vid=5430a545-a0f1-45ad-a500-b4193006fdcf","ios":"levelo://app?vid=5430a545-a0f1-45ad-a500-b4193006fdcf"},"vehicle_type_id":"4","last_reported":1735744160,"current_range_meters":25600,"station_id":"ce4bhu92rcd13ifvqi70","pricing_plan_id":"cebpf4jnsgd1na2vs0mg"},{"bike_id":"59918030-299b-4070-bee2-3fb6d8816a9e","system_id":"levelo_inurba_marseille","lat":43.29009,"lon":5.35619,"is_reserved":false,"is_disabled":false,"rental_uris":{"android":"levelo://app?vid=59918030-299b-4070-bee2-3fb6d8816a9e","ios":"levelo://app?vid=59918030-299b-4070-bee2-3fb6d8816a9e"},"vehicle_type_id":"4","last_reported":1735744160,"current_range_meters":38400,"station_id":"ce4bhb92rcd13ifvqen0","pricing_plan_id":"cebpf4jnsgd1na2vs0mg"},{"bike_id":"3f0e342e-8942-4723-8688-cf7d8f9bac23","system_id":"levelo_inurba_marseille","lat":43.2572,"lon":5.41117,"is_reserved":false,"is_disabled":false,"rental_uris":{"android":"levelo://app?vid=3f0e342e-8942-4723-8688-cf7d8f9bac23","ios":"levelo://app?vid=3f0e342e-8942-4723-8688-cf7d8f9bac23"},"vehicle_type_id":"4","last_reported":1735744160,"current_range_meters":28000,"station_id":"ce4bhkp2rcd13ifvqgd0","pricing_plan_id":"cebpf4jnsgd1na2vs0mg"},{"bike_id":"ebb56956-e2e2-4f51-8f7a-80ccc26c078c","system_id":"levelo_inurba_marseille","lat":43.28161,"lon":5.4263,"is_reserved":false,"is_disabled":false,"rental_uris":{"android":"levelo://app?vid=ebb56956-e2e2-4f51-8f7a-80ccc26c078c","ios":"levelo://app?vid=ebb56956-e2e2-4f51-8f7a-80ccc26c078c"},"vehicle_type_id":"4","last_reported":1735744160,"current_range_meters":38000,"station_id":"ce4bhnh2rcd13ifvqgug","pricing_plan_id":"cebpf4jnsgd1na2vs0mg"},{"bike_id":"e288aeca-eb79-46a9-a347-8f4ed85511ee","system_id":"levelo_inurba_marseille","lat":43.29297,"lon":5.37461,"is_reserved":false,"is_disabled":false,"rental_uris":{"android":"levelo://app?vid=e288aeca-eb79-46a9-a347-8f4ed85511ee","ios":"levelo://app?vid=e288aeca-eb79-46a9-a347-8f4ed85511ee"},"vehicle_type_id":"4","last_reported":1735744160,"current_range_meters":37600,"station_id":"ce4bgi12rcd13ifvqb70","pricing_plan_id":"cebpf4jnsgd1na2vs0mg"},{"bike_id":"b831f5b2-b9bc-42c4-b9fa-10a2ebbc7bb5","system_id":"levelo_inurba_marseille","lat":43.29255,"lon":5.38434,"is_reserved":false,"is_disabled":false,"rental_uris":{"android":"levelo://app?vid=b831f5b2-b9bc-42c4-b9fa-10a2ebbc7bb5","ios":"levelo://app?vid=b831f5b2-b9bc-42c4-b9fa-10a2ebbc7bb5"},"vehicle_type_id":"4","last_reported":1735744160,"current_range_meters":12800,"station_id":"ce4bh692rcd13ifvqea0","pricing_plan_id":"cebpf4jnsgd1na2vs0mg"},{"bike_id":"406c72fc-c815-4840-861a-36d7f7f2fd01","system_id":"levelo_inurba_marseille","lat":43.23187,"lon":5.35548,"is_reserved":false,"is_disabled":false,"rental_uris":{"android":"levelo://app?vid=406c72fc-c815-4840-861a-36d7f7f2fd01","ios":"levelo://app?vid=406c72fc-c815-4840-861a-36d7f7f2fd01"},"vehicle_type_id":"4","last_reported":1735744160,"current_range_meters":38400,"station_id":"ce4bhu92rcd13ifvqi70","pricing_plan_id":"cebpf4jnsgd1na2vs0mg"},{"bike_id":"80f19710-fe21-4ff1-b00c-05ae51b83115","system_id":"levelo_inurba_marseille","lat":43.31358,"lon":5.38497,"is_reserved":false,"is_disabled":false,"rental_uris":{"android":"levelo://app?vid=80f19710-fe21-4ff1-b00c-05ae51b83115","ios":"levelo://app?vid=80f19710-fe21-4ff1-b00c-05ae51b83115"},"vehicle_type_id":"4","last_reported":1735744160,"current_range_meters":24000,"station_id":"ce4bgt92rcd13ifvqcf0","pricing_plan_id":"cebpf4jnsgd1na2vs0mg"},{"bike_id":"e583af39-c135-4abf-8f1e-ec8bde09027f","system_id":"levelo_inurba_marseille","lat":43.28105,"lon":5.37833,"is_reserved":false,"is_disabled":false,"rental_uris":{"android":"levelo://app?vid=e583af39-c135-4abf-8f1e-ec8bde09027f","ios":"levelo://app?vid=e583af39-c135-4abf-8f1e-ec8bde09027f"},"vehicle_type_id":"4","last_reported":1735744160,"current_range_meters":16400,"station_id":"ce4bha12rcd13ifvqee0","pricing_plan_id":"cebpf4jnsgd1na2vs0mg"},{"bike_id":"4fce20e8-fc4f-4d2a-b873-03134e696e27","system_id":"levelo_inurba_marseille","lat":43.28425,"lon":5.3753,"is_reserved":false,"is_disabled":false,"rental_uris":{"android":"levelo://app?vid=4fce20e8-fc4f-4d2a-b873-03134e696e27","ios":"levelo://app?vid=4fce20e8-fc4f-4d2a-b873-03134e696e27"},"vehicle_type_id":"4","last_reported":1735744160,"current_range_meters":38800,"station_id":"ce4bh412rcd13ifvqds0","pricing_plan_id":"cebpf4jnsgd1na2vs0mg"},{"bike_id":"a3517146-3a38-485e-9b65-46f28f14e1c6","system_id":"levelo_inurba_marseille","lat":43.26959,"lon":5.38897,"is_reserved":false,"is_disabled":false,"rental_uris":{"android":"levelo://app?vid=a3517146-3a38-485e-9b65-46f28f14e1c6","ios":"levelo://app?vid=a3517146-3a38-485e-9b65-46f28f14e1c6"},"vehicle_type_id":"4","last_reported":1735744160,"current_range_meters":30800,"station_id":"ce4bhhh2rcd13ifvqfl0","pricing_plan_id":"cebpf4jnsgd1na2vs0mg"},{"bike_id":"6d3379aa-0f1b-4ef6-a7dc-b0f6d379d543","system_id":"levelo_inurba_marseille","lat":43.25865,"lon":5.39891,"is_reserved":false,"is_disabled":true,"rental_uris":{"android":"levelo://app?vid=6d3379aa-0f1b-4ef6-a7dc-b0f6d379d543","ios":"levelo://app?vid=6d3379aa-0f1b-4ef6-a7dc-b0f6d379d543"},"vehicle_type_id":"4","last_reported":1735744160,"current_range_meters":2000,"station_id":"ce4bhl92rcd13ifvqghg","pricing_plan_id":"cebpf4jnsgd1na2vs0mg"},{"bike_id":"1bc86929-a7c5-4532-aa73-e694188946da","system_id":"levelo_inurba_marseille","lat":43.28662,"lon":5.36347,"is_reserved":false,"is_disabled":false,"rental_uris":{"android":"levelo://app?vid=1bc86929-a7c5-4532-aa73-e694188946da","ios":"levelo://app?vid=1bc86929-a7c5-4532-aa73-e694188946da"},"vehicle_type_id":"4","last_reported":1735744160,"current_range_meters":38800,"station_id":"ce4bhah2rcd13ifvqej0","pricing_plan_id":"cebpf4jnsgd1na2vs0mg"},{"bike_id":"4ad88d61-f581-4fe7-aabc-3f244506c478","system_id":"levelo_inurba_marseille","lat":43.27074,"lon":5.42266,"is_reserved":false,"is_disabled":false,"rental_uris":{"android":"levelo://app?vid=4ad88d61-f581-4fe7-aabc-3f244506c478","ios":"levelo://app?vid=4ad88d61-f581-4fe7-aabc-3f244506c478"},"vehicle_type_id":"4","last_reported":1735744160,"current_range_meters":39200,"station_id":"ce4bhk92rcd13ifvqgb0","pricing_plan_id":"cebpf4jnsgd1na2vs0mg"},{"bike_id":"33293060-59f7-47db-b9e2-1ca6c4f427ca","system_id":"levelo_inurba_marseille","lat":43.26778,"lon":5.3942,"is_reserved":false,"is_disabled":false,"rental_uris":{"android":"levelo://app?vid=33293060-59f7-47db-b9e2-1ca6c4f427ca","ios":"levelo://app?vid=33293060-59f7-47db-b9e2-1ca6c4f427ca"},"vehicle_type_id":"4","last_reported":1735744160,"current_range_meters":30400,"station_id":"ce4bhh12rcd13ifvqfg0","pricing_plan_id":"cebpf4jnsgd1na2vs0mg"},{"bike_id":"63897349-1a46-416c-accd-1549bc376970","system_id":"levelo_inurba_marseille","lat":43.25819,"lon":5.39443,"is_reserved":false,"is_disabled":false,"rental_uris":{"android":"levelo://app?vid=63897349-1a46-416c-accd-1549bc376970","ios":"levelo://app?vid=63897349-1a46-416c-accd-1549bc376970"},"vehicle_type_id":"4","last_reported":1735744160,"current_range_meters":34800,"station_id":"ce4bhip2rcd13ifvqft0","pricing_plan_id":"cebpf4jnsgd1na2vs0mg"},{"bike_id":"ff49d49a-53c3-499a-b296-89a67f332a8a","system_id":"levelo_inurba_marseille","lat":43.24169,"lon":5.36414,"is_reserved":false,"is_disabled":false,"rental_uris":{"android":"levelo://app?vid=ff49d49a-53c3-499a-b296-89a67f332a8a","ios":"levelo://app?vid=ff49d49a-53c3-499a-b296-89a67f332a8a"},"vehicle_type_id":"4","last_reported":1735744160,"current_range_meters":33200,"station_id":"cpo36qri1sfpv3e86is0","pricing_plan_id":"cebpf4jnsgd1na2vs0mg"},{"bike_id":"9bda046f-4b0f-48f1-b8cf-fc74125c4d91","system_id":"levelo_inurba_marseille","lat":43.31334,"lon":5.39701,"is_reserved":false,"is_disabled":false,"rental_uris":{"android":"levelo://app?vid=9bda046f-4b0f-48f1-b8cf-fc74125c4d91","ios":"levelo://app?vid=9bda046f-4b0f-48f1-b8cf-fc74125c4d91"},"vehicle_type_id":"4","last_reported":1735744160,"current_range_meters":39200,"station_id":"ce4bgvp2rcd13ifvqcu0","pricing_plan_id":"cebpf4jnsgd1na2vs0mg"},{"bike_id":"f3012c18-b420-4d21-98ab-45f90c84fc88","system_id":"levelo_inurba_marseille","lat":43.31482,"lon":5.37307,"is_reserved":false,"is_disabled":false,"rental_uris":{"android":"levelo://app?vid=f3012c18-b420-4d21-98ab-45f90c84fc88","ios":"levelo://app?vid=f3012c18-b420-4d21-98ab-45f90c84fc88"},"vehicle_type_id":"4","last_reported":1735744160,"current_range_meters":28800,"station_id":"ce4bgt12rcd13ifvqcd0","pricing_plan_id":"cebpf4jnsgd1na2vs0mg"},{"bike_id":"1107a0a4-5fff-43ef-982d-bee81e9f6199","system_id":"levelo_inurba_marseille","lat":43.29619,"lon":5.37171,"is_reserved":false,"is_disabled":false,"rental_uris":{"android":"levelo://app?vid=1107a0a4-5fff-43ef-982d-bee81e9f6199","ios":"levelo://app?vid=1107a0a4-5fff-43ef-982d-bee81e9f6199"},"vehicle_type_id":"4","last_reported":1735744160,"current_range_meters":36800,"station_id":"ce4bgnh2rcd13ifvqc0g","pricing_plan_id":"cebpf4jnsgd1na2vs0mg"},{"bike_id":"fe2ed51f-6871-400c-b411-213d0c0c4c0b","system_id":"levelo_inurba_marseille","lat":43.28438,"lon":5.3919,"is_reserved":false,"is_disabled":false,"rental_uris":{"android":"levelo://app?vid=fe2ed51f-6871-400c-b411-213d0c0c4c0b","ios":"levelo://app?vid=fe2ed51f-6871-400c-b411-213d0c0c4c0b"},"vehicle_type_id":"4","last_reported":1735744160,"current_range_meters":38000,"station_id":"ce4bhoh2rcd13ifvqh5g","pricing_plan_id":"cebpf4jnsgd1na2vs0mg"},{"bike_id":"ec687720-4efc-448d-9ce8-fcfe4d3a5f30","system_id":"levelo_inurba_marseille","lat":43.27212,"lon":5.39205,"is_reserved":false,"is_disabled":true,"rental_uris":{"android":"levelo://app?vid=ec687720-4efc-448d-9ce8-fcfe4d3a5f30","ios":"levelo://app?vid=ec687720-4efc-448d-9ce8-fcfe4d3a5f30"},"vehicle_type_id":"4","last_reported":1735744160,"current_range_meters":26800,"station_id":"ce4bhhp2rcd13ifvqfm0","pricing_plan_id":"cebpf4jnsgd1na2vs0mg"},{"bike_id":"027085de-3c06-4c90-8099-b9537f78e863","system_id":"levelo_inurba_marseille","lat":43.23169,"lon":5.43676,"is_reserved":false,"is_disabled":false,"rental_uris":{"android":"levelo://app?vid=027085de-3c06-4c90-8099-b9537f78e863","ios":"levelo://app?vid=027085de-3c06-4c90-8099-b9537f78e863"},"vehicle_type_id":"4","last_reported":1735744160,"current_range_meters":35200,"station_id":"ce4bhmp2rcd13ifvqgog","pricing_plan_id":"cebpf4jnsgd1na2vs0mg"},{"bike_id":"924b8338-4a40-42e8-8ff9-5a56a6ed9db8","system_id":"levelo_inurba_marseille","lat":43.28711,"lon":5.39993,"is_reserved":false,"is_disabled":false,"rental_uris":{"android":"levelo://app?vid=924b8338-4a40-42e8-8ff9-5a56a6ed9db8","ios":"levelo://app?vid=924b8338-4a40-42e8-8ff9-5a56a6ed9db8"},"vehicle_type_id":"4","last_reported":1735744160,"current_range_meters":39200,"station_id":"ce4bho92rcd13ifvqh3g","pricing_plan_id":"cebpf4jnsgd1na2vs0mg"},{"bike_id":"ed4dbc06-5f02-4135-b3d8-03e171e13ed9","system_id":"levelo_inurba_marseille","lat":43.265689,"lon":5.390288,"is_reserved":false,"is_disabled":false,"rental_uris":{"android":"levelo://app?vid=ed4dbc06-5f02-4135-b3d8-03e171e13ed9","ios":"levelo://app?vid=ed4dbc06-5f02-4135-b3d8-03e171e13ed9"},"vehicle_type_id":"4","last_reported":1735744160,"current_range_meters":26800,"station_id":"ce4bhe12rcd13ifvqf30","pricing_plan_id":"cebpf4jnsgd1na2vs0mg"},{"bike_id":"dd43ec1a-328a-4f14-a1c5-2dfbd492ab23","system_id":"levelo_inurba_marseille","lat":43.31342,"lon":5.3971,"is_reserved":false,"is_disabled":false,"rental_uris":{"android":"levelo://app?vid=dd43ec1a-328a-4f14-a1c5-2dfbd492ab23","ios":"levelo://app?vid=dd43ec1a-328a-4f14-a1c5-2dfbd492ab23"},"vehicle_type_id":"4","last_reported":1735744160,"current_range_meters":33600,"station_id":"ce4bgvp2rcd13ifvqcu0","pricing_plan_id":"cebpf4jnsgd1na2vs0mg"},{"bike_id":"e7774da4-c308-4bfa-aba8-31efca07b3a0","system_id":"levelo_inurba_marseille","lat":43.33741,"lon":5.37467,"is_reserved":false,"is_disabled":true,"rental_uris":{"android":"levelo://app?vid=e7774da4-c308-4bfa-aba8-31efca07b3a0","ios":"levelo://app?vid=e7774da4-c308-4bfa-aba8-31efca07b3a0"},"vehicle_type_id":"4","last_reported":1735744160,"current_range_meters":8000,"station_id":"","pricing_plan_id":"cebpf4jnsgd1na2vs0mg"},{"bike_id":"9b5916a1-20b4-45b5-ae28-a04ea7106c34","system_id":"levelo_inurba_marseille","lat":43.2757,"lon":5.38424,"is_reserved":false,"is_disabled":false,"rental_uris":{"android":"levelo://app?vid=9b5916a1-20b4-45b5-ae28-a04ea7106c34","ios":"levelo://app?vid=9b5916a1-20b4-45b5-ae28-a04ea7106c34"},"vehicle_type_id":"4","last_reported":1735744160,"current_range_meters":29600,"station_id":"ce4bhh92rcd13ifvqfi0","pricing_plan_id":"cebpf4jnsgd1na2vs0mg"},{"bike_id":"013d28ed-8f16-4ac1-9b97-518b8622de81","system_id":"levelo_inurba_marseille","lat":43.295693,"lon":5.399647,"is_reserved":false,"is_disabled":false,"rental_uris":{"android":"levelo://app?vid=013d28ed-8f16-4ac1-9b97-518b8622de81","ios":"levelo://app?vid=013d28ed-8f16-4ac1-9b97-518b8622de81"},"vehicle_type_id":"4","last_reported":1735744160,"current_range_meters":38000,"station_id":"ce4bh312rcd13ifvqdj0","pricing_plan_id":"cebpf4jnsgd1na2vs0mg"},{"bike_id":"ad09079b-2a66-443a-a13d-b1f84ab569d5","system_id":"levelo_inurba_marseille","lat":43.25006,"lon":5.38932,"is_reserved":false,"is_disabled":false,"rental_uris":{"android":"levelo://app?vid=ad09079b-2a66-443a-a13d-b1f84ab569d5","ios":"levelo://app?vid=ad09079b-2a66-443a-a13d-b1f84ab569d5"},"vehicle_type_id":"4","last_reported":1735744160,"current_range_meters":37600,"station_id":"ce4bhgp2rcd13ifvqfd0","pricing_plan_id":"cebpf4jnsgd1na2vs0mg"},{"bike_id":"113d9210-9cfa-4552-a449-bc7d9621eb63","system_id":"levelo_inurba_marseille","lat":43.27207,"lon":5.3919,"is_reserved":false,"is_disabled":false,"rental_uris":{"android":"levelo://app?vid=113d9210-9cfa-4552-a449-bc7d9621eb63","ios":"levelo://app?vid=113d9210-9cfa-4552-a449-bc7d9621eb63"},"vehicle_type_id":"4","last_reported":1735744160,"current_range_meters":39200,"station_id":"ce4bhhp2rcd13ifvqfm0","pricing_plan_id":"cebpf4jnsgd1na2vs0mg"},{"bike_id":"1b9666de-703f-4874-9b63-e9d42533848b","system_id":"levelo_inurba_marseille","lat":43.31885,"lon":5.40724,"is_reserved":false,"is_disabled":false,"rental_uris":{"android":"levelo://app?vid=1b9666de-703f-4874-9b63-e9d42533848b","ios":"levelo://app?vid=1b9666de-703f-4874-9b63-e9d42533848b"},"vehicle_type_id":"4","last_reported":1735744160,"current_range_meters":39200,"station_id":"ce4bhq12rcd13ifvqhig","pricing_plan_id":"cebpf4jnsgd1na2vs0mg"},{"bike_id":"55501c38-687d-40ed-a12d-436c5acad543","system_id":"levelo_inurba_marseille","lat":43.30538,"lon":5.36702,"is_reserved":false,"is_disabled":false,"rental_uris":{"android":"levelo://app?vid=55501c38-687d-40ed-a12d-436c5acad543","ios":"levelo://app?vid=55501c38-687d-40ed-a12d-436c5acad543"},"vehicle_type_id":"4","last_reported":1735744160,"current_range_meters":28800,"station_id":"ce4bgrp2rcd13ifvqc9g","pricing_plan_id":"cebpf4jnsgd1na2vs0mg"},{"bike_id":"7c3b29ab-41e6-4e46-be7e-934f6f2e7913","system_id":"levelo_inurba_marseille","lat":43.2928,"lon":5.40126,"is_reserved":false,"is_disabled":false,"rental_uris":{"android":"levelo://app?vid=7c3b29ab-41e6-4e46-be7e-934f6f2e7913","ios":"levelo://app?vid=7c3b29ab-41e6-4e46-be7e-934f6f2e7913"},"vehicle_type_id":"4","last_reported":1735744160,"current_range_meters":26000,"station_id":"ce4bh312rcd13ifvqdk0","pricing_plan_id":"cebpf4jnsgd1na2vs0mg"},{"bike_id":"461a91f7-abbd-4490-b359-539df559ba7b","system_id":"levelo_inurba_marseille","lat":43.26206,"lon":5.37453,"is_reserved":false,"is_disabled":false,"rental_uris":{"android":"levelo://app?vid=461a91f7-abbd-4490-b359-539df559ba7b","ios":"levelo://app?vid=461a91f7-abbd-4490-b359-539df559ba7b"},"vehicle_type_id":"4","last_reported":1735744160,"current_range_meters":34000,"station_id":"ce4bhgp2rcd13ifvqfc0","pricing_plan_id":"cebpf4jnsgd1na2vs0mg"},{"bike_id":"8aee6e51-ec03-4d1e-a7f9-0bc033449db3","system_id":"levelo_inurba_marseille","lat":43.28426,"lon":5.37519,"is_reserved":false,"is_disabled":false,"rental_uris":{"android":"levelo://app?vid=8aee6e51-ec03-4d1e-a7f9-0bc033449db3","ios":"levelo://app?vid=8aee6e51-ec03-4d1e-a7f9-0bc033449db3"},"vehicle_type_id":"4","last_reported":1735744160,"current_range_meters":30800,"station_id":"ce4bh412rcd13ifvqds0","pricing_plan_id":"cebpf4jnsgd1na2vs0mg"},{"bike_id":"25797035-f28c-4cb9-8936-1db4173a6ace","system_id":"levelo_inurba_marseille","lat":43.26028,"lon":5.37561,"is_reserved":false,"is_disabled":false,"rental_uris":{"android":"levelo://app?vid=25797035-f28c-4cb9-8936-1db4173a6ace","ios":"levelo://app?vid=25797035-f28c-4cb9-8936-1db4173a6ace"},"vehicle_type_id":"4","last_reported":1735744160,"current_range_meters":26800,"station_id":"ce4bhgh2rcd13ifvqfa0","pricing_plan_id":"cebpf4jnsgd1na2vs0mg"},{"bike_id":"54f409ab-82fa-46b7-9531-9fdab74bf367","system_id":"levelo_inurba_marseille","lat":43.25513,"lon":5.37621,"is_reserved":false,"is_disabled":false,"rental_uris":{"android":"levelo://app?vid=54f409ab-82fa-46b7-9531-9fdab74bf367","ios":"levelo://app?vid=54f409ab-82fa-46b7-9531-9fdab74bf367"},"vehicle_type_id":"4","last_reported":1735744160,"current_range_meters":16400,"station_id":"ce4bhh12rcd13ifvqff0","pricing_plan_id":"cebpf4jnsgd1na2vs0mg"},{"bike_id":"da3075ee-8070-42f9-8350-58e475a60c82","system_id":"levelo_inurba_marseille","lat":43.27567,"lon":5.38414,"is_reserved":false,"is_disabled":false,"rental_uris":{"android":"levelo://app?vid=da3075ee-8070-42f9-8350-58e475a60c82","ios":"levelo://app?vid=da3075ee-8070-42f9-8350-58e475a60c82"},"vehicle_type_id":"4","last_reported":1735744160,"current_range_meters":38800,"station_id":"ce4bhh92rcd13ifvqfi0","pricing_plan_id":"cebpf4jnsgd1na2vs0mg"},{"bike_id":"934d0b3c-5472-4299-8bd8-20eb49abd0e4","system_id":"levelo_inurba_marseille","lat":43.30585,"lon":5.36688,"is_reserved":false,"is_disabled":false,"rental_uris":{"android":"levelo://app?vid=934d0b3c-5472-4299-8bd8-20eb49abd0e4","ios":"levelo://app?vid=934d0b3c-5472-4299-8bd8-20eb49abd0e4"},"vehicle_type_id":"4","last_reported":1735744160,"current_range_meters":38800,"station_id":"","pricing_plan_id":"cebpf4jnsgd1na2vs0mg"},{"bike_id":"f4e21194-bae0-47dd-9943-53bf3035cc9f","system_id":"levelo_inurba_marseille","lat":43.24644,"lon":5.38915,"is_reserved":false,"is_disabled":false,"rental_uris":{"android":"levelo://app?vid=f4e21194-bae0-47dd-9943-53bf3035cc9f","ios":"levelo://app?vid=f4e21194-bae0-47dd-9943-53bf3035cc9f"},"vehicle_type_id":"4","last_reported":1735744160,"current_range_meters":38800,"station_id":"ce4bhg12rcd13ifvqf60","pricing_plan_id":"cebpf4jnsgd1na2vs0mg"},{"bike_id":"4cda6913-ff28-41c7-97b6-8874719d1c1a","system_id":"levelo_inurba_marseille","lat":43.29637,"lon":5.40601,"is_reserved":false,"is_disabled":false,"rental_uris":{"android":"levelo://app?vid=4cda6913-ff28-41c7-97b6-8874719d1c1a","ios":"levelo://app?vid=4cda6913-ff28-41c7-97b6-8874719d1c1a"},"vehicle_type_id":"4","last_reported":1735744160,"current_range_meters":38800,"station_id":"ce4bh0h2rcd13ifvqd60","pricing_plan_id":"cebpf4jnsgd1na2vs0mg"},{"bike_id":"e5fc90b8-f4d7-48fe-9b1b-e04042412667","system_id":"levelo_inurba_marseille","lat":43.32012,"lon":5.38155,"is_reserved":false,"is_disabled":false,"rental_uris":{"android":"levelo://app?vid=e5fc90b8-f4d7-48fe-9b1b-e04042412667","ios":"levelo://app?vid=e5fc90b8-f4d7-48fe-9b1b-e04042412667"},"vehicle_type_id":"4","last_reported":1735744160,"current_range_meters":38800,"station_id":"ce4bhr12rcd13ifvqhpg","pricing_plan_id":"cebpf4jnsgd1na2vs0mg"},{"bike_id":"64ae352e-5adb-4bbd-9c90-4d53a22aebdb","system_id":"levelo_inurba_marseille","lat":43.31689,"lon":5.40432,"is_reserved":false,"is_disabled":false,"rental_uris":{"android":"levelo://app?vid=64ae352e-5adb-4bbd-9c90-4d53a22aebdb","ios":"levelo://app?vid=64ae352e-5adb-4bbd-9c90-4d53a22aebdb"},"vehicle_type_id":"4","last_reported":1735744160,"current_range_meters":30000,"station_id":"ce4bh012rcd13ifvqd00","pricing_plan_id":"cebpf4jnsgd1na2vs0mg"},{"bike_id":"9442beb3-1455-4adc-8931-0b082c806807","system_id":"levelo_inurba_marseille","lat":43.30259,"lon":5.40058,"is_reserved":false,"is_disabled":false,"rental_uris":{"android":"levelo://app?vid=9442beb3-1455-4adc-8931-0b082c806807","ios":"levelo://app?vid=9442beb3-1455-4adc-8931-0b082c806807"},"vehicle_type_id":"4","last_reported":1735744160,"current_range_meters":39200,"station_id":"ce4bgvh2rcd13ifvqcs0","pricing_plan_id":"cebpf4jnsgd1na2vs0mg"},{"bike_id":"99480739-2e04-407c-9f58-5de1887405f7","system_id":"levelo_inurba_marseille","lat":43.29879,"lon":5.39737,"is_reserved":false,"is_disabled":false,"rental_uris":{"android":"levelo://app?vid=99480739-2e04-407c-9f58-5de1887405f7","ios":"levelo://app?vid=99480739-2e04-407c-9f58-5de1887405f7"},"vehicle_type_id":"4","last_reported":1735744160,"current_range_meters":28000,"station_id":"ce4bh0h2rcd13ifvqd50","pricing_plan_id":"cebpf4jnsgd1na2vs0mg"},{"bike_id":"7522831e-662c-4cab-bf01-5970a5e88ee7","system_id":"levelo_inurba_marseille","lat":43.25003,"lon":5.38926,"is_reserved":false,"is_disabled":true,"rental_uris":{"android":"levelo://app?vid=7522831e-662c-4cab-bf01-5970a5e88ee7","ios":"levelo://app?vid=7522831e-662c-4cab-bf01-5970a5e88ee7"},"vehicle_type_id":"4","last_reported":1735744160,"current_range_meters":0,"station_id":"ce4bhgp2rcd13ifvqfd0","pricing_plan_id":"cebpf4jnsgd1na2vs0mg"},{"bike_id":"37fd69aa-45fe-4af6-b217-bec10957aebd","system_id":"levelo_inurba_marseille","lat":43.30803,"lon":5.38132,"is_reserved":false,"is_disabled":true,"rental_uris":{"android":"levelo://app?vid=37fd69aa-45fe-4af6-b217-bec10957aebd","ios":"levelo://app?vid=37fd69aa-45fe-4af6-b217-bec10957aebd"},"vehicle_type_id":"4","last_reported":1735744160,"current_range_meters":38800,"station_id":"ce4bgt12rcd13ifvqce0","pricing_plan_id":"cebpf4jnsgd1na2vs0mg"},{"bike_id":"436e82f4-f2ae-49ca-b349-14409bc9531c","system_id":"levelo_inurba_marseille","lat":43.26689,"lon":5.38273,"is_reserved":false,"is_disabled":false,"rental_uris":{"android":"levelo://app?vid=436e82f4-f2ae-49ca-b349-14409bc9531c","ios":"levelo://app?vid=436e82f4-f2ae-49ca-b349-14409bc9531c"},"vehicle_type_id":"4","last_reported":1735744160,"current_range_meters":28400,"station_id":"ce4bhg92rcd13ifvqf90","pricing_plan_id":"cebpf4jnsgd1na2vs0mg"},{"bike_id":"790eadc3-96c2-41a8-a01b-5553d55b326d","system_id":"levelo_inurba_marseille","lat":43.29677,"lon":5.37308,"is_reserved":false,"is_disabled":false,"rental_uris":{"android":"levelo://app?vid=790eadc3-96c2-41a8-a01b-5553d55b326d","ios":"levelo://app?vid=790eadc3-96c2-41a8-a01b-5553d55b326d"},"vehicle_type_id":"4","last_reported":1735744160,"current_range_meters":36800,"station_id":"ce4bgk12rcd13ifvqbj0","pricing_plan_id":"cebpf4jnsgd1na2vs0mg"},{"bike_id":"e46277ac-aa93-48ba-90fc-9da59791f6e8","system_id":"levelo_inurba_marseille","lat":43.32069,"lon":5.41567,"is_reserved":false,"is_disabled":false,"rental_uris":{"android":"levelo://app?vid=e46277ac-aa93-48ba-90fc-9da59791f6e8","ios":"levelo://app?vid=e46277ac-aa93-48ba-90fc-9da59791f6e8"},"vehicle_type_id":"4","last_reported":1735744160,"current_range_meters":36400,"station_id":"ce4bhq92rcd13ifvqhkg","pricing_plan_id":"cebpf4jnsgd1na2vs0mg"},{"bike_id":"dc494703-2852-4709-87ed-a6bdb559dc99","system_id":"levelo_inurba_marseille","lat":43.3377,"lon":5.37493,"is_reserved":false,"is_disabled":false,"rental_uris":{"android":"levelo://app?vid=dc494703-2852-4709-87ed-a6bdb559dc99","ios":"levelo://app?vid=dc494703-2852-4709-87ed-a6bdb559dc99"},"vehicle_type_id":"4","last_reported":1735744160,"current_range_meters":38800,"station_id":"","pricing_plan_id":"cebpf4jnsgd1na2vs0mg"},{"bike_id":"4e946ccd-6648-4aaa-ac0d-746ef34c5d06","system_id":"levelo_inurba_marseille","lat":43.30889,"lon":5.39625,"is_reserved":false,"is_disabled":false,"rental_uris":{"android":"levelo://app?vid=4e946ccd-6648-4aaa-ac0d-746ef34c5d06","ios":"levelo://app?vid=4e946ccd-6648-4aaa-ac0d-746ef34c5d06"},"vehicle_type_id":"4","last_reported":1735744160,"current_range_meters":38800,"station_id":"ce4bh012rcd13ifvqcv0","pricing_plan_id":"cebpf4jnsgd1na2vs0mg"},{"bike_id":"4ce38f45-b3ef-4ce1-84b1-8cf7c7ee4592","system_id":"levelo_inurba_marseille","lat":43.2794,"lon":5.41044,"is_reserved":false,"is_disabled":false,"rental_uris":{"android":"levelo://app?vid=4ce38f45-b3ef-4ce1-84b1-8cf7c7ee4592","ios":"levelo://app?vid=4ce38f45-b3ef-4ce1-84b1-8cf7c7ee4592"},"vehicle_type_id":"4","last_reported":1735744160,"current_range_meters":37600,"station_id":"ce4bhnp2rcd13ifvqh0g","pricing_plan_id":"cebpf4jnsgd1na2vs0mg"},{"bike_id":"849f7cfd-3f7e-49b1-9d6e-57047fbe1612","system_id":"levelo_inurba_marseille","lat":43.28167,"lon":5.42652,"is_reserved":false,"is_disabled":false,"rental_uris":{"android":"levelo://app?vid=849f7cfd-3f7e-49b1-9d6e-57047fbe1612","ios":"levelo://app?vid=849f7cfd-3f7e-49b1-9d6e-57047fbe1612"},"vehicle_type_id":"4","last_reported":1735744160,"current_range_meters":38800,"station_id":"ce4bhnh2rcd13ifvqgug","pricing_plan_id":"cebpf4jnsgd1na2vs0mg"},{"bike_id":"ac0437a7-ceb0-4c72-a177-d89c8da6cd9c","system_id":"levelo_inurba_marseille","lat":43.31492,"lon":5.37311,"is_reserved":false,"is_disabled":false,"rental_uris":{"android":"levelo://app?vid=ac0437a7-ceb0-4c72-a177-d89c8da6cd9c","ios":"levelo://app?vid=ac0437a7-ceb0-4c72-a177-d89c8da6cd9c"},"vehicle_type_id":"4","last_reported":1735744160,"current_range_meters":38800,"station_id":"ce4bgt12rcd13ifvqcd0","pricing_plan_id":"cebpf4jnsgd1na2vs0mg"},{"bike_id":"5d8c159b-229f-4c11-96ea-7fa25625eb02","system_id":"levelo_inurba_marseille","lat":43.28663,"lon":5.36358,"is_reserved":false,"is_disabled":false,"rental_uris":{"android":"levelo://app?vid=5d8c159b-229f-4c11-96ea-7fa25625eb02","ios":"levelo://app?vid=5d8c159b-229f-4c11-96ea-7fa25625eb02"},"vehicle_type_id":"4","last_reported":1735744160,"current_range_meters":24000,"station_id":"ce4bhah2rcd13ifvqej0","pricing_plan_id":"cebpf4jnsgd1na2vs0mg"},{"bike_id":"39bb0518-926d-4ec9-ab74-6b271879639d","system_id":"levelo_inurba_marseille","lat":43.29636,"lon":5.37156,"is_reserved":false,"is_disabled":false,"rental_uris":{"android":"levelo://app?vid=39bb0518-926d-4ec9-ab74-6b271879639d","ios":"levelo://app?vid=39bb0518-926d-4ec9-ab74-6b271879639d"},"vehicle_type_id":"4","last_reported":1735744160,"current_range_meters":32000,"station_id":"ce4bgnh2rcd13ifvqc0g","pricing_plan_id":"cebpf4jnsgd1na2vs0mg"},{"bike_id":"92740583-253f-4b89-985b-9763cca3f613","system_id":"levelo_inurba_marseille","lat":43.31721,"lon":5.424113,"is_reserved":false,"is_disabled":false,"rental_uris":{"android":"levelo://app?vid=92740583-253f-4b89-985b-9763cca3f613","ios":"levelo://app?vid=92740583-253f-4b89-985b-9763cca3f613"},"vehicle_type_id":"4","last_reported":1735744160,"current_range_meters":38000,"station_id":"ce4bhp92rcd13ifvqhbg","pricing_plan_id":"cebpf4jnsgd1na2vs0mg"},{"bike_id":"89f48e6d-168e-4294-b920-58915abb3a5a","system_id":"levelo_inurba_marseille","lat":43.26672,"lon":5.38272,"is_reserved":false,"is_disabled":false,"rental_uris":{"android":"levelo://app?vid=89f48e6d-168e-4294-b920-58915abb3a5a","ios":"levelo://app?vid=89f48e6d-168e-4294-b920-58915abb3a5a"},"vehicle_type_id":"4","last_reported":1735744160,"current_range_meters":38800,"station_id":"ce4bhg92rcd13ifvqf90","pricing_plan_id":"cebpf4jnsgd1na2vs0mg"},{"bike_id":"73f50d0e-83d9-42f9-bf53-448b4bfac8e5","system_id":"levelo_inurba_marseille","lat":43.32779,"lon":5.40928,"is_reserved":false,"is_disabled":false,"rental_uris":{"android":"levelo://app?vid=73f50d0e-83d9-42f9-bf53-448b4bfac8e5","ios":"levelo://app?vid=73f50d0e-83d9-42f9-bf53-448b4bfac8e5"},"vehicle_type_id":"4","last_reported":1735744160,"current_range_meters":6400,"station_id":"ce4bhpp2rcd13ifvqhgg","pricing_plan_id":"cebpf4jnsgd1na2vs0mg"},{"bike_id":"24fd1ceb-578d-4632-806d-7d0442aa3d86","system_id":"levelo_inurba_marseille","lat":43.33765,"lon":5.3748,"is_reserved":false,"is_disabled":false,"rental_uris":{"android":"levelo://app?vid=24fd1ceb-578d-4632-806d-7d0442aa3d86","ios":"levelo://app?vid=24fd1ceb-578d-4632-806d-7d0442aa3d86"},"vehicle_type_id":"4","last_reported":1735744160,"current_range_meters":38800,"station_id":"","pricing_plan_id":"cebpf4jnsgd1na2vs0mg"},{"bike_id":"1b33b6d0-5a72-4a65-8926-f2cdeae6e3e3","system_id":"levelo_inurba_marseille","lat":43.31352,"lon":5.38508,"is_reserved":false,"is_disabled":true,"rental_uris":{"android":"levelo://app?vid=1b33b6d0-5a72-4a65-8926-f2cdeae6e3e3","ios":"levelo://app?vid=1b33b6d0-5a72-4a65-8926-f2cdeae6e3e3"},"vehicle_type_id":"4","last_reported":1735744160,"current_range_meters":25200,"station_id":"ce4bgt92rcd13ifvqcf0","pricing_plan_id":"cebpf4jnsgd1na2vs0mg"},{"bike_id":"8e43fa85-9764-4a8e-9f3b-20e1a8b81057","system_id":"levelo_inurba_marseille","lat":43.3384,"lon":5.42303,"is_reserved":false,"is_disabled":false,"rental_uris":{"android":"levelo://app?vid=8e43fa85-9764-4a8e-9f3b-20e1a8b81057","ios":"levelo://app?vid=8e43fa85-9764-4a8e-9f3b-20e1a8b81057"},"vehicle_type_id":"4","last_reported":1735744160,"current_range_meters":8400,"station_id":"","pricing_plan_id":"cebpf4jnsgd1na2vs0mg"},{"bike_id":"0c0c5b84-e688-430e-bb9e-cc996baffacd","system_id":"levelo_inurba_marseille","lat":43.28997,"lon":5.3783,"is_reserved":false,"is_disabled":false,"rental_uris":{"android":"levelo://app?vid=0c0c5b84-e688-430e-bb9e-cc996baffacd","ios":"levelo://app?vid=0c0c5b84-e688-430e-bb9e-cc996baffacd"},"vehicle_type_id":"4","last_reported":1735744160,"current_range_meters":38800,"station_id":"ce4bh9p2rcd13ifvqed0","pricing_plan_id":"cebpf4jnsgd1na2vs0mg"},{"bike_id":"544f1707-8cee-4515-8c4e-024e8c5531e8","system_id":"levelo_inurba_marseille","lat":43.32476,"lon":5.36588,"is_reserved":false,"is_disabled":false,"rental_uris":{"android":"levelo://app?vid=544f1707-8cee-4515-8c4e-024e8c5531e8","ios":"levelo://app?vid=544f1707-8cee-4515-8c4e-024e8c5531e8"},"vehicle_type_id":"4","last_reported":1735744160,"current_range_meters":15200,"station_id":"ce4bhs12rcd13ifvqhvg","pricing_plan_id":"cebpf4jnsgd1na2vs0mg"},{"bike_id":"8c8a5e25-3781-47d2-a663-4def69794ea8","system_id":"levelo_inurba_marseille","lat":43.29318,"lon":5.3717,"is_reserved":false,"is_disabled":false,"rental_uris":{"android":"levelo://app?vid=8c8a5e25-3781-47d2-a663-4def69794ea8","ios":"levelo://app?vid=8c8a5e25-3781-47d2-a663-4def69794ea8"},"vehicle_type_id":"4","last_reported":1735744160,"current_range_meters":38800,"station_id":"ce4bgh92rcd13ifvqb40","pricing_plan_id":"cebpf4jnsgd1na2vs0mg"},{"bike_id":"a77cb61b-7bf4-4634-bc34-29d17b6073d0","system_id":"levelo_inurba_marseille","lat":43.24386,"lon":5.37063,"is_reserved":false,"is_disabled":false,"rental_uris":{"android":"levelo://app?vid=a77cb61b-7bf4-4634-bc34-29d17b6073d0","ios":"levelo://app?vid=a77cb61b-7bf4-4634-bc34-29d17b6073d0"},"vehicle_type_id":"4","last_reported":1735744160,"current_range_meters":39200,"station_id":"ce4bhhh2rcd13ifvqfk0","pricing_plan_id":"cebpf4jnsgd1na2vs0mg"},{"bike_id":"e20a41e6-bca4-4010-bd4b-a82ab6f2a5a1","system_id":"levelo_inurba_marseille","lat":43.28699,"lon":5.39946,"is_reserved":false,"is_disabled":false,"rental_uris":{"android":"levelo://app?vid=e20a41e6-bca4-4010-bd4b-a82ab6f2a5a1","ios":"levelo://app?vid=e20a41e6-bca4-4010-bd4b-a82ab6f2a5a1"},"vehicle_type_id":"4","last_reported":1735744160,"current_range_meters":28800,"station_id":"ce4bho92rcd13ifvqh3g","pricing_plan_id":"cebpf4jnsgd1na2vs0mg"},{"bike_id":"cd74a333-9a1d-4930-b287-4902bed467c1","system_id":"levelo_inurba_marseille","lat":43.30852,"lon":5.38119,"is_reserved":false,"is_disabled":false,"rental_uris":{"android":"levelo://app?vid=cd74a333-9a1d-4930-b287-4902bed467c1","ios":"levelo://app?vid=cd74a333-9a1d-4930-b287-4902bed467c1"},"vehicle_type_id":"4","last_reported":1735744160,"current_range_meters":38800,"station_id":"","pricing_plan_id":"cebpf4jnsgd1na2vs0mg"},{"bike_id":"241e8f59-d031-4fb3-b3f6-e0ed16ff9c66","system_id":"levelo_inurba_marseille","lat":43.3228,"lon":5.38286,"is_reserved":false,"is_disabled":false,"rental_uris":{"android":"levelo://app?vid=241e8f59-d031-4fb3-b3f6-e0ed16ff9c66","ios":"levelo://app?vid=241e8f59-d031-4fb3-b3f6-e0ed16ff9c66"},"vehicle_type_id":"4","last_reported":1735744160,"current_range_meters":38000,"station_id":"ce4bhr12rcd13ifvqhqg","pricing_plan_id":"cebpf4jnsgd1na2vs0mg"},{"bike_id":"d996ebe6-a085-4671-8aef-57e91ba860dc","system_id":"levelo_inurba_marseille","lat":43.26813,"lon":5.40247,"is_reserved":false,"is_disabled":false,"rental_uris":{"android":"levelo://app?vid=d996ebe6-a085-4671-8aef-57e91ba860dc","ios":"levelo://app?vid=d996ebe6-a085-4671-8aef-57e91ba860dc"},"vehicle_type_id":"4","last_reported":1735744160,"current_range_meters":28400,"station_id":"ce501612rcd8frsf0b60","pricing_plan_id":"cebpf4jnsgd1na2vs0mg"},{"bike_id":"71c8f6c4-4b62-4d76-a891-350fccb2f3ce","system_id":"levelo_inurba_marseille","lat":43.28426,"lon":5.3498,"is_reserved":false,"is_disabled":false,"rental_uris":{"android":"levelo://app?vid=71c8f6c4-4b62-4d76-a891-350fccb2f3ce","ios":"levelo://app?vid=71c8f6c4-4b62-4d76-a891-350fccb2f3ce"},"vehicle_type_id":"4","last_reported":1735744160,"current_range_meters":16800,"station_id":"ce4bhbh2rcd13ifvqepg","pricing_plan_id":"cebpf4jnsgd1na2vs0mg"},{"bike_id":"28e94d28-a000-4415-859f-478703e074fa","system_id":"levelo_inurba_marseille","lat":43.26776,"lon":5.39421,"is_reserved":false,"is_disabled":false,"rental_uris":{"android":"levelo://app?vid=28e94d28-a000-4415-859f-478703e074fa","ios":"levelo://app?vid=28e94d28-a000-4415-859f-478703e074fa"},"vehicle_type_id":"4","last_reported":1735744160,"current_range_meters":22800,"station_id":"ce4bhh12rcd13ifvqfg0","pricing_plan_id":"cebpf4jnsgd1na2vs0mg"},{"bike_id":"c31abe54-7bcc-4719-aa19-4a657f4e2cbd","system_id":"levelo_inurba_marseille","lat":43.28262,"lon":5.35062,"is_reserved":false,"is_disabled":false,"rental_uris":{"android":"levelo://app?vid=c31abe54-7bcc-4719-aa19-4a657f4e2cbd","ios":"levelo://app?vid=c31abe54-7bcc-4719-aa19-4a657f4e2cbd"},"vehicle_type_id":"4","last_reported":1735744160,"current_range_meters":19600,"station_id":"ce4bhbp2rcd13ifvqerg","pricing_plan_id":"cebpf4jnsgd1na2vs0mg"},{"bike_id":"a68e7437-1053-4c82-9779-09fad744b130","system_id":"levelo_inurba_marseille","lat":43.31249,"lon":5.36904,"is_reserved":false,"is_disabled":false,"rental_uris":{"android":"levelo://app?vid=a68e7437-1053-4c82-9779-09fad744b130","ios":"levelo://app?vid=a68e7437-1053-4c82-9779-09fad744b130"},"vehicle_type_id":"4","last_reported":1735744160,"current_range_meters":33200,"station_id":"ce4bgl92rcd13ifvqbq0","pricing_plan_id":"cebpf4jnsgd1na2vs0mg"},{"bike_id":"875a1f95-fa28-45eb-8a15-cb8df7fccf00","system_id":"levelo_inurba_marseille","lat":43.31525,"lon":5.37276,"is_reserved":false,"is_disabled":false,"rental_uris":{"android":"levelo://app?vid=875a1f95-fa28-45eb-8a15-cb8df7fccf00","ios":"levelo://app?vid=875a1f95-fa28-45eb-8a15-cb8df7fccf00"},"vehicle_type_id":"4","last_reported":1735744160,"current_range_meters":34000,"station_id":"ce4bgt12rcd13ifvqcd0","pricing_plan_id":"cebpf4jnsgd1na2vs0mg"},{"bike_id":"9c4efde7-345e-45d0-ba7e-cf8067372d2a","system_id":"levelo_inurba_marseille","lat":43.29197,"lon":5.35808,"is_reserved":false,"is_disabled":false,"rental_uris":{"android":"levelo://app?vid=9c4efde7-345e-45d0-ba7e-cf8067372d2a","ios":"levelo://app?vid=9c4efde7-345e-45d0-ba7e-cf8067372d2a"},"vehicle_type_id":"4","last_reported":1735744160,"current_range_meters":36000,"station_id":"ce4bhb12rcd13ifvqel0","pricing_plan_id":"cebpf4jnsgd1na2vs0mg"},{"bike_id":"d13b199e-e620-4f52-ae43-9a360f46ed32","system_id":"levelo_inurba_marseille","lat":43.27993,"lon":5.40029,"is_reserved":false,"is_disabled":false,"rental_uris":{"android":"levelo://app?vid=d13b199e-e620-4f52-ae43-9a360f46ed32","ios":"levelo://app?vid=d13b199e-e620-4f52-ae43-9a360f46ed32"},"vehicle_type_id":"4","last_reported":1735744160,"current_range_meters":6000,"station_id":"ce4bho92rcd13ifvqh4g","pricing_plan_id":"cebpf4jnsgd1na2vs0mg"},{"bike_id":"062bd3e7-a1b0-4a7b-be3e-67845610f912","system_id":"levelo_inurba_marseille","lat":43.31272,"lon":5.40168,"is_reserved":false,"is_disabled":false,"rental_uris":{"android":"levelo://app?vid=062bd3e7-a1b0-4a7b-be3e-67845610f912","ios":"levelo://app?vid=062bd3e7-a1b0-4a7b-be3e-67845610f912"},"vehicle_type_id":"4","last_reported":1735744160,"current_range_meters":28800,"station_id":"ce4bh092rcd13ifvqd30","pricing_plan_id":"cebpf4jnsgd1na2vs0mg"},{"bike_id":"56feec16-d893-42e7-91f2-065fe8d68e4d","system_id":"levelo_inurba_marseille","lat":43.2695,"lon":5.38636,"is_reserved":false,"is_disabled":false,"rental_uris":{"android":"levelo://app?vid=56feec16-d893-42e7-91f2-065fe8d68e4d","ios":"levelo://app?vid=56feec16-d893-42e7-91f2-065fe8d68e4d"},"vehicle_type_id":"4","last_reported":1735744160,"current_range_meters":35600,"station_id":"ce4bhh92rcd13ifvqfh0","pricing_plan_id":"cebpf4jnsgd1na2vs0mg"},{"bike_id":"32afc6cc-1544-4f88-ab5c-34496cc35b04","system_id":"levelo_inurba_marseille","lat":43.230634,"lon":5.354949,"is_reserved":false,"is_disabled":false,"rental_uris":{"android":"levelo://app?vid=32afc6cc-1544-4f88-ab5c-34496cc35b04","ios":"levelo://app?vid=32afc6cc-1544-4f88-ab5c-34496cc35b04"},"vehicle_type_id":"4","last_reported":1735744160,"current_range_meters":12000,"station_id":"cpo3342slgdg3j2ifvpg","pricing_plan_id":"cebpf4jnsgd1na2vs0mg"},{"bike_id":"281ebf0e-4b97-4077-8e39-32c113fdfec4","system_id":"levelo_inurba_marseille","lat":43.27936,"lon":5.39595,"is_reserved":false,"is_disabled":false,"rental_uris":{"android":"levelo://app?vid=281ebf0e-4b97-4077-8e39-32c113fdfec4","ios":"levelo://app?vid=281ebf0e-4b97-4077-8e39-32c113fdfec4"},"vehicle_type_id":"4","last_reported":1735744160,"current_range_meters":38800,"station_id":"ce4bhf92rcd13ifvqf40","pricing_plan_id":"cebpf4jnsgd1na2vs0mg"},{"bike_id":"1c6edebb-3a77-4be9-8cfe-c7c622540fa7","system_id":"levelo_inurba_marseille","lat":43.28153,"lon":5.42645,"is_reserved":false,"is_disabled":false,"rental_uris":{"android":"levelo://app?vid=1c6edebb-3a77-4be9-8cfe-c7c622540fa7","ios":"levelo://app?vid=1c6edebb-3a77-4be9-8cfe-c7c622540fa7"},"vehicle_type_id":"4","last_reported":1735744160,"current_range_meters":14400,"station_id":"ce4bhnh2rcd13ifvqgug","pricing_plan_id":"cebpf4jnsgd1na2vs0mg"},{"bike_id":"53aaffb6-60c7-4749-ae6a-d0abf0777836","system_id":"levelo_inurba_marseille","lat":43.31693,"lon":5.40482,"is_reserved":false,"is_disabled":false,"rental_uris":{"android":"levelo://app?vid=53aaffb6-60c7-4749-ae6a-d0abf0777836","ios":"levelo://app?vid=53aaffb6-60c7-4749-ae6a-d0abf0777836"},"vehicle_type_id":"4","last_reported":1735744160,"current_range_meters":24800,"station_id":"ce4bh012rcd13ifvqd00","pricing_plan_id":"cebpf4jnsgd1na2vs0mg"},{"bike_id":"f23b89f2-25ec-4920-871b-13b1f24bc04d","system_id":"levelo_inurba_marseille","lat":43.24997,"lon":5.38934,"is_reserved":false,"is_disabled":false,"rental_uris":{"android":"levelo://app?vid=f23b89f2-25ec-4920-871b-13b1f24bc04d","ios":"levelo://app?vid=f23b89f2-25ec-4920-871b-13b1f24bc04d"},"vehicle_type_id":"4","last_reported":1735744160,"current_range_meters":9600,"station_id":"ce4bhgp2rcd13ifvqfd0","pricing_plan_id":"cebpf4jnsgd1na2vs0mg"},{"bike_id":"dacda328-605b-4f1e-93af-b70e198ea48d","system_id":"levelo_inurba_marseille","lat":43.30354,"lon":5.41882,"is_reserved":false,"is_disabled":false,"rental_uris":{"android":"levelo://app?vid=dacda328-605b-4f1e-93af-b70e198ea48d","ios":"levelo://app?vid=dacda328-605b-4f1e-93af-b70e198ea48d"},"vehicle_type_id":"4","last_reported":1735744160,"current_range_meters":32000,"station_id":"ce4bhop2rcd13ifvqh7g","pricing_plan_id":"cebpf4jnsgd1na2vs0mg"},{"bike_id":"d9039fb6-1526-43a5-ab47-bf6c74051347","system_id":"levelo_inurba_marseille","lat":43.28166,"lon":5.42659,"is_reserved":false,"is_disabled":false,"rental_uris":{"android":"levelo://app?vid=d9039fb6-1526-43a5-ab47-bf6c74051347","ios":"levelo://app?vid=d9039fb6-1526-43a5-ab47-bf6c74051347"},"vehicle_type_id":"4","last_reported":1735744160,"current_range_meters":6800,"station_id":"ce4bhnh2rcd13ifvqgug","pricing_plan_id":"cebpf4jnsgd1na2vs0mg"},{"bike_id":"6622cbd3-9a15-4630-9a0f-3dc42330dada","system_id":"levelo_inurba_marseille","lat":43.3052,"lon":5.37313,"is_reserved":false,"is_disabled":false,"rental_uris":{"android":"levelo://app?vid=6622cbd3-9a15-4630-9a0f-3dc42330dada","ios":"levelo://app?vid=6622cbd3-9a15-4630-9a0f-3dc42330dada"},"vehicle_type_id":"4","last_reported":1735744160,"current_range_meters":38800,"station_id":"ce4bgqh2rcd13ifvqc4g","pricing_plan_id":"cebpf4jnsgd1na2vs0mg"},{"bike_id":"c103b6b6-d447-49c5-8f56-5a0426d6f51a","system_id":"levelo_inurba_marseille","lat":43.30432,"lon":5.39749,"is_reserved":false,"is_disabled":false,"rental_uris":{"android":"levelo://app?vid=c103b6b6-d447-49c5-8f56-5a0426d6f51a","ios":"levelo://app?vid=c103b6b6-d447-49c5-8f56-5a0426d6f51a"},"vehicle_type_id":"4","last_reported":1735744160,"current_range_meters":36400,"station_id":"ce4bh092rcd13ifvqd20","pricing_plan_id":"cebpf4jnsgd1na2vs0mg"},{"bike_id":"fd2893b1-65b9-4368-9b63-eb5856b81533","system_id":"levelo_inurba_marseille","lat":43.28672,"lon":5.40018,"is_reserved":false,"is_disabled":false,"rental_uris":{"android":"levelo://app?vid=fd2893b1-65b9-4368-9b63-eb5856b81533","ios":"levelo://app?vid=fd2893b1-65b9-4368-9b63-eb5856b81533"},"vehicle_type_id":"4","last_reported":1735744160,"current_range_meters":31200,"station_id":"","pricing_plan_id":"cebpf4jnsgd1na2vs0mg"},{"bike_id":"022d826a-d31d-48ef-b07e-f8dd0ceaa746","system_id":"levelo_inurba_marseille","lat":43.24996,"lon":5.38935,"is_reserved":false,"is_disabled":false,"rental_uris":{"android":"levelo://app?vid=022d826a-d31d-48ef-b07e-f8dd0ceaa746","ios":"levelo://app?vid=022d826a-d31d-48ef-b07e-f8dd0ceaa746"},"vehicle_type_id":"4","last_reported":1735744160,"current_range_meters":32400,"station_id":"ce4bhgp2rcd13ifvqfd0","pricing_plan_id":"cebpf4jnsgd1na2vs0mg"},{"bike_id":"c1f80e66-3ab5-4388-821e-1fa29fc9370c","system_id":"levelo_inurba_marseille","lat":43.33729,"lon":5.39192,"is_reserved":false,"is_disabled":true,"rental_uris":{"android":"levelo://app?vid=c1f80e66-3ab5-4388-821e-1fa29fc9370c","ios":"levelo://app?vid=c1f80e66-3ab5-4388-821e-1fa29fc9370c"},"vehicle_type_id":"4","last_reported":1735744160,"current_range_meters":1200,"station_id":"ce4bhr92rcd13ifvqhsg","pricing_plan_id":"cebpf4jnsgd1na2vs0mg"},{"bike_id":"04e7867a-1371-4222-a6db-9d80083cea73","system_id":"levelo_inurba_marseille","lat":43.28844,"lon":5.35846,"is_reserved":false,"is_disabled":false,"rental_uris":{"android":"levelo://app?vid=04e7867a-1371-4222-a6db-9d80083cea73","ios":"levelo://app?vid=04e7867a-1371-4222-a6db-9d80083cea73"},"vehicle_type_id":"4","last_reported":1735744160,"current_range_meters":32800,"station_id":"ce4bhb12rcd13ifvqem0","pricing_plan_id":"cebpf4jnsgd1na2vs0mg"},{"bike_id":"a8861c0e-b5db-44bd-b118-1f3906fd0247","system_id":"levelo_inurba_marseille","lat":43.28406,"lon":5.37535,"is_reserved":false,"is_disabled":false,"rental_uris":{"android":"levelo://app?vid=a8861c0e-b5db-44bd-b118-1f3906fd0247","ios":"levelo://app?vid=a8861c0e-b5db-44bd-b118-1f3906fd0247"},"vehicle_type_id":"4","last_reported":1735744160,"current_range_meters":33200,"station_id":"ce4bh412rcd13ifvqds0","pricing_plan_id":"cebpf4jnsgd1na2vs0mg"},{"bike_id":"1ea5b5b4-cd35-4faa-8d06-1afe800a7ba3","system_id":"levelo_inurba_marseille","lat":43.29967,"lon":5.38499,"is_reserved":false,"is_disabled":false,"rental_uris":{"android":"levelo://app?vid=1ea5b5b4-cd35-4faa-8d06-1afe800a7ba3","ios":"levelo://app?vid=1ea5b5b4-cd35-4faa-8d06-1afe800a7ba3"},"vehicle_type_id":"4","last_reported":1735744160,"current_range_meters":20800,"station_id":"ce4bgj92rcd13ifvqbd0","pricing_plan_id":"cebpf4jnsgd1na2vs0mg"},{"bike_id":"04fd48c9-54a4-4d82-867b-114eea4f6a18","system_id":"levelo_inurba_marseille","lat":43.28296,"lon":5.35057,"is_reserved":false,"is_disabled":false,"rental_uris":{"android":"levelo://app?vid=04fd48c9-54a4-4d82-867b-114eea4f6a18","ios":"levelo://app?vid=04fd48c9-54a4-4d82-867b-114eea4f6a18"},"vehicle_type_id":"4","last_reported":1735744160,"current_range_meters":29600,"station_id":"ce4bhbp2rcd13ifvqerg","pricing_plan_id":"cebpf4jnsgd1na2vs0mg"},{"bike_id":"c5b4f0da-7d9b-4878-9819-5ac68945c1d4","system_id":"levelo_inurba_marseille","lat":43.28616,"lon":5.35111,"is_reserved":false,"is_disabled":false,"rental_uris":{"android":"levelo://app?vid=c5b4f0da-7d9b-4878-9819-5ac68945c1d4","ios":"levelo://app?vid=c5b4f0da-7d9b-4878-9819-5ac68945c1d4"},"vehicle_type_id":"4","last_reported":1735744160,"current_range_meters":25200,"station_id":"ce4bhch2rcd13ifvqeug","pricing_plan_id":"cebpf4jnsgd1na2vs0mg"},{"bike_id":"465e597c-361e-415b-b0e5-21710a995f2f","system_id":"levelo_inurba_marseille","lat":43.31633,"lon":5.37806,"is_reserved":false,"is_disabled":false,"rental_uris":{"android":"levelo://app?vid=465e597c-361e-415b-b0e5-21710a995f2f","ios":"levelo://app?vid=465e597c-361e-415b-b0e5-21710a995f2f"},"vehicle_type_id":"4","last_reported":1735744160,"current_range_meters":11600,"station_id":"ce4bgth2rcd13ifvqch0","pricing_plan_id":"cebpf4jnsgd1na2vs0mg"},{"bike_id":"348dc23f-e1f3-4c4a-b702-15422d8450c7","system_id":"levelo_inurba_marseille","lat":43.29445,"lon":5.39756,"is_reserved":false,"is_disabled":false,"rental_uris":{"android":"levelo://app?vid=348dc23f-e1f3-4c4a-b702-15422d8450c7","ios":"levelo://app?vid=348dc23f-e1f3-4c4a-b702-15422d8450c7"},"vehicle_type_id":"4","last_reported":1735744160,"current_range_meters":38800,"station_id":"ce4bh3h2rcd13ifvqdo0","pricing_plan_id":"cebpf4jnsgd1na2vs0mg"},{"bike_id":"8ec5adae-e210-4f65-98be-5158e67fdaf3","system_id":"levelo_inurba_marseille","lat":43.31276,"lon":5.3685,"is_reserved":false,"is_disabled":false,"rental_uris":{"android":"levelo://app?vid=8ec5adae-e210-4f65-98be-5158e67fdaf3","ios":"levelo://app?vid=8ec5adae-e210-4f65-98be-5158e67fdaf3"},"vehicle_type_id":"4","last_reported":1735744160,"current_range_meters":11200,"station_id":"","pricing_plan_id":"cebpf4jnsgd1na2vs0mg"},{"bike_id":"283db10c-9728-49a2-b20b-259df5ae2064","system_id":"levelo_inurba_marseille","lat":43.27209,"lon":5.39194,"is_reserved":false,"is_disabled":false,"rental_uris":{"android":"levelo://app?vid=283db10c-9728-49a2-b20b-259df5ae2064","ios":"levelo://app?vid=283db10c-9728-49a2-b20b-259df5ae2064"},"vehicle_type_id":"4","last_reported":1735744160,"current_range_meters":6800,"station_id":"ce4bhhp2rcd13ifvqfm0","pricing_plan_id":"cebpf4jnsgd1na2vs0mg"},{"bike_id":"59aea15c-63a1-4bc3-8429-95a2a875a733","system_id":"levelo_inurba_marseille","lat":43.31716,"lon":5.4371,"is_reserved":false,"is_disabled":false,"rental_uris":{"android":"levelo://app?vid=59aea15c-63a1-4bc3-8429-95a2a875a733","ios":"levelo://app?vid=59aea15c-63a1-4bc3-8429-95a2a875a733"},"vehicle_type_id":"4","last_reported":1735744160,"current_range_meters":12000,"station_id":"ce4bhp92rcd13ifvqhcg","pricing_plan_id":"cebpf4jnsgd1na2vs0mg"},{"bike_id":"ba7ecaec-4c79-47c1-96e6-a34fdea6f3b9","system_id":"levelo_inurba_marseille","lat":43.24671,"lon":5.38164,"is_reserved":false,"is_disabled":false,"rental_uris":{"android":"levelo://app?vid=ba7ecaec-4c79-47c1-96e6-a34fdea6f3b9","ios":"levelo://app?vid=ba7ecaec-4c79-47c1-96e6-a34fdea6f3b9"},"vehicle_type_id":"4","last_reported":1735744160,"current_range_meters":28400,"station_id":"ce4bhih2rcd13ifvqfr0","pricing_plan_id":"cebpf4jnsgd1na2vs0mg"},{"bike_id":"95a3880e-80f9-4606-bc8b-781d4f02dbec","system_id":"levelo_inurba_marseille","lat":43.27372,"lon":5.36252,"is_reserved":false,"is_disabled":false,"rental_uris":{"android":"levelo://app?vid=95a3880e-80f9-4606-bc8b-781d4f02dbec","ios":"levelo://app?vid=95a3880e-80f9-4606-bc8b-781d4f02dbec"},"vehicle_type_id":"4","last_reported":1735744160,"current_range_meters":17200,"station_id":"ce4bhbh2rcd13ifvqeo0","pricing_plan_id":"cebpf4jnsgd1na2vs0mg"},{"bike_id":"26021c0a-3c83-4bb6-bf5b-b908c014188c","system_id":"levelo_inurba_marseille","lat":43.2827,"lon":5.35075,"is_reserved":false,"is_disabled":false,"rental_uris":{"android":"levelo://app?vid=26021c0a-3c83-4bb6-bf5b-b908c014188c","ios":"levelo://app?vid=26021c0a-3c83-4bb6-bf5b-b908c014188c"},"vehicle_type_id":"4","last_reported":1735744160,"current_range_meters":24800,"station_id":"ce4bhbp2rcd13ifvqerg","pricing_plan_id":"cebpf4jnsgd1na2vs0mg"},{"bike_id":"d380005f-434b-41e9-be60-b1d203f13e0c","system_id":"levelo_inurba_marseille","lat":43.22933,"lon":5.35383,"is_reserved":false,"is_disabled":false,"rental_uris":{"android":"levelo://app?vid=d380005f-434b-41e9-be60-b1d203f13e0c","ios":"levelo://app?vid=d380005f-434b-41e9-be60-b1d203f13e0c"},"vehicle_type_id":"4","last_reported":1735744160,"current_range_meters":22000,"station_id":"cpo3532slgdg3j2ikp40","pricing_plan_id":"cebpf4jnsgd1na2vs0mg"},{"bike_id":"ff9fb98a-12b7-4913-b4c5-8600f1cc4ece","system_id":"levelo_inurba_marseille","lat":43.26683,"lon":5.38276,"is_reserved":false,"is_disabled":false,"rental_uris":{"android":"levelo://app?vid=ff9fb98a-12b7-4913-b4c5-8600f1cc4ece","ios":"levelo://app?vid=ff9fb98a-12b7-4913-b4c5-8600f1cc4ece"},"vehicle_type_id":"4","last_reported":1735744160,"current_range_meters":27600,"station_id":"ce4bhg92rcd13ifvqf90","pricing_plan_id":"cebpf4jnsgd1na2vs0mg"},{"bike_id":"e7f232e6-9751-45f4-a24f-005b95d10947","system_id":"levelo_inurba_marseille","lat":43.2959,"lon":5.37729,"is_reserved":false,"is_disabled":true,"rental_uris":{"android":"levelo://app?vid=e7f232e6-9751-45f4-a24f-005b95d10947","ios":"levelo://app?vid=e7f232e6-9751-45f4-a24f-005b95d10947"},"vehicle_type_id":"4","last_reported":1735744160,"current_range_meters":38800,"station_id":"ce4bgi92rcd13ifvqb90","pricing_plan_id":"cebpf4jnsgd1na2vs0mg"},{"bike_id":"4f2ac8ed-dfff-4d5d-afd2-2813f6005d43","system_id":"levelo_inurba_marseille","lat":43.314838,"lon":5.373164,"is_reserved":false,"is_disabled":false,"rental_uris":{"android":"levelo://app?vid=4f2ac8ed-dfff-4d5d-afd2-2813f6005d43","ios":"levelo://app?vid=4f2ac8ed-dfff-4d5d-afd2-2813f6005d43"},"vehicle_type_id":"4","last_reported":1735744160,"current_range_meters":38800,"station_id":"ce4bgt12rcd13ifvqcd0","pricing_plan_id":"cebpf4jnsgd1na2vs0mg"},{"bike_id":"f3998a04-3b93-4948-8eb7-aa16047370fd","system_id":"levelo_inurba_marseille","lat":43.27949,"lon":5.41054,"is_reserved":false,"is_disabled":false,"rental_uris":{"android":"levelo://app?vid=f3998a04-3b93-4948-8eb7-aa16047370fd","ios":"levelo://app?vid=f3998a04-3b93-4948-8eb7-aa16047370fd"},"vehicle_type_id":"4","last_reported":1735744160,"current_range_meters":26800,"station_id":"ce4bhnp2rcd13ifvqh0g","pricing_plan_id":"cebpf4jnsgd1na2vs0mg"},{"bike_id":"2241734e-29b7-4c37-ae32-2588a0ac3a7c","system_id":"levelo_inurba_marseille","lat":43.32496,"lon":5.36539,"is_reserved":false,"is_disabled":false,"rental_uris":{"android":"levelo://app?vid=2241734e-29b7-4c37-ae32-2588a0ac3a7c","ios":"levelo://app?vid=2241734e-29b7-4c37-ae32-2588a0ac3a7c"},"vehicle_type_id":"4","last_reported":1735744160,"current_range_meters":38800,"station_id":"ce4bhs12rcd13ifvqhvg","pricing_plan_id":"cebpf4jnsgd1na2vs0mg"},{"bike_id":"4e5ddd94-96b7-43d6-9911-f47ef0293625","system_id":"levelo_inurba_marseille","lat":43.30349,"lon":5.41873,"is_reserved":false,"is_disabled":false,"rental_uris":{"android":"levelo://app?vid=4e5ddd94-96b7-43d6-9911-f47ef0293625","ios":"levelo://app?vid=4e5ddd94-96b7-43d6-9911-f47ef0293625"},"vehicle_type_id":"4","last_reported":1735744160,"current_range_meters":38400,"station_id":"ce4bhop2rcd13ifvqh7g","pricing_plan_id":"cebpf4jnsgd1na2vs0mg"},{"bike_id":"39d9f610-5223-49ac-852d-17a3ed22dbf7","system_id":"levelo_inurba_marseille","lat":43.276098,"lon":5.361178,"is_reserved":false,"is_disabled":false,"rental_uris":{"android":"levelo://app?vid=39d9f610-5223-49ac-852d-17a3ed22dbf7","ios":"levelo://app?vid=39d9f610-5223-49ac-852d-17a3ed22dbf7"},"vehicle_type_id":"4","last_reported":1735744160,"current_range_meters":38800,"station_id":"ce4bgj92rcd13ifvqbe0","pricing_plan_id":"cebpf4jnsgd1na2vs0mg"},{"bike_id":"8ead7e35-2ddd-4db1-b525-2dbe32578065","system_id":"levelo_inurba_marseille","lat":43.30289,"lon":5.36927,"is_reserved":false,"is_disabled":true,"rental_uris":{"android":"levelo://app?vid=8ead7e35-2ddd-4db1-b525-2dbe32578065","ios":"levelo://app?vid=8ead7e35-2ddd-4db1-b525-2dbe32578065"},"vehicle_type_id":"4","last_reported":1735744160,"current_range_meters":35200,"station_id":"ce4bgqh2rcd13ifvqc5g","pricing_plan_id":"cebpf4jnsgd1na2vs0mg"},{"bike_id":"556b69ab-46ae-4456-b81f-492afe6c4b2a","system_id":"levelo_inurba_marseille","lat":43.30215,"lon":5.39472,"is_reserved":false,"is_disabled":false,"rental_uris":{"android":"levelo://app?vid=556b69ab-46ae-4456-b81f-492afe6c4b2a","ios":"levelo://app?vid=556b69ab-46ae-4456-b81f-492afe6c4b2a"},"vehicle_type_id":"4","last_reported":1735744160,"current_range_meters":38800,"station_id":"ce4bh0p2rcd13ifvqd70","pricing_plan_id":"cebpf4jnsgd1na2vs0mg"},{"bike_id":"e157af35-862f-4ff3-a971-0cec14143385","system_id":"levelo_inurba_marseille","lat":43.27949,"lon":5.41047,"is_reserved":false,"is_disabled":false,"rental_uris":{"android":"levelo://app?vid=e157af35-862f-4ff3-a971-0cec14143385","ios":"levelo://app?vid=e157af35-862f-4ff3-a971-0cec14143385"},"vehicle_type_id":"4","last_reported":1735744160,"current_range_meters":32400,"station_id":"ce4bhnp2rcd13ifvqh0g","pricing_plan_id":"cebpf4jnsgd1na2vs0mg"},{"bike_id":"7f929ee0-06ca-4aa7-b270-88cf44fb4190","system_id":"levelo_inurba_marseille","lat":43.297,"lon":5.37682,"is_reserved":false,"is_disabled":false,"rental_uris":{"android":"levelo://app?vid=7f929ee0-06ca-4aa7-b270-88cf44fb4190","ios":"levelo://app?vid=7f929ee0-06ca-4aa7-b270-88cf44fb4190"},"vehicle_type_id":"4","last_reported":1735744160,"current_range_meters":38800,"station_id":"ce4bgkh2rcd13ifvqbl0","pricing_plan_id":"cebpf4jnsgd1na2vs0mg"},{"bike_id":"a2e780d7-c9fd-4465-8b1c-1907e7a6ca45","system_id":"levelo_inurba_marseille","lat":43.27177,"lon":5.40996,"is_reserved":false,"is_disabled":false,"rental_uris":{"android":"levelo://app?vid=a2e780d7-c9fd-4465-8b1c-1907e7a6ca45","ios":"levelo://app?vid=a2e780d7-c9fd-4465-8b1c-1907e7a6ca45"},"vehicle_type_id":"4","last_reported":1735744160,"current_range_meters":7200,"station_id":"ce4bhl12rcd13ifvqgf0","pricing_plan_id":"cebpf4jnsgd1na2vs0mg"},{"bike_id":"f5997a88-606e-48c9-933e-041b10894cea","system_id":"levelo_inurba_marseille","lat":43.27075,"lon":5.42314,"is_reserved":false,"is_disabled":false,"rental_uris":{"android":"levelo://app?vid=f5997a88-606e-48c9-933e-041b10894cea","ios":"levelo://app?vid=f5997a88-606e-48c9-933e-041b10894cea"},"vehicle_type_id":"4","last_reported":1735744160,"current_range_meters":18000,"station_id":"ce4bhk92rcd13ifvqgb0","pricing_plan_id":"cebpf4jnsgd1na2vs0mg"},{"bike_id":"6304e76c-d939-4576-9315-05769152edf4","system_id":"levelo_inurba_marseille","lat":43.2397,"lon":5.36635,"is_reserved":false,"is_disabled":false,"rental_uris":{"android":"levelo://app?vid=6304e76c-d939-4576-9315-05769152edf4","ios":"levelo://app?vid=6304e76c-d939-4576-9315-05769152edf4"},"vehicle_type_id":"4","last_reported":1735744160,"current_range_meters":38400,"station_id":"ce4bhi12rcd13ifvqfp0","pricing_plan_id":"cebpf4jnsgd1na2vs0mg"},{"bike_id":"b2efc2c9-4c50-4ae0-9f7a-2ebbe60214c1","system_id":"levelo_inurba_marseille","lat":43.25122,"lon":5.40338,"is_reserved":false,"is_disabled":false,"rental_uris":{"android":"levelo://app?vid=b2efc2c9-4c50-4ae0-9f7a-2ebbe60214c1","ios":"levelo://app?vid=b2efc2c9-4c50-4ae0-9f7a-2ebbe60214c1"},"vehicle_type_id":"4","last_reported":1735744160,"current_range_meters":7200,"station_id":"ce4bhlh2rcd13ifvqgig","pricing_plan_id":"cebpf4jnsgd1na2vs0mg"},{"bike_id":"236b3030-26dc-4d31-a5ec-3e724cdce4e6","system_id":"levelo_inurba_marseille","lat":43.308718,"lon":5.396435,"is_reserved":false,"is_disabled":false,"rental_uris":{"android":"levelo://app?vid=236b3030-26dc-4d31-a5ec-3e724cdce4e6","ios":"levelo://app?vid=236b3030-26dc-4d31-a5ec-3e724cdce4e6"},"vehicle_type_id":"4","last_reported":1735744160,"current_range_meters":38800,"station_id":"ce4bh012rcd13ifvqcv0","pricing_plan_id":"cebpf4jnsgd1na2vs0mg"},{"bike_id":"54a0f462-5615-4e56-ad72-7f076a7c39fe","system_id":"levelo_inurba_marseille","lat":43.28659,"lon":5.36361,"is_reserved":false,"is_disabled":false,"rental_uris":{"android":"levelo://app?vid=54a0f462-5615-4e56-ad72-7f076a7c39fe","ios":"levelo://app?vid=54a0f462-5615-4e56-ad72-7f076a7c39fe"},"vehicle_type_id":"4","last_reported":1735744160,"current_range_meters":14800,"station_id":"ce4bhah2rcd13ifvqej0","pricing_plan_id":"cebpf4jnsgd1na2vs0mg"},{"bike_id":"4ae90592-e920-400e-8a25-b327a1d3d78f","system_id":"levelo_inurba_marseille","lat":43.246697,"lon":5.381648,"is_reserved":false,"is_disabled":false,"rental_uris":{"android":"levelo://app?vid=4ae90592-e920-400e-8a25-b327a1d3d78f","ios":"levelo://app?vid=4ae90592-e920-400e-8a25-b327a1d3d78f"},"vehicle_type_id":"4","last_reported":1735744160,"current_range_meters":6400,"station_id":"ce4bhih2rcd13ifvqfr0","pricing_plan_id":"cebpf4jnsgd1na2vs0mg"},{"bike_id":"7635d648-7551-472f-a2fb-081369ca3dd2","system_id":"levelo_inurba_marseille","lat":43.279696,"lon":5.387322,"is_reserved":false,"is_disabled":false,"rental_uris":{"android":"levelo://app?vid=7635d648-7551-472f-a2fb-081369ca3dd2","ios":"levelo://app?vid=7635d648-7551-472f-a2fb-081369ca3dd2"},"vehicle_type_id":"4","last_reported":1735744160,"current_range_meters":38800,"station_id":"ce4bhg12rcd13ifvqf80","pricing_plan_id":"cebpf4jnsgd1na2vs0mg"},{"bike_id":"bcd20683-a7d2-4d73-b9c6-b696fde50e59","system_id":"levelo_inurba_marseille","lat":43.27068,"lon":5.42282,"is_reserved":false,"is_disabled":true,"rental_uris":{"android":"levelo://app?vid=bcd20683-a7d2-4d73-b9c6-b696fde50e59","ios":"levelo://app?vid=bcd20683-a7d2-4d73-b9c6-b696fde50e59"},"vehicle_type_id":"4","last_reported":1735744160,"current_range_meters":2000,"station_id":"ce4bhk92rcd13ifvqgb0","pricing_plan_id":"cebpf4jnsgd1na2vs0mg"},{"bike_id":"386aea06-3064-4881-977d-136b3f2b5021","system_id":"levelo_inurba_marseille","lat":43.25496,"lon":5.37653,"is_reserved":false,"is_disabled":false,"rental_uris":{"android":"levelo://app?vid=386aea06-3064-4881-977d-136b3f2b5021","ios":"levelo://app?vid=386aea06-3064-4881-977d-136b3f2b5021"},"vehicle_type_id":"4","last_reported":1735744160,"current_range_meters":38800,"station_id":"ce4bhh12rcd13ifvqff0","pricing_plan_id":"cebpf4jnsgd1na2vs0mg"},{"bike_id":"e4c747a7-acf8-4ccd-a6ed-300770222f69","system_id":"levelo_inurba_marseille","lat":43.26554,"lon":5.39049,"is_reserved":false,"is_disabled":false,"rental_uris":{"android":"levelo://app?vid=e4c747a7-acf8-4ccd-a6ed-300770222f69","ios":"levelo://app?vid=e4c747a7-acf8-4ccd-a6ed-300770222f69"},"vehicle_type_id":"4","last_reported":1735744160,"current_range_meters":10000,"station_id":"ce4bhe12rcd13ifvqf30","pricing_plan_id":"cebpf4jnsgd1na2vs0mg"},{"bike_id":"7d44431e-ed83-438c-86a7-892d7e053d01","system_id":"levelo_inurba_marseille","lat":43.32064,"lon":5.4154,"is_reserved":false,"is_disabled":false,"rental_uris":{"android":"levelo://app?vid=7d44431e-ed83-438c-86a7-892d7e053d01","ios":"levelo://app?vid=7d44431e-ed83-438c-86a7-892d7e053d01"},"vehicle_type_id":"4","last_reported":1735744160,"current_range_meters":38800,"station_id":"ce4bhq92rcd13ifvqhkg","pricing_plan_id":"cebpf4jnsgd1na2vs0mg"},{"bike_id":"84ff672c-254b-42d1-ad81-4f7d674dca47","system_id":"levelo_inurba_marseille","lat":43.24394,"lon":5.37059,"is_reserved":false,"is_disabled":false,"rental_uris":{"android":"levelo://app?vid=84ff672c-254b-42d1-ad81-4f7d674dca47","ios":"levelo://app?vid=84ff672c-254b-42d1-ad81-4f7d674dca47"},"vehicle_type_id":"4","last_reported":1735744160,"current_range_meters":39200,"station_id":"ce4bhhh2rcd13ifvqfk0","pricing_plan_id":"cebpf4jnsgd1na2vs0mg"},{"bike_id":"d42bc978-4b09-4a1a-a3f8-f73483d2bd7b","system_id":"levelo_inurba_marseille","lat":43.31486,"lon":5.37311,"is_reserved":false,"is_disabled":false,"rental_uris":{"android":"levelo://app?vid=d42bc978-4b09-4a1a-a3f8-f73483d2bd7b","ios":"levelo://app?vid=d42bc978-4b09-4a1a-a3f8-f73483d2bd7b"},"vehicle_type_id":"4","last_reported":1735744160,"current_range_meters":18000,"station_id":"ce4bgt12rcd13ifvqcd0","pricing_plan_id":"cebpf4jnsgd1na2vs0mg"},{"bike_id":"84574380-5e63-4a67-bbf0-475b0a817486","system_id":"levelo_inurba_marseille","lat":43.27664,"lon":5.389,"is_reserved":false,"is_disabled":false,"rental_uris":{"android":"levelo://app?vid=84574380-5e63-4a67-bbf0-475b0a817486","ios":"levelo://app?vid=84574380-5e63-4a67-bbf0-475b0a817486"},"vehicle_type_id":"4","last_reported":1735744160,"current_range_meters":38800,"station_id":"ce4bhi12rcd13ifvqfo0","pricing_plan_id":"cebpf4jnsgd1na2vs0mg"},{"bike_id":"b5c41abd-c946-4cb6-9c4a-f6cb7dd7e536","system_id":"levelo_inurba_marseille","lat":43.2842,"lon":5.37515,"is_reserved":false,"is_disabled":false,"rental_uris":{"android":"levelo://app?vid=b5c41abd-c946-4cb6-9c4a-f6cb7dd7e536","ios":"levelo://app?vid=b5c41abd-c946-4cb6-9c4a-f6cb7dd7e536"},"vehicle_type_id":"4","last_reported":1735744160,"current_range_meters":26800,"station_id":"ce4bh412rcd13ifvqds0","pricing_plan_id":"cebpf4jnsgd1na2vs0mg"},{"bike_id":"ebbdb52f-ebba-4684-b557-d63f96169510","system_id":"levelo_inurba_marseille","lat":43.34154,"lon":5.40916,"is_reserved":false,"is_disabled":false,"rental_uris":{"android":"levelo://app?vid=ebbdb52f-ebba-4684-b557-d63f96169510","ios":"levelo://app?vid=ebbdb52f-ebba-4684-b557-d63f96169510"},"vehicle_type_id":"4","last_reported":1735744160,"current_range_meters":38800,"station_id":"ce4bhqh2rcd13ifvqhlg","pricing_plan_id":"cebpf4jnsgd1na2vs0mg"},{"bike_id":"594be97a-e1af-44d9-b33f-28de40fe66bb","system_id":"levelo_inurba_marseille","lat":43.27903,"lon":5.3801,"is_reserved":false,"is_disabled":false,"rental_uris":{"android":"levelo://app?vid=594be97a-e1af-44d9-b33f-28de40fe66bb","ios":"levelo://app?vid=594be97a-e1af-44d9-b33f-28de40fe66bb"},"vehicle_type_id":"4","last_reported":1735744160,"current_range_meters":31200,"station_id":"ce4bhf92rcd13ifvqf50","pricing_plan_id":"cebpf4jnsgd1na2vs0mg"},{"bike_id":"80918c45-89b7-4fd7-996f-c047d892f254","system_id":"levelo_inurba_marseille","lat":43.28422,"lon":5.34979,"is_reserved":false,"is_disabled":false,"rental_uris":{"android":"levelo://app?vid=80918c45-89b7-4fd7-996f-c047d892f254","ios":"levelo://app?vid=80918c45-89b7-4fd7-996f-c047d892f254"},"vehicle_type_id":"4","last_reported":1735744160,"current_range_meters":34800,"station_id":"ce4bhbh2rcd13ifvqepg","pricing_plan_id":"cebpf4jnsgd1na2vs0mg"},{"bike_id":"17d9411c-6940-4e27-b448-59964319d2f7","system_id":"levelo_inurba_marseille","lat":43.32284,"lon":5.38277,"is_reserved":false,"is_disabled":false,"rental_uris":{"android":"levelo://app?vid=17d9411c-6940-4e27-b448-59964319d2f7","ios":"levelo://app?vid=17d9411c-6940-4e27-b448-59964319d2f7"},"vehicle_type_id":"4","last_reported":1735744160,"current_range_meters":38000,"station_id":"ce4bhr12rcd13ifvqhqg","pricing_plan_id":"cebpf4jnsgd1na2vs0mg"},{"bike_id":"3c092760-f0fd-4792-abf7-ff55c2f417a1","system_id":"levelo_inurba_marseille","lat":43.31881,"lon":5.40722,"is_reserved":false,"is_disabled":false,"rental_uris":{"android":"levelo://app?vid=3c092760-f0fd-4792-abf7-ff55c2f417a1","ios":"levelo://app?vid=3c092760-f0fd-4792-abf7-ff55c2f417a1"},"vehicle_type_id":"4","last_reported":1735744160,"current_range_meters":39200,"station_id":"ce4bhq12rcd13ifvqhig","pricing_plan_id":"cebpf4jnsgd1na2vs0mg"},{"bike_id":"b78152bd-d86a-4a6f-83d8-1081d15d34f3","system_id":"levelo_inurba_marseille","lat":43.23206,"lon":5.35556,"is_reserved":false,"is_disabled":false,"rental_uris":{"android":"levelo://app?vid=b78152bd-d86a-4a6f-83d8-1081d15d34f3","ios":"levelo://app?vid=b78152bd-d86a-4a6f-83d8-1081d15d34f3"},"vehicle_type_id":"4","last_reported":1735744160,"current_range_meters":38800,"station_id":"ce4bhu92rcd13ifvqi70","pricing_plan_id":"cebpf4jnsgd1na2vs0mg"},{"bike_id":"576c3c6b-bcf6-433f-9d79-5f33ae917960","system_id":"levelo_inurba_marseille","lat":43.29553,"lon":5.42265,"is_reserved":false,"is_disabled":false,"rental_uris":{"android":"levelo://app?vid=576c3c6b-bcf6-433f-9d79-5f33ae917960","ios":"levelo://app?vid=576c3c6b-bcf6-433f-9d79-5f33ae917960"},"vehicle_type_id":"4","last_reported":1735744160,"current_range_meters":38800,"station_id":"ce4bhph2rcd13ifvqhdg","pricing_plan_id":"cebpf4jnsgd1na2vs0mg"},{"bike_id":"7b55345d-8a7e-4db8-9658-4b3de3efe223","system_id":"levelo_inurba_marseille","lat":43.28453,"lon":5.35898,"is_reserved":false,"is_disabled":false,"rental_uris":{"android":"levelo://app?vid=7b55345d-8a7e-4db8-9658-4b3de3efe223","ios":"levelo://app?vid=7b55345d-8a7e-4db8-9658-4b3de3efe223"},"vehicle_type_id":"4","last_reported":1735744160,"current_range_meters":39200,"station_id":"ce4bhah2rcd13ifvqei0","pricing_plan_id":"cebpf4jnsgd1na2vs0mg"},{"bike_id":"3849372e-07bb-44fe-a472-042c51881e1e","system_id":"levelo_inurba_marseille","lat":43.28032,"lon":5.3695,"is_reserved":false,"is_disabled":false,"rental_uris":{"android":"levelo://app?vid=3849372e-07bb-44fe-a472-042c51881e1e","ios":"levelo://app?vid=3849372e-07bb-44fe-a472-042c51881e1e"},"vehicle_type_id":"4","last_reported":1735744160,"current_range_meters":23200,"station_id":"ce4bha12rcd13ifvqef0","pricing_plan_id":"cebpf4jnsgd1na2vs0mg"},{"bike_id":"241064ff-27c5-4706-9532-739a8faf7045","system_id":"levelo_inurba_marseille","lat":43.31682,"lon":5.40468,"is_reserved":false,"is_disabled":false,"rental_uris":{"android":"levelo://app?vid=241064ff-27c5-4706-9532-739a8faf7045","ios":"levelo://app?vid=241064ff-27c5-4706-9532-739a8faf7045"},"vehicle_type_id":"4","last_reported":1735744160,"current_range_meters":38800,"station_id":"ce4bh012rcd13ifvqd00","pricing_plan_id":"cebpf4jnsgd1na2vs0mg"},{"bike_id":"6f313a7b-3fd7-4994-ba70-f0853dde86be","system_id":"levelo_inurba_marseille","lat":43.31133,"lon":5.36956,"is_reserved":false,"is_disabled":false,"rental_uris":{"android":"levelo://app?vid=6f313a7b-3fd7-4994-ba70-f0853dde86be","ios":"levelo://app?vid=6f313a7b-3fd7-4994-ba70-f0853dde86be"},"vehicle_type_id":"4","last_reported":1735744160,"current_range_meters":36000,"station_id":"","pricing_plan_id":"cebpf4jnsgd1na2vs0mg"},{"bike_id":"b1815487-383e-42be-8a0b-8b8db0c2ceef","system_id":"levelo_inurba_marseille","lat":43.3228,"lon":5.3827,"is_reserved":false,"is_disabled":false,"rental_uris":{"android":"levelo://app?vid=b1815487-383e-42be-8a0b-8b8db0c2ceef","ios":"levelo://app?vid=b1815487-383e-42be-8a0b-8b8db0c2ceef"},"vehicle_type_id":"4","last_reported":1735744160,"current_range_meters":38800,"station_id":"ce4bhr12rcd13ifvqhqg","pricing_plan_id":"cebpf4jnsgd1na2vs0mg"},{"bike_id":"2f71d5d0-4248-4fd8-90b9-7615dc7e3077","system_id":"levelo_inurba_marseille","lat":43.251183,"lon":5.403286,"is_reserved":false,"is_disabled":false,"rental_uris":{"android":"levelo://app?vid=2f71d5d0-4248-4fd8-90b9-7615dc7e3077","ios":"levelo://app?vid=2f71d5d0-4248-4fd8-90b9-7615dc7e3077"},"vehicle_type_id":"4","last_reported":1735744160,"current_range_meters":38800,"station_id":"ce4bhlh2rcd13ifvqgig","pricing_plan_id":"cebpf4jnsgd1na2vs0mg"},{"bike_id":"f46bd378-e30f-485c-b539-9d29fba578aa","system_id":"levelo_inurba_marseille","lat":43.34146,"lon":5.40909,"is_reserved":false,"is_disabled":false,"rental_uris":{"android":"levelo://app?vid=f46bd378-e30f-485c-b539-9d29fba578aa","ios":"levelo://app?vid=f46bd378-e30f-485c-b539-9d29fba578aa"},"vehicle_type_id":"4","last_reported":1735744160,"current_range_meters":38800,"station_id":"ce4bhqh2rcd13ifvqhlg","pricing_plan_id":"cebpf4jnsgd1na2vs0mg"},{"bike_id":"7ec4d381-79e4-4c43-b132-77d2c6adbb98","system_id":"levelo_inurba_marseille","lat":43.30885,"lon":5.39641,"is_reserved":false,"is_disabled":false,"rental_uris":{"android":"levelo://app?vid=7ec4d381-79e4-4c43-b132-77d2c6adbb98","ios":"levelo://app?vid=7ec4d381-79e4-4c43-b132-77d2c6adbb98"},"vehicle_type_id":"4","last_reported":1735744160,"current_range_meters":38800,"station_id":"ce4bh012rcd13ifvqcv0","pricing_plan_id":"cebpf4jnsgd1na2vs0mg"},{"bike_id":"df334d50-4421-42a5-a762-fb7f39807cc1","system_id":"levelo_inurba_marseille","lat":43.33755,"lon":5.37428,"is_reserved":false,"is_disabled":false,"rental_uris":{"android":"levelo://app?vid=df334d50-4421-42a5-a762-fb7f39807cc1","ios":"levelo://app?vid=df334d50-4421-42a5-a762-fb7f39807cc1"},"vehicle_type_id":"4","last_reported":1735744160,"current_range_meters":36000,"station_id":"","pricing_plan_id":"cebpf4jnsgd1na2vs0mg"},{"bike_id":"40580cf7-1578-4138-8ea9-01d4e2515983","system_id":"levelo_inurba_marseille","lat":43.26028,"lon":5.37552,"is_reserved":false,"is_disabled":false,"rental_uris":{"android":"levelo://app?vid=40580cf7-1578-4138-8ea9-01d4e2515983","ios":"levelo://app?vid=40580cf7-1578-4138-8ea9-01d4e2515983"},"vehicle_type_id":"4","last_reported":1735744160,"current_range_meters":14000,"station_id":"ce4bhgh2rcd13ifvqfa0","pricing_plan_id":"cebpf4jnsgd1na2vs0mg"},{"bike_id":"35d7b981-f2f8-4e1f-bf58-6f3547d4e1f6","system_id":"levelo_inurba_marseille","lat":43.3032,"lon":5.36915,"is_reserved":false,"is_disabled":true,"rental_uris":{"android":"levelo://app?vid=35d7b981-f2f8-4e1f-bf58-6f3547d4e1f6","ios":"levelo://app?vid=35d7b981-f2f8-4e1f-bf58-6f3547d4e1f6"},"vehicle_type_id":"4","last_reported":1735744160,"current_range_meters":23200,"station_id":"ce4bgqh2rcd13ifvqc5g","pricing_plan_id":"cebpf4jnsgd1na2vs0mg"},{"bike_id":"01e3daf2-3dc3-42f0-a716-39b38bbee6f9","system_id":"levelo_inurba_marseille","lat":43.28737,"lon":5.39954,"is_reserved":false,"is_disabled":false,"rental_uris":{"android":"levelo://app?vid=01e3daf2-3dc3-42f0-a716-39b38bbee6f9","ios":"levelo://app?vid=01e3daf2-3dc3-42f0-a716-39b38bbee6f9"},"vehicle_type_id":"4","last_reported":1735744160,"current_range_meters":25600,"station_id":"ce4bho92rcd13ifvqh3g","pricing_plan_id":"cebpf4jnsgd1na2vs0mg"},{"bike_id":"05348e06-c1b4-4bf2-ae46-8b4a38b5cf63","system_id":"levelo_inurba_marseille","lat":43.31031,"lon":5.36699,"is_reserved":false,"is_disabled":false,"rental_uris":{"android":"levelo://app?vid=05348e06-c1b4-4bf2-ae46-8b4a38b5cf63","ios":"levelo://app?vid=05348e06-c1b4-4bf2-ae46-8b4a38b5cf63"},"vehicle_type_id":"4","last_reported":1735744160,"current_range_meters":24800,"station_id":"","pricing_plan_id":"cebpf4jnsgd1na2vs0mg"},{"bike_id":"05c3ac9a-bcd3-4f94-8fc6-e777f4bf511b","system_id":"levelo_inurba_marseille","lat":43.28932,"lon":5.39633,"is_reserved":false,"is_disabled":false,"rental_uris":{"android":"levelo://app?vid=05c3ac9a-bcd3-4f94-8fc6-e777f4bf511b","ios":"levelo://app?vid=05c3ac9a-bcd3-4f94-8fc6-e777f4bf511b"},"vehicle_type_id":"4","last_reported":1735744160,"current_range_meters":32000,"station_id":"ce4bh3h2rcd13ifvqdn0","pricing_plan_id":"cebpf4jnsgd1na2vs0mg"},{"bike_id":"5367a292-5564-4681-91cd-97babb89fc00","system_id":"levelo_inurba_marseille","lat":43.22938,"lon":5.35388,"is_reserved":false,"is_disabled":false,"rental_uris":{"android":"levelo://app?vid=5367a292-5564-4681-91cd-97babb89fc00","ios":"levelo://app?vid=5367a292-5564-4681-91cd-97babb89fc00"},"vehicle_type_id":"4","last_reported":1735744160,"current_range_meters":22800,"station_id":"cpo3532slgdg3j2ikp40","pricing_plan_id":"cebpf4jnsgd1na2vs0mg"},{"bike_id":"1d5543c4-1c87-4447-ad2e-0cc64903ea75","system_id":"levelo_inurba_marseille","lat":43.25883,"lon":5.39922,"is_reserved":false,"is_disabled":false,"rental_uris":{"android":"levelo://app?vid=1d5543c4-1c87-4447-ad2e-0cc64903ea75","ios":"levelo://app?vid=1d5543c4-1c87-4447-ad2e-0cc64903ea75"},"vehicle_type_id":"4","last_reported":1735744160,"current_range_meters":38800,"station_id":"ce4bhl92rcd13ifvqghg","pricing_plan_id":"cebpf4jnsgd1na2vs0mg"},{"bike_id":"0483d5a5-12c2-4b90-8e6c-47d6d5a4b82c","system_id":"levelo_inurba_marseille","lat":43.25849,"lon":5.39426,"is_reserved":false,"is_disabled":false,"rental_uris":{"android":"levelo://app?vid=0483d5a5-12c2-4b90-8e6c-47d6d5a4b82c","ios":"levelo://app?vid=0483d5a5-12c2-4b90-8e6c-47d6d5a4b82c"},"vehicle_type_id":"4","last_reported":1735744160,"current_range_meters":38800,"station_id":"ce4bhip2rcd13ifvqft0","pricing_plan_id":"cebpf4jnsgd1na2vs0mg"},{"bike_id":"67be4c3e-8c5f-4ba3-aa7c-0c2fcdc17083","system_id":"levelo_inurba_marseille","lat":43.29568,"lon":5.36738,"is_reserved":false,"is_disabled":false,"rental_uris":{"android":"levelo://app?vid=67be4c3e-8c5f-4ba3-aa7c-0c2fcdc17083","ios":"levelo://app?vid=67be4c3e-8c5f-4ba3-aa7c-0c2fcdc17083"},"vehicle_type_id":"4","last_reported":1735744160,"current_range_meters":6400,"station_id":"ce4bgph2rcd13ifvqc2g","pricing_plan_id":"cebpf4jnsgd1na2vs0mg"},{"bike_id":"f474a14b-c7e8-4534-9cc4-58fdc001af00","system_id":"levelo_inurba_marseille","lat":43.25587,"lon":5.38245,"is_reserved":false,"is_disabled":false,"rental_uris":{"android":"levelo://app?vid=f474a14b-c7e8-4534-9cc4-58fdc001af00","ios":"levelo://app?vid=f474a14b-c7e8-4534-9cc4-58fdc001af00"},"vehicle_type_id":"4","last_reported":1735744160,"current_range_meters":30000,"station_id":"ce4bhih2rcd13ifvqfs0","pricing_plan_id":"cebpf4jnsgd1na2vs0mg"},{"bike_id":"ff30fd2c-f89f-43be-a90c-52802ba6ee9b","system_id":"levelo_inurba_marseille","lat":43.29639,"lon":5.40599,"is_reserved":false,"is_disabled":false,"rental_uris":{"android":"levelo://app?vid=ff30fd2c-f89f-43be-a90c-52802ba6ee9b","ios":"levelo://app?vid=ff30fd2c-f89f-43be-a90c-52802ba6ee9b"},"vehicle_type_id":"4","last_reported":1735744160,"current_range_meters":38800,"station_id":"ce4bh0h2rcd13ifvqd60","pricing_plan_id":"cebpf4jnsgd1na2vs0mg"},{"bike_id":"addd4f10-99f5-4e98-a77b-9d17d1d03a73","system_id":"levelo_inurba_marseille","lat":43.27368,"lon":5.36248,"is_reserved":false,"is_disabled":false,"rental_uris":{"android":"levelo://app?vid=addd4f10-99f5-4e98-a77b-9d17d1d03a73","ios":"levelo://app?vid=addd4f10-99f5-4e98-a77b-9d17d1d03a73"},"vehicle_type_id":"4","last_reported":1735744160,"current_range_meters":26800,"station_id":"ce4bhbh2rcd13ifvqeo0","pricing_plan_id":"cebpf4jnsgd1na2vs0mg"},{"bike_id":"62076514-d312-4a15-ad75-f85cfe6d3f46","system_id":"levelo_inurba_marseille","lat":43.22931,"lon":5.35389,"is_reserved":false,"is_disabled":false,"rental_uris":{"android":"levelo://app?vid=62076514-d312-4a15-ad75-f85cfe6d3f46","ios":"levelo://app?vid=62076514-d312-4a15-ad75-f85cfe6d3f46"},"vehicle_type_id":"4","last_reported":1735744160,"current_range_meters":20400,"station_id":"cpo3532slgdg3j2ikp40","pricing_plan_id":"cebpf4jnsgd1na2vs0mg"},{"bike_id":"99fa39f2-f6b8-4577-8ffe-25225a2c2f2f","system_id":"levelo_inurba_marseille","lat":43.26032,"lon":5.37557,"is_reserved":false,"is_disabled":false,"rental_uris":{"android":"levelo://app?vid=99fa39f2-f6b8-4577-8ffe-25225a2c2f2f","ios":"levelo://app?vid=99fa39f2-f6b8-4577-8ffe-25225a2c2f2f"},"vehicle_type_id":"4","last_reported":1735744160,"current_range_meters":38800,"station_id":"ce4bhgh2rcd13ifvqfa0","pricing_plan_id":"cebpf4jnsgd1na2vs0mg"},{"bike_id":"f9b725b5-9b48-4071-a8cb-75d7d7d7caf9","system_id":"levelo_inurba_marseille","lat":43.24399,"lon":5.37067,"is_reserved":false,"is_disabled":false,"rental_uris":{"android":"levelo://app?vid=f9b725b5-9b48-4071-a8cb-75d7d7d7caf9","ios":"levelo://app?vid=f9b725b5-9b48-4071-a8cb-75d7d7d7caf9"},"vehicle_type_id":"4","last_reported":1735744160,"current_range_meters":38800,"station_id":"ce4bhhh2rcd13ifvqfk0","pricing_plan_id":"cebpf4jnsgd1na2vs0mg"},{"bike_id":"3e6b1c3b-cf11-4303-b4d7-0ec5c145e60f","system_id":"levelo_inurba_marseille","lat":43.28024,"lon":5.36959,"is_reserved":false,"is_disabled":false,"rental_uris":{"android":"levelo://app?vid=3e6b1c3b-cf11-4303-b4d7-0ec5c145e60f","ios":"levelo://app?vid=3e6b1c3b-cf11-4303-b4d7-0ec5c145e60f"},"vehicle_type_id":"4","last_reported":1735744160,"current_range_meters":25200,"station_id":"ce4bha12rcd13ifvqef0","pricing_plan_id":"cebpf4jnsgd1na2vs0mg"},{"bike_id":"264edb07-6f3f-4980-919d-34083f9815b0","system_id":"levelo_inurba_marseille","lat":43.26614,"lon":5.37289,"is_reserved":false,"is_disabled":false,"rental_uris":{"android":"levelo://app?vid=264edb07-6f3f-4980-919d-34083f9815b0","ios":"levelo://app?vid=264edb07-6f3f-4980-919d-34083f9815b0"},"vehicle_type_id":"4","last_reported":1735744160,"current_range_meters":16800,"station_id":"ce4bhg12rcd13ifvqf70","pricing_plan_id":"cebpf4jnsgd1na2vs0mg"},{"bike_id":"535918be-1cd1-40c5-87ce-8c1f020c0687","system_id":"levelo_inurba_marseille","lat":43.30937,"lon":5.36838,"is_reserved":false,"is_disabled":false,"rental_uris":{"android":"levelo://app?vid=535918be-1cd1-40c5-87ce-8c1f020c0687","ios":"levelo://app?vid=535918be-1cd1-40c5-87ce-8c1f020c0687"},"vehicle_type_id":"4","last_reported":1735744160,"current_range_meters":39200,"station_id":"ce4bgn92rcd13ifvqbvg","pricing_plan_id":"cebpf4jnsgd1na2vs0mg"},{"bike_id":"bbfc5010-5ad1-478a-9bf0-def17e142c1c","system_id":"levelo_inurba_marseille","lat":43.28031,"lon":5.36954,"is_reserved":false,"is_disabled":false,"rental_uris":{"android":"levelo://app?vid=bbfc5010-5ad1-478a-9bf0-def17e142c1c","ios":"levelo://app?vid=bbfc5010-5ad1-478a-9bf0-def17e142c1c"},"vehicle_type_id":"4","last_reported":1735744160,"current_range_meters":36000,"station_id":"ce4bha12rcd13ifvqef0","pricing_plan_id":"cebpf4jnsgd1na2vs0mg"},{"bike_id":"a80f5543-58df-474d-8af7-e441bff30004","system_id":"levelo_inurba_marseille","lat":43.30569,"lon":5.36685,"is_reserved":false,"is_disabled":false,"rental_uris":{"android":"levelo://app?vid=a80f5543-58df-474d-8af7-e441bff30004","ios":"levelo://app?vid=a80f5543-58df-474d-8af7-e441bff30004"},"vehicle_type_id":"4","last_reported":1735744160,"current_range_meters":37600,"station_id":"ce4bgrp2rcd13ifvqc9g","pricing_plan_id":"cebpf4jnsgd1na2vs0mg"},{"bike_id":"f4d31bdd-067d-44f1-8dce-9df56d6287d9","system_id":"levelo_inurba_marseille","lat":43.28405,"lon":5.37515,"is_reserved":false,"is_disabled":false,"rental_uris":{"android":"levelo://app?vid=f4d31bdd-067d-44f1-8dce-9df56d6287d9","ios":"levelo://app?vid=f4d31bdd-067d-44f1-8dce-9df56d6287d9"},"vehicle_type_id":"4","last_reported":1735744160,"current_range_meters":28000,"station_id":"ce4bh412rcd13ifvqds0","pricing_plan_id":"cebpf4jnsgd1na2vs0mg"},{"bike_id":"5f5dfaa4-ddb9-479c-a5a6-266f7070f4dd","system_id":"levelo_inurba_marseille","lat":43.29712,"lon":5.36586,"is_reserved":false,"is_disabled":false,"rental_uris":{"android":"levelo://app?vid=5f5dfaa4-ddb9-479c-a5a6-266f7070f4dd","ios":"levelo://app?vid=5f5dfaa4-ddb9-479c-a5a6-266f7070f4dd"},"vehicle_type_id":"4","last_reported":1735744160,"current_range_meters":30800,"station_id":"ce4bgn12rcd13ifvqbt0","pricing_plan_id":"cebpf4jnsgd1na2vs0mg"},{"bike_id":"9fc11948-a0d1-4b39-8d46-5ede6d39db06","system_id":"levelo_inurba_marseille","lat":43.2656,"lon":5.37295,"is_reserved":false,"is_disabled":true,"rental_uris":{"android":"levelo://app?vid=9fc11948-a0d1-4b39-8d46-5ede6d39db06","ios":"levelo://app?vid=9fc11948-a0d1-4b39-8d46-5ede6d39db06"},"vehicle_type_id":"4","last_reported":1735744160,"current_range_meters":1200,"station_id":"ce4bhg12rcd13ifvqf70","pricing_plan_id":"cebpf4jnsgd1na2vs0mg"},{"bike_id":"dac94ecf-3203-4c89-acc0-21c14e979588","system_id":"levelo_inurba_marseille","lat":43.26695,"lon":5.3828,"is_reserved":false,"is_disabled":false,"rental_uris":{"android":"levelo://app?vid=dac94ecf-3203-4c89-acc0-21c14e979588","ios":"levelo://app?vid=dac94ecf-3203-4c89-acc0-21c14e979588"},"vehicle_type_id":"4","last_reported":1735744160,"current_range_meters":8800,"station_id":"ce4bhg92rcd13ifvqf90","pricing_plan_id":"cebpf4jnsgd1na2vs0mg"},{"bike_id":"560a082e-860d-453b-bdd6-7a868105718c","system_id":"levelo_inurba_marseille","lat":43.26806,"lon":5.40277,"is_reserved":false,"is_disabled":false,"rental_uris":{"android":"levelo://app?vid=560a082e-860d-453b-bdd6-7a868105718c","ios":"levelo://app?vid=560a082e-860d-453b-bdd6-7a868105718c"},"vehicle_type_id":"4","last_reported":1735744160,"current_range_meters":38000,"station_id":"ce501612rcd8frsf0b60","pricing_plan_id":"cebpf4jnsgd1na2vs0mg"},{"bike_id":"85d8efd5-bbff-461d-b137-d7bcaca44796","system_id":"levelo_inurba_marseille","lat":43.32366,"lon":5.38885,"is_reserved":false,"is_disabled":false,"rental_uris":{"android":"levelo://app?vid=85d8efd5-bbff-461d-b137-d7bcaca44796","ios":"levelo://app?vid=85d8efd5-bbff-461d-b137-d7bcaca44796"},"vehicle_type_id":"4","last_reported":1735744160,"current_range_meters":17200,"station_id":"ce4bhqp2rcd13ifvqhog","pricing_plan_id":"cebpf4jnsgd1na2vs0mg"},{"bike_id":"9c42c59a-a990-48ee-91ac-32ebebcaabf5","system_id":"levelo_inurba_marseille","lat":43.27576,"lon":5.38425,"is_reserved":false,"is_disabled":false,"rental_uris":{"android":"levelo://app?vid=9c42c59a-a990-48ee-91ac-32ebebcaabf5","ios":"levelo://app?vid=9c42c59a-a990-48ee-91ac-32ebebcaabf5"},"vehicle_type_id":"4","last_reported":1735744160,"current_range_meters":38800,"station_id":"ce4bhh92rcd13ifvqfi0","pricing_plan_id":"cebpf4jnsgd1na2vs0mg"},{"bike_id":"8718220a-6a37-41be-b92a-7cc1a59fedb2","system_id":"levelo_inurba_marseille","lat":43.27578,"lon":5.38431,"is_reserved":false,"is_disabled":false,"rental_uris":{"android":"levelo://app?vid=8718220a-6a37-41be-b92a-7cc1a59fedb2","ios":"levelo://app?vid=8718220a-6a37-41be-b92a-7cc1a59fedb2"},"vehicle_type_id":"4","last_reported":1735744160,"current_range_meters":11200,"station_id":"ce4bhh92rcd13ifvqfi0","pricing_plan_id":"cebpf4jnsgd1na2vs0mg"},{"bike_id":"390ec3fe-ca6d-409a-b007-4fdac99d3f61","system_id":"levelo_inurba_marseille","lat":43.2706,"lon":5.40276,"is_reserved":false,"is_disabled":false,"rental_uris":{"android":"levelo://app?vid=390ec3fe-ca6d-409a-b007-4fdac99d3f61","ios":"levelo://app?vid=390ec3fe-ca6d-409a-b007-4fdac99d3f61"},"vehicle_type_id":"4","last_reported":1735744160,"current_range_meters":33600,"station_id":"ce4bhk92rcd13ifvqgc0","pricing_plan_id":"cebpf4jnsgd1na2vs0mg"},{"bike_id":"52aae5c6-a080-49b4-9264-2cec72f06a79","system_id":"levelo_inurba_marseille","lat":43.28459,"lon":5.35885,"is_reserved":false,"is_disabled":false,"rental_uris":{"android":"levelo://app?vid=52aae5c6-a080-49b4-9264-2cec72f06a79","ios":"levelo://app?vid=52aae5c6-a080-49b4-9264-2cec72f06a79"},"vehicle_type_id":"4","last_reported":1735744160,"current_range_meters":33200,"station_id":"ce4bhah2rcd13ifvqei0","pricing_plan_id":"cebpf4jnsgd1na2vs0mg"},{"bike_id":"22ac9d2f-e9fd-411f-9366-adf1707b1b6e","system_id":"levelo_inurba_marseille","lat":43.28268,"lon":5.35072,"is_reserved":false,"is_disabled":false,"rental_uris":{"android":"levelo://app?vid=22ac9d2f-e9fd-411f-9366-adf1707b1b6e","ios":"levelo://app?vid=22ac9d2f-e9fd-411f-9366-adf1707b1b6e"},"vehicle_type_id":"4","last_reported":1735744160,"current_range_meters":7200,"station_id":"ce4bhbp2rcd13ifvqerg","pricing_plan_id":"cebpf4jnsgd1na2vs0mg"},{"bike_id":"ab16d1bd-cc5a-492f-a523-fcc0f6376cad","system_id":"levelo_inurba_marseille","lat":43.24069,"lon":5.37741,"is_reserved":false,"is_disabled":false,"rental_uris":{"android":"levelo://app?vid=ab16d1bd-cc5a-492f-a523-fcc0f6376cad","ios":"levelo://app?vid=ab16d1bd-cc5a-492f-a523-fcc0f6376cad"},"vehicle_type_id":"4","last_reported":1735744160,"current_range_meters":20000,"station_id":"ce4bhnp2rcd13ifvqgvg","pricing_plan_id":"cebpf4jnsgd1na2vs0mg"},{"bike_id":"d41d5945-5cc8-478b-aaaa-223a793c25f1","system_id":"levelo_inurba_marseille","lat":43.26062,"lon":5.39401,"is_reserved":false,"is_disabled":false,"rental_uris":{"android":"levelo://app?vid=d41d5945-5cc8-478b-aaaa-223a793c25f1","ios":"levelo://app?vid=d41d5945-5cc8-478b-aaaa-223a793c25f1"},"vehicle_type_id":"4","last_reported":1735744160,"current_range_meters":2800,"station_id":"ce4bhh92rcd13ifvqfj0","pricing_plan_id":"cebpf4jnsgd1na2vs0mg"},{"bike_id":"9bf2c934-e80a-4b69-9369-b6399c81de01","system_id":"levelo_inurba_marseille","lat":43.25111,"lon":5.40273,"is_reserved":false,"is_disabled":true,"rental_uris":{"android":"levelo://app?vid=9bf2c934-e80a-4b69-9369-b6399c81de01","ios":"levelo://app?vid=9bf2c934-e80a-4b69-9369-b6399c81de01"},"vehicle_type_id":"4","last_reported":1735744160,"current_range_meters":0,"station_id":"ce4bhlh2rcd13ifvqgig","pricing_plan_id":"cebpf4jnsgd1na2vs0mg"},{"bike_id":"8b41cb16-ffb6-4506-82e4-abc3540ebea7","system_id":"levelo_inurba_marseille","lat":43.27713,"lon":5.38901,"is_reserved":false,"is_disabled":false,"rental_uris":{"android":"levelo://app?vid=8b41cb16-ffb6-4506-82e4-abc3540ebea7","ios":"levelo://app?vid=8b41cb16-ffb6-4506-82e4-abc3540ebea7"},"vehicle_type_id":"4","last_reported":1735744160,"current_range_meters":21600,"station_id":"ce4bhi12rcd13ifvqfo0","pricing_plan_id":"cebpf4jnsgd1na2vs0mg"},{"bike_id":"b5f8e8bc-3dde-4c4f-b20e-a8e985a10d91","system_id":"levelo_inurba_marseille","lat":43.26945,"lon":5.38662,"is_reserved":false,"is_disabled":false,"rental_uris":{"android":"levelo://app?vid=b5f8e8bc-3dde-4c4f-b20e-a8e985a10d91","ios":"levelo://app?vid=b5f8e8bc-3dde-4c4f-b20e-a8e985a10d91"},"vehicle_type_id":"4","last_reported":1735744160,"current_range_meters":10000,"station_id":"ce4bhh92rcd13ifvqfh0","pricing_plan_id":"cebpf4jnsgd1na2vs0mg"},{"bike_id":"27bd59d7-03f3-45f2-ac96-f1fb492e65ff","system_id":"levelo_inurba_marseille","lat":43.30133,"lon":5.39855,"is_reserved":false,"is_disabled":false,"rental_uris":{"android":"levelo://app?vid=27bd59d7-03f3-45f2-ac96-f1fb492e65ff","ios":"levelo://app?vid=27bd59d7-03f3-45f2-ac96-f1fb492e65ff"},"vehicle_type_id":"4","last_reported":1735744160,"current_range_meters":38800,"station_id":"ce4bh0h2rcd13ifvqd40","pricing_plan_id":"cebpf4jnsgd1na2vs0mg"},{"bike_id":"da2f8da3-36c6-408e-a9f9-879c31a5935c","system_id":"levelo_inurba_marseille","lat":43.28159,"lon":5.42651,"is_reserved":false,"is_disabled":false,"rental_uris":{"android":"levelo://app?vid=da2f8da3-36c6-408e-a9f9-879c31a5935c","ios":"levelo://app?vid=da2f8da3-36c6-408e-a9f9-879c31a5935c"},"vehicle_type_id":"4","last_reported":1735744160,"current_range_meters":24000,"station_id":"ce4bhnh2rcd13ifvqgug","pricing_plan_id":"cebpf4jnsgd1na2vs0mg"},{"bike_id":"c14d1989-a72f-4241-a582-39661d0bcfcf","system_id":"levelo_inurba_marseille","lat":43.23198,"lon":5.35552,"is_reserved":false,"is_disabled":false,"rental_uris":{"android":"levelo://app?vid=c14d1989-a72f-4241-a582-39661d0bcfcf","ios":"levelo://app?vid=c14d1989-a72f-4241-a582-39661d0bcfcf"},"vehicle_type_id":"4","last_reported":1735744160,"current_range_meters":38800,"station_id":"ce4bhu92rcd13ifvqi70","pricing_plan_id":"cebpf4jnsgd1na2vs0mg"},{"bike_id":"ef72cdb4-465d-4178-b952-49906f159c48","system_id":"levelo_inurba_marseille","lat":43.28157,"lon":5.42647,"is_reserved":false,"is_disabled":false,"rental_uris":{"android":"levelo://app?vid=ef72cdb4-465d-4178-b952-49906f159c48","ios":"levelo://app?vid=ef72cdb4-465d-4178-b952-49906f159c48"},"vehicle_type_id":"4","last_reported":1735744160,"current_range_meters":30800,"station_id":"ce4bhnh2rcd13ifvqgug","pricing_plan_id":"cebpf4jnsgd1na2vs0mg"},{"bike_id":"a74c2d12-b57a-4ffa-b46f-df1bdb7d8918","system_id":"levelo_inurba_marseille","lat":43.230531,"lon":5.355043,"is_reserved":false,"is_disabled":false,"rental_uris":{"android":"levelo://app?vid=a74c2d12-b57a-4ffa-b46f-df1bdb7d8918","ios":"levelo://app?vid=a74c2d12-b57a-4ffa-b46f-df1bdb7d8918"},"vehicle_type_id":"4","last_reported":1735744160,"current_range_meters":38000,"station_id":"cpo3342slgdg3j2ifvpg","pricing_plan_id":"cebpf4jnsgd1na2vs0mg"},{"bike_id":"b6e50ce2-c263-43bc-9c92-fd5b8337c9d2","system_id":"levelo_inurba_marseille","lat":43.25106,"lon":5.40348,"is_reserved":false,"is_disabled":true,"rental_uris":{"android":"levelo://app?vid=b6e50ce2-c263-43bc-9c92-fd5b8337c9d2","ios":"levelo://app?vid=b6e50ce2-c263-43bc-9c92-fd5b8337c9d2"},"vehicle_type_id":"4","last_reported":1735744160,"current_range_meters":1600,"station_id":"ce4bhlh2rcd13ifvqgig","pricing_plan_id":"cebpf4jnsgd1na2vs0mg"},{"bike_id":"46841199-d2e2-4512-9805-58da3836adca","system_id":"levelo_inurba_marseille","lat":43.25106,"lon":5.40329,"is_reserved":false,"is_disabled":false,"rental_uris":{"android":"levelo://app?vid=46841199-d2e2-4512-9805-58da3836adca","ios":"levelo://app?vid=46841199-d2e2-4512-9805-58da3836adca"},"vehicle_type_id":"4","last_reported":1735744160,"current_range_meters":20800,"station_id":"ce4bhlh2rcd13ifvqgig","pricing_plan_id":"cebpf4jnsgd1na2vs0mg"},{"bike_id":"2dec4620-2eb1-4d35-995b-c851b3db828a","system_id":"levelo_inurba_marseille","lat":43.28468,"lon":5.3855,"is_reserved":false,"is_disabled":false,"rental_uris":{"android":"levelo://app?vid=2dec4620-2eb1-4d35-995b-c851b3db828a","ios":"levelo://app?vid=2dec4620-2eb1-4d35-995b-c851b3db828a"},"vehicle_type_id":"4","last_reported":1735744160,"current_range_meters":35600,"station_id":"ce4bh8p2rcd13ifvqeb0","pricing_plan_id":"cebpf4jnsgd1na2vs0mg"},{"bike_id":"2eba9c5a-c2cf-46ec-9894-0c9c02191391","system_id":"levelo_inurba_marseille","lat":43.27828,"lon":5.40712,"is_reserved":false,"is_disabled":false,"rental_uris":{"android":"levelo://app?vid=2eba9c5a-c2cf-46ec-9894-0c9c02191391","ios":"levelo://app?vid=2eba9c5a-c2cf-46ec-9894-0c9c02191391"},"vehicle_type_id":"4","last_reported":1735744160,"current_range_meters":23200,"station_id":"ce4bhnh2rcd13ifvqgtg","pricing_plan_id":"cebpf4jnsgd1na2vs0mg"},{"bike_id":"a2c981a9-118a-4e0c-9c91-df48407f1dcd","system_id":"levelo_inurba_marseille","lat":43.23064,"lon":5.35499,"is_reserved":false,"is_disabled":false,"rental_uris":{"android":"levelo://app?vid=a2c981a9-118a-4e0c-9c91-df48407f1dcd","ios":"levelo://app?vid=a2c981a9-118a-4e0c-9c91-df48407f1dcd"},"vehicle_type_id":"4","last_reported":1735744160,"current_range_meters":32000,"station_id":"cpo3342slgdg3j2ifvpg","pricing_plan_id":"cebpf4jnsgd1na2vs0mg"},{"bike_id":"d2c21f6d-7ea6-424f-87ba-0f43432b99dc","system_id":"levelo_inurba_marseille","lat":43.28112,"lon":5.37831,"is_reserved":false,"is_disabled":false,"rental_uris":{"android":"levelo://app?vid=d2c21f6d-7ea6-424f-87ba-0f43432b99dc","ios":"levelo://app?vid=d2c21f6d-7ea6-424f-87ba-0f43432b99dc"},"vehicle_type_id":"4","last_reported":1735744160,"current_range_meters":38800,"station_id":"ce4bha12rcd13ifvqee0","pricing_plan_id":"cebpf4jnsgd1na2vs0mg"},{"bike_id":"34535594-ceb9-4842-97f7-a9b9fbaa6b25","system_id":"levelo_inurba_marseille","lat":43.29617,"lon":5.37507,"is_reserved":false,"is_disabled":true,"rental_uris":{"android":"levelo://app?vid=34535594-ceb9-4842-97f7-a9b9fbaa6b25","ios":"levelo://app?vid=34535594-ceb9-4842-97f7-a9b9fbaa6b25"},"vehicle_type_id":"4","last_reported":1735744160,"current_range_meters":0,"station_id":"ce4bgh92rcd13ifvqb50","pricing_plan_id":"cebpf4jnsgd1na2vs0mg"},{"bike_id":"e09aa9e5-f6e1-42e3-8c1c-c2d9559ee969","system_id":"levelo_inurba_marseille","lat":43.31487,"lon":5.37317,"is_reserved":false,"is_disabled":false,"rental_uris":{"android":"levelo://app?vid=e09aa9e5-f6e1-42e3-8c1c-c2d9559ee969","ios":"levelo://app?vid=e09aa9e5-f6e1-42e3-8c1c-c2d9559ee969"},"vehicle_type_id":"4","last_reported":1735744160,"current_range_meters":22400,"station_id":"ce4bgt12rcd13ifvqcd0","pricing_plan_id":"cebpf4jnsgd1na2vs0mg"},{"bike_id":"919b650f-cda7-40c3-a1ab-6c5901cdc987","system_id":"levelo_inurba_marseille","lat":43.25886,"lon":5.39916,"is_reserved":false,"is_disabled":false,"rental_uris":{"android":"levelo://app?vid=919b650f-cda7-40c3-a1ab-6c5901cdc987","ios":"levelo://app?vid=919b650f-cda7-40c3-a1ab-6c5901cdc987"},"vehicle_type_id":"4","last_reported":1735744160,"current_range_meters":38400,"station_id":"ce4bhl92rcd13ifvqghg","pricing_plan_id":"cebpf4jnsgd1na2vs0mg"},{"bike_id":"b56366ea-626a-4378-b8bc-87adcc862e86","system_id":"levelo_inurba_marseille","lat":43.3155,"lon":5.38013,"is_reserved":false,"is_disabled":false,"rental_uris":{"android":"levelo://app?vid=b56366ea-626a-4378-b8bc-87adcc862e86","ios":"levelo://app?vid=b56366ea-626a-4378-b8bc-87adcc862e86"},"vehicle_type_id":"4","last_reported":1735744160,"current_range_meters":38800,"station_id":"ce4bhsp2rcd13ifvqi50","pricing_plan_id":"cebpf4jnsgd1na2vs0mg"},{"bike_id":"7c2082e1-23cf-4adb-adb1-c5c4e8761dbb","system_id":"levelo_inurba_marseille","lat":43.290367,"lon":5.359316,"is_reserved":false,"is_disabled":true,"rental_uris":{"android":"levelo://app?vid=7c2082e1-23cf-4adb-adb1-c5c4e8761dbb","ios":"levelo://app?vid=7c2082e1-23cf-4adb-adb1-c5c4e8761dbb"},"vehicle_type_id":"4","last_reported":1735744160,"current_range_meters":24800,"station_id":"ce4bha92rcd13ifvqeg0","pricing_plan_id":"cebpf4jnsgd1na2vs0mg"},{"bike_id":"ffafa3ee-52dc-40b9-ad12-7f89cbac4b6a","system_id":"levelo_inurba_marseille","lat":43.25111,"lon":5.40331,"is_reserved":false,"is_disabled":false,"rental_uris":{"android":"levelo://app?vid=ffafa3ee-52dc-40b9-ad12-7f89cbac4b6a","ios":"levelo://app?vid=ffafa3ee-52dc-40b9-ad12-7f89cbac4b6a"},"vehicle_type_id":"4","last_reported":1735744160,"current_range_meters":34800,"station_id":"ce4bhlh2rcd13ifvqgig","pricing_plan_id":"cebpf4jnsgd1na2vs0mg"},{"bike_id":"13a9cb8a-0f28-4655-9171-9a226e701240","system_id":"levelo_inurba_marseille","lat":43.32568,"lon":5.41424,"is_reserved":false,"is_disabled":false,"rental_uris":{"android":"levelo://app?vid=13a9cb8a-0f28-4655-9171-9a226e701240","ios":"levelo://app?vid=13a9cb8a-0f28-4655-9171-9a226e701240"},"vehicle_type_id":"4","last_reported":1735744160,"current_range_meters":38800,"station_id":"ce4bhq12rcd13ifvqhhg","pricing_plan_id":"cebpf4jnsgd1na2vs0mg"},{"bike_id":"ec7a211b-214b-45fa-863d-f5cf970356eb","system_id":"levelo_inurba_marseille","lat":43.23184,"lon":5.39994,"is_reserved":false,"is_disabled":false,"rental_uris":{"android":"levelo://app?vid=ec7a211b-214b-45fa-863d-f5cf970356eb","ios":"levelo://app?vid=ec7a211b-214b-45fa-863d-f5cf970356eb"},"vehicle_type_id":"4","last_reported":1735744160,"current_range_meters":38800,"station_id":"ce4bhn12rcd13ifvqgqg","pricing_plan_id":"cebpf4jnsgd1na2vs0mg"},