{"last_updated":1773383878,"ttl":60,"version":"2.2","data":{"bikes":[{"bike_id":"58cacd03-0439-4072-bc98-59df65301e8a","system_id":"levelo_inurba_marseille","lat":43.28617,"lon":5.39877,"is_reserved":false,"is_disabled":false,"rental_uris":{"android":"levelo://app?vid=58cacd03-0439-4072-bc98-59df65301e8a","ios":"levelo://app?vid=58cacd03-0439-4072-bc98-59df65301e8a"},"vehicle_type_id":"4","last_reported":1773383878,"current_range_meters":36800,"station_id":"st_d4a7ka997mjs738ck50g","pricing_plan_id":"cebpf4jnsgd1na2vs0mg"},{"bike_id":"7834211e-38cb-4363-b6fb-db50e39ad4bc","system_id":"levelo_inurba_marseille","lat":43.28616,"lon":5.39853,"is_reserved":false,"is_disabled":false,"rental_uris":{"android":"levelo://app?vid=7834211e-38cb-4363-b6fb-db50e39ad4bc","ios":"levelo://app?vid=7834211e-38cb-4363-b6fb-db50e39ad4bc"},"vehicle_type_id":"4","last_reported":1773383878,"current_range_meters":36000,"station_id":"st_d4a7ka997mjs738ck50g","pricing_plan_id":"cebpf4jnsgd1na2vs0mg"},{"bike_id":"f4910a2a-2e43-4dbb-bc55-3e96f2047ffb","system_id":"levelo_inurba_marseille","lat":43.28582,"lon":5.39929,"is_reserved":false,"is_disabled":false,"rental_uris":{"android":"levelo://app?vid=f4910a2a-2e43-4dbb-bc55-3e96f2047ffb","ios":"levelo://app?vid=f4910a2a-2e43-4dbb-bc55-3e96f2047ffb"},"vehicle_type_id":"4","last_reported":1773383878,"current_range_meters":35600,"station_id":"st_d4a7ka997mjs738ck50g","pricing_plan_id":"cebpf4jnsgd1na2vs0mg"},{"bike_id":"a8023079-6eae-4dae-acf4-72e8f328b37c","system_id":"levelo_inurba_marseille","lat":43.28612,"lon":5.39898,"is_reserved":false,"is_disabled":false,"rental_uris":{"android":"levelo://app?vid=a8023079-6eae-4dae-acf4-72e8f328b37c","ios":"levelo://app?vid=a8023079-6eae-4dae-acf4-72e8f328b37c"},"vehicle_type_id":"4","last_reported":1773383878,"current_range_meters":36000,"station_id":"st_d4a7ka997mjs738ck50g","pricing_plan_id":"cebpf4jnsgd1na2vs0mg"},{"bike_id":"00f526f3-432a-4f33-93ee-ceb062811237","system_id":"levelo_inurba_marseille","lat":43.28614,"lon":5.39864,"is_reserved":false,"is_disabled":false,"rental_uris":{"android":"levelo://app?vid=00f526f3-432a-4f33-93ee-ceb062811237","ios":"levelo://app?vid=00f526f3-432a-4f33-93ee-ceb062811237"},"vehicle_type_id":"4","last_reported":1773383878,"current_range_meters":38400,"station_id":"st_d4a7ka997mjs738ck50g","pricing_plan_id":"cebpf4jnsgd1na2vs0mg"},{"bike_id":"a4d0a3f3-786c-49ef-9bc0-ff30489937b0","system_id":"levelo_inurba_marseille","lat":43.28614,"lon":5.39878,"is_reserved":false,"is_disabled":false,"rental_uris":{"android":"levelo://app?vid=a4d0a3f3-786c-49ef-9bc0-ff30489937b0","ios":"levelo://app?vid=a4d0a3f3-786c-49ef-9bc0-ff30489937b0"},"vehicle_type_id":"4","last_reported":1773383878,"current_range_meters":35200,"station_id":"st_d4a7ka997mjs738ck50g","pricing_plan_id":"cebpf4jnsgd1na2vs0mg"},{"bike_id":"19691a7e-d227-4f2f-9137-873d9a39eff4","system_id":"levelo_inurba_marseille","lat":43.23143,"lon":5.43725,"is_reserved":false,"is_disabled":false,"rental_uris":{"android":"levelo://app?vid=19691a7e-d227-4f2f-9137-873d9a39eff4","ios":"levelo://app?vid=19691a7e-d227-4f2f-9137-873d9a39eff4"},"vehicle_type_id":"4","last_reported":1773383878,"current_range_meters":38000,"station_id":"ce4bhmp2rcd13ifvqgog","pricing_plan_id":"cebpf4jnsgd1na2vs0mg"},{"bike_id":"ebf75af1-c1e1-4ab4-be7a-03ecdd2c2597","system_id":"levelo_inurba_marseille","lat":43.31048,"lon":5.37173,"is_reserved":false,"is_disabled":false,"rental_uris":{"android":"levelo://app?vid=ebf75af1-c1e1-4ab4-be7a-03ecdd2c2597","ios":"levelo://app?vid=ebf75af1-c1e1-4ab4-be7a-03ecdd2c2597"},"vehicle_type_id":"4","last_reported":1773383878,"current_range_meters":35600,"station_id":"st_d4kl2rp97mjs73e7tdfg","pricing_plan_id":"cebpf4jnsgd1na2vs0mg"},{"bike_id":"86416b53-51a0-4cbe-9ee2-dfe09b3bcc79","system_id":"levelo_inurba_marseille","lat":43.31024,"lon":5.37196,"is_reserved":false,"is_disabled":false,"rental_uris":{"android":"levelo://app?vid=86416b53-51a0-4cbe-9ee2-dfe09b3bcc79","ios":"levelo://app?vid=86416b53-51a0-4cbe-9ee2-dfe09b3bcc79"},"vehicle_type_id":"4","last_reported":1773383878,"current_range_meters":36400,"station_id":"st_d4kl2rp97mjs73e7tdfg","pricing_plan_id":"cebpf4jnsgd1na2vs0mg"},{"bike_id":"51d02c11-617e-4c73-a65d-561ee346ae17","system_id":"levelo_inurba_marseille","lat":43.23151,"lon":5.43716,"is_reserved":false,"is_disabled":false,"rental_uris":{"android":"levelo://app?vid=51d02c11-617e-4c73-a65d-561ee346ae17","ios":"levelo://app?vid=51d02c11-617e-4c73-a65d-561ee346ae17"},"vehicle_type_id":"4","last_reported":1773383878,"current_range_meters":36400,"station_id":"ce4bhmp2rcd13ifvqgog","pricing_plan_id":"cebpf4jnsgd1na2vs0mg"},{"bike_id":"fb0917ca-b860-4570-9fd5-06282ab6a937","system_id":"levelo_inurba_marseille","lat":43.23133,"lon":5.43716,"is_reserved":false,"is_disabled":false,"rental_uris":{"android":"levelo://app?vid=fb0917ca-b860-4570-9fd5-06282ab6a937","ios":"levelo://app?vid=fb0917ca-b860-4570-9fd5-06282ab6a937"},"vehicle_type_id":"4","last_reported":1773383878,"current_range_meters":36000,"station_id":"ce4bhmp2rcd13ifvqgog","pricing_plan_id":"cebpf4jnsgd1na2vs0mg"},{"bike_id":"55a0a219-867d-471b-a6ab-40e326ecedde","system_id":"levelo_inurba_marseille","lat":43.24447,"lon":5.42558,"is_reserved":false,"is_disabled":false,"rental_uris":{"android":"levelo://app?vid=55a0a219-867d-471b-a6ab-40e326ecedde","ios":"levelo://app?vid=55a0a219-867d-471b-a6ab-40e326ecedde"},"vehicle_type_id":"4","last_reported":1773383878,"current_range_meters":36400,"station_id":"st_d4a3vfp97mjs738cd8kg","pricing_plan_id":"cebpf4jnsgd1na2vs0mg"},{"bike_id":"dbcd0d5d-c925-42ce-8639-98c254a6f766","system_id":"levelo_inurba_marseille","lat":43.31012,"lon":5.37183,"is_reserved":false,"is_disabled":false,"rental_uris":{"android":"levelo://app?vid=dbcd0d5d-c925-42ce-8639-98c254a6f766","ios":"levelo://app?vid=dbcd0d5d-c925-42ce-8639-98c254a6f766"},"vehicle_type_id":"4","last_reported":1773383878,"current_range_meters":36400,"station_id":"st_d4kl2rp97mjs73e7tdfg","pricing_plan_id":"cebpf4jnsgd1na2vs0mg"},{"bike_id":"1d86ecaf-4457-4eee-b8e3-ae7bbd3c34e6","system_id":"levelo_inurba_marseille","lat":43.31095,"lon":5.37193,"is_reserved":false,"is_disabled":false,"rental_uris":{"android":"levelo://app?vid=1d86ecaf-4457-4eee-b8e3-ae7bbd3c34e6","ios":"levelo://app?vid=1d86ecaf-4457-4eee-b8e3-ae7bbd3c34e6"},"vehicle_type_id":"4","last_reported":1773383878,"current_range_meters":36400,"station_id":"st_d4kl2rp97mjs73e7tdfg","pricing_plan_id":"cebpf4jnsgd1na2vs0mg"},{"bike_id":"895e7cf9-4cb2-4dc3-aec9-fd7326baacbe","system_id":"levelo_inurba_marseille","lat":43.31049,"lon":5.37209,"is_reserved":false,"is_disabled":false,"rental_uris":{"android":"levelo://app?vid=895e7cf9-4cb2-4dc3-aec9-fd7326baacbe","ios":"levelo://app?vid=895e7cf9-4cb2-4dc3-aec9-fd7326baacbe"},"vehicle_type_id":"4","last_reported":1773383878,"current_range_meters":36400,"station_id":"st_d4kl2rp97mjs73e7tdfg","pricing_plan_id":"cebpf4jnsgd1na2vs0mg"},{"bike_id":"c1e18796-ccf6-47fb-9411-4f27272cf92b","system_id":"levelo_inurba_marseille","lat":43.31058,"lon":5.37165,"is_reserved":false,"is_disabled":false,"rental_uris":{"android":"levelo://app?vid=c1e18796-ccf6-47fb-9411-4f27272cf92b","ios":"levelo://app?vid=c1e18796-ccf6-47fb-9411-4f27272cf92b"},"vehicle_type_id":"4","last_reported":1773383878,"current_range_meters":36400,"station_id":"st_d4kl2rp97mjs73e7tdfg","pricing_plan_id":"cebpf4jnsgd1na2vs0mg"},{"bike_id":"3c9137a1-6c00-443f-ae3a-363e58035aa8","system_id":"levelo_inurba_marseille","lat":43.31086,"lon":5.37167,"is_reserved":false,"is_disabled":false,"rental_uris":{"android":"levelo://app?vid=3c9137a1-6c00-443f-ae3a-363e58035aa8","ios":"levelo://app?vid=3c9137a1-6c00-443f-ae3a-363e58035aa8"},"vehicle_type_id":"4","last_reported":1773383878,"current_range_meters":35200,"station_id":"st_d4kl2rp97mjs73e7tdfg","pricing_plan_id":"cebpf4jnsgd1na2vs0mg"},{"bike_id":"c5f8db76-81c5-4830-8fdb-99bfa9447012","system_id":"levelo_inurba_marseille","lat":43.31037,"lon":5.37174,"is_reserved":false,"is_disabled":false,"rental_uris":{"android":"levelo://app?vid=c5f8db76-81c5-4830-8fdb-99bfa9447012","ios":"levelo://app?vid=c5f8db76-81c5-4830-8fdb-99bfa9447012"},"vehicle_type_id":"4","last_reported":1773383878,"current_range_meters":35200,"station_id":"st_d4kl2rp97mjs73e7tdfg","pricing_plan_id":"cebpf4jnsgd1na2vs0mg"},{"bike_id":"304b29c4-8f44-41cf-bd09-f8fd0c552edb","system_id":"levelo_inurba_marseille","lat":43.31073,"lon":5.37192,"is_reserved":false,"is_disabled":false,"rental_uris":{"android":"levelo://app?vid=304b29c4-8f44-41cf-bd09-f8fd0c552edb","ios":"levelo://app?vid=304b29c4-8f44-41cf-bd09-f8fd0c552edb"},"vehicle_type_id":"4","last_reported":1773383878,"current_range_meters":38400,"station_id":"st_d4kl2rp97mjs73e7tdfg","pricing_plan_id":"cebpf4jnsgd1na2vs0mg"},{"bike_id":"1e6a07f9-7fa6-46a4-988c-e94c6c8c37f9","system_id":"levelo_inurba_marseille","lat":43.31031,"lon":5.37167,"is_reserved":false,"is_disabled":false,"rental_uris":{"android":"levelo://app?vid=1e6a07f9-7fa6-46a4-988c-e94c6c8c37f9","ios":"levelo://app?vid=1e6a07f9-7fa6-46a4-988c-e94c6c8c37f9"},"vehicle_type_id":"4","last_reported":1773383878,"current_range_meters":36000,"station_id":"st_d4kl2rp97mjs73e7tdfg","pricing_plan_id":"cebpf4jnsgd1na2vs0mg"},{"bike_id":"590b0909-9802-40a2-9e13-833c2b2b0978","system_id":"levelo_inurba_marseille","lat":43.3104,"lon":5.37163,"is_reserved":false,"is_disabled":false,"rental_uris":{"android":"levelo://app?vid=590b0909-9802-40a2-9e13-833c2b2b0978","ios":"levelo://app?vid=590b0909-9802-40a2-9e13-833c2b2b0978"},"vehicle_type_id":"4","last_reported":1773383878,"current_range_meters":36000,"station_id":"st_d4kl2rp97mjs73e7tdfg","pricing_plan_id":"cebpf4jnsgd1na2vs0mg"},{"bike_id":"e4a85c6f-5e00-47db-bb03-492e95854bfe","system_id":"levelo_inurba_marseille","lat":43.31066,"lon":5.3717,"is_reserved":false,"is_disabled":false,"rental_uris":{"android":"levelo://app?vid=e4a85c6f-5e00-47db-bb03-492e95854bfe","ios":"levelo://app?vid=e4a85c6f-5e00-47db-bb03-492e95854bfe"},"vehicle_type_id":"4","last_reported":1773383878,"current_range_meters":38000,"station_id":"st_d4kl2rp97mjs73e7tdfg","pricing_plan_id":"cebpf4jnsgd1na2vs0mg"},{"bike_id":"d6f1212f-f3aa-4e17-8c12-a64161696f16","system_id":"levelo_inurba_marseille","lat":43.31014,"lon":5.37159,"is_reserved":false,"is_disabled":false,"rental_uris":{"android":"levelo://app?vid=d6f1212f-f3aa-4e17-8c12-a64161696f16","ios":"levelo://app?vid=d6f1212f-f3aa-4e17-8c12-a64161696f16"},"vehicle_type_id":"4","last_reported":1773383878,"current_range_meters":36000,"station_id":"st_d4kl2rp97mjs73e7tdfg","pricing_plan_id":"cebpf4jnsgd1na2vs0mg"},{"bike_id":"f8859008-76ae-4d29-a566-36c686b68670","system_id":"levelo_inurba_marseille","lat":43.31084,"lon":5.37168,"is_reserved":false,"is_disabled":false,"rental_uris":{"android":"levelo://app?vid=f8859008-76ae-4d29-a566-36c686b68670","ios":"levelo://app?vid=f8859008-76ae-4d29-a566-36c686b68670"},"vehicle_type_id":"4","last_reported":1773383878,"current_range_meters":35600,"station_id":"st_d4kl2rp97mjs73e7tdfg","pricing_plan_id":"cebpf4jnsgd1na2vs0mg"},{"bike_id":"3b938f8e-96f8-4030-897a-7218da21175b","system_id":"levelo_inurba_marseille","lat":43.29922,"lon":5.36538,"is_reserved":false,"is_disabled":false,"rental_uris":{"android":"levelo://app?vid=3b938f8e-96f8-4030-897a-7218da21175b","ios":"levelo://app?vid=3b938f8e-96f8-4030-897a-7218da21175b"},"vehicle_type_id":"4","last_reported":1773383878,"current_range_meters":27600,"station_id":"ce4bgm92rcd13ifvqbr0","pricing_plan_id":"cebpf4jnsgd1na2vs0mg"},{"bike_id":"08388fc8-bef4-4cc5-abad-af207705226c","system_id":"levelo_inurba_marseille","lat":43.28436,"lon":5.39179,"is_reserved":false,"is_disabled":false,"rental_uris":{"android":"levelo://app?vid=08388fc8-bef4-4cc5-abad-af207705226c","ios":"levelo://app?vid=08388fc8-bef4-4cc5-abad-af207705226c"},"vehicle_type_id":"4","last_reported":1773383878,"current_range_meters":39200,"station_id":"ce4bhoh2rcd13ifvqh5g","pricing_plan_id":"cebpf4jnsgd1na2vs0mg"},{"bike_id":"e0785fb2-fef1-45f8-a7c1-2d0833114d78","system_id":"levelo_inurba_marseille","lat":43.2845,"lon":5.39185,"is_reserved":false,"is_disabled":false,"rental_uris":{"android":"levelo://app?vid=e0785fb2-fef1-45f8-a7c1-2d0833114d78","ios":"levelo://app?vid=e0785fb2-fef1-45f8-a7c1-2d0833114d78"},"vehicle_type_id":"4","last_reported":1773383878,"current_range_meters":32800,"station_id":"ce4bhoh2rcd13ifvqh5g","pricing_plan_id":"cebpf4jnsgd1na2vs0mg"},{"bike_id":"0c0089e7-1a1e-46a0-9bbc-b3db79f60db5","system_id":"levelo_inurba_marseille","lat":43.27372,"lon":5.36247,"is_reserved":false,"is_disabled":false,"rental_uris":{"android":"levelo://app?vid=0c0089e7-1a1e-46a0-9bbc-b3db79f60db5","ios":"levelo://app?vid=0c0089e7-1a1e-46a0-9bbc-b3db79f60db5"},"vehicle_type_id":"4","last_reported":1773383878,"current_range_meters":39200,"station_id":"ce4bhbh2rcd13ifvqeo0","pricing_plan_id":"cebpf4jnsgd1na2vs0mg"},{"bike_id":"e6c28956-af86-4980-8f31-9cf89113a465","system_id":"levelo_inurba_marseille","lat":43.25334,"lon":5.42193,"is_reserved":false,"is_disabled":false,"rental_uris":{"android":"levelo://app?vid=e6c28956-af86-4980-8f31-9cf89113a465","ios":"levelo://app?vid=e6c28956-af86-4980-8f31-9cf89113a465"},"vehicle_type_id":"4","last_reported":1773383878,"current_range_meters":30800,"station_id":"st_d2m65c5bi1j21697t3ng","pricing_plan_id":"cebpf4jnsgd1na2vs0mg"},{"bike_id":"7ffa041c-bc7f-4159-90b7-8ee18db551ca","system_id":"levelo_inurba_marseille","lat":43.29954,"lon":5.3731,"is_reserved":false,"is_disabled":false,"rental_uris":{"android":"levelo://app?vid=7ffa041c-bc7f-4159-90b7-8ee18db551ca","ios":"levelo://app?vid=7ffa041c-bc7f-4159-90b7-8ee18db551ca"},"vehicle_type_id":"4","last_reported":1773383878,"current_range_meters":10800,"station_id":"","pricing_plan_id":"cebpf4jnsgd1na2vs0mg"},{"bike_id":"6a7c3f1d-0e67-49ff-920f-cde0f1d8c4ac","system_id":"levelo_inurba_marseille","lat":43.28621,"lon":5.35098,"is_reserved":false,"is_disabled":false,"rental_uris":{"android":"levelo://app?vid=6a7c3f1d-0e67-49ff-920f-cde0f1d8c4ac","ios":"levelo://app?vid=6a7c3f1d-0e67-49ff-920f-cde0f1d8c4ac"},"vehicle_type_id":"4","last_reported":1773383878,"current_range_meters":9600,"station_id":"ce4bhch2rcd13ifvqeug","pricing_plan_id":"cebpf4jnsgd1na2vs0mg"},{"bike_id":"a3fc7e36-8b65-460d-b484-5cc369f64010","system_id":"levelo_inurba_marseille","lat":43.30812,"lon":5.3813,"is_reserved":false,"is_disabled":false,"rental_uris":{"android":"levelo://app?vid=a3fc7e36-8b65-460d-b484-5cc369f64010","ios":"levelo://app?vid=a3fc7e36-8b65-460d-b484-5cc369f64010"},"vehicle_type_id":"4","last_reported":1773383878,"current_range_meters":39200,"station_id":"ce4bgt12rcd13ifvqce0","pricing_plan_id":"cebpf4jnsgd1na2vs0mg"},{"bike_id":"7f540cea-4fe6-43fd-89ad-1cc69f41725b","system_id":"levelo_inurba_marseille","lat":43.23191,"lon":5.39996,"is_reserved":false,"is_disabled":false,"rental_uris":{"android":"levelo://app?vid=7f540cea-4fe6-43fd-89ad-1cc69f41725b","ios":"levelo://app?vid=7f540cea-4fe6-43fd-89ad-1cc69f41725b"},"vehicle_type_id":"4","last_reported":1773383878,"current_range_meters":23200,"station_id":"ce4bhn12rcd13ifvqgqg","pricing_plan_id":"cebpf4jnsgd1na2vs0mg"},{"bike_id":"ae540bed-ed3b-4247-abad-fe29acd1fb3e","system_id":"levelo_inurba_marseille","lat":43.3298,"lon":5.39046,"is_reserved":false,"is_disabled":false,"rental_uris":{"android":"levelo://app?vid=ae540bed-ed3b-4247-abad-fe29acd1fb3e","ios":"levelo://app?vid=ae540bed-ed3b-4247-abad-fe29acd1fb3e"},"vehicle_type_id":"4","last_reported":1773383878,"current_range_meters":38400,"station_id":"ce4bhr92rcd13ifvqhrg","pricing_plan_id":"cebpf4jnsgd1na2vs0mg"},{"bike_id":"18f35d94-7133-4b4b-a629-0bec9d48af36","system_id":"levelo_inurba_marseille","lat":43.28479,"lon":5.48389,"is_reserved":false,"is_disabled":false,"rental_uris":{"android":"levelo://app?vid=18f35d94-7133-4b4b-a629-0bec9d48af36","ios":"levelo://app?vid=18f35d94-7133-4b4b-a629-0bec9d48af36"},"vehicle_type_id":"4","last_reported":1773383878,"current_range_meters":28800,"station_id":"","pricing_plan_id":"cebpf4jnsgd1na2vs0mg"},{"bike_id":"b2399a9f-a598-463b-80a6-f3cff6f3600d","system_id":"levelo_inurba_marseille","lat":43.30349,"lon":5.36859,"is_reserved":false,"is_disabled":false,"rental_uris":{"android":"levelo://app?vid=b2399a9f-a598-463b-80a6-f3cff6f3600d","ios":"levelo://app?vid=b2399a9f-a598-463b-80a6-f3cff6f3600d"},"vehicle_type_id":"4","last_reported":1773383878,"current_range_meters":28400,"station_id":"","pricing_plan_id":"cebpf4jnsgd1na2vs0mg"},{"bike_id":"1bc7de5a-f0ef-4717-8bda-a2605c551976","system_id":"levelo_inurba_marseille","lat":43.30601,"lon":5.37224,"is_reserved":false,"is_disabled":false,"rental_uris":{"android":"levelo://app?vid=1bc7de5a-f0ef-4717-8bda-a2605c551976","ios":"levelo://app?vid=1bc7de5a-f0ef-4717-8bda-a2605c551976"},"vehicle_type_id":"4","last_reported":1773383878,"current_range_meters":39200,"station_id":"ce4bgqh2rcd13ifvqc4g","pricing_plan_id":"cebpf4jnsgd1na2vs0mg"},{"bike_id":"db332040-2318-4778-92d4-149a01cc5c86","system_id":"levelo_inurba_marseille","lat":43.28937,"lon":5.36635,"is_reserved":false,"is_disabled":false,"rental_uris":{"android":"levelo://app?vid=db332040-2318-4778-92d4-149a01cc5c86","ios":"levelo://app?vid=db332040-2318-4778-92d4-149a01cc5c86"},"vehicle_type_id":"4","last_reported":1773383878,"current_range_meters":38800,"station_id":"ce4bhap2rcd13ifvqek0","pricing_plan_id":"cebpf4jnsgd1na2vs0mg"},{"bike_id":"7db92065-fd6e-4014-982f-daf9b3e1e88d","system_id":"levelo_inurba_marseille","lat":43.25827,"lon":5.39418,"is_reserved":false,"is_disabled":false,"rental_uris":{"android":"levelo://app?vid=7db92065-fd6e-4014-982f-daf9b3e1e88d","ios":"levelo://app?vid=7db92065-fd6e-4014-982f-daf9b3e1e88d"},"vehicle_type_id":"4","last_reported":1773383878,"current_range_meters":20000,"station_id":"ce4bhip2rcd13ifvqft0","pricing_plan_id":"cebpf4jnsgd1na2vs0mg"},{"bike_id":"f19c48d5-93f4-4579-b503-733662f8238a","system_id":"levelo_inurba_marseille","lat":43.31889,"lon":5.40729,"is_reserved":false,"is_disabled":false,"rental_uris":{"android":"levelo://app?vid=f19c48d5-93f4-4579-b503-733662f8238a","ios":"levelo://app?vid=f19c48d5-93f4-4579-b503-733662f8238a"},"vehicle_type_id":"4","last_reported":1773383878,"current_range_meters":39200,"station_id":"ce4bhq12rcd13ifvqhig","pricing_plan_id":"cebpf4jnsgd1na2vs0mg"},{"bike_id":"719dd5d1-4073-4234-bc7a-0bf26d776817","system_id":"levelo_inurba_marseille","lat":43.34154,"lon":5.40899,"is_reserved":false,"is_disabled":false,"rental_uris":{"android":"levelo://app?vid=719dd5d1-4073-4234-bc7a-0bf26d776817","ios":"levelo://app?vid=719dd5d1-4073-4234-bc7a-0bf26d776817"},"vehicle_type_id":"4","last_reported":1773383878,"current_range_meters":38800,"station_id":"ce4bhqh2rcd13ifvqhlg","pricing_plan_id":"cebpf4jnsgd1na2vs0mg"},{"bike_id":"cd8466b1-489f-4951-ad3b-89c96a996177","system_id":"levelo_inurba_marseille","lat":43.29918,"lon":5.37464,"is_reserved":false,"is_disabled":false,"rental_uris":{"android":"levelo://app?vid=cd8466b1-489f-4951-ad3b-89c96a996177","ios":"levelo://app?vid=cd8466b1-489f-4951-ad3b-89c96a996177"},"vehicle_type_id":"4","last_reported":1773383878,"current_range_meters":38000,"station_id":"ce4bgjh2rcd13ifvqbg0","pricing_plan_id":"cebpf4jnsgd1na2vs0mg"},{"bike_id":"21ebfc21-6686-4f1f-ba42-dedc008b4317","system_id":"levelo_inurba_marseille","lat":43.29861,"lon":5.3743,"is_reserved":false,"is_disabled":false,"rental_uris":{"android":"levelo://app?vid=21ebfc21-6686-4f1f-ba42-dedc008b4317","ios":"levelo://app?vid=21ebfc21-6686-4f1f-ba42-dedc008b4317"},"vehicle_type_id":"4","last_reported":1773383878,"current_range_meters":32400,"station_id":"","pricing_plan_id":"cebpf4jnsgd1na2vs0mg"},{"bike_id":"955e7c82-f59f-447f-ba8d-054ac8fac797","system_id":"levelo_inurba_marseille","lat":43.28074,"lon":5.39642,"is_reserved":false,"is_disabled":false,"rental_uris":{"android":"levelo://app?vid=955e7c82-f59f-447f-ba8d-054ac8fac797","ios":"levelo://app?vid=955e7c82-f59f-447f-ba8d-054ac8fac797"},"vehicle_type_id":"4","last_reported":1773383878,"current_range_meters":39200,"station_id":"ce4bho12rcd13ifvqh2g","pricing_plan_id":"cebpf4jnsgd1na2vs0mg"},{"bike_id":"8a15c9fd-a2fb-4c10-b6dd-366aa92b1d08","system_id":"levelo_inurba_marseille","lat":43.29601,"lon":5.38091,"is_reserved":false,"is_disabled":true,"rental_uris":{"android":"levelo://app?vid=8a15c9fd-a2fb-4c10-b6dd-366aa92b1d08","ios":"levelo://app?vid=8a15c9fd-a2fb-4c10-b6dd-366aa92b1d08"},"vehicle_type_id":"4","last_reported":1773383878,"current_range_meters":12800,"station_id":"ce4bgl12rcd13ifvqbo0","pricing_plan_id":"cebpf4jnsgd1na2vs0mg"},{"bike_id":"6ce6bc7e-4959-45b9-bda0-88b32a35e3f9","system_id":"levelo_inurba_marseille","lat":43.25861,"lon":5.39908,"is_reserved":false,"is_disabled":false,"rental_uris":{"android":"levelo://app?vid=6ce6bc7e-4959-45b9-bda0-88b32a35e3f9","ios":"levelo://app?vid=6ce6bc7e-4959-45b9-bda0-88b32a35e3f9"},"vehicle_type_id":"4","last_reported":1773383878,"current_range_meters":22800,"station_id":"ce4bhl92rcd13ifvqghg","pricing_plan_id":"cebpf4jnsgd1na2vs0mg"},{"bike_id":"18c095c8-a0f0-45fb-a0b2-db8fb3a5e8c5","system_id":"levelo_inurba_marseille","lat":43.28388,"lon":5.3862,"is_reserved":false,"is_disabled":false,"rental_uris":{"android":"levelo://app?vid=18c095c8-a0f0-45fb-a0b2-db8fb3a5e8c5","ios":"levelo://app?vid=18c095c8-a0f0-45fb-a0b2-db8fb3a5e8c5"},"vehicle_type_id":"4","last_reported":1773383878,"current_range_meters":33200,"station_id":"ce4bh492rcd13ifvqdvg","pricing_plan_id":"cebpf4jnsgd1na2vs0mg"},{"bike_id":"c61bd972-5337-4c67-ab1b-d532ad7c339c","system_id":"levelo_inurba_marseille","lat":43.25568,"lon":5.38251,"is_reserved":false,"is_disabled":true,"rental_uris":{"android":"levelo://app?vid=c61bd972-5337-4c67-ab1b-d532ad7c339c","ios":"levelo://app?vid=c61bd972-5337-4c67-ab1b-d532ad7c339c"},"vehicle_type_id":"4","last_reported":1773383878,"current_range_meters":8400,"station_id":"ce4bhih2rcd13ifvqfs0","pricing_plan_id":"cebpf4jnsgd1na2vs0mg"},{"bike_id":"66105ee4-0a9e-4c05-8158-30d639ec9f09","system_id":"levelo_inurba_marseille","lat":43.28398,"lon":5.39255,"is_reserved":false,"is_disabled":false,"rental_uris":{"android":"levelo://app?vid=66105ee4-0a9e-4c05-8158-30d639ec9f09","ios":"levelo://app?vid=66105ee4-0a9e-4c05-8158-30d639ec9f09"},"vehicle_type_id":"4","last_reported":1773383878,"current_range_meters":39200,"station_id":"ce4bhoh2rcd13ifvqh5g","pricing_plan_id":"cebpf4jnsgd1na2vs0mg"},{"bike_id":"761d040e-c5a5-441f-9c51-b13ba1faf964","system_id":"levelo_inurba_marseille","lat":43.2921,"lon":5.3932,"is_reserved":false,"is_disabled":false,"rental_uris":{"android":"levelo://app?vid=761d040e-c5a5-441f-9c51-b13ba1faf964","ios":"levelo://app?vid=761d040e-c5a5-441f-9c51-b13ba1faf964"},"vehicle_type_id":"4","last_reported":1773383878,"current_range_meters":38800,"station_id":"ce4bh192rcd13ifvqdd0","pricing_plan_id":"cebpf4jnsgd1na2vs0mg"},{"bike_id":"480a954f-db3c-4cd5-acb5-179ba9006c67","system_id":"levelo_inurba_marseille","lat":43.28525,"lon":5.44124,"is_reserved":false,"is_disabled":false,"rental_uris":{"android":"levelo://app?vid=480a954f-db3c-4cd5-acb5-179ba9006c67","ios":"levelo://app?vid=480a954f-db3c-4cd5-acb5-179ba9006c67"},"vehicle_type_id":"4","last_reported":1773383878,"current_range_meters":33200,"station_id":"st_d3j3df2ikq2c7380ej80","pricing_plan_id":"cebpf4jnsgd1na2vs0mg"},{"bike_id":"196cd20c-58cf-4336-8acd-ad13b5d67dbc","system_id":"levelo_inurba_marseille","lat":43.2415,"lon":5.36404,"is_reserved":false,"is_disabled":false,"rental_uris":{"android":"levelo://app?vid=196cd20c-58cf-4336-8acd-ad13b5d67dbc","ios":"levelo://app?vid=196cd20c-58cf-4336-8acd-ad13b5d67dbc"},"vehicle_type_id":"4","last_reported":1773383878,"current_range_meters":28000,"station_id":"cpo36qri1sfpv3e86is0","pricing_plan_id":"cebpf4jnsgd1na2vs0mg"},{"bike_id":"1cf06faf-0211-4a86-bffe-8e533567710b","system_id":"levelo_inurba_marseille","lat":43.24951,"lon":5.40494,"is_reserved":false,"is_disabled":false,"rental_uris":{"android":"levelo://app?vid=1cf06faf-0211-4a86-bffe-8e533567710b","ios":"levelo://app?vid=1cf06faf-0211-4a86-bffe-8e533567710b"},"vehicle_type_id":"4","last_reported":1773383878,"current_range_meters":21600,"station_id":"st_d2ngiaodas8pm72gd1h0","pricing_plan_id":"cebpf4jnsgd1na2vs0mg"},{"bike_id":"e1dc5b4f-20dc-42aa-8c51-825da9398896","system_id":"levelo_inurba_marseille","lat":43.29525,"lon":5.39051,"is_reserved":false,"is_disabled":false,"rental_uris":{"android":"levelo://app?vid=e1dc5b4f-20dc-42aa-8c51-825da9398896","ios":"levelo://app?vid=e1dc5b4f-20dc-42aa-8c51-825da9398896"},"vehicle_type_id":"4","last_reported":1773383878,"current_range_meters":38000,"station_id":"ce4bh3p2rcd13ifvqdp0","pricing_plan_id":"cebpf4jnsgd1na2vs0mg"},{"bike_id":"55876044-873b-488c-8b29-c127a5b0498d","system_id":"levelo_inurba_marseille","lat":43.27813,"lon":5.4073,"is_reserved":false,"is_disabled":false,"rental_uris":{"android":"levelo://app?vid=55876044-873b-488c-8b29-c127a5b0498d","ios":"levelo://app?vid=55876044-873b-488c-8b29-c127a5b0498d"},"vehicle_type_id":"4","last_reported":1773383878,"current_range_meters":34000,"station_id":"ce4bhnh2rcd13ifvqgtg","pricing_plan_id":"cebpf4jnsgd1na2vs0mg"},{"bike_id":"44f5b43c-a5b7-4270-9d90-dff64e48a635","system_id":"levelo_inurba_marseille","lat":43.30248,"lon":5.40038,"is_reserved":false,"is_disabled":false,"rental_uris":{"android":"levelo://app?vid=44f5b43c-a5b7-4270-9d90-dff64e48a635","ios":"levelo://app?vid=44f5b43c-a5b7-4270-9d90-dff64e48a635"},"vehicle_type_id":"4","last_reported":1773383878,"current_range_meters":16800,"station_id":"ce4bgvh2rcd13ifvqcs0","pricing_plan_id":"cebpf4jnsgd1na2vs0mg"},{"bike_id":"ec4fdde6-c626-41f9-a313-484cde5c93bf","system_id":"levelo_inurba_marseille","lat":43.29183,"lon":5.39346,"is_reserved":false,"is_disabled":false,"rental_uris":{"android":"levelo://app?vid=ec4fdde6-c626-41f9-a313-484cde5c93bf","ios":"levelo://app?vid=ec4fdde6-c626-41f9-a313-484cde5c93bf"},"vehicle_type_id":"4","last_reported":1773383878,"current_range_meters":7200,"station_id":"ce4bh192rcd13ifvqdd0","pricing_plan_id":"cebpf4jnsgd1na2vs0mg"},{"bike_id":"0250d5d1-3619-42b3-955a-0a937e09165f","system_id":"levelo_inurba_marseille","lat":43.23044,"lon":5.355,"is_reserved":false,"is_disabled":false,"rental_uris":{"android":"levelo://app?vid=0250d5d1-3619-42b3-955a-0a937e09165f","ios":"levelo://app?vid=0250d5d1-3619-42b3-955a-0a937e09165f"},"vehicle_type_id":"4","last_reported":1773383878,"current_range_meters":33600,"station_id":"cpo3342slgdg3j2ifvpg","pricing_plan_id":"cebpf4jnsgd1na2vs0mg"},{"bike_id":"fbc5368d-eb99-49b0-9574-a8c4be7ef81e","system_id":"levelo_inurba_marseille","lat":43.25864,"lon":5.39904,"is_reserved":false,"is_disabled":false,"rental_uris":{"android":"levelo://app?vid=fbc5368d-eb99-49b0-9574-a8c4be7ef81e","ios":"levelo://app?vid=fbc5368d-eb99-49b0-9574-a8c4be7ef81e"},"vehicle_type_id":"4","last_reported":1773383878,"current_range_meters":36800,"station_id":"ce4bhl92rcd13ifvqghg","pricing_plan_id":"cebpf4jnsgd1na2vs0mg"},{"bike_id":"a716c66c-3fa6-4562-8b3e-f880746fb243","system_id":"levelo_inurba_marseille","lat":43.29896,"lon":5.38154,"is_reserved":false,"is_disabled":false,"rental_uris":{"android":"levelo://app?vid=a716c66c-3fa6-4562-8b3e-f880746fb243","ios":"levelo://app?vid=a716c66c-3fa6-4562-8b3e-f880746fb243"},"vehicle_type_id":"4","last_reported":1773383878,"current_range_meters":38800,"station_id":"ce4bgj12rcd13ifvqbc0","pricing_plan_id":"cebpf4jnsgd1na2vs0mg"},{"bike_id":"ba9b1cfd-6193-4c87-a521-6fd44c566ff7","system_id":"levelo_inurba_marseille","lat":43.30131,"lon":5.39853,"is_reserved":false,"is_disabled":false,"rental_uris":{"android":"levelo://app?vid=ba9b1cfd-6193-4c87-a521-6fd44c566ff7","ios":"levelo://app?vid=ba9b1cfd-6193-4c87-a521-6fd44c566ff7"},"vehicle_type_id":"4","last_reported":1773383878,"current_range_meters":32400,"station_id":"ce4bh0h2rcd13ifvqd40","pricing_plan_id":"cebpf4jnsgd1na2vs0mg"},{"bike_id":"886bcfc7-63ee-4067-a44e-c7f27783757e","system_id":"levelo_inurba_marseille","lat":43.30918,"lon":5.38263,"is_reserved":false,"is_disabled":false,"rental_uris":{"android":"levelo://app?vid=886bcfc7-63ee-4067-a44e-c7f27783757e","ios":"levelo://app?vid=886bcfc7-63ee-4067-a44e-c7f27783757e"},"vehicle_type_id":"4","last_reported":1773383878,"current_range_meters":10800,"station_id":"","pricing_plan_id":"cebpf4jnsgd1na2vs0mg"},{"bike_id":"44de267b-3783-4ccb-8a92-345566c434be","system_id":"levelo_inurba_marseille","lat":43.29534,"lon":5.37527,"is_reserved":false,"is_disabled":true,"rental_uris":{"android":"levelo://app?vid=44de267b-3783-4ccb-8a92-345566c434be","ios":"levelo://app?vid=44de267b-3783-4ccb-8a92-345566c434be"},"vehicle_type_id":"4","last_reported":1773383878,"current_range_meters":40000,"station_id":"ce4bgkp2rcd13ifvqbmg","pricing_plan_id":"cebpf4jnsgd1na2vs0mg"},{"bike_id":"07a54b51-81cd-4521-85da-081a6ada865c","system_id":"levelo_inurba_marseille","lat":43.32536,"lon":5.41493,"is_reserved":false,"is_disabled":false,"rental_uris":{"android":"levelo://app?vid=07a54b51-81cd-4521-85da-081a6ada865c","ios":"levelo://app?vid=07a54b51-81cd-4521-85da-081a6ada865c"},"vehicle_type_id":"4","last_reported":1773383878,"current_range_meters":36400,"station_id":"ce4bhq12rcd13ifvqhhg","pricing_plan_id":"cebpf4jnsgd1na2vs0mg"},{"bike_id":"ba8d9ef5-6fd3-48fa-8d92-09e9ea63831d","system_id":"levelo_inurba_marseille","lat":43.29968,"lon":5.41325,"is_reserved":false,"is_disabled":true,"rental_uris":{"android":"levelo://app?vid=ba8d9ef5-6fd3-48fa-8d92-09e9ea63831d","ios":"levelo://app?vid=ba8d9ef5-6fd3-48fa-8d92-09e9ea63831d"},"vehicle_type_id":"4","last_reported":1773383878,"current_range_meters":0,"station_id":"ce4bhp12rcd13ifvqh9g","pricing_plan_id":"cebpf4jnsgd1na2vs0mg"},{"bike_id":"83d4cd3c-261b-46ff-b623-d5fa5eba2581","system_id":"levelo_inurba_marseille","lat":43.29199,"lon":5.35777,"is_reserved":false,"is_disabled":true,"rental_uris":{"android":"levelo://app?vid=83d4cd3c-261b-46ff-b623-d5fa5eba2581","ios":"levelo://app?vid=83d4cd3c-261b-46ff-b623-d5fa5eba2581"},"vehicle_type_id":"4","last_reported":1773383878,"current_range_meters":22000,"station_id":"ce4bhb12rcd13ifvqel0","pricing_plan_id":"cebpf4jnsgd1na2vs0mg"},{"bike_id":"aeefd844-d681-4f7b-a6cf-94dc770a8a75","system_id":"levelo_inurba_marseille","lat":43.28486,"lon":5.38429,"is_reserved":false,"is_disabled":false,"rental_uris":{"android":"levelo://app?vid=aeefd844-d681-4f7b-a6cf-94dc770a8a75","ios":"levelo://app?vid=aeefd844-d681-4f7b-a6cf-94dc770a8a75"},"vehicle_type_id":"4","last_reported":1773383878,"current_range_meters":39200,"station_id":"ce4bh512rcd13ifvqe3g","pricing_plan_id":"cebpf4jnsgd1na2vs0mg"},{"bike_id":"152dde72-e597-4c23-b948-42db9cd01a5b","system_id":"levelo_inurba_marseille","lat":43.26788,"lon":5.40231,"is_reserved":false,"is_disabled":false,"rental_uris":{"android":"levelo://app?vid=152dde72-e597-4c23-b948-42db9cd01a5b","ios":"levelo://app?vid=152dde72-e597-4c23-b948-42db9cd01a5b"},"vehicle_type_id":"4","last_reported":1773383878,"current_range_meters":39200,"station_id":"ce501612rcd8frsf0b60","pricing_plan_id":"cebpf4jnsgd1na2vs0mg"},{"bike_id":"bec164a3-c103-4e3a-bc12-fd742c09f254","system_id":"levelo_inurba_marseille","lat":43.28684,"lon":5.38664,"is_reserved":false,"is_disabled":false,"rental_uris":{"android":"levelo://app?vid=bec164a3-c103-4e3a-bc12-fd742c09f254","ios":"levelo://app?vid=bec164a3-c103-4e3a-bc12-fd742c09f254"},"vehicle_type_id":"4","last_reported":1773383878,"current_range_meters":29600,"station_id":"ce4bh492rcd13ifvqdug","pricing_plan_id":"cebpf4jnsgd1na2vs0mg"},{"bike_id":"9bd12d28-e487-48c9-a56c-596dd340d875","system_id":"levelo_inurba_marseille","lat":43.23787,"lon":5.36633,"is_reserved":false,"is_disabled":false,"rental_uris":{"android":"levelo://app?vid=9bd12d28-e487-48c9-a56c-596dd340d875","ios":"levelo://app?vid=9bd12d28-e487-48c9-a56c-596dd340d875"},"vehicle_type_id":"4","last_reported":1773383878,"current_range_meters":38000,"station_id":"st_d3nk18o9ro0c73en2l3g","pricing_plan_id":"cebpf4jnsgd1na2vs0mg"},{"bike_id":"fcb46ebd-495c-49a3-b266-83eeb019659e","system_id":"levelo_inurba_marseille","lat":43.29782,"lon":5.38107,"is_reserved":false,"is_disabled":false,"rental_uris":{"android":"levelo://app?vid=fcb46ebd-495c-49a3-b266-83eeb019659e","ios":"levelo://app?vid=fcb46ebd-495c-49a3-b266-83eeb019659e"},"vehicle_type_id":"4","last_reported":1773383878,"current_range_meters":6400,"station_id":"ce4bgip2rcd13ifvqbb0","pricing_plan_id":"cebpf4jnsgd1na2vs0mg"},{"bike_id":"bd62e445-95dc-43ce-b4d8-48e3cdcba7ac","system_id":"levelo_inurba_marseille","lat":43.29203,"lon":5.35787,"is_reserved":false,"is_disabled":false,"rental_uris":{"android":"levelo://app?vid=bd62e445-95dc-43ce-b4d8-48e3cdcba7ac","ios":"levelo://app?vid=bd62e445-95dc-43ce-b4d8-48e3cdcba7ac"},"vehicle_type_id":"4","last_reported":1773383878,"current_range_meters":11200,"station_id":"ce4bhb12rcd13ifvqel0","pricing_plan_id":"cebpf4jnsgd1na2vs0mg"},{"bike_id":"a1b19cb1-8a52-4046-b019-687c664c6ed3","system_id":"levelo_inurba_marseille","lat":43.29766,"lon":5.39362,"is_reserved":false,"is_disabled":false,"rental_uris":{"android":"levelo://app?vid=a1b19cb1-8a52-4046-b019-687c664c6ed3","ios":"levelo://app?vid=a1b19cb1-8a52-4046-b019-687c664c6ed3"},"vehicle_type_id":"4","last_reported":1773383878,"current_range_meters":6400,"station_id":"chh1huq6cuj3fo74tm60","pricing_plan_id":"cebpf4jnsgd1na2vs0mg"},{"bike_id":"bff6d519-e283-413f-a94a-9a06ed9d49ae","system_id":"levelo_inurba_marseille","lat":43.28062,"lon":5.39649,"is_reserved":false,"is_disabled":false,"rental_uris":{"android":"levelo://app?vid=bff6d519-e283-413f-a94a-9a06ed9d49ae","ios":"levelo://app?vid=bff6d519-e283-413f-a94a-9a06ed9d49ae"},"vehicle_type_id":"4","last_reported":1773383878,"current_range_meters":39200,"station_id":"ce4bho12rcd13ifvqh2g","pricing_plan_id":"cebpf4jnsgd1na2vs0mg"},{"bike_id":"97ecf467-9bc2-4716-8380-618c7c7ef61e","system_id":"levelo_inurba_marseille","lat":43.31591,"lon":5.37365,"is_reserved":false,"is_disabled":false,"rental_uris":{"android":"levelo://app?vid=97ecf467-9bc2-4716-8380-618c7c7ef61e","ios":"levelo://app?vid=97ecf467-9bc2-4716-8380-618c7c7ef61e"},"vehicle_type_id":"4","last_reported":1773383878,"current_range_meters":6400,"station_id":"","pricing_plan_id":"cebpf4jnsgd1na2vs0mg"},{"bike_id":"7a5a67cb-b660-4a23-bab8-4dc8590602f6","system_id":"levelo_inurba_marseille","lat":43.2842,"lon":5.37559,"is_reserved":false,"is_disabled":false,"rental_uris":{"android":"levelo://app?vid=7a5a67cb-b660-4a23-bab8-4dc8590602f6","ios":"levelo://app?vid=7a5a67cb-b660-4a23-bab8-4dc8590602f6"},"vehicle_type_id":"4","last_reported":1773383878,"current_range_meters":18000,"station_id":"ce4bh412rcd13ifvqds0","pricing_plan_id":"cebpf4jnsgd1na2vs0mg"},{"bike_id":"d44b6ee3-1ea1-4dfe-94d1-7ba1c7670a44","system_id":"levelo_inurba_marseille","lat":43.28815,"lon":5.35871,"is_reserved":false,"is_disabled":true,"rental_uris":{"android":"levelo://app?vid=d44b6ee3-1ea1-4dfe-94d1-7ba1c7670a44","ios":"levelo://app?vid=d44b6ee3-1ea1-4dfe-94d1-7ba1c7670a44"},"vehicle_type_id":"4","last_reported":1773383878,"current_range_meters":16800,"station_id":"","pricing_plan_id":"cebpf4jnsgd1na2vs0mg"},{"bike_id":"cedeb143-8ef5-4332-864c-2ee01e08ac10","system_id":"levelo_inurba_marseille","lat":43.29599,"lon":5.36737,"is_reserved":false,"is_disabled":false,"rental_uris":{"android":"levelo://app?vid=cedeb143-8ef5-4332-864c-2ee01e08ac10","ios":"levelo://app?vid=cedeb143-8ef5-4332-864c-2ee01e08ac10"},"vehicle_type_id":"4","last_reported":1773383878,"current_range_meters":28000,"station_id":"ce4bgph2rcd13ifvqc2g","pricing_plan_id":"cebpf4jnsgd1na2vs0mg"},{"bike_id":"f2223d48-976e-4a05-b385-8f32a53fe8f3","system_id":"levelo_inurba_marseille","lat":43.30482,"lon":5.37894,"is_reserved":false,"is_disabled":false,"rental_uris":{"android":"levelo://app?vid=f2223d48-976e-4a05-b385-8f32a53fe8f3","ios":"levelo://app?vid=f2223d48-976e-4a05-b385-8f32a53fe8f3"},"vehicle_type_id":"4","last_reported":1773383878,"current_range_meters":14000,"station_id":"ce4bgup2rcd13ifvqcn0","pricing_plan_id":"cebpf4jnsgd1na2vs0mg"},{"bike_id":"c6c027e9-d07c-4a32-8075-0dbc9a103a9d","system_id":"levelo_inurba_marseille","lat":43.29891,"lon":5.3975,"is_reserved":false,"is_disabled":false,"rental_uris":{"android":"levelo://app?vid=c6c027e9-d07c-4a32-8075-0dbc9a103a9d","ios":"levelo://app?vid=c6c027e9-d07c-4a32-8075-0dbc9a103a9d"},"vehicle_type_id":"4","last_reported":1773383878,"current_range_meters":8800,"station_id":"ce4bh0h2rcd13ifvqd50","pricing_plan_id":"cebpf4jnsgd1na2vs0mg"},{"bike_id":"bd684ca9-6a13-4dfd-adc7-bf78fa10cdf5","system_id":"levelo_inurba_marseille","lat":43.28923,"lon":5.36386,"is_reserved":false,"is_disabled":false,"rental_uris":{"android":"levelo://app?vid=bd684ca9-6a13-4dfd-adc7-bf78fa10cdf5","ios":"levelo://app?vid=bd684ca9-6a13-4dfd-adc7-bf78fa10cdf5"},"vehicle_type_id":"4","last_reported":1773383878,"current_range_meters":37600,"station_id":"ce4bhc92rcd13ifvqetg","pricing_plan_id":"cebpf4jnsgd1na2vs0mg"},{"bike_id":"a29ef319-c201-4a0d-88b8-75666b991d70","system_id":"levelo_inurba_marseille","lat":43.30207,"lon":5.39438,"is_reserved":false,"is_disabled":false,"rental_uris":{"android":"levelo://app?vid=a29ef319-c201-4a0d-88b8-75666b991d70","ios":"levelo://app?vid=a29ef319-c201-4a0d-88b8-75666b991d70"},"vehicle_type_id":"4","last_reported":1773383878,"current_range_meters":16400,"station_id":"ce4bh0p2rcd13ifvqd70","pricing_plan_id":"cebpf4jnsgd1na2vs0mg"},{"bike_id":"b3eb5008-db77-4fa1-ad7e-4f507dde5179","system_id":"levelo_inurba_marseille","lat":43.3023,"lon":5.37041,"is_reserved":false,"is_disabled":false,"rental_uris":{"android":"levelo://app?vid=b3eb5008-db77-4fa1-ad7e-4f507dde5179","ios":"levelo://app?vid=b3eb5008-db77-4fa1-ad7e-4f507dde5179"},"vehicle_type_id":"4","last_reported":1773383878,"current_range_meters":30800,"station_id":"","pricing_plan_id":"cebpf4jnsgd1na2vs0mg"},{"bike_id":"0815d2df-d9bb-4ff1-8cd7-bf32ada9ffa0","system_id":"levelo_inurba_marseille","lat":43.29608,"lon":5.37709,"is_reserved":false,"is_disabled":true,"rental_uris":{"android":"levelo://app?vid=0815d2df-d9bb-4ff1-8cd7-bf32ada9ffa0","ios":"levelo://app?vid=0815d2df-d9bb-4ff1-8cd7-bf32ada9ffa0"},"vehicle_type_id":"4","last_reported":1773383878,"current_range_meters":36400,"station_id":"ce4bgi92rcd13ifvqb90","pricing_plan_id":"cebpf4jnsgd1na2vs0mg"},{"bike_id":"bf7958d1-3878-4a18-ba75-e4ae807f8939","system_id":"levelo_inurba_marseille","lat":43.27817,"lon":5.40717,"is_reserved":false,"is_disabled":false,"rental_uris":{"android":"levelo://app?vid=bf7958d1-3878-4a18-ba75-e4ae807f8939","ios":"levelo://app?vid=bf7958d1-3878-4a18-ba75-e4ae807f8939"},"vehicle_type_id":"4","last_reported":1773383878,"current_range_meters":39200,"station_id":"ce4bhnh2rcd13ifvqgtg","pricing_plan_id":"cebpf4jnsgd1na2vs0mg"},{"bike_id":"724637b0-959e-4760-9f46-802abef39949","system_id":"levelo_inurba_marseille","lat":43.26064,"lon":5.39389,"is_reserved":false,"is_disabled":false,"rental_uris":{"android":"levelo://app?vid=724637b0-959e-4760-9f46-802abef39949","ios":"levelo://app?vid=724637b0-959e-4760-9f46-802abef39949"},"vehicle_type_id":"4","last_reported":1773383878,"current_range_meters":14000,"station_id":"ce4bhh92rcd13ifvqfj0","pricing_plan_id":"cebpf4jnsgd1na2vs0mg"},{"bike_id":"012bb7fa-e4d0-4138-9c92-350c5c6b2640","system_id":"levelo_inurba_marseille","lat":43.28538,"lon":5.44103,"is_reserved":false,"is_disabled":false,"rental_uris":{"android":"levelo://app?vid=012bb7fa-e4d0-4138-9c92-350c5c6b2640","ios":"levelo://app?vid=012bb7fa-e4d0-4138-9c92-350c5c6b2640"},"vehicle_type_id":"4","last_reported":1773383878,"current_range_meters":32800,"station_id":"st_d3j3df2ikq2c7380ej80","pricing_plan_id":"cebpf4jnsgd1na2vs0mg"},{"bike_id":"959cb468-adf5-492c-a8a7-a3170c99be64","system_id":"levelo_inurba_marseille","lat":43.27065,"lon":5.38297,"is_reserved":false,"is_disabled":false,"rental_uris":{"android":"levelo://app?vid=959cb468-adf5-492c-a8a7-a3170c99be64","ios":"levelo://app?vid=959cb468-adf5-492c-a8a7-a3170c99be64"},"vehicle_type_id":"4","last_reported":1773383878,"current_range_meters":14800,"station_id":"st_d3n2fo6cfp8s73cte1j0","pricing_plan_id":"cebpf4jnsgd1na2vs0mg"},{"bike_id":"da789f0c-03d0-4891-b452-4d16611555c9","system_id":"levelo_inurba_marseille","lat":43.28641,"lon":5.36353,"is_reserved":false,"is_disabled":false,"rental_uris":{"android":"levelo://app?vid=da789f0c-03d0-4891-b452-4d16611555c9","ios":"levelo://app?vid=da789f0c-03d0-4891-b452-4d16611555c9"},"vehicle_type_id":"4","last_reported":1773383878,"current_range_meters":38800,"station_id":"ce4bhah2rcd13ifvqej0","pricing_plan_id":"cebpf4jnsgd1na2vs0mg"},{"bike_id":"0630f4a7-2da6-4cc2-bd48-09c3911dda3a","system_id":"levelo_inurba_marseille","lat":43.30281,"lon":5.39187,"is_reserved":false,"is_disabled":true,"rental_uris":{"android":"levelo://app?vid=0630f4a7-2da6-4cc2-bd48-09c3911dda3a","ios":"levelo://app?vid=0630f4a7-2da6-4cc2-bd48-09c3911dda3a"},"vehicle_type_id":"4","last_reported":1773383878,"current_range_meters":19200,"station_id":"ce4bgkh2rcd13ifvqbk0","pricing_plan_id":"cebpf4jnsgd1na2vs0mg"},{"bike_id":"f32212cf-6d01-43e1-9d28-c332d31396c9","system_id":"levelo_inurba_marseille","lat":43.2468,"lon":5.43339,"is_reserved":false,"is_disabled":false,"rental_uris":{"android":"levelo://app?vid=f32212cf-6d01-43e1-9d28-c332d31396c9","ios":"levelo://app?vid=f32212cf-6d01-43e1-9d28-c332d31396c9"},"vehicle_type_id":"4","last_reported":1773383878,"current_range_meters":23200,"station_id":"","pricing_plan_id":"cebpf4jnsgd1na2vs0mg"},{"bike_id":"5960d5a2-dab3-4200-9c71-b05462e787dd","system_id":"levelo_inurba_marseille","lat":43.30184,"lon":5.38051,"is_reserved":false,"is_disabled":false,"rental_uris":{"android":"levelo://app?vid=5960d5a2-dab3-4200-9c71-b05462e787dd","ios":"levelo://app?vid=5960d5a2-dab3-4200-9c71-b05462e787dd"},"vehicle_type_id":"4","last_reported":1773383878,"current_range_meters":27600,"station_id":"","pricing_plan_id":"cebpf4jnsgd1na2vs0mg"},{"bike_id":"6acc6294-778e-4389-ae09-ea37b9c06714","system_id":"levelo_inurba_marseille","lat":43.29727,"lon":5.41059,"is_reserved":false,"is_disabled":false,"rental_uris":{"android":"levelo://app?vid=6acc6294-778e-4389-ae09-ea37b9c06714","ios":"levelo://app?vid=6acc6294-778e-4389-ae09-ea37b9c06714"},"vehicle_type_id":"4","last_reported":1773383878,"current_range_meters":20800,"station_id":"","pricing_plan_id":"cebpf4jnsgd1na2vs0mg"},{"bike_id":"f29d5867-2f9b-45ba-b385-0c097bb20783","system_id":"levelo_inurba_marseille","lat":43.3135,"lon":5.39686,"is_reserved":false,"is_disabled":false,"rental_uris":{"android":"levelo://app?vid=f29d5867-2f9b-45ba-b385-0c097bb20783","ios":"levelo://app?vid=f29d5867-2f9b-45ba-b385-0c097bb20783"},"vehicle_type_id":"4","last_reported":1773383878,"current_range_meters":39200,"station_id":"ce4bgvp2rcd13ifvqcu0","pricing_plan_id":"cebpf4jnsgd1na2vs0mg"},{"bike_id":"51f828e2-11c4-49f0-bea7-708c81d716b5","system_id":"levelo_inurba_marseille","lat":43.27413,"lon":5.4247,"is_reserved":false,"is_disabled":false,"rental_uris":{"android":"levelo://app?vid=51f828e2-11c4-49f0-bea7-708c81d716b5","ios":"levelo://app?vid=51f828e2-11c4-49f0-bea7-708c81d716b5"},"vehicle_type_id":"4","last_reported":1773383878,"current_range_meters":15200,"station_id":"","pricing_plan_id":"cebpf4jnsgd1na2vs0mg"},{"bike_id":"40cdf2e8-76b5-43fa-bd2e-1a8eb6026b51","system_id":"levelo_inurba_marseille","lat":43.28979,"lon":5.42582,"is_reserved":false,"is_disabled":false,"rental_uris":{"android":"levelo://app?vid=40cdf2e8-76b5-43fa-bd2e-1a8eb6026b51","ios":"levelo://app?vid=40cdf2e8-76b5-43fa-bd2e-1a8eb6026b51"},"vehicle_type_id":"4","last_reported":1773383878,"current_range_meters":27600,"station_id":"","pricing_plan_id":"cebpf4jnsgd1na2vs0mg"},{"bike_id":"c705bf6d-6b2d-4dfc-b2dc-335dd671ec66","system_id":"levelo_inurba_marseille","lat":43.29279,"lon":5.36836,"is_reserved":false,"is_disabled":false,"rental_uris":{"android":"levelo://app?vid=c705bf6d-6b2d-4dfc-b2dc-335dd671ec66","ios":"levelo://app?vid=c705bf6d-6b2d-4dfc-b2dc-335dd671ec66"},"vehicle_type_id":"4","last_reported":1773383878,"current_range_meters":4000,"station_id":"ce4bhbp2rcd13ifvqesg","pricing_plan_id":"cebpf4jnsgd1na2vs0mg"},{"bike_id":"8606db98-6b64-48a0-8de0-699ada49130c","system_id":"levelo_inurba_marseille","lat":43.31495,"lon":5.37298,"is_reserved":false,"is_disabled":false,"rental_uris":{"android":"levelo://app?vid=8606db98-6b64-48a0-8de0-699ada49130c","ios":"levelo://app?vid=8606db98-6b64-48a0-8de0-699ada49130c"},"vehicle_type_id":"4","last_reported":1773383878,"current_range_meters":38800,"station_id":"ce4bgt12rcd13ifvqcd0","pricing_plan_id":"cebpf4jnsgd1na2vs0mg"},{"bike_id":"de0a6a3b-52e8-4ae5-b2ae-a0757d56737c","system_id":"levelo_inurba_marseille","lat":43.28267,"lon":5.38237,"is_reserved":false,"is_disabled":false,"rental_uris":{"android":"levelo://app?vid=de0a6a3b-52e8-4ae5-b2ae-a0757d56737c","ios":"levelo://app?vid=de0a6a3b-52e8-4ae5-b2ae-a0757d56737c"},"vehicle_type_id":"4","last_reported":1773383878,"current_range_meters":17600,"station_id":"ce4bh412rcd13ifvqdr0","pricing_plan_id":"cebpf4jnsgd1na2vs0mg"},{"bike_id":"c1918aa8-e5b4-49fb-aea0-27037e7507f4","system_id":"levelo_inurba_marseille","lat":43.27212,"lon":5.3917,"is_reserved":false,"is_disabled":false,"rental_uris":{"android":"levelo://app?vid=c1918aa8-e5b4-49fb-aea0-27037e7507f4","ios":"levelo://app?vid=c1918aa8-e5b4-49fb-aea0-27037e7507f4"},"vehicle_type_id":"4","last_reported":1773383878,"current_range_meters":35200,"station_id":"ce4bhhp2rcd13ifvqfm0","pricing_plan_id":"cebpf4jnsgd1na2vs0mg"},{"bike_id":"7b87da95-dc12-423b-ad9d-8252760da1f5","system_id":"levelo_inurba_marseille","lat":43.29777,"lon":5.37082,"is_reserved":false,"is_disabled":false,"rental_uris":{"android":"levelo://app?vid=7b87da95-dc12-423b-ad9d-8252760da1f5","ios":"levelo://app?vid=7b87da95-dc12-423b-ad9d-8252760da1f5"},"vehicle_type_id":"4","last_reported":1773383878,"current_range_meters":12800,"station_id":"ce4bgop2rcd13ifvqc1g","pricing_plan_id":"cebpf4jnsgd1na2vs0mg"},{"bike_id":"165183bd-c1bc-41ea-bd50-40fea5b59454","system_id":"levelo_inurba_marseille","lat":43.28478,"lon":5.38402,"is_reserved":false,"is_disabled":false,"rental_uris":{"android":"levelo://app?vid=165183bd-c1bc-41ea-bd50-40fea5b59454","ios":"levelo://app?vid=165183bd-c1bc-41ea-bd50-40fea5b59454"},"vehicle_type_id":"4","last_reported":1773383878,"current_range_meters":39200,"station_id":"ce4bh512rcd13ifvqe3g","pricing_plan_id":"cebpf4jnsgd1na2vs0mg"},{"bike_id":"a310bf7c-b846-4f73-8825-c0041ee29512","system_id":"levelo_inurba_marseille","lat":43.27979,"lon":5.41711,"is_reserved":false,"is_disabled":false,"rental_uris":{"android":"levelo://app?vid=a310bf7c-b846-4f73-8825-c0041ee29512","ios":"levelo://app?vid=a310bf7c-b846-4f73-8825-c0041ee29512"},"vehicle_type_id":"4","last_reported":1773383878,"current_range_meters":10800,"station_id":"ce4bho12rcd13ifvqh1g","pricing_plan_id":"cebpf4jnsgd1na2vs0mg"},{"bike_id":"ea60c6e4-4382-4e15-84df-d8ab5b4c7ad6","system_id":"levelo_inurba_marseille","lat":43.28133,"lon":5.36853,"is_reserved":false,"is_disabled":false,"rental_uris":{"android":"levelo://app?vid=ea60c6e4-4382-4e15-84df-d8ab5b4c7ad6","ios":"levelo://app?vid=ea60c6e4-4382-4e15-84df-d8ab5b4c7ad6"},"vehicle_type_id":"4","last_reported":1773383878,"current_range_meters":32400,"station_id":"","pricing_plan_id":"cebpf4jnsgd1na2vs0mg"},{"bike_id":"049d0339-5799-4ade-8ff8-59295e8c39c6","system_id":"levelo_inurba_marseille","lat":43.32521,"lon":5.36533,"is_reserved":false,"is_disabled":false,"rental_uris":{"android":"levelo://app?vid=049d0339-5799-4ade-8ff8-59295e8c39c6","ios":"levelo://app?vid=049d0339-5799-4ade-8ff8-59295e8c39c6"},"vehicle_type_id":"4","last_reported":1773383878,"current_range_meters":15200,"station_id":"","pricing_plan_id":"cebpf4jnsgd1na2vs0mg"},{"bike_id":"3cc3d48e-07a9-4a61-9236-5775b902f6cd","system_id":"levelo_inurba_marseille","lat":43.28613,"lon":5.37054,"is_reserved":false,"is_disabled":false,"rental_uris":{"android":"levelo://app?vid=3cc3d48e-07a9-4a61-9236-5775b902f6cd","ios":"levelo://app?vid=3cc3d48e-07a9-4a61-9236-5775b902f6cd"},"vehicle_type_id":"4","last_reported":1773383878,"current_range_meters":14800,"station_id":"ce4bht12rcd13ifvqi60","pricing_plan_id":"cebpf4jnsgd1na2vs0mg"},{"bike_id":"8fd733ec-8b37-4836-b25f-a2b03118c105","system_id":"levelo_inurba_marseille","lat":43.29903,"lon":5.43658,"is_reserved":false,"is_disabled":false,"rental_uris":{"android":"levelo://app?vid=8fd733ec-8b37-4836-b25f-a2b03118c105","ios":"levelo://app?vid=8fd733ec-8b37-4836-b25f-a2b03118c105"},"vehicle_type_id":"4","last_reported":1773383878,"current_range_meters":26800,"station_id":"ce4bhpp2rcd13ifvqhfg","pricing_plan_id":"cebpf4jnsgd1na2vs0mg"},{"bike_id":"aa1ea814-effc-4a82-a7ce-fc6b0be25510","system_id":"levelo_inurba_marseille","lat":43.33387,"lon":5.36386,"is_reserved":false,"is_disabled":false,"rental_uris":{"android":"levelo://app?vid=aa1ea814-effc-4a82-a7ce-fc6b0be25510","ios":"levelo://app?vid=aa1ea814-effc-4a82-a7ce-fc6b0be25510"},"vehicle_type_id":"4","last_reported":1773383878,"current_range_meters":38800,"station_id":"","pricing_plan_id":"cebpf4jnsgd1na2vs0mg"},{"bike_id":"8020b70f-0fb4-4692-a603-170f9f48f8ee","system_id":"levelo_inurba_marseille","lat":43.25562,"lon":5.38252,"is_reserved":false,"is_disabled":true,"rental_uris":{"android":"levelo://app?vid=8020b70f-0fb4-4692-a603-170f9f48f8ee","ios":"levelo://app?vid=8020b70f-0fb4-4692-a603-170f9f48f8ee"},"vehicle_type_id":"4","last_reported":1773383878,"current_range_meters":0,"station_id":"ce4bhih2rcd13ifvqfs0","pricing_plan_id":"cebpf4jnsgd1na2vs0mg"},{"bike_id":"b26311b7-5bf2-473b-82c5-bcec838fe310","system_id":"levelo_inurba_marseille","lat":43.30556,"lon":5.39303,"is_reserved":false,"is_disabled":false,"rental_uris":{"android":"levelo://app?vid=b26311b7-5bf2-473b-82c5-bcec838fe310","ios":"levelo://app?vid=b26311b7-5bf2-473b-82c5-bcec838fe310"},"vehicle_type_id":"4","last_reported":1773383878,"current_range_meters":38000,"station_id":"","pricing_plan_id":"cebpf4jnsgd1na2vs0mg"},{"bike_id":"98fe90c4-5c6a-4cdb-90f2-3cb62e932151","system_id":"levelo_inurba_marseille","lat":43.30249,"lon":5.40065,"is_reserved":false,"is_disabled":false,"rental_uris":{"android":"levelo://app?vid=98fe90c4-5c6a-4cdb-90f2-3cb62e932151","ios":"levelo://app?vid=98fe90c4-5c6a-4cdb-90f2-3cb62e932151"},"vehicle_type_id":"4","last_reported":1773383878,"current_range_meters":39200,"station_id":"ce4bgvh2rcd13ifvqcs0","pricing_plan_id":"cebpf4jnsgd1na2vs0mg"},{"bike_id":"8b467189-d1b2-4107-a723-438c8ea975b1","system_id":"levelo_inurba_marseille","lat":43.28239,"lon":5.39053,"is_reserved":false,"is_disabled":false,"rental_uris":{"android":"levelo://app?vid=8b467189-d1b2-4107-a723-438c8ea975b1","ios":"levelo://app?vid=8b467189-d1b2-4107-a723-438c8ea975b1"},"vehicle_type_id":"4","last_reported":1773383878,"current_range_meters":38800,"station_id":"ce4bhn92rcd13ifvqgsg","pricing_plan_id":"cebpf4jnsgd1na2vs0mg"},{"bike_id":"746039cb-bbe4-4081-94d6-e44d4facd144","system_id":"levelo_inurba_marseille","lat":43.2557,"lon":5.38239,"is_reserved":false,"is_disabled":false,"rental_uris":{"android":"levelo://app?vid=746039cb-bbe4-4081-94d6-e44d4facd144","ios":"levelo://app?vid=746039cb-bbe4-4081-94d6-e44d4facd144"},"vehicle_type_id":"4","last_reported":1773383878,"current_range_meters":4000,"station_id":"ce4bhih2rcd13ifvqfs0","pricing_plan_id":"cebpf4jnsgd1na2vs0mg"},{"bike_id":"77dd3b67-1a40-45de-9e79-224e7fa5dc5f","system_id":"levelo_inurba_marseille","lat":43.28936,"lon":5.39641,"is_reserved":false,"is_disabled":false,"rental_uris":{"android":"levelo://app?vid=77dd3b67-1a40-45de-9e79-224e7fa5dc5f","ios":"levelo://app?vid=77dd3b67-1a40-45de-9e79-224e7fa5dc5f"},"vehicle_type_id":"4","last_reported":1773383878,"current_range_meters":36000,"station_id":"ce4bh3h2rcd13ifvqdn0","pricing_plan_id":"cebpf4jnsgd1na2vs0mg"},{"bike_id":"0cc2a26b-e589-4ee1-aba3-690c112a569b","system_id":"levelo_inurba_marseille","lat":43.29243,"lon":5.40929,"is_reserved":false,"is_disabled":false,"rental_uris":{"android":"levelo://app?vid=0cc2a26b-e589-4ee1-aba3-690c112a569b","ios":"levelo://app?vid=0cc2a26b-e589-4ee1-aba3-690c112a569b"},"vehicle_type_id":"4","last_reported":1773383878,"current_range_meters":26800,"station_id":"ce4bh192rcd13ifvqdc0","pricing_plan_id":"cebpf4jnsgd1na2vs0mg"},{"bike_id":"eb2f308c-8a12-4604-91b5-c6e7beca1962","system_id":"levelo_inurba_marseille","lat":43.25588,"lon":5.38237,"is_reserved":false,"is_disabled":false,"rental_uris":{"android":"levelo://app?vid=eb2f308c-8a12-4604-91b5-c6e7beca1962","ios":"levelo://app?vid=eb2f308c-8a12-4604-91b5-c6e7beca1962"},"vehicle_type_id":"4","last_reported":1773383878,"current_range_meters":28400,"station_id":"ce4bhih2rcd13ifvqfs0","pricing_plan_id":"cebpf4jnsgd1na2vs0mg"},{"bike_id":"9275d7e0-6f92-4728-99cc-26ef8f5159ad","system_id":"levelo_inurba_marseille","lat":43.29116,"lon":5.43276,"is_reserved":false,"is_disabled":false,"rental_uris":{"android":"levelo://app?vid=9275d7e0-6f92-4728-99cc-26ef8f5159ad","ios":"levelo://app?vid=9275d7e0-6f92-4728-99cc-26ef8f5159ad"},"vehicle_type_id":"4","last_reported":1773383878,"current_range_meters":36800,"station_id":"","pricing_plan_id":"cebpf4jnsgd1na2vs0mg"},{"bike_id":"976dc1d9-3f3e-4769-8b74-cdbe2cccb256","system_id":"levelo_inurba_marseille","lat":43.30095,"lon":5.39079,"is_reserved":false,"is_disabled":false,"rental_uris":{"android":"levelo://app?vid=976dc1d9-3f3e-4769-8b74-cdbe2cccb256","ios":"levelo://app?vid=976dc1d9-3f3e-4769-8b74-cdbe2cccb256"},"vehicle_type_id":"4","last_reported":1773383878,"current_range_meters":36800,"station_id":"ce4bh192rcd13ifvqdb0","pricing_plan_id":"cebpf4jnsgd1na2vs0mg"},{"bike_id":"ca6172bb-1bde-4c29-82ad-418bf4e991bb","system_id":"levelo_inurba_marseille","lat":43.28154,"lon":5.42636,"is_reserved":false,"is_disabled":false,"rental_uris":{"android":"levelo://app?vid=ca6172bb-1bde-4c29-82ad-418bf4e991bb","ios":"levelo://app?vid=ca6172bb-1bde-4c29-82ad-418bf4e991bb"},"vehicle_type_id":"4","last_reported":1773383878,"current_range_meters":21600,"station_id":"ce4bhnh2rcd13ifvqgug","pricing_plan_id":"cebpf4jnsgd1na2vs0mg"},{"bike_id":"157e7761-3bc0-4608-b6a1-cc4744e2adb4","system_id":"levelo_inurba_marseille","lat":43.29914,"lon":5.37461,"is_reserved":false,"is_disabled":true,"rental_uris":{"android":"levelo://app?vid=157e7761-3bc0-4608-b6a1-cc4744e2adb4","ios":"levelo://app?vid=157e7761-3bc0-4608-b6a1-cc4744e2adb4"},"vehicle_type_id":"4","last_reported":1773383878,"current_range_meters":31200,"station_id":"ce4bgjh2rcd13ifvqbg0","pricing_plan_id":"cebpf4jnsgd1na2vs0mg"},{"bike_id":"be4b33f3-f666-4b28-9e53-550c3c6e8b23","system_id":"levelo_inurba_marseille","lat":43.2848,"lon":5.48398,"is_reserved":false,"is_disabled":false,"rental_uris":{"android":"levelo://app?vid=be4b33f3-f666-4b28-9e53-550c3c6e8b23","ios":"levelo://app?vid=be4b33f3-f666-4b28-9e53-550c3c6e8b23"},"vehicle_type_id":"4","last_reported":1773383878,"current_range_meters":24000,"station_id":"","pricing_plan_id":"cebpf4jnsgd1na2vs0mg"},{"bike_id":"03e319e8-ff92-40c4-a72d-c7542fee3036","system_id":"levelo_inurba_marseille","lat":43.33596,"lon":5.41025,"is_reserved":false,"is_disabled":false,"rental_uris":{"android":"levelo://app?vid=03e319e8-ff92-40c4-a72d-c7542fee3036","ios":"levelo://app?vid=03e319e8-ff92-40c4-a72d-c7542fee3036"},"vehicle_type_id":"4","last_reported":1773383878,"current_range_meters":39200,"station_id":"ce4bhqh2rcd13ifvqhmg","pricing_plan_id":"cebpf4jnsgd1na2vs0mg"},{"bike_id":"803372db-a7aa-4fbf-8572-49ca173e9b77","system_id":"levelo_inurba_marseille","lat":43.28348,"lon":5.38115,"is_reserved":false,"is_disabled":false,"rental_uris":{"android":"levelo://app?vid=803372db-a7aa-4fbf-8572-49ca173e9b77","ios":"levelo://app?vid=803372db-a7aa-4fbf-8572-49ca173e9b77"},"vehicle_type_id":"4","last_reported":1773383878,"current_range_meters":27600,"station_id":"ce4bh412rcd13ifvqdr0","pricing_plan_id":"cebpf4jnsgd1na2vs0mg"},{"bike_id":"7e93006e-36a2-465d-83ba-4c6c7efd21e7","system_id":"levelo_inurba_marseille","lat":43.28443,"lon":5.48439,"is_reserved":false,"is_disabled":false,"rental_uris":{"android":"levelo://app?vid=7e93006e-36a2-465d-83ba-4c6c7efd21e7","ios":"levelo://app?vid=7e93006e-36a2-465d-83ba-4c6c7efd21e7"},"vehicle_type_id":"4","last_reported":1773383878,"current_range_meters":9600,"station_id":"","pricing_plan_id":"cebpf4jnsgd1na2vs0mg"},{"bike_id":"ca023ede-959e-4411-943d-f9c615c571b1","system_id":"levelo_inurba_marseille","lat":43.31063,"lon":5.37188,"is_reserved":false,"is_disabled":false,"rental_uris":{"android":"levelo://app?vid=ca023ede-959e-4411-943d-f9c615c571b1","ios":"levelo://app?vid=ca023ede-959e-4411-943d-f9c615c571b1"},"vehicle_type_id":"4","last_reported":1773383878,"current_range_meters":38000,"station_id":"st_d4kl2rp97mjs73e7tdfg","pricing_plan_id":"cebpf4jnsgd1na2vs0mg"},{"bike_id":"193cbe9d-b7d2-421e-9f76-9c8c86aebb4a","system_id":"levelo_inurba_marseille","lat":43.33541,"lon":5.37481,"is_reserved":false,"is_disabled":false,"rental_uris":{"android":"levelo://app?vid=193cbe9d-b7d2-421e-9f76-9c8c86aebb4a","ios":"levelo://app?vid=193cbe9d-b7d2-421e-9f76-9c8c86aebb4a"},"vehicle_type_id":"4","last_reported":1773383878,"current_range_meters":14000,"station_id":"st_d46tts09ee8s73dlu43g","pricing_plan_id":"cebpf4jnsgd1na2vs0mg"},{"bike_id":"9f555977-ed84-4e25-9c81-1c0c6fccc8b6","system_id":"levelo_inurba_marseille","lat":43.24376,"lon":5.44099,"is_reserved":false,"is_disabled":true,"rental_uris":{"android":"levelo://app?vid=9f555977-ed84-4e25-9c81-1c0c6fccc8b6","ios":"levelo://app?vid=9f555977-ed84-4e25-9c81-1c0c6fccc8b6"},"vehicle_type_id":"4","last_reported":1773383878,"current_range_meters":6800,"station_id":"","pricing_plan_id":"cebpf4jnsgd1na2vs0mg"},{"bike_id":"96791ba8-63fc-4e98-99c1-9d42ede482d0","system_id":"levelo_inurba_marseille","lat":43.30948,"lon":5.39015,"is_reserved":false,"is_disabled":false,"rental_uris":{"android":"levelo://app?vid=96791ba8-63fc-4e98-99c1-9d42ede482d0","ios":"levelo://app?vid=96791ba8-63fc-4e98-99c1-9d42ede482d0"},"vehicle_type_id":"4","last_reported":1773383878,"current_range_meters":8000,"station_id":"ce4bgup2rcd13ifvqco0","pricing_plan_id":"cebpf4jnsgd1na2vs0mg"},{"bike_id":"c62d3042-ec95-48b5-aaab-c37562c36bdf","system_id":"levelo_inurba_marseille","lat":43.30708,"lon":5.37052,"is_reserved":false,"is_disabled":false,"rental_uris":{"android":"levelo://app?vid=c62d3042-ec95-48b5-aaab-c37562c36bdf","ios":"levelo://app?vid=c62d3042-ec95-48b5-aaab-c37562c36bdf"},"vehicle_type_id":"4","last_reported":1773383878,"current_range_meters":40000,"station_id":"","pricing_plan_id":"cebpf4jnsgd1na2vs0mg"},{"bike_id":"6d3b58be-3cce-4a9d-b05d-24e3eb223497","system_id":"levelo_inurba_marseille","lat":43.29764,"lon":5.37067,"is_reserved":false,"is_disabled":false,"rental_uris":{"android":"levelo://app?vid=6d3b58be-3cce-4a9d-b05d-24e3eb223497","ios":"levelo://app?vid=6d3b58be-3cce-4a9d-b05d-24e3eb223497"},"vehicle_type_id":"4","last_reported":1773383878,"current_range_meters":38800,"station_id":"ce4bgop2rcd13ifvqc1g","pricing_plan_id":"cebpf4jnsgd1na2vs0mg"},{"bike_id":"90b66246-a27e-42c8-87f8-0011cf0e82d2","system_id":"levelo_inurba_marseille","lat":43.30164,"lon":5.39868,"is_reserved":false,"is_disabled":false,"rental_uris":{"android":"levelo://app?vid=90b66246-a27e-42c8-87f8-0011cf0e82d2","ios":"levelo://app?vid=90b66246-a27e-42c8-87f8-0011cf0e82d2"},"vehicle_type_id":"4","last_reported":1773383878,"current_range_meters":39200,"station_id":"ce4bh0h2rcd13ifvqd40","pricing_plan_id":"cebpf4jnsgd1na2vs0mg"},{"bike_id":"74a70259-75e6-4ccd-96d8-8904dd769a64","system_id":"levelo_inurba_marseille","lat":43.2257,"lon":5.41635,"is_reserved":false,"is_disabled":false,"rental_uris":{"android":"levelo://app?vid=74a70259-75e6-4ccd-96d8-8904dd769a64","ios":"levelo://app?vid=74a70259-75e6-4ccd-96d8-8904dd769a64"},"vehicle_type_id":"4","last_reported":1773383878,"current_range_meters":11200,"station_id":"st_d2o4gvlbi1j2169b742g","pricing_plan_id":"cebpf4jnsgd1na2vs0mg"},{"bike_id":"3115ec2c-0e1c-40e3-beba-8ab26217ce9f","system_id":"levelo_inurba_marseille","lat":43.28218,"lon":5.39052,"is_reserved":false,"is_disabled":true,"rental_uris":{"android":"levelo://app?vid=3115ec2c-0e1c-40e3-beba-8ab26217ce9f","ios":"levelo://app?vid=3115ec2c-0e1c-40e3-beba-8ab26217ce9f"},"vehicle_type_id":"4","last_reported":1773383878,"current_range_meters":36800,"station_id":"ce4bhn92rcd13ifvqgsg","pricing_plan_id":"cebpf4jnsgd1na2vs0mg"},{"bike_id":"ce04bbee-ed4c-4918-b61f-ecea92553dad","system_id":"levelo_inurba_marseille","lat":43.28415,"lon":5.3753,"is_reserved":false,"is_disabled":false,"rental_uris":{"android":"levelo://app?vid=ce04bbee-ed4c-4918-b61f-ecea92553dad","ios":"levelo://app?vid=ce04bbee-ed4c-4918-b61f-ecea92553dad"},"vehicle_type_id":"4","last_reported":1773383878,"current_range_meters":27600,"station_id":"ce4bh412rcd13ifvqds0","pricing_plan_id":"cebpf4jnsgd1na2vs0mg"},{"bike_id":"9c3f11b1-6c96-472d-acf9-a5ac4e6e8a32","system_id":"levelo_inurba_marseille","lat":43.24607,"lon":5.38948,"is_reserved":false,"is_disabled":false,"rental_uris":{"android":"levelo://app?vid=9c3f11b1-6c96-472d-acf9-a5ac4e6e8a32","ios":"levelo://app?vid=9c3f11b1-6c96-472d-acf9-a5ac4e6e8a32"},"vehicle_type_id":"4","last_reported":1773383878,"current_range_meters":38000,"station_id":"ce4bhg12rcd13ifvqf60","pricing_plan_id":"cebpf4jnsgd1na2vs0mg"},{"bike_id":"ddffd595-e4d6-4840-a075-89e0d98ad68d","system_id":"levelo_inurba_marseille","lat":43.27071,"lon":5.42297,"is_reserved":false,"is_disabled":false,"rental_uris":{"android":"levelo://app?vid=ddffd595-e4d6-4840-a075-89e0d98ad68d","ios":"levelo://app?vid=ddffd595-e4d6-4840-a075-89e0d98ad68d"},"vehicle_type_id":"4","last_reported":1773383878,"current_range_meters":11200,"station_id":"ce4bhk92rcd13ifvqgb0","pricing_plan_id":"cebpf4jnsgd1na2vs0mg"},{"bike_id":"e5667055-afe7-49ca-aac5-c9f3562e245e","system_id":"levelo_inurba_marseille","lat":43.30311,"lon":5.40448,"is_reserved":false,"is_disabled":false,"rental_uris":{"android":"levelo://app?vid=e5667055-afe7-49ca-aac5-c9f3562e245e","ios":"levelo://app?vid=e5667055-afe7-49ca-aac5-c9f3562e245e"},"vehicle_type_id":"4","last_reported":1773383878,"current_range_meters":38800,"station_id":"ce4bh012rcd13ifvqd10","pricing_plan_id":"cebpf4jnsgd1na2vs0mg"},{"bike_id":"b6a5edba-a955-4cfd-810c-9c5d619b8d91","system_id":"levelo_inurba_marseille","lat":43.31737,"lon":5.4372,"is_reserved":false,"is_disabled":false,"rental_uris":{"android":"levelo://app?vid=b6a5edba-a955-4cfd-810c-9c5d619b8d91","ios":"levelo://app?vid=b6a5edba-a955-4cfd-810c-9c5d619b8d91"},"vehicle_type_id":"4","last_reported":1773383878,"current_range_meters":23200,"station_id":"ce4bhp92rcd13ifvqhcg","pricing_plan_id":"cebpf4jnsgd1na2vs0mg"},{"bike_id":"2a3889b9-d99e-4120-87a9-25f40a53d94a","system_id":"levelo_inurba_marseille","lat":43.29567,"lon":5.39981,"is_reserved":false,"is_disabled":false,"rental_uris":{"android":"levelo://app?vid=2a3889b9-d99e-4120-87a9-25f40a53d94a","ios":"levelo://app?vid=2a3889b9-d99e-4120-87a9-25f40a53d94a"},"vehicle_type_id":"4","last_reported":1773383878,"current_range_meters":32000,"station_id":"ce4bh312rcd13ifvqdj0","pricing_plan_id":"cebpf4jnsgd1na2vs0mg"},{"bike_id":"ee099136-3171-44fc-b930-e4ef15aff9ff","system_id":"levelo_inurba_marseille","lat":43.30789,"lon":5.38152,"is_reserved":false,"is_disabled":true,"rental_uris":{"android":"levelo://app?vid=ee099136-3171-44fc-b930-e4ef15aff9ff","ios":"levelo://app?vid=ee099136-3171-44fc-b930-e4ef15aff9ff"},"vehicle_type_id":"4","last_reported":1773383878,"current_range_meters":28400,"station_id":"ce4bgt12rcd13ifvqce0","pricing_plan_id":"cebpf4jnsgd1na2vs0mg"},{"bike_id":"d342ffc4-e97e-4b68-bab5-4517b49d959b","system_id":"levelo_inurba_marseille","lat":43.30155,"lon":5.38096,"is_reserved":false,"is_disabled":false,"rental_uris":{"android":"levelo://app?vid=d342ffc4-e97e-4b68-bab5-4517b49d959b","ios":"levelo://app?vid=d342ffc4-e97e-4b68-bab5-4517b49d959b"},"vehicle_type_id":"4","last_reported":1773383878,"current_range_meters":34000,"station_id":"ce4bgjp2rcd13ifvqbh0","pricing_plan_id":"cebpf4jnsgd1na2vs0mg"},{"bike_id":"02ead4dc-b645-4d56-ad65-ea6ca89e6836","system_id":"levelo_inurba_marseille","lat":43.28128,"lon":5.42666,"is_reserved":false,"is_disabled":false,"rental_uris":{"android":"levelo://app?vid=02ead4dc-b645-4d56-ad65-ea6ca89e6836","ios":"levelo://app?vid=02ead4dc-b645-4d56-ad65-ea6ca89e6836"},"vehicle_type_id":"4","last_reported":1773383878,"current_range_meters":38000,"station_id":"ce4bhnh2rcd13ifvqgug","pricing_plan_id":"cebpf4jnsgd1na2vs0mg"},{"bike_id":"2269e867-3dce-4814-a819-93bb5461dc9f","system_id":"levelo_inurba_marseille","lat":43.2792,"lon":5.38011,"is_reserved":false,"is_disabled":false,"rental_uris":{"android":"levelo://app?vid=2269e867-3dce-4814-a819-93bb5461dc9f","ios":"levelo://app?vid=2269e867-3dce-4814-a819-93bb5461dc9f"},"vehicle_type_id":"4","last_reported":1773383878,"current_range_meters":37600,"station_id":"ce4bhf92rcd13ifvqf50","pricing_plan_id":"cebpf4jnsgd1na2vs0mg"},{"bike_id":"47778246-0be2-4823-8b6d-1c8e2fb5e9eb","system_id":"levelo_inurba_marseille","lat":43.29478,"lon":5.39737,"is_reserved":false,"is_disabled":false,"rental_uris":{"android":"levelo://app?vid=47778246-0be2-4823-8b6d-1c8e2fb5e9eb","ios":"levelo://app?vid=47778246-0be2-4823-8b6d-1c8e2fb5e9eb"},"vehicle_type_id":"4","last_reported":1773383878,"current_range_meters":20800,"station_id":"","pricing_plan_id":"cebpf4jnsgd1na2vs0mg"},{"bike_id":"3b3bb223-f64d-4999-9484-8389f1a83f8a","system_id":"levelo_inurba_marseille","lat":43.30187,"lon":5.38053,"is_reserved":false,"is_disabled":false,"rental_uris":{"android":"levelo://app?vid=3b3bb223-f64d-4999-9484-8389f1a83f8a","ios":"levelo://app?vid=3b3bb223-f64d-4999-9484-8389f1a83f8a"},"vehicle_type_id":"4","last_reported":1773383878,"current_range_meters":25200,"station_id":"","pricing_plan_id":"cebpf4jnsgd1na2vs0mg"},{"bike_id":"085d9f80-e450-4ad6-81b9-46074072f150","system_id":"levelo_inurba_marseille","lat":43.31492,"lon":5.37306,"is_reserved":false,"is_disabled":false,"rental_uris":{"android":"levelo://app?vid=085d9f80-e450-4ad6-81b9-46074072f150","ios":"levelo://app?vid=085d9f80-e450-4ad6-81b9-46074072f150"},"vehicle_type_id":"4","last_reported":1773383878,"current_range_meters":39200,"station_id":"ce4bgt12rcd13ifvqcd0","pricing_plan_id":"cebpf4jnsgd1na2vs0mg"},{"bike_id":"d2d0f043-d151-44ea-9c2c-a553350ab9c9","system_id":"levelo_inurba_marseille","lat":43.28928,"lon":5.36654,"is_reserved":false,"is_disabled":false,"rental_uris":{"android":"levelo://app?vid=d2d0f043-d151-44ea-9c2c-a553350ab9c9","ios":"levelo://app?vid=d2d0f043-d151-44ea-9c2c-a553350ab9c9"},"vehicle_type_id":"4","last_reported":1773383878,"current_range_meters":19200,"station_id":"ce4bhap2rcd13ifvqek0","pricing_plan_id":"cebpf4jnsgd1na2vs0mg"},{"bike_id":"64069c02-c977-4af0-a752-efe4502ec874","system_id":"levelo_inurba_marseille","lat":43.28456,"lon":5.48401,"is_reserved":false,"is_disabled":false,"rental_uris":{"android":"levelo://app?vid=64069c02-c977-4af0-a752-efe4502ec874","ios":"levelo://app?vid=64069c02-c977-4af0-a752-efe4502ec874"},"vehicle_type_id":"4","last_reported":1773383878,"current_range_meters":11600,"station_id":"","pricing_plan_id":"cebpf4jnsgd1na2vs0mg"},{"bike_id":"09c0af78-b9d6-4a9a-b877-9c88e26d2bb1","system_id":"levelo_inurba_marseille","lat":43.27426,"lon":5.39429,"is_reserved":false,"is_disabled":false,"rental_uris":{"android":"levelo://app?vid=09c0af78-b9d6-4a9a-b877-9c88e26d2bb1","ios":"levelo://app?vid=09c0af78-b9d6-4a9a-b877-9c88e26d2bb1"},"vehicle_type_id":"4","last_reported":1773383878,"current_range_meters":3600,"station_id":"ce4bhdp2rcd13ifvqf20","pricing_plan_id":"cebpf4jnsgd1na2vs0mg"},{"bike_id":"489b4cfb-fccc-4eb6-8d28-eb867a3bc809","system_id":"levelo_inurba_marseille","lat":43.29627,"lon":5.405982,"is_reserved":false,"is_disabled":true,"rental_uris":{"android":"levelo://app?vid=489b4cfb-fccc-4eb6-8d28-eb867a3bc809","ios":"levelo://app?vid=489b4cfb-fccc-4eb6-8d28-eb867a3bc809"},"vehicle_type_id":"4","last_reported":1773383878,"current_range_meters":36800,"station_id":"ce4bh0h2rcd13ifvqd60","pricing_plan_id":"cebpf4jnsgd1na2vs0mg"},{"bike_id":"496052b0-bc2a-4932-9379-e3ec5919e658","system_id":"levelo_inurba_marseille","lat":43.30958,"lon":5.41059,"is_reserved":false,"is_disabled":false,"rental_uris":{"android":"levelo://app?vid=496052b0-bc2a-4932-9379-e3ec5919e658","ios":"levelo://app?vid=496052b0-bc2a-4932-9379-e3ec5919e658"},"vehicle_type_id":"4","last_reported":1773383878,"current_range_meters":33200,"station_id":"","pricing_plan_id":"cebpf4jnsgd1na2vs0mg"},{"bike_id":"34a61cc5-d6ef-40d0-93bf-2cb5f9ac83d3","system_id":"levelo_inurba_marseille","lat":43.28463,"lon":5.35891,"is_reserved":false,"is_disabled":false,"rental_uris":{"android":"levelo://app?vid=34a61cc5-d6ef-40d0-93bf-2cb5f9ac83d3","ios":"levelo://app?vid=34a61cc5-d6ef-40d0-93bf-2cb5f9ac83d3"},"vehicle_type_id":"4","last_reported":1773383878,"current_range_meters":8400,"station_id":"ce4bhah2rcd13ifvqei0","pricing_plan_id":"cebpf4jnsgd1na2vs0mg"},{"bike_id":"e7811f41-0f67-49e1-aa87-03bad78b8804","system_id":"levelo_inurba_marseille","lat":43.30467,"lon":5.38877,"is_reserved":false,"is_disabled":false,"rental_uris":{"android":"levelo://app?vid=e7811f41-0f67-49e1-aa87-03bad78b8804","ios":"levelo://app?vid=e7811f41-0f67-49e1-aa87-03bad78b8804"},"vehicle_type_id":"4","last_reported":1773383878,"current_range_meters":28800,"station_id":"ce4bgk12rcd13ifvqbi0","pricing_plan_id":"cebpf4jnsgd1na2vs0mg"},{"bike_id":"7bf0a830-d498-457c-a030-91c3bd84fed4","system_id":"levelo_inurba_marseille","lat":43.23189,"lon":5.3558,"is_reserved":false,"is_disabled":false,"rental_uris":{"android":"levelo://app?vid=7bf0a830-d498-457c-a030-91c3bd84fed4","ios":"levelo://app?vid=7bf0a830-d498-457c-a030-91c3bd84fed4"},"vehicle_type_id":"4","last_reported":1773383878,"current_range_meters":12400,"station_id":"ce4bhu92rcd13ifvqi70","pricing_plan_id":"cebpf4jnsgd1na2vs0mg"},{"bike_id":"db5fc025-f609-443b-b481-2f6cefb137d4","system_id":"levelo_inurba_marseille","lat":43.28483,"lon":5.4839,"is_reserved":false,"is_disabled":false,"rental_uris":{"android":"levelo://app?vid=db5fc025-f609-443b-b481-2f6cefb137d4","ios":"levelo://app?vid=db5fc025-f609-443b-b481-2f6cefb137d4"},"vehicle_type_id":"4","last_reported":1773383878,"current_range_meters":34800,"station_id":"","pricing_plan_id":"cebpf4jnsgd1na2vs0mg"},{"bike_id":"ea91b894-2056-42f1-aca3-b694fa849cdd","system_id":"levelo_inurba_marseille","lat":43.28373,"lon":5.3863,"is_reserved":false,"is_disabled":false,"rental_uris":{"android":"levelo://app?vid=ea91b894-2056-42f1-aca3-b694fa849cdd","ios":"levelo://app?vid=ea91b894-2056-42f1-aca3-b694fa849cdd"},"vehicle_type_id":"4","last_reported":1773383878,"current_range_meters":38400,"station_id":"ce4bh492rcd13ifvqdvg","pricing_plan_id":"cebpf4jnsgd1na2vs0mg"},{"bike_id":"f65db89f-8c36-4383-9ade-a71147067a65","system_id":"levelo_inurba_marseille","lat":43.31129,"lon":5.37757,"is_reserved":false,"is_disabled":false,"rental_uris":{"android":"levelo://app?vid=f65db89f-8c36-4383-9ade-a71147067a65","ios":"levelo://app?vid=f65db89f-8c36-4383-9ade-a71147067a65"},"vehicle_type_id":"4","last_reported":1773383878,"current_range_meters":32000,"station_id":"ce4bgt92rcd13ifvqcg0","pricing_plan_id":"cebpf4jnsgd1na2vs0mg"},{"bike_id":"ab7d9189-2568-4974-829e-49dee9a447d5","system_id":"levelo_inurba_marseille","lat":43.23196,"lon":5.35555,"is_reserved":false,"is_disabled":false,"rental_uris":{"android":"levelo://app?vid=ab7d9189-2568-4974-829e-49dee9a447d5","ios":"levelo://app?vid=ab7d9189-2568-4974-829e-49dee9a447d5"},"vehicle_type_id":"4","last_reported":1773383878,"current_range_meters":39200,"station_id":"ce4bhu92rcd13ifvqi70","pricing_plan_id":"cebpf4jnsgd1na2vs0mg"},{"bike_id":"b86cbd64-dc80-4638-9246-06e6e3d6f6b4","system_id":"levelo_inurba_marseille","lat":43.29216,"lon":5.36091,"is_reserved":false,"is_disabled":true,"rental_uris":{"android":"levelo://app?vid=b86cbd64-dc80-4638-9246-06e6e3d6f6b4","ios":"levelo://app?vid=b86cbd64-dc80-4638-9246-06e6e3d6f6b4"},"vehicle_type_id":"4","last_reported":1773383878,"current_range_meters":1200,"station_id":"ce4bhbh2rcd13ifvqeqg","pricing_plan_id":"cebpf4jnsgd1na2vs0mg"},{"bike_id":"571fd02e-f1c6-4150-b7f2-77d6744972b1","system_id":"levelo_inurba_marseille","lat":43.28158,"lon":5.39076,"is_reserved":false,"is_disabled":false,"rental_uris":{"android":"levelo://app?vid=571fd02e-f1c6-4150-b7f2-77d6744972b1","ios":"levelo://app?vid=571fd02e-f1c6-4150-b7f2-77d6744972b1"},"vehicle_type_id":"4","last_reported":1773383878,"current_range_meters":18000,"station_id":"","pricing_plan_id":"cebpf4jnsgd1na2vs0mg"},{"bike_id":"c0c5d9dc-928d-48b1-bc04-fe5d71707694","system_id":"levelo_inurba_marseille","lat":43.32368,"lon":5.3674,"is_reserved":false,"is_disabled":false,"rental_uris":{"android":"levelo://app?vid=c0c5d9dc-928d-48b1-bc04-fe5d71707694","ios":"levelo://app?vid=c0c5d9dc-928d-48b1-bc04-fe5d71707694"},"vehicle_type_id":"4","last_reported":1773383878,"current_range_meters":40000,"station_id":"ce4bhsh2rcd13ifvqi2g","pricing_plan_id":"cebpf4jnsgd1na2vs0mg"},{"bike_id":"34067b23-0c56-4b26-b659-525005b5345f","system_id":"levelo_inurba_marseille","lat":43.21739,"lon":5.346,"is_reserved":false,"is_disabled":false,"rental_uris":{"android":"levelo://app?vid=34067b23-0c56-4b26-b659-525005b5345f","ios":"levelo://app?vid=34067b23-0c56-4b26-b659-525005b5345f"},"vehicle_type_id":"4","last_reported":1773383878,"current_range_meters":26800,"station_id":"st_cvj6r9ubvosntc0bgbag","pricing_plan_id":"cebpf4jnsgd1na2vs0mg"},{"bike_id":"a243ae06-bdb1-4295-b949-9b571a79a0aa","system_id":"levelo_inurba_marseille","lat":43.278,"lon":5.40712,"is_reserved":false,"is_disabled":false,"rental_uris":{"android":"levelo://app?vid=a243ae06-bdb1-4295-b949-9b571a79a0aa","ios":"levelo://app?vid=a243ae06-bdb1-4295-b949-9b571a79a0aa"},"vehicle_type_id":"4","last_reported":1773383878,"current_range_meters":10800,"station_id":"ce4bhnh2rcd13ifvqgtg","pricing_plan_id":"cebpf4jnsgd1na2vs0mg"},{"bike_id":"91ad5159-ee4f-4775-9e76-ea40758cdb2d","system_id":"levelo_inurba_marseille","lat":43.24146,"lon":5.3643,"is_reserved":false,"is_disabled":false,"rental_uris":{"android":"levelo://app?vid=91ad5159-ee4f-4775-9e76-ea40758cdb2d","ios":"levelo://app?vid=91ad5159-ee4f-4775-9e76-ea40758cdb2d"},"vehicle_type_id":"4","last_reported":1773383878,"current_range_meters":11600,"station_id":"cpo36qri1sfpv3e86is0","pricing_plan_id":"cebpf4jnsgd1na2vs0mg"},{"bike_id":"dac17f0e-293d-4291-87a1-e26b2d08c7ae","system_id":"levelo_inurba_marseille","lat":43.29824,"lon":5.40406,"is_reserved":false,"is_disabled":false,"rental_uris":{"android":"levelo://app?vid=dac17f0e-293d-4291-87a1-e26b2d08c7ae","ios":"levelo://app?vid=dac17f0e-293d-4291-87a1-e26b2d08c7ae"},"vehicle_type_id":"4","last_reported":1773383878,"current_range_meters":38000,"station_id":"ce4bh112rcd13ifvqd90","pricing_plan_id":"cebpf4jnsgd1na2vs0mg"},{"bike_id":"7ebd4fe4-bd51-4cb0-ad79-c4b5beaa245d","system_id":"levelo_inurba_marseille","lat":43.26197,"lon":5.37914,"is_reserved":false,"is_disabled":false,"rental_uris":{"android":"levelo://app?vid=7ebd4fe4-bd51-4cb0-ad79-c4b5beaa245d","ios":"levelo://app?vid=7ebd4fe4-bd51-4cb0-ad79-c4b5beaa245d"},"vehicle_type_id":"4","last_reported":1773383878,"current_range_meters":40000,"station_id":"ce4bhjp2rcd13ifvqg90","pricing_plan_id":"cebpf4jnsgd1na2vs0mg"},{"bike_id":"10dbcc95-58ff-4f93-aa83-9461fa6c692a","system_id":"levelo_inurba_marseille","lat":43.29637,"lon":5.40595,"is_reserved":false,"is_disabled":false,"rental_uris":{"android":"levelo://app?vid=10dbcc95-58ff-4f93-aa83-9461fa6c692a","ios":"levelo://app?vid=10dbcc95-58ff-4f93-aa83-9461fa6c692a"},"vehicle_type_id":"4","last_reported":1773383878,"current_range_meters":2800,"station_id":"ce4bh0h2rcd13ifvqd60","pricing_plan_id":"cebpf4jnsgd1na2vs0mg"},{"bike_id":"6737ca02-2d43-49c4-a10a-3e68cea6b2e2","system_id":"levelo_inurba_marseille","lat":43.29745,"lon":5.42782,"is_reserved":false,"is_disabled":false,"rental_uris":{"android":"levelo://app?vid=6737ca02-2d43-49c4-a10a-3e68cea6b2e2","ios":"levelo://app?vid=6737ca02-2d43-49c4-a10a-3e68cea6b2e2"},"vehicle_type_id":"4","last_reported":1773383878,"current_range_meters":32000,"station_id":"st_d3md5207bmas73dh9klg","pricing_plan_id":"cebpf4jnsgd1na2vs0mg"},{"bike_id":"8538cacb-65ac-4661-8450-fd941a926a5b","system_id":"levelo_inurba_marseille","lat":43.3046,"lon":5.37917,"is_reserved":false,"is_disabled":false,"rental_uris":{"android":"levelo://app?vid=8538cacb-65ac-4661-8450-fd941a926a5b","ios":"levelo://app?vid=8538cacb-65ac-4661-8450-fd941a926a5b"},"vehicle_type_id":"4","last_reported":1773383878,"current_range_meters":14000,"station_id":"ce4bgup2rcd13ifvqcn0","pricing_plan_id":"cebpf4jnsgd1na2vs0mg"},{"bike_id":"54d4856f-7ec8-41b0-afeb-127a7f108eee","system_id":"levelo_inurba_marseille","lat":43.28117,"lon":5.37811,"is_reserved":false,"is_disabled":false,"rental_uris":{"android":"levelo://app?vid=54d4856f-7ec8-41b0-afeb-127a7f108eee","ios":"levelo://app?vid=54d4856f-7ec8-41b0-afeb-127a7f108eee"},"vehicle_type_id":"4","last_reported":1773383878,"current_range_meters":8400,"station_id":"ce4bha12rcd13ifvqee0","pricing_plan_id":"cebpf4jnsgd1na2vs0mg"},{"bike_id":"50251ffc-95ae-4419-96f2-c7a4d8e00c25","system_id":"levelo_inurba_marseille","lat":43.28727,"lon":5.39971,"is_reserved":false,"is_disabled":false,"rental_uris":{"android":"levelo://app?vid=50251ffc-95ae-4419-96f2-c7a4d8e00c25","ios":"levelo://app?vid=50251ffc-95ae-4419-96f2-c7a4d8e00c25"},"vehicle_type_id":"4","last_reported":1773383878,"current_range_meters":38800,"station_id":"ce4bho92rcd13ifvqh3g","pricing_plan_id":"cebpf4jnsgd1na2vs0mg"},{"bike_id":"b70651cb-a444-4a3a-a2c4-61132b1a1c53","system_id":"levelo_inurba_marseille","lat":43.26796,"lon":5.39344,"is_reserved":false,"is_disabled":false,"rental_uris":{"android":"levelo://app?vid=b70651cb-a444-4a3a-a2c4-61132b1a1c53","ios":"levelo://app?vid=b70651cb-a444-4a3a-a2c4-61132b1a1c53"},"vehicle_type_id":"4","last_reported":1773383878,"current_range_meters":24800,"station_id":"ce4bhh12rcd13ifvqfg0","pricing_plan_id":"cebpf4jnsgd1na2vs0mg"},{"bike_id":"b4220436-a583-4597-8707-dcc4dd4a609d","system_id":"levelo_inurba_marseille","lat":43.28101,"lon":5.37851,"is_reserved":false,"is_disabled":false,"rental_uris":{"android":"levelo://app?vid=b4220436-a583-4597-8707-dcc4dd4a609d","ios":"levelo://app?vid=b4220436-a583-4597-8707-dcc4dd4a609d"},"vehicle_type_id":"4","last_reported":1773383878,"current_range_meters":4400,"station_id":"ce4bha12rcd13ifvqee0","pricing_plan_id":"cebpf4jnsgd1na2vs0mg"},{"bike_id":"a383c918-f018-49fa-af1c-9d3ec6aea918","system_id":"levelo_inurba_marseille","lat":43.268,"lon":5.4026,"is_reserved":false,"is_disabled":false,"rental_uris":{"android":"levelo://app?vid=a383c918-f018-49fa-af1c-9d3ec6aea918","ios":"levelo://app?vid=a383c918-f018-49fa-af1c-9d3ec6aea918"},"vehicle_type_id":"4","last_reported":1773383878,"current_range_meters":38000,"station_id":"ce501612rcd8frsf0b60","pricing_plan_id":"cebpf4jnsgd1na2vs0mg"},{"bike_id":"dbd39540-49db-48a9-859e-6e97cdb2ce3b","system_id":"levelo_inurba_marseille","lat":43.27925,"lon":5.39573,"is_reserved":false,"is_disabled":false,"rental_uris":{"android":"levelo://app?vid=dbd39540-49db-48a9-859e-6e97cdb2ce3b","ios":"levelo://app?vid=dbd39540-49db-48a9-859e-6e97cdb2ce3b"},"vehicle_type_id":"4","last_reported":1773383878,"current_range_meters":39200,"station_id":"ce4bhf92rcd13ifvqf40","pricing_plan_id":"cebpf4jnsgd1na2vs0mg"},{"bike_id":"00533970-df4c-45dc-9257-04e612085317","system_id":"levelo_inurba_marseille","lat":43.25334,"lon":5.42178,"is_reserved":false,"is_disabled":false,"rental_uris":{"android":"levelo://app?vid=00533970-df4c-45dc-9257-04e612085317","ios":"levelo://app?vid=00533970-df4c-45dc-9257-04e612085317"},"vehicle_type_id":"4","last_reported":1773383878,"current_range_meters":28800,"station_id":"st_d2m65c5bi1j21697t3ng","pricing_plan_id":"cebpf4jnsgd1na2vs0mg"},{"bike_id":"38c8a2aa-aaf2-42ca-bf6f-cbe44ad62d9a","system_id":"levelo_inurba_marseille","lat":43.29046,"lon":5.39939,"is_reserved":false,"is_disabled":false,"rental_uris":{"android":"levelo://app?vid=38c8a2aa-aaf2-42ca-bf6f-cbe44ad62d9a","ios":"levelo://app?vid=38c8a2aa-aaf2-42ca-bf6f-cbe44ad62d9a"},"vehicle_type_id":"4","last_reported":1773383878,"current_range_meters":36400,"station_id":"ce4bh392rcd13ifvqdm0","pricing_plan_id":"cebpf4jnsgd1na2vs0mg"},{"bike_id":"32358ead-44ff-491d-882b-0c4122b7d796","system_id":"levelo_inurba_marseille","lat":43.21204,"lon":5.3506,"is_reserved":false,"is_disabled":false,"rental_uris":{"android":"levelo://app?vid=32358ead-44ff-491d-882b-0c4122b7d796","ios":"levelo://app?vid=32358ead-44ff-491d-882b-0c4122b7d796"},"vehicle_type_id":"4","last_reported":1773383878,"current_range_meters":9600,"station_id":"st_cvj6sg6p6f1abm77japg","pricing_plan_id":"cebpf4jnsgd1na2vs0mg"},{"bike_id":"88baf1fe-4b9b-4c52-81f7-dd067c921a9f","system_id":"levelo_inurba_marseille","lat":43.29824,"lon":5.44072,"is_reserved":false,"is_disabled":false,"rental_uris":{"android":"levelo://app?vid=88baf1fe-4b9b-4c52-81f7-dd067c921a9f","ios":"levelo://app?vid=88baf1fe-4b9b-4c52-81f7-dd067c921a9f"},"vehicle_type_id":"4","last_reported":1773383878,"current_range_meters":17600,"station_id":"st_d3jp68qikq2c7381ktn0","pricing_plan_id":"cebpf4jnsgd1na2vs0mg"},{"bike_id":"9641b733-d98d-4c10-941a-25d796801442","system_id":"levelo_inurba_marseille","lat":43.28724,"lon":5.36084,"is_reserved":false,"is_disabled":false,"rental_uris":{"android":"levelo://app?vid=9641b733-d98d-4c10-941a-25d796801442","ios":"levelo://app?vid=9641b733-d98d-4c10-941a-25d796801442"},"vehicle_type_id":"4","last_reported":1773383878,"current_range_meters":32000,"station_id":"cki0cbj6b192h4jlfktg","pricing_plan_id":"cebpf4jnsgd1na2vs0mg"},{"bike_id":"84021740-39d4-442f-8b11-4b77900e3dc9","system_id":"levelo_inurba_marseille","lat":43.30429,"lon":5.39746,"is_reserved":false,"is_disabled":false,"rental_uris":{"android":"levelo://app?vid=84021740-39d4-442f-8b11-4b77900e3dc9","ios":"levelo://app?vid=84021740-39d4-442f-8b11-4b77900e3dc9"},"vehicle_type_id":"4","last_reported":1773383878,"current_range_meters":33600,"station_id":"ce4bh092rcd13ifvqd20","pricing_plan_id":"cebpf4jnsgd1na2vs0mg"},{"bike_id":"cf76cd83-21b4-4e98-ae5a-fd0ea800a53a","system_id":"levelo_inurba_marseille","lat":43.27379,"lon":5.39411,"is_reserved":false,"is_disabled":true,"rental_uris":{"android":"levelo://app?vid=cf76cd83-21b4-4e98-ae5a-fd0ea800a53a","ios":"levelo://app?vid=cf76cd83-21b4-4e98-ae5a-fd0ea800a53a"},"vehicle_type_id":"4","last_reported":1773383878,"current_range_meters":14400,"station_id":"ce4bhdp2rcd13ifvqf20","pricing_plan_id":"cebpf4jnsgd1na2vs0mg"},{"bike_id":"5fc9a2f1-831b-4132-8f90-a9000c7e5ec7","system_id":"levelo_inurba_marseille","lat":43.28605,"lon":5.35143,"is_reserved":false,"is_disabled":false,"rental_uris":{"android":"levelo://app?vid=5fc9a2f1-831b-4132-8f90-a9000c7e5ec7","ios":"levelo://app?vid=5fc9a2f1-831b-4132-8f90-a9000c7e5ec7"},"vehicle_type_id":"4","last_reported":1773383878,"current_range_meters":14000,"station_id":"ce4bhch2rcd13ifvqeug","pricing_plan_id":"cebpf4jnsgd1na2vs0mg"},{"bike_id":"5f47c04e-7453-420c-b2c1-3627df3f2afc","system_id":"levelo_inurba_marseille","lat":43.25819,"lon":5.39439,"is_reserved":false,"is_disabled":false,"rental_uris":{"android":"levelo://app?vid=5f47c04e-7453-420c-b2c1-3627df3f2afc","ios":"levelo://app?vid=5f47c04e-7453-420c-b2c1-3627df3f2afc"},"vehicle_type_id":"4","last_reported":1773383878,"current_range_meters":33600,"station_id":"ce4bhip2rcd13ifvqft0","pricing_plan_id":"cebpf4jnsgd1na2vs0mg"},{"bike_id":"1b3a1033-3993-49e6-9e05-c8145b464a04","system_id":"levelo_inurba_marseille","lat":43.278,"lon":5.40742,"is_reserved":false,"is_disabled":false,"rental_uris":{"android":"levelo://app?vid=1b3a1033-3993-49e6-9e05-c8145b464a04","ios":"levelo://app?vid=1b3a1033-3993-49e6-9e05-c8145b464a04"},"vehicle_type_id":"4","last_reported":1773383878,"current_range_meters":39200,"station_id":"ce4bhnh2rcd13ifvqgtg","pricing_plan_id":"cebpf4jnsgd1na2vs0mg"},{"bike_id":"004a97f4-df33-4b21-b056-79227a53a58c","system_id":"levelo_inurba_marseille","lat":43.28074,"lon":5.39663,"is_reserved":false,"is_disabled":false,"rental_uris":{"android":"levelo://app?vid=004a97f4-df33-4b21-b056-79227a53a58c","ios":"levelo://app?vid=004a97f4-df33-4b21-b056-79227a53a58c"},"vehicle_type_id":"4","last_reported":1773383878,"current_range_meters":39200,"station_id":"ce4bho12rcd13ifvqh2g","pricing_plan_id":"cebpf4jnsgd1na2vs0mg"},{"bike_id":"b9f80436-b025-4780-b392-7d89975f7b62","system_id":"levelo_inurba_marseille","lat":43.27411,"lon":5.42474,"is_reserved":false,"is_disabled":false,"rental_uris":{"android":"levelo://app?vid=b9f80436-b025-4780-b392-7d89975f7b62","ios":"levelo://app?vid=b9f80436-b025-4780-b392-7d89975f7b62"},"vehicle_type_id":"4","last_reported":1773383878,"current_range_meters":27600,"station_id":"","pricing_plan_id":"cebpf4jnsgd1na2vs0mg"},{"bike_id":"80f3989c-43f1-4226-85c2-7adc6db20b30","system_id":"levelo_inurba_marseille","lat":43.29786,"lon":5.39357,"is_reserved":false,"is_disabled":false,"rental_uris":{"android":"levelo://app?vid=80f3989c-43f1-4226-85c2-7adc6db20b30","ios":"levelo://app?vid=80f3989c-43f1-4226-85c2-7adc6db20b30"},"vehicle_type_id":"4","last_reported":1773383878,"current_range_meters":39200,"station_id":"chh1huq6cuj3fo74tm60","pricing_plan_id":"cebpf4jnsgd1na2vs0mg"},{"bike_id":"397861e0-ecc8-4b9e-91c2-32b55d2e98f9","system_id":"levelo_inurba_marseille","lat":43.31351,"lon":5.397,"is_reserved":false,"is_disabled":false,"rental_uris":{"android":"levelo://app?vid=397861e0-ecc8-4b9e-91c2-32b55d2e98f9","ios":"levelo://app?vid=397861e0-ecc8-4b9e-91c2-32b55d2e98f9"},"vehicle_type_id":"4","last_reported":1773383878,"current_range_meters":32000,"station_id":"ce4bgvp2rcd13ifvqcu0","pricing_plan_id":"cebpf4jnsgd1na2vs0mg"},{"bike_id":"ae5a0365-5ee5-4329-b395-b2e15774e64d","system_id":"levelo_inurba_marseille","lat":43.24172,"lon":5.39749,"is_reserved":false,"is_disabled":true,"rental_uris":{"android":"levelo://app?vid=ae5a0365-5ee5-4329-b395-b2e15774e64d","ios":"levelo://app?vid=ae5a0365-5ee5-4329-b395-b2e15774e64d"},"vehicle_type_id":"4","last_reported":1773383878,"current_range_meters":3600,"station_id":"ce4bhn12rcd13ifvqgpg","pricing_plan_id":"cebpf4jnsgd1na2vs0mg"},{"bike_id":"0083ca42-3e0b-4193-b461-7de40d2e33fb","system_id":"levelo_inurba_marseille","lat":43.29567,"lon":5.39962,"is_reserved":false,"is_disabled":false,"rental_uris":{"android":"levelo://app?vid=0083ca42-3e0b-4193-b461-7de40d2e33fb","ios":"levelo://app?vid=0083ca42-3e0b-4193-b461-7de40d2e33fb"},"vehicle_type_id":"4","last_reported":1773383878,"current_range_meters":39200,"station_id":"ce4bh312rcd13ifvqdj0","pricing_plan_id":"cebpf4jnsgd1na2vs0mg"},{"bike_id":"d6020f80-4f12-4b16-9868-71a9b4fcf4bf","system_id":"levelo_inurba_marseille","lat":43.30477,"lon":5.37899,"is_reserved":false,"is_disabled":false,"rental_uris":{"android":"levelo://app?vid=d6020f80-4f12-4b16-9868-71a9b4fcf4bf","ios":"levelo://app?vid=d6020f80-4f12-4b16-9868-71a9b4fcf4bf"},"vehicle_type_id":"4","last_reported":1773383878,"current_range_meters":39200,"station_id":"ce4bgup2rcd13ifvqcn0","pricing_plan_id":"cebpf4jnsgd1na2vs0mg"},{"bike_id":"f7a936b9-83d2-4057-ba4a-a4aff91d97af","system_id":"levelo_inurba_marseille","lat":43.30144,"lon":5.39851,"is_reserved":false,"is_disabled":false,"rental_uris":{"android":"levelo://app?vid=f7a936b9-83d2-4057-ba4a-a4aff91d97af","ios":"levelo://app?vid=f7a936b9-83d2-4057-ba4a-a4aff91d97af"},"vehicle_type_id":"4","last_reported":1773383878,"current_range_meters":27200,"station_id":"ce4bh0h2rcd13ifvqd40","pricing_plan_id":"cebpf4jnsgd1na2vs0mg"},{"bike_id":"77104936-f36f-4a1c-b5f6-9be1e7ca6ed3","system_id":"levelo_inurba_marseille","lat":43.33549,"lon":5.37467,"is_reserved":false,"is_disabled":false,"rental_uris":{"android":"levelo://app?vid=77104936-f36f-4a1c-b5f6-9be1e7ca6ed3","ios":"levelo://app?vid=77104936-f36f-4a1c-b5f6-9be1e7ca6ed3"},"vehicle_type_id":"4","last_reported":1773383878,"current_range_meters":30000,"station_id":"st_d46tts09ee8s73dlu43g","pricing_plan_id":"cebpf4jnsgd1na2vs0mg"},{"bike_id":"2c081adf-bb88-4cfc-b739-ae56fac7872a","system_id":"levelo_inurba_marseille","lat":43.28924,"lon":5.36418,"is_reserved":false,"is_disabled":true,"rental_uris":{"android":"levelo://app?vid=2c081adf-bb88-4cfc-b739-ae56fac7872a","ios":"levelo://app?vid=2c081adf-bb88-4cfc-b739-ae56fac7872a"},"vehicle_type_id":"4","last_reported":1773383878,"current_range_meters":33200,"station_id":"ce4bhc92rcd13ifvqetg","pricing_plan_id":"cebpf4jnsgd1na2vs0mg"},{"bike_id":"0f656df9-76bf-4d14-914d-2ecc251df22f","system_id":"levelo_inurba_marseille","lat":43.28627,"lon":5.39877,"is_reserved":false,"is_disabled":false,"rental_uris":{"android":"levelo://app?vid=0f656df9-76bf-4d14-914d-2ecc251df22f","ios":"levelo://app?vid=0f656df9-76bf-4d14-914d-2ecc251df22f"},"vehicle_type_id":"4","last_reported":1773383878,"current_range_meters":29600,"station_id":"st_d4a7ka997mjs738ck50g","pricing_plan_id":"cebpf4jnsgd1na2vs0mg"},{"bike_id":"69e05900-50f6-42b8-90dd-e1c9c6f8e7da","system_id":"levelo_inurba_marseille","lat":43.25819,"lon":5.39434,"is_reserved":false,"is_disabled":false,"rental_uris":{"android":"levelo://app?vid=69e05900-50f6-42b8-90dd-e1c9c6f8e7da","ios":"levelo://app?vid=69e05900-50f6-42b8-90dd-e1c9c6f8e7da"},"vehicle_type_id":"4","last_reported":1773383878,"current_range_meters":34800,"station_id":"ce4bhip2rcd13ifvqft0","pricing_plan_id":"cebpf4jnsgd1na2vs0mg"},{"bike_id":"ea304849-fd51-4961-bfc0-efabcbe3b6ad","system_id":"levelo_inurba_marseille","lat":43.2337,"lon":5.41268,"is_reserved":false,"is_disabled":false,"rental_uris":{"android":"levelo://app?vid=ea304849-fd51-4961-bfc0-efabcbe3b6ad","ios":"levelo://app?vid=ea304849-fd51-4961-bfc0-efabcbe3b6ad"},"vehicle_type_id":"4","last_reported":1773383878,"current_range_meters":20800,"station_id":"","pricing_plan_id":"cebpf4jnsgd1na2vs0mg"},{"bike_id":"c514af3d-99f3-462a-a5ff-b0c3a231404d","system_id":"levelo_inurba_marseille","lat":43.31341,"lon":5.36701,"is_reserved":false,"is_disabled":false,"rental_uris":{"android":"levelo://app?vid=c514af3d-99f3-462a-a5ff-b0c3a231404d","ios":"levelo://app?vid=c514af3d-99f3-462a-a5ff-b0c3a231404d"},"vehicle_type_id":"4","last_reported":1773383878,"current_range_meters":36400,"station_id":"ce4bgr92rcd13ifvqc6g","pricing_plan_id":"cebpf4jnsgd1na2vs0mg"},{"bike_id":"b804955e-0fa9-4979-9932-b99c32967a4b","system_id":"levelo_inurba_marseille","lat":43.2903,"lon":5.35932,"is_reserved":false,"is_disabled":false,"rental_uris":{"android":"levelo://app?vid=b804955e-0fa9-4979-9932-b99c32967a4b","ios":"levelo://app?vid=b804955e-0fa9-4979-9932-b99c32967a4b"},"vehicle_type_id":"4","last_reported":1773383878,"current_range_meters":38400,"station_id":"ce4bha92rcd13ifvqeg0","pricing_plan_id":"cebpf4jnsgd1na2vs0mg"},{"bike_id":"52c0e189-e831-4c3c-a72a-ee2208e9bced","system_id":"levelo_inurba_marseille","lat":43.33165,"lon":5.37674,"is_reserved":false,"is_disabled":false,"rental_uris":{"android":"levelo://app?vid=52c0e189-e831-4c3c-a72a-ee2208e9bced","ios":"levelo://app?vid=52c0e189-e831-4c3c-a72a-ee2208e9bced"},"vehicle_type_id":"4","last_reported":1773383878,"current_range_meters":33600,"station_id":"st_d46cu089ee8s73dldbu0","pricing_plan_id":"cebpf4jnsgd1na2vs0mg"},{"bike_id":"8617b24d-bdd2-49e3-beda-5d74fc474252","system_id":"levelo_inurba_marseille","lat":43.28475,"lon":5.48391,"is_reserved":false,"is_disabled":false,"rental_uris":{"android":"levelo://app?vid=8617b24d-bdd2-49e3-beda-5d74fc474252","ios":"levelo://app?vid=8617b24d-bdd2-49e3-beda-5d74fc474252"},"vehicle_type_id":"4","last_reported":1773383878,"current_range_meters":30800,"station_id":"","pricing_plan_id":"cebpf4jnsgd1na2vs0mg"},{"bike_id":"fa2bba8a-18e3-4b70-aead-eb8340ccd9cb","system_id":"levelo_inurba_marseille","lat":43.23379,"lon":5.41258,"is_reserved":false,"is_disabled":false,"rental_uris":{"android":"levelo://app?vid=fa2bba8a-18e3-4b70-aead-eb8340ccd9cb","ios":"levelo://app?vid=fa2bba8a-18e3-4b70-aead-eb8340ccd9cb"},"vehicle_type_id":"4","last_reported":1773383878,"current_range_meters":28400,"station_id":"","pricing_plan_id":"cebpf4jnsgd1na2vs0mg"},{"bike_id":"86d6c4db-b62d-4582-baf3-08c0049a5c86","system_id":"levelo_inurba_marseille","lat":43.2961,"lon":5.38081,"is_reserved":false,"is_disabled":true,"rental_uris":{"android":"levelo://app?vid=86d6c4db-b62d-4582-baf3-08c0049a5c86","ios":"levelo://app?vid=86d6c4db-b62d-4582-baf3-08c0049a5c86"},"vehicle_type_id":"4","last_reported":1773383878,"current_range_meters":37600,"station_id":"ce4bgl12rcd13ifvqbo0","pricing_plan_id":"cebpf4jnsgd1na2vs0mg"},{"bike_id":"ee691251-5f48-405a-aafd-972123792626","system_id":"levelo_inurba_marseille","lat":43.28611,"lon":5.35111,"is_reserved":false,"is_disabled":false,"rental_uris":{"android":"levelo://app?vid=ee691251-5f48-405a-aafd-972123792626","ios":"levelo://app?vid=ee691251-5f48-405a-aafd-972123792626"},"vehicle_type_id":"4","last_reported":1773383878,"current_range_meters":4400,"station_id":"ce4bhch2rcd13ifvqeug","pricing_plan_id":"cebpf4jnsgd1na2vs0mg"},{"bike_id":"2c4b9baa-150c-43c0-9983-79477495e674","system_id":"levelo_inurba_marseille","lat":43.33016,"lon":5.39026,"is_reserved":false,"is_disabled":false,"rental_uris":{"android":"levelo://app?vid=2c4b9baa-150c-43c0-9983-79477495e674","ios":"levelo://app?vid=2c4b9baa-150c-43c0-9983-79477495e674"},"vehicle_type_id":"4","last_reported":1773383878,"current_range_meters":8000,"station_id":"ce4bhr92rcd13ifvqhrg","pricing_plan_id":"cebpf4jnsgd1na2vs0mg"},{"bike_id":"e2f07328-8d63-4898-a685-6824fc31e404","system_id":"levelo_inurba_marseille","lat":43.27057,"lon":5.40261,"is_reserved":false,"is_disabled":false,"rental_uris":{"android":"levelo://app?vid=e2f07328-8d63-4898-a685-6824fc31e404","ios":"levelo://app?vid=e2f07328-8d63-4898-a685-6824fc31e404"},"vehicle_type_id":"4","last_reported":1773383878,"current_range_meters":38400,"station_id":"ce4bhk92rcd13ifvqgc0","pricing_plan_id":"cebpf4jnsgd1na2vs0mg"},{"bike_id":"5513dccf-31e4-4825-b6d2-d5fbbde55b2d","system_id":"levelo_inurba_marseille","lat":43.27215,"lon":5.41002,"is_reserved":false,"is_disabled":false,"rental_uris":{"android":"levelo://app?vid=5513dccf-31e4-4825-b6d2-d5fbbde55b2d","ios":"levelo://app?vid=5513dccf-31e4-4825-b6d2-d5fbbde55b2d"},"vehicle_type_id":"4","last_reported":1773383878,"current_range_meters":2800,"station_id":"ce4bhl12rcd13ifvqgf0","pricing_plan_id":"cebpf4jnsgd1na2vs0mg"},{"bike_id":"259301c3-3ec4-4c50-be78-77aa118cc1d9","system_id":"levelo_inurba_marseille","lat":43.29514,"lon":5.38536,"is_reserved":false,"is_disabled":true,"rental_uris":{"android":"levelo://app?vid=259301c3-3ec4-4c50-be78-77aa118cc1d9","ios":"levelo://app?vid=259301c3-3ec4-4c50-be78-77aa118cc1d9"},"vehicle_type_id":"4","last_reported":1773383878,"current_range_meters":16800,"station_id":"ce4bgih2rcd13ifvqba0","pricing_plan_id":"cebpf4jnsgd1na2vs0mg"},{"bike_id":"e0f4c726-c891-4b59-a727-5f7bf2fb4325","system_id":"levelo_inurba_marseille","lat":43.28532,"lon":5.4411,"is_reserved":false,"is_disabled":false,"rental_uris":{"android":"levelo://app?vid=e0f4c726-c891-4b59-a727-5f7bf2fb4325","ios":"levelo://app?vid=e0f4c726-c891-4b59-a727-5f7bf2fb4325"},"vehicle_type_id":"4","last_reported":1773383878,"current_range_meters":6000,"station_id":"st_d3j3df2ikq2c7380ej80","pricing_plan_id":"cebpf4jnsgd1na2vs0mg"},{"bike_id":"fea054e9-9687-462f-a721-42a34c23bbef","system_id":"levelo_inurba_marseille","lat":43.24672,"lon":5.3818,"is_reserved":false,"is_disabled":false,"rental_uris":{"android":"levelo://app?vid=fea054e9-9687-462f-a721-42a34c23bbef","ios":"levelo://app?vid=fea054e9-9687-462f-a721-42a34c23bbef"},"vehicle_type_id":"4","last_reported":1773383878,"current_range_meters":14000,"station_id":"ce4bhih2rcd13ifvqfr0","pricing_plan_id":"cebpf4jnsgd1na2vs0mg"},{"bike_id":"3d4208c2-815f-40bf-8bb0-f78b87ee07d6","system_id":"levelo_inurba_marseille","lat":43.28405,"lon":5.34996,"is_reserved":false,"is_disabled":false,"rental_uris":{"android":"levelo://app?vid=3d4208c2-815f-40bf-8bb0-f78b87ee07d6","ios":"levelo://app?vid=3d4208c2-815f-40bf-8bb0-f78b87ee07d6"},"vehicle_type_id":"4","last_reported":1773383878,"current_range_meters":38800,"station_id":"ce4bhbh2rcd13ifvqepg","pricing_plan_id":"cebpf4jnsgd1na2vs0mg"},{"bike_id":"f516d8f7-b497-4c5a-a65d-b7f43298643e","system_id":"levelo_inurba_marseille","lat":43.27626,"lon":5.36127,"is_reserved":false,"is_disabled":false,"rental_uris":{"android":"levelo://app?vid=f516d8f7-b497-4c5a-a65d-b7f43298643e","ios":"levelo://app?vid=f516d8f7-b497-4c5a-a65d-b7f43298643e"},"vehicle_type_id":"4","last_reported":1773383878,"current_range_meters":38400,"station_id":"ce4bgj92rcd13ifvqbe0","pricing_plan_id":"cebpf4jnsgd1na2vs0mg"},{"bike_id":"c850068b-086b-4830-b30c-58c3335b6d7f","system_id":"levelo_inurba_marseille","lat":43.31505,"lon":5.37295,"is_reserved":false,"is_disabled":false,"rental_uris":{"android":"levelo://app?vid=c850068b-086b-4830-b30c-58c3335b6d7f","ios":"levelo://app?vid=c850068b-086b-4830-b30c-58c3335b6d7f"},"vehicle_type_id":"4","last_reported":1773383878,"current_range_meters":38800,"station_id":"ce4bgt12rcd13ifvqcd0","pricing_plan_id":"cebpf4jnsgd1na2vs0mg"},{"bike_id":"a4a39576-d5dd-40ab-8a75-a71d7099bc45","system_id":"levelo_inurba_marseille","lat":43.30462,"lon":5.38871,"is_reserved":false,"is_disabled":false,"rental_uris":{"android":"levelo://app?vid=a4a39576-d5dd-40ab-8a75-a71d7099bc45","ios":"levelo://app?vid=a4a39576-d5dd-40ab-8a75-a71d7099bc45"},"vehicle_type_id":"4","last_reported":1773383878,"current_range_meters":17600,"station_id":"ce4bgk12rcd13ifvqbi0","pricing_plan_id":"cebpf4jnsgd1na2vs0mg"},{"bike_id":"db11b6df-f47a-4147-946b-e230e25d0f76","system_id":"levelo_inurba_marseille","lat":43.29635,"lon":5.40627,"is_reserved":false,"is_disabled":false,"rental_uris":{"android":"levelo://app?vid=db11b6df-f47a-4147-946b-e230e25d0f76","ios":"levelo://app?vid=db11b6df-f47a-4147-946b-e230e25d0f76"},"vehicle_type_id":"4","last_reported":1773383878,"current_range_meters":38800,"station_id":"ce4bh0h2rcd13ifvqd60","pricing_plan_id":"cebpf4jnsgd1na2vs0mg"},{"bike_id":"b86e5b19-3f46-49c7-9d71-c27e739a8dfb","system_id":"levelo_inurba_marseille","lat":43.29817,"lon":5.39335,"is_reserved":false,"is_disabled":false,"rental_uris":{"android":"levelo://app?vid=b86e5b19-3f46-49c7-9d71-c27e739a8dfb","ios":"levelo://app?vid=b86e5b19-3f46-49c7-9d71-c27e739a8dfb"},"vehicle_type_id":"4","last_reported":1773383878,"current_range_meters":38400,"station_id":"chh1huq6cuj3fo74tm60","pricing_plan_id":"cebpf4jnsgd1na2vs0mg"},{"bike_id":"04d16ef4-39d1-4e51-b75d-bfa218adb8ad","system_id":"levelo_inurba_marseille","lat":43.30895,"lon":5.37329,"is_reserved":false,"is_disabled":false,"rental_uris":{"android":"levelo://app?vid=04d16ef4-39d1-4e51-b75d-bfa218adb8ad","ios":"levelo://app?vid=04d16ef4-39d1-4e51-b75d-bfa218adb8ad"},"vehicle_type_id":"4","last_reported":1773383878,"current_range_meters":26000,"station_id":"","pricing_plan_id":"cebpf4jnsgd1na2vs0mg"},{"bike_id":"a63ad6e3-8d53-4426-83df-9f1aac94a3b8","system_id":"levelo_inurba_marseille","lat":43.29043,"lon":5.39958,"is_reserved":false,"is_disabled":false,"rental_uris":{"android":"levelo://app?vid=a63ad6e3-8d53-4426-83df-9f1aac94a3b8","ios":"levelo://app?vid=a63ad6e3-8d53-4426-83df-9f1aac94a3b8"},"vehicle_type_id":"4","last_reported":1773383878,"current_range_meters":32400,"station_id":"ce4bh392rcd13ifvqdm0","pricing_plan_id":"cebpf4jnsgd1na2vs0mg"},{"bike_id":"08ec0bd7-db6c-4004-87ba-401b19a3211e","system_id":"levelo_inurba_marseille","lat":43.26549,"lon":5.39003,"is_reserved":false,"is_disabled":false,"rental_uris":{"android":"levelo://app?vid=08ec0bd7-db6c-4004-87ba-401b19a3211e","ios":"levelo://app?vid=08ec0bd7-db6c-4004-87ba-401b19a3211e"},"vehicle_type_id":"4","last_reported":1773383878,"current_range_meters":17600,"station_id":"ce4bhe12rcd13ifvqf30","pricing_plan_id":"cebpf4jnsgd1na2vs0mg"},