{"last_updated":1683824720,"ttl":30,"version":"2.2","data":{"bikes":[{"bike_id":"aeea0b82-365f-4841-9991-643a63efac59","system_id":"levelo_inurba_marseille","lat":43.314811,"lon":5.373103,"is_reserved":false,"is_disabled":false,"rental_uris":{"android":"levelo://app?vid=aeea0b82-365f-4841-9991-643a63efac59","ios":"levelo://app?vid=aeea0b82-365f-4841-9991-643a63efac59"},"vehicle_type_id":"4","last_reported":1683824721,"current_range_meters":3600,"station_id":"ce4bgt12rcd13ifvqcd0","pricing_plan_id":"free"},{"bike_id":"3df09af8-a1e1-4b76-8831-832b718a4173","system_id":"levelo_inurba_marseille","lat":43.314811,"lon":5.373103,"is_reserved":false,"is_disabled":false,"rental_uris":{"android":"levelo://app?vid=3df09af8-a1e1-4b76-8831-832b718a4173","ios":"levelo://app?vid=3df09af8-a1e1-4b76-8831-832b718a4173"},"vehicle_type_id":"4","last_reported":1683824721,"current_range_meters":22400,"station_id":"ce4bgt12rcd13ifvqcd0","pricing_plan_id":"free"},{"bike_id":"18ad9677-e589-4cbb-99fe-6d41c00db3da","system_id":"levelo_inurba_marseille","lat":43.308614,"lon":5.372098,"is_reserved":false,"is_disabled":false,"rental_uris":{"android":"levelo://app?vid=18ad9677-e589-4cbb-99fe-6d41c00db3da","ios":"levelo://app?vid=18ad9677-e589-4cbb-99fe-6d41c00db3da"},"vehicle_type_id":"4","last_reported":1683824721,"current_range_meters":26000,"station_id":"ce4bguh2rcd13ifvqckg","pricing_plan_id":"free"},{"bike_id":"959b2a52-3d12-4a0e-a82a-ded8571753c2","system_id":"levelo_inurba_marseille","lat":43.308614,"lon":5.372098,"is_reserved":false,"is_disabled":false,"rental_uris":{"android":"levelo://app?vid=959b2a52-3d12-4a0e-a82a-ded8571753c2","ios":"levelo://app?vid=959b2a52-3d12-4a0e-a82a-ded8571753c2"},"vehicle_type_id":"4","last_reported":1683824721,"current_range_meters":23600,"station_id":"ce4bguh2rcd13ifvqckg","pricing_plan_id":"free"},{"bike_id":"79fb26a6-fb86-4791-bf00-25c6260d01ce","system_id":"levelo_inurba_marseille","lat":43.305989,"lon":5.37225,"is_reserved":false,"is_disabled":false,"rental_uris":{"android":"levelo://app?vid=79fb26a6-fb86-4791-bf00-25c6260d01ce","ios":"levelo://app?vid=79fb26a6-fb86-4791-bf00-25c6260d01ce"},"vehicle_type_id":"4","last_reported":1683824721,"current_range_meters":2400,"station_id":"ce4bgqh2rcd13ifvqc4g","pricing_plan_id":"free"},{"bike_id":"f4a2ed3f-0dcf-49ef-ac5d-7556a65eea30","system_id":"levelo_inurba_marseille","lat":43.305989,"lon":5.37225,"is_reserved":false,"is_disabled":false,"rental_uris":{"android":"levelo://app?vid=f4a2ed3f-0dcf-49ef-ac5d-7556a65eea30","ios":"levelo://app?vid=f4a2ed3f-0dcf-49ef-ac5d-7556a65eea30"},"vehicle_type_id":"4","last_reported":1683824721,"current_range_meters":23200,"station_id":"ce4bgqh2rcd13ifvqc4g","pricing_plan_id":"free"},{"bike_id":"84142999-0b7e-4e29-9976-7e7f67904b67","system_id":"levelo_inurba_marseille","lat":43.311131,"lon":5.377651,"is_reserved":false,"is_disabled":false,"rental_uris":{"android":"levelo://app?vid=84142999-0b7e-4e29-9976-7e7f67904b67","ios":"levelo://app?vid=84142999-0b7e-4e29-9976-7e7f67904b67"},"vehicle_type_id":"4","last_reported":1683824721,"current_range_meters":18400,"station_id":"ce4bgt92rcd13ifvqcg0","pricing_plan_id":"free"},{"bike_id":"82e84787-3db1-4cee-9f71-e7774103d7ca","system_id":"levelo_inurba_marseille","lat":43.311131,"lon":5.377651,"is_reserved":false,"is_disabled":false,"rental_uris":{"android":"levelo://app?vid=82e84787-3db1-4cee-9f71-e7774103d7ca","ios":"levelo://app?vid=82e84787-3db1-4cee-9f71-e7774103d7ca"},"vehicle_type_id":"4","last_reported":1683824721,"current_range_meters":28000,"station_id":"ce4bgt92rcd13ifvqcg0","pricing_plan_id":"free"},{"bike_id":"723e541b-b3b5-4705-b4a0-f4216dc1f63d","system_id":"levelo_inurba_marseille","lat":43.317075,"lon":5.377367,"is_reserved":false,"is_disabled":false,"rental_uris":{"android":"levelo://app?vid=723e541b-b3b5-4705-b4a0-f4216dc1f63d","ios":"levelo://app?vid=723e541b-b3b5-4705-b4a0-f4216dc1f63d"},"vehicle_type_id":"4","last_reported":1683824721,"current_range_meters":21200,"station_id":"ce4bgth2rcd13ifvqch0","pricing_plan_id":"free"},{"bike_id":"6346b5c0-56e4-4e78-ba59-35beaf45fb91","system_id":"levelo_inurba_marseille","lat":43.315289,"lon":5.380349,"is_reserved":false,"is_disabled":false,"rental_uris":{"android":"levelo://app?vid=6346b5c0-56e4-4e78-ba59-35beaf45fb91","ios":"levelo://app?vid=6346b5c0-56e4-4e78-ba59-35beaf45fb91"},"vehicle_type_id":"4","last_reported":1683824721,"current_range_meters":5200,"station_id":"ce4bhsp2rcd13ifvqi50","pricing_plan_id":"free"},{"bike_id":"4a1ba744-7601-40d8-8e10-9801ec6304a2","system_id":"levelo_inurba_marseille","lat":43.30801,"lon":5.38145,"is_reserved":false,"is_disabled":false,"rental_uris":{"android":"levelo://app?vid=4a1ba744-7601-40d8-8e10-9801ec6304a2","ios":"levelo://app?vid=4a1ba744-7601-40d8-8e10-9801ec6304a2"},"vehicle_type_id":"4","last_reported":1683824721,"current_range_meters":28400,"station_id":"ce4bgt12rcd13ifvqce0","pricing_plan_id":"free"},{"bike_id":"f56760d1-12b4-4847-a371-8d93eea73e0b","system_id":"levelo_inurba_marseille","lat":43.308,"lon":5.38149,"is_reserved":false,"is_disabled":false,"rental_uris":{"android":"levelo://app?vid=f56760d1-12b4-4847-a371-8d93eea73e0b","ios":"levelo://app?vid=f56760d1-12b4-4847-a371-8d93eea73e0b"},"vehicle_type_id":"4","last_reported":1683824721,"current_range_meters":5200,"station_id":"ce4bgt12rcd13ifvqce0","pricing_plan_id":"free"},{"bike_id":"2554c86b-0c44-4527-82cf-9dbcbf0092e9","system_id":"levelo_inurba_marseille","lat":43.308012,"lon":5.381511,"is_reserved":false,"is_disabled":false,"rental_uris":{"android":"levelo://app?vid=2554c86b-0c44-4527-82cf-9dbcbf0092e9","ios":"levelo://app?vid=2554c86b-0c44-4527-82cf-9dbcbf0092e9"},"vehicle_type_id":"4","last_reported":1683824721,"current_range_meters":6000,"station_id":"ce4bgt12rcd13ifvqce0","pricing_plan_id":"free"},{"bike_id":"f31d72f5-f033-47bd-a5a1-b0df86b96b2f","system_id":"levelo_inurba_marseille","lat":43.30855,"lon":5.38274,"is_reserved":false,"is_disabled":false,"rental_uris":{"android":"levelo://app?vid=f31d72f5-f033-47bd-a5a1-b0df86b96b2f","ios":"levelo://app?vid=f31d72f5-f033-47bd-a5a1-b0df86b96b2f"},"vehicle_type_id":"4","last_reported":1683824721,"current_range_meters":30000,"station_id":"ce4bgt12rcd13ifvqce0","pricing_plan_id":"free"},{"bike_id":"06478e4c-27f7-42d4-a269-726dcf2e9dc6","system_id":"levelo_inurba_marseille","lat":43.313571,"lon":5.384829,"is_reserved":false,"is_disabled":false,"rental_uris":{"android":"levelo://app?vid=06478e4c-27f7-42d4-a269-726dcf2e9dc6","ios":"levelo://app?vid=06478e4c-27f7-42d4-a269-726dcf2e9dc6"},"vehicle_type_id":"4","last_reported":1683824721,"current_range_meters":18800,"station_id":"ce4bgt92rcd13ifvqcf0","pricing_plan_id":"free"},{"bike_id":"87f4f7a0-e835-4266-a6a6-6b76db8494eb","system_id":"levelo_inurba_marseille","lat":43.313571,"lon":5.384829,"is_reserved":false,"is_disabled":false,"rental_uris":{"android":"levelo://app?vid=87f4f7a0-e835-4266-a6a6-6b76db8494eb","ios":"levelo://app?vid=87f4f7a0-e835-4266-a6a6-6b76db8494eb"},"vehicle_type_id":"4","last_reported":1683824721,"current_range_meters":31200,"station_id":"ce4bgt92rcd13ifvqcf0","pricing_plan_id":"free"},{"bike_id":"d4997c6e-3b77-4915-b61b-6ea1c24ec887","system_id":"levelo_inurba_marseille","lat":43.313571,"lon":5.384829,"is_reserved":false,"is_disabled":false,"rental_uris":{"android":"levelo://app?vid=d4997c6e-3b77-4915-b61b-6ea1c24ec887","ios":"levelo://app?vid=d4997c6e-3b77-4915-b61b-6ea1c24ec887"},"vehicle_type_id":"4","last_reported":1683824721,"current_range_meters":18400,"station_id":"ce4bgt92rcd13ifvqcf0","pricing_plan_id":"free"},{"bike_id":"fb200d29-4682-489c-8066-3fa25da7678e","system_id":"levelo_inurba_marseille","lat":43.299222,"lon":5.365554,"is_reserved":false,"is_disabled":false,"rental_uris":{"android":"levelo://app?vid=fb200d29-4682-489c-8066-3fa25da7678e","ios":"levelo://app?vid=fb200d29-4682-489c-8066-3fa25da7678e"},"vehicle_type_id":"4","last_reported":1683824721,"current_range_meters":6000,"station_id":"ce4bgm92rcd13ifvqbr0","pricing_plan_id":"free"},{"bike_id":"11355a26-ce04-4637-b186-e63c722271b4","system_id":"levelo_inurba_marseille","lat":43.31363,"lon":5.38518,"is_reserved":false,"is_disabled":false,"rental_uris":{"android":"levelo://app?vid=11355a26-ce04-4637-b186-e63c722271b4","ios":"levelo://app?vid=11355a26-ce04-4637-b186-e63c722271b4"},"vehicle_type_id":"4","last_reported":1683824721,"current_range_meters":14400,"station_id":"","pricing_plan_id":"free"},{"bike_id":"1bfcdf5a-36f8-48b2-b9a5-9188d410d8db","system_id":"levelo_inurba_marseille","lat":43.29942,"lon":5.36554,"is_reserved":false,"is_disabled":false,"rental_uris":{"android":"levelo://app?vid=1bfcdf5a-36f8-48b2-b9a5-9188d410d8db","ios":"levelo://app?vid=1bfcdf5a-36f8-48b2-b9a5-9188d410d8db"},"vehicle_type_id":"4","last_reported":1683824721,"current_range_meters":2800,"station_id":"ce4bgm92rcd13ifvqbr0","pricing_plan_id":"free"},{"bike_id":"f3075c70-ced6-4c6b-a763-845e6ebacabb","system_id":"levelo_inurba_marseille","lat":43.299222,"lon":5.365554,"is_reserved":false,"is_disabled":false,"rental_uris":{"android":"levelo://app?vid=f3075c70-ced6-4c6b-a763-845e6ebacabb","ios":"levelo://app?vid=f3075c70-ced6-4c6b-a763-845e6ebacabb"},"vehicle_type_id":"4","last_reported":1683824721,"current_range_meters":24800,"station_id":"ce4bgm92rcd13ifvqbr0","pricing_plan_id":"free"},{"bike_id":"fd9ed67a-bc70-495c-a011-68049d85f6e8","system_id":"levelo_inurba_marseille","lat":43.299222,"lon":5.365554,"is_reserved":false,"is_disabled":false,"rental_uris":{"android":"levelo://app?vid=fd9ed67a-bc70-495c-a011-68049d85f6e8","ios":"levelo://app?vid=fd9ed67a-bc70-495c-a011-68049d85f6e8"},"vehicle_type_id":"4","last_reported":1683824721,"current_range_meters":28800,"station_id":"ce4bgm92rcd13ifvqbr0","pricing_plan_id":"free"},{"bike_id":"e5190242-d73e-4880-acab-f1cce158f8a2","system_id":"levelo_inurba_marseille","lat":43.298433,"lon":5.362774,"is_reserved":false,"is_disabled":false,"rental_uris":{"android":"levelo://app?vid=e5190242-d73e-4880-acab-f1cce158f8a2","ios":"levelo://app?vid=e5190242-d73e-4880-acab-f1cce158f8a2"},"vehicle_type_id":"4","last_reported":1683824721,"current_range_meters":20400,"station_id":"ce4bgpp2rcd13ifvqc3g","pricing_plan_id":"free"},{"bike_id":"101b5a6e-8649-4a07-9093-a0aeed8f5bb6","system_id":"levelo_inurba_marseille","lat":43.298433,"lon":5.362774,"is_reserved":false,"is_disabled":false,"rental_uris":{"android":"levelo://app?vid=101b5a6e-8649-4a07-9093-a0aeed8f5bb6","ios":"levelo://app?vid=101b5a6e-8649-4a07-9093-a0aeed8f5bb6"},"vehicle_type_id":"4","last_reported":1683824721,"current_range_meters":24400,"station_id":"ce4bgpp2rcd13ifvqc3g","pricing_plan_id":"free"},{"bike_id":"8364c2ae-422e-4dc0-b6b9-3427090326a9","system_id":"levelo_inurba_marseille","lat":43.298433,"lon":5.362774,"is_reserved":false,"is_disabled":false,"rental_uris":{"android":"levelo://app?vid=8364c2ae-422e-4dc0-b6b9-3427090326a9","ios":"levelo://app?vid=8364c2ae-422e-4dc0-b6b9-3427090326a9"},"vehicle_type_id":"4","last_reported":1683824721,"current_range_meters":1600,"station_id":"ce4bgpp2rcd13ifvqc3g","pricing_plan_id":"free"},{"bike_id":"52fcc667-d5a8-4b02-b49f-686c877213f8","system_id":"levelo_inurba_marseille","lat":43.298433,"lon":5.362774,"is_reserved":false,"is_disabled":false,"rental_uris":{"android":"levelo://app?vid=52fcc667-d5a8-4b02-b49f-686c877213f8","ios":"levelo://app?vid=52fcc667-d5a8-4b02-b49f-686c877213f8"},"vehicle_type_id":"4","last_reported":1683824721,"current_range_meters":27600,"station_id":"ce4bgpp2rcd13ifvqc3g","pricing_plan_id":"free"},{"bike_id":"a7b913c1-760b-4fd9-8dee-5bdf8f8afa13","system_id":"levelo_inurba_marseille","lat":43.298433,"lon":5.362774,"is_reserved":false,"is_disabled":false,"rental_uris":{"android":"levelo://app?vid=a7b913c1-760b-4fd9-8dee-5bdf8f8afa13","ios":"levelo://app?vid=a7b913c1-760b-4fd9-8dee-5bdf8f8afa13"},"vehicle_type_id":"4","last_reported":1683824721,"current_range_meters":20400,"station_id":"ce4bgpp2rcd13ifvqc3g","pricing_plan_id":"free"},{"bike_id":"ecd8c6e1-1185-4c19-b9a1-1f9326d79ebf","system_id":"levelo_inurba_marseille","lat":43.29846,"lon":5.36275,"is_reserved":false,"is_disabled":false,"rental_uris":{"android":"levelo://app?vid=ecd8c6e1-1185-4c19-b9a1-1f9326d79ebf","ios":"levelo://app?vid=ecd8c6e1-1185-4c19-b9a1-1f9326d79ebf"},"vehicle_type_id":"4","last_reported":1683824721,"current_range_meters":6800,"station_id":"ce4bgpp2rcd13ifvqc3g","pricing_plan_id":"free"},{"bike_id":"2eae0d26-5474-4bdb-b62f-b4e37bbfadeb","system_id":"levelo_inurba_marseille","lat":43.305364,"lon":5.384119,"is_reserved":false,"is_disabled":false,"rental_uris":{"android":"levelo://app?vid=2eae0d26-5474-4bdb-b62f-b4e37bbfadeb","ios":"levelo://app?vid=2eae0d26-5474-4bdb-b62f-b4e37bbfadeb"},"vehicle_type_id":"4","last_reported":1683824721,"current_range_meters":15600,"station_id":"ce4bgg92rcd13ifvqb30","pricing_plan_id":"free"},{"bike_id":"fada7b2b-8e37-4c78-82f8-e27bc2cd0785","system_id":"levelo_inurba_marseille","lat":43.298433,"lon":5.362774,"is_reserved":false,"is_disabled":false,"rental_uris":{"android":"levelo://app?vid=fada7b2b-8e37-4c78-82f8-e27bc2cd0785","ios":"levelo://app?vid=fada7b2b-8e37-4c78-82f8-e27bc2cd0785"},"vehicle_type_id":"4","last_reported":1683824721,"current_range_meters":20000,"station_id":"ce4bgpp2rcd13ifvqc3g","pricing_plan_id":"free"},{"bike_id":"4f4ebc1e-452e-4d76-8f38-dadbcdb5194f","system_id":"levelo_inurba_marseille","lat":43.311722,"lon":5.387247,"is_reserved":false,"is_disabled":false,"rental_uris":{"android":"levelo://app?vid=4f4ebc1e-452e-4d76-8f38-dadbcdb5194f","ios":"levelo://app?vid=4f4ebc1e-452e-4d76-8f38-dadbcdb5194f"},"vehicle_type_id":"4","last_reported":1683824721,"current_range_meters":24800,"station_id":"ce4bgv12rcd13ifvqcp0","pricing_plan_id":"free"},{"bike_id":"44f3d2e9-43d4-4f91-9c9d-770c638b86cb","system_id":"levelo_inurba_marseille","lat":43.311722,"lon":5.387247,"is_reserved":false,"is_disabled":false,"rental_uris":{"android":"levelo://app?vid=44f3d2e9-43d4-4f91-9c9d-770c638b86cb","ios":"levelo://app?vid=44f3d2e9-43d4-4f91-9c9d-770c638b86cb"},"vehicle_type_id":"4","last_reported":1683824721,"current_range_meters":400,"station_id":"ce4bgv12rcd13ifvqcp0","pricing_plan_id":"free"},{"bike_id":"699db327-a5ad-4222-a868-14529df76d33","system_id":"levelo_inurba_marseille","lat":43.311722,"lon":5.387247,"is_reserved":false,"is_disabled":false,"rental_uris":{"android":"levelo://app?vid=699db327-a5ad-4222-a868-14529df76d33","ios":"levelo://app?vid=699db327-a5ad-4222-a868-14529df76d33"},"vehicle_type_id":"4","last_reported":1683824721,"current_range_meters":21600,"station_id":"ce4bgv12rcd13ifvqcp0","pricing_plan_id":"free"},{"bike_id":"2f96f4b7-d3f1-4b87-b98f-caf50ba6d13d","system_id":"levelo_inurba_marseille","lat":43.32774,"lon":5.36699,"is_reserved":false,"is_disabled":false,"rental_uris":{"android":"levelo://app?vid=2f96f4b7-d3f1-4b87-b98f-caf50ba6d13d","ios":"levelo://app?vid=2f96f4b7-d3f1-4b87-b98f-caf50ba6d13d"},"vehicle_type_id":"4","last_reported":1683824721,"current_range_meters":19600,"station_id":"","pricing_plan_id":"free"},{"bike_id":"e9b1dcbf-4e43-4d5a-82b7-868bcbaaa466","system_id":"levelo_inurba_marseille","lat":43.29796,"lon":5.37113,"is_reserved":false,"is_disabled":false,"rental_uris":{"android":"levelo://app?vid=e9b1dcbf-4e43-4d5a-82b7-868bcbaaa466","ios":"levelo://app?vid=e9b1dcbf-4e43-4d5a-82b7-868bcbaaa466"},"vehicle_type_id":"4","last_reported":1683824721,"current_range_meters":0,"station_id":"ce4bgop2rcd13ifvqc1g","pricing_plan_id":"free"},{"bike_id":"afad8aa2-a65b-400f-bc2f-5cfa5109bf65","system_id":"levelo_inurba_marseille","lat":43.297794,"lon":5.370888,"is_reserved":false,"is_disabled":false,"rental_uris":{"android":"levelo://app?vid=afad8aa2-a65b-400f-bc2f-5cfa5109bf65","ios":"levelo://app?vid=afad8aa2-a65b-400f-bc2f-5cfa5109bf65"},"vehicle_type_id":"4","last_reported":1683824721,"current_range_meters":2400,"station_id":"ce4bgop2rcd13ifvqc1g","pricing_plan_id":"free"},{"bike_id":"22372bcb-7855-4e11-8011-49e0aa164add","system_id":"levelo_inurba_marseille","lat":43.297832,"lon":5.371089,"is_reserved":false,"is_disabled":false,"rental_uris":{"android":"levelo://app?vid=22372bcb-7855-4e11-8011-49e0aa164add","ios":"levelo://app?vid=22372bcb-7855-4e11-8011-49e0aa164add"},"vehicle_type_id":"4","last_reported":1683824721,"current_range_meters":29200,"station_id":"","pricing_plan_id":"free"},{"bike_id":"9466398a-ab63-492b-a983-e43b41d0acd9","system_id":"levelo_inurba_marseille","lat":43.32825,"lon":5.36689,"is_reserved":false,"is_disabled":false,"rental_uris":{"android":"levelo://app?vid=9466398a-ab63-492b-a983-e43b41d0acd9","ios":"levelo://app?vid=9466398a-ab63-492b-a983-e43b41d0acd9"},"vehicle_type_id":"4","last_reported":1683824721,"current_range_meters":9200,"station_id":"ce4bhs92rcd13ifvqi0g","pricing_plan_id":"free"},{"bike_id":"2be82f79-e3a2-4567-8fca-bd9d15afdecb","system_id":"levelo_inurba_marseille","lat":43.32831,"lon":5.36687,"is_reserved":false,"is_disabled":false,"rental_uris":{"android":"levelo://app?vid=2be82f79-e3a2-4567-8fca-bd9d15afdecb","ios":"levelo://app?vid=2be82f79-e3a2-4567-8fca-bd9d15afdecb"},"vehicle_type_id":"4","last_reported":1683824721,"current_range_meters":24400,"station_id":"ce4bhs92rcd13ifvqi0g","pricing_plan_id":"free"},{"bike_id":"afcb6986-356b-4859-8c29-ac34da7debef","system_id":"levelo_inurba_marseille","lat":43.32832,"lon":5.36689,"is_reserved":false,"is_disabled":false,"rental_uris":{"android":"levelo://app?vid=afcb6986-356b-4859-8c29-ac34da7debef","ios":"levelo://app?vid=afcb6986-356b-4859-8c29-ac34da7debef"},"vehicle_type_id":"4","last_reported":1683824721,"current_range_meters":23200,"station_id":"ce4bhs92rcd13ifvqi0g","pricing_plan_id":"free"},{"bike_id":"a43bb755-57b3-4dca-9972-7e70c5be6ed9","system_id":"levelo_inurba_marseille","lat":43.32836,"lon":5.3669,"is_reserved":false,"is_disabled":false,"rental_uris":{"android":"levelo://app?vid=a43bb755-57b3-4dca-9972-7e70c5be6ed9","ios":"levelo://app?vid=a43bb755-57b3-4dca-9972-7e70c5be6ed9"},"vehicle_type_id":"4","last_reported":1683824721,"current_range_meters":10800,"station_id":"ce4bhs92rcd13ifvqi0g","pricing_plan_id":"free"},{"bike_id":"b4b5d2f8-79bb-4164-9d73-764bd2366590","system_id":"levelo_inurba_marseille","lat":43.32839,"lon":5.36679,"is_reserved":false,"is_disabled":false,"rental_uris":{"android":"levelo://app?vid=b4b5d2f8-79bb-4164-9d73-764bd2366590","ios":"levelo://app?vid=b4b5d2f8-79bb-4164-9d73-764bd2366590"},"vehicle_type_id":"4","last_reported":1683824721,"current_range_meters":400,"station_id":"ce4bhs92rcd13ifvqi0g","pricing_plan_id":"free"},{"bike_id":"75ee77a1-3246-4e3b-b43e-75061945750c","system_id":"levelo_inurba_marseille","lat":43.29697,"lon":5.36585,"is_reserved":false,"is_disabled":false,"rental_uris":{"android":"levelo://app?vid=75ee77a1-3246-4e3b-b43e-75061945750c","ios":"levelo://app?vid=75ee77a1-3246-4e3b-b43e-75061945750c"},"vehicle_type_id":"4","last_reported":1683824721,"current_range_meters":20800,"station_id":"ce4bgn12rcd13ifvqbt0","pricing_plan_id":"free"},{"bike_id":"49f6161d-5f3a-4a10-af8d-93dfbbe18b1d","system_id":"levelo_inurba_marseille","lat":43.31065,"lon":5.38916,"is_reserved":false,"is_disabled":false,"rental_uris":{"android":"levelo://app?vid=49f6161d-5f3a-4a10-af8d-93dfbbe18b1d","ios":"levelo://app?vid=49f6161d-5f3a-4a10-af8d-93dfbbe18b1d"},"vehicle_type_id":"4","last_reported":1683824721,"current_range_meters":3600,"station_id":"","pricing_plan_id":"free"},{"bike_id":"a371a9b5-96f4-4ca7-ad46-f0b50d011a77","system_id":"levelo_inurba_marseille","lat":43.296921,"lon":5.376579,"is_reserved":false,"is_disabled":false,"rental_uris":{"android":"levelo://app?vid=a371a9b5-96f4-4ca7-ad46-f0b50d011a77","ios":"levelo://app?vid=a371a9b5-96f4-4ca7-ad46-f0b50d011a77"},"vehicle_type_id":"4","last_reported":1683824721,"current_range_meters":5200,"station_id":"ce4bgkh2rcd13ifvqbl0","pricing_plan_id":"free"},{"bike_id":"c79efced-553a-4052-b181-22d6345256a4","system_id":"levelo_inurba_marseille","lat":43.309589,"lon":5.390258,"is_reserved":false,"is_disabled":false,"rental_uris":{"android":"levelo://app?vid=c79efced-553a-4052-b181-22d6345256a4","ios":"levelo://app?vid=c79efced-553a-4052-b181-22d6345256a4"},"vehicle_type_id":"4","last_reported":1683824721,"current_range_meters":1600,"station_id":"ce4bgup2rcd13ifvqco0","pricing_plan_id":"free"},{"bike_id":"f38eadc5-1320-4fbe-8529-ee92266957d0","system_id":"levelo_inurba_marseille","lat":43.317557,"lon":5.390173,"is_reserved":false,"is_disabled":false,"rental_uris":{"android":"levelo://app?vid=f38eadc5-1320-4fbe-8529-ee92266957d0","ios":"levelo://app?vid=f38eadc5-1320-4fbe-8529-ee92266957d0"},"vehicle_type_id":"4","last_reported":1683824721,"current_range_meters":10800,"station_id":"ce4bhqp2rcd13ifvqhng","pricing_plan_id":"free"},{"bike_id":"b975ee2d-fbbb-4e25-911d-155e40d597ac","system_id":"levelo_inurba_marseille","lat":43.304278,"lon":5.388868,"is_reserved":false,"is_disabled":false,"rental_uris":{"android":"levelo://app?vid=b975ee2d-fbbb-4e25-911d-155e40d597ac","ios":"levelo://app?vid=b975ee2d-fbbb-4e25-911d-155e40d597ac"},"vehicle_type_id":"4","last_reported":1683824721,"current_range_meters":0,"station_id":"ce4bgk12rcd13ifvqbi0","pricing_plan_id":"free"},{"bike_id":"89f542f1-53e0-4e10-970b-5d8bdfaabea7","system_id":"levelo_inurba_marseille","lat":43.304278,"lon":5.388868,"is_reserved":false,"is_disabled":false,"rental_uris":{"android":"levelo://app?vid=89f542f1-53e0-4e10-970b-5d8bdfaabea7","ios":"levelo://app?vid=89f542f1-53e0-4e10-970b-5d8bdfaabea7"},"vehicle_type_id":"4","last_reported":1683824721,"current_range_meters":2400,"station_id":"ce4bgk12rcd13ifvqbi0","pricing_plan_id":"free"},{"bike_id":"91c9e35a-c0ae-429a-b018-f976f17f3e21","system_id":"levelo_inurba_marseille","lat":43.29981,"lon":5.38496,"is_reserved":false,"is_disabled":false,"rental_uris":{"android":"levelo://app?vid=91c9e35a-c0ae-429a-b018-f976f17f3e21","ios":"levelo://app?vid=91c9e35a-c0ae-429a-b018-f976f17f3e21"},"vehicle_type_id":"4","last_reported":1683824721,"current_range_meters":20800,"station_id":"ce4bgj92rcd13ifvqbd0","pricing_plan_id":"free"},{"bike_id":"efbb6669-f956-4057-8f80-3f82d03a66f4","system_id":"levelo_inurba_marseille","lat":43.2997,"lon":5.38492,"is_reserved":false,"is_disabled":false,"rental_uris":{"android":"levelo://app?vid=efbb6669-f956-4057-8f80-3f82d03a66f4","ios":"levelo://app?vid=efbb6669-f956-4057-8f80-3f82d03a66f4"},"vehicle_type_id":"4","last_reported":1683824721,"current_range_meters":0,"station_id":"ce4bgj92rcd13ifvqbd0","pricing_plan_id":"free"},{"bike_id":"c46dc7d8-1140-42f7-96bb-291327860679","system_id":"levelo_inurba_marseille","lat":43.29978,"lon":5.38506,"is_reserved":false,"is_disabled":false,"rental_uris":{"android":"levelo://app?vid=c46dc7d8-1140-42f7-96bb-291327860679","ios":"levelo://app?vid=c46dc7d8-1140-42f7-96bb-291327860679"},"vehicle_type_id":"4","last_reported":1683824721,"current_range_meters":27200,"station_id":"ce4bgj92rcd13ifvqbd0","pricing_plan_id":"free"},{"bike_id":"022a9083-1628-48c0-a483-be5902c14fd4","system_id":"levelo_inurba_marseille","lat":43.29965,"lon":5.38498,"is_reserved":false,"is_disabled":false,"rental_uris":{"android":"levelo://app?vid=022a9083-1628-48c0-a483-be5902c14fd4","ios":"levelo://app?vid=022a9083-1628-48c0-a483-be5902c14fd4"},"vehicle_type_id":"4","last_reported":1683824721,"current_range_meters":400,"station_id":"ce4bgj92rcd13ifvqbd0","pricing_plan_id":"free"},{"bike_id":"3bdfd287-628a-4f4d-9e4b-2b837e95727c","system_id":"levelo_inurba_marseille","lat":43.29965,"lon":5.38503,"is_reserved":false,"is_disabled":false,"rental_uris":{"android":"levelo://app?vid=3bdfd287-628a-4f4d-9e4b-2b837e95727c","ios":"levelo://app?vid=3bdfd287-628a-4f4d-9e4b-2b837e95727c"},"vehicle_type_id":"4","last_reported":1683824721,"current_range_meters":20800,"station_id":"ce4bgj92rcd13ifvqbd0","pricing_plan_id":"free"},{"bike_id":"b2f01c88-c336-46db-9ec8-7f72a603ae73","system_id":"levelo_inurba_marseille","lat":43.29964,"lon":5.38505,"is_reserved":false,"is_disabled":false,"rental_uris":{"android":"levelo://app?vid=b2f01c88-c336-46db-9ec8-7f72a603ae73","ios":"levelo://app?vid=b2f01c88-c336-46db-9ec8-7f72a603ae73"},"vehicle_type_id":"4","last_reported":1683824721,"current_range_meters":9600,"station_id":"ce4bgj92rcd13ifvqbd0","pricing_plan_id":"free"},{"bike_id":"d8674403-c254-4d4c-a1aa-f38206a93b1a","system_id":"levelo_inurba_marseille","lat":43.29965,"lon":5.38507,"is_reserved":false,"is_disabled":false,"rental_uris":{"android":"levelo://app?vid=d8674403-c254-4d4c-a1aa-f38206a93b1a","ios":"levelo://app?vid=d8674403-c254-4d4c-a1aa-f38206a93b1a"},"vehicle_type_id":"4","last_reported":1683824721,"current_range_meters":7600,"station_id":"ce4bgj92rcd13ifvqbd0","pricing_plan_id":"free"},{"bike_id":"bc9ac900-e39e-44da-b9ec-e0acaf038b56","system_id":"levelo_inurba_marseille","lat":43.292749,"lon":5.368398,"is_reserved":false,"is_disabled":false,"rental_uris":{"android":"levelo://app?vid=bc9ac900-e39e-44da-b9ec-e0acaf038b56","ios":"levelo://app?vid=bc9ac900-e39e-44da-b9ec-e0acaf038b56"},"vehicle_type_id":"4","last_reported":1683824721,"current_range_meters":13600,"station_id":"ce4bhbp2rcd13ifvqesg","pricing_plan_id":"free"},{"bike_id":"93e67f6d-3dad-419c-aef2-243eac2b7602","system_id":"levelo_inurba_marseille","lat":43.292749,"lon":5.368402,"is_reserved":false,"is_disabled":false,"rental_uris":{"android":"levelo://app?vid=93e67f6d-3dad-419c-aef2-243eac2b7602","ios":"levelo://app?vid=93e67f6d-3dad-419c-aef2-243eac2b7602"},"vehicle_type_id":"4","last_reported":1683824721,"current_range_meters":14400,"station_id":"ce4bhbp2rcd13ifvqesg","pricing_plan_id":"free"},{"bike_id":"82e71563-2422-462c-b44f-6a4763980a20","system_id":"levelo_inurba_marseille","lat":43.292749,"lon":5.368402,"is_reserved":false,"is_disabled":false,"rental_uris":{"android":"levelo://app?vid=82e71563-2422-462c-b44f-6a4763980a20","ios":"levelo://app?vid=82e71563-2422-462c-b44f-6a4763980a20"},"vehicle_type_id":"4","last_reported":1683824721,"current_range_meters":27200,"station_id":"ce4bhbp2rcd13ifvqesg","pricing_plan_id":"free"},{"bike_id":"f828c581-5a05-4429-87e8-6c6d5b8df540","system_id":"levelo_inurba_marseille","lat":43.292749,"lon":5.368402,"is_reserved":false,"is_disabled":false,"rental_uris":{"android":"levelo://app?vid=f828c581-5a05-4429-87e8-6c6d5b8df540","ios":"levelo://app?vid=f828c581-5a05-4429-87e8-6c6d5b8df540"},"vehicle_type_id":"4","last_reported":1683824721,"current_range_meters":24800,"station_id":"ce4bhbp2rcd13ifvqesg","pricing_plan_id":"free"},{"bike_id":"c747c6e8-a1d3-4c5a-89ff-7ff7a1cfa610","system_id":"levelo_inurba_marseille","lat":43.292749,"lon":5.368398,"is_reserved":false,"is_disabled":false,"rental_uris":{"android":"levelo://app?vid=c747c6e8-a1d3-4c5a-89ff-7ff7a1cfa610","ios":"levelo://app?vid=c747c6e8-a1d3-4c5a-89ff-7ff7a1cfa610"},"vehicle_type_id":"4","last_reported":1683824721,"current_range_meters":8400,"station_id":"ce4bhbp2rcd13ifvqesg","pricing_plan_id":"free"},{"bike_id":"f3c30dbb-5574-4e2a-8aa9-68a953df68dd","system_id":"levelo_inurba_marseille","lat":43.293249,"lon":5.371578,"is_reserved":false,"is_disabled":false,"rental_uris":{"android":"levelo://app?vid=f3c30dbb-5574-4e2a-8aa9-68a953df68dd","ios":"levelo://app?vid=f3c30dbb-5574-4e2a-8aa9-68a953df68dd"},"vehicle_type_id":"4","last_reported":1683824721,"current_range_meters":22400,"station_id":"ce4bgh92rcd13ifvqb40","pricing_plan_id":"free"},{"bike_id":"82fc49ef-2323-4941-9a66-3f1321ae0fa7","system_id":"levelo_inurba_marseille","lat":43.305994,"lon":5.393687,"is_reserved":false,"is_disabled":false,"rental_uris":{"android":"levelo://app?vid=82fc49ef-2323-4941-9a66-3f1321ae0fa7","ios":"levelo://app?vid=82fc49ef-2323-4941-9a66-3f1321ae0fa7"},"vehicle_type_id":"4","last_reported":1683824721,"current_range_meters":9200,"station_id":"ce4bh0p2rcd13ifvqd80","pricing_plan_id":"free"},{"bike_id":"bc3f886d-aff8-4d95-9f9b-bd109d2158f5","system_id":"levelo_inurba_marseille","lat":43.305994,"lon":5.393687,"is_reserved":false,"is_disabled":false,"rental_uris":{"android":"levelo://app?vid=bc3f886d-aff8-4d95-9f9b-bd109d2158f5","ios":"levelo://app?vid=bc3f886d-aff8-4d95-9f9b-bd109d2158f5"},"vehicle_type_id":"4","last_reported":1683824721,"current_range_meters":30400,"station_id":"ce4bh0p2rcd13ifvqd80","pricing_plan_id":"free"},{"bike_id":"586b77cd-96c0-4549-9b26-68da8e32850b","system_id":"levelo_inurba_marseille","lat":43.305994,"lon":5.393687,"is_reserved":false,"is_disabled":false,"rental_uris":{"android":"levelo://app?vid=586b77cd-96c0-4549-9b26-68da8e32850b","ios":"levelo://app?vid=586b77cd-96c0-4549-9b26-68da8e32850b"},"vehicle_type_id":"4","last_reported":1683824721,"current_range_meters":26000,"station_id":"ce4bh0p2rcd13ifvqd80","pricing_plan_id":"free"},{"bike_id":"a64a6f6f-cd40-4384-9a07-8864931c36ed","system_id":"levelo_inurba_marseille","lat":43.302992,"lon":5.392136,"is_reserved":false,"is_disabled":false,"rental_uris":{"android":"levelo://app?vid=a64a6f6f-cd40-4384-9a07-8864931c36ed","ios":"levelo://app?vid=a64a6f6f-cd40-4384-9a07-8864931c36ed"},"vehicle_type_id":"4","last_reported":1683824721,"current_range_meters":2000,"station_id":"ce4bgkh2rcd13ifvqbk0","pricing_plan_id":"free"},{"bike_id":"2803513d-925b-4ed6-93cf-077c5f2a2863","system_id":"levelo_inurba_marseille","lat":43.290103,"lon":5.356114,"is_reserved":false,"is_disabled":false,"rental_uris":{"android":"levelo://app?vid=2803513d-925b-4ed6-93cf-077c5f2a2863","ios":"levelo://app?vid=2803513d-925b-4ed6-93cf-077c5f2a2863"},"vehicle_type_id":"4","last_reported":1683824721,"current_range_meters":30000,"station_id":"ce4bhb92rcd13ifvqen0","pricing_plan_id":"free"},{"bike_id":"4c0aa12a-bd59-4b97-8852-feae97dead81","system_id":"levelo_inurba_marseille","lat":43.313291,"lon":5.396838,"is_reserved":false,"is_disabled":false,"rental_uris":{"android":"levelo://app?vid=4c0aa12a-bd59-4b97-8852-feae97dead81","ios":"levelo://app?vid=4c0aa12a-bd59-4b97-8852-feae97dead81"},"vehicle_type_id":"4","last_reported":1683824721,"current_range_meters":4000,"station_id":"ce4bgvp2rcd13ifvqcu0","pricing_plan_id":"free"},{"bike_id":"b1688492-1a62-4d1e-a0f8-928de1a5ce80","system_id":"levelo_inurba_marseille","lat":43.309038,"lon":5.396546,"is_reserved":false,"is_disabled":false,"rental_uris":{"android":"levelo://app?vid=b1688492-1a62-4d1e-a0f8-928de1a5ce80","ios":"levelo://app?vid=b1688492-1a62-4d1e-a0f8-928de1a5ce80"},"vehicle_type_id":"4","last_reported":1683824721,"current_range_meters":6800,"station_id":"ce4bh012rcd13ifvqcv0","pricing_plan_id":"free"},{"bike_id":"33c3dea9-4c1f-452f-89ed-554afd0b40fc","system_id":"levelo_inurba_marseille","lat":43.309038,"lon":5.396546,"is_reserved":false,"is_disabled":false,"rental_uris":{"android":"levelo://app?vid=33c3dea9-4c1f-452f-89ed-554afd0b40fc","ios":"levelo://app?vid=33c3dea9-4c1f-452f-89ed-554afd0b40fc"},"vehicle_type_id":"4","last_reported":1683824721,"current_range_meters":18000,"station_id":"ce4bh012rcd13ifvqcv0","pricing_plan_id":"free"},{"bike_id":"bbdb49f9-a9d2-4746-8164-05438f82bf6c","system_id":"levelo_inurba_marseille","lat":43.309038,"lon":5.396546,"is_reserved":false,"is_disabled":false,"rental_uris":{"android":"levelo://app?vid=bbdb49f9-a9d2-4746-8164-05438f82bf6c","ios":"levelo://app?vid=bbdb49f9-a9d2-4746-8164-05438f82bf6c"},"vehicle_type_id":"4","last_reported":1683824721,"current_range_meters":30000,"station_id":"ce4bh012rcd13ifvqcv0","pricing_plan_id":"free"},{"bike_id":"b5fe510c-6df3-47c7-b1a4-b887a08664e9","system_id":"levelo_inurba_marseille","lat":43.309038,"lon":5.396546,"is_reserved":false,"is_disabled":false,"rental_uris":{"android":"levelo://app?vid=b5fe510c-6df3-47c7-b1a4-b887a08664e9","ios":"levelo://app?vid=b5fe510c-6df3-47c7-b1a4-b887a08664e9"},"vehicle_type_id":"4","last_reported":1683824721,"current_range_meters":3200,"station_id":"ce4bh012rcd13ifvqcv0","pricing_plan_id":"free"},{"bike_id":"3b9de6c0-c383-4162-8c44-5f209d3511b8","system_id":"levelo_inurba_marseille","lat":43.29192,"lon":5.35814,"is_reserved":false,"is_disabled":false,"rental_uris":{"android":"levelo://app?vid=3b9de6c0-c383-4162-8c44-5f209d3511b8","ios":"levelo://app?vid=3b9de6c0-c383-4162-8c44-5f209d3511b8"},"vehicle_type_id":"4","last_reported":1683824721,"current_range_meters":3200,"station_id":"ce4bhb12rcd13ifvqel0","pricing_plan_id":"free"},{"bike_id":"4f9350fc-4b13-4992-84b3-2a3efeccacae","system_id":"levelo_inurba_marseille","lat":43.309038,"lon":5.396546,"is_reserved":false,"is_disabled":false,"rental_uris":{"android":"levelo://app?vid=4f9350fc-4b13-4992-84b3-2a3efeccacae","ios":"levelo://app?vid=4f9350fc-4b13-4992-84b3-2a3efeccacae"},"vehicle_type_id":"4","last_reported":1683824721,"current_range_meters":22000,"station_id":"ce4bh012rcd13ifvqcv0","pricing_plan_id":"free"},{"bike_id":"0dfd11e8-1e45-4eaa-a4b3-7df68941afaa","system_id":"levelo_inurba_marseille","lat":43.309038,"lon":5.396546,"is_reserved":false,"is_disabled":false,"rental_uris":{"android":"levelo://app?vid=0dfd11e8-1e45-4eaa-a4b3-7df68941afaa","ios":"levelo://app?vid=0dfd11e8-1e45-4eaa-a4b3-7df68941afaa"},"vehicle_type_id":"4","last_reported":1683824721,"current_range_meters":18000,"station_id":"ce4bh012rcd13ifvqcv0","pricing_plan_id":"free"},{"bike_id":"a8dfed8a-56df-4e30-9215-2620076dd475","system_id":"levelo_inurba_marseille","lat":43.313291,"lon":5.396838,"is_reserved":false,"is_disabled":false,"rental_uris":{"android":"levelo://app?vid=a8dfed8a-56df-4e30-9215-2620076dd475","ios":"levelo://app?vid=a8dfed8a-56df-4e30-9215-2620076dd475"},"vehicle_type_id":"4","last_reported":1683824721,"current_range_meters":6800,"station_id":"ce4bgvp2rcd13ifvqcu0","pricing_plan_id":"free"},{"bike_id":"da81e9e6-6874-4f5b-a6ee-5154f8d8db66","system_id":"levelo_inurba_marseille","lat":43.313291,"lon":5.396838,"is_reserved":false,"is_disabled":false,"rental_uris":{"android":"levelo://app?vid=da81e9e6-6874-4f5b-a6ee-5154f8d8db66","ios":"levelo://app?vid=da81e9e6-6874-4f5b-a6ee-5154f8d8db66"},"vehicle_type_id":"4","last_reported":1683824721,"current_range_meters":2000,"station_id":"ce4bgvp2rcd13ifvqcu0","pricing_plan_id":"free"},{"bike_id":"8cff9d44-c78f-4cd2-b6f4-f78b5b90e1b4","system_id":"levelo_inurba_marseille","lat":43.309038,"lon":5.396546,"is_reserved":false,"is_disabled":false,"rental_uris":{"android":"levelo://app?vid=8cff9d44-c78f-4cd2-b6f4-f78b5b90e1b4","ios":"levelo://app?vid=8cff9d44-c78f-4cd2-b6f4-f78b5b90e1b4"},"vehicle_type_id":"4","last_reported":1683824721,"current_range_meters":31200,"station_id":"ce4bh012rcd13ifvqcv0","pricing_plan_id":"free"},{"bike_id":"d2e75ebe-0993-4e0d-9f3d-1ae3b492e118","system_id":"levelo_inurba_marseille","lat":43.29193,"lon":5.35794,"is_reserved":false,"is_disabled":false,"rental_uris":{"android":"levelo://app?vid=d2e75ebe-0993-4e0d-9f3d-1ae3b492e118","ios":"levelo://app?vid=d2e75ebe-0993-4e0d-9f3d-1ae3b492e118"},"vehicle_type_id":"4","last_reported":1683824721,"current_range_meters":30000,"station_id":"","pricing_plan_id":"free"},{"bike_id":"f0bacf1e-5ca7-4e49-99b4-d044c3fbdea0","system_id":"levelo_inurba_marseille","lat":43.313291,"lon":5.396838,"is_reserved":false,"is_disabled":false,"rental_uris":{"android":"levelo://app?vid=f0bacf1e-5ca7-4e49-99b4-d044c3fbdea0","ios":"levelo://app?vid=f0bacf1e-5ca7-4e49-99b4-d044c3fbdea0"},"vehicle_type_id":"4","last_reported":1683824721,"current_range_meters":2000,"station_id":"ce4bgvp2rcd13ifvqcu0","pricing_plan_id":"free"},{"bike_id":"b95c60c6-66e5-426e-8cdb-2728632759a7","system_id":"levelo_inurba_marseille","lat":43.313291,"lon":5.396838,"is_reserved":false,"is_disabled":false,"rental_uris":{"android":"levelo://app?vid=b95c60c6-66e5-426e-8cdb-2728632759a7","ios":"levelo://app?vid=b95c60c6-66e5-426e-8cdb-2728632759a7"},"vehicle_type_id":"4","last_reported":1683824721,"current_range_meters":1200,"station_id":"ce4bgvp2rcd13ifvqcu0","pricing_plan_id":"free"},{"bike_id":"64957ad6-c5dd-4ff0-bea5-0f2ac1a63040","system_id":"levelo_inurba_marseille","lat":43.313291,"lon":5.396838,"is_reserved":false,"is_disabled":false,"rental_uris":{"android":"levelo://app?vid=64957ad6-c5dd-4ff0-bea5-0f2ac1a63040","ios":"levelo://app?vid=64957ad6-c5dd-4ff0-bea5-0f2ac1a63040"},"vehicle_type_id":"4","last_reported":1683824721,"current_range_meters":0,"station_id":"ce4bgvp2rcd13ifvqcu0","pricing_plan_id":"free"},{"bike_id":"50951831-6d98-423d-98f8-932b5d1e8c78","system_id":"levelo_inurba_marseille","lat":43.298764,"lon":5.388973,"is_reserved":false,"is_disabled":false,"rental_uris":{"android":"levelo://app?vid=50951831-6d98-423d-98f8-932b5d1e8c78","ios":"levelo://app?vid=50951831-6d98-423d-98f8-932b5d1e8c78"},"vehicle_type_id":"4","last_reported":1683824721,"current_range_meters":12000,"station_id":"ce4bh392rcd13ifvqdl0","pricing_plan_id":"free"},{"bike_id":"9c781ae8-341e-4c24-9287-7dca908894b0","system_id":"levelo_inurba_marseille","lat":43.313291,"lon":5.396838,"is_reserved":false,"is_disabled":false,"rental_uris":{"android":"levelo://app?vid=9c781ae8-341e-4c24-9287-7dca908894b0","ios":"levelo://app?vid=9c781ae8-341e-4c24-9287-7dca908894b0"},"vehicle_type_id":"4","last_reported":1683824721,"current_range_meters":11200,"station_id":"ce4bgvp2rcd13ifvqcu0","pricing_plan_id":"free"},{"bike_id":"867a0806-578c-4311-aec3-987ab4749fe5","system_id":"levelo_inurba_marseille","lat":43.313291,"lon":5.396838,"is_reserved":false,"is_disabled":false,"rental_uris":{"android":"levelo://app?vid=867a0806-578c-4311-aec3-987ab4749fe5","ios":"levelo://app?vid=867a0806-578c-4311-aec3-987ab4749fe5"},"vehicle_type_id":"4","last_reported":1683824721,"current_range_meters":8000,"station_id":"ce4bgvp2rcd13ifvqcu0","pricing_plan_id":"free"},{"bike_id":"6b9313bb-eb8b-43db-85bd-9639e8d98403","system_id":"levelo_inurba_marseille","lat":43.309038,"lon":5.396546,"is_reserved":false,"is_disabled":false,"rental_uris":{"android":"levelo://app?vid=6b9313bb-eb8b-43db-85bd-9639e8d98403","ios":"levelo://app?vid=6b9313bb-eb8b-43db-85bd-9639e8d98403"},"vehicle_type_id":"4","last_reported":1683824721,"current_range_meters":15200,"station_id":"ce4bh012rcd13ifvqcv0","pricing_plan_id":"free"},{"bike_id":"b126e2a7-b553-466f-8a1c-72be379b30c0","system_id":"levelo_inurba_marseille","lat":43.313291,"lon":5.396838,"is_reserved":false,"is_disabled":false,"rental_uris":{"android":"levelo://app?vid=b126e2a7-b553-466f-8a1c-72be379b30c0","ios":"levelo://app?vid=b126e2a7-b553-466f-8a1c-72be379b30c0"},"vehicle_type_id":"4","last_reported":1683824721,"current_range_meters":19600,"station_id":"ce4bgvp2rcd13ifvqcu0","pricing_plan_id":"free"},{"bike_id":"89194808-5c37-4adc-8194-0c75e8d3c734","system_id":"levelo_inurba_marseille","lat":43.313291,"lon":5.396838,"is_reserved":false,"is_disabled":false,"rental_uris":{"android":"levelo://app?vid=89194808-5c37-4adc-8194-0c75e8d3c734","ios":"levelo://app?vid=89194808-5c37-4adc-8194-0c75e8d3c734"},"vehicle_type_id":"4","last_reported":1683824721,"current_range_meters":1600,"station_id":"ce4bgvp2rcd13ifvqcu0","pricing_plan_id":"free"},{"bike_id":"96e0d277-2a72-4273-938e-e8585cc84c6c","system_id":"levelo_inurba_marseille","lat":43.309038,"lon":5.396546,"is_reserved":false,"is_disabled":false,"rental_uris":{"android":"levelo://app?vid=96e0d277-2a72-4273-938e-e8585cc84c6c","ios":"levelo://app?vid=96e0d277-2a72-4273-938e-e8585cc84c6c"},"vehicle_type_id":"4","last_reported":1683824721,"current_range_meters":13600,"station_id":"ce4bh012rcd13ifvqcv0","pricing_plan_id":"free"},{"bike_id":"06f383a4-4a0f-4315-b1fa-9bea01943527","system_id":"levelo_inurba_marseille","lat":43.309038,"lon":5.396546,"is_reserved":false,"is_disabled":false,"rental_uris":{"android":"levelo://app?vid=06f383a4-4a0f-4315-b1fa-9bea01943527","ios":"levelo://app?vid=06f383a4-4a0f-4315-b1fa-9bea01943527"},"vehicle_type_id":"4","last_reported":1683824721,"current_range_meters":0,"station_id":"ce4bh012rcd13ifvqcv0","pricing_plan_id":"free"},{"bike_id":"5e5e47d8-58ab-46f2-b73d-4754dfe54811","system_id":"levelo_inurba_marseille","lat":43.309038,"lon":5.396546,"is_reserved":false,"is_disabled":false,"rental_uris":{"android":"levelo://app?vid=5e5e47d8-58ab-46f2-b73d-4754dfe54811","ios":"levelo://app?vid=5e5e47d8-58ab-46f2-b73d-4754dfe54811"},"vehicle_type_id":"4","last_reported":1683824721,"current_range_meters":0,"station_id":"ce4bh012rcd13ifvqcv0","pricing_plan_id":"free"},{"bike_id":"70a49c0f-2d4d-4dda-9152-3a670099a495","system_id":"levelo_inurba_marseille","lat":43.29539,"lon":5.38546,"is_reserved":false,"is_disabled":false,"rental_uris":{"android":"levelo://app?vid=70a49c0f-2d4d-4dda-9152-3a670099a495","ios":"levelo://app?vid=70a49c0f-2d4d-4dda-9152-3a670099a495"},"vehicle_type_id":"4","last_reported":1683824721,"current_range_meters":11600,"station_id":"ce4bgih2rcd13ifvqba0","pricing_plan_id":"free"},{"bike_id":"4a8b854a-6beb-473a-877b-0d85276496b2","system_id":"levelo_inurba_marseille","lat":43.29536,"lon":5.38548,"is_reserved":false,"is_disabled":false,"rental_uris":{"android":"levelo://app?vid=4a8b854a-6beb-473a-877b-0d85276496b2","ios":"levelo://app?vid=4a8b854a-6beb-473a-877b-0d85276496b2"},"vehicle_type_id":"4","last_reported":1683824721,"current_range_meters":3600,"station_id":"ce4bgih2rcd13ifvqba0","pricing_plan_id":"free"},{"bike_id":"5353da4f-a770-4d52-b020-a982a840ceec","system_id":"levelo_inurba_marseille","lat":43.29529,"lon":5.385581,"is_reserved":false,"is_disabled":false,"rental_uris":{"android":"levelo://app?vid=5353da4f-a770-4d52-b020-a982a840ceec","ios":"levelo://app?vid=5353da4f-a770-4d52-b020-a982a840ceec"},"vehicle_type_id":"4","last_reported":1683824721,"current_range_meters":24400,"station_id":"ce4bgih2rcd13ifvqba0","pricing_plan_id":"free"},{"bike_id":"09a534b9-c4cc-4a11-8b1f-4bfb94e1d0b6","system_id":"levelo_inurba_marseille","lat":43.29424,"lon":5.38626,"is_reserved":false,"is_disabled":false,"rental_uris":{"android":"levelo://app?vid=09a534b9-c4cc-4a11-8b1f-4bfb94e1d0b6","ios":"levelo://app?vid=09a534b9-c4cc-4a11-8b1f-4bfb94e1d0b6"},"vehicle_type_id":"4","last_reported":1683824721,"current_range_meters":15600,"station_id":"ce4bh2h2rcd13ifvqdh0","pricing_plan_id":"free"},{"bike_id":"8c03af20-8341-4330-969a-13a0dbc0b4e8","system_id":"levelo_inurba_marseille","lat":43.294153,"lon":5.386305,"is_reserved":false,"is_disabled":false,"rental_uris":{"android":"levelo://app?vid=8c03af20-8341-4330-969a-13a0dbc0b4e8","ios":"levelo://app?vid=8c03af20-8341-4330-969a-13a0dbc0b4e8"},"vehicle_type_id":"4","last_reported":1683824721,"current_range_meters":17600,"station_id":"ce4bh2h2rcd13ifvqdh0","pricing_plan_id":"free"},{"bike_id":"038b2149-c312-483c-aa3f-2bd92eb50834","system_id":"levelo_inurba_marseille","lat":43.29422,"lon":5.38623,"is_reserved":false,"is_disabled":false,"rental_uris":{"android":"levelo://app?vid=038b2149-c312-483c-aa3f-2bd92eb50834","ios":"levelo://app?vid=038b2149-c312-483c-aa3f-2bd92eb50834"},"vehicle_type_id":"4","last_reported":1683824721,"current_range_meters":1600,"station_id":"ce4bh2h2rcd13ifvqdh0","pricing_plan_id":"free"},{"bike_id":"d8f0f1f2-394d-49ef-9f66-def2b5fb50f7","system_id":"levelo_inurba_marseille","lat":43.29422,"lon":5.3863,"is_reserved":false,"is_disabled":false,"rental_uris":{"android":"levelo://app?vid=d8f0f1f2-394d-49ef-9f66-def2b5fb50f7","ios":"levelo://app?vid=d8f0f1f2-394d-49ef-9f66-def2b5fb50f7"},"vehicle_type_id":"4","last_reported":1683824721,"current_range_meters":8400,"station_id":"ce4bh2h2rcd13ifvqdh0","pricing_plan_id":"free"},{"bike_id":"849c792f-3b29-49b5-88dc-5ac588559600","system_id":"levelo_inurba_marseille","lat":43.294153,"lon":5.386305,"is_reserved":false,"is_disabled":false,"rental_uris":{"android":"levelo://app?vid=849c792f-3b29-49b5-88dc-5ac588559600","ios":"levelo://app?vid=849c792f-3b29-49b5-88dc-5ac588559600"},"vehicle_type_id":"4","last_reported":1683824721,"current_range_meters":21600,"station_id":"ce4bh2h2rcd13ifvqdh0","pricing_plan_id":"free"},{"bike_id":"12cb5222-3948-4db7-b948-77dabe6afbfb","system_id":"levelo_inurba_marseille","lat":43.289184,"lon":5.366408,"is_reserved":false,"is_disabled":false,"rental_uris":{"android":"levelo://app?vid=12cb5222-3948-4db7-b948-77dabe6afbfb","ios":"levelo://app?vid=12cb5222-3948-4db7-b948-77dabe6afbfb"},"vehicle_type_id":"4","last_reported":1683824721,"current_range_meters":28400,"station_id":"ce4bhap2rcd13ifvqek0","pricing_plan_id":"free"},{"bike_id":"711c30e9-866d-4a9f-9786-5301a8363e14","system_id":"levelo_inurba_marseille","lat":43.29424,"lon":5.38637,"is_reserved":false,"is_disabled":false,"rental_uris":{"android":"levelo://app?vid=711c30e9-866d-4a9f-9786-5301a8363e14","ios":"levelo://app?vid=711c30e9-866d-4a9f-9786-5301a8363e14"},"vehicle_type_id":"4","last_reported":1683824721,"current_range_meters":18400,"station_id":"ce4bh2h2rcd13ifvqdh0","pricing_plan_id":"free"},{"bike_id":"82a093a1-50c3-4c8e-8409-7d05fbefb42d","system_id":"levelo_inurba_marseille","lat":43.2942,"lon":5.38631,"is_reserved":false,"is_disabled":false,"rental_uris":{"android":"levelo://app?vid=82a093a1-50c3-4c8e-8409-7d05fbefb42d","ios":"levelo://app?vid=82a093a1-50c3-4c8e-8409-7d05fbefb42d"},"vehicle_type_id":"4","last_reported":1683824721,"current_range_meters":12400,"station_id":"ce4bh2h2rcd13ifvqdh0","pricing_plan_id":"free"},{"bike_id":"f97531aa-060c-4381-968f-5174b7852abc","system_id":"levelo_inurba_marseille","lat":43.29419,"lon":5.38631,"is_reserved":false,"is_disabled":false,"rental_uris":{"android":"levelo://app?vid=f97531aa-060c-4381-968f-5174b7852abc","ios":"levelo://app?vid=f97531aa-060c-4381-968f-5174b7852abc"},"vehicle_type_id":"4","last_reported":1683824721,"current_range_meters":800,"station_id":"ce4bh2h2rcd13ifvqdh0","pricing_plan_id":"free"},{"bike_id":"9bce55ee-8580-476a-9f04-3b9669c2fe0a","system_id":"levelo_inurba_marseille","lat":43.294162,"lon":5.386292,"is_reserved":false,"is_disabled":false,"rental_uris":{"android":"levelo://app?vid=9bce55ee-8580-476a-9f04-3b9669c2fe0a","ios":"levelo://app?vid=9bce55ee-8580-476a-9f04-3b9669c2fe0a"},"vehicle_type_id":"4","last_reported":1683824721,"current_range_meters":26000,"station_id":"ce4bh2h2rcd13ifvqdh0","pricing_plan_id":"free"},{"bike_id":"70c802c8-c546-4797-ad53-0e871b2513b6","system_id":"levelo_inurba_marseille","lat":43.29418,"lon":5.38631,"is_reserved":false,"is_disabled":false,"rental_uris":{"android":"levelo://app?vid=70c802c8-c546-4797-ad53-0e871b2513b6","ios":"levelo://app?vid=70c802c8-c546-4797-ad53-0e871b2513b6"},"vehicle_type_id":"4","last_reported":1683824721,"current_range_meters":14800,"station_id":"ce4bh2h2rcd13ifvqdh0","pricing_plan_id":"free"},{"bike_id":"6bba651a-bdca-489b-a9e3-3ceed8e334b4","system_id":"levelo_inurba_marseille","lat":43.289184,"lon":5.366408,"is_reserved":false,"is_disabled":false,"rental_uris":{"android":"levelo://app?vid=6bba651a-bdca-489b-a9e3-3ceed8e334b4","ios":"levelo://app?vid=6bba651a-bdca-489b-a9e3-3ceed8e334b4"},"vehicle_type_id":"4","last_reported":1683824721,"current_range_meters":10000,"station_id":"ce4bhap2rcd13ifvqek0","pricing_plan_id":"free"},{"bike_id":"f2b08d07-0c86-4dcb-a689-6db4804fe31d","system_id":"levelo_inurba_marseille","lat":43.289184,"lon":5.366408,"is_reserved":false,"is_disabled":false,"rental_uris":{"android":"levelo://app?vid=f2b08d07-0c86-4dcb-a689-6db4804fe31d","ios":"levelo://app?vid=f2b08d07-0c86-4dcb-a689-6db4804fe31d"},"vehicle_type_id":"4","last_reported":1683824721,"current_range_meters":400,"station_id":"ce4bhap2rcd13ifvqek0","pricing_plan_id":"free"},{"bike_id":"96508dd3-e75e-447b-9060-f0fce6780cc4","system_id":"levelo_inurba_marseille","lat":43.289468,"lon":5.363719,"is_reserved":false,"is_disabled":false,"rental_uris":{"android":"levelo://app?vid=96508dd3-e75e-447b-9060-f0fce6780cc4","ios":"levelo://app?vid=96508dd3-e75e-447b-9060-f0fce6780cc4"},"vehicle_type_id":"4","last_reported":1683824721,"current_range_meters":0,"station_id":"ce4bhc92rcd13ifvqetg","pricing_plan_id":"free"},{"bike_id":"6aa33584-b842-44d9-9ee9-2765d0b1331d","system_id":"levelo_inurba_marseille","lat":43.289184,"lon":5.366408,"is_reserved":false,"is_disabled":false,"rental_uris":{"android":"levelo://app?vid=6aa33584-b842-44d9-9ee9-2765d0b1331d","ios":"levelo://app?vid=6aa33584-b842-44d9-9ee9-2765d0b1331d"},"vehicle_type_id":"4","last_reported":1683824721,"current_range_meters":10000,"station_id":"ce4bhap2rcd13ifvqek0","pricing_plan_id":"free"},{"bike_id":"732cdad5-5d2d-4e00-987a-83696fb33e2f","system_id":"levelo_inurba_marseille","lat":43.289184,"lon":5.366408,"is_reserved":false,"is_disabled":false,"rental_uris":{"android":"levelo://app?vid=732cdad5-5d2d-4e00-987a-83696fb33e2f","ios":"levelo://app?vid=732cdad5-5d2d-4e00-987a-83696fb33e2f"},"vehicle_type_id":"4","last_reported":1683824721,"current_range_meters":3600,"station_id":"ce4bhap2rcd13ifvqek0","pricing_plan_id":"free"},{"bike_id":"1b6ed799-71c8-409e-9cdb-6da5ad15ddb7","system_id":"levelo_inurba_marseille","lat":43.292644,"lon":5.384257,"is_reserved":false,"is_disabled":false,"rental_uris":{"android":"levelo://app?vid=1b6ed799-71c8-409e-9cdb-6da5ad15ddb7","ios":"levelo://app?vid=1b6ed799-71c8-409e-9cdb-6da5ad15ddb7"},"vehicle_type_id":"4","last_reported":1683824721,"current_range_meters":0,"station_id":"ce4bh692rcd13ifvqea0","pricing_plan_id":"free"},{"bike_id":"7729ef1c-9932-4c09-96f3-4c7dd91b20cf","system_id":"levelo_inurba_marseille","lat":43.292644,"lon":5.384257,"is_reserved":false,"is_disabled":false,"rental_uris":{"android":"levelo://app?vid=7729ef1c-9932-4c09-96f3-4c7dd91b20cf","ios":"levelo://app?vid=7729ef1c-9932-4c09-96f3-4c7dd91b20cf"},"vehicle_type_id":"4","last_reported":1683824721,"current_range_meters":400,"station_id":"ce4bh692rcd13ifvqea0","pricing_plan_id":"free"},{"bike_id":"27f51f29-8ae3-473b-b917-2b7c0968f467","system_id":"levelo_inurba_marseille","lat":43.304296,"lon":5.397513,"is_reserved":false,"is_disabled":false,"rental_uris":{"android":"levelo://app?vid=27f51f29-8ae3-473b-b917-2b7c0968f467","ios":"levelo://app?vid=27f51f29-8ae3-473b-b917-2b7c0968f467"},"vehicle_type_id":"4","last_reported":1683824721,"current_range_meters":1200,"station_id":"ce4bh092rcd13ifvqd20","pricing_plan_id":"free"},{"bike_id":"57ef4919-1988-403c-9fa7-49dd12d674b0","system_id":"levelo_inurba_marseille","lat":43.304274,"lon":5.397513,"is_reserved":false,"is_disabled":false,"rental_uris":{"android":"levelo://app?vid=57ef4919-1988-403c-9fa7-49dd12d674b0","ios":"levelo://app?vid=57ef4919-1988-403c-9fa7-49dd12d674b0"},"vehicle_type_id":"4","last_reported":1683824721,"current_range_meters":27600,"station_id":"ce4bh092rcd13ifvqd20","pricing_plan_id":"free"},{"bike_id":"bd05e376-4d2a-4676-b389-5126f58612a3","system_id":"levelo_inurba_marseille","lat":43.304274,"lon":5.397513,"is_reserved":false,"is_disabled":false,"rental_uris":{"android":"levelo://app?vid=bd05e376-4d2a-4676-b389-5126f58612a3","ios":"levelo://app?vid=bd05e376-4d2a-4676-b389-5126f58612a3"},"vehicle_type_id":"4","last_reported":1683824721,"current_range_meters":0,"station_id":"ce4bh092rcd13ifvqd20","pricing_plan_id":"free"},{"bike_id":"75896dd4-6382-42e4-9f9c-b166af27695d","system_id":"levelo_inurba_marseille","lat":43.29012,"lon":5.35612,"is_reserved":false,"is_disabled":false,"rental_uris":{"android":"levelo://app?vid=75896dd4-6382-42e4-9f9c-b166af27695d","ios":"levelo://app?vid=75896dd4-6382-42e4-9f9c-b166af27695d"},"vehicle_type_id":"4","last_reported":1683824721,"current_range_meters":24800,"station_id":"ce4bhb92rcd13ifvqen0","pricing_plan_id":"free"},{"bike_id":"1b7ea463-b32a-4479-a408-bd3709b61c63","system_id":"levelo_inurba_marseille","lat":43.290104,"lon":5.356111,"is_reserved":false,"is_disabled":false,"rental_uris":{"android":"levelo://app?vid=1b7ea463-b32a-4479-a408-bd3709b61c63","ios":"levelo://app?vid=1b7ea463-b32a-4479-a408-bd3709b61c63"},"vehicle_type_id":"4","last_reported":1683824721,"current_range_meters":10400,"station_id":"ce4bhb92rcd13ifvqen0","pricing_plan_id":"free"},{"bike_id":"211b7316-10de-4bc7-a044-db2211126bbf","system_id":"levelo_inurba_marseille","lat":43.3304,"lon":5.3892,"is_reserved":false,"is_disabled":false,"rental_uris":{"android":"levelo://app?vid=211b7316-10de-4bc7-a044-db2211126bbf","ios":"levelo://app?vid=211b7316-10de-4bc7-a044-db2211126bbf"},"vehicle_type_id":"4","last_reported":1683824721,"current_range_meters":18400,"station_id":"ce4bhr92rcd13ifvqhrg","pricing_plan_id":"free"},{"bike_id":"518082fb-52cc-4c89-97e5-f9686a606b88","system_id":"levelo_inurba_marseille","lat":43.290104,"lon":5.356111,"is_reserved":false,"is_disabled":false,"rental_uris":{"android":"levelo://app?vid=518082fb-52cc-4c89-97e5-f9686a606b88","ios":"levelo://app?vid=518082fb-52cc-4c89-97e5-f9686a606b88"},"vehicle_type_id":"4","last_reported":1683824721,"current_range_meters":18800,"station_id":"ce4bhb92rcd13ifvqen0","pricing_plan_id":"free"},{"bike_id":"574aa680-a5bb-4e77-a0bc-1429e11bc571","system_id":"levelo_inurba_marseille","lat":43.290103,"lon":5.356114,"is_reserved":false,"is_disabled":false,"rental_uris":{"android":"levelo://app?vid=574aa680-a5bb-4e77-a0bc-1429e11bc571","ios":"levelo://app?vid=574aa680-a5bb-4e77-a0bc-1429e11bc571"},"vehicle_type_id":"4","last_reported":1683824721,"current_range_meters":22800,"station_id":"ce4bhb92rcd13ifvqen0","pricing_plan_id":"free"},{"bike_id":"7f954e0d-d233-433d-8403-0f653027dca0","system_id":"levelo_inurba_marseille","lat":43.33041,"lon":5.3892,"is_reserved":false,"is_disabled":false,"rental_uris":{"android":"levelo://app?vid=7f954e0d-d233-433d-8403-0f653027dca0","ios":"levelo://app?vid=7f954e0d-d233-433d-8403-0f653027dca0"},"vehicle_type_id":"4","last_reported":1683824721,"current_range_meters":28400,"station_id":"ce4bhr92rcd13ifvqhrg","pricing_plan_id":"free"},{"bike_id":"7e3c8b47-15fd-4b01-ab5b-c4715c415b4f","system_id":"levelo_inurba_marseille","lat":43.290104,"lon":5.356111,"is_reserved":false,"is_disabled":false,"rental_uris":{"android":"levelo://app?vid=7e3c8b47-15fd-4b01-ab5b-c4715c415b4f","ios":"levelo://app?vid=7e3c8b47-15fd-4b01-ab5b-c4715c415b4f"},"vehicle_type_id":"4","last_reported":1683824721,"current_range_meters":8000,"station_id":"ce4bhb92rcd13ifvqen0","pricing_plan_id":"free"},{"bike_id":"705b789e-afc4-48e4-bbdc-ff4aeb948868","system_id":"levelo_inurba_marseille","lat":43.33045,"lon":5.38915,"is_reserved":false,"is_disabled":false,"rental_uris":{"android":"levelo://app?vid=705b789e-afc4-48e4-bbdc-ff4aeb948868","ios":"levelo://app?vid=705b789e-afc4-48e4-bbdc-ff4aeb948868"},"vehicle_type_id":"4","last_reported":1683824721,"current_range_meters":31200,"station_id":"ce4bhr92rcd13ifvqhrg","pricing_plan_id":"free"},{"bike_id":"407dfac3-ee8b-4a5f-ba5e-528d8ae4c70b","system_id":"levelo_inurba_marseille","lat":43.33044,"lon":5.3892,"is_reserved":false,"is_disabled":false,"rental_uris":{"android":"levelo://app?vid=407dfac3-ee8b-4a5f-ba5e-528d8ae4c70b","ios":"levelo://app?vid=407dfac3-ee8b-4a5f-ba5e-528d8ae4c70b"},"vehicle_type_id":"4","last_reported":1683824721,"current_range_meters":13200,"station_id":"ce4bhr92rcd13ifvqhrg","pricing_plan_id":"free"},{"bike_id":"f55f9613-885a-4d9f-b9d0-876dd874452b","system_id":"levelo_inurba_marseille","lat":43.33047,"lon":5.38916,"is_reserved":false,"is_disabled":false,"rental_uris":{"android":"levelo://app?vid=f55f9613-885a-4d9f-b9d0-876dd874452b","ios":"levelo://app?vid=f55f9613-885a-4d9f-b9d0-876dd874452b"},"vehicle_type_id":"4","last_reported":1683824721,"current_range_meters":23200,"station_id":"ce4bhr92rcd13ifvqhrg","pricing_plan_id":"free"},{"bike_id":"291e92dd-c2ab-4c58-b1dd-0973f1c413d5","system_id":"levelo_inurba_marseille","lat":43.33048,"lon":5.38917,"is_reserved":false,"is_disabled":false,"rental_uris":{"android":"levelo://app?vid=291e92dd-c2ab-4c58-b1dd-0973f1c413d5","ios":"levelo://app?vid=291e92dd-c2ab-4c58-b1dd-0973f1c413d5"},"vehicle_type_id":"4","last_reported":1683824721,"current_range_meters":25200,"station_id":"ce4bhr92rcd13ifvqhrg","pricing_plan_id":"free"},{"bike_id":"a95a2d64-a469-4ffa-96de-4cb52b7a5244","system_id":"levelo_inurba_marseille","lat":43.29005,"lon":5.35604,"is_reserved":false,"is_disabled":false,"rental_uris":{"android":"levelo://app?vid=a95a2d64-a469-4ffa-96de-4cb52b7a5244","ios":"levelo://app?vid=a95a2d64-a469-4ffa-96de-4cb52b7a5244"},"vehicle_type_id":"4","last_reported":1683824721,"current_range_meters":23200,"station_id":"ce4bhb92rcd13ifvqen0","pricing_plan_id":"free"},{"bike_id":"203b2f11-a3b5-475b-8f41-939e1d33a596","system_id":"levelo_inurba_marseille","lat":43.33049,"lon":5.3892,"is_reserved":false,"is_disabled":false,"rental_uris":{"android":"levelo://app?vid=203b2f11-a3b5-475b-8f41-939e1d33a596","ios":"levelo://app?vid=203b2f11-a3b5-475b-8f41-939e1d33a596"},"vehicle_type_id":"4","last_reported":1683824721,"current_range_meters":27200,"station_id":"ce4bhr92rcd13ifvqhrg","pricing_plan_id":"free"},{"bike_id":"94f7f6e0-6812-4bb8-bfbd-23abae7854e7","system_id":"levelo_inurba_marseille","lat":43.28996,"lon":5.35608,"is_reserved":false,"is_disabled":false,"rental_uris":{"android":"levelo://app?vid=94f7f6e0-6812-4bb8-bfbd-23abae7854e7","ios":"levelo://app?vid=94f7f6e0-6812-4bb8-bfbd-23abae7854e7"},"vehicle_type_id":"4","last_reported":1683824721,"current_range_meters":16400,"station_id":"","pricing_plan_id":"free"},{"bike_id":"5f77f581-58d0-4923-a66c-3ca6e73b2771","system_id":"levelo_inurba_marseille","lat":43.295169,"lon":5.390426,"is_reserved":false,"is_disabled":false,"rental_uris":{"android":"levelo://app?vid=5f77f581-58d0-4923-a66c-3ca6e73b2771","ios":"levelo://app?vid=5f77f581-58d0-4923-a66c-3ca6e73b2771"},"vehicle_type_id":"4","last_reported":1683824721,"current_range_meters":2000,"station_id":"ce4bh3p2rcd13ifvqdp0","pricing_plan_id":"free"},{"bike_id":"33c319c8-c61d-4548-a8f2-0d3763bc9e41","system_id":"levelo_inurba_marseille","lat":43.290995,"lon":5.381361,"is_reserved":false,"is_disabled":false,"rental_uris":{"android":"levelo://app?vid=33c319c8-c61d-4548-a8f2-0d3763bc9e41","ios":"levelo://app?vid=33c319c8-c61d-4548-a8f2-0d3763bc9e41"},"vehicle_type_id":"4","last_reported":1683824721,"current_range_meters":22400,"station_id":"ce4bh512rcd13ifvqe2g","pricing_plan_id":"free"},{"bike_id":"f2183c07-a37b-468c-97c1-d4c6867369bc","system_id":"levelo_inurba_marseille","lat":43.28981,"lon":5.37834,"is_reserved":false,"is_disabled":false,"rental_uris":{"android":"levelo://app?vid=f2183c07-a37b-468c-97c1-d4c6867369bc","ios":"levelo://app?vid=f2183c07-a37b-468c-97c1-d4c6867369bc"},"vehicle_type_id":"4","last_reported":1683824721,"current_range_meters":19200,"station_id":"ce4bh9p2rcd13ifvqed0","pricing_plan_id":"free"},{"bike_id":"34a77680-fe79-48eb-a10a-a1701fac8e7a","system_id":"levelo_inurba_marseille","lat":43.295169,"lon":5.390426,"is_reserved":false,"is_disabled":false,"rental_uris":{"android":"levelo://app?vid=34a77680-fe79-48eb-a10a-a1701fac8e7a","ios":"levelo://app?vid=34a77680-fe79-48eb-a10a-a1701fac8e7a"},"vehicle_type_id":"4","last_reported":1683824721,"current_range_meters":4000,"station_id":"ce4bh3p2rcd13ifvqdp0","pricing_plan_id":"free"},{"bike_id":"a7d64cab-0377-4003-93f0-adc86b92b977","system_id":"levelo_inurba_marseille","lat":43.29524,"lon":5.39053,"is_reserved":false,"is_disabled":false,"rental_uris":{"android":"levelo://app?vid=a7d64cab-0377-4003-93f0-adc86b92b977","ios":"levelo://app?vid=a7d64cab-0377-4003-93f0-adc86b92b977"},"vehicle_type_id":"4","last_reported":1683824721,"current_range_meters":14000,"station_id":"ce4bh3p2rcd13ifvqdp0","pricing_plan_id":"free"},{"bike_id":"32d0955f-706d-42ca-afd2-f0b81cb4a9e4","system_id":"levelo_inurba_marseille","lat":43.28856,"lon":5.358371,"is_reserved":false,"is_disabled":false,"rental_uris":{"android":"levelo://app?vid=32d0955f-706d-42ca-afd2-f0b81cb4a9e4","ios":"levelo://app?vid=32d0955f-706d-42ca-afd2-f0b81cb4a9e4"},"vehicle_type_id":"4","last_reported":1683824721,"current_range_meters":26000,"station_id":"ce4bhb12rcd13ifvqem0","pricing_plan_id":"free"},{"bike_id":"5b09ff4e-44aa-473c-b19e-cc495c36479c","system_id":"levelo_inurba_marseille","lat":43.28856,"lon":5.358371,"is_reserved":false,"is_disabled":false,"rental_uris":{"android":"levelo://app?vid=5b09ff4e-44aa-473c-b19e-cc495c36479c","ios":"levelo://app?vid=5b09ff4e-44aa-473c-b19e-cc495c36479c"},"vehicle_type_id":"4","last_reported":1683824721,"current_range_meters":7600,"station_id":"ce4bhb12rcd13ifvqem0","pricing_plan_id":"free"},{"bike_id":"0320541a-c7e1-4ed5-a866-fe2689bc6eb2","system_id":"levelo_inurba_marseille","lat":43.3099,"lon":5.401,"is_reserved":false,"is_disabled":false,"rental_uris":{"android":"levelo://app?vid=0320541a-c7e1-4ed5-a866-fe2689bc6eb2","ios":"levelo://app?vid=0320541a-c7e1-4ed5-a866-fe2689bc6eb2"},"vehicle_type_id":"4","last_reported":1683824721,"current_range_meters":21200,"station_id":"","pricing_plan_id":"free"},{"bike_id":"1ae28bd7-c220-4767-bb54-a194de2d1ca9","system_id":"levelo_inurba_marseille","lat":43.28856,"lon":5.358371,"is_reserved":false,"is_disabled":false,"rental_uris":{"android":"levelo://app?vid=1ae28bd7-c220-4767-bb54-a194de2d1ca9","ios":"levelo://app?vid=1ae28bd7-c220-4767-bb54-a194de2d1ca9"},"vehicle_type_id":"4","last_reported":1683824721,"current_range_meters":7200,"station_id":"ce4bhb12rcd13ifvqem0","pricing_plan_id":"free"},{"bike_id":"f71067ad-45fb-4935-a6ee-e228bb3155ee","system_id":"levelo_inurba_marseille","lat":43.28856,"lon":5.358371,"is_reserved":false,"is_disabled":false,"rental_uris":{"android":"levelo://app?vid=f71067ad-45fb-4935-a6ee-e228bb3155ee","ios":"levelo://app?vid=f71067ad-45fb-4935-a6ee-e228bb3155ee"},"vehicle_type_id":"4","last_reported":1683824721,"current_range_meters":25200,"station_id":"ce4bhb12rcd13ifvqem0","pricing_plan_id":"free"},{"bike_id":"c4021901-a9c3-4d42-b783-ce6991355322","system_id":"levelo_inurba_marseille","lat":43.33089,"lon":5.39076,"is_reserved":false,"is_disabled":false,"rental_uris":{"android":"levelo://app?vid=c4021901-a9c3-4d42-b783-ce6991355322","ios":"levelo://app?vid=c4021901-a9c3-4d42-b783-ce6991355322"},"vehicle_type_id":"4","last_reported":1683824721,"current_range_meters":400,"station_id":"","pricing_plan_id":"free"},{"bike_id":"74e4edad-791b-402d-b641-bdd8c2d7a929","system_id":"levelo_inurba_marseille","lat":43.33746,"lon":5.37424,"is_reserved":false,"is_disabled":false,"rental_uris":{"android":"levelo://app?vid=74e4edad-791b-402d-b641-bdd8c2d7a929","ios":"levelo://app?vid=74e4edad-791b-402d-b641-bdd8c2d7a929"},"vehicle_type_id":"4","last_reported":1683824721,"current_range_meters":20000,"station_id":"","pricing_plan_id":"free"},{"bike_id":"b580e0e2-2f8d-4df7-94bc-e067ad6ab0cb","system_id":"levelo_inurba_marseille","lat":43.32678,"lon":5.39601,"is_reserved":false,"is_disabled":false,"rental_uris":{"android":"levelo://app?vid=b580e0e2-2f8d-4df7-94bc-e067ad6ab0cb","ios":"levelo://app?vid=b580e0e2-2f8d-4df7-94bc-e067ad6ab0cb"},"vehicle_type_id":"4","last_reported":1683824721,"current_range_meters":15600,"station_id":"","pricing_plan_id":"free"},{"bike_id":"7c56c76c-733e-4eb1-9830-931e734057aa","system_id":"levelo_inurba_marseille","lat":43.33756,"lon":5.37467,"is_reserved":false,"is_disabled":false,"rental_uris":{"android":"levelo://app?vid=7c56c76c-733e-4eb1-9830-931e734057aa","ios":"levelo://app?vid=7c56c76c-733e-4eb1-9830-931e734057aa"},"vehicle_type_id":"4","last_reported":1683824721,"current_range_meters":28400,"station_id":"","pricing_plan_id":"free"},{"bike_id":"8353ace8-5088-45ad-8af3-e05c63f999bb","system_id":"levelo_inurba_marseille","lat":43.30642,"lon":5.401031,"is_reserved":false,"is_disabled":false,"rental_uris":{"android":"levelo://app?vid=8353ace8-5088-45ad-8af3-e05c63f999bb","ios":"levelo://app?vid=8353ace8-5088-45ad-8af3-e05c63f999bb"},"vehicle_type_id":"4","last_reported":1683824721,"current_range_meters":8800,"station_id":"ce4bh112rcd13ifvqda0","pricing_plan_id":"free"},{"bike_id":"32594d5b-d499-44fe-a9c3-f12b9f641060","system_id":"levelo_inurba_marseille","lat":43.33773,"lon":5.3744,"is_reserved":false,"is_disabled":false,"rental_uris":{"android":"levelo://app?vid=32594d5b-d499-44fe-a9c3-f12b9f641060","ios":"levelo://app?vid=32594d5b-d499-44fe-a9c3-f12b9f641060"},"vehicle_type_id":"4","last_reported":1683824721,"current_range_meters":1600,"station_id":"","pricing_plan_id":"free"},{"bike_id":"5511648f-c5a8-41a0-86d7-62bc4a70610e","system_id":"levelo_inurba_marseille","lat":43.301117,"lon":5.398795,"is_reserved":false,"is_disabled":false,"rental_uris":{"android":"levelo://app?vid=5511648f-c5a8-41a0-86d7-62bc4a70610e","ios":"levelo://app?vid=5511648f-c5a8-41a0-86d7-62bc4a70610e"},"vehicle_type_id":"4","last_reported":1683824721,"current_range_meters":1600,"station_id":"ce4bh0h2rcd13ifvqd40","pricing_plan_id":"free"},{"bike_id":"e8befa8f-b579-4062-bb26-7d1fe74ca675","system_id":"levelo_inurba_marseille","lat":43.301117,"lon":5.398795,"is_reserved":false,"is_disabled":false,"rental_uris":{"android":"levelo://app?vid=e8befa8f-b579-4062-bb26-7d1fe74ca675","ios":"levelo://app?vid=e8befa8f-b579-4062-bb26-7d1fe74ca675"},"vehicle_type_id":"4","last_reported":1683824721,"current_range_meters":28000,"station_id":"ce4bh0h2rcd13ifvqd40","pricing_plan_id":"free"},{"bike_id":"3daea1db-6e19-4d8d-918c-dea73c29a843","system_id":"levelo_inurba_marseille","lat":43.286591,"lon":5.363346,"is_reserved":false,"is_disabled":false,"rental_uris":{"android":"levelo://app?vid=3daea1db-6e19-4d8d-918c-dea73c29a843","ios":"levelo://app?vid=3daea1db-6e19-4d8d-918c-dea73c29a843"},"vehicle_type_id":"4","last_reported":1683824721,"current_range_meters":26400,"station_id":"ce4bhah2rcd13ifvqej0","pricing_plan_id":"free"},{"bike_id":"3c6154d3-2b61-4e89-9787-99041b702e3c","system_id":"levelo_inurba_marseille","lat":43.298681,"lon":5.397225,"is_reserved":false,"is_disabled":false,"rental_uris":{"android":"levelo://app?vid=3c6154d3-2b61-4e89-9787-99041b702e3c","ios":"levelo://app?vid=3c6154d3-2b61-4e89-9787-99041b702e3c"},"vehicle_type_id":"4","last_reported":1683824721,"current_range_meters":28000,"station_id":"ce4bh0h2rcd13ifvqd50","pricing_plan_id":"free"},{"bike_id":"9dd9f3ab-f637-4690-a6ab-c608e0748f5c","system_id":"levelo_inurba_marseille","lat":43.298681,"lon":5.397225,"is_reserved":false,"is_disabled":false,"rental_uris":{"android":"levelo://app?vid=9dd9f3ab-f637-4690-a6ab-c608e0748f5c","ios":"levelo://app?vid=9dd9f3ab-f637-4690-a6ab-c608e0748f5c"},"vehicle_type_id":"4","last_reported":1683824721,"current_range_meters":22400,"station_id":"ce4bh0h2rcd13ifvqd50","pricing_plan_id":"free"},{"bike_id":"b7a89846-db6b-40f2-a878-af943d31e6cd","system_id":"levelo_inurba_marseille","lat":43.295196,"lon":5.39397,"is_reserved":false,"is_disabled":false,"rental_uris":{"android":"levelo://app?vid=b7a89846-db6b-40f2-a878-af943d31e6cd","ios":"levelo://app?vid=b7a89846-db6b-40f2-a878-af943d31e6cd"},"vehicle_type_id":"4","last_reported":1683824721,"current_range_meters":18400,"station_id":"ce4bh292rcd13ifvqdf0","pricing_plan_id":"free"},{"bike_id":"d301e7ed-eeef-46be-be50-7ce482a234ac","system_id":"levelo_inurba_marseille","lat":43.295196,"lon":5.39397,"is_reserved":false,"is_disabled":false,"rental_uris":{"android":"levelo://app?vid=d301e7ed-eeef-46be-be50-7ce482a234ac","ios":"levelo://app?vid=d301e7ed-eeef-46be-be50-7ce482a234ac"},"vehicle_type_id":"4","last_reported":1683824721,"current_range_meters":14000,"station_id":"ce4bh292rcd13ifvqdf0","pricing_plan_id":"free"},{"bike_id":"d24ad7ed-46a3-4b2d-92c9-021a931905ff","system_id":"levelo_inurba_marseille","lat":43.28662,"lon":5.36355,"is_reserved":false,"is_disabled":false,"rental_uris":{"android":"levelo://app?vid=d24ad7ed-46a3-4b2d-92c9-021a931905ff","ios":"levelo://app?vid=d24ad7ed-46a3-4b2d-92c9-021a931905ff"},"vehicle_type_id":"4","last_reported":1683824721,"current_range_meters":29600,"station_id":"ce4bhah2rcd13ifvqej0","pricing_plan_id":"free"},{"bike_id":"11daf26c-7f79-4a03-8574-3b97595c809c","system_id":"levelo_inurba_marseille","lat":43.298681,"lon":5.397225,"is_reserved":false,"is_disabled":false,"rental_uris":{"android":"levelo://app?vid=11daf26c-7f79-4a03-8574-3b97595c809c","ios":"levelo://app?vid=11daf26c-7f79-4a03-8574-3b97595c809c"},"vehicle_type_id":"4","last_reported":1683824721,"current_range_meters":25600,"station_id":"ce4bh0h2rcd13ifvqd50","pricing_plan_id":"free"},{"bike_id":"6794721a-2c13-4fc3-ba6c-f1049ca0d02f","system_id":"levelo_inurba_marseille","lat":43.298681,"lon":5.397225,"is_reserved":false,"is_disabled":false,"rental_uris":{"android":"levelo://app?vid=6794721a-2c13-4fc3-ba6c-f1049ca0d02f","ios":"levelo://app?vid=6794721a-2c13-4fc3-ba6c-f1049ca0d02f"},"vehicle_type_id":"4","last_reported":1683824721,"current_range_meters":25600,"station_id":"ce4bh0h2rcd13ifvqd50","pricing_plan_id":"free"},{"bike_id":"fbee5083-056e-42c6-8801-325b653d60a7","system_id":"levelo_inurba_marseille","lat":43.295194,"lon":5.39397,"is_reserved":false,"is_disabled":false,"rental_uris":{"android":"levelo://app?vid=fbee5083-056e-42c6-8801-325b653d60a7","ios":"levelo://app?vid=fbee5083-056e-42c6-8801-325b653d60a7"},"vehicle_type_id":"4","last_reported":1683824721,"current_range_meters":2000,"station_id":"ce4bh292rcd13ifvqdf0","pricing_plan_id":"free"},{"bike_id":"6f6273e5-d914-4a15-8fa7-e3d298df410e","system_id":"levelo_inurba_marseille","lat":43.295196,"lon":5.39397,"is_reserved":false,"is_disabled":false,"rental_uris":{"android":"levelo://app?vid=6f6273e5-d914-4a15-8fa7-e3d298df410e","ios":"levelo://app?vid=6f6273e5-d914-4a15-8fa7-e3d298df410e"},"vehicle_type_id":"4","last_reported":1683824721,"current_range_meters":7200,"station_id":"ce4bh292rcd13ifvqdf0","pricing_plan_id":"free"},{"bike_id":"dba6f4b2-fca3-418e-8521-994d2f21e42d","system_id":"levelo_inurba_marseille","lat":43.295196,"lon":5.39397,"is_reserved":false,"is_disabled":false,"rental_uris":{"android":"levelo://app?vid=dba6f4b2-fca3-418e-8521-994d2f21e42d","ios":"levelo://app?vid=dba6f4b2-fca3-418e-8521-994d2f21e42d"},"vehicle_type_id":"4","last_reported":1683824721,"current_range_meters":17200,"station_id":"ce4bh292rcd13ifvqdf0","pricing_plan_id":"free"},{"bike_id":"2e5dd564-58cc-4b24-9f9b-f4804b2e083e","system_id":"levelo_inurba_marseille","lat":43.295194,"lon":5.39397,"is_reserved":false,"is_disabled":false,"rental_uris":{"android":"levelo://app?vid=2e5dd564-58cc-4b24-9f9b-f4804b2e083e","ios":"levelo://app?vid=2e5dd564-58cc-4b24-9f9b-f4804b2e083e"},"vehicle_type_id":"4","last_reported":1683824721,"current_range_meters":7600,"station_id":"ce4bh292rcd13ifvqdf0","pricing_plan_id":"free"},{"bike_id":"47cbb5c8-4490-44d5-850f-82139616c211","system_id":"levelo_inurba_marseille","lat":43.29521,"lon":5.39408,"is_reserved":false,"is_disabled":false,"rental_uris":{"android":"levelo://app?vid=47cbb5c8-4490-44d5-850f-82139616c211","ios":"levelo://app?vid=47cbb5c8-4490-44d5-850f-82139616c211"},"vehicle_type_id":"4","last_reported":1683824721,"current_range_meters":18000,"station_id":"ce4bh292rcd13ifvqdf0","pricing_plan_id":"free"},{"bike_id":"d7072087-48e1-42b4-98a3-5e9369df56bb","system_id":"levelo_inurba_marseille","lat":43.295194,"lon":5.39397,"is_reserved":false,"is_disabled":false,"rental_uris":{"android":"levelo://app?vid=d7072087-48e1-42b4-98a3-5e9369df56bb","ios":"levelo://app?vid=d7072087-48e1-42b4-98a3-5e9369df56bb"},"vehicle_type_id":"4","last_reported":1683824721,"current_range_meters":16400,"station_id":"ce4bh292rcd13ifvqdf0","pricing_plan_id":"free"},{"bike_id":"721ad630-01c6-469f-8b68-38a6f9b84013","system_id":"levelo_inurba_marseille","lat":43.30245,"lon":5.40048,"is_reserved":false,"is_disabled":false,"rental_uris":{"android":"levelo://app?vid=721ad630-01c6-469f-8b68-38a6f9b84013","ios":"levelo://app?vid=721ad630-01c6-469f-8b68-38a6f9b84013"},"vehicle_type_id":"4","last_reported":1683824721,"current_range_meters":24800,"station_id":"","pricing_plan_id":"free"},{"bike_id":"e400c12b-3564-4f7b-9d87-2f60d44cb86f","system_id":"levelo_inurba_marseille","lat":43.290336,"lon":5.386425,"is_reserved":false,"is_disabled":false,"rental_uris":{"android":"levelo://app?vid=e400c12b-3564-4f7b-9d87-2f60d44cb86f","ios":"levelo://app?vid=e400c12b-3564-4f7b-9d87-2f60d44cb86f"},"vehicle_type_id":"4","last_reported":1683824721,"current_range_meters":23600,"station_id":"ce4bh4p2rcd13ifvqe0g","pricing_plan_id":"free"},{"bike_id":"5a08e797-5a7b-4381-ac14-4cc461b1f743","system_id":"levelo_inurba_marseille","lat":43.286039,"lon":5.370679,"is_reserved":false,"is_disabled":false,"rental_uris":{"android":"levelo://app?vid=5a08e797-5a7b-4381-ac14-4cc461b1f743","ios":"levelo://app?vid=5a08e797-5a7b-4381-ac14-4cc461b1f743"},"vehicle_type_id":"4","last_reported":1683824721,"current_range_meters":14800,"station_id":"ce4bht12rcd13ifvqi60","pricing_plan_id":"free"},{"bike_id":"723c4c28-3f87-4ee4-83ac-04dd82f97fb1","system_id":"levelo_inurba_marseille","lat":43.286039,"lon":5.370679,"is_reserved":false,"is_disabled":false,"rental_uris":{"android":"levelo://app?vid=723c4c28-3f87-4ee4-83ac-04dd82f97fb1","ios":"levelo://app?vid=723c4c28-3f87-4ee4-83ac-04dd82f97fb1"},"vehicle_type_id":"4","last_reported":1683824721,"current_range_meters":9600,"station_id":"ce4bht12rcd13ifvqi60","pricing_plan_id":"free"},{"bike_id":"5b7eac43-bb0c-419c-95c4-d0bec1a8aab0","system_id":"levelo_inurba_marseille","lat":43.286039,"lon":5.370679,"is_reserved":false,"is_disabled":false,"rental_uris":{"android":"levelo://app?vid=5b7eac43-bb0c-419c-95c4-d0bec1a8aab0","ios":"levelo://app?vid=5b7eac43-bb0c-419c-95c4-d0bec1a8aab0"},"vehicle_type_id":"4","last_reported":1683824721,"current_range_meters":29600,"station_id":"ce4bht12rcd13ifvqi60","pricing_plan_id":"free"},{"bike_id":"848f2907-dab2-4967-8fd0-41eb23c24209","system_id":"levelo_inurba_marseille","lat":43.286039,"lon":5.370679,"is_reserved":false,"is_disabled":false,"rental_uris":{"android":"levelo://app?vid=848f2907-dab2-4967-8fd0-41eb23c24209","ios":"levelo://app?vid=848f2907-dab2-4967-8fd0-41eb23c24209"},"vehicle_type_id":"4","last_reported":1683824721,"current_range_meters":31200,"station_id":"ce4bht12rcd13ifvqi60","pricing_plan_id":"free"},{"bike_id":"c34f11f0-30b7-433f-8ee6-2d835895c44d","system_id":"levelo_inurba_marseille","lat":43.286039,"lon":5.370679,"is_reserved":false,"is_disabled":false,"rental_uris":{"android":"levelo://app?vid=c34f11f0-30b7-433f-8ee6-2d835895c44d","ios":"levelo://app?vid=c34f11f0-30b7-433f-8ee6-2d835895c44d"},"vehicle_type_id":"4","last_reported":1683824721,"current_range_meters":28400,"station_id":"ce4bht12rcd13ifvqi60","pricing_plan_id":"free"},{"bike_id":"a8321a2f-8aba-4b04-bfbb-e735d24c28fb","system_id":"levelo_inurba_marseille","lat":43.286039,"lon":5.370679,"is_reserved":false,"is_disabled":false,"rental_uris":{"android":"levelo://app?vid=a8321a2f-8aba-4b04-bfbb-e735d24c28fb","ios":"levelo://app?vid=a8321a2f-8aba-4b04-bfbb-e735d24c28fb"},"vehicle_type_id":"4","last_reported":1683824721,"current_range_meters":18400,"station_id":"ce4bht12rcd13ifvqi60","pricing_plan_id":"free"},{"bike_id":"ceb320f3-fdfb-40f2-bd4e-849f86cf3d64","system_id":"levelo_inurba_marseille","lat":43.286039,"lon":5.370679,"is_reserved":false,"is_disabled":false,"rental_uris":{"android":"levelo://app?vid=ceb320f3-fdfb-40f2-bd4e-849f86cf3d64","ios":"levelo://app?vid=ceb320f3-fdfb-40f2-bd4e-849f86cf3d64"},"vehicle_type_id":"4","last_reported":1683824721,"current_range_meters":12000,"station_id":"ce4bht12rcd13ifvqi60","pricing_plan_id":"free"},{"bike_id":"281fa2d6-5cc6-4700-9a84-d76537d8c9d0","system_id":"levelo_inurba_marseille","lat":43.286039,"lon":5.370679,"is_reserved":false,"is_disabled":false,"rental_uris":{"android":"levelo://app?vid=281fa2d6-5cc6-4700-9a84-d76537d8c9d0","ios":"levelo://app?vid=281fa2d6-5cc6-4700-9a84-d76537d8c9d0"},"vehicle_type_id":"4","last_reported":1683824721,"current_range_meters":31200,"station_id":"ce4bht12rcd13ifvqi60","pricing_plan_id":"free"},{"bike_id":"742fc298-88d3-40c0-8b42-a3eae1a7061e","system_id":"levelo_inurba_marseille","lat":43.286039,"lon":5.370681,"is_reserved":false,"is_disabled":false,"rental_uris":{"android":"levelo://app?vid=742fc298-88d3-40c0-8b42-a3eae1a7061e","ios":"levelo://app?vid=742fc298-88d3-40c0-8b42-a3eae1a7061e"},"vehicle_type_id":"4","last_reported":1683824721,"current_range_meters":30800,"station_id":"ce4bht12rcd13ifvqi60","pricing_plan_id":"free"},{"bike_id":"f697874d-5eda-4413-b4a9-d3ce39b59fdd","system_id":"levelo_inurba_marseille","lat":43.287185,"lon":5.379373,"is_reserved":false,"is_disabled":false,"rental_uris":{"android":"levelo://app?vid=f697874d-5eda-4413-b4a9-d3ce39b59fdd","ios":"levelo://app?vid=f697874d-5eda-4413-b4a9-d3ce39b59fdd"},"vehicle_type_id":"4","last_reported":1683824721,"current_range_meters":28400,"station_id":"ce4bh9p2rcd13ifvqec0","pricing_plan_id":"free"},{"bike_id":"e515d082-b630-45a5-8415-1a214d2a93f9","system_id":"levelo_inurba_marseille","lat":43.33835,"lon":5.35541,"is_reserved":false,"is_disabled":false,"rental_uris":{"android":"levelo://app?vid=e515d082-b630-45a5-8415-1a214d2a93f9","ios":"levelo://app?vid=e515d082-b630-45a5-8415-1a214d2a93f9"},"vehicle_type_id":"4","last_reported":1683824721,"current_range_meters":2000,"station_id":"","pricing_plan_id":"free"},{"bike_id":"c09315ca-13d4-4df7-92b5-d837ee99e638","system_id":"levelo_inurba_marseille","lat":43.287185,"lon":5.379373,"is_reserved":false,"is_disabled":false,"rental_uris":{"android":"levelo://app?vid=c09315ca-13d4-4df7-92b5-d837ee99e638","ios":"levelo://app?vid=c09315ca-13d4-4df7-92b5-d837ee99e638"},"vehicle_type_id":"4","last_reported":1683824721,"current_range_meters":13200,"station_id":"ce4bh9p2rcd13ifvqec0","pricing_plan_id":"free"},{"bike_id":"4cf96e74-5be5-4bf5-86fb-4fa5af79e166","system_id":"levelo_inurba_marseille","lat":43.287185,"lon":5.379373,"is_reserved":false,"is_disabled":false,"rental_uris":{"android":"levelo://app?vid=4cf96e74-5be5-4bf5-86fb-4fa5af79e166","ios":"levelo://app?vid=4cf96e74-5be5-4bf5-86fb-4fa5af79e166"},"vehicle_type_id":"4","last_reported":1683824721,"current_range_meters":5200,"station_id":"ce4bh9p2rcd13ifvqec0","pricing_plan_id":"free"},{"bike_id":"7bd8c890-69cf-465d-a875-efa6eae8c03c","system_id":"levelo_inurba_marseille","lat":43.29216,"lon":5.39323,"is_reserved":false,"is_disabled":false,"rental_uris":{"android":"levelo://app?vid=7bd8c890-69cf-465d-a875-efa6eae8c03c","ios":"levelo://app?vid=7bd8c890-69cf-465d-a875-efa6eae8c03c"},"vehicle_type_id":"4","last_reported":1683824721,"current_range_meters":1600,"station_id":"ce4bh192rcd13ifvqdd0","pricing_plan_id":"free"},{"bike_id":"58274854-ea2f-407b-9437-9bba997dae82","system_id":"levelo_inurba_marseille","lat":43.29205,"lon":5.39325,"is_reserved":false,"is_disabled":false,"rental_uris":{"android":"levelo://app?vid=58274854-ea2f-407b-9437-9bba997dae82","ios":"levelo://app?vid=58274854-ea2f-407b-9437-9bba997dae82"},"vehicle_type_id":"4","last_reported":1683824721,"current_range_meters":21200,"station_id":"ce4bh192rcd13ifvqdd0","pricing_plan_id":"free"},{"bike_id":"b6927218-1538-4a1b-98f4-67adecd3946d","system_id":"levelo_inurba_marseille","lat":43.29204,"lon":5.39333,"is_reserved":false,"is_disabled":false,"rental_uris":{"android":"levelo://app?vid=b6927218-1538-4a1b-98f4-67adecd3946d","ios":"levelo://app?vid=b6927218-1538-4a1b-98f4-67adecd3946d"},"vehicle_type_id":"4","last_reported":1683824721,"current_range_meters":22800,"station_id":"","pricing_plan_id":"free"},{"bike_id":"8a4e1f1e-33ec-420e-bb28-4c05ddc77e4b","system_id":"levelo_inurba_marseille","lat":43.291994,"lon":5.392907,"is_reserved":false,"is_disabled":false,"rental_uris":{"android":"levelo://app?vid=8a4e1f1e-33ec-420e-bb28-4c05ddc77e4b","ios":"levelo://app?vid=8a4e1f1e-33ec-420e-bb28-4c05ddc77e4b"},"vehicle_type_id":"4","last_reported":1683824721,"current_range_meters":12400,"station_id":"ce4bh192rcd13ifvqdd0","pricing_plan_id":"free"},{"bike_id":"617f8467-f49b-4b42-afec-1f9f6d39c9c2","system_id":"levelo_inurba_marseille","lat":43.284538,"lon":5.358657,"is_reserved":false,"is_disabled":false,"rental_uris":{"android":"levelo://app?vid=617f8467-f49b-4b42-afec-1f9f6d39c9c2","ios":"levelo://app?vid=617f8467-f49b-4b42-afec-1f9f6d39c9c2"},"vehicle_type_id":"4","last_reported":1683824721,"current_range_meters":18000,"station_id":"ce4bhah2rcd13ifvqei0","pricing_plan_id":"free"},{"bike_id":"05c88aa4-2137-4669-afc4-5b2eac840005","system_id":"levelo_inurba_marseille","lat":43.284534,"lon":5.358662,"is_reserved":false,"is_disabled":false,"rental_uris":{"android":"levelo://app?vid=05c88aa4-2137-4669-afc4-5b2eac840005","ios":"levelo://app?vid=05c88aa4-2137-4669-afc4-5b2eac840005"},"vehicle_type_id":"4","last_reported":1683824721,"current_range_meters":31200,"station_id":"ce4bhah2rcd13ifvqei0","pricing_plan_id":"free"},{"bike_id":"85121a95-064d-47df-998d-286191cc92a4","system_id":"levelo_inurba_marseille","lat":43.284534,"lon":5.358662,"is_reserved":false,"is_disabled":false,"rental_uris":{"android":"levelo://app?vid=85121a95-064d-47df-998d-286191cc92a4","ios":"levelo://app?vid=85121a95-064d-47df-998d-286191cc92a4"},"vehicle_type_id":"4","last_reported":1683824721,"current_range_meters":24000,"station_id":"ce4bhah2rcd13ifvqei0","pricing_plan_id":"free"},{"bike_id":"c99af658-0625-425c-bb12-0f719b23fac1","system_id":"levelo_inurba_marseille","lat":43.284534,"lon":5.358662,"is_reserved":false,"is_disabled":false,"rental_uris":{"android":"levelo://app?vid=c99af658-0625-425c-bb12-0f719b23fac1","ios":"levelo://app?vid=c99af658-0625-425c-bb12-0f719b23fac1"},"vehicle_type_id":"4","last_reported":1683824721,"current_range_meters":18800,"station_id":"ce4bhah2rcd13ifvqei0","pricing_plan_id":"free"},{"bike_id":"1b44bec4-7364-4c8f-b3ec-d7d366e6a842","system_id":"levelo_inurba_marseille","lat":43.284534,"lon":5.358662,"is_reserved":false,"is_disabled":false,"rental_uris":{"android":"levelo://app?vid=1b44bec4-7364-4c8f-b3ec-d7d366e6a842","ios":"levelo://app?vid=1b44bec4-7364-4c8f-b3ec-d7d366e6a842"},"vehicle_type_id":"4","last_reported":1683824721,"current_range_meters":2800,"station_id":"ce4bhah2rcd13ifvqei0","pricing_plan_id":"free"},{"bike_id":"640eed80-2be7-4c55-86da-808b254b4973","system_id":"levelo_inurba_marseille","lat":43.284534,"lon":5.358662,"is_reserved":false,"is_disabled":false,"rental_uris":{"android":"levelo://app?vid=640eed80-2be7-4c55-86da-808b254b4973","ios":"levelo://app?vid=640eed80-2be7-4c55-86da-808b254b4973"},"vehicle_type_id":"4","last_reported":1683824721,"current_range_meters":15200,"station_id":"ce4bhah2rcd13ifvqei0","pricing_plan_id":"free"},{"bike_id":"1bddfe32-b8b3-407e-a30f-a339622a801b","system_id":"levelo_inurba_marseille","lat":43.284534,"lon":5.358662,"is_reserved":false,"is_disabled":false,"rental_uris":{"android":"levelo://app?vid=1bddfe32-b8b3-407e-a30f-a339622a801b","ios":"levelo://app?vid=1bddfe32-b8b3-407e-a30f-a339622a801b"},"vehicle_type_id":"4","last_reported":1683824721,"current_range_meters":9600,"station_id":"ce4bhah2rcd13ifvqei0","pricing_plan_id":"free"},{"bike_id":"19be6dff-b133-4d8b-a380-49d58efaaf50","system_id":"levelo_inurba_marseille","lat":43.284534,"lon":5.358662,"is_reserved":false,"is_disabled":false,"rental_uris":{"android":"levelo://app?vid=19be6dff-b133-4d8b-a380-49d58efaaf50","ios":"levelo://app?vid=19be6dff-b133-4d8b-a380-49d58efaaf50"},"vehicle_type_id":"4","last_reported":1683824721,"current_range_meters":3200,"station_id":"ce4bhah2rcd13ifvqei0","pricing_plan_id":"free"},{"bike_id":"a1cc02e3-52e7-4fbe-812f-ee00656d299e","system_id":"levelo_inurba_marseille","lat":43.284534,"lon":5.358662,"is_reserved":false,"is_disabled":false,"rental_uris":{"android":"levelo://app?vid=a1cc02e3-52e7-4fbe-812f-ee00656d299e","ios":"levelo://app?vid=a1cc02e3-52e7-4fbe-812f-ee00656d299e"},"vehicle_type_id":"4","last_reported":1683824721,"current_range_meters":0,"station_id":"ce4bhah2rcd13ifvqei0","pricing_plan_id":"free"},{"bike_id":"26467345-3cd4-41f5-9f85-d731c39e845c","system_id":"levelo_inurba_marseille","lat":43.284538,"lon":5.358657,"is_reserved":false,"is_disabled":false,"rental_uris":{"android":"levelo://app?vid=26467345-3cd4-41f5-9f85-d731c39e845c","ios":"levelo://app?vid=26467345-3cd4-41f5-9f85-d731c39e845c"},"vehicle_type_id":"4","last_reported":1683824721,"current_range_meters":8800,"station_id":"ce4bhah2rcd13ifvqei0","pricing_plan_id":"free"},{"bike_id":"afb0e273-e365-48b3-809f-c448745728a3","system_id":"levelo_inurba_marseille","lat":43.284534,"lon":5.358662,"is_reserved":false,"is_disabled":false,"rental_uris":{"android":"levelo://app?vid=afb0e273-e365-48b3-809f-c448745728a3","ios":"levelo://app?vid=afb0e273-e365-48b3-809f-c448745728a3"},"vehicle_type_id":"4","last_reported":1683824721,"current_range_meters":21600,"station_id":"ce4bhah2rcd13ifvqei0","pricing_plan_id":"free"},{"bike_id":"40870914-e4fe-4b6f-87cd-8ebcc4f1f989","system_id":"levelo_inurba_marseille","lat":43.284534,"lon":5.358662,"is_reserved":false,"is_disabled":false,"rental_uris":{"android":"levelo://app?vid=40870914-e4fe-4b6f-87cd-8ebcc4f1f989","ios":"levelo://app?vid=40870914-e4fe-4b6f-87cd-8ebcc4f1f989"},"vehicle_type_id":"4","last_reported":1683824721,"current_range_meters":18800,"station_id":"ce4bhah2rcd13ifvqei0","pricing_plan_id":"free"},{"bike_id":"12908d3c-c2e0-4563-8026-b48589b429ea","system_id":"levelo_inurba_marseille","lat":43.284534,"lon":5.358662,"is_reserved":false,"is_disabled":false,"rental_uris":{"android":"levelo://app?vid=12908d3c-c2e0-4563-8026-b48589b429ea","ios":"levelo://app?vid=12908d3c-c2e0-4563-8026-b48589b429ea"},"vehicle_type_id":"4","last_reported":1683824721,"current_range_meters":18400,"station_id":"ce4bhah2rcd13ifvqei0","pricing_plan_id":"free"},{"bike_id":"7f91c3c9-a6ec-4cc3-a3f5-75698355bff8","system_id":"levelo_inurba_marseille","lat":43.284534,"lon":5.358662,"is_reserved":false,"is_disabled":false,"rental_uris":{"android":"levelo://app?vid=7f91c3c9-a6ec-4cc3-a3f5-75698355bff8","ios":"levelo://app?vid=7f91c3c9-a6ec-4cc3-a3f5-75698355bff8"},"vehicle_type_id":"4","last_reported":1683824721,"current_range_meters":21600,"station_id":"ce4bhah2rcd13ifvqei0","pricing_plan_id":"free"},{"bike_id":"90f99200-28c9-4b83-8d5a-25455467976d","system_id":"levelo_inurba_marseille","lat":43.285856,"lon":5.350771,"is_reserved":false,"is_disabled":false,"rental_uris":{"android":"levelo://app?vid=90f99200-28c9-4b83-8d5a-25455467976d","ios":"levelo://app?vid=90f99200-28c9-4b83-8d5a-25455467976d"},"vehicle_type_id":"4","last_reported":1683824721,"current_range_meters":0,"station_id":"ce4bhch2rcd13ifvqeug","pricing_plan_id":"free"},{"bike_id":"f41f0cc4-e547-4138-992b-5ac069152eb9","system_id":"levelo_inurba_marseille","lat":43.28616,"lon":5.35108,"is_reserved":false,"is_disabled":false,"rental_uris":{"android":"levelo://app?vid=f41f0cc4-e547-4138-992b-5ac069152eb9","ios":"levelo://app?vid=f41f0cc4-e547-4138-992b-5ac069152eb9"},"vehicle_type_id":"4","last_reported":1683824721,"current_range_meters":7200,"station_id":"","pricing_plan_id":"free"},{"bike_id":"06b74a32-1e69-484f-996c-7950204b7711","system_id":"levelo_inurba_marseille","lat":43.285848,"lon":5.350787,"is_reserved":false,"is_disabled":false,"rental_uris":{"android":"levelo://app?vid=06b74a32-1e69-484f-996c-7950204b7711","ios":"levelo://app?vid=06b74a32-1e69-484f-996c-7950204b7711"},"vehicle_type_id":"4","last_reported":1683824721,"current_range_meters":1600,"station_id":"ce4bhch2rcd13ifvqeug","pricing_plan_id":"free"},{"bike_id":"5a85cd83-df86-46cb-be56-9337d30690fa","system_id":"levelo_inurba_marseille","lat":43.28617,"lon":5.35101,"is_reserved":false,"is_disabled":false,"rental_uris":{"android":"levelo://app?vid=5a85cd83-df86-46cb-be56-9337d30690fa","ios":"levelo://app?vid=5a85cd83-df86-46cb-be56-9337d30690fa"},"vehicle_type_id":"4","last_reported":1683824721,"current_range_meters":20400,"station_id":"","pricing_plan_id":"free"},{"bike_id":"7ce96ef0-fd83-4833-8219-54d5a7776e04","system_id":"levelo_inurba_marseille","lat":43.285856,"lon":5.350771,"is_reserved":false,"is_disabled":false,"rental_uris":{"android":"levelo://app?vid=7ce96ef0-fd83-4833-8219-54d5a7776e04","ios":"levelo://app?vid=7ce96ef0-fd83-4833-8219-54d5a7776e04"},"vehicle_type_id":"4","last_reported":1683824721,"current_range_meters":2800,"station_id":"ce4bhch2rcd13ifvqeug","pricing_plan_id":"free"},{"bike_id":"64ad3bfa-f29c-477f-8f4b-734ebfa432fc","system_id":"levelo_inurba_marseille","lat":43.285856,"lon":5.350771,"is_reserved":false,"is_disabled":false,"rental_uris":{"android":"levelo://app?vid=64ad3bfa-f29c-477f-8f4b-734ebfa432fc","ios":"levelo://app?vid=64ad3bfa-f29c-477f-8f4b-734ebfa432fc"},"vehicle_type_id":"4","last_reported":1683824721,"current_range_meters":18800,"station_id":"ce4bhch2rcd13ifvqeug","pricing_plan_id":"free"},{"bike_id":"1e39daf2-c4e4-4938-aed1-42b448241ab9","system_id":"levelo_inurba_marseille","lat":43.285856,"lon":5.350771,"is_reserved":false,"is_disabled":false,"rental_uris":{"android":"levelo://app?vid=1e39daf2-c4e4-4938-aed1-42b448241ab9","ios":"levelo://app?vid=1e39daf2-c4e4-4938-aed1-42b448241ab9"},"vehicle_type_id":"4","last_reported":1683824721,"current_range_meters":14000,"station_id":"ce4bhch2rcd13ifvqeug","pricing_plan_id":"free"},{"bike_id":"b4c3def3-5bdc-4cb4-8900-3290538a3aab","system_id":"levelo_inurba_marseille","lat":43.28786,"lon":5.38871,"is_reserved":false,"is_disabled":false,"rental_uris":{"android":"levelo://app?vid=b4c3def3-5bdc-4cb4-8900-3290538a3aab","ios":"levelo://app?vid=b4c3def3-5bdc-4cb4-8900-3290538a3aab"},"vehicle_type_id":"4","last_reported":1683824721,"current_range_meters":27600,"station_id":"","pricing_plan_id":"free"},{"bike_id":"ac5ba004-58a3-48e8-b5e1-bcc67fe7a186","system_id":"levelo_inurba_marseille","lat":43.34258,"lon":5.35943,"is_reserved":false,"is_disabled":false,"rental_uris":{"android":"levelo://app?vid=ac5ba004-58a3-48e8-b5e1-bcc67fe7a186","ios":"levelo://app?vid=ac5ba004-58a3-48e8-b5e1-bcc67fe7a186"},"vehicle_type_id":"4","last_reported":1683824721,"current_range_meters":4400,"station_id":"","pricing_plan_id":"free"},{"bike_id":"6e266bcc-23ff-4526-b4a4-ae5bbd4ec7f0","system_id":"levelo_inurba_marseille","lat":43.32341,"lon":5.40614,"is_reserved":false,"is_disabled":false,"rental_uris":{"android":"levelo://app?vid=6e266bcc-23ff-4526-b4a4-ae5bbd4ec7f0","ios":"levelo://app?vid=6e266bcc-23ff-4526-b4a4-ae5bbd4ec7f0"},"vehicle_type_id":"4","last_reported":1683824721,"current_range_meters":0,"station_id":"ce4bhq92rcd13ifvqhjg","pricing_plan_id":"free"},{"bike_id":"eb635cac-8510-43ba-8a97-bed76aa25b9a","system_id":"levelo_inurba_marseille","lat":43.32338,"lon":5.4062,"is_reserved":false,"is_disabled":false,"rental_uris":{"android":"levelo://app?vid=eb635cac-8510-43ba-8a97-bed76aa25b9a","ios":"levelo://app?vid=eb635cac-8510-43ba-8a97-bed76aa25b9a"},"vehicle_type_id":"4","last_reported":1683824721,"current_range_meters":16400,"station_id":"ce4bhq92rcd13ifvqhjg","pricing_plan_id":"free"},{"bike_id":"6091acd8-aecd-4aef-997c-91388a787ee5","system_id":"levelo_inurba_marseille","lat":43.32344,"lon":5.40617,"is_reserved":false,"is_disabled":false,"rental_uris":{"android":"levelo://app?vid=6091acd8-aecd-4aef-997c-91388a787ee5","ios":"levelo://app?vid=6091acd8-aecd-4aef-997c-91388a787ee5"},"vehicle_type_id":"4","last_reported":1683824721,"current_range_meters":27600,"station_id":"ce4bhq92rcd13ifvqhjg","pricing_plan_id":"free"},{"bike_id":"a332e820-b12d-4eee-bd0d-4ba8f8d1755f","system_id":"levelo_inurba_marseille","lat":43.32344,"lon":5.4062,"is_reserved":false,"is_disabled":false,"rental_uris":{"android":"levelo://app?vid=a332e820-b12d-4eee-bd0d-4ba8f8d1755f","ios":"levelo://app?vid=a332e820-b12d-4eee-bd0d-4ba8f8d1755f"},"vehicle_type_id":"4","last_reported":1683824721,"current_range_meters":4400,"station_id":"ce4bhq92rcd13ifvqhjg","pricing_plan_id":"free"},{"bike_id":"e42acbca-7aa7-4614-9197-e8173e156243","system_id":"levelo_inurba_marseille","lat":43.32337,"lon":5.40625,"is_reserved":false,"is_disabled":false,"rental_uris":{"android":"levelo://app?vid=e42acbca-7aa7-4614-9197-e8173e156243","ios":"levelo://app?vid=e42acbca-7aa7-4614-9197-e8173e156243"},"vehicle_type_id":"4","last_reported":1683824721,"current_range_meters":7200,"station_id":"ce4bhq92rcd13ifvqhjg","pricing_plan_id":"free"},{"bike_id":"f9aa5282-7afd-4181-b316-47ae9e75e0c5","system_id":"levelo_inurba_marseille","lat":43.32343,"lon":5.40623,"is_reserved":false,"is_disabled":false,"rental_uris":{"android":"levelo://app?vid=f9aa5282-7afd-4181-b316-47ae9e75e0c5","ios":"levelo://app?vid=f9aa5282-7afd-4181-b316-47ae9e75e0c5"},"vehicle_type_id":"4","last_reported":1683824721,"current_range_meters":9600,"station_id":"ce4bhq92rcd13ifvqhjg","pricing_plan_id":"free"},{"bike_id":"2b0fdaae-91d6-43da-a59e-9e00ba0f32cc","system_id":"levelo_inurba_marseille","lat":43.32342,"lon":5.40624,"is_reserved":false,"is_disabled":false,"rental_uris":{"android":"levelo://app?vid=2b0fdaae-91d6-43da-a59e-9e00ba0f32cc","ios":"levelo://app?vid=2b0fdaae-91d6-43da-a59e-9e00ba0f32cc"},"vehicle_type_id":"4","last_reported":1683824721,"current_range_meters":22000,"station_id":"ce4bhq92rcd13ifvqhjg","pricing_plan_id":"free"},{"bike_id":"a8c10397-8878-4d69-b421-fa87e0fc128e","system_id":"levelo_inurba_marseille","lat":43.33727,"lon":5.39195,"is_reserved":false,"is_disabled":false,"rental_uris":{"android":"levelo://app?vid=a8c10397-8878-4d69-b421-fa87e0fc128e","ios":"levelo://app?vid=a8c10397-8878-4d69-b421-fa87e0fc128e"},"vehicle_type_id":"4","last_reported":1683824721,"current_range_meters":28800,"station_id":"ce4bhr92rcd13ifvqhsg","pricing_plan_id":"free"},{"bike_id":"1706a7fd-7e17-4ae3-87e6-aa72d154eb0a","system_id":"levelo_inurba_marseille","lat":43.32342,"lon":5.40628,"is_reserved":false,"is_disabled":false,"rental_uris":{"android":"levelo://app?vid=1706a7fd-7e17-4ae3-87e6-aa72d154eb0a","ios":"levelo://app?vid=1706a7fd-7e17-4ae3-87e6-aa72d154eb0a"},"vehicle_type_id":"4","last_reported":1683824721,"current_range_meters":9600,"station_id":"ce4bhq92rcd13ifvqhjg","pricing_plan_id":"free"},{"bike_id":"d5f60ce2-1625-40e2-bbbc-1e0a2766b755","system_id":"levelo_inurba_marseille","lat":43.33731,"lon":5.39197,"is_reserved":false,"is_disabled":false,"rental_uris":{"android":"levelo://app?vid=d5f60ce2-1625-40e2-bbbc-1e0a2766b755","ios":"levelo://app?vid=d5f60ce2-1625-40e2-bbbc-1e0a2766b755"},"vehicle_type_id":"4","last_reported":1683824721,"current_range_meters":6000,"station_id":"ce4bhr92rcd13ifvqhsg","pricing_plan_id":"free"},{"bike_id":"1c0388a4-5163-4eec-8603-d772d4fffd7f","system_id":"levelo_inurba_marseille","lat":43.288501,"lon":5.393087,"is_reserved":false,"is_disabled":false,"rental_uris":{"android":"levelo://app?vid=1c0388a4-5163-4eec-8603-d772d4fffd7f","ios":"levelo://app?vid=1c0388a4-5163-4eec-8603-d772d4fffd7f"},"vehicle_type_id":"4","last_reported":1683824721,"current_range_meters":9200,"station_id":"ce4bh2p2rcd13ifvqdi0","pricing_plan_id":"free"},{"bike_id":"3409e740-46e3-4e44-a420-6952fe417c69","system_id":"levelo_inurba_marseille","lat":43.28844,"lon":5.39307,"is_reserved":false,"is_disabled":false,"rental_uris":{"android":"levelo://app?vid=3409e740-46e3-4e44-a420-6952fe417c69","ios":"levelo://app?vid=3409e740-46e3-4e44-a420-6952fe417c69"},"vehicle_type_id":"4","last_reported":1683824721,"current_range_meters":0,"station_id":"","pricing_plan_id":"free"},{"bike_id":"bf34cb0b-b8f1-424b-8c61-8dbc73d24da0","system_id":"levelo_inurba_marseille","lat":43.28873,"lon":5.39362,"is_reserved":false,"is_disabled":false,"rental_uris":{"android":"levelo://app?vid=bf34cb0b-b8f1-424b-8c61-8dbc73d24da0","ios":"levelo://app?vid=bf34cb0b-b8f1-424b-8c61-8dbc73d24da0"},"vehicle_type_id":"4","last_reported":1683824721,"current_range_meters":10800,"station_id":"ce4bh2p2rcd13ifvqdi0","pricing_plan_id":"free"},{"bike_id":"e4edc18c-75f7-4518-9545-e4d272fd0bb7","system_id":"levelo_inurba_marseille","lat":43.284219,"lon":5.3497,"is_reserved":false,"is_disabled":false,"rental_uris":{"android":"levelo://app?vid=e4edc18c-75f7-4518-9545-e4d272fd0bb7","ios":"levelo://app?vid=e4edc18c-75f7-4518-9545-e4d272fd0bb7"},"vehicle_type_id":"4","last_reported":1683824721,"current_range_meters":16800,"station_id":"ce4bhbh2rcd13ifvqepg","pricing_plan_id":"free"},{"bike_id":"e2f27deb-78d1-4024-9ce3-227411583954","system_id":"levelo_inurba_marseille","lat":43.28419,"lon":5.34985,"is_reserved":false,"is_disabled":false,"rental_uris":{"android":"levelo://app?vid=e2f27deb-78d1-4024-9ce3-227411583954","ios":"levelo://app?vid=e2f27deb-78d1-4024-9ce3-227411583954"},"vehicle_type_id":"4","last_reported":1683824721,"current_range_meters":2400,"station_id":"ce4bhbh2rcd13ifvqepg","pricing_plan_id":"free"},{"bike_id":"f8df75cb-b783-441a-a36e-b5767d1f0548","system_id":"levelo_inurba_marseille","lat":43.28419,"lon":5.3498,"is_reserved":false,"is_disabled":false,"rental_uris":{"android":"levelo://app?vid=f8df75cb-b783-441a-a36e-b5767d1f0548","ios":"levelo://app?vid=f8df75cb-b783-441a-a36e-b5767d1f0548"},"vehicle_type_id":"4","last_reported":1683824721,"current_range_meters":6800,"station_id":"ce4bhbh2rcd13ifvqepg","pricing_plan_id":"free"},{"bike_id":"c276e5cf-6f24-4ea5-ae8d-ed76ecd32b9a","system_id":"levelo_inurba_marseille","lat":43.284219,"lon":5.3497,"is_reserved":false,"is_disabled":false,"rental_uris":{"android":"levelo://app?vid=c276e5cf-6f24-4ea5-ae8d-ed76ecd32b9a","ios":"levelo://app?vid=c276e5cf-6f24-4ea5-ae8d-ed76ecd32b9a"},"vehicle_type_id":"4","last_reported":1683824721,"current_range_meters":400,"station_id":"ce4bhbh2rcd13ifvqepg","pricing_plan_id":"free"},{"bike_id":"ae0d0725-006a-4fe0-8464-dc3a91b02281","system_id":"levelo_inurba_marseille","lat":43.284217,"lon":5.349697,"is_reserved":false,"is_disabled":false,"rental_uris":{"android":"levelo://app?vid=ae0d0725-006a-4fe0-8464-dc3a91b02281","ios":"levelo://app?vid=ae0d0725-006a-4fe0-8464-dc3a91b02281"},"vehicle_type_id":"4","last_reported":1683824721,"current_range_meters":11600,"station_id":"ce4bhbh2rcd13ifvqepg","pricing_plan_id":"free"},{"bike_id":"6c513a3a-9e00-40c8-a281-b8d6cfb293c4","system_id":"levelo_inurba_marseille","lat":43.28417,"lon":5.34978,"is_reserved":false,"is_disabled":false,"rental_uris":{"android":"levelo://app?vid=6c513a3a-9e00-40c8-a281-b8d6cfb293c4","ios":"levelo://app?vid=6c513a3a-9e00-40c8-a281-b8d6cfb293c4"},"vehicle_type_id":"4","last_reported":1683824721,"current_range_meters":31200,"station_id":"ce4bhbh2rcd13ifvqepg","pricing_plan_id":"free"},{"bike_id":"f9c4849c-f9a0-4998-a89d-41901fa9b968","system_id":"levelo_inurba_marseille","lat":43.284219,"lon":5.3497,"is_reserved":false,"is_disabled":false,"rental_uris":{"android":"levelo://app?vid=f9c4849c-f9a0-4998-a89d-41901fa9b968","ios":"levelo://app?vid=f9c4849c-f9a0-4998-a89d-41901fa9b968"},"vehicle_type_id":"4","last_reported":1683824721,"current_range_meters":0,"station_id":"ce4bhbh2rcd13ifvqepg","pricing_plan_id":"free"},{"bike_id":"229d063b-e527-46a9-8277-34f7cc8ab069","system_id":"levelo_inurba_marseille","lat":43.28414,"lon":5.34977,"is_reserved":false,"is_disabled":false,"rental_uris":{"android":"levelo://app?vid=229d063b-e527-46a9-8277-34f7cc8ab069","ios":"levelo://app?vid=229d063b-e527-46a9-8277-34f7cc8ab069"},"vehicle_type_id":"4","last_reported":1683824721,"current_range_meters":14000,"station_id":"ce4bhbh2rcd13ifvqepg","pricing_plan_id":"free"},{"bike_id":"22f498a5-243d-40a4-b6fd-5fc8df5da0a2","system_id":"levelo_inurba_marseille","lat":43.289363,"lon":5.396322,"is_reserved":false,"is_disabled":false,"rental_uris":{"android":"levelo://app?vid=22f498a5-243d-40a4-b6fd-5fc8df5da0a2","ios":"levelo://app?vid=22f498a5-243d-40a4-b6fd-5fc8df5da0a2"},"vehicle_type_id":"4","last_reported":1683824721,"current_range_meters":21600,"station_id":"ce4bh3h2rcd13ifvqdn0","pricing_plan_id":"free"},{"bike_id":"4925c345-cbc9-4590-8451-4dfafea7ae5e","system_id":"levelo_inurba_marseille","lat":43.282744,"lon":5.350533,"is_reserved":false,"is_disabled":false,"rental_uris":{"android":"levelo://app?vid=4925c345-cbc9-4590-8451-4dfafea7ae5e","ios":"levelo://app?vid=4925c345-cbc9-4590-8451-4dfafea7ae5e"},"vehicle_type_id":"4","last_reported":1683824721,"current_range_meters":0,"station_id":"ce4bhbp2rcd13ifvqerg","pricing_plan_id":"free"},{"bike_id":"25a629eb-b05c-4d70-a7dc-59df22abc2d2","system_id":"levelo_inurba_marseille","lat":43.283502,"lon":5.386471,"is_reserved":false,"is_disabled":false,"rental_uris":{"android":"levelo://app?vid=25a629eb-b05c-4d70-a7dc-59df22abc2d2","ios":"levelo://app?vid=25a629eb-b05c-4d70-a7dc-59df22abc2d2"},"vehicle_type_id":"4","last_reported":1683824721,"current_range_meters":18400,"station_id":"ce4bh492rcd13ifvqdvg","pricing_plan_id":"free"},