{"last_updated":1703790322,"ttl":30,"version":"2.2","data":{"bikes":[{"bike_id":"4a82b909-a462-4284-9d66-bd7c2b75e30b","system_id":"levelo_inurba_marseille","lat":43.312239,"lon":5.368562,"is_reserved":false,"is_disabled":false,"rental_uris":{"android":"levelo://app?vid=4a82b909-a462-4284-9d66-bd7c2b75e30b","ios":"levelo://app?vid=4a82b909-a462-4284-9d66-bd7c2b75e30b"},"vehicle_type_id":"4","last_reported":1703790322,"current_range_meters":24400,"station_id":"ce4bgl92rcd13ifvqbq0","pricing_plan_id":"free"},{"bike_id":"aea4164c-520d-470d-9f70-abd5c66e1c7c","system_id":"levelo_inurba_marseille","lat":43.30889,"lon":5.371727,"is_reserved":false,"is_disabled":false,"rental_uris":{"android":"levelo://app?vid=aea4164c-520d-470d-9f70-abd5c66e1c7c","ios":"levelo://app?vid=aea4164c-520d-470d-9f70-abd5c66e1c7c"},"vehicle_type_id":"4","last_reported":1703790322,"current_range_meters":7200,"station_id":"ce4bguh2rcd13ifvqckg","pricing_plan_id":"free"},{"bike_id":"0501c5b4-cd76-48a6-90ee-ca6a51833e68","system_id":"levelo_inurba_marseille","lat":43.306787,"lon":5.365964,"is_reserved":false,"is_disabled":false,"rental_uris":{"android":"levelo://app?vid=0501c5b4-cd76-48a6-90ee-ca6a51833e68","ios":"levelo://app?vid=0501c5b4-cd76-48a6-90ee-ca6a51833e68"},"vehicle_type_id":"4","last_reported":1703790322,"current_range_meters":10000,"station_id":"","pricing_plan_id":"free"},{"bike_id":"e53a9163-4e5b-47fe-9556-01a0a159d6b4","system_id":"levelo_inurba_marseille","lat":43.318964,"lon":5.36877,"is_reserved":false,"is_disabled":false,"rental_uris":{"android":"levelo://app?vid=e53a9163-4e5b-47fe-9556-01a0a159d6b4","ios":"levelo://app?vid=e53a9163-4e5b-47fe-9556-01a0a159d6b4"},"vehicle_type_id":"4","last_reported":1703790322,"current_range_meters":3200,"station_id":"","pricing_plan_id":"free"},{"bike_id":"a5aac7fd-33ca-46a3-98d8-21e6de83a247","system_id":"levelo_inurba_marseille","lat":43.31825,"lon":5.37282,"is_reserved":false,"is_disabled":false,"rental_uris":{"android":"levelo://app?vid=a5aac7fd-33ca-46a3-98d8-21e6de83a247","ios":"levelo://app?vid=a5aac7fd-33ca-46a3-98d8-21e6de83a247"},"vehicle_type_id":"4","last_reported":1703790322,"current_range_meters":25200,"station_id":"","pricing_plan_id":"free"},{"bike_id":"b1494713-8d04-4bc6-b563-9e4a748f1074","system_id":"levelo_inurba_marseille","lat":43.30549,"lon":5.36531,"is_reserved":false,"is_disabled":false,"rental_uris":{"android":"levelo://app?vid=b1494713-8d04-4bc6-b563-9e4a748f1074","ios":"levelo://app?vid=b1494713-8d04-4bc6-b563-9e4a748f1074"},"vehicle_type_id":"4","last_reported":1703790322,"current_range_meters":22400,"station_id":"ce4bgs12rcd13ifvqcag","pricing_plan_id":"free"},{"bike_id":"2bf1159c-4b34-4bc3-a8b5-156be571c011","system_id":"levelo_inurba_marseille","lat":43.30728,"lon":5.37385,"is_reserved":false,"is_disabled":false,"rental_uris":{"android":"levelo://app?vid=2bf1159c-4b34-4bc3-a8b5-156be571c011","ios":"levelo://app?vid=2bf1159c-4b34-4bc3-a8b5-156be571c011"},"vehicle_type_id":"4","last_reported":1703790322,"current_range_meters":30000,"station_id":"","pricing_plan_id":"free"},{"bike_id":"4eeea7d5-4c92-46de-90ce-941497bfbddd","system_id":"levelo_inurba_marseille","lat":43.305368,"lon":5.367343,"is_reserved":false,"is_disabled":false,"rental_uris":{"android":"levelo://app?vid=4eeea7d5-4c92-46de-90ce-941497bfbddd","ios":"levelo://app?vid=4eeea7d5-4c92-46de-90ce-941497bfbddd"},"vehicle_type_id":"4","last_reported":1703790322,"current_range_meters":4000,"station_id":"ce4bgrp2rcd13ifvqc9g","pricing_plan_id":"free"},{"bike_id":"ecd62458-edc0-46db-b168-d4ef148cdd6e","system_id":"levelo_inurba_marseille","lat":43.305989,"lon":5.37225,"is_reserved":false,"is_disabled":false,"rental_uris":{"android":"levelo://app?vid=ecd62458-edc0-46db-b168-d4ef148cdd6e","ios":"levelo://app?vid=ecd62458-edc0-46db-b168-d4ef148cdd6e"},"vehicle_type_id":"4","last_reported":1703790322,"current_range_meters":17200,"station_id":"ce4bgqh2rcd13ifvqc4g","pricing_plan_id":"free"},{"bike_id":"1015fe48-8c35-4dd8-84b9-2c070e32ca24","system_id":"levelo_inurba_marseille","lat":43.317075,"lon":5.377367,"is_reserved":false,"is_disabled":false,"rental_uris":{"android":"levelo://app?vid=1015fe48-8c35-4dd8-84b9-2c070e32ca24","ios":"levelo://app?vid=1015fe48-8c35-4dd8-84b9-2c070e32ca24"},"vehicle_type_id":"4","last_reported":1703790322,"current_range_meters":26400,"station_id":"ce4bgth2rcd13ifvqch0","pricing_plan_id":"free"},{"bike_id":"b8deba06-d736-4c5d-a8e4-3ba9f10e3c9a","system_id":"levelo_inurba_marseille","lat":43.30805,"lon":5.38146,"is_reserved":false,"is_disabled":false,"rental_uris":{"android":"levelo://app?vid=b8deba06-d736-4c5d-a8e4-3ba9f10e3c9a","ios":"levelo://app?vid=b8deba06-d736-4c5d-a8e4-3ba9f10e3c9a"},"vehicle_type_id":"4","last_reported":1703790322,"current_range_meters":16800,"station_id":"ce4bgt12rcd13ifvqce0","pricing_plan_id":"free"},{"bike_id":"8b06075d-a2ee-4fc0-8aef-1b7b1fad0c67","system_id":"levelo_inurba_marseille","lat":43.308012,"lon":5.381511,"is_reserved":false,"is_disabled":false,"rental_uris":{"android":"levelo://app?vid=8b06075d-a2ee-4fc0-8aef-1b7b1fad0c67","ios":"levelo://app?vid=8b06075d-a2ee-4fc0-8aef-1b7b1fad0c67"},"vehicle_type_id":"4","last_reported":1703790322,"current_range_meters":18000,"station_id":"ce4bgt12rcd13ifvqce0","pricing_plan_id":"free"},{"bike_id":"ad24c450-7c81-4be0-8dc5-cdccf530cc7e","system_id":"levelo_inurba_marseille","lat":43.30464,"lon":5.37914,"is_reserved":false,"is_disabled":false,"rental_uris":{"android":"levelo://app?vid=ad24c450-7c81-4be0-8dc5-cdccf530cc7e","ios":"levelo://app?vid=ad24c450-7c81-4be0-8dc5-cdccf530cc7e"},"vehicle_type_id":"4","last_reported":1703790322,"current_range_meters":21200,"station_id":"ce4bgup2rcd13ifvqcn0","pricing_plan_id":"free"},{"bike_id":"e2d74438-77a8-48cb-907e-cd3c8a74d707","system_id":"levelo_inurba_marseille","lat":43.304606,"lon":5.379026,"is_reserved":false,"is_disabled":false,"rental_uris":{"android":"levelo://app?vid=e2d74438-77a8-48cb-907e-cd3c8a74d707","ios":"levelo://app?vid=e2d74438-77a8-48cb-907e-cd3c8a74d707"},"vehicle_type_id":"4","last_reported":1703790322,"current_range_meters":24800,"station_id":"ce4bgup2rcd13ifvqcn0","pricing_plan_id":"free"},{"bike_id":"65a7d136-99e5-4eda-8dd9-8c128dc8f4fe","system_id":"levelo_inurba_marseille","lat":43.324771,"lon":5.36557,"is_reserved":false,"is_disabled":false,"rental_uris":{"android":"levelo://app?vid=65a7d136-99e5-4eda-8dd9-8c128dc8f4fe","ios":"levelo://app?vid=65a7d136-99e5-4eda-8dd9-8c128dc8f4fe"},"vehicle_type_id":"4","last_reported":1703790322,"current_range_meters":21600,"station_id":"ce4bhs12rcd13ifvqhvg","pricing_plan_id":"free"},{"bike_id":"70abfa59-da22-4db4-b461-f3fbf3adbd95","system_id":"levelo_inurba_marseille","lat":43.324771,"lon":5.36557,"is_reserved":false,"is_disabled":false,"rental_uris":{"android":"levelo://app?vid=70abfa59-da22-4db4-b461-f3fbf3adbd95","ios":"levelo://app?vid=70abfa59-da22-4db4-b461-f3fbf3adbd95"},"vehicle_type_id":"4","last_reported":1703790322,"current_range_meters":19200,"station_id":"ce4bhs12rcd13ifvqhvg","pricing_plan_id":"free"},{"bike_id":"65a5bc48-fdb7-4909-98ac-a83f0d971e40","system_id":"levelo_inurba_marseille","lat":43.324771,"lon":5.36557,"is_reserved":false,"is_disabled":false,"rental_uris":{"android":"levelo://app?vid=65a5bc48-fdb7-4909-98ac-a83f0d971e40","ios":"levelo://app?vid=65a5bc48-fdb7-4909-98ac-a83f0d971e40"},"vehicle_type_id":"4","last_reported":1703790322,"current_range_meters":14400,"station_id":"ce4bhs12rcd13ifvqhvg","pricing_plan_id":"free"},{"bike_id":"44f5aa6f-153b-4bf7-a108-6634d1fab963","system_id":"levelo_inurba_marseille","lat":43.302784,"lon":5.377158,"is_reserved":false,"is_disabled":false,"rental_uris":{"android":"levelo://app?vid=44f5aa6f-153b-4bf7-a108-6634d1fab963","ios":"levelo://app?vid=44f5aa6f-153b-4bf7-a108-6634d1fab963"},"vehicle_type_id":"4","last_reported":1703790322,"current_range_meters":11200,"station_id":"ce4bguh2rcd13ifvqcj0","pricing_plan_id":"free"},{"bike_id":"eb75f652-373e-4726-9e33-c05a085e4a2d","system_id":"levelo_inurba_marseille","lat":43.301453,"lon":5.37416,"is_reserved":false,"is_disabled":false,"rental_uris":{"android":"levelo://app?vid=eb75f652-373e-4726-9e33-c05a085e4a2d","ios":"levelo://app?vid=eb75f652-373e-4726-9e33-c05a085e4a2d"},"vehicle_type_id":"4","last_reported":1703790322,"current_range_meters":4800,"station_id":"","pricing_plan_id":"free"},{"bike_id":"5e56827d-c152-4ecd-a38a-84eba3dbf8c2","system_id":"levelo_inurba_marseille","lat":43.319935,"lon":5.381699,"is_reserved":false,"is_disabled":false,"rental_uris":{"android":"levelo://app?vid=5e56827d-c152-4ecd-a38a-84eba3dbf8c2","ios":"levelo://app?vid=5e56827d-c152-4ecd-a38a-84eba3dbf8c2"},"vehicle_type_id":"4","last_reported":1703790322,"current_range_meters":25200,"station_id":"ce4bhr12rcd13ifvqhpg","pricing_plan_id":"free"},{"bike_id":"9f56e768-708e-4f3b-9665-77b378da46d8","system_id":"levelo_inurba_marseille","lat":43.319935,"lon":5.381699,"is_reserved":false,"is_disabled":false,"rental_uris":{"android":"levelo://app?vid=9f56e768-708e-4f3b-9665-77b378da46d8","ios":"levelo://app?vid=9f56e768-708e-4f3b-9665-77b378da46d8"},"vehicle_type_id":"4","last_reported":1703790322,"current_range_meters":16400,"station_id":"ce4bhr12rcd13ifvqhpg","pricing_plan_id":"free"},{"bike_id":"489efb97-6469-4c5c-b718-7660c1202bfd","system_id":"levelo_inurba_marseille","lat":43.319935,"lon":5.381699,"is_reserved":false,"is_disabled":false,"rental_uris":{"android":"levelo://app?vid=489efb97-6469-4c5c-b718-7660c1202bfd","ios":"levelo://app?vid=489efb97-6469-4c5c-b718-7660c1202bfd"},"vehicle_type_id":"4","last_reported":1703790322,"current_range_meters":11200,"station_id":"ce4bhr12rcd13ifvqhpg","pricing_plan_id":"free"},{"bike_id":"d798eee3-c9cd-4e09-a137-162e27e1625e","system_id":"levelo_inurba_marseille","lat":43.319935,"lon":5.381699,"is_reserved":false,"is_disabled":false,"rental_uris":{"android":"levelo://app?vid=d798eee3-c9cd-4e09-a137-162e27e1625e","ios":"levelo://app?vid=d798eee3-c9cd-4e09-a137-162e27e1625e"},"vehicle_type_id":"4","last_reported":1703790322,"current_range_meters":25200,"station_id":"ce4bhr12rcd13ifvqhpg","pricing_plan_id":"free"},{"bike_id":"888a4ad6-7e75-40f0-add7-09f38a533c02","system_id":"levelo_inurba_marseille","lat":43.319935,"lon":5.381699,"is_reserved":false,"is_disabled":false,"rental_uris":{"android":"levelo://app?vid=888a4ad6-7e75-40f0-add7-09f38a533c02","ios":"levelo://app?vid=888a4ad6-7e75-40f0-add7-09f38a533c02"},"vehicle_type_id":"4","last_reported":1703790322,"current_range_meters":24800,"station_id":"ce4bhr12rcd13ifvqhpg","pricing_plan_id":"free"},{"bike_id":"990a5cce-64ae-4b14-b861-dfa123114d7c","system_id":"levelo_inurba_marseille","lat":43.319935,"lon":5.381699,"is_reserved":false,"is_disabled":false,"rental_uris":{"android":"levelo://app?vid=990a5cce-64ae-4b14-b861-dfa123114d7c","ios":"levelo://app?vid=990a5cce-64ae-4b14-b861-dfa123114d7c"},"vehicle_type_id":"4","last_reported":1703790322,"current_range_meters":0,"station_id":"ce4bhr12rcd13ifvqhpg","pricing_plan_id":"free"},{"bike_id":"51ea5272-c5f1-4be1-a15c-df7b03fa2561","system_id":"levelo_inurba_marseille","lat":43.313571,"lon":5.384829,"is_reserved":false,"is_disabled":false,"rental_uris":{"android":"levelo://app?vid=51ea5272-c5f1-4be1-a15c-df7b03fa2561","ios":"levelo://app?vid=51ea5272-c5f1-4be1-a15c-df7b03fa2561"},"vehicle_type_id":"4","last_reported":1703790322,"current_range_meters":30000,"station_id":"ce4bgt92rcd13ifvqcf0","pricing_plan_id":"free"},{"bike_id":"7f664499-37f8-40e9-954d-bbb0f30035a3","system_id":"levelo_inurba_marseille","lat":43.299222,"lon":5.365554,"is_reserved":false,"is_disabled":false,"rental_uris":{"android":"levelo://app?vid=7f664499-37f8-40e9-954d-bbb0f30035a3","ios":"levelo://app?vid=7f664499-37f8-40e9-954d-bbb0f30035a3"},"vehicle_type_id":"4","last_reported":1703790322,"current_range_meters":30400,"station_id":"ce4bgm92rcd13ifvqbr0","pricing_plan_id":"free"},{"bike_id":"2bafabbe-ecb7-41e3-853f-f9a51c683dd3","system_id":"levelo_inurba_marseille","lat":43.32612,"lon":5.36113,"is_reserved":false,"is_disabled":false,"rental_uris":{"android":"levelo://app?vid=2bafabbe-ecb7-41e3-853f-f9a51c683dd3","ios":"levelo://app?vid=2bafabbe-ecb7-41e3-853f-f9a51c683dd3"},"vehicle_type_id":"4","last_reported":1703790322,"current_range_meters":17600,"station_id":"","pricing_plan_id":"free"},{"bike_id":"f6416786-c36f-4a33-8ada-0f24e356b50d","system_id":"levelo_inurba_marseille","lat":43.298433,"lon":5.362774,"is_reserved":false,"is_disabled":false,"rental_uris":{"android":"levelo://app?vid=f6416786-c36f-4a33-8ada-0f24e356b50d","ios":"levelo://app?vid=f6416786-c36f-4a33-8ada-0f24e356b50d"},"vehicle_type_id":"4","last_reported":1703790322,"current_range_meters":9200,"station_id":"ce4bgpp2rcd13ifvqc3g","pricing_plan_id":"free"},{"bike_id":"c39fe576-53fd-4bb6-b3e5-b176bc89908c","system_id":"levelo_inurba_marseille","lat":43.311722,"lon":5.387247,"is_reserved":false,"is_disabled":false,"rental_uris":{"android":"levelo://app?vid=c39fe576-53fd-4bb6-b3e5-b176bc89908c","ios":"levelo://app?vid=c39fe576-53fd-4bb6-b3e5-b176bc89908c"},"vehicle_type_id":"4","last_reported":1703790322,"current_range_meters":30000,"station_id":"ce4bgv12rcd13ifvqcp0","pricing_plan_id":"free"},{"bike_id":"4d17b21c-81aa-4a15-a1e4-b4ccbc1a9a2c","system_id":"levelo_inurba_marseille","lat":43.311722,"lon":5.387247,"is_reserved":false,"is_disabled":false,"rental_uris":{"android":"levelo://app?vid=4d17b21c-81aa-4a15-a1e4-b4ccbc1a9a2c","ios":"levelo://app?vid=4d17b21c-81aa-4a15-a1e4-b4ccbc1a9a2c"},"vehicle_type_id":"4","last_reported":1703790322,"current_range_meters":15600,"station_id":"ce4bgv12rcd13ifvqcp0","pricing_plan_id":"free"},{"bike_id":"3270f28d-7b09-46cb-ba43-f40752fc3385","system_id":"levelo_inurba_marseille","lat":43.322872,"lon":5.382756,"is_reserved":false,"is_disabled":false,"rental_uris":{"android":"levelo://app?vid=3270f28d-7b09-46cb-ba43-f40752fc3385","ios":"levelo://app?vid=3270f28d-7b09-46cb-ba43-f40752fc3385"},"vehicle_type_id":"4","last_reported":1703790322,"current_range_meters":31600,"station_id":"ce4bhr12rcd13ifvqhqg","pricing_plan_id":"free"},{"bike_id":"accbbe6d-f8a2-4d0d-badc-393301aad27d","system_id":"levelo_inurba_marseille","lat":43.322872,"lon":5.382756,"is_reserved":false,"is_disabled":false,"rental_uris":{"android":"levelo://app?vid=accbbe6d-f8a2-4d0d-badc-393301aad27d","ios":"levelo://app?vid=accbbe6d-f8a2-4d0d-badc-393301aad27d"},"vehicle_type_id":"4","last_reported":1703790322,"current_range_meters":25600,"station_id":"ce4bhr12rcd13ifvqhqg","pricing_plan_id":"free"},{"bike_id":"09672a17-1e5f-44c1-8769-6ce930bc0ca3","system_id":"levelo_inurba_marseille","lat":43.322872,"lon":5.382756,"is_reserved":false,"is_disabled":false,"rental_uris":{"android":"levelo://app?vid=09672a17-1e5f-44c1-8769-6ce930bc0ca3","ios":"levelo://app?vid=09672a17-1e5f-44c1-8769-6ce930bc0ca3"},"vehicle_type_id":"4","last_reported":1703790322,"current_range_meters":26000,"station_id":"ce4bhr12rcd13ifvqhqg","pricing_plan_id":"free"},{"bike_id":"5c89eee7-6e83-42b4-bd81-efdcf68f6666","system_id":"levelo_inurba_marseille","lat":43.32824,"lon":5.36683,"is_reserved":false,"is_disabled":false,"rental_uris":{"android":"levelo://app?vid=5c89eee7-6e83-42b4-bd81-efdcf68f6666","ios":"levelo://app?vid=5c89eee7-6e83-42b4-bd81-efdcf68f6666"},"vehicle_type_id":"4","last_reported":1703790322,"current_range_meters":27200,"station_id":"ce4bhs92rcd13ifvqi0g","pricing_plan_id":"free"},{"bike_id":"b30b3d1b-ef61-4776-bd7b-61c34fd8cc81","system_id":"levelo_inurba_marseille","lat":43.328257,"lon":5.36679,"is_reserved":false,"is_disabled":false,"rental_uris":{"android":"levelo://app?vid=b30b3d1b-ef61-4776-bd7b-61c34fd8cc81","ios":"levelo://app?vid=b30b3d1b-ef61-4776-bd7b-61c34fd8cc81"},"vehicle_type_id":"4","last_reported":1703790322,"current_range_meters":17600,"station_id":"ce4bhs92rcd13ifvqi0g","pricing_plan_id":"free"},{"bike_id":"639980c6-9f73-401a-b944-961e7482aee9","system_id":"levelo_inurba_marseille","lat":43.32826,"lon":5.36682,"is_reserved":false,"is_disabled":false,"rental_uris":{"android":"levelo://app?vid=639980c6-9f73-401a-b944-961e7482aee9","ios":"levelo://app?vid=639980c6-9f73-401a-b944-961e7482aee9"},"vehicle_type_id":"4","last_reported":1703790322,"current_range_meters":5600,"station_id":"ce4bhs92rcd13ifvqi0g","pricing_plan_id":"free"},{"bike_id":"1ea82e61-37ea-4b15-a6ef-01d29683b9fd","system_id":"levelo_inurba_marseille","lat":43.32827,"lon":5.36674,"is_reserved":false,"is_disabled":false,"rental_uris":{"android":"levelo://app?vid=1ea82e61-37ea-4b15-a6ef-01d29683b9fd","ios":"levelo://app?vid=1ea82e61-37ea-4b15-a6ef-01d29683b9fd"},"vehicle_type_id":"4","last_reported":1703790322,"current_range_meters":19600,"station_id":"ce4bhs92rcd13ifvqi0g","pricing_plan_id":"free"},{"bike_id":"a677cd10-a09b-4b2e-bffd-45b05d2c9229","system_id":"levelo_inurba_marseille","lat":43.32828,"lon":5.36679,"is_reserved":false,"is_disabled":false,"rental_uris":{"android":"levelo://app?vid=a677cd10-a09b-4b2e-bffd-45b05d2c9229","ios":"levelo://app?vid=a677cd10-a09b-4b2e-bffd-45b05d2c9229"},"vehicle_type_id":"4","last_reported":1703790322,"current_range_meters":24400,"station_id":"ce4bhs92rcd13ifvqi0g","pricing_plan_id":"free"},{"bike_id":"51714c4a-3132-4951-88ec-80e85fa125e8","system_id":"levelo_inurba_marseille","lat":43.328287,"lon":5.366892,"is_reserved":false,"is_disabled":false,"rental_uris":{"android":"levelo://app?vid=51714c4a-3132-4951-88ec-80e85fa125e8","ios":"levelo://app?vid=51714c4a-3132-4951-88ec-80e85fa125e8"},"vehicle_type_id":"4","last_reported":1703790322,"current_range_meters":18000,"station_id":"ce4bhs92rcd13ifvqi0g","pricing_plan_id":"free"},{"bike_id":"9af4dca3-d129-4c6f-a8f1-0b83c93205fa","system_id":"levelo_inurba_marseille","lat":43.3283,"lon":5.3668,"is_reserved":false,"is_disabled":false,"rental_uris":{"android":"levelo://app?vid=9af4dca3-d129-4c6f-a8f1-0b83c93205fa","ios":"levelo://app?vid=9af4dca3-d129-4c6f-a8f1-0b83c93205fa"},"vehicle_type_id":"4","last_reported":1703790322,"current_range_meters":14800,"station_id":"ce4bhs92rcd13ifvqi0g","pricing_plan_id":"free"},{"bike_id":"de708f00-7118-4d7c-9021-d7dcbd798473","system_id":"levelo_inurba_marseille","lat":43.328371,"lon":5.366909,"is_reserved":false,"is_disabled":false,"rental_uris":{"android":"levelo://app?vid=de708f00-7118-4d7c-9021-d7dcbd798473","ios":"levelo://app?vid=de708f00-7118-4d7c-9021-d7dcbd798473"},"vehicle_type_id":"4","last_reported":1703790322,"current_range_meters":14400,"station_id":"ce4bhs92rcd13ifvqi0g","pricing_plan_id":"free"},{"bike_id":"a448ca86-2b35-41e1-89c4-32a99bab0563","system_id":"levelo_inurba_marseille","lat":43.328371,"lon":5.366912,"is_reserved":false,"is_disabled":false,"rental_uris":{"android":"levelo://app?vid=a448ca86-2b35-41e1-89c4-32a99bab0563","ios":"levelo://app?vid=a448ca86-2b35-41e1-89c4-32a99bab0563"},"vehicle_type_id":"4","last_reported":1703790322,"current_range_meters":22800,"station_id":"ce4bhs92rcd13ifvqi0g","pricing_plan_id":"free"},{"bike_id":"904f83aa-e9ab-401d-84c1-9edfed82b884","system_id":"levelo_inurba_marseille","lat":43.328371,"lon":5.366912,"is_reserved":false,"is_disabled":false,"rental_uris":{"android":"levelo://app?vid=904f83aa-e9ab-401d-84c1-9edfed82b884","ios":"levelo://app?vid=904f83aa-e9ab-401d-84c1-9edfed82b884"},"vehicle_type_id":"4","last_reported":1703790322,"current_range_meters":8800,"station_id":"ce4bhs92rcd13ifvqi0g","pricing_plan_id":"free"},{"bike_id":"ea7074d7-b7c9-4941-82c2-dff391bae9cb","system_id":"levelo_inurba_marseille","lat":43.32831,"lon":5.36675,"is_reserved":false,"is_disabled":false,"rental_uris":{"android":"levelo://app?vid=ea7074d7-b7c9-4941-82c2-dff391bae9cb","ios":"levelo://app?vid=ea7074d7-b7c9-4941-82c2-dff391bae9cb"},"vehicle_type_id":"4","last_reported":1703790322,"current_range_meters":14400,"station_id":"ce4bhs92rcd13ifvqi0g","pricing_plan_id":"free"},{"bike_id":"6f67326a-1664-406f-9978-902e013e2357","system_id":"levelo_inurba_marseille","lat":43.32832,"lon":5.36679,"is_reserved":false,"is_disabled":false,"rental_uris":{"android":"levelo://app?vid=6f67326a-1664-406f-9978-902e013e2357","ios":"levelo://app?vid=6f67326a-1664-406f-9978-902e013e2357"},"vehicle_type_id":"4","last_reported":1703790322,"current_range_meters":22400,"station_id":"ce4bhs92rcd13ifvqi0g","pricing_plan_id":"free"},{"bike_id":"ddee1e46-a8ad-4997-9dc5-136753741280","system_id":"levelo_inurba_marseille","lat":43.32832,"lon":5.36673,"is_reserved":false,"is_disabled":false,"rental_uris":{"android":"levelo://app?vid=ddee1e46-a8ad-4997-9dc5-136753741280","ios":"levelo://app?vid=ddee1e46-a8ad-4997-9dc5-136753741280"},"vehicle_type_id":"4","last_reported":1703790322,"current_range_meters":25200,"station_id":"ce4bhs92rcd13ifvqi0g","pricing_plan_id":"free"},{"bike_id":"ea3683d0-8e11-4665-853d-842915a313b0","system_id":"levelo_inurba_marseille","lat":43.297163,"lon":5.365866,"is_reserved":false,"is_disabled":false,"rental_uris":{"android":"levelo://app?vid=ea3683d0-8e11-4665-853d-842915a313b0","ios":"levelo://app?vid=ea3683d0-8e11-4665-853d-842915a313b0"},"vehicle_type_id":"4","last_reported":1703790322,"current_range_meters":11600,"station_id":"ce4bgn12rcd13ifvqbt0","pricing_plan_id":"free"},{"bike_id":"370cccf7-c9ba-46c2-819b-c8e8cacc4c21","system_id":"levelo_inurba_marseille","lat":43.3277,"lon":5.37458,"is_reserved":false,"is_disabled":false,"rental_uris":{"android":"levelo://app?vid=370cccf7-c9ba-46c2-819b-c8e8cacc4c21","ios":"levelo://app?vid=370cccf7-c9ba-46c2-819b-c8e8cacc4c21"},"vehicle_type_id":"4","last_reported":1703790322,"current_range_meters":17200,"station_id":"","pricing_plan_id":"free"},{"bike_id":"921b424d-ad0d-4c7a-9d74-66e3a49bfa19","system_id":"levelo_inurba_marseille","lat":43.32934,"lon":5.36612,"is_reserved":false,"is_disabled":false,"rental_uris":{"android":"levelo://app?vid=921b424d-ad0d-4c7a-9d74-66e3a49bfa19","ios":"levelo://app?vid=921b424d-ad0d-4c7a-9d74-66e3a49bfa19"},"vehicle_type_id":"4","last_reported":1703790322,"current_range_meters":12400,"station_id":"","pricing_plan_id":"free"},{"bike_id":"4fa3f89c-b348-4c2d-8644-f756ca288992","system_id":"levelo_inurba_marseille","lat":43.29573,"lon":5.367355,"is_reserved":false,"is_disabled":false,"rental_uris":{"android":"levelo://app?vid=4fa3f89c-b348-4c2d-8644-f756ca288992","ios":"levelo://app?vid=4fa3f89c-b348-4c2d-8644-f756ca288992"},"vehicle_type_id":"4","last_reported":1703790322,"current_range_meters":26800,"station_id":"ce4bgph2rcd13ifvqc2g","pricing_plan_id":"free"},{"bike_id":"24dfe806-81ce-4c38-baa1-f6f4334d5519","system_id":"levelo_inurba_marseille","lat":43.299028,"lon":5.381509,"is_reserved":false,"is_disabled":false,"rental_uris":{"android":"levelo://app?vid=24dfe806-81ce-4c38-baa1-f6f4334d5519","ios":"levelo://app?vid=24dfe806-81ce-4c38-baa1-f6f4334d5519"},"vehicle_type_id":"4","last_reported":1703790322,"current_range_meters":7200,"station_id":"ce4bgj12rcd13ifvqbc0","pricing_plan_id":"free"},{"bike_id":"5810a51d-900e-4f21-b011-504985336ccb","system_id":"levelo_inurba_marseille","lat":43.32892,"lon":5.37527,"is_reserved":false,"is_disabled":false,"rental_uris":{"android":"levelo://app?vid=5810a51d-900e-4f21-b011-504985336ccb","ios":"levelo://app?vid=5810a51d-900e-4f21-b011-504985336ccb"},"vehicle_type_id":"4","last_reported":1703790322,"current_range_meters":15200,"station_id":"","pricing_plan_id":"free"},{"bike_id":"b55488ea-4ac9-4f8f-a456-d98549294fd8","system_id":"levelo_inurba_marseille","lat":43.309589,"lon":5.390258,"is_reserved":false,"is_disabled":false,"rental_uris":{"android":"levelo://app?vid=b55488ea-4ac9-4f8f-a456-d98549294fd8","ios":"levelo://app?vid=b55488ea-4ac9-4f8f-a456-d98549294fd8"},"vehicle_type_id":"4","last_reported":1703790322,"current_range_meters":24800,"station_id":"ce4bgup2rcd13ifvqco0","pricing_plan_id":"free"},{"bike_id":"30703f49-e367-47bc-98eb-9c5c263bf3ed","system_id":"levelo_inurba_marseille","lat":43.309589,"lon":5.390258,"is_reserved":false,"is_disabled":false,"rental_uris":{"android":"levelo://app?vid=30703f49-e367-47bc-98eb-9c5c263bf3ed","ios":"levelo://app?vid=30703f49-e367-47bc-98eb-9c5c263bf3ed"},"vehicle_type_id":"4","last_reported":1703790322,"current_range_meters":12800,"station_id":"ce4bgup2rcd13ifvqco0","pricing_plan_id":"free"},{"bike_id":"343086f3-1a3c-40f3-9181-b956ab2dc60a","system_id":"levelo_inurba_marseille","lat":43.309589,"lon":5.390258,"is_reserved":false,"is_disabled":false,"rental_uris":{"android":"levelo://app?vid=343086f3-1a3c-40f3-9181-b956ab2dc60a","ios":"levelo://app?vid=343086f3-1a3c-40f3-9181-b956ab2dc60a"},"vehicle_type_id":"4","last_reported":1703790322,"current_range_meters":23600,"station_id":"ce4bgup2rcd13ifvqco0","pricing_plan_id":"free"},{"bike_id":"aa03daeb-fa6a-4404-9d90-5b1bb2ebebd3","system_id":"levelo_inurba_marseille","lat":43.317557,"lon":5.390173,"is_reserved":false,"is_disabled":false,"rental_uris":{"android":"levelo://app?vid=aa03daeb-fa6a-4404-9d90-5b1bb2ebebd3","ios":"levelo://app?vid=aa03daeb-fa6a-4404-9d90-5b1bb2ebebd3"},"vehicle_type_id":"4","last_reported":1703790322,"current_range_meters":28800,"station_id":"ce4bhqp2rcd13ifvqhng","pricing_plan_id":"free"},{"bike_id":"e6270e07-7d38-4634-9103-543b64b9f946","system_id":"levelo_inurba_marseille","lat":43.317557,"lon":5.390173,"is_reserved":false,"is_disabled":false,"rental_uris":{"android":"levelo://app?vid=e6270e07-7d38-4634-9103-543b64b9f946","ios":"levelo://app?vid=e6270e07-7d38-4634-9103-543b64b9f946"},"vehicle_type_id":"4","last_reported":1703790322,"current_range_meters":12000,"station_id":"ce4bhqp2rcd13ifvqhng","pricing_plan_id":"free"},{"bike_id":"4481543f-9d7c-43d1-8a85-c67f75151e42","system_id":"levelo_inurba_marseille","lat":43.298037,"lon":5.381066,"is_reserved":false,"is_disabled":false,"rental_uris":{"android":"levelo://app?vid=4481543f-9d7c-43d1-8a85-c67f75151e42","ios":"levelo://app?vid=4481543f-9d7c-43d1-8a85-c67f75151e42"},"vehicle_type_id":"4","last_reported":1703790322,"current_range_meters":13600,"station_id":"ce4bgip2rcd13ifvqbb0","pricing_plan_id":"free"},{"bike_id":"5d16a32a-bc2b-4dfd-a413-ee4d9fc915d1","system_id":"levelo_inurba_marseille","lat":43.295725,"lon":5.37505,"is_reserved":false,"is_disabled":false,"rental_uris":{"android":"levelo://app?vid=5d16a32a-bc2b-4dfd-a413-ee4d9fc915d1","ios":"levelo://app?vid=5d16a32a-bc2b-4dfd-a413-ee4d9fc915d1"},"vehicle_type_id":"4","last_reported":1703790322,"current_range_meters":6000,"station_id":"ce4bgh92rcd13ifvqb50","pricing_plan_id":"free"},{"bike_id":"e5fceaa9-76bd-46ad-9eb3-18db2350f595","system_id":"levelo_inurba_marseille","lat":43.304274,"lon":5.388873,"is_reserved":false,"is_disabled":false,"rental_uris":{"android":"levelo://app?vid=e5fceaa9-76bd-46ad-9eb3-18db2350f595","ios":"levelo://app?vid=e5fceaa9-76bd-46ad-9eb3-18db2350f595"},"vehicle_type_id":"4","last_reported":1703790322,"current_range_meters":4800,"station_id":"ce4bgk12rcd13ifvqbi0","pricing_plan_id":"free"},{"bike_id":"0a551cc1-61dc-4a6a-b253-2b5840437d47","system_id":"levelo_inurba_marseille","lat":43.30437,"lon":5.38891,"is_reserved":false,"is_disabled":false,"rental_uris":{"android":"levelo://app?vid=0a551cc1-61dc-4a6a-b253-2b5840437d47","ios":"levelo://app?vid=0a551cc1-61dc-4a6a-b253-2b5840437d47"},"vehicle_type_id":"4","last_reported":1703790322,"current_range_meters":12000,"station_id":"ce4bgk12rcd13ifvqbi0","pricing_plan_id":"free"},{"bike_id":"7af6f637-d39d-42b4-92ea-2d7431795d14","system_id":"levelo_inurba_marseille","lat":43.296277,"lon":5.377108,"is_reserved":false,"is_disabled":false,"rental_uris":{"android":"levelo://app?vid=7af6f637-d39d-42b4-92ea-2d7431795d14","ios":"levelo://app?vid=7af6f637-d39d-42b4-92ea-2d7431795d14"},"vehicle_type_id":"4","last_reported":1703790322,"current_range_meters":6000,"station_id":"ce4bgi92rcd13ifvqb90","pricing_plan_id":"free"},{"bike_id":"b278fa58-0c95-4c76-a9ec-fddd34129af5","system_id":"levelo_inurba_marseille","lat":43.304278,"lon":5.388868,"is_reserved":false,"is_disabled":false,"rental_uris":{"android":"levelo://app?vid=b278fa58-0c95-4c76-a9ec-fddd34129af5","ios":"levelo://app?vid=b278fa58-0c95-4c76-a9ec-fddd34129af5"},"vehicle_type_id":"4","last_reported":1703790322,"current_range_meters":16000,"station_id":"ce4bgk12rcd13ifvqbi0","pricing_plan_id":"free"},{"bike_id":"3c4d8863-27f3-4d78-b7f5-3c2f01cff309","system_id":"levelo_inurba_marseille","lat":43.304274,"lon":5.388873,"is_reserved":false,"is_disabled":false,"rental_uris":{"android":"levelo://app?vid=3c4d8863-27f3-4d78-b7f5-3c2f01cff309","ios":"levelo://app?vid=3c4d8863-27f3-4d78-b7f5-3c2f01cff309"},"vehicle_type_id":"4","last_reported":1703790322,"current_range_meters":2800,"station_id":"ce4bgk12rcd13ifvqbi0","pricing_plan_id":"free"},{"bike_id":"d60802d6-4f47-444a-b234-883690eec05b","system_id":"levelo_inurba_marseille","lat":43.33063,"lon":5.36282,"is_reserved":false,"is_disabled":false,"rental_uris":{"android":"levelo://app?vid=d60802d6-4f47-444a-b234-883690eec05b","ios":"levelo://app?vid=d60802d6-4f47-444a-b234-883690eec05b"},"vehicle_type_id":"4","last_reported":1703790322,"current_range_meters":31200,"station_id":"","pricing_plan_id":"free"},{"bike_id":"7119845d-00aa-4d9f-be8c-fc97d41f1380","system_id":"levelo_inurba_marseille","lat":43.297594,"lon":5.381134,"is_reserved":false,"is_disabled":false,"rental_uris":{"android":"levelo://app?vid=7119845d-00aa-4d9f-be8c-fc97d41f1380","ios":"levelo://app?vid=7119845d-00aa-4d9f-be8c-fc97d41f1380"},"vehicle_type_id":"4","last_reported":1703790322,"current_range_meters":22400,"station_id":"ce4bgip2rcd13ifvqbb0","pricing_plan_id":"free"},{"bike_id":"2be0c647-c0c4-4aad-943c-fef60173dfe5","system_id":"levelo_inurba_marseille","lat":43.29533,"lon":5.37493,"is_reserved":false,"is_disabled":false,"rental_uris":{"android":"levelo://app?vid=2be0c647-c0c4-4aad-943c-fef60173dfe5","ios":"levelo://app?vid=2be0c647-c0c4-4aad-943c-fef60173dfe5"},"vehicle_type_id":"4","last_reported":1703790322,"current_range_meters":5600,"station_id":"ce4bgkp2rcd13ifvqbmg","pricing_plan_id":"free"},{"bike_id":"6cff08ce-72ce-44dd-b12b-e101fd56c23e","system_id":"levelo_inurba_marseille","lat":43.32367,"lon":5.388836,"is_reserved":false,"is_disabled":false,"rental_uris":{"android":"levelo://app?vid=6cff08ce-72ce-44dd-b12b-e101fd56c23e","ios":"levelo://app?vid=6cff08ce-72ce-44dd-b12b-e101fd56c23e"},"vehicle_type_id":"4","last_reported":1703790322,"current_range_meters":18400,"station_id":"ce4bhqp2rcd13ifvqhog","pricing_plan_id":"free"},{"bike_id":"64e08778-3e7b-4c08-aaa7-765ecbf426e5","system_id":"levelo_inurba_marseille","lat":43.32367,"lon":5.388836,"is_reserved":false,"is_disabled":false,"rental_uris":{"android":"levelo://app?vid=64e08778-3e7b-4c08-aaa7-765ecbf426e5","ios":"levelo://app?vid=64e08778-3e7b-4c08-aaa7-765ecbf426e5"},"vehicle_type_id":"4","last_reported":1703790322,"current_range_meters":10400,"station_id":"ce4bhqp2rcd13ifvqhog","pricing_plan_id":"free"},{"bike_id":"412b0300-bca9-407f-8529-62d2e7880d74","system_id":"levelo_inurba_marseille","lat":43.32367,"lon":5.388836,"is_reserved":false,"is_disabled":false,"rental_uris":{"android":"levelo://app?vid=412b0300-bca9-407f-8529-62d2e7880d74","ios":"levelo://app?vid=412b0300-bca9-407f-8529-62d2e7880d74"},"vehicle_type_id":"4","last_reported":1703790322,"current_range_meters":3600,"station_id":"ce4bhqp2rcd13ifvqhog","pricing_plan_id":"free"},{"bike_id":"1806aa5b-d35b-47fd-a49d-778b55269f70","system_id":"levelo_inurba_marseille","lat":43.32367,"lon":5.388836,"is_reserved":false,"is_disabled":false,"rental_uris":{"android":"levelo://app?vid=1806aa5b-d35b-47fd-a49d-778b55269f70","ios":"levelo://app?vid=1806aa5b-d35b-47fd-a49d-778b55269f70"},"vehicle_type_id":"4","last_reported":1703790322,"current_range_meters":3200,"station_id":"ce4bhqp2rcd13ifvqhog","pricing_plan_id":"free"},{"bike_id":"b1d6d713-111f-46a2-b485-30e34f53c2dd","system_id":"levelo_inurba_marseille","lat":43.293259,"lon":5.371586,"is_reserved":false,"is_disabled":false,"rental_uris":{"android":"levelo://app?vid=b1d6d713-111f-46a2-b485-30e34f53c2dd","ios":"levelo://app?vid=b1d6d713-111f-46a2-b485-30e34f53c2dd"},"vehicle_type_id":"4","last_reported":1703790322,"current_range_meters":15600,"station_id":"ce4bgh92rcd13ifvqb40","pricing_plan_id":"free"},{"bike_id":"120b85a8-aa3c-4eb6-b0c0-28d3abd02113","system_id":"levelo_inurba_marseille","lat":43.29301,"lon":5.37172,"is_reserved":false,"is_disabled":false,"rental_uris":{"android":"levelo://app?vid=120b85a8-aa3c-4eb6-b0c0-28d3abd02113","ios":"levelo://app?vid=120b85a8-aa3c-4eb6-b0c0-28d3abd02113"},"vehicle_type_id":"4","last_reported":1703790322,"current_range_meters":6400,"station_id":"ce4bgh92rcd13ifvqb40","pricing_plan_id":"free"},{"bike_id":"021544e7-bf62-4199-aae9-c4aa0c5e09eb","system_id":"levelo_inurba_marseille","lat":43.29298,"lon":5.37173,"is_reserved":false,"is_disabled":false,"rental_uris":{"android":"levelo://app?vid=021544e7-bf62-4199-aae9-c4aa0c5e09eb","ios":"levelo://app?vid=021544e7-bf62-4199-aae9-c4aa0c5e09eb"},"vehicle_type_id":"4","last_reported":1703790322,"current_range_meters":27200,"station_id":"ce4bgh92rcd13ifvqb40","pricing_plan_id":"free"},{"bike_id":"c57a8a8d-b6a2-40c4-8607-4cbda9ac4cff","system_id":"levelo_inurba_marseille","lat":43.293009,"lon":5.374584,"is_reserved":false,"is_disabled":false,"rental_uris":{"android":"levelo://app?vid=c57a8a8d-b6a2-40c4-8607-4cbda9ac4cff","ios":"levelo://app?vid=c57a8a8d-b6a2-40c4-8607-4cbda9ac4cff"},"vehicle_type_id":"4","last_reported":1703790322,"current_range_meters":800,"station_id":"ce4bgi12rcd13ifvqb70","pricing_plan_id":"free"},{"bike_id":"ea5e3ad8-c237-472c-9394-d787c1d0a143","system_id":"levelo_inurba_marseille","lat":43.293009,"lon":5.374584,"is_reserved":false,"is_disabled":false,"rental_uris":{"android":"levelo://app?vid=ea5e3ad8-c237-472c-9394-d787c1d0a143","ios":"levelo://app?vid=ea5e3ad8-c237-472c-9394-d787c1d0a143"},"vehicle_type_id":"4","last_reported":1703790322,"current_range_meters":2400,"station_id":"ce4bgi12rcd13ifvqb70","pricing_plan_id":"free"},{"bike_id":"4c3a1061-bd05-4988-b4d6-4880d0e31069","system_id":"levelo_inurba_marseille","lat":43.293009,"lon":5.374584,"is_reserved":false,"is_disabled":false,"rental_uris":{"android":"levelo://app?vid=4c3a1061-bd05-4988-b4d6-4880d0e31069","ios":"levelo://app?vid=4c3a1061-bd05-4988-b4d6-4880d0e31069"},"vehicle_type_id":"4","last_reported":1703790322,"current_range_meters":7600,"station_id":"ce4bgi12rcd13ifvqb70","pricing_plan_id":"free"},{"bike_id":"a76267db-6acd-48b5-84db-694db9ab53ac","system_id":"levelo_inurba_marseille","lat":43.29301,"lon":5.37451,"is_reserved":false,"is_disabled":false,"rental_uris":{"android":"levelo://app?vid=a76267db-6acd-48b5-84db-694db9ab53ac","ios":"levelo://app?vid=a76267db-6acd-48b5-84db-694db9ab53ac"},"vehicle_type_id":"4","last_reported":1703790322,"current_range_meters":6400,"station_id":"ce4bgi12rcd13ifvqb70","pricing_plan_id":"free"},{"bike_id":"4a844508-5bfe-4163-abee-911f8147b05c","system_id":"levelo_inurba_marseille","lat":43.293009,"lon":5.374584,"is_reserved":false,"is_disabled":false,"rental_uris":{"android":"levelo://app?vid=4a844508-5bfe-4163-abee-911f8147b05c","ios":"levelo://app?vid=4a844508-5bfe-4163-abee-911f8147b05c"},"vehicle_type_id":"4","last_reported":1703790322,"current_range_meters":18000,"station_id":"ce4bgi12rcd13ifvqb70","pricing_plan_id":"free"},{"bike_id":"d2f79d06-8133-4333-a373-8d9da475ff17","system_id":"levelo_inurba_marseille","lat":43.2936,"lon":5.37835,"is_reserved":false,"is_disabled":false,"rental_uris":{"android":"levelo://app?vid=d2f79d06-8133-4333-a373-8d9da475ff17","ios":"levelo://app?vid=d2f79d06-8133-4333-a373-8d9da475ff17"},"vehicle_type_id":"4","last_reported":1703790322,"current_range_meters":5200,"station_id":"ce4bgjh2rcd13ifvqbf0","pricing_plan_id":"free"},{"bike_id":"448d6004-69be-4a3e-b000-5c25fe2083ea","system_id":"levelo_inurba_marseille","lat":43.2936,"lon":5.37835,"is_reserved":false,"is_disabled":false,"rental_uris":{"android":"levelo://app?vid=448d6004-69be-4a3e-b000-5c25fe2083ea","ios":"levelo://app?vid=448d6004-69be-4a3e-b000-5c25fe2083ea"},"vehicle_type_id":"4","last_reported":1703790322,"current_range_meters":27600,"station_id":"ce4bgjh2rcd13ifvqbf0","pricing_plan_id":"free"},{"bike_id":"b2873774-7dd7-470a-ae93-07a4d51c90db","system_id":"levelo_inurba_marseille","lat":43.298722,"lon":5.388964,"is_reserved":false,"is_disabled":false,"rental_uris":{"android":"levelo://app?vid=b2873774-7dd7-470a-ae93-07a4d51c90db","ios":"levelo://app?vid=b2873774-7dd7-470a-ae93-07a4d51c90db"},"vehicle_type_id":"4","last_reported":1703790322,"current_range_meters":23600,"station_id":"","pricing_plan_id":"free"},{"bike_id":"3a505556-f905-4e45-85b4-070f222d6e01","system_id":"levelo_inurba_marseille","lat":43.291994,"lon":5.357886,"is_reserved":false,"is_disabled":false,"rental_uris":{"android":"levelo://app?vid=3a505556-f905-4e45-85b4-070f222d6e01","ios":"levelo://app?vid=3a505556-f905-4e45-85b4-070f222d6e01"},"vehicle_type_id":"4","last_reported":1703790322,"current_range_meters":20800,"station_id":"ce4bhb12rcd13ifvqel0","pricing_plan_id":"free"},{"bike_id":"b5ab4d8f-4be5-49ad-9660-7666de367904","system_id":"levelo_inurba_marseille","lat":43.313291,"lon":5.396838,"is_reserved":false,"is_disabled":false,"rental_uris":{"android":"levelo://app?vid=b5ab4d8f-4be5-49ad-9660-7666de367904","ios":"levelo://app?vid=b5ab4d8f-4be5-49ad-9660-7666de367904"},"vehicle_type_id":"4","last_reported":1703790322,"current_range_meters":16800,"station_id":"ce4bgvp2rcd13ifvqcu0","pricing_plan_id":"free"},{"bike_id":"63dc56c1-e580-4d07-870a-c629bf52dd02","system_id":"levelo_inurba_marseille","lat":43.313291,"lon":5.396838,"is_reserved":false,"is_disabled":false,"rental_uris":{"android":"levelo://app?vid=63dc56c1-e580-4d07-870a-c629bf52dd02","ios":"levelo://app?vid=63dc56c1-e580-4d07-870a-c629bf52dd02"},"vehicle_type_id":"4","last_reported":1703790322,"current_range_meters":800,"station_id":"ce4bgvp2rcd13ifvqcu0","pricing_plan_id":"free"},{"bike_id":"b84f1156-262d-49a8-b611-7d885ac03bb2","system_id":"levelo_inurba_marseille","lat":43.313291,"lon":5.396838,"is_reserved":false,"is_disabled":false,"rental_uris":{"android":"levelo://app?vid=b84f1156-262d-49a8-b611-7d885ac03bb2","ios":"levelo://app?vid=b84f1156-262d-49a8-b611-7d885ac03bb2"},"vehicle_type_id":"4","last_reported":1703790322,"current_range_meters":5200,"station_id":"ce4bgvp2rcd13ifvqcu0","pricing_plan_id":"free"},{"bike_id":"60762be1-8b8b-45a4-992d-8ec8f25aa85d","system_id":"levelo_inurba_marseille","lat":43.313291,"lon":5.396838,"is_reserved":false,"is_disabled":false,"rental_uris":{"android":"levelo://app?vid=60762be1-8b8b-45a4-992d-8ec8f25aa85d","ios":"levelo://app?vid=60762be1-8b8b-45a4-992d-8ec8f25aa85d"},"vehicle_type_id":"4","last_reported":1703790322,"current_range_meters":15600,"station_id":"ce4bgvp2rcd13ifvqcu0","pricing_plan_id":"free"},{"bike_id":"b8f99e3d-5e83-4005-8697-c8771bf0eee8","system_id":"levelo_inurba_marseille","lat":43.313291,"lon":5.396838,"is_reserved":false,"is_disabled":false,"rental_uris":{"android":"levelo://app?vid=b8f99e3d-5e83-4005-8697-c8771bf0eee8","ios":"levelo://app?vid=b8f99e3d-5e83-4005-8697-c8771bf0eee8"},"vehicle_type_id":"4","last_reported":1703790322,"current_range_meters":13600,"station_id":"ce4bgvp2rcd13ifvqcu0","pricing_plan_id":"free"},{"bike_id":"c6712266-f422-4a48-baf1-2c0ea88edfb8","system_id":"levelo_inurba_marseille","lat":43.313291,"lon":5.396838,"is_reserved":false,"is_disabled":false,"rental_uris":{"android":"levelo://app?vid=c6712266-f422-4a48-baf1-2c0ea88edfb8","ios":"levelo://app?vid=c6712266-f422-4a48-baf1-2c0ea88edfb8"},"vehicle_type_id":"4","last_reported":1703790322,"current_range_meters":25600,"station_id":"ce4bgvp2rcd13ifvqcu0","pricing_plan_id":"free"},{"bike_id":"e65596b6-8e2b-43a2-96c6-62d7a4a3a0b2","system_id":"levelo_inurba_marseille","lat":43.313291,"lon":5.396838,"is_reserved":false,"is_disabled":false,"rental_uris":{"android":"levelo://app?vid=e65596b6-8e2b-43a2-96c6-62d7a4a3a0b2","ios":"levelo://app?vid=e65596b6-8e2b-43a2-96c6-62d7a4a3a0b2"},"vehicle_type_id":"4","last_reported":1703790322,"current_range_meters":18800,"station_id":"ce4bgvp2rcd13ifvqcu0","pricing_plan_id":"free"},{"bike_id":"dbe2df8b-7a06-49c5-94a8-8ade74a4bf67","system_id":"levelo_inurba_marseille","lat":43.309038,"lon":5.396546,"is_reserved":false,"is_disabled":false,"rental_uris":{"android":"levelo://app?vid=dbe2df8b-7a06-49c5-94a8-8ade74a4bf67","ios":"levelo://app?vid=dbe2df8b-7a06-49c5-94a8-8ade74a4bf67"},"vehicle_type_id":"4","last_reported":1703790322,"current_range_meters":4800,"station_id":"ce4bh012rcd13ifvqcv0","pricing_plan_id":"free"},{"bike_id":"75a011d8-a89c-43ef-838a-370727217f8b","system_id":"levelo_inurba_marseille","lat":43.29533,"lon":5.38544,"is_reserved":false,"is_disabled":false,"rental_uris":{"android":"levelo://app?vid=75a011d8-a89c-43ef-838a-370727217f8b","ios":"levelo://app?vid=75a011d8-a89c-43ef-838a-370727217f8b"},"vehicle_type_id":"4","last_reported":1703790322,"current_range_meters":27600,"station_id":"ce4bgih2rcd13ifvqba0","pricing_plan_id":"free"},{"bike_id":"502d4af0-eb48-49cf-895a-a0d56c28e747","system_id":"levelo_inurba_marseille","lat":43.302008,"lon":5.394694,"is_reserved":false,"is_disabled":false,"rental_uris":{"android":"levelo://app?vid=502d4af0-eb48-49cf-895a-a0d56c28e747","ios":"levelo://app?vid=502d4af0-eb48-49cf-895a-a0d56c28e747"},"vehicle_type_id":"4","last_reported":1703790322,"current_range_meters":19600,"station_id":"ce4bh0p2rcd13ifvqd70","pricing_plan_id":"free"},{"bike_id":"02d5f6f5-1b4c-4703-9170-5eec64004a79","system_id":"levelo_inurba_marseille","lat":43.289468,"lon":5.363719,"is_reserved":false,"is_disabled":false,"rental_uris":{"android":"levelo://app?vid=02d5f6f5-1b4c-4703-9170-5eec64004a79","ios":"levelo://app?vid=02d5f6f5-1b4c-4703-9170-5eec64004a79"},"vehicle_type_id":"4","last_reported":1703790322,"current_range_meters":30400,"station_id":"ce4bhc92rcd13ifvqetg","pricing_plan_id":"free"},{"bike_id":"ebfa4934-21ec-4fae-b71c-ab8bdc5f7d7b","system_id":"levelo_inurba_marseille","lat":43.292644,"lon":5.384257,"is_reserved":false,"is_disabled":false,"rental_uris":{"android":"levelo://app?vid=ebfa4934-21ec-4fae-b71c-ab8bdc5f7d7b","ios":"levelo://app?vid=ebfa4934-21ec-4fae-b71c-ab8bdc5f7d7b"},"vehicle_type_id":"4","last_reported":1703790322,"current_range_meters":0,"station_id":"ce4bh692rcd13ifvqea0","pricing_plan_id":"free"},{"bike_id":"756c5819-1fcd-4c1e-ae4a-34b0eca03cad","system_id":"levelo_inurba_marseille","lat":43.292644,"lon":5.384257,"is_reserved":false,"is_disabled":false,"rental_uris":{"android":"levelo://app?vid=756c5819-1fcd-4c1e-ae4a-34b0eca03cad","ios":"levelo://app?vid=756c5819-1fcd-4c1e-ae4a-34b0eca03cad"},"vehicle_type_id":"4","last_reported":1703790322,"current_range_meters":20800,"station_id":"ce4bh692rcd13ifvqea0","pricing_plan_id":"free"},{"bike_id":"80b4cbbe-d028-4b08-b18e-eb3ae05adf46","system_id":"levelo_inurba_marseille","lat":43.290104,"lon":5.356111,"is_reserved":false,"is_disabled":false,"rental_uris":{"android":"levelo://app?vid=80b4cbbe-d028-4b08-b18e-eb3ae05adf46","ios":"levelo://app?vid=80b4cbbe-d028-4b08-b18e-eb3ae05adf46"},"vehicle_type_id":"4","last_reported":1703790322,"current_range_meters":17600,"station_id":"ce4bhb92rcd13ifvqen0","pricing_plan_id":"free"},{"bike_id":"4e6121b1-bbb9-4ee7-b7bc-70a0e3eee00e","system_id":"levelo_inurba_marseille","lat":43.290995,"lon":5.381361,"is_reserved":false,"is_disabled":false,"rental_uris":{"android":"levelo://app?vid=4e6121b1-bbb9-4ee7-b7bc-70a0e3eee00e","ios":"levelo://app?vid=4e6121b1-bbb9-4ee7-b7bc-70a0e3eee00e"},"vehicle_type_id":"4","last_reported":1703790322,"current_range_meters":31200,"station_id":"ce4bh512rcd13ifvqe2g","pricing_plan_id":"free"},{"bike_id":"ae3f7cbb-04ff-447c-88a8-0b3860e550ea","system_id":"levelo_inurba_marseille","lat":43.290995,"lon":5.381361,"is_reserved":false,"is_disabled":false,"rental_uris":{"android":"levelo://app?vid=ae3f7cbb-04ff-447c-88a8-0b3860e550ea","ios":"levelo://app?vid=ae3f7cbb-04ff-447c-88a8-0b3860e550ea"},"vehicle_type_id":"4","last_reported":1703790322,"current_range_meters":25600,"station_id":"ce4bh512rcd13ifvqe2g","pricing_plan_id":"free"},{"bike_id":"35e640f8-db6c-4d40-a965-25ce848b5d31","system_id":"levelo_inurba_marseille","lat":43.28988,"lon":5.37818,"is_reserved":false,"is_disabled":false,"rental_uris":{"android":"levelo://app?vid=35e640f8-db6c-4d40-a965-25ce848b5d31","ios":"levelo://app?vid=35e640f8-db6c-4d40-a965-25ce848b5d31"},"vehicle_type_id":"4","last_reported":1703790322,"current_range_meters":30800,"station_id":"ce4bh9p2rcd13ifvqed0","pricing_plan_id":"free"},{"bike_id":"495faf64-a935-4c6e-b77f-2b296d14493a","system_id":"levelo_inurba_marseille","lat":43.331017,"lon":5.389194,"is_reserved":false,"is_disabled":false,"rental_uris":{"android":"levelo://app?vid=495faf64-a935-4c6e-b77f-2b296d14493a","ios":"levelo://app?vid=495faf64-a935-4c6e-b77f-2b296d14493a"},"vehicle_type_id":"4","last_reported":1703790322,"current_range_meters":10800,"station_id":"","pricing_plan_id":"free"},{"bike_id":"d385c8ca-7ce8-468e-845f-11bbcfe5d48d","system_id":"levelo_inurba_marseille","lat":43.289741,"lon":5.378306,"is_reserved":false,"is_disabled":false,"rental_uris":{"android":"levelo://app?vid=d385c8ca-7ce8-468e-845f-11bbcfe5d48d","ios":"levelo://app?vid=d385c8ca-7ce8-468e-845f-11bbcfe5d48d"},"vehicle_type_id":"4","last_reported":1703790322,"current_range_meters":0,"station_id":"ce4bh9p2rcd13ifvqed0","pricing_plan_id":"free"},{"bike_id":"b7f7b142-75db-42d0-ac76-2b5727bbd7d5","system_id":"levelo_inurba_marseille","lat":43.295169,"lon":5.390426,"is_reserved":false,"is_disabled":false,"rental_uris":{"android":"levelo://app?vid=b7f7b142-75db-42d0-ac76-2b5727bbd7d5","ios":"levelo://app?vid=b7f7b142-75db-42d0-ac76-2b5727bbd7d5"},"vehicle_type_id":"4","last_reported":1703790322,"current_range_meters":25200,"station_id":"ce4bh3p2rcd13ifvqdp0","pricing_plan_id":"free"},{"bike_id":"e7e5b367-b928-4b3e-b05f-87b6b3716e8c","system_id":"levelo_inurba_marseille","lat":43.330601,"lon":5.390282,"is_reserved":false,"is_disabled":false,"rental_uris":{"android":"levelo://app?vid=e7e5b367-b928-4b3e-b05f-87b6b3716e8c","ios":"levelo://app?vid=e7e5b367-b928-4b3e-b05f-87b6b3716e8c"},"vehicle_type_id":"4","last_reported":1703790322,"current_range_meters":27200,"station_id":"","pricing_plan_id":"free"},{"bike_id":"98edba17-c703-4c43-becd-8a800ec1e3e3","system_id":"levelo_inurba_marseille","lat":43.28856,"lon":5.358371,"is_reserved":false,"is_disabled":false,"rental_uris":{"android":"levelo://app?vid=98edba17-c703-4c43-becd-8a800ec1e3e3","ios":"levelo://app?vid=98edba17-c703-4c43-becd-8a800ec1e3e3"},"vehicle_type_id":"4","last_reported":1703790322,"current_range_meters":17200,"station_id":"ce4bhb12rcd13ifvqem0","pricing_plan_id":"free"},{"bike_id":"6170345a-6fbc-4c84-a83d-1e8c25c0fa7a","system_id":"levelo_inurba_marseille","lat":43.28856,"lon":5.358371,"is_reserved":false,"is_disabled":false,"rental_uris":{"android":"levelo://app?vid=6170345a-6fbc-4c84-a83d-1e8c25c0fa7a","ios":"levelo://app?vid=6170345a-6fbc-4c84-a83d-1e8c25c0fa7a"},"vehicle_type_id":"4","last_reported":1703790322,"current_range_meters":15200,"station_id":"ce4bhb12rcd13ifvqem0","pricing_plan_id":"free"},{"bike_id":"de867cf8-eabe-4533-9e10-5c203e01142a","system_id":"levelo_inurba_marseille","lat":43.28856,"lon":5.358371,"is_reserved":false,"is_disabled":false,"rental_uris":{"android":"levelo://app?vid=de867cf8-eabe-4533-9e10-5c203e01142a","ios":"levelo://app?vid=de867cf8-eabe-4533-9e10-5c203e01142a"},"vehicle_type_id":"4","last_reported":1703790322,"current_range_meters":13200,"station_id":"ce4bhb12rcd13ifvqem0","pricing_plan_id":"free"},{"bike_id":"45e9d267-5c57-452e-993a-c6c7fa826b87","system_id":"levelo_inurba_marseille","lat":43.3374,"lon":5.37457,"is_reserved":false,"is_disabled":false,"rental_uris":{"android":"levelo://app?vid=45e9d267-5c57-452e-993a-c6c7fa826b87","ios":"levelo://app?vid=45e9d267-5c57-452e-993a-c6c7fa826b87"},"vehicle_type_id":"4","last_reported":1703790322,"current_range_meters":22800,"station_id":"","pricing_plan_id":"free"},{"bike_id":"3714f51a-efb2-4988-a9b9-167c8d23b4d6","system_id":"levelo_inurba_marseille","lat":43.337444,"lon":5.374475,"is_reserved":false,"is_disabled":false,"rental_uris":{"android":"levelo://app?vid=3714f51a-efb2-4988-a9b9-167c8d23b4d6","ios":"levelo://app?vid=3714f51a-efb2-4988-a9b9-167c8d23b4d6"},"vehicle_type_id":"4","last_reported":1703790322,"current_range_meters":27600,"station_id":"","pricing_plan_id":"free"},{"bike_id":"adf90235-57b3-4813-8b68-7f944dad32ab","system_id":"levelo_inurba_marseille","lat":43.309371,"lon":5.401449,"is_reserved":false,"is_disabled":false,"rental_uris":{"android":"levelo://app?vid=adf90235-57b3-4813-8b68-7f944dad32ab","ios":"levelo://app?vid=adf90235-57b3-4813-8b68-7f944dad32ab"},"vehicle_type_id":"4","last_reported":1703790322,"current_range_meters":0,"station_id":"ce4bgvp2rcd13ifvqct0","pricing_plan_id":"free"},{"bike_id":"7abcbf24-3a33-42f7-83ff-33b36936a38c","system_id":"levelo_inurba_marseille","lat":43.312755,"lon":5.401733,"is_reserved":false,"is_disabled":false,"rental_uris":{"android":"levelo://app?vid=7abcbf24-3a33-42f7-83ff-33b36936a38c","ios":"levelo://app?vid=7abcbf24-3a33-42f7-83ff-33b36936a38c"},"vehicle_type_id":"4","last_reported":1703790322,"current_range_meters":0,"station_id":"ce4bh092rcd13ifvqd30","pricing_plan_id":"free"},{"bike_id":"6eb442ad-0b63-4ae4-9d63-3882104d3e25","system_id":"levelo_inurba_marseille","lat":43.33746,"lon":5.37466,"is_reserved":false,"is_disabled":false,"rental_uris":{"android":"levelo://app?vid=6eb442ad-0b63-4ae4-9d63-3882104d3e25","ios":"levelo://app?vid=6eb442ad-0b63-4ae4-9d63-3882104d3e25"},"vehicle_type_id":"4","last_reported":1703790322,"current_range_meters":20800,"station_id":"","pricing_plan_id":"free"},{"bike_id":"2d74b838-137f-41c5-9fa7-2a42034f0510","system_id":"levelo_inurba_marseille","lat":43.3375,"lon":5.37446,"is_reserved":false,"is_disabled":false,"rental_uris":{"android":"levelo://app?vid=2d74b838-137f-41c5-9fa7-2a42034f0510","ios":"levelo://app?vid=2d74b838-137f-41c5-9fa7-2a42034f0510"},"vehicle_type_id":"4","last_reported":1703790322,"current_range_meters":30000,"station_id":"","pricing_plan_id":"free"},{"bike_id":"38a8720a-3482-45e9-8b05-47a0bef75ca6","system_id":"levelo_inurba_marseille","lat":43.337596,"lon":5.37436,"is_reserved":false,"is_disabled":false,"rental_uris":{"android":"levelo://app?vid=38a8720a-3482-45e9-8b05-47a0bef75ca6","ios":"levelo://app?vid=38a8720a-3482-45e9-8b05-47a0bef75ca6"},"vehicle_type_id":"4","last_reported":1703790322,"current_range_meters":14400,"station_id":"","pricing_plan_id":"free"},{"bike_id":"981f9dbf-5820-453e-beb6-8bbddd90c1d2","system_id":"levelo_inurba_marseille","lat":43.337715,"lon":5.374464,"is_reserved":false,"is_disabled":false,"rental_uris":{"android":"levelo://app?vid=981f9dbf-5820-453e-beb6-8bbddd90c1d2","ios":"levelo://app?vid=981f9dbf-5820-453e-beb6-8bbddd90c1d2"},"vehicle_type_id":"4","last_reported":1703790322,"current_range_meters":24000,"station_id":"","pricing_plan_id":"free"},{"bike_id":"da2b8792-e30f-4afd-b1ec-a73315b52519","system_id":"levelo_inurba_marseille","lat":43.306412,"lon":5.401035,"is_reserved":false,"is_disabled":false,"rental_uris":{"android":"levelo://app?vid=da2b8792-e30f-4afd-b1ec-a73315b52519","ios":"levelo://app?vid=da2b8792-e30f-4afd-b1ec-a73315b52519"},"vehicle_type_id":"4","last_reported":1703790322,"current_range_meters":17600,"station_id":"ce4bh112rcd13ifvqda0","pricing_plan_id":"free"},{"bike_id":"3190f5c6-68bf-41a8-a225-e60cee2a6c64","system_id":"levelo_inurba_marseille","lat":43.301117,"lon":5.398795,"is_reserved":false,"is_disabled":false,"rental_uris":{"android":"levelo://app?vid=3190f5c6-68bf-41a8-a225-e60cee2a6c64","ios":"levelo://app?vid=3190f5c6-68bf-41a8-a225-e60cee2a6c64"},"vehicle_type_id":"4","last_reported":1703790322,"current_range_meters":4400,"station_id":"ce4bh0h2rcd13ifvqd40","pricing_plan_id":"free"},{"bike_id":"bb315701-5ddd-47af-a0e8-8e234552c90a","system_id":"levelo_inurba_marseille","lat":43.28727,"lon":5.36078,"is_reserved":false,"is_disabled":false,"rental_uris":{"android":"levelo://app?vid=bb315701-5ddd-47af-a0e8-8e234552c90a","ios":"levelo://app?vid=bb315701-5ddd-47af-a0e8-8e234552c90a"},"vehicle_type_id":"4","last_reported":1703790322,"current_range_meters":26400,"station_id":"cki0cbj6b192h4jlfktg","pricing_plan_id":"free"},{"bike_id":"7d223116-9c95-4a94-ab53-33045858a867","system_id":"levelo_inurba_marseille","lat":43.286961,"lon":5.373785,"is_reserved":false,"is_disabled":false,"rental_uris":{"android":"levelo://app?vid=7d223116-9c95-4a94-ab53-33045858a867","ios":"levelo://app?vid=7d223116-9c95-4a94-ab53-33045858a867"},"vehicle_type_id":"4","last_reported":1703790322,"current_range_meters":16000,"station_id":"ce4bh3p2rcd13ifvqdq0","pricing_plan_id":"free"},{"bike_id":"b47b78cf-1f84-482b-85d8-48d780f7ea06","system_id":"levelo_inurba_marseille","lat":43.295196,"lon":5.39397,"is_reserved":false,"is_disabled":false,"rental_uris":{"android":"levelo://app?vid=b47b78cf-1f84-482b-85d8-48d780f7ea06","ios":"levelo://app?vid=b47b78cf-1f84-482b-85d8-48d780f7ea06"},"vehicle_type_id":"4","last_reported":1703790322,"current_range_meters":26800,"station_id":"ce4bh292rcd13ifvqdf0","pricing_plan_id":"free"},{"bike_id":"de5c64ae-249a-4677-872b-62e78c5c3d59","system_id":"levelo_inurba_marseille","lat":43.286961,"lon":5.373785,"is_reserved":false,"is_disabled":false,"rental_uris":{"android":"levelo://app?vid=de5c64ae-249a-4677-872b-62e78c5c3d59","ios":"levelo://app?vid=de5c64ae-249a-4677-872b-62e78c5c3d59"},"vehicle_type_id":"4","last_reported":1703790322,"current_range_meters":14000,"station_id":"ce4bh3p2rcd13ifvqdq0","pricing_plan_id":"free"},{"bike_id":"4c361cf1-5493-4439-bb21-4a1e515be382","system_id":"levelo_inurba_marseille","lat":43.286961,"lon":5.373785,"is_reserved":false,"is_disabled":false,"rental_uris":{"android":"levelo://app?vid=4c361cf1-5493-4439-bb21-4a1e515be382","ios":"levelo://app?vid=4c361cf1-5493-4439-bb21-4a1e515be382"},"vehicle_type_id":"4","last_reported":1703790322,"current_range_meters":10000,"station_id":"ce4bh3p2rcd13ifvqdq0","pricing_plan_id":"free"},{"bike_id":"c2cea439-ec0b-4551-b739-d75988d996d6","system_id":"levelo_inurba_marseille","lat":43.302759,"lon":5.400793,"is_reserved":false,"is_disabled":false,"rental_uris":{"android":"levelo://app?vid=c2cea439-ec0b-4551-b739-d75988d996d6","ios":"levelo://app?vid=c2cea439-ec0b-4551-b739-d75988d996d6"},"vehicle_type_id":"4","last_reported":1703790322,"current_range_meters":3600,"station_id":"ce4bgvh2rcd13ifvqcs0","pricing_plan_id":"free"},{"bike_id":"df94c1ee-e9a6-4ac6-8430-1a95b98d3e41","system_id":"levelo_inurba_marseille","lat":43.289307,"lon":5.38406,"is_reserved":false,"is_disabled":false,"rental_uris":{"android":"levelo://app?vid=df94c1ee-e9a6-4ac6-8430-1a95b98d3e41","ios":"levelo://app?vid=df94c1ee-e9a6-4ac6-8430-1a95b98d3e41"},"vehicle_type_id":"4","last_reported":1703790322,"current_range_meters":6800,"station_id":"ce4bh612rcd13ifvqe6g","pricing_plan_id":"free"},{"bike_id":"f6e09705-0bf0-4207-bc39-007ebfcacba6","system_id":"levelo_inurba_marseille","lat":43.29025,"lon":5.38639,"is_reserved":false,"is_disabled":false,"rental_uris":{"android":"levelo://app?vid=f6e09705-0bf0-4207-bc39-007ebfcacba6","ios":"levelo://app?vid=f6e09705-0bf0-4207-bc39-007ebfcacba6"},"vehicle_type_id":"4","last_reported":1703790322,"current_range_meters":800,"station_id":"ce4bh4p2rcd13ifvqe0g","pricing_plan_id":"free"},{"bike_id":"1c15a917-6ba9-4238-899b-8bd764ea4b24","system_id":"levelo_inurba_marseille","lat":43.29025,"lon":5.38645,"is_reserved":false,"is_disabled":false,"rental_uris":{"android":"levelo://app?vid=1c15a917-6ba9-4238-899b-8bd764ea4b24","ios":"levelo://app?vid=1c15a917-6ba9-4238-899b-8bd764ea4b24"},"vehicle_type_id":"4","last_reported":1703790322,"current_range_meters":16000,"station_id":"ce4bh4p2rcd13ifvqe0g","pricing_plan_id":"free"},{"bike_id":"3495bc62-e87c-40b5-be35-8a4633f47136","system_id":"levelo_inurba_marseille","lat":43.290336,"lon":5.386425,"is_reserved":false,"is_disabled":false,"rental_uris":{"android":"levelo://app?vid=3495bc62-e87c-40b5-be35-8a4633f47136","ios":"levelo://app?vid=3495bc62-e87c-40b5-be35-8a4633f47136"},"vehicle_type_id":"4","last_reported":1703790322,"current_range_meters":14400,"station_id":"ce4bh4p2rcd13ifvqe0g","pricing_plan_id":"free"},{"bike_id":"bb21deba-1a54-4079-aaa2-f3d56c17f811","system_id":"levelo_inurba_marseille","lat":43.290336,"lon":5.386425,"is_reserved":false,"is_disabled":false,"rental_uris":{"android":"levelo://app?vid=bb21deba-1a54-4079-aaa2-f3d56c17f811","ios":"levelo://app?vid=bb21deba-1a54-4079-aaa2-f3d56c17f811"},"vehicle_type_id":"4","last_reported":1703790322,"current_range_meters":22800,"station_id":"ce4bh4p2rcd13ifvqe0g","pricing_plan_id":"free"},{"bike_id":"ad134135-7288-46f4-b1c7-8ec6556f5193","system_id":"levelo_inurba_marseille","lat":43.30195,"lon":5.40057,"is_reserved":false,"is_disabled":false,"rental_uris":{"android":"levelo://app?vid=ad134135-7288-46f4-b1c7-8ec6556f5193","ios":"levelo://app?vid=ad134135-7288-46f4-b1c7-8ec6556f5193"},"vehicle_type_id":"4","last_reported":1703790322,"current_range_meters":0,"station_id":"","pricing_plan_id":"free"},{"bike_id":"badc9108-0d08-4b4a-8494-611d640d6c59","system_id":"levelo_inurba_marseille","lat":43.287184,"lon":5.37937,"is_reserved":false,"is_disabled":false,"rental_uris":{"android":"levelo://app?vid=badc9108-0d08-4b4a-8494-611d640d6c59","ios":"levelo://app?vid=badc9108-0d08-4b4a-8494-611d640d6c59"},"vehicle_type_id":"4","last_reported":1703790322,"current_range_meters":24800,"station_id":"ce4bh9p2rcd13ifvqec0","pricing_plan_id":"free"},{"bike_id":"aac00441-5e5c-4474-92e6-e699a3867bae","system_id":"levelo_inurba_marseille","lat":43.285759,"lon":5.360247,"is_reserved":false,"is_disabled":false,"rental_uris":{"android":"levelo://app?vid=aac00441-5e5c-4474-92e6-e699a3867bae","ios":"levelo://app?vid=aac00441-5e5c-4474-92e6-e699a3867bae"},"vehicle_type_id":"4","last_reported":1703790322,"current_range_meters":30000,"station_id":"","pricing_plan_id":"free"},{"bike_id":"32e6d072-f228-400b-9215-d719c3cc53e3","system_id":"levelo_inurba_marseille","lat":43.28458,"lon":5.35895,"is_reserved":false,"is_disabled":false,"rental_uris":{"android":"levelo://app?vid=32e6d072-f228-400b-9215-d719c3cc53e3","ios":"levelo://app?vid=32e6d072-f228-400b-9215-d719c3cc53e3"},"vehicle_type_id":"4","last_reported":1703790322,"current_range_meters":7600,"station_id":"ce4bhah2rcd13ifvqei0","pricing_plan_id":"free"},{"bike_id":"4f392da8-5300-44ea-9d99-638194294d03","system_id":"levelo_inurba_marseille","lat":43.284534,"lon":5.358662,"is_reserved":false,"is_disabled":false,"rental_uris":{"android":"levelo://app?vid=4f392da8-5300-44ea-9d99-638194294d03","ios":"levelo://app?vid=4f392da8-5300-44ea-9d99-638194294d03"},"vehicle_type_id":"4","last_reported":1703790322,"current_range_meters":31200,"station_id":"ce4bhah2rcd13ifvqei0","pricing_plan_id":"free"},{"bike_id":"d11c9166-0499-49b4-b475-e996778cc806","system_id":"levelo_inurba_marseille","lat":43.284538,"lon":5.358657,"is_reserved":false,"is_disabled":false,"rental_uris":{"android":"levelo://app?vid=d11c9166-0499-49b4-b475-e996778cc806","ios":"levelo://app?vid=d11c9166-0499-49b4-b475-e996778cc806"},"vehicle_type_id":"4","last_reported":1703790322,"current_range_meters":29600,"station_id":"ce4bhah2rcd13ifvqei0","pricing_plan_id":"free"},{"bike_id":"d8f5e3c3-c1eb-4c61-bc61-175fbb214979","system_id":"levelo_inurba_marseille","lat":43.294314,"lon":5.397498,"is_reserved":false,"is_disabled":false,"rental_uris":{"android":"levelo://app?vid=d8f5e3c3-c1eb-4c61-bc61-175fbb214979","ios":"levelo://app?vid=d8f5e3c3-c1eb-4c61-bc61-175fbb214979"},"vehicle_type_id":"4","last_reported":1703790322,"current_range_meters":21200,"station_id":"ce4bh3h2rcd13ifvqdo0","pricing_plan_id":"free"},{"bike_id":"1ec5f571-614f-44d8-9143-9970b6299b4d","system_id":"levelo_inurba_marseille","lat":43.294314,"lon":5.397498,"is_reserved":false,"is_disabled":false,"rental_uris":{"android":"levelo://app?vid=1ec5f571-614f-44d8-9143-9970b6299b4d","ios":"levelo://app?vid=1ec5f571-614f-44d8-9143-9970b6299b4d"},"vehicle_type_id":"4","last_reported":1703790322,"current_range_meters":12000,"station_id":"ce4bh3h2rcd13ifvqdo0","pricing_plan_id":"free"},{"bike_id":"fb1fc38d-3c7e-4f68-a4f7-ab5da6bee151","system_id":"levelo_inurba_marseille","lat":43.285856,"lon":5.350771,"is_reserved":false,"is_disabled":false,"rental_uris":{"android":"levelo://app?vid=fb1fc38d-3c7e-4f68-a4f7-ab5da6bee151","ios":"levelo://app?vid=fb1fc38d-3c7e-4f68-a4f7-ab5da6bee151"},"vehicle_type_id":"4","last_reported":1703790322,"current_range_meters":16000,"station_id":"ce4bhch2rcd13ifvqeug","pricing_plan_id":"free"},{"bike_id":"1d5b48ba-15e9-4368-987a-30b536df8954","system_id":"levelo_inurba_marseille","lat":43.285856,"lon":5.350771,"is_reserved":false,"is_disabled":false,"rental_uris":{"android":"levelo://app?vid=1d5b48ba-15e9-4368-987a-30b536df8954","ios":"levelo://app?vid=1d5b48ba-15e9-4368-987a-30b536df8954"},"vehicle_type_id":"4","last_reported":1703790322,"current_range_meters":0,"station_id":"ce4bhch2rcd13ifvqeug","pricing_plan_id":"free"},{"bike_id":"603553e0-e46e-4ae5-80f2-c3933ed6e3cc","system_id":"levelo_inurba_marseille","lat":43.283998,"lon":5.375062,"is_reserved":false,"is_disabled":false,"rental_uris":{"android":"levelo://app?vid=603553e0-e46e-4ae5-80f2-c3933ed6e3cc","ios":"levelo://app?vid=603553e0-e46e-4ae5-80f2-c3933ed6e3cc"},"vehicle_type_id":"4","last_reported":1703790322,"current_range_meters":15200,"station_id":"ce4bh412rcd13ifvqds0","pricing_plan_id":"free"},{"bike_id":"c7fa6e4d-6b74-4129-b76b-3f764661e224","system_id":"levelo_inurba_marseille","lat":43.283998,"lon":5.375062,"is_reserved":false,"is_disabled":false,"rental_uris":{"android":"levelo://app?vid=c7fa6e4d-6b74-4129-b76b-3f764661e224","ios":"levelo://app?vid=c7fa6e4d-6b74-4129-b76b-3f764661e224"},"vehicle_type_id":"4","last_reported":1703790322,"current_range_meters":18800,"station_id":"ce4bh412rcd13ifvqds0","pricing_plan_id":"free"},{"bike_id":"4d2b9438-205e-41b6-8402-ae003cd6baa4","system_id":"levelo_inurba_marseille","lat":43.286595,"lon":5.386795,"is_reserved":false,"is_disabled":false,"rental_uris":{"android":"levelo://app?vid=4d2b9438-205e-41b6-8402-ae003cd6baa4","ios":"levelo://app?vid=4d2b9438-205e-41b6-8402-ae003cd6baa4"},"vehicle_type_id":"4","last_reported":1703790322,"current_range_meters":26000,"station_id":"ce4bh492rcd13ifvqdug","pricing_plan_id":"free"},{"bike_id":"494cd479-7898-4e60-9274-ca55d1613335","system_id":"levelo_inurba_marseille","lat":43.286595,"lon":5.386795,"is_reserved":false,"is_disabled":false,"rental_uris":{"android":"levelo://app?vid=494cd479-7898-4e60-9274-ca55d1613335","ios":"levelo://app?vid=494cd479-7898-4e60-9274-ca55d1613335"},"vehicle_type_id":"4","last_reported":1703790322,"current_range_meters":6000,"station_id":"ce4bh492rcd13ifvqdug","pricing_plan_id":"free"},{"bike_id":"91379f9b-6215-4d42-9d0d-4a5df4280ace","system_id":"levelo_inurba_marseille","lat":43.28665,"lon":5.38667,"is_reserved":false,"is_disabled":false,"rental_uris":{"android":"levelo://app?vid=91379f9b-6215-4d42-9d0d-4a5df4280ace","ios":"levelo://app?vid=91379f9b-6215-4d42-9d0d-4a5df4280ace"},"vehicle_type_id":"4","last_reported":1703790322,"current_range_meters":2000,"station_id":"ce4bh492rcd13ifvqdug","pricing_plan_id":"free"},{"bike_id":"30995aa3-e7d1-42a1-934a-bf6e2cd8ea38","system_id":"levelo_inurba_marseille","lat":43.28668,"lon":5.38686,"is_reserved":false,"is_disabled":false,"rental_uris":{"android":"levelo://app?vid=30995aa3-e7d1-42a1-934a-bf6e2cd8ea38","ios":"levelo://app?vid=30995aa3-e7d1-42a1-934a-bf6e2cd8ea38"},"vehicle_type_id":"4","last_reported":1703790322,"current_range_meters":14000,"station_id":"ce4bh492rcd13ifvqdug","pricing_plan_id":"free"},{"bike_id":"eb0839c4-3270-42e2-bfb8-e0514473fdff","system_id":"levelo_inurba_marseille","lat":43.2934,"lon":5.3985,"is_reserved":false,"is_disabled":false,"rental_uris":{"android":"levelo://app?vid=eb0839c4-3270-42e2-bfb8-e0514473fdff","ios":"levelo://app?vid=eb0839c4-3270-42e2-bfb8-e0514473fdff"},"vehicle_type_id":"4","last_reported":1703790322,"current_range_meters":22400,"station_id":"","pricing_plan_id":"free"},{"bike_id":"88a90eb6-df1d-4c20-8e42-f03f5a6f3a0d","system_id":"levelo_inurba_marseille","lat":43.33721,"lon":5.39172,"is_reserved":false,"is_disabled":false,"rental_uris":{"android":"levelo://app?vid=88a90eb6-df1d-4c20-8e42-f03f5a6f3a0d","ios":"levelo://app?vid=88a90eb6-df1d-4c20-8e42-f03f5a6f3a0d"},"vehicle_type_id":"4","last_reported":1703790322,"current_range_meters":10800,"station_id":"ce4bhr92rcd13ifvqhsg","pricing_plan_id":"free"},{"bike_id":"5eb250fa-6406-4beb-8726-552898deb108","system_id":"levelo_inurba_marseille","lat":43.337168,"lon":5.391825,"is_reserved":false,"is_disabled":false,"rental_uris":{"android":"levelo://app?vid=5eb250fa-6406-4beb-8726-552898deb108","ios":"levelo://app?vid=5eb250fa-6406-4beb-8726-552898deb108"},"vehicle_type_id":"4","last_reported":1703790322,"current_range_meters":22000,"station_id":"ce4bhr92rcd13ifvqhsg","pricing_plan_id":"free"},{"bike_id":"cb84655b-8b7a-4d53-b76b-5dcc6b25b52d","system_id":"levelo_inurba_marseille","lat":43.284793,"lon":5.384113,"is_reserved":false,"is_disabled":false,"rental_uris":{"android":"levelo://app?vid=cb84655b-8b7a-4d53-b76b-5dcc6b25b52d","ios":"levelo://app?vid=cb84655b-8b7a-4d53-b76b-5dcc6b25b52d"},"vehicle_type_id":"4","last_reported":1703790322,"current_range_meters":24000,"station_id":"ce4bh512rcd13ifvqe3g","pricing_plan_id":"free"},{"bike_id":"8328bab5-1bd8-443e-9b60-a781214652eb","system_id":"levelo_inurba_marseille","lat":43.284787,"lon":5.384116,"is_reserved":false,"is_disabled":false,"rental_uris":{"android":"levelo://app?vid=8328bab5-1bd8-443e-9b60-a781214652eb","ios":"levelo://app?vid=8328bab5-1bd8-443e-9b60-a781214652eb"},"vehicle_type_id":"4","last_reported":1703790322,"current_range_meters":26000,"station_id":"ce4bh512rcd13ifvqe3g","pricing_plan_id":"free"},{"bike_id":"6f4dbf0b-9149-48a7-b0a4-a267e9ee7dd4","system_id":"levelo_inurba_marseille","lat":43.284793,"lon":5.384113,"is_reserved":false,"is_disabled":false,"rental_uris":{"android":"levelo://app?vid=6f4dbf0b-9149-48a7-b0a4-a267e9ee7dd4","ios":"levelo://app?vid=6f4dbf0b-9149-48a7-b0a4-a267e9ee7dd4"},"vehicle_type_id":"4","last_reported":1703790322,"current_range_meters":26000,"station_id":"ce4bh512rcd13ifvqe3g","pricing_plan_id":"free"},{"bike_id":"96a700d0-e0a1-4ba7-846a-af3c66a4549d","system_id":"levelo_inurba_marseille","lat":43.297946,"lon":5.404063,"is_reserved":false,"is_disabled":false,"rental_uris":{"android":"levelo://app?vid=96a700d0-e0a1-4ba7-846a-af3c66a4549d","ios":"levelo://app?vid=96a700d0-e0a1-4ba7-846a-af3c66a4549d"},"vehicle_type_id":"4","last_reported":1703790322,"current_range_meters":26800,"station_id":"ce4bh112rcd13ifvqd90","pricing_plan_id":"free"},{"bike_id":"3d347e56-28ab-4a0e-83e8-20e14ad98f64","system_id":"levelo_inurba_marseille","lat":43.284217,"lon":5.349697,"is_reserved":false,"is_disabled":false,"rental_uris":{"android":"levelo://app?vid=3d347e56-28ab-4a0e-83e8-20e14ad98f64","ios":"levelo://app?vid=3d347e56-28ab-4a0e-83e8-20e14ad98f64"},"vehicle_type_id":"4","last_reported":1703790322,"current_range_meters":13200,"station_id":"ce4bhbh2rcd13ifvqepg","pricing_plan_id":"free"},{"bike_id":"e485450b-2736-4f4c-b94b-0da5a69b88aa","system_id":"levelo_inurba_marseille","lat":43.33385,"lon":5.39822,"is_reserved":false,"is_disabled":false,"rental_uris":{"android":"levelo://app?vid=e485450b-2736-4f4c-b94b-0da5a69b88aa","ios":"levelo://app?vid=e485450b-2736-4f4c-b94b-0da5a69b88aa"},"vehicle_type_id":"4","last_reported":1703790322,"current_range_meters":14000,"station_id":"","pricing_plan_id":"free"},{"bike_id":"fd806734-020d-49ee-bc45-e6b7119917ff","system_id":"levelo_inurba_marseille","lat":43.28425,"lon":5.349812,"is_reserved":false,"is_disabled":false,"rental_uris":{"android":"levelo://app?vid=fd806734-020d-49ee-bc45-e6b7119917ff","ios":"levelo://app?vid=fd806734-020d-49ee-bc45-e6b7119917ff"},"vehicle_type_id":"4","last_reported":1703790322,"current_range_meters":27600,"station_id":"ce4bhbh2rcd13ifvqepg","pricing_plan_id":"free"},{"bike_id":"dca0fa18-7996-474e-bb6b-4a1cc91c2b11","system_id":"levelo_inurba_marseille","lat":43.284214,"lon":5.349706,"is_reserved":false,"is_disabled":false,"rental_uris":{"android":"levelo://app?vid=dca0fa18-7996-474e-bb6b-4a1cc91c2b11","ios":"levelo://app?vid=dca0fa18-7996-474e-bb6b-4a1cc91c2b11"},"vehicle_type_id":"4","last_reported":1703790322,"current_range_meters":30000,"station_id":"ce4bhbh2rcd13ifvqepg","pricing_plan_id":"free"},{"bike_id":"a41a460f-1b38-4a80-acef-8a5f3851d3b2","system_id":"levelo_inurba_marseille","lat":43.284217,"lon":5.349697,"is_reserved":false,"is_disabled":false,"rental_uris":{"android":"levelo://app?vid=a41a460f-1b38-4a80-acef-8a5f3851d3b2","ios":"levelo://app?vid=a41a460f-1b38-4a80-acef-8a5f3851d3b2"},"vehicle_type_id":"4","last_reported":1703790322,"current_range_meters":23200,"station_id":"ce4bhbh2rcd13ifvqepg","pricing_plan_id":"free"},{"bike_id":"3ee00bbe-2747-4705-8261-2887f608ecff","system_id":"levelo_inurba_marseille","lat":43.28413,"lon":5.34984,"is_reserved":false,"is_disabled":false,"rental_uris":{"android":"levelo://app?vid=3ee00bbe-2747-4705-8261-2887f608ecff","ios":"levelo://app?vid=3ee00bbe-2747-4705-8261-2887f608ecff"},"vehicle_type_id":"4","last_reported":1703790322,"current_range_meters":22000,"station_id":"ce4bhbh2rcd13ifvqepg","pricing_plan_id":"free"},{"bike_id":"080a209c-9da8-43e5-92e5-c842fe99df5b","system_id":"levelo_inurba_marseille","lat":43.284217,"lon":5.349697,"is_reserved":false,"is_disabled":false,"rental_uris":{"android":"levelo://app?vid=080a209c-9da8-43e5-92e5-c842fe99df5b","ios":"levelo://app?vid=080a209c-9da8-43e5-92e5-c842fe99df5b"},"vehicle_type_id":"4","last_reported":1703790322,"current_range_meters":24000,"station_id":"ce4bhbh2rcd13ifvqepg","pricing_plan_id":"free"},{"bike_id":"1abe1bbe-7917-44dc-9da8-0af7a77c71b5","system_id":"levelo_inurba_marseille","lat":43.28403,"lon":5.34979,"is_reserved":false,"is_disabled":false,"rental_uris":{"android":"levelo://app?vid=1abe1bbe-7917-44dc-9da8-0af7a77c71b5","ios":"levelo://app?vid=1abe1bbe-7917-44dc-9da8-0af7a77c71b5"},"vehicle_type_id":"4","last_reported":1703790322,"current_range_meters":13600,"station_id":"ce4bhbh2rcd13ifvqepg","pricing_plan_id":"free"},{"bike_id":"a4a1474a-bac3-4958-9452-b934d9b61320","system_id":"levelo_inurba_marseille","lat":43.289363,"lon":5.396322,"is_reserved":false,"is_disabled":false,"rental_uris":{"android":"levelo://app?vid=a4a1474a-bac3-4958-9452-b934d9b61320","ios":"levelo://app?vid=a4a1474a-bac3-4958-9452-b934d9b61320"},"vehicle_type_id":"4","last_reported":1703790322,"current_range_meters":24400,"station_id":"ce4bh3h2rcd13ifvqdn0","pricing_plan_id":"free"},{"bike_id":"d3d2eb8b-4895-4a99-85d1-f89af0038036","system_id":"levelo_inurba_marseille","lat":43.289363,"lon":5.396322,"is_reserved":false,"is_disabled":false,"rental_uris":{"android":"levelo://app?vid=d3d2eb8b-4895-4a99-85d1-f89af0038036","ios":"levelo://app?vid=d3d2eb8b-4895-4a99-85d1-f89af0038036"},"vehicle_type_id":"4","last_reported":1703790322,"current_range_meters":21200,"station_id":"ce4bh3h2rcd13ifvqdn0","pricing_plan_id":"free"},{"bike_id":"f3a6523f-a0ad-43d7-9a28-942ac8c31d35","system_id":"levelo_inurba_marseille","lat":43.292724,"lon":5.401131,"is_reserved":false,"is_disabled":false,"rental_uris":{"android":"levelo://app?vid=f3a6523f-a0ad-43d7-9a28-942ac8c31d35","ios":"levelo://app?vid=f3a6523f-a0ad-43d7-9a28-942ac8c31d35"},"vehicle_type_id":"4","last_reported":1703790322,"current_range_meters":21600,"station_id":"ce4bh312rcd13ifvqdk0","pricing_plan_id":"free"},{"bike_id":"7da277c9-6e33-4f64-ab45-8f334901ba9e","system_id":"levelo_inurba_marseille","lat":43.282744,"lon":5.350533,"is_reserved":false,"is_disabled":false,"rental_uris":{"android":"levelo://app?vid=7da277c9-6e33-4f64-ab45-8f334901ba9e","ios":"levelo://app?vid=7da277c9-6e33-4f64-ab45-8f334901ba9e"},"vehicle_type_id":"4","last_reported":1703790322,"current_range_meters":30000,"station_id":"ce4bhbp2rcd13ifvqerg","pricing_plan_id":"free"},{"bike_id":"67051d57-9e3f-4564-b7fc-ddedb7cea4f8","system_id":"levelo_inurba_marseille","lat":43.28039,"lon":5.369297,"is_reserved":false,"is_disabled":false,"rental_uris":{"android":"levelo://app?vid=67051d57-9e3f-4564-b7fc-ddedb7cea4f8","ios":"levelo://app?vid=67051d57-9e3f-4564-b7fc-ddedb7cea4f8"},"vehicle_type_id":"4","last_reported":1703790322,"current_range_meters":15200,"station_id":"ce4bha12rcd13ifvqef0","pricing_plan_id":"free"},{"bike_id":"03fed241-1d00-41eb-9fd0-d1c52fbbb893","system_id":"levelo_inurba_marseille","lat":43.283502,"lon":5.386471,"is_reserved":false,"is_disabled":false,"rental_uris":{"android":"levelo://app?vid=03fed241-1d00-41eb-9fd0-d1c52fbbb893","ios":"levelo://app?vid=03fed241-1d00-41eb-9fd0-d1c52fbbb893"},"vehicle_type_id":"4","last_reported":1703790322,"current_range_meters":22400,"station_id":"ce4bh492rcd13ifvqdvg","pricing_plan_id":"free"},{"bike_id":"668df2cd-cd30-47ba-af77-84c9b6b7d26e","system_id":"levelo_inurba_marseille","lat":43.28039,"lon":5.369297,"is_reserved":false,"is_disabled":false,"rental_uris":{"android":"levelo://app?vid=668df2cd-cd30-47ba-af77-84c9b6b7d26e","ios":"levelo://app?vid=668df2cd-cd30-47ba-af77-84c9b6b7d26e"},"vehicle_type_id":"4","last_reported":1703790322,"current_range_meters":20000,"station_id":"ce4bha12rcd13ifvqef0","pricing_plan_id":"free"},{"bike_id":"1643055d-8b72-46b0-a5ef-9b1be18418c3","system_id":"levelo_inurba_marseille","lat":43.28039,"lon":5.369297,"is_reserved":false,"is_disabled":false,"rental_uris":{"android":"levelo://app?vid=1643055d-8b72-46b0-a5ef-9b1be18418c3","ios":"levelo://app?vid=1643055d-8b72-46b0-a5ef-9b1be18418c3"},"vehicle_type_id":"4","last_reported":1703790322,"current_range_meters":4000,"station_id":"ce4bha12rcd13ifvqef0","pricing_plan_id":"free"},{"bike_id":"e09a479e-edcf-467a-8360-4151ca295bc8","system_id":"levelo_inurba_marseille","lat":43.28039,"lon":5.369297,"is_reserved":false,"is_disabled":false,"rental_uris":{"android":"levelo://app?vid=e09a479e-edcf-467a-8360-4151ca295bc8","ios":"levelo://app?vid=e09a479e-edcf-467a-8360-4151ca295bc8"},"vehicle_type_id":"4","last_reported":1703790322,"current_range_meters":16400,"station_id":"ce4bha12rcd13ifvqef0","pricing_plan_id":"free"},{"bike_id":"47a51011-9d01-430c-b707-f7db9078477b","system_id":"levelo_inurba_marseille","lat":43.281044,"lon":5.378308,"is_reserved":false,"is_disabled":false,"rental_uris":{"android":"levelo://app?vid=47a51011-9d01-430c-b707-f7db9078477b","ios":"levelo://app?vid=47a51011-9d01-430c-b707-f7db9078477b"},"vehicle_type_id":"4","last_reported":1703790322,"current_range_meters":31200,"station_id":"ce4bha12rcd13ifvqee0","pricing_plan_id":"free"},{"bike_id":"6a9c00c8-5bdd-437a-b6e6-66b800f5de3c","system_id":"levelo_inurba_marseille","lat":43.296263,"lon":5.40601,"is_reserved":false,"is_disabled":false,"rental_uris":{"android":"levelo://app?vid=6a9c00c8-5bdd-437a-b6e6-66b800f5de3c","ios":"levelo://app?vid=6a9c00c8-5bdd-437a-b6e6-66b800f5de3c"},"vehicle_type_id":"4","last_reported":1703790322,"current_range_meters":28400,"station_id":"ce4bh0h2rcd13ifvqd60","pricing_plan_id":"free"},{"bike_id":"0bd58b04-25a4-4d2a-aff7-795697f4e76f","system_id":"levelo_inurba_marseille","lat":43.296263,"lon":5.40601,"is_reserved":false,"is_disabled":false,"rental_uris":{"android":"levelo://app?vid=0bd58b04-25a4-4d2a-aff7-795697f4e76f","ios":"levelo://app?vid=0bd58b04-25a4-4d2a-aff7-795697f4e76f"},"vehicle_type_id":"4","last_reported":1703790322,"current_range_meters":20800,"station_id":"ce4bh0h2rcd13ifvqd60","pricing_plan_id":"free"},{"bike_id":"777836ce-9a56-4dd7-a8c1-66514411e254","system_id":"levelo_inurba_marseille","lat":43.285742,"lon":5.395004,"is_reserved":false,"is_disabled":false,"rental_uris":{"android":"levelo://app?vid=777836ce-9a56-4dd7-a8c1-66514411e254","ios":"levelo://app?vid=777836ce-9a56-4dd7-a8c1-66514411e254"},"vehicle_type_id":"4","last_reported":1703790322,"current_range_meters":23600,"station_id":"ce4bh292rcd13ifvqdg0","pricing_plan_id":"free"},{"bike_id":"78b94c4e-d288-4098-8251-ef42bf4518b3","system_id":"levelo_inurba_marseille","lat":43.326605,"lon":5.409903,"is_reserved":false,"is_disabled":false,"rental_uris":{"android":"levelo://app?vid=78b94c4e-d288-4098-8251-ef42bf4518b3","ios":"levelo://app?vid=78b94c4e-d288-4098-8251-ef42bf4518b3"},"vehicle_type_id":"4","last_reported":1703790322,"current_range_meters":19600,"station_id":"ce4bhpp2rcd13ifvqhgg","pricing_plan_id":"free"},{"bike_id":"10ea83c9-03ed-46c6-846c-cacdc6b5941c","system_id":"levelo_inurba_marseille","lat":43.326605,"lon":5.409903,"is_reserved":false,"is_disabled":false,"rental_uris":{"android":"levelo://app?vid=10ea83c9-03ed-46c6-846c-cacdc6b5941c","ios":"levelo://app?vid=10ea83c9-03ed-46c6-846c-cacdc6b5941c"},"vehicle_type_id":"4","last_reported":1703790322,"current_range_meters":30000,"station_id":"ce4bhpp2rcd13ifvqhgg","pricing_plan_id":"free"},{"bike_id":"694ad407-7238-4062-89a8-4125ccd97cc0","system_id":"levelo_inurba_marseille","lat":43.304117,"lon":5.41282,"is_reserved":false,"is_disabled":false,"rental_uris":{"android":"levelo://app?vid=694ad407-7238-4062-89a8-4125ccd97cc0","ios":"levelo://app?vid=694ad407-7238-4062-89a8-4125ccd97cc0"},"vehicle_type_id":"4","last_reported":1703790322,"current_range_meters":29600,"station_id":"ce4bhop2rcd13ifvqh8g","pricing_plan_id":"free"},{"bike_id":"81808767-391c-49dc-bcac-d57d5272834b","system_id":"levelo_inurba_marseille","lat":43.30413,"lon":5.41283,"is_reserved":false,"is_disabled":false,"rental_uris":{"android":"levelo://app?vid=81808767-391c-49dc-bcac-d57d5272834b","ios":"levelo://app?vid=81808767-391c-49dc-bcac-d57d5272834b"},"vehicle_type_id":"4","last_reported":1703790322,"current_range_meters":13200,"station_id":"ce4bhop2rcd13ifvqh8g","pricing_plan_id":"free"},{"bike_id":"9fef7efa-f348-49b2-bcc7-95da5dd62eb0","system_id":"levelo_inurba_marseille","lat":43.279087,"lon":5.380114,"is_reserved":false,"is_disabled":false,"rental_uris":{"android":"levelo://app?vid=9fef7efa-f348-49b2-bcc7-95da5dd62eb0","ios":"levelo://app?vid=9fef7efa-f348-49b2-bcc7-95da5dd62eb0"},"vehicle_type_id":"4","last_reported":1703790322,"current_range_meters":23600,"station_id":"ce4bhf92rcd13ifvqf50","pricing_plan_id":"free"},{"bike_id":"3fdc9525-903e-451b-9b79-ab1d5ca9d7e7","system_id":"levelo_inurba_marseille","lat":43.299579,"lon":5.413255,"is_reserved":false,"is_disabled":false,"rental_uris":{"android":"levelo://app?vid=3fdc9525-903e-451b-9b79-ab1d5ca9d7e7","ios":"levelo://app?vid=3fdc9525-903e-451b-9b79-ab1d5ca9d7e7"},"vehicle_type_id":"4","last_reported":1703790322,"current_range_meters":0,"station_id":"ce4bhp12rcd13ifvqh9g","pricing_plan_id":"free"},{"bike_id":"9df8bd2b-15b3-4221-899a-e948f01c1737","system_id":"levelo_inurba_marseille","lat":43.299579,"lon":5.413255,"is_reserved":false,"is_disabled":false,"rental_uris":{"android":"levelo://app?vid=9df8bd2b-15b3-4221-899a-e948f01c1737","ios":"levelo://app?vid=9df8bd2b-15b3-4221-899a-e948f01c1737"},"vehicle_type_id":"4","last_reported":1703790322,"current_range_meters":28800,"station_id":"ce4bhp12rcd13ifvqh9g","pricing_plan_id":"free"},{"bike_id":"e8126254-6c8b-42ef-9738-9ab2c88044f6","system_id":"levelo_inurba_marseille","lat":43.279742,"lon":5.38744,"is_reserved":false,"is_disabled":false,"rental_uris":{"android":"levelo://app?vid=e8126254-6c8b-42ef-9738-9ab2c88044f6","ios":"levelo://app?vid=e8126254-6c8b-42ef-9738-9ab2c88044f6"},"vehicle_type_id":"4","last_reported":1703790322,"current_range_meters":7600,"station_id":"ce4bhg12rcd13ifvqf80","pricing_plan_id":"free"},{"bike_id":"1bc23da1-87c2-40f7-93c3-fcac5f32d633","system_id":"levelo_inurba_marseille","lat":43.292554,"lon":5.409112,"is_reserved":false,"is_disabled":false,"rental_uris":{"android":"levelo://app?vid=1bc23da1-87c2-40f7-93c3-fcac5f32d633","ios":"levelo://app?vid=1bc23da1-87c2-40f7-93c3-fcac5f32d633"},"vehicle_type_id":"4","last_reported":1703790322,"current_range_meters":22400,"station_id":"ce4bh192rcd13ifvqdc0","pricing_plan_id":"free"},{"bike_id":"1a7e565d-ff74-4306-ab0e-f244cbbe357c","system_id":"levelo_inurba_marseille","lat":43.27618,"lon":5.361009,"is_reserved":false,"is_disabled":false,"rental_uris":{"android":"levelo://app?vid=1a7e565d-ff74-4306-ab0e-f244cbbe357c","ios":"levelo://app?vid=1a7e565d-ff74-4306-ab0e-f244cbbe357c"},"vehicle_type_id":"4","last_reported":1703790322,"current_range_meters":11600,"station_id":"ce4bgj92rcd13ifvqbe0","pricing_plan_id":"free"},{"bike_id":"1cfa2c67-3cf0-434b-b356-1136962b5a22","system_id":"levelo_inurba_marseille","lat":43.280784,"lon":5.396622,"is_reserved":false,"is_disabled":false,"rental_uris":{"android":"levelo://app?vid=1cfa2c67-3cf0-434b-b356-1136962b5a22","ios":"levelo://app?vid=1cfa2c67-3cf0-434b-b356-1136962b5a22"},"vehicle_type_id":"4","last_reported":1703790322,"current_range_meters":31200,"station_id":"ce4bho12rcd13ifvqh2g","pricing_plan_id":"free"},{"bike_id":"db068c0d-86a2-4ca7-9355-41bcf8a48260","system_id":"levelo_inurba_marseille","lat":43.280784,"lon":5.396622,"is_reserved":false,"is_disabled":false,"rental_uris":{"android":"levelo://app?vid=db068c0d-86a2-4ca7-9355-41bcf8a48260","ios":"levelo://app?vid=db068c0d-86a2-4ca7-9355-41bcf8a48260"},"vehicle_type_id":"4","last_reported":1703790322,"current_range_meters":24400,"station_id":"ce4bho12rcd13ifvqh2g","pricing_plan_id":"free"},{"bike_id":"2813dfea-f2c4-4f3a-936f-2ea55c78bfcc","system_id":"levelo_inurba_marseille","lat":43.280784,"lon":5.396622,"is_reserved":false,"is_disabled":false,"rental_uris":{"android":"levelo://app?vid=2813dfea-f2c4-4f3a-936f-2ea55c78bfcc","ios":"levelo://app?vid=2813dfea-f2c4-4f3a-936f-2ea55c78bfcc"},"vehicle_type_id":"4","last_reported":1703790322,"current_range_meters":19200,"station_id":"ce4bho12rcd13ifvqh2g","pricing_plan_id":"free"},{"bike_id":"f877b7f9-dc20-4acb-ab4b-c31fc0a67220","system_id":"levelo_inurba_marseille","lat":43.280784,"lon":5.396622,"is_reserved":false,"is_disabled":false,"rental_uris":{"android":"levelo://app?vid=f877b7f9-dc20-4acb-ab4b-c31fc0a67220","ios":"levelo://app?vid=f877b7f9-dc20-4acb-ab4b-c31fc0a67220"},"vehicle_type_id":"4","last_reported":1703790322,"current_range_meters":16000,"station_id":"ce4bho12rcd13ifvqh2g","pricing_plan_id":"free"},{"bike_id":"0105f4ea-e001-4ff1-928c-c86b060dd9d3","system_id":"levelo_inurba_marseille","lat":43.303837,"lon":5.418724,"is_reserved":false,"is_disabled":false,"rental_uris":{"android":"levelo://app?vid=0105f4ea-e001-4ff1-928c-c86b060dd9d3","ios":"levelo://app?vid=0105f4ea-e001-4ff1-928c-c86b060dd9d3"},"vehicle_type_id":"4","last_reported":1703790322,"current_range_meters":22800,"station_id":"ce4bhop2rcd13ifvqh7g","pricing_plan_id":"free"},{"bike_id":"91729a13-adb0-4e97-8482-ab5f17e53f57","system_id":"levelo_inurba_marseille","lat":43.273613,"lon":5.362705,"is_reserved":false,"is_disabled":false,"rental_uris":{"android":"levelo://app?vid=91729a13-adb0-4e97-8482-ab5f17e53f57","ios":"levelo://app?vid=91729a13-adb0-4e97-8482-ab5f17e53f57"},"vehicle_type_id":"4","last_reported":1703790322,"current_range_meters":30000,"station_id":"ce4bhbh2rcd13ifvqeo0","pricing_plan_id":"free"},{"bike_id":"c36b16d5-1c97-45b8-a241-ff0c2c6ac51b","system_id":"levelo_inurba_marseille","lat":43.275625,"lon":5.384392,"is_reserved":false,"is_disabled":false,"rental_uris":{"android":"levelo://app?vid=c36b16d5-1c97-45b8-a241-ff0c2c6ac51b","ios":"levelo://app?vid=c36b16d5-1c97-45b8-a241-ff0c2c6ac51b"},"vehicle_type_id":"4","last_reported":1703790322,"current_range_meters":15200,"station_id":"ce4bhh92rcd13ifvqfi0","pricing_plan_id":"free"},{"bike_id":"c5097c6d-28e9-4b1f-a0ba-02096980ff87","system_id":"levelo_inurba_marseille","lat":43.275625,"lon":5.384392,"is_reserved":false,"is_disabled":false,"rental_uris":{"android":"levelo://app?vid=c5097c6d-28e9-4b1f-a0ba-02096980ff87","ios":"levelo://app?vid=c5097c6d-28e9-4b1f-a0ba-02096980ff87"},"vehicle_type_id":"4","last_reported":1703790322,"current_range_meters":29200,"station_id":"ce4bhh92rcd13ifvqfi0","pricing_plan_id":"free"},{"bike_id":"7c905b24-8df9-4fc0-ae8b-76c89f50fa23","system_id":"levelo_inurba_marseille","lat":43.279975,"lon":5.40009,"is_reserved":false,"is_disabled":false,"rental_uris":{"android":"levelo://app?vid=7c905b24-8df9-4fc0-ae8b-76c89f50fa23","ios":"levelo://app?vid=7c905b24-8df9-4fc0-ae8b-76c89f50fa23"},"vehicle_type_id":"4","last_reported":1703790322,"current_range_meters":2800,"station_id":"ce4bho92rcd13ifvqh4g","pricing_plan_id":"free"},{"bike_id":"98e75801-6872-4cca-809c-552e18c99a3c","system_id":"levelo_inurba_marseille","lat":43.317121,"lon":5.423936,"is_reserved":false,"is_disabled":false,"rental_uris":{"android":"levelo://app?vid=98e75801-6872-4cca-809c-552e18c99a3c","ios":"levelo://app?vid=98e75801-6872-4cca-809c-552e18c99a3c"},"vehicle_type_id":"4","last_reported":1703790322,"current_range_meters":20400,"station_id":"ce4bhp92rcd13ifvqhbg","pricing_plan_id":"free"},{"bike_id":"41908f97-b8b7-456c-b090-98c8215fb50a","system_id":"levelo_inurba_marseille","lat":43.310785,"lon":5.424305,"is_reserved":false,"is_disabled":false,"rental_uris":{"android":"levelo://app?vid=41908f97-b8b7-456c-b090-98c8215fb50a","ios":"levelo://app?vid=41908f97-b8b7-456c-b090-98c8215fb50a"},"vehicle_type_id":"4","last_reported":1703790322,"current_range_meters":25200,"station_id":"ce4bhp92rcd13ifvqhag","pricing_plan_id":"free"},{"bike_id":"73e9490c-78b3-4eab-afcd-25587fc1ed71","system_id":"levelo_inurba_marseille","lat":43.340804,"lon":5.410219,"is_reserved":false,"is_disabled":false,"rental_uris":{"android":"levelo://app?vid=73e9490c-78b3-4eab-afcd-25587fc1ed71","ios":"levelo://app?vid=73e9490c-78b3-4eab-afcd-25587fc1ed71"},"vehicle_type_id":"4","last_reported":1703790322,"current_range_meters":26800,"station_id":"ce4bhqh2rcd13ifvqhlg","pricing_plan_id":"free"},{"bike_id":"1a16c248-260d-4c68-b0d5-f07822219418","system_id":"levelo_inurba_marseille","lat":43.340804,"lon":5.410219,"is_reserved":false,"is_disabled":false,"rental_uris":{"android":"levelo://app?vid=1a16c248-260d-4c68-b0d5-f07822219418","ios":"levelo://app?vid=1a16c248-260d-4c68-b0d5-f07822219418"},"vehicle_type_id":"4","last_reported":1703790322,"current_range_meters":12400,"station_id":"ce4bhqh2rcd13ifvqhlg","pricing_plan_id":"free"},{"bike_id":"e2fd0ea3-8e75-46ed-91dd-141950cbbf81","system_id":"levelo_inurba_marseille","lat":43.340804,"lon":5.410219,"is_reserved":false,"is_disabled":false,"rental_uris":{"android":"levelo://app?vid=e2fd0ea3-8e75-46ed-91dd-141950cbbf81","ios":"levelo://app?vid=e2fd0ea3-8e75-46ed-91dd-141950cbbf81"},"vehicle_type_id":"4","last_reported":1703790322,"current_range_meters":8000,"station_id":"ce4bhqh2rcd13ifvqhlg","pricing_plan_id":"free"},{"bike_id":"39f4a0f0-bcf6-4bc5-a028-aa2848b7f12f","system_id":"levelo_inurba_marseille","lat":43.274103,"lon":5.394016,"is_reserved":false,"is_disabled":false,"rental_uris":{"android":"levelo://app?vid=39f4a0f0-bcf6-4bc5-a028-aa2848b7f12f","ios":"levelo://app?vid=39f4a0f0-bcf6-4bc5-a028-aa2848b7f12f"},"vehicle_type_id":"4","last_reported":1703790322,"current_range_meters":12400,"station_id":"ce4bhdp2rcd13ifvqf20","pricing_plan_id":"free"},{"bike_id":"623e5527-a121-4ec1-8cc0-17b5fddea11b","system_id":"levelo_inurba_marseille","lat":43.295523,"lon":5.422926,"is_reserved":false,"is_disabled":false,"rental_uris":{"android":"levelo://app?vid=623e5527-a121-4ec1-8cc0-17b5fddea11b","ios":"levelo://app?vid=623e5527-a121-4ec1-8cc0-17b5fddea11b"},"vehicle_type_id":"4","last_reported":1703790322,"current_range_meters":25600,"station_id":"ce4bhph2rcd13ifvqhdg","pricing_plan_id":"free"},{"bike_id":"acec87c8-498e-46a9-a572-8de891a24d3a","system_id":"levelo_inurba_marseille","lat":43.295523,"lon":5.422926,"is_reserved":false,"is_disabled":false,"rental_uris":{"android":"levelo://app?vid=acec87c8-498e-46a9-a572-8de891a24d3a","ios":"levelo://app?vid=acec87c8-498e-46a9-a572-8de891a24d3a"},"vehicle_type_id":"4","last_reported":1703790322,"current_range_meters":23600,"station_id":"ce4bhph2rcd13ifvqhdg","pricing_plan_id":"free"},{"bike_id":"6a48db3f-9fc3-4404-b973-f4cc675c01c7","system_id":"levelo_inurba_marseille","lat":43.295523,"lon":5.422926,"is_reserved":false,"is_disabled":false,"rental_uris":{"android":"levelo://app?vid=6a48db3f-9fc3-4404-b973-f4cc675c01c7","ios":"levelo://app?vid=6a48db3f-9fc3-4404-b973-f4cc675c01c7"},"vehicle_type_id":"4","last_reported":1703790322,"current_range_meters":28000,"station_id":"ce4bhph2rcd13ifvqhdg","pricing_plan_id":"free"},{"bike_id":"6d735bdc-6834-49ef-ad58-2a1b73a15a49","system_id":"levelo_inurba_marseille","lat":43.295523,"lon":5.422926,"is_reserved":false,"is_disabled":false,"rental_uris":{"android":"levelo://app?vid=6d735bdc-6834-49ef-ad58-2a1b73a15a49","ios":"levelo://app?vid=6d735bdc-6834-49ef-ad58-2a1b73a15a49"},"vehicle_type_id":"4","last_reported":1703790322,"current_range_meters":31200,"station_id":"ce4bhph2rcd13ifvqhdg","pricing_plan_id":"free"},{"bike_id":"bc660e5c-f7cd-4460-935e-226ad1eba4eb","system_id":"levelo_inurba_marseille","lat":43.295523,"lon":5.422926,"is_reserved":false,"is_disabled":false,"rental_uris":{"android":"levelo://app?vid=bc660e5c-f7cd-4460-935e-226ad1eba4eb","ios":"levelo://app?vid=bc660e5c-f7cd-4460-935e-226ad1eba4eb"},"vehicle_type_id":"4","last_reported":1703790322,"current_range_meters":29600,"station_id":"ce4bhph2rcd13ifvqhdg","pricing_plan_id":"free"},{"bike_id":"e192df68-2c2b-482d-b6fd-3b8920434290","system_id":"levelo_inurba_marseille","lat":43.29547,"lon":5.42285,"is_reserved":false,"is_disabled":false,"rental_uris":{"android":"levelo://app?vid=e192df68-2c2b-482d-b6fd-3b8920434290","ios":"levelo://app?vid=e192df68-2c2b-482d-b6fd-3b8920434290"},"vehicle_type_id":"4","last_reported":1703790322,"current_range_meters":22000,"station_id":"ce4bhph2rcd13ifvqhdg","pricing_plan_id":"free"},{"bike_id":"dcb34f7e-4bb0-4f50-a0bd-5ae8e961c5f1","system_id":"levelo_inurba_marseille","lat":43.27212,"lon":5.3925,"is_reserved":false,"is_disabled":false,"rental_uris":{"android":"levelo://app?vid=dcb34f7e-4bb0-4f50-a0bd-5ae8e961c5f1","ios":"levelo://app?vid=dcb34f7e-4bb0-4f50-a0bd-5ae8e961c5f1"},"vehicle_type_id":"4","last_reported":1703790322,"current_range_meters":400,"station_id":"","pricing_plan_id":"free"},{"bike_id":"53c5d7d1-4169-4079-bcf9-2053449b6441","system_id":"levelo_inurba_marseille","lat":43.279465,"lon":5.410561,"is_reserved":false,"is_disabled":false,"rental_uris":{"android":"levelo://app?vid=53c5d7d1-4169-4079-bcf9-2053449b6441","ios":"levelo://app?vid=53c5d7d1-4169-4079-bcf9-2053449b6441"},"vehicle_type_id":"4","last_reported":1703790322,"current_range_meters":26000,"station_id":"ce4bhnp2rcd13ifvqh0g","pricing_plan_id":"free"},{"bike_id":"4be303ad-1644-4a37-9c55-cc1533d14818","system_id":"levelo_inurba_marseille","lat":43.279465,"lon":5.410561,"is_reserved":false,"is_disabled":false,"rental_uris":{"android":"levelo://app?vid=4be303ad-1644-4a37-9c55-cc1533d14818","ios":"levelo://app?vid=4be303ad-1644-4a37-9c55-cc1533d14818"},"vehicle_type_id":"4","last_reported":1703790322,"current_range_meters":22800,"station_id":"ce4bhnp2rcd13ifvqh0g","pricing_plan_id":"free"},{"bike_id":"954116fe-7ac7-41be-918d-ad50b537790a","system_id":"levelo_inurba_marseille","lat":43.269319,"lon":5.389397,"is_reserved":false,"is_disabled":false,"rental_uris":{"android":"levelo://app?vid=954116fe-7ac7-41be-918d-ad50b537790a","ios":"levelo://app?vid=954116fe-7ac7-41be-918d-ad50b537790a"},"vehicle_type_id":"4","last_reported":1703790322,"current_range_meters":27600,"station_id":"ce4bhhh2rcd13ifvqfl0","pricing_plan_id":"free"},{"bike_id":"16d7bcc7-0ca6-452c-9efe-3d8cfe3caeab","system_id":"levelo_inurba_marseille","lat":43.26681,"lon":5.382694,"is_reserved":false,"is_disabled":false,"rental_uris":{"android":"levelo://app?vid=16d7bcc7-0ca6-452c-9efe-3d8cfe3caeab","ios":"levelo://app?vid=16d7bcc7-0ca6-452c-9efe-3d8cfe3caeab"},"vehicle_type_id":"4","last_reported":1703790322,"current_range_meters":23200,"station_id":"ce4bhg92rcd13ifvqf90","pricing_plan_id":"free"},{"bike_id":"64e44c37-02fa-410b-8031-3722018edfc4","system_id":"levelo_inurba_marseille","lat":43.26682,"lon":5.38282,"is_reserved":false,"is_disabled":false,"rental_uris":{"android":"levelo://app?vid=64e44c37-02fa-410b-8031-3722018edfc4","ios":"levelo://app?vid=64e44c37-02fa-410b-8031-3722018edfc4"},"vehicle_type_id":"4","last_reported":1703790322,"current_range_meters":22800,"station_id":"ce4bhg92rcd13ifvqf90","pricing_plan_id":"free"},{"bike_id":"b99eb268-8186-420c-81ac-a9cfe3af0e40","system_id":"levelo_inurba_marseille","lat":43.265714,"lon":5.372891,"is_reserved":false,"is_disabled":false,"rental_uris":{"android":"levelo://app?vid=b99eb268-8186-420c-81ac-a9cfe3af0e40","ios":"levelo://app?vid=b99eb268-8186-420c-81ac-a9cfe3af0e40"},"vehicle_type_id":"4","last_reported":1703790322,"current_range_meters":31200,"station_id":"ce4bhg12rcd13ifvqf70","pricing_plan_id":"free"},{"bike_id":"018c631a-ef8b-4991-b6ec-8caf23fbb333","system_id":"levelo_inurba_marseille","lat":43.280023,"lon":5.416653,"is_reserved":false,"is_disabled":false,"rental_uris":{"android":"levelo://app?vid=018c631a-ef8b-4991-b6ec-8caf23fbb333","ios":"levelo://app?vid=018c631a-ef8b-4991-b6ec-8caf23fbb333"},"vehicle_type_id":"4","last_reported":1703790322,"current_range_meters":14000,"station_id":"ce4bho12rcd13ifvqh1g","pricing_plan_id":"free"},{"bike_id":"d00305ea-f5fa-40d5-8ff2-4783231e3da7","system_id":"levelo_inurba_marseille","lat":43.27996,"lon":5.416624,"is_reserved":false,"is_disabled":false,"rental_uris":{"android":"levelo://app?vid=d00305ea-f5fa-40d5-8ff2-4783231e3da7","ios":"levelo://app?vid=d00305ea-f5fa-40d5-8ff2-4783231e3da7"},"vehicle_type_id":"4","last_reported":1703790322,"current_range_meters":28000,"station_id":"ce4bho12rcd13ifvqh1g","pricing_plan_id":"free"},{"bike_id":"5ba2f9e4-fa9c-4656-abce-5f3004e68a0d","system_id":"levelo_inurba_marseille","lat":43.279952,"lon":5.41665,"is_reserved":false,"is_disabled":false,"rental_uris":{"android":"levelo://app?vid=5ba2f9e4-fa9c-4656-abce-5f3004e68a0d","ios":"levelo://app?vid=5ba2f9e4-fa9c-4656-abce-5f3004e68a0d"},"vehicle_type_id":"4","last_reported":1703790322,"current_range_meters":24400,"station_id":"ce4bho12rcd13ifvqh1g","pricing_plan_id":"free"},{"bike_id":"96f6342a-8a2b-4dc6-b13a-2131ead01e18","system_id":"levelo_inurba_marseille","lat":43.27996,"lon":5.416624,"is_reserved":false,"is_disabled":false,"rental_uris":{"android":"levelo://app?vid=96f6342a-8a2b-4dc6-b13a-2131ead01e18","ios":"levelo://app?vid=96f6342a-8a2b-4dc6-b13a-2131ead01e18"},"vehicle_type_id":"4","last_reported":1703790322,"current_range_meters":31200,"station_id":"ce4bho12rcd13ifvqh1g","pricing_plan_id":"free"},{"bike_id":"0321d225-6854-49c9-8cc9-c3be2f579098","system_id":"levelo_inurba_marseille","lat":43.27996,"lon":5.416624,"is_reserved":false,"is_disabled":false,"rental_uris":{"android":"levelo://app?vid=0321d225-6854-49c9-8cc9-c3be2f579098","ios":"levelo://app?vid=0321d225-6854-49c9-8cc9-c3be2f579098"},"vehicle_type_id":"4","last_reported":1703790322,"current_range_meters":31200,"station_id":"ce4bho12rcd13ifvqh1g","pricing_plan_id":"free"},{"bike_id":"b00bf69e-8be6-4868-92e2-74511fafb87e","system_id":"levelo_inurba_marseille","lat":43.27996,"lon":5.416624,"is_reserved":false,"is_disabled":false,"rental_uris":{"android":"levelo://app?vid=b00bf69e-8be6-4868-92e2-74511fafb87e","ios":"levelo://app?vid=b00bf69e-8be6-4868-92e2-74511fafb87e"},"vehicle_type_id":"4","last_reported":1703790322,"current_range_meters":4800,"station_id":"ce4bho12rcd13ifvqh1g","pricing_plan_id":"free"},{"bike_id":"0c42e786-e8bd-4caa-9265-8e63ddc2fe7d","system_id":"levelo_inurba_marseille","lat":43.27996,"lon":5.416624,"is_reserved":false,"is_disabled":false,"rental_uris":{"android":"levelo://app?vid=0c42e786-e8bd-4caa-9265-8e63ddc2fe7d","ios":"levelo://app?vid=0c42e786-e8bd-4caa-9265-8e63ddc2fe7d"},"vehicle_type_id":"4","last_reported":1703790322,"current_range_meters":30400,"station_id":"ce4bho12rcd13ifvqh1g","pricing_plan_id":"free"},{"bike_id":"7e52f9fe-170c-460b-84a9-62969e911261","system_id":"levelo_inurba_marseille","lat":43.27985,"lon":5.41661,"is_reserved":false,"is_disabled":false,"rental_uris":{"android":"levelo://app?vid=7e52f9fe-170c-460b-84a9-62969e911261","ios":"levelo://app?vid=7e52f9fe-170c-460b-84a9-62969e911261"},"vehicle_type_id":"4","last_reported":1703790322,"current_range_meters":11600,"station_id":"ce4bho12rcd13ifvqh1g","pricing_plan_id":"free"},{"bike_id":"88f16620-5cc0-44a5-9f0b-4f40cad1b43b","system_id":"levelo_inurba_marseille","lat":43.266603,"lon":5.389571,"is_reserved":false,"is_disabled":false,"rental_uris":{"android":"levelo://app?vid=88f16620-5cc0-44a5-9f0b-4f40cad1b43b","ios":"levelo://app?vid=88f16620-5cc0-44a5-9f0b-4f40cad1b43b"},"vehicle_type_id":"4","last_reported":1703790322,"current_range_meters":28400,"station_id":"ce4bhe12rcd13ifvqf30","pricing_plan_id":"free"},{"bike_id":"e43782e5-9b2d-4e13-9246-2452f501c0ed","system_id":"levelo_inurba_marseille","lat":43.268365,"lon":5.395603,"is_reserved":false,"is_disabled":false,"rental_uris":{"android":"levelo://app?vid=e43782e5-9b2d-4e13-9246-2452f501c0ed","ios":"levelo://app?vid=e43782e5-9b2d-4e13-9246-2452f501c0ed"},"vehicle_type_id":"4","last_reported":1703790322,"current_range_meters":26800,"station_id":"","pricing_plan_id":"free"},{"bike_id":"b142e925-c295-43ac-bd4d-906b4f93788a","system_id":"levelo_inurba_marseille","lat":43.268873,"lon":5.3973,"is_reserved":false,"is_disabled":false,"rental_uris":{"android":"levelo://app?vid=b142e925-c295-43ac-bd4d-906b4f93788a","ios":"levelo://app?vid=b142e925-c295-43ac-bd4d-906b4f93788a"},"vehicle_type_id":"4","last_reported":1703790322,"current_range_meters":29600,"station_id":"","pricing_plan_id":"free"},{"bike_id":"249fde99-2b1f-462d-a8e1-2be8cd193ab1","system_id":"levelo_inurba_marseille","lat":43.278128,"lon":5.407195,"is_reserved":false,"is_disabled":false,"rental_uris":{"android":"levelo://app?vid=249fde99-2b1f-462d-a8e1-2be8cd193ab1","ios":"levelo://app?vid=249fde99-2b1f-462d-a8e1-2be8cd193ab1"},"vehicle_type_id":"4","last_reported":1703790322,"current_range_meters":21200,"station_id":"ce4bhnh2rcd13ifvqgtg","pricing_plan_id":"free"},{"bike_id":"67e6249c-b189-4435-a670-e29b7a14b361","system_id":"levelo_inurba_marseille","lat":43.308051,"lon":5.43527,"is_reserved":false,"is_disabled":false,"rental_uris":{"android":"levelo://app?vid=67e6249c-b189-4435-a670-e29b7a14b361","ios":"levelo://app?vid=67e6249c-b189-4435-a670-e29b7a14b361"},"vehicle_type_id":"4","last_reported":1703790322,"current_range_meters":16800,"station_id":"ce4bhph2rcd13ifvqheg","pricing_plan_id":"free"},{"bike_id":"f6f1814e-713d-4223-871b-40ec66ec0d2d","system_id":"levelo_inurba_marseille","lat":43.265569,"lon":5.390047,"is_reserved":false,"is_disabled":false,"rental_uris":{"android":"levelo://app?vid=f6f1814e-713d-4223-871b-40ec66ec0d2d","ios":"levelo://app?vid=f6f1814e-713d-4223-871b-40ec66ec0d2d"},"vehicle_type_id":"4","last_reported":1703790322,"current_range_meters":11600,"station_id":"ce4bhe12rcd13ifvqf30","pricing_plan_id":"free"},{"bike_id":"b19a243d-c9d3-4743-a553-c8a695941f99","system_id":"levelo_inurba_marseille","lat":43.26949,"lon":5.40262,"is_reserved":false,"is_disabled":false,"rental_uris":{"android":"levelo://app?vid=b19a243d-c9d3-4743-a553-c8a695941f99","ios":"levelo://app?vid=b19a243d-c9d3-4743-a553-c8a695941f99"},"vehicle_type_id":"4","last_reported":1703790322,"current_range_meters":22000,"station_id":"cjm6bp8fraef2m0cb0m0","pricing_plan_id":"free"},{"bike_id":"dac5ea74-92f7-462e-b536-31f322bb01c0","system_id":"levelo_inurba_marseille","lat":43.331893,"lon":5.431791,"is_reserved":false,"is_disabled":false,"rental_uris":{"android":"levelo://app?vid=dac5ea74-92f7-462e-b536-31f322bb01c0","ios":"levelo://app?vid=dac5ea74-92f7-462e-b536-31f322bb01c0"},"vehicle_type_id":"4","last_reported":1703790322,"current_range_meters":22000,"station_id":"","pricing_plan_id":"free"},