{"last_updated":1734268596,"ttl":60,"version":"2.2","data":{"bikes":[{"bike_id":"45c22bfb-3859-46ca-bbdd-b43970628095","system_id":"levelo_inurba_marseille","lat":43.23187,"lon":5.40016,"is_reserved":false,"is_disabled":false,"rental_uris":{"android":"levelo://app?vid=45c22bfb-3859-46ca-bbdd-b43970628095","ios":"levelo://app?vid=45c22bfb-3859-46ca-bbdd-b43970628095"},"vehicle_type_id":"4","last_reported":1734268596,"current_range_meters":14800,"station_id":"ce4bhn12rcd13ifvqgqg","pricing_plan_id":"cebpf4jnsgd1na2vs0mg"},{"bike_id":"bdafa396-b47b-462d-8e8e-bc13dc69703d","system_id":"levelo_inurba_marseille","lat":43.28417,"lon":5.34986,"is_reserved":false,"is_disabled":false,"rental_uris":{"android":"levelo://app?vid=bdafa396-b47b-462d-8e8e-bc13dc69703d","ios":"levelo://app?vid=bdafa396-b47b-462d-8e8e-bc13dc69703d"},"vehicle_type_id":"4","last_reported":1734268596,"current_range_meters":32400,"station_id":"ce4bhbh2rcd13ifvqepg","pricing_plan_id":"cebpf4jnsgd1na2vs0mg"},{"bike_id":"ed9edba7-d3f1-4e95-8555-1252dbf70dce","system_id":"levelo_inurba_marseille","lat":43.27559,"lon":5.38424,"is_reserved":false,"is_disabled":true,"rental_uris":{"android":"levelo://app?vid=ed9edba7-d3f1-4e95-8555-1252dbf70dce","ios":"levelo://app?vid=ed9edba7-d3f1-4e95-8555-1252dbf70dce"},"vehicle_type_id":"4","last_reported":1734268596,"current_range_meters":35600,"station_id":"ce4bhh92rcd13ifvqfi0","pricing_plan_id":"cebpf4jnsgd1na2vs0mg"},{"bike_id":"767bd7f7-f068-49b4-a91d-aee7712bfd36","system_id":"levelo_inurba_marseille","lat":43.31493,"lon":5.37276,"is_reserved":false,"is_disabled":false,"rental_uris":{"android":"levelo://app?vid=767bd7f7-f068-49b4-a91d-aee7712bfd36","ios":"levelo://app?vid=767bd7f7-f068-49b4-a91d-aee7712bfd36"},"vehicle_type_id":"4","last_reported":1734268596,"current_range_meters":37600,"station_id":"ce4bgt12rcd13ifvqcd0","pricing_plan_id":"cebpf4jnsgd1na2vs0mg"},{"bike_id":"8f707373-3be5-4311-8864-b4e38be26a8f","system_id":"levelo_inurba_marseille","lat":43.25717,"lon":5.41111,"is_reserved":false,"is_disabled":false,"rental_uris":{"android":"levelo://app?vid=8f707373-3be5-4311-8864-b4e38be26a8f","ios":"levelo://app?vid=8f707373-3be5-4311-8864-b4e38be26a8f"},"vehicle_type_id":"4","last_reported":1734268596,"current_range_meters":38800,"station_id":"ce4bhkp2rcd13ifvqgd0","pricing_plan_id":"cebpf4jnsgd1na2vs0mg"},{"bike_id":"b9909b1b-7dc0-43e0-9eac-af3c1c280ed0","system_id":"levelo_inurba_marseille","lat":43.290676,"lon":5.357753,"is_reserved":false,"is_disabled":false,"rental_uris":{"android":"levelo://app?vid=b9909b1b-7dc0-43e0-9eac-af3c1c280ed0","ios":"levelo://app?vid=b9909b1b-7dc0-43e0-9eac-af3c1c280ed0"},"vehicle_type_id":"4","last_reported":1734268596,"current_range_meters":8400,"station_id":"","pricing_plan_id":"cebpf4jnsgd1na2vs0mg"},{"bike_id":"0b5daf5b-9a4e-425e-b58a-f5119fc10926","system_id":"levelo_inurba_marseille","lat":43.30543,"lon":5.36537,"is_reserved":false,"is_disabled":false,"rental_uris":{"android":"levelo://app?vid=0b5daf5b-9a4e-425e-b58a-f5119fc10926","ios":"levelo://app?vid=0b5daf5b-9a4e-425e-b58a-f5119fc10926"},"vehicle_type_id":"4","last_reported":1734268596,"current_range_meters":38400,"station_id":"ce4bgs12rcd13ifvqcag","pricing_plan_id":"cebpf4jnsgd1na2vs0mg"},{"bike_id":"146be659-241b-4bb8-8d24-309aec79ec08","system_id":"levelo_inurba_marseille","lat":43.30498,"lon":5.36556,"is_reserved":false,"is_disabled":false,"rental_uris":{"android":"levelo://app?vid=146be659-241b-4bb8-8d24-309aec79ec08","ios":"levelo://app?vid=146be659-241b-4bb8-8d24-309aec79ec08"},"vehicle_type_id":"4","last_reported":1734268596,"current_range_meters":38800,"station_id":"ce4bgs12rcd13ifvqcag","pricing_plan_id":"cebpf4jnsgd1na2vs0mg"},{"bike_id":"68318da2-404d-4277-bcad-71c1cc0f38c8","system_id":"levelo_inurba_marseille","lat":43.27211,"lon":5.39191,"is_reserved":false,"is_disabled":true,"rental_uris":{"android":"levelo://app?vid=68318da2-404d-4277-bcad-71c1cc0f38c8","ios":"levelo://app?vid=68318da2-404d-4277-bcad-71c1cc0f38c8"},"vehicle_type_id":"4","last_reported":1734268596,"current_range_meters":22000,"station_id":"ce4bhhp2rcd13ifvqfm0","pricing_plan_id":"cebpf4jnsgd1na2vs0mg"},{"bike_id":"fc9133e5-b51e-4303-b06e-eed495f02bb6","system_id":"levelo_inurba_marseille","lat":43.29562,"lon":5.37512,"is_reserved":false,"is_disabled":false,"rental_uris":{"android":"levelo://app?vid=fc9133e5-b51e-4303-b06e-eed495f02bb6","ios":"levelo://app?vid=fc9133e5-b51e-4303-b06e-eed495f02bb6"},"vehicle_type_id":"4","last_reported":1734268596,"current_range_meters":19200,"station_id":"ce4bgh92rcd13ifvqb50","pricing_plan_id":"cebpf4jnsgd1na2vs0mg"},{"bike_id":"2aabb9e3-ae45-4b17-b10d-af50e235d80a","system_id":"levelo_inurba_marseille","lat":43.26787,"lon":5.39922,"is_reserved":false,"is_disabled":true,"rental_uris":{"android":"levelo://app?vid=2aabb9e3-ae45-4b17-b10d-af50e235d80a","ios":"levelo://app?vid=2aabb9e3-ae45-4b17-b10d-af50e235d80a"},"vehicle_type_id":"4","last_reported":1734268596,"current_range_meters":0,"station_id":"","pricing_plan_id":"cebpf4jnsgd1na2vs0mg"},{"bike_id":"9415801d-bb28-4e68-9ebc-eefff56b5360","system_id":"levelo_inurba_marseille","lat":43.34142,"lon":5.40899,"is_reserved":false,"is_disabled":false,"rental_uris":{"android":"levelo://app?vid=9415801d-bb28-4e68-9ebc-eefff56b5360","ios":"levelo://app?vid=9415801d-bb28-4e68-9ebc-eefff56b5360"},"vehicle_type_id":"4","last_reported":1734268596,"current_range_meters":27200,"station_id":"ce4bhqh2rcd13ifvqhlg","pricing_plan_id":"cebpf4jnsgd1na2vs0mg"},{"bike_id":"3595e955-9243-4ebf-a4ff-5df2907e8d74","system_id":"levelo_inurba_marseille","lat":43.32289,"lon":5.38282,"is_reserved":false,"is_disabled":false,"rental_uris":{"android":"levelo://app?vid=3595e955-9243-4ebf-a4ff-5df2907e8d74","ios":"levelo://app?vid=3595e955-9243-4ebf-a4ff-5df2907e8d74"},"vehicle_type_id":"4","last_reported":1734268596,"current_range_meters":38800,"station_id":"ce4bhr12rcd13ifvqhqg","pricing_plan_id":"cebpf4jnsgd1na2vs0mg"},{"bike_id":"3a8307f1-184e-4031-9d00-5f8b8c4474af","system_id":"levelo_inurba_marseille","lat":43.29072,"lon":5.38111,"is_reserved":false,"is_disabled":false,"rental_uris":{"android":"levelo://app?vid=3a8307f1-184e-4031-9d00-5f8b8c4474af","ios":"levelo://app?vid=3a8307f1-184e-4031-9d00-5f8b8c4474af"},"vehicle_type_id":"4","last_reported":1734268596,"current_range_meters":20800,"station_id":"ce4bh512rcd13ifvqe2g","pricing_plan_id":"cebpf4jnsgd1na2vs0mg"},{"bike_id":"089561b2-37a9-497d-a768-4313f9dd42c1","system_id":"levelo_inurba_marseille","lat":43.28146,"lon":5.42657,"is_reserved":false,"is_disabled":false,"rental_uris":{"android":"levelo://app?vid=089561b2-37a9-497d-a768-4313f9dd42c1","ios":"levelo://app?vid=089561b2-37a9-497d-a768-4313f9dd42c1"},"vehicle_type_id":"4","last_reported":1734268596,"current_range_meters":9200,"station_id":"ce4bhnh2rcd13ifvqgug","pricing_plan_id":"cebpf4jnsgd1na2vs0mg"},{"bike_id":"496b9119-850a-49b3-bf98-295bb079ca7c","system_id":"levelo_inurba_marseille","lat":43.28184,"lon":5.44592,"is_reserved":false,"is_disabled":false,"rental_uris":{"android":"levelo://app?vid=496b9119-850a-49b3-bf98-295bb079ca7c","ios":"levelo://app?vid=496b9119-850a-49b3-bf98-295bb079ca7c"},"vehicle_type_id":"4","last_reported":1734268596,"current_range_meters":4400,"station_id":"","pricing_plan_id":"cebpf4jnsgd1na2vs0mg"},{"bike_id":"8d0ae48c-f2f5-46b2-9545-c0387b511dc9","system_id":"levelo_inurba_marseille","lat":43.27996,"lon":5.41668,"is_reserved":false,"is_disabled":false,"rental_uris":{"android":"levelo://app?vid=8d0ae48c-f2f5-46b2-9545-c0387b511dc9","ios":"levelo://app?vid=8d0ae48c-f2f5-46b2-9545-c0387b511dc9"},"vehicle_type_id":"4","last_reported":1734268596,"current_range_meters":38400,"station_id":"ce4bho12rcd13ifvqh1g","pricing_plan_id":"cebpf4jnsgd1na2vs0mg"},{"bike_id":"756759df-30bb-4fc0-b7b8-d22004f554c8","system_id":"levelo_inurba_marseille","lat":43.32335,"lon":5.40619,"is_reserved":false,"is_disabled":false,"rental_uris":{"android":"levelo://app?vid=756759df-30bb-4fc0-b7b8-d22004f554c8","ios":"levelo://app?vid=756759df-30bb-4fc0-b7b8-d22004f554c8"},"vehicle_type_id":"4","last_reported":1734268596,"current_range_meters":8400,"station_id":"ce4bhq92rcd13ifvqhjg","pricing_plan_id":"cebpf4jnsgd1na2vs0mg"},{"bike_id":"63c34c25-bc30-47a7-940c-c8451b9d0774","system_id":"levelo_inurba_marseille","lat":43.30403,"lon":5.41274,"is_reserved":false,"is_disabled":false,"rental_uris":{"android":"levelo://app?vid=63c34c25-bc30-47a7-940c-c8451b9d0774","ios":"levelo://app?vid=63c34c25-bc30-47a7-940c-c8451b9d0774"},"vehicle_type_id":"4","last_reported":1734268596,"current_range_meters":19600,"station_id":"ce4bhop2rcd13ifvqh8g","pricing_plan_id":"cebpf4jnsgd1na2vs0mg"},{"bike_id":"09aa2f3c-9555-44b2-a34d-05acc5333b88","system_id":"levelo_inurba_marseille","lat":43.27943,"lon":5.41048,"is_reserved":false,"is_disabled":false,"rental_uris":{"android":"levelo://app?vid=09aa2f3c-9555-44b2-a34d-05acc5333b88","ios":"levelo://app?vid=09aa2f3c-9555-44b2-a34d-05acc5333b88"},"vehicle_type_id":"4","last_reported":1734268596,"current_range_meters":36400,"station_id":"ce4bhnp2rcd13ifvqh0g","pricing_plan_id":"cebpf4jnsgd1na2vs0mg"},{"bike_id":"810349c1-34d6-4f1c-a059-064760d7bb0c","system_id":"levelo_inurba_marseille","lat":43.30541,"lon":5.36555,"is_reserved":false,"is_disabled":false,"rental_uris":{"android":"levelo://app?vid=810349c1-34d6-4f1c-a059-064760d7bb0c","ios":"levelo://app?vid=810349c1-34d6-4f1c-a059-064760d7bb0c"},"vehicle_type_id":"4","last_reported":1734268596,"current_range_meters":10000,"station_id":"ce4bgs12rcd13ifvqcag","pricing_plan_id":"cebpf4jnsgd1na2vs0mg"},{"bike_id":"d5c89c1f-3bad-4af2-9449-e04c277a4696","system_id":"levelo_inurba_marseille","lat":43.29976,"lon":5.41325,"is_reserved":false,"is_disabled":true,"rental_uris":{"android":"levelo://app?vid=d5c89c1f-3bad-4af2-9449-e04c277a4696","ios":"levelo://app?vid=d5c89c1f-3bad-4af2-9449-e04c277a4696"},"vehicle_type_id":"4","last_reported":1734268596,"current_range_meters":38000,"station_id":"ce4bhp12rcd13ifvqh9g","pricing_plan_id":"cebpf4jnsgd1na2vs0mg"},{"bike_id":"4c4943ce-7382-4625-8dea-c84bcb54053a","system_id":"levelo_inurba_marseille","lat":43.305374,"lon":5.384234,"is_reserved":false,"is_disabled":false,"rental_uris":{"android":"levelo://app?vid=4c4943ce-7382-4625-8dea-c84bcb54053a","ios":"levelo://app?vid=4c4943ce-7382-4625-8dea-c84bcb54053a"},"vehicle_type_id":"4","last_reported":1734268596,"current_range_meters":24400,"station_id":"ce4bgg92rcd13ifvqb30","pricing_plan_id":"cebpf4jnsgd1na2vs0mg"},{"bike_id":"00470025-0594-4fc8-bb13-03b023b393ad","system_id":"levelo_inurba_marseille","lat":43.23058,"lon":5.35494,"is_reserved":false,"is_disabled":false,"rental_uris":{"android":"levelo://app?vid=00470025-0594-4fc8-bb13-03b023b393ad","ios":"levelo://app?vid=00470025-0594-4fc8-bb13-03b023b393ad"},"vehicle_type_id":"4","last_reported":1734268596,"current_range_meters":29600,"station_id":"cpo3342slgdg3j2ifvpg","pricing_plan_id":"cebpf4jnsgd1na2vs0mg"},{"bike_id":"0631ec07-2483-4b7c-a1e3-c138429de5e8","system_id":"levelo_inurba_marseille","lat":43.25722,"lon":5.41098,"is_reserved":false,"is_disabled":false,"rental_uris":{"android":"levelo://app?vid=0631ec07-2483-4b7c-a1e3-c138429de5e8","ios":"levelo://app?vid=0631ec07-2483-4b7c-a1e3-c138429de5e8"},"vehicle_type_id":"4","last_reported":1734268596,"current_range_meters":16800,"station_id":"ce4bhkp2rcd13ifvqgd0","pricing_plan_id":"cebpf4jnsgd1na2vs0mg"},{"bike_id":"5c9775a7-02b2-44aa-a547-cc3c0986f91a","system_id":"levelo_inurba_marseille","lat":43.28268,"lon":5.35063,"is_reserved":false,"is_disabled":false,"rental_uris":{"android":"levelo://app?vid=5c9775a7-02b2-44aa-a547-cc3c0986f91a","ios":"levelo://app?vid=5c9775a7-02b2-44aa-a547-cc3c0986f91a"},"vehicle_type_id":"4","last_reported":1734268596,"current_range_meters":13600,"station_id":"ce4bhbp2rcd13ifvqerg","pricing_plan_id":"cebpf4jnsgd1na2vs0mg"},{"bike_id":"be15b9e1-574c-45f1-b914-fc0b9a33b109","system_id":"levelo_inurba_marseille","lat":43.25037,"lon":5.41682,"is_reserved":false,"is_disabled":false,"rental_uris":{"android":"levelo://app?vid=be15b9e1-574c-45f1-b914-fc0b9a33b109","ios":"levelo://app?vid=be15b9e1-574c-45f1-b914-fc0b9a33b109"},"vehicle_type_id":"4","last_reported":1734268596,"current_range_meters":12000,"station_id":"","pricing_plan_id":"cebpf4jnsgd1na2vs0mg"},{"bike_id":"faeeed3d-e1ea-42b2-8154-c03c65ca9361","system_id":"levelo_inurba_marseille","lat":43.26221,"lon":5.37222,"is_reserved":false,"is_disabled":true,"rental_uris":{"android":"levelo://app?vid=faeeed3d-e1ea-42b2-8154-c03c65ca9361","ios":"levelo://app?vid=faeeed3d-e1ea-42b2-8154-c03c65ca9361"},"vehicle_type_id":"4","last_reported":1734268596,"current_range_meters":0,"station_id":"","pricing_plan_id":"cebpf4jnsgd1na2vs0mg"},{"bike_id":"4b241c9d-5589-45b9-b6c0-48b4eab39e73","system_id":"levelo_inurba_marseille","lat":43.2685,"lon":5.40959,"is_reserved":false,"is_disabled":false,"rental_uris":{"android":"levelo://app?vid=4b241c9d-5589-45b9-b6c0-48b4eab39e73","ios":"levelo://app?vid=4b241c9d-5589-45b9-b6c0-48b4eab39e73"},"vehicle_type_id":"4","last_reported":1734268596,"current_range_meters":18800,"station_id":"","pricing_plan_id":"cebpf4jnsgd1na2vs0mg"},{"bike_id":"e89452f8-ef25-403b-97fa-e78209681bfe","system_id":"levelo_inurba_marseille","lat":43.30153,"lon":5.38086,"is_reserved":false,"is_disabled":false,"rental_uris":{"android":"levelo://app?vid=e89452f8-ef25-403b-97fa-e78209681bfe","ios":"levelo://app?vid=e89452f8-ef25-403b-97fa-e78209681bfe"},"vehicle_type_id":"4","last_reported":1734268596,"current_range_meters":38800,"station_id":"ce4bgjp2rcd13ifvqbh0","pricing_plan_id":"cebpf4jnsgd1na2vs0mg"},{"bike_id":"5efe5aba-da92-49f9-8b00-b94af32f7da6","system_id":"levelo_inurba_marseille","lat":43.23976,"lon":5.3661,"is_reserved":false,"is_disabled":true,"rental_uris":{"android":"levelo://app?vid=5efe5aba-da92-49f9-8b00-b94af32f7da6","ios":"levelo://app?vid=5efe5aba-da92-49f9-8b00-b94af32f7da6"},"vehicle_type_id":"4","last_reported":1734268596,"current_range_meters":0,"station_id":"ce4bhi12rcd13ifvqfp0","pricing_plan_id":"cebpf4jnsgd1na2vs0mg"},{"bike_id":"299cdfa7-55ab-45de-8dbe-4f564308fa76","system_id":"levelo_inurba_marseille","lat":43.28464,"lon":5.358817,"is_reserved":false,"is_disabled":false,"rental_uris":{"android":"levelo://app?vid=299cdfa7-55ab-45de-8dbe-4f564308fa76","ios":"levelo://app?vid=299cdfa7-55ab-45de-8dbe-4f564308fa76"},"vehicle_type_id":"4","last_reported":1734268596,"current_range_meters":34000,"station_id":"ce4bhah2rcd13ifvqei0","pricing_plan_id":"cebpf4jnsgd1na2vs0mg"},{"bike_id":"e3ce1f04-3f88-431a-ab9f-947d6e2f270c","system_id":"levelo_inurba_marseille","lat":43.33715,"lon":5.39186,"is_reserved":false,"is_disabled":false,"rental_uris":{"android":"levelo://app?vid=e3ce1f04-3f88-431a-ab9f-947d6e2f270c","ios":"levelo://app?vid=e3ce1f04-3f88-431a-ab9f-947d6e2f270c"},"vehicle_type_id":"4","last_reported":1734268596,"current_range_meters":38800,"station_id":"ce4bhr92rcd13ifvqhsg","pricing_plan_id":"cebpf4jnsgd1na2vs0mg"},{"bike_id":"a5a67bdb-06a7-4ca1-b7d3-32473ebbdf1f","system_id":"levelo_inurba_marseille","lat":43.31326,"lon":5.39699,"is_reserved":false,"is_disabled":false,"rental_uris":{"android":"levelo://app?vid=a5a67bdb-06a7-4ca1-b7d3-32473ebbdf1f","ios":"levelo://app?vid=a5a67bdb-06a7-4ca1-b7d3-32473ebbdf1f"},"vehicle_type_id":"4","last_reported":1734268596,"current_range_meters":31200,"station_id":"ce4bgvp2rcd13ifvqcu0","pricing_plan_id":"cebpf4jnsgd1na2vs0mg"},{"bike_id":"6d157910-8e59-40d9-a3cf-98d0cf7a78c1","system_id":"levelo_inurba_marseille","lat":43.26199,"lon":5.37932,"is_reserved":false,"is_disabled":false,"rental_uris":{"android":"levelo://app?vid=6d157910-8e59-40d9-a3cf-98d0cf7a78c1","ios":"levelo://app?vid=6d157910-8e59-40d9-a3cf-98d0cf7a78c1"},"vehicle_type_id":"4","last_reported":1734268596,"current_range_meters":6800,"station_id":"ce4bhjp2rcd13ifvqg90","pricing_plan_id":"cebpf4jnsgd1na2vs0mg"},{"bike_id":"6e3c1b3f-1791-4f04-b144-a895d981e33d","system_id":"levelo_inurba_marseille","lat":43.29726,"lon":5.36792,"is_reserved":false,"is_disabled":false,"rental_uris":{"android":"levelo://app?vid=6e3c1b3f-1791-4f04-b144-a895d981e33d","ios":"levelo://app?vid=6e3c1b3f-1791-4f04-b144-a895d981e33d"},"vehicle_type_id":"4","last_reported":1734268596,"current_range_meters":34000,"station_id":"ce4bgop2rcd13ifvqc1g","pricing_plan_id":"cebpf4jnsgd1na2vs0mg"},{"bike_id":"e1f14668-b3cd-4486-857f-047dd0525de8","system_id":"levelo_inurba_marseille","lat":43.28932,"lon":5.36622,"is_reserved":false,"is_disabled":true,"rental_uris":{"android":"levelo://app?vid=e1f14668-b3cd-4486-857f-047dd0525de8","ios":"levelo://app?vid=e1f14668-b3cd-4486-857f-047dd0525de8"},"vehicle_type_id":"4","last_reported":1734268596,"current_range_meters":26000,"station_id":"ce4bhap2rcd13ifvqek0","pricing_plan_id":"cebpf4jnsgd1na2vs0mg"},{"bike_id":"2256d0c9-fd6c-49ff-b42c-53026216c040","system_id":"levelo_inurba_marseille","lat":43.298517,"lon":5.383903,"is_reserved":false,"is_disabled":true,"rental_uris":{"android":"levelo://app?vid=2256d0c9-fd6c-49ff-b42c-53026216c040","ios":"levelo://app?vid=2256d0c9-fd6c-49ff-b42c-53026216c040"},"vehicle_type_id":"4","last_reported":1734268596,"current_range_meters":28000,"station_id":"","pricing_plan_id":"cebpf4jnsgd1na2vs0mg"},{"bike_id":"edaea664-24e0-4d6c-aa7a-497f5c5f88f6","system_id":"levelo_inurba_marseille","lat":43.270095,"lon":5.391295,"is_reserved":false,"is_disabled":true,"rental_uris":{"android":"levelo://app?vid=edaea664-24e0-4d6c-aa7a-497f5c5f88f6","ios":"levelo://app?vid=edaea664-24e0-4d6c-aa7a-497f5c5f88f6"},"vehicle_type_id":"4","last_reported":1734268596,"current_range_meters":0,"station_id":"","pricing_plan_id":"cebpf4jnsgd1na2vs0mg"},{"bike_id":"1e246c7e-2ba4-4b43-9b4f-3da373271ed2","system_id":"levelo_inurba_marseille","lat":43.29058,"lon":5.37171,"is_reserved":false,"is_disabled":false,"rental_uris":{"android":"levelo://app?vid=1e246c7e-2ba4-4b43-9b4f-3da373271ed2","ios":"levelo://app?vid=1e246c7e-2ba4-4b43-9b4f-3da373271ed2"},"vehicle_type_id":"4","last_reported":1734268596,"current_range_meters":38800,"station_id":"ce4bh5p2rcd13ifvqe4g","pricing_plan_id":"cebpf4jnsgd1na2vs0mg"},{"bike_id":"62852010-d794-4585-b046-38d701fb2b7c","system_id":"levelo_inurba_marseille","lat":43.26804,"lon":5.3942,"is_reserved":false,"is_disabled":false,"rental_uris":{"android":"levelo://app?vid=62852010-d794-4585-b046-38d701fb2b7c","ios":"levelo://app?vid=62852010-d794-4585-b046-38d701fb2b7c"},"vehicle_type_id":"4","last_reported":1734268596,"current_range_meters":39200,"station_id":"ce4bhh12rcd13ifvqfg0","pricing_plan_id":"cebpf4jnsgd1na2vs0mg"},{"bike_id":"5d983560-16d4-42f7-bac5-b9446176c435","system_id":"levelo_inurba_marseille","lat":43.23189,"lon":5.35557,"is_reserved":false,"is_disabled":false,"rental_uris":{"android":"levelo://app?vid=5d983560-16d4-42f7-bac5-b9446176c435","ios":"levelo://app?vid=5d983560-16d4-42f7-bac5-b9446176c435"},"vehicle_type_id":"4","last_reported":1734268596,"current_range_meters":36800,"station_id":"ce4bhu92rcd13ifvqi70","pricing_plan_id":"cebpf4jnsgd1na2vs0mg"},{"bike_id":"5b2de5d1-4c86-465e-a0a9-d1a38cdb3b93","system_id":"levelo_inurba_marseille","lat":43.30458,"lon":5.37919,"is_reserved":false,"is_disabled":false,"rental_uris":{"android":"levelo://app?vid=5b2de5d1-4c86-465e-a0a9-d1a38cdb3b93","ios":"levelo://app?vid=5b2de5d1-4c86-465e-a0a9-d1a38cdb3b93"},"vehicle_type_id":"4","last_reported":1734268596,"current_range_meters":38000,"station_id":"ce4bgup2rcd13ifvqcn0","pricing_plan_id":"cebpf4jnsgd1na2vs0mg"},{"bike_id":"003e2502-37d2-40d7-904d-0df91700782c","system_id":"levelo_inurba_marseille","lat":43.31226,"lon":5.36858,"is_reserved":false,"is_disabled":false,"rental_uris":{"android":"levelo://app?vid=003e2502-37d2-40d7-904d-0df91700782c","ios":"levelo://app?vid=003e2502-37d2-40d7-904d-0df91700782c"},"vehicle_type_id":"4","last_reported":1734268596,"current_range_meters":38800,"station_id":"ce4bgl92rcd13ifvqbq0","pricing_plan_id":"cebpf4jnsgd1na2vs0mg"},{"bike_id":"50eb77ea-fe6d-4257-a6c7-9b7af911689e","system_id":"levelo_inurba_marseille","lat":43.27368,"lon":5.36265,"is_reserved":false,"is_disabled":false,"rental_uris":{"android":"levelo://app?vid=50eb77ea-fe6d-4257-a6c7-9b7af911689e","ios":"levelo://app?vid=50eb77ea-fe6d-4257-a6c7-9b7af911689e"},"vehicle_type_id":"4","last_reported":1734268596,"current_range_meters":8800,"station_id":"ce4bhbh2rcd13ifvqeo0","pricing_plan_id":"cebpf4jnsgd1na2vs0mg"},{"bike_id":"38b7cac6-4732-438c-8bb3-3d7a8d2e006a","system_id":"levelo_inurba_marseille","lat":43.29551,"lon":5.42297,"is_reserved":false,"is_disabled":false,"rental_uris":{"android":"levelo://app?vid=38b7cac6-4732-438c-8bb3-3d7a8d2e006a","ios":"levelo://app?vid=38b7cac6-4732-438c-8bb3-3d7a8d2e006a"},"vehicle_type_id":"4","last_reported":1734268596,"current_range_meters":24400,"station_id":"ce4bhph2rcd13ifvqhdg","pricing_plan_id":"cebpf4jnsgd1na2vs0mg"},{"bike_id":"ba6abc17-2a1f-45c6-8711-b118d10bc680","system_id":"levelo_inurba_marseille","lat":43.28933,"lon":5.36408,"is_reserved":false,"is_disabled":false,"rental_uris":{"android":"levelo://app?vid=ba6abc17-2a1f-45c6-8711-b118d10bc680","ios":"levelo://app?vid=ba6abc17-2a1f-45c6-8711-b118d10bc680"},"vehicle_type_id":"4","last_reported":1734268596,"current_range_meters":30800,"station_id":"ce4bhc92rcd13ifvqetg","pricing_plan_id":"cebpf4jnsgd1na2vs0mg"},{"bike_id":"5424b849-efe9-41ca-a5bb-60034b566fc7","system_id":"levelo_inurba_marseille","lat":43.24689,"lon":5.38136,"is_reserved":false,"is_disabled":false,"rental_uris":{"android":"levelo://app?vid=5424b849-efe9-41ca-a5bb-60034b566fc7","ios":"levelo://app?vid=5424b849-efe9-41ca-a5bb-60034b566fc7"},"vehicle_type_id":"4","last_reported":1734268596,"current_range_meters":37600,"station_id":"ce4bhih2rcd13ifvqfr0","pricing_plan_id":"cebpf4jnsgd1na2vs0mg"},{"bike_id":"a248f6cc-82f3-4e75-a343-5582d9b4c2e1","system_id":"levelo_inurba_marseille","lat":43.31537,"lon":5.38032,"is_reserved":false,"is_disabled":false,"rental_uris":{"android":"levelo://app?vid=a248f6cc-82f3-4e75-a343-5582d9b4c2e1","ios":"levelo://app?vid=a248f6cc-82f3-4e75-a343-5582d9b4c2e1"},"vehicle_type_id":"4","last_reported":1734268596,"current_range_meters":26800,"station_id":"ce4bhsp2rcd13ifvqi50","pricing_plan_id":"cebpf4jnsgd1na2vs0mg"},{"bike_id":"5be78cc2-d386-42ea-a601-8ec47460ad21","system_id":"levelo_inurba_marseille","lat":43.2408,"lon":5.37733,"is_reserved":false,"is_disabled":false,"rental_uris":{"android":"levelo://app?vid=5be78cc2-d386-42ea-a601-8ec47460ad21","ios":"levelo://app?vid=5be78cc2-d386-42ea-a601-8ec47460ad21"},"vehicle_type_id":"4","last_reported":1734268596,"current_range_meters":37600,"station_id":"ce4bhnp2rcd13ifvqgvg","pricing_plan_id":"cebpf4jnsgd1na2vs0mg"},{"bike_id":"d37bc799-1325-482f-87e0-ea0c6385e45d","system_id":"levelo_inurba_marseille","lat":43.26938,"lon":5.40248,"is_reserved":false,"is_disabled":false,"rental_uris":{"android":"levelo://app?vid=d37bc799-1325-482f-87e0-ea0c6385e45d","ios":"levelo://app?vid=d37bc799-1325-482f-87e0-ea0c6385e45d"},"vehicle_type_id":"4","last_reported":1734268596,"current_range_meters":26000,"station_id":"cjm6bp8fraef2m0cb0m0","pricing_plan_id":"cebpf4jnsgd1na2vs0mg"},{"bike_id":"c20ca1c8-2c9b-4fa1-9d36-a94052cd0486","system_id":"levelo_inurba_marseille","lat":43.25488,"lon":5.37653,"is_reserved":false,"is_disabled":false,"rental_uris":{"android":"levelo://app?vid=c20ca1c8-2c9b-4fa1-9d36-a94052cd0486","ios":"levelo://app?vid=c20ca1c8-2c9b-4fa1-9d36-a94052cd0486"},"vehicle_type_id":"4","last_reported":1734268596,"current_range_meters":24400,"station_id":"ce4bhh12rcd13ifvqff0","pricing_plan_id":"cebpf4jnsgd1na2vs0mg"},{"bike_id":"acbcde12-a713-467d-b7cd-6fb02320f61f","system_id":"levelo_inurba_marseille","lat":43.28475,"lon":5.38419,"is_reserved":false,"is_disabled":true,"rental_uris":{"android":"levelo://app?vid=acbcde12-a713-467d-b7cd-6fb02320f61f","ios":"levelo://app?vid=acbcde12-a713-467d-b7cd-6fb02320f61f"},"vehicle_type_id":"4","last_reported":1734268596,"current_range_meters":38800,"station_id":"ce4bh512rcd13ifvqe3g","pricing_plan_id":"cebpf4jnsgd1na2vs0mg"},{"bike_id":"fd4efec3-03a9-456d-9f3e-04aeb194cc68","system_id":"levelo_inurba_marseille","lat":43.25813,"lon":5.39445,"is_reserved":false,"is_disabled":false,"rental_uris":{"android":"levelo://app?vid=fd4efec3-03a9-456d-9f3e-04aeb194cc68","ios":"levelo://app?vid=fd4efec3-03a9-456d-9f3e-04aeb194cc68"},"vehicle_type_id":"4","last_reported":1734268596,"current_range_meters":30000,"station_id":"ce4bhip2rcd13ifvqft0","pricing_plan_id":"cebpf4jnsgd1na2vs0mg"},{"bike_id":"83d159f2-2074-4b49-a64e-139cb67cce6f","system_id":"levelo_inurba_marseille","lat":43.3015,"lon":5.3809,"is_reserved":false,"is_disabled":false,"rental_uris":{"android":"levelo://app?vid=83d159f2-2074-4b49-a64e-139cb67cce6f","ios":"levelo://app?vid=83d159f2-2074-4b49-a64e-139cb67cce6f"},"vehicle_type_id":"4","last_reported":1734268596,"current_range_meters":18000,"station_id":"ce4bgjp2rcd13ifvqbh0","pricing_plan_id":"cebpf4jnsgd1na2vs0mg"},{"bike_id":"7482f887-7952-4f02-a5dc-546e954acfc6","system_id":"levelo_inurba_marseille","lat":43.29417,"lon":5.38638,"is_reserved":false,"is_disabled":true,"rental_uris":{"android":"levelo://app?vid=7482f887-7952-4f02-a5dc-546e954acfc6","ios":"levelo://app?vid=7482f887-7952-4f02-a5dc-546e954acfc6"},"vehicle_type_id":"4","last_reported":1734268596,"current_range_meters":4400,"station_id":"ce4bh2h2rcd13ifvqdh0","pricing_plan_id":"cebpf4jnsgd1na2vs0mg"},{"bike_id":"e819ae6a-d2ca-4fed-a607-5b91827a0819","system_id":"levelo_inurba_marseille","lat":43.23197,"lon":5.35548,"is_reserved":false,"is_disabled":false,"rental_uris":{"android":"levelo://app?vid=e819ae6a-d2ca-4fed-a607-5b91827a0819","ios":"levelo://app?vid=e819ae6a-d2ca-4fed-a607-5b91827a0819"},"vehicle_type_id":"4","last_reported":1734268596,"current_range_meters":30800,"station_id":"ce4bhu92rcd13ifvqi70","pricing_plan_id":"cebpf4jnsgd1na2vs0mg"},{"bike_id":"c3bfecdf-9615-4d7f-833b-6813e072b57c","system_id":"levelo_inurba_marseille","lat":43.26203,"lon":5.37932,"is_reserved":false,"is_disabled":false,"rental_uris":{"android":"levelo://app?vid=c3bfecdf-9615-4d7f-833b-6813e072b57c","ios":"levelo://app?vid=c3bfecdf-9615-4d7f-833b-6813e072b57c"},"vehicle_type_id":"4","last_reported":1734268596,"current_range_meters":27600,"station_id":"ce4bhjp2rcd13ifvqg90","pricing_plan_id":"cebpf4jnsgd1na2vs0mg"},{"bike_id":"98f3e042-5c2d-4cf2-8393-1bc4bd6d614a","system_id":"levelo_inurba_marseille","lat":43.32654,"lon":5.40998,"is_reserved":false,"is_disabled":false,"rental_uris":{"android":"levelo://app?vid=98f3e042-5c2d-4cf2-8393-1bc4bd6d614a","ios":"levelo://app?vid=98f3e042-5c2d-4cf2-8393-1bc4bd6d614a"},"vehicle_type_id":"4","last_reported":1734268596,"current_range_meters":38400,"station_id":"ce4bhpp2rcd13ifvqhgg","pricing_plan_id":"cebpf4jnsgd1na2vs0mg"},{"bike_id":"2fde2325-c422-42fb-bd6a-b015a704ab42","system_id":"levelo_inurba_marseille","lat":43.25107,"lon":5.40329,"is_reserved":false,"is_disabled":false,"rental_uris":{"android":"levelo://app?vid=2fde2325-c422-42fb-bd6a-b015a704ab42","ios":"levelo://app?vid=2fde2325-c422-42fb-bd6a-b015a704ab42"},"vehicle_type_id":"4","last_reported":1734268596,"current_range_meters":38800,"station_id":"ce4bhlh2rcd13ifvqgig","pricing_plan_id":"cebpf4jnsgd1na2vs0mg"},{"bike_id":"15af8c36-3771-4012-81da-7dbbb0bd6fa2","system_id":"levelo_inurba_marseille","lat":43.30771,"lon":5.37664,"is_reserved":false,"is_disabled":false,"rental_uris":{"android":"levelo://app?vid=15af8c36-3771-4012-81da-7dbbb0bd6fa2","ios":"levelo://app?vid=15af8c36-3771-4012-81da-7dbbb0bd6fa2"},"vehicle_type_id":"4","last_reported":1734268596,"current_range_meters":27200,"station_id":"ce4bgv92rcd13ifvqcq0","pricing_plan_id":"cebpf4jnsgd1na2vs0mg"},{"bike_id":"9716877b-0e94-40f0-b733-374c0c9f3f74","system_id":"levelo_inurba_marseille","lat":43.29781,"lon":5.37097,"is_reserved":false,"is_disabled":false,"rental_uris":{"android":"levelo://app?vid=9716877b-0e94-40f0-b733-374c0c9f3f74","ios":"levelo://app?vid=9716877b-0e94-40f0-b733-374c0c9f3f74"},"vehicle_type_id":"4","last_reported":1734268596,"current_range_meters":11200,"station_id":"ce4bgop2rcd13ifvqc1g","pricing_plan_id":"cebpf4jnsgd1na2vs0mg"},{"bike_id":"c1bb0178-ee97-4941-a31d-6ed3fdcdf1d3","system_id":"levelo_inurba_marseille","lat":43.30458,"lon":5.37904,"is_reserved":false,"is_disabled":false,"rental_uris":{"android":"levelo://app?vid=c1bb0178-ee97-4941-a31d-6ed3fdcdf1d3","ios":"levelo://app?vid=c1bb0178-ee97-4941-a31d-6ed3fdcdf1d3"},"vehicle_type_id":"4","last_reported":1734268596,"current_range_meters":38800,"station_id":"ce4bgup2rcd13ifvqcn0","pricing_plan_id":"cebpf4jnsgd1na2vs0mg"},{"bike_id":"994bbbdd-28a3-4783-933e-04628d6b9262","system_id":"levelo_inurba_marseille","lat":43.2886,"lon":5.39321,"is_reserved":false,"is_disabled":true,"rental_uris":{"android":"levelo://app?vid=994bbbdd-28a3-4783-933e-04628d6b9262","ios":"levelo://app?vid=994bbbdd-28a3-4783-933e-04628d6b9262"},"vehicle_type_id":"4","last_reported":1734268596,"current_range_meters":36800,"station_id":"ce4bh2p2rcd13ifvqdi0","pricing_plan_id":"cebpf4jnsgd1na2vs0mg"},{"bike_id":"ae0bdd7b-187c-409c-b2b3-37aac32d4db3","system_id":"levelo_inurba_marseille","lat":43.32359,"lon":5.36758,"is_reserved":false,"is_disabled":false,"rental_uris":{"android":"levelo://app?vid=ae0bdd7b-187c-409c-b2b3-37aac32d4db3","ios":"levelo://app?vid=ae0bdd7b-187c-409c-b2b3-37aac32d4db3"},"vehicle_type_id":"4","last_reported":1734268596,"current_range_meters":36000,"station_id":"ce4bhsh2rcd13ifvqi2g","pricing_plan_id":"cebpf4jnsgd1na2vs0mg"},{"bike_id":"59b259af-328b-4a37-b1cb-eeec53772a2b","system_id":"levelo_inurba_marseille","lat":43.30896,"lon":5.36125,"is_reserved":false,"is_disabled":false,"rental_uris":{"android":"levelo://app?vid=59b259af-328b-4a37-b1cb-eeec53772a2b","ios":"levelo://app?vid=59b259af-328b-4a37-b1cb-eeec53772a2b"},"vehicle_type_id":"4","last_reported":1734268596,"current_range_meters":38800,"station_id":"ce4bgrp2rcd13ifvqc9g","pricing_plan_id":"cebpf4jnsgd1na2vs0mg"},{"bike_id":"9ad311dd-c450-4f09-933a-ef53d4559dc3","system_id":"levelo_inurba_marseille","lat":43.26979,"lon":5.39884,"is_reserved":false,"is_disabled":false,"rental_uris":{"android":"levelo://app?vid=9ad311dd-c450-4f09-933a-ef53d4559dc3","ios":"levelo://app?vid=9ad311dd-c450-4f09-933a-ef53d4559dc3"},"vehicle_type_id":"4","last_reported":1734268596,"current_range_meters":22800,"station_id":"","pricing_plan_id":"cebpf4jnsgd1na2vs0mg"},{"bike_id":"b4eea49a-f17f-41c2-b30b-7d27c300bbf1","system_id":"levelo_inurba_marseille","lat":43.304582,"lon":5.37902,"is_reserved":false,"is_disabled":false,"rental_uris":{"android":"levelo://app?vid=b4eea49a-f17f-41c2-b30b-7d27c300bbf1","ios":"levelo://app?vid=b4eea49a-f17f-41c2-b30b-7d27c300bbf1"},"vehicle_type_id":"4","last_reported":1734268596,"current_range_meters":27200,"station_id":"ce4bgup2rcd13ifvqcn0","pricing_plan_id":"cebpf4jnsgd1na2vs0mg"},{"bike_id":"37456efc-92e9-4863-91c7-bd4d94a41119","system_id":"levelo_inurba_marseille","lat":43.28494,"lon":5.40179,"is_reserved":false,"is_disabled":false,"rental_uris":{"android":"levelo://app?vid=37456efc-92e9-4863-91c7-bd4d94a41119","ios":"levelo://app?vid=37456efc-92e9-4863-91c7-bd4d94a41119"},"vehicle_type_id":"4","last_reported":1734268596,"current_range_meters":8800,"station_id":"","pricing_plan_id":"cebpf4jnsgd1na2vs0mg"},{"bike_id":"3b25d107-763f-452c-bff7-9c41a7a92142","system_id":"levelo_inurba_marseille","lat":43.29892,"lon":5.43666,"is_reserved":false,"is_disabled":false,"rental_uris":{"android":"levelo://app?vid=3b25d107-763f-452c-bff7-9c41a7a92142","ios":"levelo://app?vid=3b25d107-763f-452c-bff7-9c41a7a92142"},"vehicle_type_id":"4","last_reported":1734268596,"current_range_meters":16000,"station_id":"ce4bhpp2rcd13ifvqhfg","pricing_plan_id":"cebpf4jnsgd1na2vs0mg"},{"bike_id":"4e65a034-df43-445b-b411-96d0c9702f35","system_id":"levelo_inurba_marseille","lat":43.25566,"lon":5.38247,"is_reserved":false,"is_disabled":false,"rental_uris":{"android":"levelo://app?vid=4e65a034-df43-445b-b411-96d0c9702f35","ios":"levelo://app?vid=4e65a034-df43-445b-b411-96d0c9702f35"},"vehicle_type_id":"4","last_reported":1734268596,"current_range_meters":10800,"station_id":"ce4bhih2rcd13ifvqfs0","pricing_plan_id":"cebpf4jnsgd1na2vs0mg"},{"bike_id":"af67ac53-ba21-4ff0-8334-95679e9ff2cc","system_id":"levelo_inurba_marseille","lat":43.278805,"lon":5.388003,"is_reserved":false,"is_disabled":true,"rental_uris":{"android":"levelo://app?vid=af67ac53-ba21-4ff0-8334-95679e9ff2cc","ios":"levelo://app?vid=af67ac53-ba21-4ff0-8334-95679e9ff2cc"},"vehicle_type_id":"4","last_reported":1734268596,"current_range_meters":0,"station_id":"","pricing_plan_id":"cebpf4jnsgd1na2vs0mg"},{"bike_id":"b06ba60e-8ae5-4afa-9596-3b4b008791ef","system_id":"levelo_inurba_marseille","lat":43.26497,"lon":5.3955,"is_reserved":false,"is_disabled":false,"rental_uris":{"android":"levelo://app?vid=b06ba60e-8ae5-4afa-9596-3b4b008791ef","ios":"levelo://app?vid=b06ba60e-8ae5-4afa-9596-3b4b008791ef"},"vehicle_type_id":"4","last_reported":1734268596,"current_range_meters":38800,"station_id":"ce4bhi12rcd13ifvqfq0","pricing_plan_id":"cebpf4jnsgd1na2vs0mg"},{"bike_id":"89c20690-3a71-4391-a415-c706bbf2192b","system_id":"levelo_inurba_marseille","lat":43.2509,"lon":5.39512,"is_reserved":false,"is_disabled":false,"rental_uris":{"android":"levelo://app?vid=89c20690-3a71-4391-a415-c706bbf2192b","ios":"levelo://app?vid=89c20690-3a71-4391-a415-c706bbf2192b"},"vehicle_type_id":"4","last_reported":1734268596,"current_range_meters":18800,"station_id":"ce4bhm12rcd13ifvqgkg","pricing_plan_id":"cebpf4jnsgd1na2vs0mg"},{"bike_id":"a1646859-c01a-4acf-9da8-f1ee179a778f","system_id":"levelo_inurba_marseille","lat":43.30072,"lon":5.39108,"is_reserved":false,"is_disabled":true,"rental_uris":{"android":"levelo://app?vid=a1646859-c01a-4acf-9da8-f1ee179a778f","ios":"levelo://app?vid=a1646859-c01a-4acf-9da8-f1ee179a778f"},"vehicle_type_id":"4","last_reported":1734268596,"current_range_meters":16800,"station_id":"ce4bh192rcd13ifvqdb0","pricing_plan_id":"cebpf4jnsgd1na2vs0mg"},{"bike_id":"3fac2257-e204-4b80-991a-e14243ef9f57","system_id":"levelo_inurba_marseille","lat":43.27368,"lon":5.36261,"is_reserved":false,"is_disabled":false,"rental_uris":{"android":"levelo://app?vid=3fac2257-e204-4b80-991a-e14243ef9f57","ios":"levelo://app?vid=3fac2257-e204-4b80-991a-e14243ef9f57"},"vehicle_type_id":"4","last_reported":1734268596,"current_range_meters":35200,"station_id":"ce4bhbh2rcd13ifvqeo0","pricing_plan_id":"cebpf4jnsgd1na2vs0mg"},{"bike_id":"7677704a-55e0-41b1-8fbb-2a6514bbb9ae","system_id":"levelo_inurba_marseille","lat":43.27369,"lon":5.36259,"is_reserved":false,"is_disabled":false,"rental_uris":{"android":"levelo://app?vid=7677704a-55e0-41b1-8fbb-2a6514bbb9ae","ios":"levelo://app?vid=7677704a-55e0-41b1-8fbb-2a6514bbb9ae"},"vehicle_type_id":"4","last_reported":1734268596,"current_range_meters":36000,"station_id":"ce4bhbh2rcd13ifvqeo0","pricing_plan_id":"cebpf4jnsgd1na2vs0mg"},{"bike_id":"fc43bfe3-9f6d-4964-8d03-4526a28744ff","system_id":"levelo_inurba_marseille","lat":43.23961,"lon":5.36636,"is_reserved":false,"is_disabled":false,"rental_uris":{"android":"levelo://app?vid=fc43bfe3-9f6d-4964-8d03-4526a28744ff","ios":"levelo://app?vid=fc43bfe3-9f6d-4964-8d03-4526a28744ff"},"vehicle_type_id":"4","last_reported":1734268596,"current_range_meters":38800,"station_id":"ce4bhi12rcd13ifvqfp0","pricing_plan_id":"cebpf4jnsgd1na2vs0mg"},{"bike_id":"cb7a8afa-07d0-4673-aecd-79851ac2b871","system_id":"levelo_inurba_marseille","lat":43.28149,"lon":5.4264,"is_reserved":false,"is_disabled":false,"rental_uris":{"android":"levelo://app?vid=cb7a8afa-07d0-4673-aecd-79851ac2b871","ios":"levelo://app?vid=cb7a8afa-07d0-4673-aecd-79851ac2b871"},"vehicle_type_id":"4","last_reported":1734268596,"current_range_meters":33600,"station_id":"ce4bhnh2rcd13ifvqgug","pricing_plan_id":"cebpf4jnsgd1na2vs0mg"},{"bike_id":"ad9e0e56-b232-4761-8766-3140462fc53b","system_id":"levelo_inurba_marseille","lat":43.26544,"lon":5.37298,"is_reserved":false,"is_disabled":true,"rental_uris":{"android":"levelo://app?vid=ad9e0e56-b232-4761-8766-3140462fc53b","ios":"levelo://app?vid=ad9e0e56-b232-4761-8766-3140462fc53b"},"vehicle_type_id":"4","last_reported":1734268596,"current_range_meters":27200,"station_id":"ce4bhg12rcd13ifvqf70","pricing_plan_id":"cebpf4jnsgd1na2vs0mg"},{"bike_id":"d65fcea9-51ba-41f0-86fd-e798dfdd6f09","system_id":"levelo_inurba_marseille","lat":43.28726,"lon":5.38285,"is_reserved":false,"is_disabled":true,"rental_uris":{"android":"levelo://app?vid=d65fcea9-51ba-41f0-86fd-e798dfdd6f09","ios":"levelo://app?vid=d65fcea9-51ba-41f0-86fd-e798dfdd6f09"},"vehicle_type_id":"4","last_reported":1734268596,"current_range_meters":0,"station_id":"","pricing_plan_id":"cebpf4jnsgd1na2vs0mg"},{"bike_id":"656d8740-9b85-4a93-86ce-9d32a0e761f7","system_id":"levelo_inurba_marseille","lat":43.31068,"lon":5.383563,"is_reserved":false,"is_disabled":true,"rental_uris":{"android":"levelo://app?vid=656d8740-9b85-4a93-86ce-9d32a0e761f7","ios":"levelo://app?vid=656d8740-9b85-4a93-86ce-9d32a0e761f7"},"vehicle_type_id":"4","last_reported":1734268596,"current_range_meters":25600,"station_id":"ce4bgv92rcd13ifvqcr0","pricing_plan_id":"cebpf4jnsgd1na2vs0mg"},{"bike_id":"30b09c14-5db6-4bdd-8ec0-8d8fd355bef3","system_id":"levelo_inurba_marseille","lat":43.29893,"lon":5.39771,"is_reserved":false,"is_disabled":true,"rental_uris":{"android":"levelo://app?vid=30b09c14-5db6-4bdd-8ec0-8d8fd355bef3","ios":"levelo://app?vid=30b09c14-5db6-4bdd-8ec0-8d8fd355bef3"},"vehicle_type_id":"4","last_reported":1734268596,"current_range_meters":2000,"station_id":"ce4bh0h2rcd13ifvqd50","pricing_plan_id":"cebpf4jnsgd1na2vs0mg"},{"bike_id":"f08c808c-af08-40b8-81c3-97739c995b77","system_id":"levelo_inurba_marseille","lat":43.31187,"lon":5.38565,"is_reserved":false,"is_disabled":true,"rental_uris":{"android":"levelo://app?vid=f08c808c-af08-40b8-81c3-97739c995b77","ios":"levelo://app?vid=f08c808c-af08-40b8-81c3-97739c995b77"},"vehicle_type_id":"4","last_reported":1734268596,"current_range_meters":28400,"station_id":"ce4bgv12rcd13ifvqcp0","pricing_plan_id":"cebpf4jnsgd1na2vs0mg"},{"bike_id":"86970bbe-b814-43c9-89a2-85f507f309fa","system_id":"levelo_inurba_marseille","lat":43.30534,"lon":5.38435,"is_reserved":false,"is_disabled":true,"rental_uris":{"android":"levelo://app?vid=86970bbe-b814-43c9-89a2-85f507f309fa","ios":"levelo://app?vid=86970bbe-b814-43c9-89a2-85f507f309fa"},"vehicle_type_id":"4","last_reported":1734268596,"current_range_meters":4400,"station_id":"ce4bgg92rcd13ifvqb30","pricing_plan_id":"cebpf4jnsgd1na2vs0mg"},{"bike_id":"71a7af00-e896-4216-9238-20990fec1802","system_id":"levelo_inurba_marseille","lat":43.32539,"lon":5.41418,"is_reserved":false,"is_disabled":false,"rental_uris":{"android":"levelo://app?vid=71a7af00-e896-4216-9238-20990fec1802","ios":"levelo://app?vid=71a7af00-e896-4216-9238-20990fec1802"},"vehicle_type_id":"4","last_reported":1734268596,"current_range_meters":30000,"station_id":"ce4bhq12rcd13ifvqhhg","pricing_plan_id":"cebpf4jnsgd1na2vs0mg"},{"bike_id":"96969163-05be-4d1c-a728-67794615bdfc","system_id":"levelo_inurba_marseille","lat":43.29003,"lon":5.389993,"is_reserved":false,"is_disabled":false,"rental_uris":{"android":"levelo://app?vid=96969163-05be-4d1c-a728-67794615bdfc","ios":"levelo://app?vid=96969163-05be-4d1c-a728-67794615bdfc"},"vehicle_type_id":"4","last_reported":1734268596,"current_range_meters":16000,"station_id":"","pricing_plan_id":"cebpf4jnsgd1na2vs0mg"},{"bike_id":"64203de9-e72b-4d66-9a84-7a315c7ed37f","system_id":"levelo_inurba_marseille","lat":43.29473,"lon":5.37367,"is_reserved":false,"is_disabled":true,"rental_uris":{"android":"levelo://app?vid=64203de9-e72b-4d66-9a84-7a315c7ed37f","ios":"levelo://app?vid=64203de9-e72b-4d66-9a84-7a315c7ed37f"},"vehicle_type_id":"4","last_reported":1734268596,"current_range_meters":0,"station_id":"","pricing_plan_id":"cebpf4jnsgd1na2vs0mg"},{"bike_id":"43a2fa1d-314c-4a4d-b7c9-aa2f198eb73b","system_id":"levelo_inurba_marseille","lat":43.30142,"lon":5.38781,"is_reserved":false,"is_disabled":true,"rental_uris":{"android":"levelo://app?vid=43a2fa1d-314c-4a4d-b7c9-aa2f198eb73b","ios":"levelo://app?vid=43a2fa1d-314c-4a4d-b7c9-aa2f198eb73b"},"vehicle_type_id":"4","last_reported":1734268596,"current_range_meters":30000,"station_id":"ce4bghh2rcd13ifvqb60","pricing_plan_id":"cebpf4jnsgd1na2vs0mg"},{"bike_id":"f40a8800-0282-4e19-ba2d-6a4b73090705","system_id":"levelo_inurba_marseille","lat":43.2868,"lon":5.38652,"is_reserved":false,"is_disabled":true,"rental_uris":{"android":"levelo://app?vid=f40a8800-0282-4e19-ba2d-6a4b73090705","ios":"levelo://app?vid=f40a8800-0282-4e19-ba2d-6a4b73090705"},"vehicle_type_id":"4","last_reported":1734268596,"current_range_meters":27600,"station_id":"ce4bh492rcd13ifvqdug","pricing_plan_id":"cebpf4jnsgd1na2vs0mg"},{"bike_id":"57be153d-e0db-4ac5-b3a4-5f5205d61a29","system_id":"levelo_inurba_marseille","lat":43.2835,"lon":5.38105,"is_reserved":true,"is_disabled":false,"rental_uris":{"android":"levelo://app?vid=57be153d-e0db-4ac5-b3a4-5f5205d61a29","ios":"levelo://app?vid=57be153d-e0db-4ac5-b3a4-5f5205d61a29"},"vehicle_type_id":"4","last_reported":1734268596,"current_range_meters":6800,"station_id":"ce4bh412rcd13ifvqdr0","pricing_plan_id":"cebpf4jnsgd1na2vs0mg"},{"bike_id":"e9c2da41-0cf3-4790-b1bd-5a8d9ecb7255","system_id":"levelo_inurba_marseille","lat":43.2619,"lon":5.37922,"is_reserved":false,"is_disabled":false,"rental_uris":{"android":"levelo://app?vid=e9c2da41-0cf3-4790-b1bd-5a8d9ecb7255","ios":"levelo://app?vid=e9c2da41-0cf3-4790-b1bd-5a8d9ecb7255"},"vehicle_type_id":"4","last_reported":1734268596,"current_range_meters":25200,"station_id":"ce4bhjp2rcd13ifvqg90","pricing_plan_id":"cebpf4jnsgd1na2vs0mg"},{"bike_id":"41a7a588-44a9-4b1c-8163-ee6ddb5bfea1","system_id":"levelo_inurba_marseille","lat":43.286106,"lon":5.350629,"is_reserved":false,"is_disabled":false,"rental_uris":{"android":"levelo://app?vid=41a7a588-44a9-4b1c-8163-ee6ddb5bfea1","ios":"levelo://app?vid=41a7a588-44a9-4b1c-8163-ee6ddb5bfea1"},"vehicle_type_id":"4","last_reported":1734268596,"current_range_meters":12400,"station_id":"ce4bhch2rcd13ifvqeug","pricing_plan_id":"cebpf4jnsgd1na2vs0mg"},{"bike_id":"70c673d5-6066-4faf-b215-c0e7165e8d28","system_id":"levelo_inurba_marseille","lat":43.26052,"lon":5.39397,"is_reserved":false,"is_disabled":false,"rental_uris":{"android":"levelo://app?vid=70c673d5-6066-4faf-b215-c0e7165e8d28","ios":"levelo://app?vid=70c673d5-6066-4faf-b215-c0e7165e8d28"},"vehicle_type_id":"4","last_reported":1734268596,"current_range_meters":38800,"station_id":"ce4bhh92rcd13ifvqfj0","pricing_plan_id":"cebpf4jnsgd1na2vs0mg"},{"bike_id":"62f547f2-9db6-4920-88a7-271ba03ba5df","system_id":"levelo_inurba_marseille","lat":43.3054,"lon":5.3654,"is_reserved":false,"is_disabled":false,"rental_uris":{"android":"levelo://app?vid=62f547f2-9db6-4920-88a7-271ba03ba5df","ios":"levelo://app?vid=62f547f2-9db6-4920-88a7-271ba03ba5df"},"vehicle_type_id":"4","last_reported":1734268596,"current_range_meters":38800,"station_id":"ce4bgs12rcd13ifvqcag","pricing_plan_id":"cebpf4jnsgd1na2vs0mg"},{"bike_id":"0810675e-0ec1-421a-b95a-82de5ccce9b2","system_id":"levelo_inurba_marseille","lat":43.24175,"lon":5.39716,"is_reserved":false,"is_disabled":true,"rental_uris":{"android":"levelo://app?vid=0810675e-0ec1-421a-b95a-82de5ccce9b2","ios":"levelo://app?vid=0810675e-0ec1-421a-b95a-82de5ccce9b2"},"vehicle_type_id":"4","last_reported":1734268596,"current_range_meters":23200,"station_id":"ce4bhn12rcd13ifvqgpg","pricing_plan_id":"cebpf4jnsgd1na2vs0mg"},{"bike_id":"6bc36b2e-0c9c-431e-95dc-c243c814c35f","system_id":"levelo_inurba_marseille","lat":43.28423,"lon":5.35004,"is_reserved":false,"is_disabled":true,"rental_uris":{"android":"levelo://app?vid=6bc36b2e-0c9c-431e-95dc-c243c814c35f","ios":"levelo://app?vid=6bc36b2e-0c9c-431e-95dc-c243c814c35f"},"vehicle_type_id":"4","last_reported":1734268596,"current_range_meters":0,"station_id":"ce4bhbh2rcd13ifvqepg","pricing_plan_id":"cebpf4jnsgd1na2vs0mg"},{"bike_id":"f714fef8-8d96-422d-be53-e7b93f090ff9","system_id":"levelo_inurba_marseille","lat":43.29069,"lon":5.37169,"is_reserved":false,"is_disabled":false,"rental_uris":{"android":"levelo://app?vid=f714fef8-8d96-422d-be53-e7b93f090ff9","ios":"levelo://app?vid=f714fef8-8d96-422d-be53-e7b93f090ff9"},"vehicle_type_id":"4","last_reported":1734268596,"current_range_meters":18800,"station_id":"ce4bh5p2rcd13ifvqe4g","pricing_plan_id":"cebpf4jnsgd1na2vs0mg"},{"bike_id":"c9169d90-4952-4442-b216-225cffd88fbb","system_id":"levelo_inurba_marseille","lat":43.28717,"lon":5.4,"is_reserved":false,"is_disabled":true,"rental_uris":{"android":"levelo://app?vid=c9169d90-4952-4442-b216-225cffd88fbb","ios":"levelo://app?vid=c9169d90-4952-4442-b216-225cffd88fbb"},"vehicle_type_id":"4","last_reported":1734268596,"current_range_meters":0,"station_id":"ce4bho92rcd13ifvqh3g","pricing_plan_id":"cebpf4jnsgd1na2vs0mg"},{"bike_id":"7adae987-bf10-4cef-95cf-748e38d9087d","system_id":"levelo_inurba_marseille","lat":43.30889,"lon":5.37182,"is_reserved":false,"is_disabled":false,"rental_uris":{"android":"levelo://app?vid=7adae987-bf10-4cef-95cf-748e38d9087d","ios":"levelo://app?vid=7adae987-bf10-4cef-95cf-748e38d9087d"},"vehicle_type_id":"4","last_reported":1734268596,"current_range_meters":33200,"station_id":"ce4bguh2rcd13ifvqckg","pricing_plan_id":"cebpf4jnsgd1na2vs0mg"},{"bike_id":"b163a8ef-7fed-43e6-ae10-580a73a48b07","system_id":"levelo_inurba_marseille","lat":43.31982,"lon":5.38162,"is_reserved":false,"is_disabled":false,"rental_uris":{"android":"levelo://app?vid=b163a8ef-7fed-43e6-ae10-580a73a48b07","ios":"levelo://app?vid=b163a8ef-7fed-43e6-ae10-580a73a48b07"},"vehicle_type_id":"4","last_reported":1734268596,"current_range_meters":28800,"station_id":"ce4bhr12rcd13ifvqhpg","pricing_plan_id":"cebpf4jnsgd1na2vs0mg"},{"bike_id":"fa4d7729-32c7-4862-91aa-4c57d1a912f4","system_id":"levelo_inurba_marseille","lat":43.25496,"lon":5.37654,"is_reserved":false,"is_disabled":false,"rental_uris":{"android":"levelo://app?vid=fa4d7729-32c7-4862-91aa-4c57d1a912f4","ios":"levelo://app?vid=fa4d7729-32c7-4862-91aa-4c57d1a912f4"},"vehicle_type_id":"4","last_reported":1734268596,"current_range_meters":22800,"station_id":"ce4bhh12rcd13ifvqff0","pricing_plan_id":"cebpf4jnsgd1na2vs0mg"},{"bike_id":"bf37b10a-3bcb-4794-8e7c-da1499eb1701","system_id":"levelo_inurba_marseille","lat":43.26551,"lon":5.42302,"is_reserved":false,"is_disabled":false,"rental_uris":{"android":"levelo://app?vid=bf37b10a-3bcb-4794-8e7c-da1499eb1701","ios":"levelo://app?vid=bf37b10a-3bcb-4794-8e7c-da1499eb1701"},"vehicle_type_id":"4","last_reported":1734268596,"current_range_meters":5600,"station_id":"","pricing_plan_id":"cebpf4jnsgd1na2vs0mg"},{"bike_id":"3e30e808-72e2-4256-a96c-a0ef3cadc8f0","system_id":"levelo_inurba_marseille","lat":43.30296,"lon":5.39226,"is_reserved":false,"is_disabled":true,"rental_uris":{"android":"levelo://app?vid=3e30e808-72e2-4256-a96c-a0ef3cadc8f0","ios":"levelo://app?vid=3e30e808-72e2-4256-a96c-a0ef3cadc8f0"},"vehicle_type_id":"4","last_reported":1734268596,"current_range_meters":1600,"station_id":"ce4bgkh2rcd13ifvqbk0","pricing_plan_id":"cebpf4jnsgd1na2vs0mg"},{"bike_id":"ff58609e-dd62-4cb4-b79b-31ea2eb9a72f","system_id":"levelo_inurba_marseille","lat":43.25492,"lon":5.37651,"is_reserved":false,"is_disabled":true,"rental_uris":{"android":"levelo://app?vid=ff58609e-dd62-4cb4-b79b-31ea2eb9a72f","ios":"levelo://app?vid=ff58609e-dd62-4cb4-b79b-31ea2eb9a72f"},"vehicle_type_id":"4","last_reported":1734268596,"current_range_meters":0,"station_id":"ce4bhh12rcd13ifvqff0","pricing_plan_id":"cebpf4jnsgd1na2vs0mg"},{"bike_id":"92676c9b-b9d3-47dc-b554-520b4e0b8a37","system_id":"levelo_inurba_marseille","lat":43.30534,"lon":5.36735,"is_reserved":false,"is_disabled":false,"rental_uris":{"android":"levelo://app?vid=92676c9b-b9d3-47dc-b554-520b4e0b8a37","ios":"levelo://app?vid=92676c9b-b9d3-47dc-b554-520b4e0b8a37"},"vehicle_type_id":"4","last_reported":1734268596,"current_range_meters":28400,"station_id":"ce4bgrp2rcd13ifvqc9g","pricing_plan_id":"cebpf4jnsgd1na2vs0mg"},{"bike_id":"83e5b1f9-e512-4755-8dfd-f85222a054ac","system_id":"levelo_inurba_marseille","lat":43.26832,"lon":5.39661,"is_reserved":false,"is_disabled":false,"rental_uris":{"android":"levelo://app?vid=83e5b1f9-e512-4755-8dfd-f85222a054ac","ios":"levelo://app?vid=83e5b1f9-e512-4755-8dfd-f85222a054ac"},"vehicle_type_id":"4","last_reported":1734268596,"current_range_meters":17200,"station_id":"","pricing_plan_id":"cebpf4jnsgd1na2vs0mg"},{"bike_id":"483537f0-0a97-4bc9-b6b9-3700316f5817","system_id":"levelo_inurba_marseille","lat":43.295353,"lon":5.38548,"is_reserved":false,"is_disabled":true,"rental_uris":{"android":"levelo://app?vid=483537f0-0a97-4bc9-b6b9-3700316f5817","ios":"levelo://app?vid=483537f0-0a97-4bc9-b6b9-3700316f5817"},"vehicle_type_id":"4","last_reported":1734268596,"current_range_meters":34000,"station_id":"ce4bgih2rcd13ifvqba0","pricing_plan_id":"cebpf4jnsgd1na2vs0mg"},{"bike_id":"9703c418-561c-4947-909b-5280aa1605c3","system_id":"levelo_inurba_marseille","lat":43.24178,"lon":5.39728,"is_reserved":false,"is_disabled":false,"rental_uris":{"android":"levelo://app?vid=9703c418-561c-4947-909b-5280aa1605c3","ios":"levelo://app?vid=9703c418-561c-4947-909b-5280aa1605c3"},"vehicle_type_id":"4","last_reported":1734268596,"current_range_meters":36800,"station_id":"ce4bhn12rcd13ifvqgpg","pricing_plan_id":"cebpf4jnsgd1na2vs0mg"},{"bike_id":"737fb8e9-8b01-4bad-81a8-663331bb5075","system_id":"levelo_inurba_marseille","lat":43.29849,"lon":5.36259,"is_reserved":false,"is_disabled":false,"rental_uris":{"android":"levelo://app?vid=737fb8e9-8b01-4bad-81a8-663331bb5075","ios":"levelo://app?vid=737fb8e9-8b01-4bad-81a8-663331bb5075"},"vehicle_type_id":"4","last_reported":1734268596,"current_range_meters":36800,"station_id":"ce4bgpp2rcd13ifvqc3g","pricing_plan_id":"cebpf4jnsgd1na2vs0mg"},{"bike_id":"a1e87f39-a169-437c-996c-14d84743b37e","system_id":"levelo_inurba_marseille","lat":43.23062,"lon":5.35495,"is_reserved":false,"is_disabled":false,"rental_uris":{"android":"levelo://app?vid=a1e87f39-a169-437c-996c-14d84743b37e","ios":"levelo://app?vid=a1e87f39-a169-437c-996c-14d84743b37e"},"vehicle_type_id":"4","last_reported":1734268596,"current_range_meters":15200,"station_id":"cpo3342slgdg3j2ifvpg","pricing_plan_id":"cebpf4jnsgd1na2vs0mg"},{"bike_id":"2197cd6c-5f9c-484a-827f-be914afe4ada","system_id":"levelo_inurba_marseille","lat":43.31895,"lon":5.40723,"is_reserved":false,"is_disabled":false,"rental_uris":{"android":"levelo://app?vid=2197cd6c-5f9c-484a-827f-be914afe4ada","ios":"levelo://app?vid=2197cd6c-5f9c-484a-827f-be914afe4ada"},"vehicle_type_id":"4","last_reported":1734268596,"current_range_meters":34000,"station_id":"ce4bhq12rcd13ifvqhig","pricing_plan_id":"cebpf4jnsgd1na2vs0mg"},{"bike_id":"371c7dc8-3503-4653-8c15-64bf0f8e87d8","system_id":"levelo_inurba_marseille","lat":43.26194,"lon":5.37448,"is_reserved":false,"is_disabled":true,"rental_uris":{"android":"levelo://app?vid=371c7dc8-3503-4653-8c15-64bf0f8e87d8","ios":"levelo://app?vid=371c7dc8-3503-4653-8c15-64bf0f8e87d8"},"vehicle_type_id":"4","last_reported":1734268596,"current_range_meters":14000,"station_id":"ce4bhgp2rcd13ifvqfc0","pricing_plan_id":"cebpf4jnsgd1na2vs0mg"},{"bike_id":"cda4ed5a-2e0d-433b-8975-b33d54e05d80","system_id":"levelo_inurba_marseille","lat":43.2861,"lon":5.37064,"is_reserved":false,"is_disabled":false,"rental_uris":{"android":"levelo://app?vid=cda4ed5a-2e0d-433b-8975-b33d54e05d80","ios":"levelo://app?vid=cda4ed5a-2e0d-433b-8975-b33d54e05d80"},"vehicle_type_id":"4","last_reported":1734268596,"current_range_meters":33600,"station_id":"ce4bht12rcd13ifvqi60","pricing_plan_id":"cebpf4jnsgd1na2vs0mg"},{"bike_id":"fb75c4ba-469f-42b4-9241-bb8348b4b4dd","system_id":"levelo_inurba_marseille","lat":43.26201,"lon":5.37935,"is_reserved":false,"is_disabled":false,"rental_uris":{"android":"levelo://app?vid=fb75c4ba-469f-42b4-9241-bb8348b4b4dd","ios":"levelo://app?vid=fb75c4ba-469f-42b4-9241-bb8348b4b4dd"},"vehicle_type_id":"4","last_reported":1734268596,"current_range_meters":17200,"station_id":"ce4bhjp2rcd13ifvqg90","pricing_plan_id":"cebpf4jnsgd1na2vs0mg"},{"bike_id":"418176fc-9612-4956-8ca9-9916bd2da767","system_id":"levelo_inurba_marseille","lat":43.33017,"lon":5.39047,"is_reserved":false,"is_disabled":false,"rental_uris":{"android":"levelo://app?vid=418176fc-9612-4956-8ca9-9916bd2da767","ios":"levelo://app?vid=418176fc-9612-4956-8ca9-9916bd2da767"},"vehicle_type_id":"4","last_reported":1734268596,"current_range_meters":20400,"station_id":"ce4bhr92rcd13ifvqhrg","pricing_plan_id":"cebpf4jnsgd1na2vs0mg"},{"bike_id":"b4f28572-e9c3-4d89-a9c6-b22627fb6aff","system_id":"levelo_inurba_marseille","lat":43.32539,"lon":5.41469,"is_reserved":false,"is_disabled":false,"rental_uris":{"android":"levelo://app?vid=b4f28572-e9c3-4d89-a9c6-b22627fb6aff","ios":"levelo://app?vid=b4f28572-e9c3-4d89-a9c6-b22627fb6aff"},"vehicle_type_id":"4","last_reported":1734268596,"current_range_meters":19200,"station_id":"ce4bhq12rcd13ifvqhhg","pricing_plan_id":"cebpf4jnsgd1na2vs0mg"},{"bike_id":"1163fe21-74e4-40ab-a103-f1c29f2ea8b1","system_id":"levelo_inurba_marseille","lat":43.25856,"lon":5.39932,"is_reserved":false,"is_disabled":false,"rental_uris":{"android":"levelo://app?vid=1163fe21-74e4-40ab-a103-f1c29f2ea8b1","ios":"levelo://app?vid=1163fe21-74e4-40ab-a103-f1c29f2ea8b1"},"vehicle_type_id":"4","last_reported":1734268596,"current_range_meters":38000,"station_id":"ce4bhl92rcd13ifvqghg","pricing_plan_id":"cebpf4jnsgd1na2vs0mg"},{"bike_id":"f98e7e7f-5920-4770-8e6a-e1e9626c2cb5","system_id":"levelo_inurba_marseille","lat":43.25836,"lon":5.39423,"is_reserved":false,"is_disabled":false,"rental_uris":{"android":"levelo://app?vid=f98e7e7f-5920-4770-8e6a-e1e9626c2cb5","ios":"levelo://app?vid=f98e7e7f-5920-4770-8e6a-e1e9626c2cb5"},"vehicle_type_id":"4","last_reported":1734268596,"current_range_meters":38800,"station_id":"ce4bhip2rcd13ifvqft0","pricing_plan_id":"cebpf4jnsgd1na2vs0mg"},{"bike_id":"55ce578e-dec3-47c6-bc2a-3369d6d751b1","system_id":"levelo_inurba_marseille","lat":43.2319,"lon":5.39988,"is_reserved":false,"is_disabled":true,"rental_uris":{"android":"levelo://app?vid=55ce578e-dec3-47c6-bc2a-3369d6d751b1","ios":"levelo://app?vid=55ce578e-dec3-47c6-bc2a-3369d6d751b1"},"vehicle_type_id":"4","last_reported":1734268596,"current_range_meters":0,"station_id":"ce4bhn12rcd13ifvqgqg","pricing_plan_id":"cebpf4jnsgd1na2vs0mg"},{"bike_id":"3ceb8620-8a84-4dff-8047-301dc3087867","system_id":"levelo_inurba_marseille","lat":43.2767,"lon":5.38915,"is_reserved":false,"is_disabled":true,"rental_uris":{"android":"levelo://app?vid=3ceb8620-8a84-4dff-8047-301dc3087867","ios":"levelo://app?vid=3ceb8620-8a84-4dff-8047-301dc3087867"},"vehicle_type_id":"4","last_reported":1734268596,"current_range_meters":38400,"station_id":"ce4bhi12rcd13ifvqfo0","pricing_plan_id":"cebpf4jnsgd1na2vs0mg"},{"bike_id":"4e3eebec-f009-4887-809b-5f30495d5092","system_id":"levelo_inurba_marseille","lat":43.2874,"lon":5.37333,"is_reserved":false,"is_disabled":true,"rental_uris":{"android":"levelo://app?vid=4e3eebec-f009-4887-809b-5f30495d5092","ios":"levelo://app?vid=4e3eebec-f009-4887-809b-5f30495d5092"},"vehicle_type_id":"4","last_reported":1734268596,"current_range_meters":19600,"station_id":"ce4bh3p2rcd13ifvqdq0","pricing_plan_id":"cebpf4jnsgd1na2vs0mg"},{"bike_id":"eb1496f4-67ed-47fd-8660-60023378367f","system_id":"levelo_inurba_marseille","lat":43.294212,"lon":5.374322,"is_reserved":false,"is_disabled":true,"rental_uris":{"android":"levelo://app?vid=eb1496f4-67ed-47fd-8660-60023378367f","ios":"levelo://app?vid=eb1496f4-67ed-47fd-8660-60023378367f"},"vehicle_type_id":"4","last_reported":1734268596,"current_range_meters":0,"station_id":"","pricing_plan_id":"cebpf4jnsgd1na2vs0mg"},{"bike_id":"71adf873-8534-4b4c-88ad-a35b28cb9554","system_id":"levelo_inurba_marseille","lat":43.24778,"lon":5.41182,"is_reserved":false,"is_disabled":false,"rental_uris":{"android":"levelo://app?vid=71adf873-8534-4b4c-88ad-a35b28cb9554","ios":"levelo://app?vid=71adf873-8534-4b4c-88ad-a35b28cb9554"},"vehicle_type_id":"4","last_reported":1734268596,"current_range_meters":22000,"station_id":"","pricing_plan_id":"cebpf4jnsgd1na2vs0mg"},{"bike_id":"c0c3fc51-3be3-4932-a397-78224f09cbb8","system_id":"levelo_inurba_marseille","lat":43.31201,"lon":5.36918,"is_reserved":false,"is_disabled":false,"rental_uris":{"android":"levelo://app?vid=c0c3fc51-3be3-4932-a397-78224f09cbb8","ios":"levelo://app?vid=c0c3fc51-3be3-4932-a397-78224f09cbb8"},"vehicle_type_id":"4","last_reported":1734268596,"current_range_meters":28000,"station_id":"","pricing_plan_id":"cebpf4jnsgd1na2vs0mg"},{"bike_id":"0da53d92-f0a4-4f23-ba64-66fcd462aa26","system_id":"levelo_inurba_marseille","lat":43.32426,"lon":5.36578,"is_reserved":false,"is_disabled":false,"rental_uris":{"android":"levelo://app?vid=0da53d92-f0a4-4f23-ba64-66fcd462aa26","ios":"levelo://app?vid=0da53d92-f0a4-4f23-ba64-66fcd462aa26"},"vehicle_type_id":"4","last_reported":1734268596,"current_range_meters":33600,"station_id":"ce4bhs12rcd13ifvqhvg","pricing_plan_id":"cebpf4jnsgd1na2vs0mg"},{"bike_id":"071eec5c-8b96-4b3c-89aa-dad49fa44c6b","system_id":"levelo_inurba_marseille","lat":43.25007,"lon":5.38928,"is_reserved":false,"is_disabled":false,"rental_uris":{"android":"levelo://app?vid=071eec5c-8b96-4b3c-89aa-dad49fa44c6b","ios":"levelo://app?vid=071eec5c-8b96-4b3c-89aa-dad49fa44c6b"},"vehicle_type_id":"4","last_reported":1734268596,"current_range_meters":38800,"station_id":"ce4bhgp2rcd13ifvqfd0","pricing_plan_id":"cebpf4jnsgd1na2vs0mg"},{"bike_id":"e417af0d-29ea-459e-9bdd-15daa8ff17e0","system_id":"levelo_inurba_marseille","lat":43.29526,"lon":5.38567,"is_reserved":false,"is_disabled":true,"rental_uris":{"android":"levelo://app?vid=e417af0d-29ea-459e-9bdd-15daa8ff17e0","ios":"levelo://app?vid=e417af0d-29ea-459e-9bdd-15daa8ff17e0"},"vehicle_type_id":"4","last_reported":1734268596,"current_range_meters":37600,"station_id":"ce4bgih2rcd13ifvqba0","pricing_plan_id":"cebpf4jnsgd1na2vs0mg"},{"bike_id":"f9d69e78-52a6-469d-b947-f5f662ed0584","system_id":"levelo_inurba_marseille","lat":43.29257,"lon":5.40907,"is_reserved":false,"is_disabled":false,"rental_uris":{"android":"levelo://app?vid=f9d69e78-52a6-469d-b947-f5f662ed0584","ios":"levelo://app?vid=f9d69e78-52a6-469d-b947-f5f662ed0584"},"vehicle_type_id":"4","last_reported":1734268596,"current_range_meters":4400,"station_id":"ce4bh192rcd13ifvqdc0","pricing_plan_id":"cebpf4jnsgd1na2vs0mg"},{"bike_id":"0df249be-7d40-48ad-8915-752593b717dd","system_id":"levelo_inurba_marseille","lat":43.232,"lon":5.35538,"is_reserved":false,"is_disabled":false,"rental_uris":{"android":"levelo://app?vid=0df249be-7d40-48ad-8915-752593b717dd","ios":"levelo://app?vid=0df249be-7d40-48ad-8915-752593b717dd"},"vehicle_type_id":"4","last_reported":1734268596,"current_range_meters":29600,"station_id":"ce4bhu92rcd13ifvqi70","pricing_plan_id":"cebpf4jnsgd1na2vs0mg"},{"bike_id":"b99d6888-c39e-4637-8fac-1dc1b9a9e1de","system_id":"levelo_inurba_marseille","lat":43.25491,"lon":5.37649,"is_reserved":false,"is_disabled":false,"rental_uris":{"android":"levelo://app?vid=b99d6888-c39e-4637-8fac-1dc1b9a9e1de","ios":"levelo://app?vid=b99d6888-c39e-4637-8fac-1dc1b9a9e1de"},"vehicle_type_id":"4","last_reported":1734268596,"current_range_meters":8800,"station_id":"ce4bhh12rcd13ifvqff0","pricing_plan_id":"cebpf4jnsgd1na2vs0mg"},{"bike_id":"abdf81ec-e98d-4dee-9e25-ca8f28442f23","system_id":"levelo_inurba_marseille","lat":43.29728,"lon":5.40717,"is_reserved":false,"is_disabled":true,"rental_uris":{"android":"levelo://app?vid=abdf81ec-e98d-4dee-9e25-ca8f28442f23","ios":"levelo://app?vid=abdf81ec-e98d-4dee-9e25-ca8f28442f23"},"vehicle_type_id":"4","last_reported":1734268596,"current_range_meters":0,"station_id":"","pricing_plan_id":"cebpf4jnsgd1na2vs0mg"},{"bike_id":"c68db57d-783a-4064-a144-068182cc62b5","system_id":"levelo_inurba_marseille","lat":43.30274,"lon":5.37698,"is_reserved":false,"is_disabled":false,"rental_uris":{"android":"levelo://app?vid=c68db57d-783a-4064-a144-068182cc62b5","ios":"levelo://app?vid=c68db57d-783a-4064-a144-068182cc62b5"},"vehicle_type_id":"4","last_reported":1734268596,"current_range_meters":12000,"station_id":"ce4bguh2rcd13ifvqcj0","pricing_plan_id":"cebpf4jnsgd1na2vs0mg"},{"bike_id":"4a1bc0db-6a2c-4623-8864-d2d18510681f","system_id":"levelo_inurba_marseille","lat":43.23187,"lon":5.35562,"is_reserved":false,"is_disabled":false,"rental_uris":{"android":"levelo://app?vid=4a1bc0db-6a2c-4623-8864-d2d18510681f","ios":"levelo://app?vid=4a1bc0db-6a2c-4623-8864-d2d18510681f"},"vehicle_type_id":"4","last_reported":1734268596,"current_range_meters":16800,"station_id":"ce4bhu92rcd13ifvqi70","pricing_plan_id":"cebpf4jnsgd1na2vs0mg"},{"bike_id":"fda5d38c-ad67-40b0-8d80-b72fffc85b07","system_id":"levelo_inurba_marseille","lat":43.24799,"lon":5.37441,"is_reserved":false,"is_disabled":false,"rental_uris":{"android":"levelo://app?vid=fda5d38c-ad67-40b0-8d80-b72fffc85b07","ios":"levelo://app?vid=fda5d38c-ad67-40b0-8d80-b72fffc85b07"},"vehicle_type_id":"4","last_reported":1734268596,"current_range_meters":33600,"station_id":"ce4bhgh2rcd13ifvqfb0","pricing_plan_id":"cebpf4jnsgd1na2vs0mg"},{"bike_id":"b704c334-c819-477a-9151-72d5dc9cabdf","system_id":"levelo_inurba_marseille","lat":43.33603,"lon":5.41021,"is_reserved":false,"is_disabled":false,"rental_uris":{"android":"levelo://app?vid=b704c334-c819-477a-9151-72d5dc9cabdf","ios":"levelo://app?vid=b704c334-c819-477a-9151-72d5dc9cabdf"},"vehicle_type_id":"4","last_reported":1734268596,"current_range_meters":11600,"station_id":"ce4bhqh2rcd13ifvqhmg","pricing_plan_id":"cebpf4jnsgd1na2vs0mg"},{"bike_id":"4a3f8d2d-f364-4fd4-b613-fa3127f4f11e","system_id":"levelo_inurba_marseille","lat":43.30568,"lon":5.36714,"is_reserved":false,"is_disabled":false,"rental_uris":{"android":"levelo://app?vid=4a3f8d2d-f364-4fd4-b613-fa3127f4f11e","ios":"levelo://app?vid=4a3f8d2d-f364-4fd4-b613-fa3127f4f11e"},"vehicle_type_id":"4","last_reported":1734268596,"current_range_meters":38800,"station_id":"ce4bgrp2rcd13ifvqc9g","pricing_plan_id":"cebpf4jnsgd1na2vs0mg"},{"bike_id":"ecbfcd56-e2e9-411a-916b-327a5fa7e43b","system_id":"levelo_inurba_marseille","lat":43.29979,"lon":5.37369,"is_reserved":false,"is_disabled":false,"rental_uris":{"android":"levelo://app?vid=ecbfcd56-e2e9-411a-916b-327a5fa7e43b","ios":"levelo://app?vid=ecbfcd56-e2e9-411a-916b-327a5fa7e43b"},"vehicle_type_id":"4","last_reported":1734268596,"current_range_meters":24800,"station_id":"","pricing_plan_id":"cebpf4jnsgd1na2vs0mg"},{"bike_id":"f9058d8c-0917-4d9f-a0ce-f51dfd2def06","system_id":"levelo_inurba_marseille","lat":43.26804,"lon":5.40271,"is_reserved":false,"is_disabled":false,"rental_uris":{"android":"levelo://app?vid=f9058d8c-0917-4d9f-a0ce-f51dfd2def06","ios":"levelo://app?vid=f9058d8c-0917-4d9f-a0ce-f51dfd2def06"},"vehicle_type_id":"4","last_reported":1734268596,"current_range_meters":38400,"station_id":"ce501612rcd8frsf0b60","pricing_plan_id":"cebpf4jnsgd1na2vs0mg"},{"bike_id":"7cfe84e9-986a-437b-aae6-23632bed68ef","system_id":"levelo_inurba_marseille","lat":43.28448,"lon":5.35893,"is_reserved":false,"is_disabled":false,"rental_uris":{"android":"levelo://app?vid=7cfe84e9-986a-437b-aae6-23632bed68ef","ios":"levelo://app?vid=7cfe84e9-986a-437b-aae6-23632bed68ef"},"vehicle_type_id":"4","last_reported":1734268596,"current_range_meters":10800,"station_id":"ce4bhah2rcd13ifvqei0","pricing_plan_id":"cebpf4jnsgd1na2vs0mg"},{"bike_id":"a170ba40-17b7-4bf6-90f8-c07a5cf55709","system_id":"levelo_inurba_marseille","lat":43.24646,"lon":5.38914,"is_reserved":false,"is_disabled":true,"rental_uris":{"android":"levelo://app?vid=a170ba40-17b7-4bf6-90f8-c07a5cf55709","ios":"levelo://app?vid=a170ba40-17b7-4bf6-90f8-c07a5cf55709"},"vehicle_type_id":"4","last_reported":1734268596,"current_range_meters":38000,"station_id":"ce4bhg12rcd13ifvqf60","pricing_plan_id":"cebpf4jnsgd1na2vs0mg"},{"bike_id":"b89cd02a-44c8-4fbb-83be-fee20ca926ec","system_id":"levelo_inurba_marseille","lat":43.25116,"lon":5.40315,"is_reserved":false,"is_disabled":false,"rental_uris":{"android":"levelo://app?vid=b89cd02a-44c8-4fbb-83be-fee20ca926ec","ios":"levelo://app?vid=b89cd02a-44c8-4fbb-83be-fee20ca926ec"},"vehicle_type_id":"4","last_reported":1734268596,"current_range_meters":38400,"station_id":"ce4bhlh2rcd13ifvqgig","pricing_plan_id":"cebpf4jnsgd1na2vs0mg"},{"bike_id":"b6681445-e96d-48a4-a6d7-327d0c15533f","system_id":"levelo_inurba_marseille","lat":43.31372,"lon":5.38487,"is_reserved":false,"is_disabled":false,"rental_uris":{"android":"levelo://app?vid=b6681445-e96d-48a4-a6d7-327d0c15533f","ios":"levelo://app?vid=b6681445-e96d-48a4-a6d7-327d0c15533f"},"vehicle_type_id":"4","last_reported":1734268596,"current_range_meters":38800,"station_id":"ce4bgt92rcd13ifvqcf0","pricing_plan_id":"cebpf4jnsgd1na2vs0mg"},{"bike_id":"9462b2a7-07e4-4988-a09e-5847dafa59c1","system_id":"levelo_inurba_marseille","lat":43.23961,"lon":5.3664,"is_reserved":false,"is_disabled":false,"rental_uris":{"android":"levelo://app?vid=9462b2a7-07e4-4988-a09e-5847dafa59c1","ios":"levelo://app?vid=9462b2a7-07e4-4988-a09e-5847dafa59c1"},"vehicle_type_id":"4","last_reported":1734268596,"current_range_meters":38000,"station_id":"ce4bhi12rcd13ifvqfp0","pricing_plan_id":"cebpf4jnsgd1na2vs0mg"},{"bike_id":"04ec18e1-1d35-47aa-adcb-34f88697a1b8","system_id":"levelo_inurba_marseille","lat":43.30329,"lon":5.40426,"is_reserved":false,"is_disabled":false,"rental_uris":{"android":"levelo://app?vid=04ec18e1-1d35-47aa-adcb-34f88697a1b8","ios":"levelo://app?vid=04ec18e1-1d35-47aa-adcb-34f88697a1b8"},"vehicle_type_id":"4","last_reported":1734268596,"current_range_meters":25200,"station_id":"ce4bh012rcd13ifvqd10","pricing_plan_id":"cebpf4jnsgd1na2vs0mg"},{"bike_id":"43f3ccf0-f0b3-490b-9870-5b71dc6d0bde","system_id":"levelo_inurba_marseille","lat":43.31882,"lon":5.40738,"is_reserved":false,"is_disabled":false,"rental_uris":{"android":"levelo://app?vid=43f3ccf0-f0b3-490b-9870-5b71dc6d0bde","ios":"levelo://app?vid=43f3ccf0-f0b3-490b-9870-5b71dc6d0bde"},"vehicle_type_id":"4","last_reported":1734268596,"current_range_meters":33200,"station_id":"ce4bhq12rcd13ifvqhig","pricing_plan_id":"cebpf4jnsgd1na2vs0mg"},{"bike_id":"ce8ecf1c-78d5-4ae5-869b-e9cc23564bda","system_id":"levelo_inurba_marseille","lat":43.32367,"lon":5.38888,"is_reserved":false,"is_disabled":false,"rental_uris":{"android":"levelo://app?vid=ce8ecf1c-78d5-4ae5-869b-e9cc23564bda","ios":"levelo://app?vid=ce8ecf1c-78d5-4ae5-869b-e9cc23564bda"},"vehicle_type_id":"4","last_reported":1734268596,"current_range_meters":38800,"station_id":"ce4bhqp2rcd13ifvqhog","pricing_plan_id":"cebpf4jnsgd1na2vs0mg"},{"bike_id":"266f7fca-62d8-462d-83ba-67663ab9bbef","system_id":"levelo_inurba_marseille","lat":43.25106,"lon":5.40333,"is_reserved":false,"is_disabled":false,"rental_uris":{"android":"levelo://app?vid=266f7fca-62d8-462d-83ba-67663ab9bbef","ios":"levelo://app?vid=266f7fca-62d8-462d-83ba-67663ab9bbef"},"vehicle_type_id":"4","last_reported":1734268596,"current_range_meters":35600,"station_id":"ce4bhlh2rcd13ifvqgig","pricing_plan_id":"cebpf4jnsgd1na2vs0mg"},{"bike_id":"2add9805-6fe1-496b-95ec-c3450a7c4a57","system_id":"levelo_inurba_marseille","lat":43.30053,"lon":5.3742,"is_reserved":false,"is_disabled":true,"rental_uris":{"android":"levelo://app?vid=2add9805-6fe1-496b-95ec-c3450a7c4a57","ios":"levelo://app?vid=2add9805-6fe1-496b-95ec-c3450a7c4a57"},"vehicle_type_id":"4","last_reported":1734268596,"current_range_meters":0,"station_id":"","pricing_plan_id":"cebpf4jnsgd1na2vs0mg"},{"bike_id":"d7797249-e9d8-48fe-8188-b5073a2c1f1c","system_id":"levelo_inurba_marseille","lat":43.2887,"lon":5.35828,"is_reserved":false,"is_disabled":false,"rental_uris":{"android":"levelo://app?vid=d7797249-e9d8-48fe-8188-b5073a2c1f1c","ios":"levelo://app?vid=d7797249-e9d8-48fe-8188-b5073a2c1f1c"},"vehicle_type_id":"4","last_reported":1734268596,"current_range_meters":25200,"station_id":"ce4bhb12rcd13ifvqem0","pricing_plan_id":"cebpf4jnsgd1na2vs0mg"},{"bike_id":"023c2a7e-afdf-4417-b853-0b472b4b541b","system_id":"levelo_inurba_marseille","lat":43.33015,"lon":5.39041,"is_reserved":false,"is_disabled":false,"rental_uris":{"android":"levelo://app?vid=023c2a7e-afdf-4417-b853-0b472b4b541b","ios":"levelo://app?vid=023c2a7e-afdf-4417-b853-0b472b4b541b"},"vehicle_type_id":"4","last_reported":1734268596,"current_range_meters":25600,"station_id":"ce4bhr92rcd13ifvqhrg","pricing_plan_id":"cebpf4jnsgd1na2vs0mg"},{"bike_id":"e6daa3b0-d355-4eb9-8e91-304a7094997b","system_id":"levelo_inurba_marseille","lat":43.29896,"lon":5.43668,"is_reserved":false,"is_disabled":false,"rental_uris":{"android":"levelo://app?vid=e6daa3b0-d355-4eb9-8e91-304a7094997b","ios":"levelo://app?vid=e6daa3b0-d355-4eb9-8e91-304a7094997b"},"vehicle_type_id":"4","last_reported":1734268596,"current_range_meters":14800,"station_id":"ce4bhpp2rcd13ifvqhfg","pricing_plan_id":"cebpf4jnsgd1na2vs0mg"},{"bike_id":"6d5a05e7-efbb-4524-ad33-d26a78a8fabd","system_id":"levelo_inurba_marseille","lat":43.29221,"lon":5.36063,"is_reserved":false,"is_disabled":true,"rental_uris":{"android":"levelo://app?vid=6d5a05e7-efbb-4524-ad33-d26a78a8fabd","ios":"levelo://app?vid=6d5a05e7-efbb-4524-ad33-d26a78a8fabd"},"vehicle_type_id":"4","last_reported":1734268596,"current_range_meters":0,"station_id":"ce4bhbh2rcd13ifvqeqg","pricing_plan_id":"cebpf4jnsgd1na2vs0mg"},{"bike_id":"2e45e779-d778-4c04-a092-c33bb230c07d","system_id":"levelo_inurba_marseille","lat":43.25109,"lon":5.40327,"is_reserved":false,"is_disabled":false,"rental_uris":{"android":"levelo://app?vid=2e45e779-d778-4c04-a092-c33bb230c07d","ios":"levelo://app?vid=2e45e779-d778-4c04-a092-c33bb230c07d"},"vehicle_type_id":"4","last_reported":1734268596,"current_range_meters":36800,"station_id":"ce4bhlh2rcd13ifvqgig","pricing_plan_id":"cebpf4jnsgd1na2vs0mg"},{"bike_id":"64f1733f-fffa-4047-adf6-479b7f3bd0b5","system_id":"levelo_inurba_marseille","lat":43.28458,"lon":5.38452,"is_reserved":false,"is_disabled":false,"rental_uris":{"android":"levelo://app?vid=64f1733f-fffa-4047-adf6-479b7f3bd0b5","ios":"levelo://app?vid=64f1733f-fffa-4047-adf6-479b7f3bd0b5"},"vehicle_type_id":"4","last_reported":1734268596,"current_range_meters":38800,"station_id":"ce4bh512rcd13ifvqe3g","pricing_plan_id":"cebpf4jnsgd1na2vs0mg"},{"bike_id":"884cd0c4-31c3-4d0a-8ee6-7fc84f28964e","system_id":"levelo_inurba_marseille","lat":43.28266,"lon":5.35061,"is_reserved":false,"is_disabled":false,"rental_uris":{"android":"levelo://app?vid=884cd0c4-31c3-4d0a-8ee6-7fc84f28964e","ios":"levelo://app?vid=884cd0c4-31c3-4d0a-8ee6-7fc84f28964e"},"vehicle_type_id":"4","last_reported":1734268596,"current_range_meters":21600,"station_id":"ce4bhbp2rcd13ifvqerg","pricing_plan_id":"cebpf4jnsgd1na2vs0mg"},{"bike_id":"63eaffe0-9361-4ff6-ab19-8007100ee7ae","system_id":"levelo_inurba_marseille","lat":43.2417,"lon":5.39699,"is_reserved":false,"is_disabled":false,"rental_uris":{"android":"levelo://app?vid=63eaffe0-9361-4ff6-ab19-8007100ee7ae","ios":"levelo://app?vid=63eaffe0-9361-4ff6-ab19-8007100ee7ae"},"vehicle_type_id":"4","last_reported":1734268596,"current_range_meters":36800,"station_id":"ce4bhn12rcd13ifvqgpg","pricing_plan_id":"cebpf4jnsgd1na2vs0mg"},{"bike_id":"72bdc4f6-9d1d-42c9-ac9e-f6bf19c7da8a","system_id":"levelo_inurba_marseille","lat":43.24052,"lon":5.37755,"is_reserved":false,"is_disabled":false,"rental_uris":{"android":"levelo://app?vid=72bdc4f6-9d1d-42c9-ac9e-f6bf19c7da8a","ios":"levelo://app?vid=72bdc4f6-9d1d-42c9-ac9e-f6bf19c7da8a"},"vehicle_type_id":"4","last_reported":1734268596,"current_range_meters":36800,"station_id":"ce4bhnp2rcd13ifvqgvg","pricing_plan_id":"cebpf4jnsgd1na2vs0mg"},{"bike_id":"42a9fc7b-2157-484b-af45-9c4cfe567a80","system_id":"levelo_inurba_marseille","lat":43.26793,"lon":5.36484,"is_reserved":false,"is_disabled":false,"rental_uris":{"android":"levelo://app?vid=42a9fc7b-2157-484b-af45-9c4cfe567a80","ios":"levelo://app?vid=42a9fc7b-2157-484b-af45-9c4cfe567a80"},"vehicle_type_id":"4","last_reported":1734268596,"current_range_meters":38800,"station_id":"","pricing_plan_id":"cebpf4jnsgd1na2vs0mg"},{"bike_id":"e841184f-5646-470a-9844-95fc43cb624d","system_id":"levelo_inurba_marseille","lat":43.29417,"lon":5.3862,"is_reserved":false,"is_disabled":false,"rental_uris":{"android":"levelo://app?vid=e841184f-5646-470a-9844-95fc43cb624d","ios":"levelo://app?vid=e841184f-5646-470a-9844-95fc43cb624d"},"vehicle_type_id":"4","last_reported":1734268596,"current_range_meters":27600,"station_id":"ce4bh2h2rcd13ifvqdh0","pricing_plan_id":"cebpf4jnsgd1na2vs0mg"},{"bike_id":"c200ae5a-1bfc-41c1-b6e0-48b629950315","system_id":"levelo_inurba_marseille","lat":43.25471,"lon":5.37671,"is_reserved":false,"is_disabled":false,"rental_uris":{"android":"levelo://app?vid=c200ae5a-1bfc-41c1-b6e0-48b629950315","ios":"levelo://app?vid=c200ae5a-1bfc-41c1-b6e0-48b629950315"},"vehicle_type_id":"4","last_reported":1734268596,"current_range_meters":38800,"station_id":"ce4bhh12rcd13ifvqff0","pricing_plan_id":"cebpf4jnsgd1na2vs0mg"},{"bike_id":"af5005fc-d058-4152-a2f0-a599ec2fe143","system_id":"levelo_inurba_marseille","lat":43.32283,"lon":5.38286,"is_reserved":false,"is_disabled":false,"rental_uris":{"android":"levelo://app?vid=af5005fc-d058-4152-a2f0-a599ec2fe143","ios":"levelo://app?vid=af5005fc-d058-4152-a2f0-a599ec2fe143"},"vehicle_type_id":"4","last_reported":1734268596,"current_range_meters":38800,"station_id":"ce4bhr12rcd13ifvqhqg","pricing_plan_id":"cebpf4jnsgd1na2vs0mg"},{"bike_id":"3650d84c-d2fd-4728-abeb-b9accdfa7210","system_id":"levelo_inurba_marseille","lat":43.30241,"lon":5.4006,"is_reserved":false,"is_disabled":true,"rental_uris":{"android":"levelo://app?vid=3650d84c-d2fd-4728-abeb-b9accdfa7210","ios":"levelo://app?vid=3650d84c-d2fd-4728-abeb-b9accdfa7210"},"vehicle_type_id":"4","last_reported":1734268596,"current_range_meters":22400,"station_id":"ce4bgvh2rcd13ifvqcs0","pricing_plan_id":"cebpf4jnsgd1na2vs0mg"},{"bike_id":"bfd65704-e67e-4a70-8396-93d37f430a3e","system_id":"levelo_inurba_marseille","lat":43.30798,"lon":5.38158,"is_reserved":false,"is_disabled":true,"rental_uris":{"android":"levelo://app?vid=bfd65704-e67e-4a70-8396-93d37f430a3e","ios":"levelo://app?vid=bfd65704-e67e-4a70-8396-93d37f430a3e"},"vehicle_type_id":"4","last_reported":1734268596,"current_range_meters":0,"station_id":"ce4bgt12rcd13ifvqce0","pricing_plan_id":"cebpf4jnsgd1na2vs0mg"},{"bike_id":"f2a6dfd9-ea3f-42b1-b712-c1e9de18f7d7","system_id":"levelo_inurba_marseille","lat":43.2997,"lon":5.3719,"is_reserved":false,"is_disabled":false,"rental_uris":{"android":"levelo://app?vid=f2a6dfd9-ea3f-42b1-b712-c1e9de18f7d7","ios":"levelo://app?vid=f2a6dfd9-ea3f-42b1-b712-c1e9de18f7d7"},"vehicle_type_id":"4","last_reported":1734268596,"current_range_meters":38800,"station_id":"ce4bgr92rcd13ifvqc7g","pricing_plan_id":"cebpf4jnsgd1na2vs0mg"},{"bike_id":"fd3cd50f-6bf4-41ac-821b-d14c90f4be7b","system_id":"levelo_inurba_marseille","lat":43.25104,"lon":5.40341,"is_reserved":false,"is_disabled":false,"rental_uris":{"android":"levelo://app?vid=fd3cd50f-6bf4-41ac-821b-d14c90f4be7b","ios":"levelo://app?vid=fd3cd50f-6bf4-41ac-821b-d14c90f4be7b"},"vehicle_type_id":"4","last_reported":1734268596,"current_range_meters":38000,"station_id":"ce4bhlh2rcd13ifvqgig","pricing_plan_id":"cebpf4jnsgd1na2vs0mg"},{"bike_id":"d70f18d3-3fb0-4b08-9f93-cf06500737ee","system_id":"levelo_inurba_marseille","lat":43.2894,"lon":5.36397,"is_reserved":false,"is_disabled":false,"rental_uris":{"android":"levelo://app?vid=d70f18d3-3fb0-4b08-9f93-cf06500737ee","ios":"levelo://app?vid=d70f18d3-3fb0-4b08-9f93-cf06500737ee"},"vehicle_type_id":"4","last_reported":1734268596,"current_range_meters":27600,"station_id":"ce4bhc92rcd13ifvqetg","pricing_plan_id":"cebpf4jnsgd1na2vs0mg"},{"bike_id":"76805181-b86b-42c5-9eb1-0613fe81a89e","system_id":"levelo_inurba_marseille","lat":43.23193,"lon":5.35549,"is_reserved":false,"is_disabled":false,"rental_uris":{"android":"levelo://app?vid=76805181-b86b-42c5-9eb1-0613fe81a89e","ios":"levelo://app?vid=76805181-b86b-42c5-9eb1-0613fe81a89e"},"vehicle_type_id":"4","last_reported":1734268596,"current_range_meters":38800,"station_id":"ce4bhu92rcd13ifvqi70","pricing_plan_id":"cebpf4jnsgd1na2vs0mg"},{"bike_id":"9bf84596-16a1-4c5f-a66a-089d123a8630","system_id":"levelo_inurba_marseille","lat":43.28266,"lon":5.35065,"is_reserved":false,"is_disabled":false,"rental_uris":{"android":"levelo://app?vid=9bf84596-16a1-4c5f-a66a-089d123a8630","ios":"levelo://app?vid=9bf84596-16a1-4c5f-a66a-089d123a8630"},"vehicle_type_id":"4","last_reported":1734268596,"current_range_meters":39200,"station_id":"ce4bhbp2rcd13ifvqerg","pricing_plan_id":"cebpf4jnsgd1na2vs0mg"},{"bike_id":"6069fe6f-3d12-436c-ba1a-a6e9607abbd3","system_id":"levelo_inurba_marseille","lat":43.32547,"lon":5.4144,"is_reserved":false,"is_disabled":false,"rental_uris":{"android":"levelo://app?vid=6069fe6f-3d12-436c-ba1a-a6e9607abbd3","ios":"levelo://app?vid=6069fe6f-3d12-436c-ba1a-a6e9607abbd3"},"vehicle_type_id":"4","last_reported":1734268596,"current_range_meters":27600,"station_id":"ce4bhq12rcd13ifvqhhg","pricing_plan_id":"cebpf4jnsgd1na2vs0mg"},{"bike_id":"6cb5f94f-eade-4b7c-b995-84c805be74f9","system_id":"levelo_inurba_marseille","lat":43.33779,"lon":5.37414,"is_reserved":false,"is_disabled":false,"rental_uris":{"android":"levelo://app?vid=6cb5f94f-eade-4b7c-b995-84c805be74f9","ios":"levelo://app?vid=6cb5f94f-eade-4b7c-b995-84c805be74f9"},"vehicle_type_id":"4","last_reported":1734268596,"current_range_meters":34800,"station_id":"","pricing_plan_id":"cebpf4jnsgd1na2vs0mg"},{"bike_id":"5cded315-570b-4c0b-b015-bac53bb71581","system_id":"levelo_inurba_marseille","lat":43.285405,"lon":5.389869,"is_reserved":false,"is_disabled":true,"rental_uris":{"android":"levelo://app?vid=5cded315-570b-4c0b-b015-bac53bb71581","ios":"levelo://app?vid=5cded315-570b-4c0b-b015-bac53bb71581"},"vehicle_type_id":"4","last_reported":1734268596,"current_range_meters":0,"station_id":"","pricing_plan_id":"cebpf4jnsgd1na2vs0mg"},{"bike_id":"5698604e-aaa5-42b6-9f56-06778c2d2e5a","system_id":"levelo_inurba_marseille","lat":43.25108,"lon":5.40329,"is_reserved":false,"is_disabled":false,"rental_uris":{"android":"levelo://app?vid=5698604e-aaa5-42b6-9f56-06778c2d2e5a","ios":"levelo://app?vid=5698604e-aaa5-42b6-9f56-06778c2d2e5a"},"vehicle_type_id":"4","last_reported":1734268596,"current_range_meters":38800,"station_id":"ce4bhlh2rcd13ifvqgig","pricing_plan_id":"cebpf4jnsgd1na2vs0mg"},{"bike_id":"61059a51-39d7-4f0a-a098-bfd36e6d1bf2","system_id":"levelo_inurba_marseille","lat":43.31751,"lon":5.39019,"is_reserved":false,"is_disabled":false,"rental_uris":{"android":"levelo://app?vid=61059a51-39d7-4f0a-a098-bfd36e6d1bf2","ios":"levelo://app?vid=61059a51-39d7-4f0a-a098-bfd36e6d1bf2"},"vehicle_type_id":"4","last_reported":1734268596,"current_range_meters":38800,"station_id":"ce4bhqp2rcd13ifvqhng","pricing_plan_id":"cebpf4jnsgd1na2vs0mg"},{"bike_id":"7ec5f114-71b7-4d43-afcf-855cd4dc6106","system_id":"levelo_inurba_marseille","lat":43.27034,"lon":5.40071,"is_reserved":false,"is_disabled":false,"rental_uris":{"android":"levelo://app?vid=7ec5f114-71b7-4d43-afcf-855cd4dc6106","ios":"levelo://app?vid=7ec5f114-71b7-4d43-afcf-855cd4dc6106"},"vehicle_type_id":"4","last_reported":1734268596,"current_range_meters":14000,"station_id":"","pricing_plan_id":"cebpf4jnsgd1na2vs0mg"},{"bike_id":"62be7227-74b7-4792-b3e9-793f45ae0003","system_id":"levelo_inurba_marseille","lat":43.24547,"lon":5.39519,"is_reserved":false,"is_disabled":false,"rental_uris":{"android":"levelo://app?vid=62be7227-74b7-4792-b3e9-793f45ae0003","ios":"levelo://app?vid=62be7227-74b7-4792-b3e9-793f45ae0003"},"vehicle_type_id":"4","last_reported":1734268596,"current_range_meters":29600,"station_id":"ce4bhlp2rcd13ifvqgjg","pricing_plan_id":"cebpf4jnsgd1na2vs0mg"},{"bike_id":"4a0ac162-8ef0-476e-844b-35b992cda30c","system_id":"levelo_inurba_marseille","lat":43.29853,"lon":5.36279,"is_reserved":false,"is_disabled":false,"rental_uris":{"android":"levelo://app?vid=4a0ac162-8ef0-476e-844b-35b992cda30c","ios":"levelo://app?vid=4a0ac162-8ef0-476e-844b-35b992cda30c"},"vehicle_type_id":"4","last_reported":1734268596,"current_range_meters":39200,"station_id":"ce4bgpp2rcd13ifvqc3g","pricing_plan_id":"cebpf4jnsgd1na2vs0mg"},{"bike_id":"ca59d865-1951-4846-a717-a349b9e50e7c","system_id":"levelo_inurba_marseille","lat":43.27899,"lon":5.35587,"is_reserved":false,"is_disabled":true,"rental_uris":{"android":"levelo://app?vid=ca59d865-1951-4846-a717-a349b9e50e7c","ios":"levelo://app?vid=ca59d865-1951-4846-a717-a349b9e50e7c"},"vehicle_type_id":"4","last_reported":1734268596,"current_range_meters":32000,"station_id":"","pricing_plan_id":"cebpf4jnsgd1na2vs0mg"},{"bike_id":"5295c8df-2428-4c41-90b6-7595d6a56f38","system_id":"levelo_inurba_marseille","lat":43.2737,"lon":5.36258,"is_reserved":false,"is_disabled":true,"rental_uris":{"android":"levelo://app?vid=5295c8df-2428-4c41-90b6-7595d6a56f38","ios":"levelo://app?vid=5295c8df-2428-4c41-90b6-7595d6a56f38"},"vehicle_type_id":"4","last_reported":1734268596,"current_range_meters":0,"station_id":"ce4bhbh2rcd13ifvqeo0","pricing_plan_id":"cebpf4jnsgd1na2vs0mg"},{"bike_id":"639b4190-f89d-4271-a038-9a8b1b3547ff","system_id":"levelo_inurba_marseille","lat":43.29582,"lon":5.36737,"is_reserved":false,"is_disabled":false,"rental_uris":{"android":"levelo://app?vid=639b4190-f89d-4271-a038-9a8b1b3547ff","ios":"levelo://app?vid=639b4190-f89d-4271-a038-9a8b1b3547ff"},"vehicle_type_id":"4","last_reported":1734268596,"current_range_meters":6000,"station_id":"ce4bgph2rcd13ifvqc2g","pricing_plan_id":"cebpf4jnsgd1na2vs0mg"},{"bike_id":"283ec910-2b59-4ffd-bbff-9867d116f826","system_id":"levelo_inurba_marseille","lat":43.337444,"lon":5.374475,"is_reserved":false,"is_disabled":true,"rental_uris":{"android":"levelo://app?vid=283ec910-2b59-4ffd-bbff-9867d116f826","ios":"levelo://app?vid=283ec910-2b59-4ffd-bbff-9867d116f826"},"vehicle_type_id":"4","last_reported":1734268596,"current_range_meters":0,"station_id":"","pricing_plan_id":"cebpf4jnsgd1na2vs0mg"},{"bike_id":"44bb1ee1-6608-426b-ad9e-5efdc1a7eac0","system_id":"levelo_inurba_marseille","lat":43.33782,"lon":5.37452,"is_reserved":false,"is_disabled":false,"rental_uris":{"android":"levelo://app?vid=44bb1ee1-6608-426b-ad9e-5efdc1a7eac0","ios":"levelo://app?vid=44bb1ee1-6608-426b-ad9e-5efdc1a7eac0"},"vehicle_type_id":"4","last_reported":1734268596,"current_range_meters":20800,"station_id":"","pricing_plan_id":"cebpf4jnsgd1na2vs0mg"},{"bike_id":"f0636649-bd8f-4597-9232-912b6c235419","system_id":"levelo_inurba_marseille","lat":43.29567,"lon":5.37518,"is_reserved":false,"is_disabled":false,"rental_uris":{"android":"levelo://app?vid=f0636649-bd8f-4597-9232-912b6c235419","ios":"levelo://app?vid=f0636649-bd8f-4597-9232-912b6c235419"},"vehicle_type_id":"4","last_reported":1734268596,"current_range_meters":38800,"station_id":"ce4bgh92rcd13ifvqb50","pricing_plan_id":"cebpf4jnsgd1na2vs0mg"},{"bike_id":"bbffd889-750b-4762-ae94-78458d50ea91","system_id":"levelo_inurba_marseille","lat":43.33719,"lon":5.39186,"is_reserved":false,"is_disabled":false,"rental_uris":{"android":"levelo://app?vid=bbffd889-750b-4762-ae94-78458d50ea91","ios":"levelo://app?vid=bbffd889-750b-4762-ae94-78458d50ea91"},"vehicle_type_id":"4","last_reported":1734268596,"current_range_meters":39200,"station_id":"ce4bhr92rcd13ifvqhsg","pricing_plan_id":"cebpf4jnsgd1na2vs0mg"},{"bike_id":"7a355704-9e2d-475c-b9fc-45a5d7a3f942","system_id":"levelo_inurba_marseille","lat":43.305392,"lon":5.365555,"is_reserved":false,"is_disabled":false,"rental_uris":{"android":"levelo://app?vid=7a355704-9e2d-475c-b9fc-45a5d7a3f942","ios":"levelo://app?vid=7a355704-9e2d-475c-b9fc-45a5d7a3f942"},"vehicle_type_id":"4","last_reported":1734268596,"current_range_meters":38800,"station_id":"ce4bgs12rcd13ifvqcag","pricing_plan_id":"cebpf4jnsgd1na2vs0mg"},{"bike_id":"6af93c5c-2369-4249-9874-540f27f0edd3","system_id":"levelo_inurba_marseille","lat":43.33721,"lon":5.39176,"is_reserved":false,"is_disabled":false,"rental_uris":{"android":"levelo://app?vid=6af93c5c-2369-4249-9874-540f27f0edd3","ios":"levelo://app?vid=6af93c5c-2369-4249-9874-540f27f0edd3"},"vehicle_type_id":"4","last_reported":1734268596,"current_range_meters":8800,"station_id":"ce4bhr92rcd13ifvqhsg","pricing_plan_id":"cebpf4jnsgd1na2vs0mg"},{"bike_id":"4e99bf0b-18b5-4848-80f1-0b0419a2900d","system_id":"levelo_inurba_marseille","lat":43.24173,"lon":5.3973,"is_reserved":false,"is_disabled":false,"rental_uris":{"android":"levelo://app?vid=4e99bf0b-18b5-4848-80f1-0b0419a2900d","ios":"levelo://app?vid=4e99bf0b-18b5-4848-80f1-0b0419a2900d"},"vehicle_type_id":"4","last_reported":1734268596,"current_range_meters":20000,"station_id":"ce4bhn12rcd13ifvqgpg","pricing_plan_id":"cebpf4jnsgd1na2vs0mg"},{"bike_id":"7a6fbafa-c405-41ec-babd-da89473cb281","system_id":"levelo_inurba_marseille","lat":43.27494,"lon":5.42457,"is_reserved":false,"is_disabled":false,"rental_uris":{"android":"levelo://app?vid=7a6fbafa-c405-41ec-babd-da89473cb281","ios":"levelo://app?vid=7a6fbafa-c405-41ec-babd-da89473cb281"},"vehicle_type_id":"4","last_reported":1734268596,"current_range_meters":39200,"station_id":"ce4bhn92rcd13ifvqgrg","pricing_plan_id":"cebpf4jnsgd1na2vs0mg"},{"bike_id":"6e6a004b-462d-4b03-aeaa-2611256f0d89","system_id":"levelo_inurba_marseille","lat":43.28123,"lon":5.38934,"is_reserved":false,"is_disabled":true,"rental_uris":{"android":"levelo://app?vid=6e6a004b-462d-4b03-aeaa-2611256f0d89","ios":"levelo://app?vid=6e6a004b-462d-4b03-aeaa-2611256f0d89"},"vehicle_type_id":"4","last_reported":1734268596,"current_range_meters":0,"station_id":"","pricing_plan_id":"cebpf4jnsgd1na2vs0mg"},{"bike_id":"23e83e48-25c7-4895-a558-3311970dd7a0","system_id":"levelo_inurba_marseille","lat":43.26927,"lon":5.38927,"is_reserved":false,"is_disabled":false,"rental_uris":{"android":"levelo://app?vid=23e83e48-25c7-4895-a558-3311970dd7a0","ios":"levelo://app?vid=23e83e48-25c7-4895-a558-3311970dd7a0"},"vehicle_type_id":"4","last_reported":1734268596,"current_range_meters":26800,"station_id":"ce4bhhh2rcd13ifvqfl0","pricing_plan_id":"cebpf4jnsgd1na2vs0mg"},{"bike_id":"0b6fff2d-4538-4a2f-85a5-c0e9ae5054d9","system_id":"levelo_inurba_marseille","lat":43.28929,"lon":5.36633,"is_reserved":false,"is_disabled":false,"rental_uris":{"android":"levelo://app?vid=0b6fff2d-4538-4a2f-85a5-c0e9ae5054d9","ios":"levelo://app?vid=0b6fff2d-4538-4a2f-85a5-c0e9ae5054d9"},"vehicle_type_id":"4","last_reported":1734268596,"current_range_meters":38800,"station_id":"ce4bhap2rcd13ifvqek0","pricing_plan_id":"cebpf4jnsgd1na2vs0mg"},{"bike_id":"d14eaec4-01ad-4c1b-b5f4-9a0c0c2b1467","system_id":"levelo_inurba_marseille","lat":43.27687,"lon":5.38857,"is_reserved":false,"is_disabled":false,"rental_uris":{"android":"levelo://app?vid=d14eaec4-01ad-4c1b-b5f4-9a0c0c2b1467","ios":"levelo://app?vid=d14eaec4-01ad-4c1b-b5f4-9a0c0c2b1467"},"vehicle_type_id":"4","last_reported":1734268596,"current_range_meters":28400,"station_id":"ce4bhi12rcd13ifvqfo0","pricing_plan_id":"cebpf4jnsgd1na2vs0mg"},{"bike_id":"43a5e0f7-e0aa-4fdf-abef-45b9221b4b12","system_id":"levelo_inurba_marseille","lat":43.27309,"lon":5.39084,"is_reserved":false,"is_disabled":false,"rental_uris":{"android":"levelo://app?vid=43a5e0f7-e0aa-4fdf-abef-45b9221b4b12","ios":"levelo://app?vid=43a5e0f7-e0aa-4fdf-abef-45b9221b4b12"},"vehicle_type_id":"4","last_reported":1734268596,"current_range_meters":38800,"station_id":"ce4bhgp2rcd13ifvqfe0","pricing_plan_id":"cebpf4jnsgd1na2vs0mg"},{"bike_id":"884285b9-3b7d-4eac-b8cf-21405854c52c","system_id":"levelo_inurba_marseille","lat":43.30549,"lon":5.36517,"is_reserved":false,"is_disabled":false,"rental_uris":{"android":"levelo://app?vid=884285b9-3b7d-4eac-b8cf-21405854c52c","ios":"levelo://app?vid=884285b9-3b7d-4eac-b8cf-21405854c52c"},"vehicle_type_id":"4","last_reported":1734268596,"current_range_meters":28800,"station_id":"ce4bgs12rcd13ifvqcag","pricing_plan_id":"cebpf4jnsgd1na2vs0mg"},{"bike_id":"fe46d1f7-3915-4c94-a028-3ca6a93519e1","system_id":"levelo_inurba_marseille","lat":43.31986,"lon":5.38168,"is_reserved":false,"is_disabled":false,"rental_uris":{"android":"levelo://app?vid=fe46d1f7-3915-4c94-a028-3ca6a93519e1","ios":"levelo://app?vid=fe46d1f7-3915-4c94-a028-3ca6a93519e1"},"vehicle_type_id":"4","last_reported":1734268596,"current_range_meters":7200,"station_id":"ce4bhr12rcd13ifvqhpg","pricing_plan_id":"cebpf4jnsgd1na2vs0mg"},{"bike_id":"e73eeed1-c15b-40cc-9a4e-67221a3bed40","system_id":"levelo_inurba_marseille","lat":43.29362,"lon":5.37859,"is_reserved":false,"is_disabled":false,"rental_uris":{"android":"levelo://app?vid=e73eeed1-c15b-40cc-9a4e-67221a3bed40","ios":"levelo://app?vid=e73eeed1-c15b-40cc-9a4e-67221a3bed40"},"vehicle_type_id":"4","last_reported":1734268596,"current_range_meters":2800,"station_id":"ce4bgjh2rcd13ifvqbf0","pricing_plan_id":"cebpf4jnsgd1na2vs0mg"},{"bike_id":"23fc0df6-e1e3-4ab5-a10d-3809057ef799","system_id":"levelo_inurba_marseille","lat":43.25489,"lon":5.37651,"is_reserved":false,"is_disabled":false,"rental_uris":{"android":"levelo://app?vid=23fc0df6-e1e3-4ab5-a10d-3809057ef799","ios":"levelo://app?vid=23fc0df6-e1e3-4ab5-a10d-3809057ef799"},"vehicle_type_id":"4","last_reported":1734268596,"current_range_meters":22800,"station_id":"ce4bhh12rcd13ifvqff0","pricing_plan_id":"cebpf4jnsgd1na2vs0mg"},{"bike_id":"8fa27199-c6ac-4024-96cf-b08f739ca067","system_id":"levelo_inurba_marseille","lat":43.26796,"lon":5.40274,"is_reserved":false,"is_disabled":false,"rental_uris":{"android":"levelo://app?vid=8fa27199-c6ac-4024-96cf-b08f739ca067","ios":"levelo://app?vid=8fa27199-c6ac-4024-96cf-b08f739ca067"},"vehicle_type_id":"4","last_reported":1734268596,"current_range_meters":38800,"station_id":"ce501612rcd8frsf0b60","pricing_plan_id":"cebpf4jnsgd1na2vs0mg"},{"bike_id":"7f72d27c-3063-4427-96c5-867ebf891e94","system_id":"levelo_inurba_marseille","lat":43.32338,"lon":5.40621,"is_reserved":false,"is_disabled":false,"rental_uris":{"android":"levelo://app?vid=7f72d27c-3063-4427-96c5-867ebf891e94","ios":"levelo://app?vid=7f72d27c-3063-4427-96c5-867ebf891e94"},"vehicle_type_id":"4","last_reported":1734268596,"current_range_meters":23200,"station_id":"ce4bhq92rcd13ifvqhjg","pricing_plan_id":"cebpf4jnsgd1na2vs0mg"},{"bike_id":"673625af-4ef4-4020-8ec4-8cf58a4732cc","system_id":"levelo_inurba_marseille","lat":43.2406,"lon":5.37784,"is_reserved":false,"is_disabled":false,"rental_uris":{"android":"levelo://app?vid=673625af-4ef4-4020-8ec4-8cf58a4732cc","ios":"levelo://app?vid=673625af-4ef4-4020-8ec4-8cf58a4732cc"},"vehicle_type_id":"4","last_reported":1734268596,"current_range_meters":16000,"station_id":"ce4bhnp2rcd13ifvqgvg","pricing_plan_id":"cebpf4jnsgd1na2vs0mg"},{"bike_id":"48433d32-f1a8-4686-bd94-09b4dff8e020","system_id":"levelo_inurba_marseille","lat":43.28362,"lon":5.38625,"is_reserved":false,"is_disabled":false,"rental_uris":{"android":"levelo://app?vid=48433d32-f1a8-4686-bd94-09b4dff8e020","ios":"levelo://app?vid=48433d32-f1a8-4686-bd94-09b4dff8e020"},"vehicle_type_id":"4","last_reported":1734268596,"current_range_meters":26800,"station_id":"ce4bh492rcd13ifvqdvg","pricing_plan_id":"cebpf4jnsgd1na2vs0mg"},{"bike_id":"8f5922af-7fc5-4c70-83d7-829ff6eae825","system_id":"levelo_inurba_marseille","lat":43.3046,"lon":5.37911,"is_reserved":false,"is_disabled":false,"rental_uris":{"android":"levelo://app?vid=8f5922af-7fc5-4c70-83d7-829ff6eae825","ios":"levelo://app?vid=8f5922af-7fc5-4c70-83d7-829ff6eae825"},"vehicle_type_id":"4","last_reported":1734268596,"current_range_meters":38000,"station_id":"ce4bgup2rcd13ifvqcn0","pricing_plan_id":"cebpf4jnsgd1na2vs0mg"},{"bike_id":"07aaffff-6c5a-4390-a6e5-b91a437396ec","system_id":"levelo_inurba_marseille","lat":43.241663,"lon":5.363898,"is_reserved":false,"is_disabled":false,"rental_uris":{"android":"levelo://app?vid=07aaffff-6c5a-4390-a6e5-b91a437396ec","ios":"levelo://app?vid=07aaffff-6c5a-4390-a6e5-b91a437396ec"},"vehicle_type_id":"4","last_reported":1734268596,"current_range_meters":38400,"station_id":"cpo36qri1sfpv3e86is0","pricing_plan_id":"cebpf4jnsgd1na2vs0mg"},{"bike_id":"b1b540ca-acd2-4526-b318-dc755109f68f","system_id":"levelo_inurba_marseille","lat":43.24155,"lon":5.3971,"is_reserved":false,"is_disabled":false,"rental_uris":{"android":"levelo://app?vid=b1b540ca-acd2-4526-b318-dc755109f68f","ios":"levelo://app?vid=b1b540ca-acd2-4526-b318-dc755109f68f"},"vehicle_type_id":"4","last_reported":1734268596,"current_range_meters":25600,"station_id":"ce4bhn12rcd13ifvqgpg","pricing_plan_id":"cebpf4jnsgd1na2vs0mg"},{"bike_id":"64a6fa7f-e019-4a29-827f-a9ad8042ea7b","system_id":"levelo_inurba_marseille","lat":43.29913,"lon":5.37459,"is_reserved":false,"is_disabled":false,"rental_uris":{"android":"levelo://app?vid=64a6fa7f-e019-4a29-827f-a9ad8042ea7b","ios":"levelo://app?vid=64a6fa7f-e019-4a29-827f-a9ad8042ea7b"},"vehicle_type_id":"4","last_reported":1734268596,"current_range_meters":38000,"station_id":"ce4bgjh2rcd13ifvqbg0","pricing_plan_id":"cebpf4jnsgd1na2vs0mg"},{"bike_id":"191861ab-d1bf-437c-9b29-c60057a7eda0","system_id":"levelo_inurba_marseille","lat":43.2511,"lon":5.40324,"is_reserved":false,"is_disabled":false,"rental_uris":{"android":"levelo://app?vid=191861ab-d1bf-437c-9b29-c60057a7eda0","ios":"levelo://app?vid=191861ab-d1bf-437c-9b29-c60057a7eda0"},"vehicle_type_id":"4","last_reported":1734268596,"current_range_meters":32400,"station_id":"ce4bhlh2rcd13ifvqgig","pricing_plan_id":"cebpf4jnsgd1na2vs0mg"},{"bike_id":"188b0834-66ad-4edb-8ac3-c77d1246b65c","system_id":"levelo_inurba_marseille","lat":43.25572,"lon":5.3825,"is_reserved":false,"is_disabled":false,"rental_uris":{"android":"levelo://app?vid=188b0834-66ad-4edb-8ac3-c77d1246b65c","ios":"levelo://app?vid=188b0834-66ad-4edb-8ac3-c77d1246b65c"},"vehicle_type_id":"4","last_reported":1734268596,"current_range_meters":25200,"station_id":"ce4bhih2rcd13ifvqfs0","pricing_plan_id":"cebpf4jnsgd1na2vs0mg"},{"bike_id":"929016dc-79be-4e60-bf8b-f66812601a1e","system_id":"levelo_inurba_marseille","lat":43.29626,"lon":5.40596,"is_reserved":false,"is_disabled":false,"rental_uris":{"android":"levelo://app?vid=929016dc-79be-4e60-bf8b-f66812601a1e","ios":"levelo://app?vid=929016dc-79be-4e60-bf8b-f66812601a1e"},"vehicle_type_id":"4","last_reported":1734268596,"current_range_meters":8400,"station_id":"ce4bh0h2rcd13ifvqd60","pricing_plan_id":"cebpf4jnsgd1na2vs0mg"},{"bike_id":"c16b2d78-299a-4926-94e6-9df71d6b0e66","system_id":"levelo_inurba_marseille","lat":43.28005,"lon":5.40003,"is_reserved":false,"is_disabled":false,"rental_uris":{"android":"levelo://app?vid=c16b2d78-299a-4926-94e6-9df71d6b0e66","ios":"levelo://app?vid=c16b2d78-299a-4926-94e6-9df71d6b0e66"},"vehicle_type_id":"4","last_reported":1734268596,"current_range_meters":16000,"station_id":"ce4bho92rcd13ifvqh4g","pricing_plan_id":"cebpf4jnsgd1na2vs0mg"},{"bike_id":"dbebb16f-18df-4d7c-a90a-95eb83612863","system_id":"levelo_inurba_marseille","lat":43.31697,"lon":5.37727,"is_reserved":false,"is_disabled":false,"rental_uris":{"android":"levelo://app?vid=dbebb16f-18df-4d7c-a90a-95eb83612863","ios":"levelo://app?vid=dbebb16f-18df-4d7c-a90a-95eb83612863"},"vehicle_type_id":"4","last_reported":1734268596,"current_range_meters":38400,"station_id":"ce4bgth2rcd13ifvqch0","pricing_plan_id":"cebpf4jnsgd1na2vs0mg"},{"bike_id":"2c66e731-c044-4057-ba99-38aa63e029be","system_id":"levelo_inurba_marseille","lat":43.27969,"lon":5.396,"is_reserved":false,"is_disabled":false,"rental_uris":{"android":"levelo://app?vid=2c66e731-c044-4057-ba99-38aa63e029be","ios":"levelo://app?vid=2c66e731-c044-4057-ba99-38aa63e029be"},"vehicle_type_id":"4","last_reported":1734268596,"current_range_meters":14400,"station_id":"","pricing_plan_id":"cebpf4jnsgd1na2vs0mg"},{"bike_id":"8a569cb4-bc96-4b01-9d82-4cc9e26cb869","system_id":"levelo_inurba_marseille","lat":43.29535,"lon":5.38557,"is_reserved":false,"is_disabled":false,"rental_uris":{"android":"levelo://app?vid=8a569cb4-bc96-4b01-9d82-4cc9e26cb869","ios":"levelo://app?vid=8a569cb4-bc96-4b01-9d82-4cc9e26cb869"},"vehicle_type_id":"4","last_reported":1734268596,"current_range_meters":31200,"station_id":"ce4bgih2rcd13ifvqba0","pricing_plan_id":"cebpf4jnsgd1na2vs0mg"},{"bike_id":"fc805d41-a85a-4b74-8b6f-db1a6207c426","system_id":"levelo_inurba_marseille","lat":43.28358,"lon":5.38102,"is_reserved":true,"is_disabled":false,"rental_uris":{"android":"levelo://app?vid=fc805d41-a85a-4b74-8b6f-db1a6207c426","ios":"levelo://app?vid=fc805d41-a85a-4b74-8b6f-db1a6207c426"},"vehicle_type_id":"4","last_reported":1734268596,"current_range_meters":22000,"station_id":"ce4bh412rcd13ifvqdr0","pricing_plan_id":"cebpf4jnsgd1na2vs0mg"},{"bike_id":"ee6bed7b-abb8-41ef-9e85-1ac0d33b07c6","system_id":"levelo_inurba_marseille","lat":43.3068,"lon":5.36695,"is_reserved":false,"is_disabled":true,"rental_uris":{"android":"levelo://app?vid=ee6bed7b-abb8-41ef-9e85-1ac0d33b07c6","ios":"levelo://app?vid=ee6bed7b-abb8-41ef-9e85-1ac0d33b07c6"},"vehicle_type_id":"4","last_reported":1734268596,"current_range_meters":1600,"station_id":"","pricing_plan_id":"cebpf4jnsgd1na2vs0mg"},{"bike_id":"9ab8fbf6-8e5d-44de-8021-3a081306763a","system_id":"levelo_inurba_marseille","lat":43.2993,"lon":5.36551,"is_reserved":false,"is_disabled":false,"rental_uris":{"android":"levelo://app?vid=9ab8fbf6-8e5d-44de-8021-3a081306763a","ios":"levelo://app?vid=9ab8fbf6-8e5d-44de-8021-3a081306763a"},"vehicle_type_id":"4","last_reported":1734268596,"current_range_meters":18800,"station_id":"ce4bgm92rcd13ifvqbr0","pricing_plan_id":"cebpf4jnsgd1na2vs0mg"},{"bike_id":"fd5a01e4-f139-43d1-a239-1e56d33dcb8a","system_id":"levelo_inurba_marseille","lat":43.30792,"lon":5.43531,"is_reserved":false,"is_disabled":false,"rental_uris":{"android":"levelo://app?vid=fd5a01e4-f139-43d1-a239-1e56d33dcb8a","ios":"levelo://app?vid=fd5a01e4-f139-43d1-a239-1e56d33dcb8a"},"vehicle_type_id":"4","last_reported":1734268596,"current_range_meters":26800,"station_id":"ce4bhph2rcd13ifvqheg","pricing_plan_id":"cebpf4jnsgd1na2vs0mg"},{"bike_id":"b4bcb0e9-7c14-4d07-abe0-93c0d05a3d33","system_id":"levelo_inurba_marseille","lat":43.25941,"lon":5.40902,"is_reserved":false,"is_disabled":false,"rental_uris":{"android":"levelo://app?vid=b4bcb0e9-7c14-4d07-abe0-93c0d05a3d33","ios":"levelo://app?vid=b4bcb0e9-7c14-4d07-abe0-93c0d05a3d33"},"vehicle_type_id":"4","last_reported":1734268596,"current_range_meters":28000,"station_id":"ce4bhm92rcd13ifvqglg","pricing_plan_id":"cebpf4jnsgd1na2vs0mg"},{"bike_id":"ca3bf6a0-806c-4046-b219-bbea4c2ba646","system_id":"levelo_inurba_marseille","lat":43.23191,"lon":5.35549,"is_reserved":false,"is_disabled":false,"rental_uris":{"android":"levelo://app?vid=ca3bf6a0-806c-4046-b219-bbea4c2ba646","ios":"levelo://app?vid=ca3bf6a0-806c-4046-b219-bbea4c2ba646"},"vehicle_type_id":"4","last_reported":1734268596,"current_range_meters":38800,"station_id":"ce4bhu92rcd13ifvqi70","pricing_plan_id":"cebpf4jnsgd1na2vs0mg"},{"bike_id":"dddf63e6-a212-44b1-b146-e873e3f0725a","system_id":"levelo_inurba_marseille","lat":43.29245,"lon":5.3844,"is_reserved":false,"is_disabled":true,"rental_uris":{"android":"levelo://app?vid=dddf63e6-a212-44b1-b146-e873e3f0725a","ios":"levelo://app?vid=dddf63e6-a212-44b1-b146-e873e3f0725a"},"vehicle_type_id":"4","last_reported":1734268596,"current_range_meters":17200,"station_id":"ce4bh692rcd13ifvqea0","pricing_plan_id":"cebpf4jnsgd1na2vs0mg"},{"bike_id":"f899fe25-c462-4e5f-90d6-dc9402b06a1d","system_id":"levelo_inurba_marseille","lat":43.239593,"lon":5.366227,"is_reserved":false,"is_disabled":true,"rental_uris":{"android":"levelo://app?vid=f899fe25-c462-4e5f-90d6-dc9402b06a1d","ios":"levelo://app?vid=f899fe25-c462-4e5f-90d6-dc9402b06a1d"},"vehicle_type_id":"4","last_reported":1734268596,"current_range_meters":0,"station_id":"ce4bhi12rcd13ifvqfp0","pricing_plan_id":"cebpf4jnsgd1na2vs0mg"},