{"last_updated":1711660029,"ttl":30,"version":"2.2","data":{"bikes":[{"bike_id":"be348440-e1b9-47ef-b6eb-d956ea773f2f","system_id":"levelo_inurba_marseille","lat":43.31341,"lon":5.367098,"is_reserved":false,"is_disabled":false,"rental_uris":{"android":"levelo://app?vid=be348440-e1b9-47ef-b6eb-d956ea773f2f","ios":"levelo://app?vid=be348440-e1b9-47ef-b6eb-d956ea773f2f"},"vehicle_type_id":"4","last_reported":1711660029,"current_range_meters":6400,"station_id":"ce4bgr92rcd13ifvqc6g","pricing_plan_id":"cebpf4jnsgd1na2vs0mg"},{"bike_id":"6973ff12-a2c1-4f42-8990-768983a27399","system_id":"levelo_inurba_marseille","lat":43.313391,"lon":5.36706,"is_reserved":false,"is_disabled":false,"rental_uris":{"android":"levelo://app?vid=6973ff12-a2c1-4f42-8990-768983a27399","ios":"levelo://app?vid=6973ff12-a2c1-4f42-8990-768983a27399"},"vehicle_type_id":"4","last_reported":1711660029,"current_range_meters":11200,"station_id":"ce4bgr92rcd13ifvqc6g","pricing_plan_id":"cebpf4jnsgd1na2vs0mg"},{"bike_id":"6c2d5cc6-3cbe-469c-8b4c-eec93ea19f7d","system_id":"levelo_inurba_marseille","lat":43.313391,"lon":5.36706,"is_reserved":false,"is_disabled":false,"rental_uris":{"android":"levelo://app?vid=6c2d5cc6-3cbe-469c-8b4c-eec93ea19f7d","ios":"levelo://app?vid=6c2d5cc6-3cbe-469c-8b4c-eec93ea19f7d"},"vehicle_type_id":"4","last_reported":1711660029,"current_range_meters":7200,"station_id":"ce4bgr92rcd13ifvqc6g","pricing_plan_id":"cebpf4jnsgd1na2vs0mg"},{"bike_id":"2948d268-a179-4b6e-b583-0131c4a5d61a","system_id":"levelo_inurba_marseille","lat":43.313391,"lon":5.36706,"is_reserved":false,"is_disabled":false,"rental_uris":{"android":"levelo://app?vid=2948d268-a179-4b6e-b583-0131c4a5d61a","ios":"levelo://app?vid=2948d268-a179-4b6e-b583-0131c4a5d61a"},"vehicle_type_id":"4","last_reported":1711660029,"current_range_meters":17200,"station_id":"ce4bgr92rcd13ifvqc6g","pricing_plan_id":"cebpf4jnsgd1na2vs0mg"},{"bike_id":"869336fa-3269-4a6a-afe5-3d1a5ef61751","system_id":"levelo_inurba_marseille","lat":43.31341,"lon":5.367098,"is_reserved":false,"is_disabled":false,"rental_uris":{"android":"levelo://app?vid=869336fa-3269-4a6a-afe5-3d1a5ef61751","ios":"levelo://app?vid=869336fa-3269-4a6a-afe5-3d1a5ef61751"},"vehicle_type_id":"4","last_reported":1711660029,"current_range_meters":20800,"station_id":"ce4bgr92rcd13ifvqc6g","pricing_plan_id":"cebpf4jnsgd1na2vs0mg"},{"bike_id":"2a087917-aa85-44ab-99ea-df6d0518b973","system_id":"levelo_inurba_marseille","lat":43.313391,"lon":5.36706,"is_reserved":false,"is_disabled":false,"rental_uris":{"android":"levelo://app?vid=2a087917-aa85-44ab-99ea-df6d0518b973","ios":"levelo://app?vid=2a087917-aa85-44ab-99ea-df6d0518b973"},"vehicle_type_id":"4","last_reported":1711660029,"current_range_meters":8400,"station_id":"ce4bgr92rcd13ifvqc6g","pricing_plan_id":"cebpf4jnsgd1na2vs0mg"},{"bike_id":"f0155069-f9a3-4c1b-87f8-3af9ddf8ee2c","system_id":"levelo_inurba_marseille","lat":43.31341,"lon":5.367098,"is_reserved":false,"is_disabled":false,"rental_uris":{"android":"levelo://app?vid=f0155069-f9a3-4c1b-87f8-3af9ddf8ee2c","ios":"levelo://app?vid=f0155069-f9a3-4c1b-87f8-3af9ddf8ee2c"},"vehicle_type_id":"4","last_reported":1711660029,"current_range_meters":9200,"station_id":"ce4bgr92rcd13ifvqc6g","pricing_plan_id":"cebpf4jnsgd1na2vs0mg"},{"bike_id":"e7dd8f8c-b3bc-41e4-81b4-af3a008c9715","system_id":"levelo_inurba_marseille","lat":43.31341,"lon":5.367098,"is_reserved":false,"is_disabled":false,"rental_uris":{"android":"levelo://app?vid=e7dd8f8c-b3bc-41e4-81b4-af3a008c9715","ios":"levelo://app?vid=e7dd8f8c-b3bc-41e4-81b4-af3a008c9715"},"vehicle_type_id":"4","last_reported":1711660029,"current_range_meters":18000,"station_id":"ce4bgr92rcd13ifvqc6g","pricing_plan_id":"cebpf4jnsgd1na2vs0mg"},{"bike_id":"3b34e6aa-206c-434f-b7d5-c6d98831af73","system_id":"levelo_inurba_marseille","lat":43.31341,"lon":5.367098,"is_reserved":false,"is_disabled":false,"rental_uris":{"android":"levelo://app?vid=3b34e6aa-206c-434f-b7d5-c6d98831af73","ios":"levelo://app?vid=3b34e6aa-206c-434f-b7d5-c6d98831af73"},"vehicle_type_id":"4","last_reported":1711660029,"current_range_meters":10000,"station_id":"ce4bgr92rcd13ifvqc6g","pricing_plan_id":"cebpf4jnsgd1na2vs0mg"},{"bike_id":"016687a3-a842-4b8b-bfe3-100d087ac3ab","system_id":"levelo_inurba_marseille","lat":43.31341,"lon":5.367098,"is_reserved":false,"is_disabled":false,"rental_uris":{"android":"levelo://app?vid=016687a3-a842-4b8b-bfe3-100d087ac3ab","ios":"levelo://app?vid=016687a3-a842-4b8b-bfe3-100d087ac3ab"},"vehicle_type_id":"4","last_reported":1711660029,"current_range_meters":3200,"station_id":"ce4bgr92rcd13ifvqc6g","pricing_plan_id":"cebpf4jnsgd1na2vs0mg"},{"bike_id":"54d7353b-4adc-4b06-8deb-74da3db64e13","system_id":"levelo_inurba_marseille","lat":43.31341,"lon":5.367098,"is_reserved":false,"is_disabled":false,"rental_uris":{"android":"levelo://app?vid=54d7353b-4adc-4b06-8deb-74da3db64e13","ios":"levelo://app?vid=54d7353b-4adc-4b06-8deb-74da3db64e13"},"vehicle_type_id":"4","last_reported":1711660029,"current_range_meters":1600,"station_id":"ce4bgr92rcd13ifvqc6g","pricing_plan_id":"cebpf4jnsgd1na2vs0mg"},{"bike_id":"069e0a2f-fd8e-4e71-8763-2437d94d40c7","system_id":"levelo_inurba_marseille","lat":43.31341,"lon":5.367098,"is_reserved":false,"is_disabled":false,"rental_uris":{"android":"levelo://app?vid=069e0a2f-fd8e-4e71-8763-2437d94d40c7","ios":"levelo://app?vid=069e0a2f-fd8e-4e71-8763-2437d94d40c7"},"vehicle_type_id":"4","last_reported":1711660029,"current_range_meters":28400,"station_id":"ce4bgr92rcd13ifvqc6g","pricing_plan_id":"cebpf4jnsgd1na2vs0mg"},{"bike_id":"52cc7a14-54de-426a-8e86-887383fa4c9b","system_id":"levelo_inurba_marseille","lat":43.311722,"lon":5.387247,"is_reserved":false,"is_disabled":false,"rental_uris":{"android":"levelo://app?vid=52cc7a14-54de-426a-8e86-887383fa4c9b","ios":"levelo://app?vid=52cc7a14-54de-426a-8e86-887383fa4c9b"},"vehicle_type_id":"4","last_reported":1711660029,"current_range_meters":16000,"station_id":"ce4bgv12rcd13ifvqcp0","pricing_plan_id":"cebpf4jnsgd1na2vs0mg"},{"bike_id":"62a9befa-b93d-4164-b591-70e62995753a","system_id":"levelo_inurba_marseille","lat":43.312239,"lon":5.368562,"is_reserved":false,"is_disabled":false,"rental_uris":{"android":"levelo://app?vid=62a9befa-b93d-4164-b591-70e62995753a","ios":"levelo://app?vid=62a9befa-b93d-4164-b591-70e62995753a"},"vehicle_type_id":"4","last_reported":1711660029,"current_range_meters":26400,"station_id":"ce4bgl92rcd13ifvqbq0","pricing_plan_id":"cebpf4jnsgd1na2vs0mg"},{"bike_id":"f602c62e-e446-4db7-a7f3-5999d2e4cd69","system_id":"levelo_inurba_marseille","lat":43.3124,"lon":5.36883,"is_reserved":false,"is_disabled":false,"rental_uris":{"android":"levelo://app?vid=f602c62e-e446-4db7-a7f3-5999d2e4cd69","ios":"levelo://app?vid=f602c62e-e446-4db7-a7f3-5999d2e4cd69"},"vehicle_type_id":"4","last_reported":1711660029,"current_range_meters":10800,"station_id":"ce4bgl92rcd13ifvqbq0","pricing_plan_id":"cebpf4jnsgd1na2vs0mg"},{"bike_id":"eb69084d-6518-41c5-8bda-cffece71ee0b","system_id":"levelo_inurba_marseille","lat":43.312239,"lon":5.368562,"is_reserved":false,"is_disabled":false,"rental_uris":{"android":"levelo://app?vid=eb69084d-6518-41c5-8bda-cffece71ee0b","ios":"levelo://app?vid=eb69084d-6518-41c5-8bda-cffece71ee0b"},"vehicle_type_id":"4","last_reported":1711660029,"current_range_meters":9200,"station_id":"ce4bgl92rcd13ifvqbq0","pricing_plan_id":"cebpf4jnsgd1na2vs0mg"},{"bike_id":"eef9a3f7-1ef4-4361-91c4-13ecca73f3f9","system_id":"levelo_inurba_marseille","lat":43.312239,"lon":5.368562,"is_reserved":false,"is_disabled":false,"rental_uris":{"android":"levelo://app?vid=eef9a3f7-1ef4-4361-91c4-13ecca73f3f9","ios":"levelo://app?vid=eef9a3f7-1ef4-4361-91c4-13ecca73f3f9"},"vehicle_type_id":"4","last_reported":1711660029,"current_range_meters":0,"station_id":"ce4bgl92rcd13ifvqbq0","pricing_plan_id":"cebpf4jnsgd1na2vs0mg"},{"bike_id":"dc644691-f312-445e-a1ec-61f575e6918d","system_id":"levelo_inurba_marseille","lat":43.3091,"lon":5.3686,"is_reserved":false,"is_disabled":false,"rental_uris":{"android":"levelo://app?vid=dc644691-f312-445e-a1ec-61f575e6918d","ios":"levelo://app?vid=dc644691-f312-445e-a1ec-61f575e6918d"},"vehicle_type_id":"4","last_reported":1711660029,"current_range_meters":0,"station_id":"ce4bgn92rcd13ifvqbvg","pricing_plan_id":"cebpf4jnsgd1na2vs0mg"},{"bike_id":"487f9b2a-8e22-4a5d-bb84-5d2c3cd6c73a","system_id":"levelo_inurba_marseille","lat":43.31484,"lon":5.373,"is_reserved":false,"is_disabled":false,"rental_uris":{"android":"levelo://app?vid=487f9b2a-8e22-4a5d-bb84-5d2c3cd6c73a","ios":"levelo://app?vid=487f9b2a-8e22-4a5d-bb84-5d2c3cd6c73a"},"vehicle_type_id":"4","last_reported":1711660029,"current_range_meters":0,"station_id":"ce4bgt12rcd13ifvqcd0","pricing_plan_id":"cebpf4jnsgd1na2vs0mg"},{"bike_id":"cc397b1f-865e-46c0-8b4b-028cb78e8c42","system_id":"levelo_inurba_marseille","lat":43.31492,"lon":5.37307,"is_reserved":false,"is_disabled":false,"rental_uris":{"android":"levelo://app?vid=cc397b1f-865e-46c0-8b4b-028cb78e8c42","ios":"levelo://app?vid=cc397b1f-865e-46c0-8b4b-028cb78e8c42"},"vehicle_type_id":"4","last_reported":1711660029,"current_range_meters":0,"station_id":"ce4bgt12rcd13ifvqcd0","pricing_plan_id":"cebpf4jnsgd1na2vs0mg"},{"bike_id":"ee73ee73-c91b-4b2a-9291-1168fac11ad7","system_id":"levelo_inurba_marseille","lat":43.309039,"lon":5.371797,"is_reserved":false,"is_disabled":false,"rental_uris":{"android":"levelo://app?vid=ee73ee73-c91b-4b2a-9291-1168fac11ad7","ios":"levelo://app?vid=ee73ee73-c91b-4b2a-9291-1168fac11ad7"},"vehicle_type_id":"4","last_reported":1711660029,"current_range_meters":6000,"station_id":"ce4bguh2rcd13ifvqckg","pricing_plan_id":"cebpf4jnsgd1na2vs0mg"},{"bike_id":"7d104911-063c-44d6-9d1c-3b86c6f92322","system_id":"levelo_inurba_marseille","lat":43.3089,"lon":5.37194,"is_reserved":false,"is_disabled":false,"rental_uris":{"android":"levelo://app?vid=7d104911-063c-44d6-9d1c-3b86c6f92322","ios":"levelo://app?vid=7d104911-063c-44d6-9d1c-3b86c6f92322"},"vehicle_type_id":"4","last_reported":1711660029,"current_range_meters":0,"station_id":"ce4bguh2rcd13ifvqckg","pricing_plan_id":"cebpf4jnsgd1na2vs0mg"},{"bike_id":"cb7e258b-22e6-48b3-9d56-8b91ebd7a82d","system_id":"levelo_inurba_marseille","lat":43.309039,"lon":5.371797,"is_reserved":false,"is_disabled":false,"rental_uris":{"android":"levelo://app?vid=cb7e258b-22e6-48b3-9d56-8b91ebd7a82d","ios":"levelo://app?vid=cb7e258b-22e6-48b3-9d56-8b91ebd7a82d"},"vehicle_type_id":"4","last_reported":1711660029,"current_range_meters":6800,"station_id":"ce4bguh2rcd13ifvqckg","pricing_plan_id":"cebpf4jnsgd1na2vs0mg"},{"bike_id":"d8470029-8435-45bd-8808-a6bfaf93aa3e","system_id":"levelo_inurba_marseille","lat":43.305714,"lon":5.365633,"is_reserved":false,"is_disabled":false,"rental_uris":{"android":"levelo://app?vid=d8470029-8435-45bd-8808-a6bfaf93aa3e","ios":"levelo://app?vid=d8470029-8435-45bd-8808-a6bfaf93aa3e"},"vehicle_type_id":"4","last_reported":1711660029,"current_range_meters":4000,"station_id":"ce4bgs12rcd13ifvqcag","pricing_plan_id":"cebpf4jnsgd1na2vs0mg"},{"bike_id":"e419a4c9-2676-45a5-ace7-a2301cda1536","system_id":"levelo_inurba_marseille","lat":43.305714,"lon":5.365633,"is_reserved":false,"is_disabled":false,"rental_uris":{"android":"levelo://app?vid=e419a4c9-2676-45a5-ace7-a2301cda1536","ios":"levelo://app?vid=e419a4c9-2676-45a5-ace7-a2301cda1536"},"vehicle_type_id":"4","last_reported":1711660029,"current_range_meters":20800,"station_id":"ce4bgs12rcd13ifvqcag","pricing_plan_id":"cebpf4jnsgd1na2vs0mg"},{"bike_id":"dab4fb0c-25cf-4fe6-96a5-e43544001642","system_id":"levelo_inurba_marseille","lat":43.305714,"lon":5.365633,"is_reserved":false,"is_disabled":false,"rental_uris":{"android":"levelo://app?vid=dab4fb0c-25cf-4fe6-96a5-e43544001642","ios":"levelo://app?vid=dab4fb0c-25cf-4fe6-96a5-e43544001642"},"vehicle_type_id":"4","last_reported":1711660029,"current_range_meters":800,"station_id":"ce4bgs12rcd13ifvqcag","pricing_plan_id":"cebpf4jnsgd1na2vs0mg"},{"bike_id":"84245f00-4ee4-4556-a250-ce767da8ff8c","system_id":"levelo_inurba_marseille","lat":43.305714,"lon":5.365633,"is_reserved":false,"is_disabled":false,"rental_uris":{"android":"levelo://app?vid=84245f00-4ee4-4556-a250-ce767da8ff8c","ios":"levelo://app?vid=84245f00-4ee4-4556-a250-ce767da8ff8c"},"vehicle_type_id":"4","last_reported":1711660029,"current_range_meters":14400,"station_id":"ce4bgs12rcd13ifvqcag","pricing_plan_id":"cebpf4jnsgd1na2vs0mg"},{"bike_id":"c2161c94-e0b2-4121-a717-126b42e0098f","system_id":"levelo_inurba_marseille","lat":43.311179,"lon":5.377684,"is_reserved":false,"is_disabled":false,"rental_uris":{"android":"levelo://app?vid=c2161c94-e0b2-4121-a717-126b42e0098f","ios":"levelo://app?vid=c2161c94-e0b2-4121-a717-126b42e0098f"},"vehicle_type_id":"4","last_reported":1711660029,"current_range_meters":0,"station_id":"ce4bgt92rcd13ifvqcg0","pricing_plan_id":"cebpf4jnsgd1na2vs0mg"},{"bike_id":"ec5d3b59-0a2b-48a0-a77b-40b13e1fd9f1","system_id":"levelo_inurba_marseille","lat":43.311125,"lon":5.377624,"is_reserved":false,"is_disabled":false,"rental_uris":{"android":"levelo://app?vid=ec5d3b59-0a2b-48a0-a77b-40b13e1fd9f1","ios":"levelo://app?vid=ec5d3b59-0a2b-48a0-a77b-40b13e1fd9f1"},"vehicle_type_id":"4","last_reported":1711660029,"current_range_meters":30400,"station_id":"ce4bgt92rcd13ifvqcg0","pricing_plan_id":"cebpf4jnsgd1na2vs0mg"},{"bike_id":"2be13122-9e55-4794-bfce-28df797fbd87","system_id":"levelo_inurba_marseille","lat":43.308253,"lon":5.37697,"is_reserved":false,"is_disabled":false,"rental_uris":{"android":"levelo://app?vid=2be13122-9e55-4794-bfce-28df797fbd87","ios":"levelo://app?vid=2be13122-9e55-4794-bfce-28df797fbd87"},"vehicle_type_id":"4","last_reported":1711660029,"current_range_meters":0,"station_id":"","pricing_plan_id":"cebpf4jnsgd1na2vs0mg"},{"bike_id":"bbfed310-f5ca-41c8-bf3a-f83cd6959697","system_id":"levelo_inurba_marseille","lat":43.313336,"lon":5.378784,"is_reserved":false,"is_disabled":false,"rental_uris":{"android":"levelo://app?vid=bbfed310-f5ca-41c8-bf3a-f83cd6959697","ios":"levelo://app?vid=bbfed310-f5ca-41c8-bf3a-f83cd6959697"},"vehicle_type_id":"4","last_reported":1711660029,"current_range_meters":27200,"station_id":"","pricing_plan_id":"cebpf4jnsgd1na2vs0mg"},{"bike_id":"5cbfd4c0-f04e-46a5-8a34-49703ffe229d","system_id":"levelo_inurba_marseille","lat":43.317075,"lon":5.377367,"is_reserved":false,"is_disabled":false,"rental_uris":{"android":"levelo://app?vid=5cbfd4c0-f04e-46a5-8a34-49703ffe229d","ios":"levelo://app?vid=5cbfd4c0-f04e-46a5-8a34-49703ffe229d"},"vehicle_type_id":"4","last_reported":1711660029,"current_range_meters":28000,"station_id":"ce4bgth2rcd13ifvqch0","pricing_plan_id":"cebpf4jnsgd1na2vs0mg"},{"bike_id":"c0cbdffa-5808-4bb3-87f8-19feb53d44a4","system_id":"levelo_inurba_marseille","lat":43.317075,"lon":5.377367,"is_reserved":false,"is_disabled":false,"rental_uris":{"android":"levelo://app?vid=c0cbdffa-5808-4bb3-87f8-19feb53d44a4","ios":"levelo://app?vid=c0cbdffa-5808-4bb3-87f8-19feb53d44a4"},"vehicle_type_id":"4","last_reported":1711660029,"current_range_meters":4800,"station_id":"ce4bgth2rcd13ifvqch0","pricing_plan_id":"cebpf4jnsgd1na2vs0mg"},{"bike_id":"a2ca5a7d-8f7b-4d48-88a3-0d98f6906d10","system_id":"levelo_inurba_marseille","lat":43.317075,"lon":5.377367,"is_reserved":false,"is_disabled":false,"rental_uris":{"android":"levelo://app?vid=a2ca5a7d-8f7b-4d48-88a3-0d98f6906d10","ios":"levelo://app?vid=a2ca5a7d-8f7b-4d48-88a3-0d98f6906d10"},"vehicle_type_id":"4","last_reported":1711660029,"current_range_meters":19600,"station_id":"ce4bgth2rcd13ifvqch0","pricing_plan_id":"cebpf4jnsgd1na2vs0mg"},{"bike_id":"3ed2df49-b2a5-4776-92e1-a1aa558dfb80","system_id":"levelo_inurba_marseille","lat":43.31177,"lon":5.37993,"is_reserved":false,"is_disabled":false,"rental_uris":{"android":"levelo://app?vid=3ed2df49-b2a5-4776-92e1-a1aa558dfb80","ios":"levelo://app?vid=3ed2df49-b2a5-4776-92e1-a1aa558dfb80"},"vehicle_type_id":"4","last_reported":1711660029,"current_range_meters":0,"station_id":"","pricing_plan_id":"cebpf4jnsgd1na2vs0mg"},{"bike_id":"f8e95ed2-a394-4a7d-b0a7-ecdaad0e624d","system_id":"levelo_inurba_marseille","lat":43.303046,"lon":5.368981,"is_reserved":false,"is_disabled":false,"rental_uris":{"android":"levelo://app?vid=f8e95ed2-a394-4a7d-b0a7-ecdaad0e624d","ios":"levelo://app?vid=f8e95ed2-a394-4a7d-b0a7-ecdaad0e624d"},"vehicle_type_id":"4","last_reported":1711660029,"current_range_meters":2000,"station_id":"ce4bgqh2rcd13ifvqc5g","pricing_plan_id":"cebpf4jnsgd1na2vs0mg"},{"bike_id":"48eff216-1378-4aa9-aee2-051ca7e75abf","system_id":"levelo_inurba_marseille","lat":43.30314,"lon":5.368945,"is_reserved":false,"is_disabled":false,"rental_uris":{"android":"levelo://app?vid=48eff216-1378-4aa9-aee2-051ca7e75abf","ios":"levelo://app?vid=48eff216-1378-4aa9-aee2-051ca7e75abf"},"vehicle_type_id":"4","last_reported":1711660029,"current_range_meters":2800,"station_id":"ce4bgqh2rcd13ifvqc5g","pricing_plan_id":"cebpf4jnsgd1na2vs0mg"},{"bike_id":"4a452003-4457-4fa1-918e-a4af968b18be","system_id":"levelo_inurba_marseille","lat":43.315289,"lon":5.380349,"is_reserved":false,"is_disabled":false,"rental_uris":{"android":"levelo://app?vid=4a452003-4457-4fa1-918e-a4af968b18be","ios":"levelo://app?vid=4a452003-4457-4fa1-918e-a4af968b18be"},"vehicle_type_id":"4","last_reported":1711660029,"current_range_meters":15600,"station_id":"ce4bhsp2rcd13ifvqi50","pricing_plan_id":"cebpf4jnsgd1na2vs0mg"},{"bike_id":"82f13c6e-7524-4299-8dbd-957e804e2665","system_id":"levelo_inurba_marseille","lat":43.315289,"lon":5.380349,"is_reserved":false,"is_disabled":false,"rental_uris":{"android":"levelo://app?vid=82f13c6e-7524-4299-8dbd-957e804e2665","ios":"levelo://app?vid=82f13c6e-7524-4299-8dbd-957e804e2665"},"vehicle_type_id":"4","last_reported":1711660029,"current_range_meters":17200,"station_id":"ce4bhsp2rcd13ifvqi50","pricing_plan_id":"cebpf4jnsgd1na2vs0mg"},{"bike_id":"9d82d33f-25c6-4645-9dde-5336343c2b12","system_id":"levelo_inurba_marseille","lat":43.308012,"lon":5.381511,"is_reserved":false,"is_disabled":false,"rental_uris":{"android":"levelo://app?vid=9d82d33f-25c6-4645-9dde-5336343c2b12","ios":"levelo://app?vid=9d82d33f-25c6-4645-9dde-5336343c2b12"},"vehicle_type_id":"4","last_reported":1711660029,"current_range_meters":14000,"station_id":"ce4bgt12rcd13ifvqce0","pricing_plan_id":"cebpf4jnsgd1na2vs0mg"},{"bike_id":"c0e24edb-4354-47a2-ae5a-365562df0333","system_id":"levelo_inurba_marseille","lat":43.31554,"lon":5.38069,"is_reserved":false,"is_disabled":false,"rental_uris":{"android":"levelo://app?vid=c0e24edb-4354-47a2-ae5a-365562df0333","ios":"levelo://app?vid=c0e24edb-4354-47a2-ae5a-365562df0333"},"vehicle_type_id":"4","last_reported":1711660029,"current_range_meters":13600,"station_id":"ce4bhsp2rcd13ifvqi50","pricing_plan_id":"cebpf4jnsgd1na2vs0mg"},{"bike_id":"d5965d43-6635-4cab-9994-884b11ebdd9e","system_id":"levelo_inurba_marseille","lat":43.301939,"lon":5.366286,"is_reserved":false,"is_disabled":false,"rental_uris":{"android":"levelo://app?vid=d5965d43-6635-4cab-9994-884b11ebdd9e","ios":"levelo://app?vid=d5965d43-6635-4cab-9994-884b11ebdd9e"},"vehicle_type_id":"4","last_reported":1711660029,"current_range_meters":14000,"station_id":"ce4bgrh2rcd13ifvqc8g","pricing_plan_id":"cebpf4jnsgd1na2vs0mg"},{"bike_id":"c5e699e6-eebf-4d26-8034-84a00ccb6f45","system_id":"levelo_inurba_marseille","lat":43.30195,"lon":5.366249,"is_reserved":false,"is_disabled":false,"rental_uris":{"android":"levelo://app?vid=c5e699e6-eebf-4d26-8034-84a00ccb6f45","ios":"levelo://app?vid=c5e699e6-eebf-4d26-8034-84a00ccb6f45"},"vehicle_type_id":"4","last_reported":1711660029,"current_range_meters":0,"station_id":"ce4bgrh2rcd13ifvqc8g","pricing_plan_id":"cebpf4jnsgd1na2vs0mg"},{"bike_id":"c7a90ca6-a6ce-4454-b9e8-f76f668624ce","system_id":"levelo_inurba_marseille","lat":43.301939,"lon":5.366286,"is_reserved":false,"is_disabled":false,"rental_uris":{"android":"levelo://app?vid=c7a90ca6-a6ce-4454-b9e8-f76f668624ce","ios":"levelo://app?vid=c7a90ca6-a6ce-4454-b9e8-f76f668624ce"},"vehicle_type_id":"4","last_reported":1711660029,"current_range_meters":24400,"station_id":"ce4bgrh2rcd13ifvqc8g","pricing_plan_id":"cebpf4jnsgd1na2vs0mg"},{"bike_id":"28f4a8d3-057e-4631-81ae-180e22650fa0","system_id":"levelo_inurba_marseille","lat":43.301939,"lon":5.366286,"is_reserved":false,"is_disabled":false,"rental_uris":{"android":"levelo://app?vid=28f4a8d3-057e-4631-81ae-180e22650fa0","ios":"levelo://app?vid=28f4a8d3-057e-4631-81ae-180e22650fa0"},"vehicle_type_id":"4","last_reported":1711660029,"current_range_meters":12400,"station_id":"ce4bgrh2rcd13ifvqc8g","pricing_plan_id":"cebpf4jnsgd1na2vs0mg"},{"bike_id":"25bd6481-c83e-45bb-b904-ed786260af27","system_id":"levelo_inurba_marseille","lat":43.308012,"lon":5.381511,"is_reserved":false,"is_disabled":false,"rental_uris":{"android":"levelo://app?vid=25bd6481-c83e-45bb-b904-ed786260af27","ios":"levelo://app?vid=25bd6481-c83e-45bb-b904-ed786260af27"},"vehicle_type_id":"4","last_reported":1711660029,"current_range_meters":28400,"station_id":"ce4bgt12rcd13ifvqce0","pricing_plan_id":"cebpf4jnsgd1na2vs0mg"},{"bike_id":"7f7bfdf4-77a4-4e52-8242-a1f0fe432e7e","system_id":"levelo_inurba_marseille","lat":43.308012,"lon":5.381511,"is_reserved":false,"is_disabled":false,"rental_uris":{"android":"levelo://app?vid=7f7bfdf4-77a4-4e52-8242-a1f0fe432e7e","ios":"levelo://app?vid=7f7bfdf4-77a4-4e52-8242-a1f0fe432e7e"},"vehicle_type_id":"4","last_reported":1711660029,"current_range_meters":14000,"station_id":"ce4bgt12rcd13ifvqce0","pricing_plan_id":"cebpf4jnsgd1na2vs0mg"},{"bike_id":"1166bd8d-21d2-4ca6-ab47-8b3d9e35e2dc","system_id":"levelo_inurba_marseille","lat":43.307945,"lon":5.376487,"is_reserved":false,"is_disabled":false,"rental_uris":{"android":"levelo://app?vid=1166bd8d-21d2-4ca6-ab47-8b3d9e35e2dc","ios":"levelo://app?vid=1166bd8d-21d2-4ca6-ab47-8b3d9e35e2dc"},"vehicle_type_id":"4","last_reported":1711660029,"current_range_meters":2000,"station_id":"ce4bgv92rcd13ifvqcq0","pricing_plan_id":"cebpf4jnsgd1na2vs0mg"},{"bike_id":"467dd0f0-cd91-4b68-9534-ed8e20ed61c0","system_id":"levelo_inurba_marseille","lat":43.304606,"lon":5.379026,"is_reserved":false,"is_disabled":false,"rental_uris":{"android":"levelo://app?vid=467dd0f0-cd91-4b68-9534-ed8e20ed61c0","ios":"levelo://app?vid=467dd0f0-cd91-4b68-9534-ed8e20ed61c0"},"vehicle_type_id":"4","last_reported":1711660029,"current_range_meters":800,"station_id":"ce4bgup2rcd13ifvqcn0","pricing_plan_id":"cebpf4jnsgd1na2vs0mg"},{"bike_id":"097efd98-a822-4dba-9e65-4e37aa449e76","system_id":"levelo_inurba_marseille","lat":43.30462,"lon":5.37901,"is_reserved":false,"is_disabled":false,"rental_uris":{"android":"levelo://app?vid=097efd98-a822-4dba-9e65-4e37aa449e76","ios":"levelo://app?vid=097efd98-a822-4dba-9e65-4e37aa449e76"},"vehicle_type_id":"4","last_reported":1711660029,"current_range_meters":0,"station_id":"ce4bgup2rcd13ifvqcn0","pricing_plan_id":"cebpf4jnsgd1na2vs0mg"},{"bike_id":"917bbf15-9872-4774-b0e5-991899ce8178","system_id":"levelo_inurba_marseille","lat":43.304649,"lon":5.379068,"is_reserved":false,"is_disabled":false,"rental_uris":{"android":"levelo://app?vid=917bbf15-9872-4774-b0e5-991899ce8178","ios":"levelo://app?vid=917bbf15-9872-4774-b0e5-991899ce8178"},"vehicle_type_id":"4","last_reported":1711660029,"current_range_meters":0,"station_id":"ce4bgup2rcd13ifvqcn0","pricing_plan_id":"cebpf4jnsgd1na2vs0mg"},{"bike_id":"1bf0e086-200f-4676-aa95-1c2ee6866574","system_id":"levelo_inurba_marseille","lat":43.324771,"lon":5.36557,"is_reserved":false,"is_disabled":false,"rental_uris":{"android":"levelo://app?vid=1bf0e086-200f-4676-aa95-1c2ee6866574","ios":"levelo://app?vid=1bf0e086-200f-4676-aa95-1c2ee6866574"},"vehicle_type_id":"4","last_reported":1711660029,"current_range_meters":7200,"station_id":"ce4bhs12rcd13ifvqhvg","pricing_plan_id":"cebpf4jnsgd1na2vs0mg"},{"bike_id":"130e069b-8fc6-4ee8-97cd-0c4f45529b1e","system_id":"levelo_inurba_marseille","lat":43.324771,"lon":5.36557,"is_reserved":false,"is_disabled":false,"rental_uris":{"android":"levelo://app?vid=130e069b-8fc6-4ee8-97cd-0c4f45529b1e","ios":"levelo://app?vid=130e069b-8fc6-4ee8-97cd-0c4f45529b1e"},"vehicle_type_id":"4","last_reported":1711660029,"current_range_meters":9600,"station_id":"ce4bhs12rcd13ifvqhvg","pricing_plan_id":"cebpf4jnsgd1na2vs0mg"},{"bike_id":"ba7f8788-aa0a-4068-a35d-f51dced3e80e","system_id":"levelo_inurba_marseille","lat":43.324771,"lon":5.36557,"is_reserved":false,"is_disabled":false,"rental_uris":{"android":"levelo://app?vid=ba7f8788-aa0a-4068-a35d-f51dced3e80e","ios":"levelo://app?vid=ba7f8788-aa0a-4068-a35d-f51dced3e80e"},"vehicle_type_id":"4","last_reported":1711660029,"current_range_meters":11200,"station_id":"ce4bhs12rcd13ifvqhvg","pricing_plan_id":"cebpf4jnsgd1na2vs0mg"},{"bike_id":"d7e593ae-0e04-4801-88d6-585d610f28a0","system_id":"levelo_inurba_marseille","lat":43.324771,"lon":5.36557,"is_reserved":false,"is_disabled":false,"rental_uris":{"android":"levelo://app?vid=d7e593ae-0e04-4801-88d6-585d610f28a0","ios":"levelo://app?vid=d7e593ae-0e04-4801-88d6-585d610f28a0"},"vehicle_type_id":"4","last_reported":1711660029,"current_range_meters":8800,"station_id":"ce4bhs12rcd13ifvqhvg","pricing_plan_id":"cebpf4jnsgd1na2vs0mg"},{"bike_id":"f6f72ee2-3f0f-4fe4-910a-0ab1c3a2398f","system_id":"levelo_inurba_marseille","lat":43.324771,"lon":5.36557,"is_reserved":false,"is_disabled":false,"rental_uris":{"android":"levelo://app?vid=f6f72ee2-3f0f-4fe4-910a-0ab1c3a2398f","ios":"levelo://app?vid=f6f72ee2-3f0f-4fe4-910a-0ab1c3a2398f"},"vehicle_type_id":"4","last_reported":1711660029,"current_range_meters":9600,"station_id":"ce4bhs12rcd13ifvqhvg","pricing_plan_id":"cebpf4jnsgd1na2vs0mg"},{"bike_id":"9eb67544-f7d3-43b0-b1f5-34e5bc0f5ca0","system_id":"levelo_inurba_marseille","lat":43.324771,"lon":5.36557,"is_reserved":false,"is_disabled":false,"rental_uris":{"android":"levelo://app?vid=9eb67544-f7d3-43b0-b1f5-34e5bc0f5ca0","ios":"levelo://app?vid=9eb67544-f7d3-43b0-b1f5-34e5bc0f5ca0"},"vehicle_type_id":"4","last_reported":1711660029,"current_range_meters":0,"station_id":"ce4bhs12rcd13ifvqhvg","pricing_plan_id":"cebpf4jnsgd1na2vs0mg"},{"bike_id":"731d926e-19c8-4486-bd70-ea3b0c9ef716","system_id":"levelo_inurba_marseille","lat":43.31075,"lon":5.38355,"is_reserved":false,"is_disabled":false,"rental_uris":{"android":"levelo://app?vid=731d926e-19c8-4486-bd70-ea3b0c9ef716","ios":"levelo://app?vid=731d926e-19c8-4486-bd70-ea3b0c9ef716"},"vehicle_type_id":"4","last_reported":1711660029,"current_range_meters":0,"station_id":"ce4bgv92rcd13ifvqcr0","pricing_plan_id":"cebpf4jnsgd1na2vs0mg"},{"bike_id":"bf6f150d-c6ca-4ed5-94e3-1c68f4c18160","system_id":"levelo_inurba_marseille","lat":43.3107,"lon":5.383552,"is_reserved":false,"is_disabled":false,"rental_uris":{"android":"levelo://app?vid=bf6f150d-c6ca-4ed5-94e3-1c68f4c18160","ios":"levelo://app?vid=bf6f150d-c6ca-4ed5-94e3-1c68f4c18160"},"vehicle_type_id":"4","last_reported":1711660029,"current_range_meters":0,"station_id":"ce4bgv92rcd13ifvqcr0","pricing_plan_id":"cebpf4jnsgd1na2vs0mg"},{"bike_id":"0914e78e-3615-48a8-a3ef-5675267d49df","system_id":"levelo_inurba_marseille","lat":43.304274,"lon":5.397513,"is_reserved":false,"is_disabled":false,"rental_uris":{"android":"levelo://app?vid=0914e78e-3615-48a8-a3ef-5675267d49df","ios":"levelo://app?vid=0914e78e-3615-48a8-a3ef-5675267d49df"},"vehicle_type_id":"4","last_reported":1711660029,"current_range_meters":3600,"station_id":"ce4bh092rcd13ifvqd20","pricing_plan_id":"cebpf4jnsgd1na2vs0mg"},{"bike_id":"17bc8836-d7ec-46a6-8535-1a47f4ae85c5","system_id":"levelo_inurba_marseille","lat":43.310804,"lon":5.38359,"is_reserved":false,"is_disabled":false,"rental_uris":{"android":"levelo://app?vid=17bc8836-d7ec-46a6-8535-1a47f4ae85c5","ios":"levelo://app?vid=17bc8836-d7ec-46a6-8535-1a47f4ae85c5"},"vehicle_type_id":"4","last_reported":1711660029,"current_range_meters":0,"station_id":"ce4bgv92rcd13ifvqcr0","pricing_plan_id":"cebpf4jnsgd1na2vs0mg"},{"bike_id":"efba47c0-0371-4a8b-b1a3-18cb5de7595a","system_id":"levelo_inurba_marseille","lat":43.31069,"lon":5.383601,"is_reserved":false,"is_disabled":false,"rental_uris":{"android":"levelo://app?vid=efba47c0-0371-4a8b-b1a3-18cb5de7595a","ios":"levelo://app?vid=efba47c0-0371-4a8b-b1a3-18cb5de7595a"},"vehicle_type_id":"4","last_reported":1711660029,"current_range_meters":0,"station_id":"ce4bgv92rcd13ifvqcr0","pricing_plan_id":"cebpf4jnsgd1na2vs0mg"},{"bike_id":"d6c1b228-f3fc-49cd-b330-56dd7059eb9d","system_id":"levelo_inurba_marseille","lat":43.30147,"lon":5.3742,"is_reserved":false,"is_disabled":false,"rental_uris":{"android":"levelo://app?vid=d6c1b228-f3fc-49cd-b330-56dd7059eb9d","ios":"levelo://app?vid=d6c1b228-f3fc-49cd-b330-56dd7059eb9d"},"vehicle_type_id":"4","last_reported":1711660029,"current_range_meters":0,"station_id":"ce4bgs92rcd13ifvqcc0","pricing_plan_id":"cebpf4jnsgd1na2vs0mg"},{"bike_id":"f6cd057a-39ab-41a0-9e47-553e7eb637c8","system_id":"levelo_inurba_marseille","lat":43.30143,"lon":5.37413,"is_reserved":false,"is_disabled":false,"rental_uris":{"android":"levelo://app?vid=f6cd057a-39ab-41a0-9e47-553e7eb637c8","ios":"levelo://app?vid=f6cd057a-39ab-41a0-9e47-553e7eb637c8"},"vehicle_type_id":"4","last_reported":1711660029,"current_range_meters":5600,"station_id":"ce4bgs92rcd13ifvqcc0","pricing_plan_id":"cebpf4jnsgd1na2vs0mg"},{"bike_id":"d83131e9-d0e9-4575-a002-863fd07a027f","system_id":"levelo_inurba_marseille","lat":43.319935,"lon":5.381699,"is_reserved":false,"is_disabled":false,"rental_uris":{"android":"levelo://app?vid=d83131e9-d0e9-4575-a002-863fd07a027f","ios":"levelo://app?vid=d83131e9-d0e9-4575-a002-863fd07a027f"},"vehicle_type_id":"4","last_reported":1711660029,"current_range_meters":1200,"station_id":"ce4bhr12rcd13ifvqhpg","pricing_plan_id":"cebpf4jnsgd1na2vs0mg"},{"bike_id":"2af1d108-4dc8-44a3-bcf4-a0e0ba937b8d","system_id":"levelo_inurba_marseille","lat":43.31995,"lon":5.38145,"is_reserved":false,"is_disabled":false,"rental_uris":{"android":"levelo://app?vid=2af1d108-4dc8-44a3-bcf4-a0e0ba937b8d","ios":"levelo://app?vid=2af1d108-4dc8-44a3-bcf4-a0e0ba937b8d"},"vehicle_type_id":"4","last_reported":1711660029,"current_range_meters":17200,"station_id":"ce4bhr12rcd13ifvqhpg","pricing_plan_id":"cebpf4jnsgd1na2vs0mg"},{"bike_id":"f1a54125-3819-4398-bfe1-38963f6cc47c","system_id":"levelo_inurba_marseille","lat":43.29994,"lon":5.36572,"is_reserved":false,"is_disabled":false,"rental_uris":{"android":"levelo://app?vid=f1a54125-3819-4398-bfe1-38963f6cc47c","ios":"levelo://app?vid=f1a54125-3819-4398-bfe1-38963f6cc47c"},"vehicle_type_id":"4","last_reported":1711660029,"current_range_meters":4800,"station_id":"","pricing_plan_id":"cebpf4jnsgd1na2vs0mg"},{"bike_id":"2ae5a75f-5fbf-4f46-a5ac-b50798bc8faf","system_id":"levelo_inurba_marseille","lat":43.319935,"lon":5.381699,"is_reserved":false,"is_disabled":false,"rental_uris":{"android":"levelo://app?vid=2ae5a75f-5fbf-4f46-a5ac-b50798bc8faf","ios":"levelo://app?vid=2ae5a75f-5fbf-4f46-a5ac-b50798bc8faf"},"vehicle_type_id":"4","last_reported":1711660029,"current_range_meters":7600,"station_id":"ce4bhr12rcd13ifvqhpg","pricing_plan_id":"cebpf4jnsgd1na2vs0mg"},{"bike_id":"a263493d-bdcb-4178-8daa-6a519ed8256b","system_id":"levelo_inurba_marseille","lat":43.319935,"lon":5.381699,"is_reserved":false,"is_disabled":false,"rental_uris":{"android":"levelo://app?vid=a263493d-bdcb-4178-8daa-6a519ed8256b","ios":"levelo://app?vid=a263493d-bdcb-4178-8daa-6a519ed8256b"},"vehicle_type_id":"4","last_reported":1711660029,"current_range_meters":10800,"station_id":"ce4bhr12rcd13ifvqhpg","pricing_plan_id":"cebpf4jnsgd1na2vs0mg"},{"bike_id":"bd231c0a-2e9a-4753-9143-34a921226e99","system_id":"levelo_inurba_marseille","lat":43.31997,"lon":5.38153,"is_reserved":false,"is_disabled":false,"rental_uris":{"android":"levelo://app?vid=bd231c0a-2e9a-4753-9143-34a921226e99","ios":"levelo://app?vid=bd231c0a-2e9a-4753-9143-34a921226e99"},"vehicle_type_id":"4","last_reported":1711660029,"current_range_meters":29600,"station_id":"","pricing_plan_id":"cebpf4jnsgd1na2vs0mg"},{"bike_id":"f5408208-92fc-4487-be05-844dceb07b37","system_id":"levelo_inurba_marseille","lat":43.319934,"lon":5.381573,"is_reserved":false,"is_disabled":false,"rental_uris":{"android":"levelo://app?vid=f5408208-92fc-4487-be05-844dceb07b37","ios":"levelo://app?vid=f5408208-92fc-4487-be05-844dceb07b37"},"vehicle_type_id":"4","last_reported":1711660029,"current_range_meters":0,"station_id":"ce4bhr12rcd13ifvqhpg","pricing_plan_id":"cebpf4jnsgd1na2vs0mg"},{"bike_id":"ae653ebc-2cb7-4d32-aeb5-9accc5b2c8eb","system_id":"levelo_inurba_marseille","lat":43.32,"lon":5.38153,"is_reserved":false,"is_disabled":false,"rental_uris":{"android":"levelo://app?vid=ae653ebc-2cb7-4d32-aeb5-9accc5b2c8eb","ios":"levelo://app?vid=ae653ebc-2cb7-4d32-aeb5-9accc5b2c8eb"},"vehicle_type_id":"4","last_reported":1711660029,"current_range_meters":7200,"station_id":"ce4bhr12rcd13ifvqhpg","pricing_plan_id":"cebpf4jnsgd1na2vs0mg"},{"bike_id":"9c876009-218a-4a88-a42b-7773fc29fec7","system_id":"levelo_inurba_marseille","lat":43.31365,"lon":5.38488,"is_reserved":false,"is_disabled":false,"rental_uris":{"android":"levelo://app?vid=9c876009-218a-4a88-a42b-7773fc29fec7","ios":"levelo://app?vid=9c876009-218a-4a88-a42b-7773fc29fec7"},"vehicle_type_id":"4","last_reported":1711660029,"current_range_meters":0,"station_id":"ce4bgt92rcd13ifvqcf0","pricing_plan_id":"cebpf4jnsgd1na2vs0mg"},{"bike_id":"2278ca68-19a7-46b0-9aa4-8c8ba78015cb","system_id":"levelo_inurba_marseille","lat":43.313571,"lon":5.384829,"is_reserved":false,"is_disabled":false,"rental_uris":{"android":"levelo://app?vid=2278ca68-19a7-46b0-9aa4-8c8ba78015cb","ios":"levelo://app?vid=2278ca68-19a7-46b0-9aa4-8c8ba78015cb"},"vehicle_type_id":"4","last_reported":1711660029,"current_range_meters":18800,"station_id":"ce4bgt92rcd13ifvqcf0","pricing_plan_id":"cebpf4jnsgd1na2vs0mg"},{"bike_id":"1383002d-7b31-4e37-bbd9-8ccc582b3060","system_id":"levelo_inurba_marseille","lat":43.313571,"lon":5.384829,"is_reserved":false,"is_disabled":false,"rental_uris":{"android":"levelo://app?vid=1383002d-7b31-4e37-bbd9-8ccc582b3060","ios":"levelo://app?vid=1383002d-7b31-4e37-bbd9-8ccc582b3060"},"vehicle_type_id":"4","last_reported":1711660029,"current_range_meters":15200,"station_id":"ce4bgt92rcd13ifvqcf0","pricing_plan_id":"cebpf4jnsgd1na2vs0mg"},{"bike_id":"c28b1cf1-c19c-4db1-a1f8-8fcedcf43efd","system_id":"levelo_inurba_marseille","lat":43.31362,"lon":5.38499,"is_reserved":false,"is_disabled":false,"rental_uris":{"android":"levelo://app?vid=c28b1cf1-c19c-4db1-a1f8-8fcedcf43efd","ios":"levelo://app?vid=c28b1cf1-c19c-4db1-a1f8-8fcedcf43efd"},"vehicle_type_id":"4","last_reported":1711660029,"current_range_meters":1600,"station_id":"ce4bgt92rcd13ifvqcf0","pricing_plan_id":"cebpf4jnsgd1na2vs0mg"},{"bike_id":"82e0ac95-19ac-44d1-a4e4-74cef857f1ae","system_id":"levelo_inurba_marseille","lat":43.313678,"lon":5.38499,"is_reserved":false,"is_disabled":false,"rental_uris":{"android":"levelo://app?vid=82e0ac95-19ac-44d1-a4e4-74cef857f1ae","ios":"levelo://app?vid=82e0ac95-19ac-44d1-a4e4-74cef857f1ae"},"vehicle_type_id":"4","last_reported":1711660029,"current_range_meters":0,"station_id":"ce4bgt92rcd13ifvqcf0","pricing_plan_id":"cebpf4jnsgd1na2vs0mg"},{"bike_id":"330f5236-3339-4e83-a5bf-8832802c20e2","system_id":"levelo_inurba_marseille","lat":43.299222,"lon":5.365554,"is_reserved":false,"is_disabled":false,"rental_uris":{"android":"levelo://app?vid=330f5236-3339-4e83-a5bf-8832802c20e2","ios":"levelo://app?vid=330f5236-3339-4e83-a5bf-8832802c20e2"},"vehicle_type_id":"4","last_reported":1711660029,"current_range_meters":22400,"station_id":"ce4bgm92rcd13ifvqbr0","pricing_plan_id":"cebpf4jnsgd1na2vs0mg"},{"bike_id":"63139e3e-9f94-4457-b5d1-d9fcf91844c8","system_id":"levelo_inurba_marseille","lat":43.313596,"lon":5.385206,"is_reserved":false,"is_disabled":false,"rental_uris":{"android":"levelo://app?vid=63139e3e-9f94-4457-b5d1-d9fcf91844c8","ios":"levelo://app?vid=63139e3e-9f94-4457-b5d1-d9fcf91844c8"},"vehicle_type_id":"4","last_reported":1711660029,"current_range_meters":0,"station_id":"ce4bgt92rcd13ifvqcf0","pricing_plan_id":"cebpf4jnsgd1na2vs0mg"},{"bike_id":"28f77002-fc9a-4152-876a-e35ba3185ec3","system_id":"levelo_inurba_marseille","lat":43.299222,"lon":5.365554,"is_reserved":false,"is_disabled":false,"rental_uris":{"android":"levelo://app?vid=28f77002-fc9a-4152-876a-e35ba3185ec3","ios":"levelo://app?vid=28f77002-fc9a-4152-876a-e35ba3185ec3"},"vehicle_type_id":"4","last_reported":1711660029,"current_range_meters":1200,"station_id":"ce4bgm92rcd13ifvqbr0","pricing_plan_id":"cebpf4jnsgd1na2vs0mg"},{"bike_id":"29f2aeda-97e2-4085-a32c-94b2cea27e80","system_id":"levelo_inurba_marseille","lat":43.299222,"lon":5.365554,"is_reserved":false,"is_disabled":false,"rental_uris":{"android":"levelo://app?vid=29f2aeda-97e2-4085-a32c-94b2cea27e80","ios":"levelo://app?vid=29f2aeda-97e2-4085-a32c-94b2cea27e80"},"vehicle_type_id":"4","last_reported":1711660029,"current_range_meters":3200,"station_id":"ce4bgm92rcd13ifvqbr0","pricing_plan_id":"cebpf4jnsgd1na2vs0mg"},{"bike_id":"4be014ad-14ba-4371-b689-a5e00918cb05","system_id":"levelo_inurba_marseille","lat":43.299724,"lon":5.371829,"is_reserved":false,"is_disabled":false,"rental_uris":{"android":"levelo://app?vid=4be014ad-14ba-4371-b689-a5e00918cb05","ios":"levelo://app?vid=4be014ad-14ba-4371-b689-a5e00918cb05"},"vehicle_type_id":"4","last_reported":1711660029,"current_range_meters":6800,"station_id":"ce4bgr92rcd13ifvqc7g","pricing_plan_id":"cebpf4jnsgd1na2vs0mg"},{"bike_id":"a7566af1-5fdf-4dd7-96e3-739a91d32e3b","system_id":"levelo_inurba_marseille","lat":43.299724,"lon":5.371829,"is_reserved":false,"is_disabled":false,"rental_uris":{"android":"levelo://app?vid=a7566af1-5fdf-4dd7-96e3-739a91d32e3b","ios":"levelo://app?vid=a7566af1-5fdf-4dd7-96e3-739a91d32e3b"},"vehicle_type_id":"4","last_reported":1711660029,"current_range_meters":9600,"station_id":"ce4bgr92rcd13ifvqc7g","pricing_plan_id":"cebpf4jnsgd1na2vs0mg"},{"bike_id":"9c9be7d6-f2bf-4910-922a-e63a15907962","system_id":"levelo_inurba_marseille","lat":43.299222,"lon":5.365554,"is_reserved":false,"is_disabled":false,"rental_uris":{"android":"levelo://app?vid=9c9be7d6-f2bf-4910-922a-e63a15907962","ios":"levelo://app?vid=9c9be7d6-f2bf-4910-922a-e63a15907962"},"vehicle_type_id":"4","last_reported":1711660029,"current_range_meters":0,"station_id":"ce4bgm92rcd13ifvqbr0","pricing_plan_id":"cebpf4jnsgd1na2vs0mg"},{"bike_id":"e579c225-273b-4622-b284-4ab06091d381","system_id":"levelo_inurba_marseille","lat":43.299349,"lon":5.365409,"is_reserved":false,"is_disabled":false,"rental_uris":{"android":"levelo://app?vid=e579c225-273b-4622-b284-4ab06091d381","ios":"levelo://app?vid=e579c225-273b-4622-b284-4ab06091d381"},"vehicle_type_id":"4","last_reported":1711660029,"current_range_meters":0,"station_id":"ce4bgm92rcd13ifvqbr0","pricing_plan_id":"cebpf4jnsgd1na2vs0mg"},{"bike_id":"45657cb1-078a-4daf-b9f9-6e44d941b334","system_id":"levelo_inurba_marseille","lat":43.299724,"lon":5.371829,"is_reserved":false,"is_disabled":false,"rental_uris":{"android":"levelo://app?vid=45657cb1-078a-4daf-b9f9-6e44d941b334","ios":"levelo://app?vid=45657cb1-078a-4daf-b9f9-6e44d941b334"},"vehicle_type_id":"4","last_reported":1711660029,"current_range_meters":6400,"station_id":"ce4bgr92rcd13ifvqc7g","pricing_plan_id":"cebpf4jnsgd1na2vs0mg"},{"bike_id":"d84dc55d-988a-44e3-bd43-7783a20afba6","system_id":"levelo_inurba_marseille","lat":43.299724,"lon":5.371829,"is_reserved":false,"is_disabled":false,"rental_uris":{"android":"levelo://app?vid=d84dc55d-988a-44e3-bd43-7783a20afba6","ios":"levelo://app?vid=d84dc55d-988a-44e3-bd43-7783a20afba6"},"vehicle_type_id":"4","last_reported":1711660029,"current_range_meters":0,"station_id":"ce4bgr92rcd13ifvqc7g","pricing_plan_id":"cebpf4jnsgd1na2vs0mg"},{"bike_id":"9d5d9b28-a6ee-483f-9afe-973ce9716ffb","system_id":"levelo_inurba_marseille","lat":43.298433,"lon":5.362774,"is_reserved":false,"is_disabled":false,"rental_uris":{"android":"levelo://app?vid=9d5d9b28-a6ee-483f-9afe-973ce9716ffb","ios":"levelo://app?vid=9d5d9b28-a6ee-483f-9afe-973ce9716ffb"},"vehicle_type_id":"4","last_reported":1711660029,"current_range_meters":800,"station_id":"ce4bgpp2rcd13ifvqc3g","pricing_plan_id":"cebpf4jnsgd1na2vs0mg"},{"bike_id":"d9093954-faec-448a-91b6-1e3ffad72c77","system_id":"levelo_inurba_marseille","lat":43.298433,"lon":5.362774,"is_reserved":false,"is_disabled":false,"rental_uris":{"android":"levelo://app?vid=d9093954-faec-448a-91b6-1e3ffad72c77","ios":"levelo://app?vid=d9093954-faec-448a-91b6-1e3ffad72c77"},"vehicle_type_id":"4","last_reported":1711660029,"current_range_meters":0,"station_id":"ce4bgpp2rcd13ifvqc3g","pricing_plan_id":"cebpf4jnsgd1na2vs0mg"},{"bike_id":"1bd8221c-658d-4d1d-affc-bfa8af7fbe2d","system_id":"levelo_inurba_marseille","lat":43.298433,"lon":5.362774,"is_reserved":false,"is_disabled":false,"rental_uris":{"android":"levelo://app?vid=1bd8221c-658d-4d1d-affc-bfa8af7fbe2d","ios":"levelo://app?vid=1bd8221c-658d-4d1d-affc-bfa8af7fbe2d"},"vehicle_type_id":"4","last_reported":1711660029,"current_range_meters":31600,"station_id":"ce4bgpp2rcd13ifvqc3g","pricing_plan_id":"cebpf4jnsgd1na2vs0mg"},{"bike_id":"0bafa354-3fc2-40c2-8f30-1842fb4268d4","system_id":"levelo_inurba_marseille","lat":43.298433,"lon":5.362774,"is_reserved":false,"is_disabled":false,"rental_uris":{"android":"levelo://app?vid=0bafa354-3fc2-40c2-8f30-1842fb4268d4","ios":"levelo://app?vid=0bafa354-3fc2-40c2-8f30-1842fb4268d4"},"vehicle_type_id":"4","last_reported":1711660029,"current_range_meters":5600,"station_id":"ce4bgpp2rcd13ifvqc3g","pricing_plan_id":"cebpf4jnsgd1na2vs0mg"},{"bike_id":"7832d712-fa84-4c08-9ab2-c8702d3de357","system_id":"levelo_inurba_marseille","lat":43.298433,"lon":5.362774,"is_reserved":false,"is_disabled":false,"rental_uris":{"android":"levelo://app?vid=7832d712-fa84-4c08-9ab2-c8702d3de357","ios":"levelo://app?vid=7832d712-fa84-4c08-9ab2-c8702d3de357"},"vehicle_type_id":"4","last_reported":1711660029,"current_range_meters":13200,"station_id":"ce4bgpp2rcd13ifvqc3g","pricing_plan_id":"cebpf4jnsgd1na2vs0mg"},{"bike_id":"07cef17a-dec0-4b9b-b546-8c91b3b88118","system_id":"levelo_inurba_marseille","lat":43.299243,"lon":5.374807,"is_reserved":false,"is_disabled":false,"rental_uris":{"android":"levelo://app?vid=07cef17a-dec0-4b9b-b546-8c91b3b88118","ios":"levelo://app?vid=07cef17a-dec0-4b9b-b546-8c91b3b88118"},"vehicle_type_id":"4","last_reported":1711660029,"current_range_meters":4400,"station_id":"ce4bgjh2rcd13ifvqbg0","pricing_plan_id":"cebpf4jnsgd1na2vs0mg"},{"bike_id":"ff654bcd-6a15-4e91-b60f-b3371a1f59f3","system_id":"levelo_inurba_marseille","lat":43.298433,"lon":5.362774,"is_reserved":false,"is_disabled":false,"rental_uris":{"android":"levelo://app?vid=ff654bcd-6a15-4e91-b60f-b3371a1f59f3","ios":"levelo://app?vid=ff654bcd-6a15-4e91-b60f-b3371a1f59f3"},"vehicle_type_id":"4","last_reported":1711660029,"current_range_meters":28000,"station_id":"ce4bgpp2rcd13ifvqc3g","pricing_plan_id":"cebpf4jnsgd1na2vs0mg"},{"bike_id":"c2701a90-539a-49a2-b28a-91ad21c88998","system_id":"levelo_inurba_marseille","lat":43.305364,"lon":5.384119,"is_reserved":false,"is_disabled":false,"rental_uris":{"android":"levelo://app?vid=c2701a90-539a-49a2-b28a-91ad21c88998","ios":"levelo://app?vid=c2701a90-539a-49a2-b28a-91ad21c88998"},"vehicle_type_id":"4","last_reported":1711660029,"current_range_meters":21600,"station_id":"ce4bgg92rcd13ifvqb30","pricing_plan_id":"cebpf4jnsgd1na2vs0mg"},{"bike_id":"6b057422-5afa-4b79-9e09-3994d0b52239","system_id":"levelo_inurba_marseille","lat":43.299243,"lon":5.374807,"is_reserved":false,"is_disabled":false,"rental_uris":{"android":"levelo://app?vid=6b057422-5afa-4b79-9e09-3994d0b52239","ios":"levelo://app?vid=6b057422-5afa-4b79-9e09-3994d0b52239"},"vehicle_type_id":"4","last_reported":1711660029,"current_range_meters":0,"station_id":"ce4bgjh2rcd13ifvqbg0","pricing_plan_id":"cebpf4jnsgd1na2vs0mg"},{"bike_id":"89a9e3f4-b166-4154-a977-7585c3382080","system_id":"levelo_inurba_marseille","lat":43.29918,"lon":5.374695,"is_reserved":false,"is_disabled":false,"rental_uris":{"android":"levelo://app?vid=89a9e3f4-b166-4154-a977-7585c3382080","ios":"levelo://app?vid=89a9e3f4-b166-4154-a977-7585c3382080"},"vehicle_type_id":"4","last_reported":1711660029,"current_range_meters":0,"station_id":"ce4bgjh2rcd13ifvqbg0","pricing_plan_id":"cebpf4jnsgd1na2vs0mg"},{"bike_id":"5146203c-6f5f-4d14-93aa-c0a06d54ede2","system_id":"levelo_inurba_marseille","lat":43.299243,"lon":5.374807,"is_reserved":false,"is_disabled":false,"rental_uris":{"android":"levelo://app?vid=5146203c-6f5f-4d14-93aa-c0a06d54ede2","ios":"levelo://app?vid=5146203c-6f5f-4d14-93aa-c0a06d54ede2"},"vehicle_type_id":"4","last_reported":1711660029,"current_range_meters":6800,"station_id":"ce4bgjh2rcd13ifvqbg0","pricing_plan_id":"cebpf4jnsgd1na2vs0mg"},{"bike_id":"a1dc9fd3-a0c6-43d9-acd4-f3ced9e48a47","system_id":"levelo_inurba_marseille","lat":43.299243,"lon":5.37481,"is_reserved":false,"is_disabled":false,"rental_uris":{"android":"levelo://app?vid=a1dc9fd3-a0c6-43d9-acd4-f3ced9e48a47","ios":"levelo://app?vid=a1dc9fd3-a0c6-43d9-acd4-f3ced9e48a47"},"vehicle_type_id":"4","last_reported":1711660029,"current_range_meters":12400,"station_id":"ce4bgjh2rcd13ifvqbg0","pricing_plan_id":"cebpf4jnsgd1na2vs0mg"},{"bike_id":"7cae8cf0-7f02-406f-8434-50756dbbcdd2","system_id":"levelo_inurba_marseille","lat":43.299243,"lon":5.374807,"is_reserved":false,"is_disabled":false,"rental_uris":{"android":"levelo://app?vid=7cae8cf0-7f02-406f-8434-50756dbbcdd2","ios":"levelo://app?vid=7cae8cf0-7f02-406f-8434-50756dbbcdd2"},"vehicle_type_id":"4","last_reported":1711660029,"current_range_meters":6000,"station_id":"ce4bgjh2rcd13ifvqbg0","pricing_plan_id":"cebpf4jnsgd1na2vs0mg"},{"bike_id":"f3cf0b4b-c8e6-4e3a-acbd-b69c53063734","system_id":"levelo_inurba_marseille","lat":43.299243,"lon":5.374807,"is_reserved":false,"is_disabled":false,"rental_uris":{"android":"levelo://app?vid=f3cf0b4b-c8e6-4e3a-acbd-b69c53063734","ios":"levelo://app?vid=f3cf0b4b-c8e6-4e3a-acbd-b69c53063734"},"vehicle_type_id":"4","last_reported":1711660029,"current_range_meters":29600,"station_id":"ce4bgjh2rcd13ifvqbg0","pricing_plan_id":"cebpf4jnsgd1na2vs0mg"},{"bike_id":"12dfc9d5-0407-4172-91a7-ee769ef8745a","system_id":"levelo_inurba_marseille","lat":43.299243,"lon":5.374807,"is_reserved":false,"is_disabled":false,"rental_uris":{"android":"levelo://app?vid=12dfc9d5-0407-4172-91a7-ee769ef8745a","ios":"levelo://app?vid=12dfc9d5-0407-4172-91a7-ee769ef8745a"},"vehicle_type_id":"4","last_reported":1711660029,"current_range_meters":19600,"station_id":"ce4bgjh2rcd13ifvqbg0","pricing_plan_id":"cebpf4jnsgd1na2vs0mg"},{"bike_id":"a368b4a5-08d1-4c97-9ff9-784e01e6203a","system_id":"levelo_inurba_marseille","lat":43.311722,"lon":5.387247,"is_reserved":false,"is_disabled":false,"rental_uris":{"android":"levelo://app?vid=a368b4a5-08d1-4c97-9ff9-784e01e6203a","ios":"levelo://app?vid=a368b4a5-08d1-4c97-9ff9-784e01e6203a"},"vehicle_type_id":"4","last_reported":1711660029,"current_range_meters":19200,"station_id":"ce4bgv12rcd13ifvqcp0","pricing_plan_id":"cebpf4jnsgd1na2vs0mg"},{"bike_id":"cbd10193-4495-480c-980f-1524391e0f83","system_id":"levelo_inurba_marseille","lat":43.311722,"lon":5.387247,"is_reserved":false,"is_disabled":false,"rental_uris":{"android":"levelo://app?vid=cbd10193-4495-480c-980f-1524391e0f83","ios":"levelo://app?vid=cbd10193-4495-480c-980f-1524391e0f83"},"vehicle_type_id":"4","last_reported":1711660029,"current_range_meters":8800,"station_id":"ce4bgv12rcd13ifvqcp0","pricing_plan_id":"cebpf4jnsgd1na2vs0mg"},{"bike_id":"38f1a639-8cf7-49d0-b93e-6357ea0a9b6b","system_id":"levelo_inurba_marseille","lat":43.322872,"lon":5.382756,"is_reserved":false,"is_disabled":false,"rental_uris":{"android":"levelo://app?vid=38f1a639-8cf7-49d0-b93e-6357ea0a9b6b","ios":"levelo://app?vid=38f1a639-8cf7-49d0-b93e-6357ea0a9b6b"},"vehicle_type_id":"4","last_reported":1711660029,"current_range_meters":29200,"station_id":"ce4bhr12rcd13ifvqhqg","pricing_plan_id":"cebpf4jnsgd1na2vs0mg"},{"bike_id":"41d6ed59-32a2-4d73-8e7d-4df4fef1ad39","system_id":"levelo_inurba_marseille","lat":43.322872,"lon":5.382756,"is_reserved":false,"is_disabled":false,"rental_uris":{"android":"levelo://app?vid=41d6ed59-32a2-4d73-8e7d-4df4fef1ad39","ios":"levelo://app?vid=41d6ed59-32a2-4d73-8e7d-4df4fef1ad39"},"vehicle_type_id":"4","last_reported":1711660029,"current_range_meters":31600,"station_id":"ce4bhr12rcd13ifvqhqg","pricing_plan_id":"cebpf4jnsgd1na2vs0mg"},{"bike_id":"3b76ca08-e291-4dd2-a1a1-281e8e1d26b3","system_id":"levelo_inurba_marseille","lat":43.32289,"lon":5.38267,"is_reserved":false,"is_disabled":false,"rental_uris":{"android":"levelo://app?vid=3b76ca08-e291-4dd2-a1a1-281e8e1d26b3","ios":"levelo://app?vid=3b76ca08-e291-4dd2-a1a1-281e8e1d26b3"},"vehicle_type_id":"4","last_reported":1711660029,"current_range_meters":9200,"station_id":"ce4bhr12rcd13ifvqhqg","pricing_plan_id":"cebpf4jnsgd1na2vs0mg"},{"bike_id":"929a36e5-e6b5-4ebe-829b-8755eae7e05c","system_id":"levelo_inurba_marseille","lat":43.297794,"lon":5.370888,"is_reserved":false,"is_disabled":false,"rental_uris":{"android":"levelo://app?vid=929a36e5-e6b5-4ebe-829b-8755eae7e05c","ios":"levelo://app?vid=929a36e5-e6b5-4ebe-829b-8755eae7e05c"},"vehicle_type_id":"4","last_reported":1711660029,"current_range_meters":20800,"station_id":"ce4bgop2rcd13ifvqc1g","pricing_plan_id":"cebpf4jnsgd1na2vs0mg"},{"bike_id":"b7b93f0e-556f-4660-b726-adf5a8914869","system_id":"levelo_inurba_marseille","lat":43.322872,"lon":5.382756,"is_reserved":false,"is_disabled":false,"rental_uris":{"android":"levelo://app?vid=b7b93f0e-556f-4660-b726-adf5a8914869","ios":"levelo://app?vid=b7b93f0e-556f-4660-b726-adf5a8914869"},"vehicle_type_id":"4","last_reported":1711660029,"current_range_meters":13200,"station_id":"ce4bhr12rcd13ifvqhqg","pricing_plan_id":"cebpf4jnsgd1na2vs0mg"},{"bike_id":"e1332fa5-1ca0-4f7f-88ac-b8b7cdf218e8","system_id":"levelo_inurba_marseille","lat":43.32288,"lon":5.3827,"is_reserved":false,"is_disabled":false,"rental_uris":{"android":"levelo://app?vid=e1332fa5-1ca0-4f7f-88ac-b8b7cdf218e8","ios":"levelo://app?vid=e1332fa5-1ca0-4f7f-88ac-b8b7cdf218e8"},"vehicle_type_id":"4","last_reported":1711660029,"current_range_meters":0,"station_id":"ce4bhr12rcd13ifvqhqg","pricing_plan_id":"cebpf4jnsgd1na2vs0mg"},{"bike_id":"317519cd-ef36-403f-bba6-2177a25028b5","system_id":"levelo_inurba_marseille","lat":43.322872,"lon":5.382756,"is_reserved":false,"is_disabled":false,"rental_uris":{"android":"levelo://app?vid=317519cd-ef36-403f-bba6-2177a25028b5","ios":"levelo://app?vid=317519cd-ef36-403f-bba6-2177a25028b5"},"vehicle_type_id":"4","last_reported":1711660029,"current_range_meters":31600,"station_id":"ce4bhr12rcd13ifvqhqg","pricing_plan_id":"cebpf4jnsgd1na2vs0mg"},{"bike_id":"5f429c77-9e67-4259-be61-13c035e68f23","system_id":"levelo_inurba_marseille","lat":43.297794,"lon":5.370888,"is_reserved":false,"is_disabled":false,"rental_uris":{"android":"levelo://app?vid=5f429c77-9e67-4259-be61-13c035e68f23","ios":"levelo://app?vid=5f429c77-9e67-4259-be61-13c035e68f23"},"vehicle_type_id":"4","last_reported":1711660029,"current_range_meters":13200,"station_id":"ce4bgop2rcd13ifvqc1g","pricing_plan_id":"cebpf4jnsgd1na2vs0mg"},{"bike_id":"b72021d7-3a71-42c2-8c93-39cdac26ee66","system_id":"levelo_inurba_marseille","lat":43.322872,"lon":5.382756,"is_reserved":false,"is_disabled":false,"rental_uris":{"android":"levelo://app?vid=b72021d7-3a71-42c2-8c93-39cdac26ee66","ios":"levelo://app?vid=b72021d7-3a71-42c2-8c93-39cdac26ee66"},"vehicle_type_id":"4","last_reported":1711660029,"current_range_meters":13600,"station_id":"ce4bhr12rcd13ifvqhqg","pricing_plan_id":"cebpf4jnsgd1na2vs0mg"},{"bike_id":"e1f31ecf-e275-4125-bef9-75634bf64922","system_id":"levelo_inurba_marseille","lat":43.3229,"lon":5.38275,"is_reserved":false,"is_disabled":false,"rental_uris":{"android":"levelo://app?vid=e1f31ecf-e275-4125-bef9-75634bf64922","ios":"levelo://app?vid=e1f31ecf-e275-4125-bef9-75634bf64922"},"vehicle_type_id":"4","last_reported":1711660029,"current_range_meters":21200,"station_id":"ce4bhr12rcd13ifvqhqg","pricing_plan_id":"cebpf4jnsgd1na2vs0mg"},{"bike_id":"05cc699f-aa69-4490-8768-29d8a77215d1","system_id":"levelo_inurba_marseille","lat":43.32291,"lon":5.38275,"is_reserved":false,"is_disabled":false,"rental_uris":{"android":"levelo://app?vid=05cc699f-aa69-4490-8768-29d8a77215d1","ios":"levelo://app?vid=05cc699f-aa69-4490-8768-29d8a77215d1"},"vehicle_type_id":"4","last_reported":1711660029,"current_range_meters":2400,"station_id":"ce4bhr12rcd13ifvqhqg","pricing_plan_id":"cebpf4jnsgd1na2vs0mg"},{"bike_id":"f7669e84-a7b6-45f4-8f83-dbe279e0bd01","system_id":"levelo_inurba_marseille","lat":43.32292,"lon":5.38274,"is_reserved":false,"is_disabled":false,"rental_uris":{"android":"levelo://app?vid=f7669e84-a7b6-45f4-8f83-dbe279e0bd01","ios":"levelo://app?vid=f7669e84-a7b6-45f4-8f83-dbe279e0bd01"},"vehicle_type_id":"4","last_reported":1711660029,"current_range_meters":8800,"station_id":"ce4bhr12rcd13ifvqhqg","pricing_plan_id":"cebpf4jnsgd1na2vs0mg"},{"bike_id":"802b76b4-cbd0-49ce-8780-97d23a65aa6f","system_id":"levelo_inurba_marseille","lat":43.322872,"lon":5.382756,"is_reserved":false,"is_disabled":false,"rental_uris":{"android":"levelo://app?vid=802b76b4-cbd0-49ce-8780-97d23a65aa6f","ios":"levelo://app?vid=802b76b4-cbd0-49ce-8780-97d23a65aa6f"},"vehicle_type_id":"4","last_reported":1711660029,"current_range_meters":24000,"station_id":"ce4bhr12rcd13ifvqhqg","pricing_plan_id":"cebpf4jnsgd1na2vs0mg"},{"bike_id":"3ea4aac5-44e9-4cb1-b4cf-e1940df9c198","system_id":"levelo_inurba_marseille","lat":43.2996,"lon":5.37823,"is_reserved":false,"is_disabled":false,"rental_uris":{"android":"levelo://app?vid=3ea4aac5-44e9-4cb1-b4cf-e1940df9c198","ios":"levelo://app?vid=3ea4aac5-44e9-4cb1-b4cf-e1940df9c198"},"vehicle_type_id":"4","last_reported":1711660029,"current_range_meters":4000,"station_id":"","pricing_plan_id":"cebpf4jnsgd1na2vs0mg"},{"bike_id":"1550bd03-8b11-4ba3-8ca6-1c583c4d0ab3","system_id":"levelo_inurba_marseille","lat":43.297163,"lon":5.365866,"is_reserved":false,"is_disabled":false,"rental_uris":{"android":"levelo://app?vid=1550bd03-8b11-4ba3-8ca6-1c583c4d0ab3","ios":"levelo://app?vid=1550bd03-8b11-4ba3-8ca6-1c583c4d0ab3"},"vehicle_type_id":"4","last_reported":1711660029,"current_range_meters":28000,"station_id":"ce4bgn12rcd13ifvqbt0","pricing_plan_id":"cebpf4jnsgd1na2vs0mg"},{"bike_id":"d2057b10-d70b-4667-87d5-46e76aeb52d8","system_id":"levelo_inurba_marseille","lat":43.32273,"lon":5.38346,"is_reserved":false,"is_disabled":false,"rental_uris":{"android":"levelo://app?vid=d2057b10-d70b-4667-87d5-46e76aeb52d8","ios":"levelo://app?vid=d2057b10-d70b-4667-87d5-46e76aeb52d8"},"vehicle_type_id":"4","last_reported":1711660029,"current_range_meters":0,"station_id":"ce4bhr12rcd13ifvqhqg","pricing_plan_id":"cebpf4jnsgd1na2vs0mg"},{"bike_id":"73431232-6563-4728-ba05-f69bd12c9310","system_id":"levelo_inurba_marseille","lat":43.297163,"lon":5.365866,"is_reserved":false,"is_disabled":false,"rental_uris":{"android":"levelo://app?vid=73431232-6563-4728-ba05-f69bd12c9310","ios":"levelo://app?vid=73431232-6563-4728-ba05-f69bd12c9310"},"vehicle_type_id":"4","last_reported":1711660029,"current_range_meters":800,"station_id":"ce4bgn12rcd13ifvqbt0","pricing_plan_id":"cebpf4jnsgd1na2vs0mg"},{"bike_id":"1c86ebb7-8c50-46bb-9369-c41a225a6024","system_id":"levelo_inurba_marseille","lat":43.297163,"lon":5.365866,"is_reserved":false,"is_disabled":false,"rental_uris":{"android":"levelo://app?vid=1c86ebb7-8c50-46bb-9369-c41a225a6024","ios":"levelo://app?vid=1c86ebb7-8c50-46bb-9369-c41a225a6024"},"vehicle_type_id":"4","last_reported":1711660029,"current_range_meters":25200,"station_id":"ce4bgn12rcd13ifvqbt0","pricing_plan_id":"cebpf4jnsgd1na2vs0mg"},{"bike_id":"07431bbb-b567-47a9-ac0a-f955c1a3e829","system_id":"levelo_inurba_marseille","lat":43.297053,"lon":5.365783,"is_reserved":false,"is_disabled":false,"rental_uris":{"android":"levelo://app?vid=07431bbb-b567-47a9-ac0a-f955c1a3e829","ios":"levelo://app?vid=07431bbb-b567-47a9-ac0a-f955c1a3e829"},"vehicle_type_id":"4","last_reported":1711660029,"current_range_meters":0,"station_id":"ce4bgn12rcd13ifvqbt0","pricing_plan_id":"cebpf4jnsgd1na2vs0mg"},{"bike_id":"c321cc7d-84d6-4541-a61e-1a2cb8fc3734","system_id":"levelo_inurba_marseille","lat":43.297043,"lon":5.365978,"is_reserved":false,"is_disabled":false,"rental_uris":{"android":"levelo://app?vid=c321cc7d-84d6-4541-a61e-1a2cb8fc3734","ios":"levelo://app?vid=c321cc7d-84d6-4541-a61e-1a2cb8fc3734"},"vehicle_type_id":"4","last_reported":1711660029,"current_range_meters":12800,"station_id":"ce4bgn12rcd13ifvqbt0","pricing_plan_id":"cebpf4jnsgd1na2vs0mg"},{"bike_id":"b55483c7-5e79-4e88-9f14-f5bebeec9e29","system_id":"levelo_inurba_marseille","lat":43.297009,"lon":5.366092,"is_reserved":false,"is_disabled":false,"rental_uris":{"android":"levelo://app?vid=b55483c7-5e79-4e88-9f14-f5bebeec9e29","ios":"levelo://app?vid=b55483c7-5e79-4e88-9f14-f5bebeec9e29"},"vehicle_type_id":"4","last_reported":1711660029,"current_range_meters":12000,"station_id":"ce4bgn12rcd13ifvqbt0","pricing_plan_id":"cebpf4jnsgd1na2vs0mg"},{"bike_id":"0dc88b79-c621-4fee-9587-7d3e109e817b","system_id":"levelo_inurba_marseille","lat":43.297012,"lon":5.365935,"is_reserved":false,"is_disabled":false,"rental_uris":{"android":"levelo://app?vid=0dc88b79-c621-4fee-9587-7d3e109e817b","ios":"levelo://app?vid=0dc88b79-c621-4fee-9587-7d3e109e817b"},"vehicle_type_id":"4","last_reported":1711660029,"current_range_meters":0,"station_id":"ce4bgn12rcd13ifvqbt0","pricing_plan_id":"cebpf4jnsgd1na2vs0mg"},{"bike_id":"963ea2fa-2275-44bf-b5f7-617cf8d24c2d","system_id":"levelo_inurba_marseille","lat":43.297163,"lon":5.365866,"is_reserved":false,"is_disabled":false,"rental_uris":{"android":"levelo://app?vid=963ea2fa-2275-44bf-b5f7-617cf8d24c2d","ios":"levelo://app?vid=963ea2fa-2275-44bf-b5f7-617cf8d24c2d"},"vehicle_type_id":"4","last_reported":1711660029,"current_range_meters":5200,"station_id":"ce4bgn12rcd13ifvqbt0","pricing_plan_id":"cebpf4jnsgd1na2vs0mg"},{"bike_id":"d89069af-cafa-4371-a321-6c443048cd33","system_id":"levelo_inurba_marseille","lat":43.297163,"lon":5.365866,"is_reserved":false,"is_disabled":false,"rental_uris":{"android":"levelo://app?vid=d89069af-cafa-4371-a321-6c443048cd33","ios":"levelo://app?vid=d89069af-cafa-4371-a321-6c443048cd33"},"vehicle_type_id":"4","last_reported":1711660029,"current_range_meters":25600,"station_id":"ce4bgn12rcd13ifvqbt0","pricing_plan_id":"cebpf4jnsgd1na2vs0mg"},{"bike_id":"df1e6ea2-2d2a-4468-bf41-ca2da1e31172","system_id":"levelo_inurba_marseille","lat":43.31556,"lon":5.38842,"is_reserved":false,"is_disabled":false,"rental_uris":{"android":"levelo://app?vid=df1e6ea2-2d2a-4468-bf41-ca2da1e31172","ios":"levelo://app?vid=df1e6ea2-2d2a-4468-bf41-ca2da1e31172"},"vehicle_type_id":"4","last_reported":1711660029,"current_range_meters":0,"station_id":"","pricing_plan_id":"cebpf4jnsgd1na2vs0mg"},{"bike_id":"dabe3db4-2799-4509-8127-743c9266ea50","system_id":"levelo_inurba_marseille","lat":43.297156,"lon":5.362509,"is_reserved":false,"is_disabled":false,"rental_uris":{"android":"levelo://app?vid=dabe3db4-2799-4509-8127-743c9266ea50","ios":"levelo://app?vid=dabe3db4-2799-4509-8127-743c9266ea50"},"vehicle_type_id":"4","last_reported":1711660029,"current_range_meters":4000,"station_id":"","pricing_plan_id":"cebpf4jnsgd1na2vs0mg"},{"bike_id":"33e12740-741a-404d-b07e-9ac7cb548135","system_id":"levelo_inurba_marseille","lat":43.2968,"lon":5.37291,"is_reserved":false,"is_disabled":false,"rental_uris":{"android":"levelo://app?vid=33e12740-741a-404d-b07e-9ac7cb548135","ios":"levelo://app?vid=33e12740-741a-404d-b07e-9ac7cb548135"},"vehicle_type_id":"4","last_reported":1711660029,"current_range_meters":25200,"station_id":"ce4bgk12rcd13ifvqbj0","pricing_plan_id":"cebpf4jnsgd1na2vs0mg"},{"bike_id":"2c57bbef-9858-48a7-870e-e93c4b28b468","system_id":"levelo_inurba_marseille","lat":43.296131,"lon":5.370791,"is_reserved":false,"is_disabled":false,"rental_uris":{"android":"levelo://app?vid=2c57bbef-9858-48a7-870e-e93c4b28b468","ios":"levelo://app?vid=2c57bbef-9858-48a7-870e-e93c4b28b468"},"vehicle_type_id":"4","last_reported":1711660029,"current_range_meters":3200,"station_id":"ce4bgnh2rcd13ifvqc0g","pricing_plan_id":"cebpf4jnsgd1na2vs0mg"},{"bike_id":"686bc0a1-6e2c-4a03-9774-1e8509bef6f4","system_id":"levelo_inurba_marseille","lat":43.297291,"lon":5.376834,"is_reserved":false,"is_disabled":false,"rental_uris":{"android":"levelo://app?vid=686bc0a1-6e2c-4a03-9774-1e8509bef6f4","ios":"levelo://app?vid=686bc0a1-6e2c-4a03-9774-1e8509bef6f4"},"vehicle_type_id":"4","last_reported":1711660029,"current_range_meters":0,"station_id":"ce4bgkh2rcd13ifvqbl0","pricing_plan_id":"cebpf4jnsgd1na2vs0mg"},{"bike_id":"2dc35642-1276-4372-8a40-65313d246977","system_id":"levelo_inurba_marseille","lat":43.296935,"lon":5.376544,"is_reserved":false,"is_disabled":false,"rental_uris":{"android":"levelo://app?vid=2dc35642-1276-4372-8a40-65313d246977","ios":"levelo://app?vid=2dc35642-1276-4372-8a40-65313d246977"},"vehicle_type_id":"4","last_reported":1711660029,"current_range_meters":1200,"station_id":"ce4bgkh2rcd13ifvqbl0","pricing_plan_id":"cebpf4jnsgd1na2vs0mg"},{"bike_id":"59993b85-5eca-4981-af2d-fa340bb4f61e","system_id":"levelo_inurba_marseille","lat":43.296921,"lon":5.376579,"is_reserved":false,"is_disabled":false,"rental_uris":{"android":"levelo://app?vid=59993b85-5eca-4981-af2d-fa340bb4f61e","ios":"levelo://app?vid=59993b85-5eca-4981-af2d-fa340bb4f61e"},"vehicle_type_id":"4","last_reported":1711660029,"current_range_meters":15200,"station_id":"ce4bgkh2rcd13ifvqbl0","pricing_plan_id":"cebpf4jnsgd1na2vs0mg"},{"bike_id":"6f8a7658-c49a-419e-b6a7-83b6597a5295","system_id":"levelo_inurba_marseille","lat":43.29907,"lon":5.38151,"is_reserved":false,"is_disabled":false,"rental_uris":{"android":"levelo://app?vid=6f8a7658-c49a-419e-b6a7-83b6597a5295","ios":"levelo://app?vid=6f8a7658-c49a-419e-b6a7-83b6597a5295"},"vehicle_type_id":"4","last_reported":1711660029,"current_range_meters":0,"station_id":"ce4bgj12rcd13ifvqbc0","pricing_plan_id":"cebpf4jnsgd1na2vs0mg"},{"bike_id":"a5b3fcbf-da88-4697-89d2-87e6ec805704","system_id":"levelo_inurba_marseille","lat":43.31762,"lon":5.39007,"is_reserved":false,"is_disabled":false,"rental_uris":{"android":"levelo://app?vid=a5b3fcbf-da88-4697-89d2-87e6ec805704","ios":"levelo://app?vid=a5b3fcbf-da88-4697-89d2-87e6ec805704"},"vehicle_type_id":"4","last_reported":1711660029,"current_range_meters":31200,"station_id":"ce4bhqp2rcd13ifvqhng","pricing_plan_id":"cebpf4jnsgd1na2vs0mg"},{"bike_id":"b2bc132d-80f6-42b1-8bd7-bc67f76456a6","system_id":"levelo_inurba_marseille","lat":43.31761,"lon":5.39012,"is_reserved":false,"is_disabled":false,"rental_uris":{"android":"levelo://app?vid=b2bc132d-80f6-42b1-8bd7-bc67f76456a6","ios":"levelo://app?vid=b2bc132d-80f6-42b1-8bd7-bc67f76456a6"},"vehicle_type_id":"4","last_reported":1711660029,"current_range_meters":23200,"station_id":"ce4bhqp2rcd13ifvqhng","pricing_plan_id":"cebpf4jnsgd1na2vs0mg"},{"bike_id":"14b25ab4-d3a1-44e6-8abb-31afe39ac129","system_id":"levelo_inurba_marseille","lat":43.31761,"lon":5.39013,"is_reserved":false,"is_disabled":false,"rental_uris":{"android":"levelo://app?vid=14b25ab4-d3a1-44e6-8abb-31afe39ac129","ios":"levelo://app?vid=14b25ab4-d3a1-44e6-8abb-31afe39ac129"},"vehicle_type_id":"4","last_reported":1711660029,"current_range_meters":3600,"station_id":"ce4bhqp2rcd13ifvqhng","pricing_plan_id":"cebpf4jnsgd1na2vs0mg"},{"bike_id":"e4042505-b127-4f06-bb1e-39cb28acf2ea","system_id":"levelo_inurba_marseille","lat":43.317634,"lon":5.390141,"is_reserved":false,"is_disabled":false,"rental_uris":{"android":"levelo://app?vid=e4042505-b127-4f06-bb1e-39cb28acf2ea","ios":"levelo://app?vid=e4042505-b127-4f06-bb1e-39cb28acf2ea"},"vehicle_type_id":"4","last_reported":1711660029,"current_range_meters":6400,"station_id":"ce4bhqp2rcd13ifvqhng","pricing_plan_id":"cebpf4jnsgd1na2vs0mg"},{"bike_id":"5476f617-6acd-4623-a373-b5da9e3b2d22","system_id":"levelo_inurba_marseille","lat":43.3176,"lon":5.39016,"is_reserved":false,"is_disabled":false,"rental_uris":{"android":"levelo://app?vid=5476f617-6acd-4623-a373-b5da9e3b2d22","ios":"levelo://app?vid=5476f617-6acd-4623-a373-b5da9e3b2d22"},"vehicle_type_id":"4","last_reported":1711660029,"current_range_meters":0,"station_id":"ce4bhqp2rcd13ifvqhng","pricing_plan_id":"cebpf4jnsgd1na2vs0mg"},{"bike_id":"63d7e23f-6216-414f-8d05-021df6249fa9","system_id":"levelo_inurba_marseille","lat":43.317575,"lon":5.39017,"is_reserved":false,"is_disabled":false,"rental_uris":{"android":"levelo://app?vid=63d7e23f-6216-414f-8d05-021df6249fa9","ios":"levelo://app?vid=63d7e23f-6216-414f-8d05-021df6249fa9"},"vehicle_type_id":"4","last_reported":1711660029,"current_range_meters":18000,"station_id":"ce4bhqp2rcd13ifvqhng","pricing_plan_id":"cebpf4jnsgd1na2vs0mg"},{"bike_id":"26ff9772-7999-47f8-b30d-e8a6c19e273d","system_id":"levelo_inurba_marseille","lat":43.31758,"lon":5.39017,"is_reserved":false,"is_disabled":false,"rental_uris":{"android":"levelo://app?vid=26ff9772-7999-47f8-b30d-e8a6c19e273d","ios":"levelo://app?vid=26ff9772-7999-47f8-b30d-e8a6c19e273d"},"vehicle_type_id":"4","last_reported":1711660029,"current_range_meters":18000,"station_id":"ce4bhqp2rcd13ifvqhng","pricing_plan_id":"cebpf4jnsgd1na2vs0mg"},{"bike_id":"ae27ded8-ead6-4dc4-8155-68bebdee1bf1","system_id":"levelo_inurba_marseille","lat":43.31759,"lon":5.39017,"is_reserved":false,"is_disabled":false,"rental_uris":{"android":"levelo://app?vid=ae27ded8-ead6-4dc4-8155-68bebdee1bf1","ios":"levelo://app?vid=ae27ded8-ead6-4dc4-8155-68bebdee1bf1"},"vehicle_type_id":"4","last_reported":1711660029,"current_range_meters":4400,"station_id":"ce4bhqp2rcd13ifvqhng","pricing_plan_id":"cebpf4jnsgd1na2vs0mg"},{"bike_id":"7bfb1ca9-8509-4f08-8279-82b89f9181d6","system_id":"levelo_inurba_marseille","lat":43.31754,"lon":5.39023,"is_reserved":false,"is_disabled":false,"rental_uris":{"android":"levelo://app?vid=7bfb1ca9-8509-4f08-8279-82b89f9181d6","ios":"levelo://app?vid=7bfb1ca9-8509-4f08-8279-82b89f9181d6"},"vehicle_type_id":"4","last_reported":1711660029,"current_range_meters":27600,"station_id":"ce4bhqp2rcd13ifvqhng","pricing_plan_id":"cebpf4jnsgd1na2vs0mg"},{"bike_id":"f9e26199-094c-4b06-b0ad-4be1a38ed7be","system_id":"levelo_inurba_marseille","lat":43.317497,"lon":5.390314,"is_reserved":false,"is_disabled":false,"rental_uris":{"android":"levelo://app?vid=f9e26199-094c-4b06-b0ad-4be1a38ed7be","ios":"levelo://app?vid=f9e26199-094c-4b06-b0ad-4be1a38ed7be"},"vehicle_type_id":"4","last_reported":1711660029,"current_range_meters":15200,"station_id":"ce4bhqp2rcd13ifvqhng","pricing_plan_id":"cebpf4jnsgd1na2vs0mg"},{"bike_id":"6eae7506-b4c5-4f63-9f99-57aa4358f341","system_id":"levelo_inurba_marseille","lat":43.317527,"lon":5.390311,"is_reserved":false,"is_disabled":false,"rental_uris":{"android":"levelo://app?vid=6eae7506-b4c5-4f63-9f99-57aa4358f341","ios":"levelo://app?vid=6eae7506-b4c5-4f63-9f99-57aa4358f341"},"vehicle_type_id":"4","last_reported":1711660029,"current_range_meters":0,"station_id":"","pricing_plan_id":"cebpf4jnsgd1na2vs0mg"},{"bike_id":"32ad1e95-251e-4a54-a1c9-8cd0769436d8","system_id":"levelo_inurba_marseille","lat":43.2981,"lon":5.38096,"is_reserved":false,"is_disabled":false,"rental_uris":{"android":"levelo://app?vid=32ad1e95-251e-4a54-a1c9-8cd0769436d8","ios":"levelo://app?vid=32ad1e95-251e-4a54-a1c9-8cd0769436d8"},"vehicle_type_id":"4","last_reported":1711660029,"current_range_meters":28800,"station_id":"ce4bgip2rcd13ifvqbb0","pricing_plan_id":"cebpf4jnsgd1na2vs0mg"},{"bike_id":"353e6557-7b90-4006-bbbc-e32139f0cebc","system_id":"levelo_inurba_marseille","lat":43.295748,"lon":5.37522,"is_reserved":false,"is_disabled":false,"rental_uris":{"android":"levelo://app?vid=353e6557-7b90-4006-bbbc-e32139f0cebc","ios":"levelo://app?vid=353e6557-7b90-4006-bbbc-e32139f0cebc"},"vehicle_type_id":"4","last_reported":1711660029,"current_range_meters":0,"station_id":"ce4bgh92rcd13ifvqb50","pricing_plan_id":"cebpf4jnsgd1na2vs0mg"},{"bike_id":"baf5fb24-8c7f-4de3-bc8a-5645851aeae7","system_id":"levelo_inurba_marseille","lat":43.2958,"lon":5.37524,"is_reserved":false,"is_disabled":false,"rental_uris":{"android":"levelo://app?vid=baf5fb24-8c7f-4de3-bc8a-5645851aeae7","ios":"levelo://app?vid=baf5fb24-8c7f-4de3-bc8a-5645851aeae7"},"vehicle_type_id":"4","last_reported":1711660029,"current_range_meters":0,"station_id":"ce4bgh92rcd13ifvqb50","pricing_plan_id":"cebpf4jnsgd1na2vs0mg"},{"bike_id":"11e74045-2bee-4d7b-bc59-6fd1ab1047d4","system_id":"levelo_inurba_marseille","lat":43.304274,"lon":5.388873,"is_reserved":false,"is_disabled":false,"rental_uris":{"android":"levelo://app?vid=11e74045-2bee-4d7b-bc59-6fd1ab1047d4","ios":"levelo://app?vid=11e74045-2bee-4d7b-bc59-6fd1ab1047d4"},"vehicle_type_id":"4","last_reported":1711660029,"current_range_meters":1600,"station_id":"ce4bgk12rcd13ifvqbi0","pricing_plan_id":"cebpf4jnsgd1na2vs0mg"},{"bike_id":"f6be6809-c99b-4c65-91e4-e1e310bca8a1","system_id":"levelo_inurba_marseille","lat":43.304274,"lon":5.388873,"is_reserved":false,"is_disabled":false,"rental_uris":{"android":"levelo://app?vid=f6be6809-c99b-4c65-91e4-e1e310bca8a1","ios":"levelo://app?vid=f6be6809-c99b-4c65-91e4-e1e310bca8a1"},"vehicle_type_id":"4","last_reported":1711660029,"current_range_meters":0,"station_id":"ce4bgk12rcd13ifvqbi0","pricing_plan_id":"cebpf4jnsgd1na2vs0mg"},{"bike_id":"010796f2-5803-4ba7-8bb3-8b37830af4cf","system_id":"levelo_inurba_marseille","lat":43.29798,"lon":5.38112,"is_reserved":false,"is_disabled":false,"rental_uris":{"android":"levelo://app?vid=010796f2-5803-4ba7-8bb3-8b37830af4cf","ios":"levelo://app?vid=010796f2-5803-4ba7-8bb3-8b37830af4cf"},"vehicle_type_id":"4","last_reported":1711660029,"current_range_meters":0,"station_id":"ce4bgip2rcd13ifvqbb0","pricing_plan_id":"cebpf4jnsgd1na2vs0mg"},{"bike_id":"1954028a-6eed-49c2-af3c-6304f18a142d","system_id":"levelo_inurba_marseille","lat":43.304311,"lon":5.388821,"is_reserved":false,"is_disabled":false,"rental_uris":{"android":"levelo://app?vid=1954028a-6eed-49c2-af3c-6304f18a142d","ios":"levelo://app?vid=1954028a-6eed-49c2-af3c-6304f18a142d"},"vehicle_type_id":"4","last_reported":1711660029,"current_range_meters":0,"station_id":"ce4bgk12rcd13ifvqbi0","pricing_plan_id":"cebpf4jnsgd1na2vs0mg"},{"bike_id":"ca02b0fe-9920-4872-ade3-798dfe7ba2b1","system_id":"levelo_inurba_marseille","lat":43.30441,"lon":5.38891,"is_reserved":false,"is_disabled":false,"rental_uris":{"android":"levelo://app?vid=ca02b0fe-9920-4872-ade3-798dfe7ba2b1","ios":"levelo://app?vid=ca02b0fe-9920-4872-ade3-798dfe7ba2b1"},"vehicle_type_id":"4","last_reported":1711660029,"current_range_meters":16000,"station_id":"ce4bgk12rcd13ifvqbi0","pricing_plan_id":"cebpf4jnsgd1na2vs0mg"},{"bike_id":"ded8cb6c-0bd9-434e-9b12-35a539cdc775","system_id":"levelo_inurba_marseille","lat":43.29792,"lon":5.3811,"is_reserved":false,"is_disabled":false,"rental_uris":{"android":"levelo://app?vid=ded8cb6c-0bd9-434e-9b12-35a539cdc775","ios":"levelo://app?vid=ded8cb6c-0bd9-434e-9b12-35a539cdc775"},"vehicle_type_id":"4","last_reported":1711660029,"current_range_meters":0,"station_id":"ce4bgip2rcd13ifvqbb0","pricing_plan_id":"cebpf4jnsgd1na2vs0mg"},{"bike_id":"01e313c3-f279-4632-807c-f04fd1473246","system_id":"levelo_inurba_marseille","lat":43.295748,"lon":5.37522,"is_reserved":false,"is_disabled":false,"rental_uris":{"android":"levelo://app?vid=01e313c3-f279-4632-807c-f04fd1473246","ios":"levelo://app?vid=01e313c3-f279-4632-807c-f04fd1473246"},"vehicle_type_id":"4","last_reported":1711660029,"current_range_meters":0,"station_id":"ce4bgh92rcd13ifvqb50","pricing_plan_id":"cebpf4jnsgd1na2vs0mg"},{"bike_id":"3767ee20-0015-4f1c-aa0a-187ecdbe23fa","system_id":"levelo_inurba_marseille","lat":43.30432,"lon":5.38889,"is_reserved":false,"is_disabled":false,"rental_uris":{"android":"levelo://app?vid=3767ee20-0015-4f1c-aa0a-187ecdbe23fa","ios":"levelo://app?vid=3767ee20-0015-4f1c-aa0a-187ecdbe23fa"},"vehicle_type_id":"4","last_reported":1711660029,"current_range_meters":0,"station_id":"ce4bgk12rcd13ifvqbi0","pricing_plan_id":"cebpf4jnsgd1na2vs0mg"},{"bike_id":"fdb349e9-b080-4263-bd22-9e910036a65f","system_id":"levelo_inurba_marseille","lat":43.297946,"lon":5.404063,"is_reserved":false,"is_disabled":false,"rental_uris":{"android":"levelo://app?vid=fdb349e9-b080-4263-bd22-9e910036a65f","ios":"levelo://app?vid=fdb349e9-b080-4263-bd22-9e910036a65f"},"vehicle_type_id":"4","last_reported":1711660029,"current_range_meters":8400,"station_id":"ce4bh112rcd13ifvqd90","pricing_plan_id":"cebpf4jnsgd1na2vs0mg"},{"bike_id":"c7308395-db4f-4ebd-828d-a52fed381c02","system_id":"levelo_inurba_marseille","lat":43.29571,"lon":5.37527,"is_reserved":false,"is_disabled":false,"rental_uris":{"android":"levelo://app?vid=c7308395-db4f-4ebd-828d-a52fed381c02","ios":"levelo://app?vid=c7308395-db4f-4ebd-828d-a52fed381c02"},"vehicle_type_id":"4","last_reported":1711660029,"current_range_meters":800,"station_id":"ce4bgh92rcd13ifvqb50","pricing_plan_id":"cebpf4jnsgd1na2vs0mg"},{"bike_id":"751a161a-b4f4-471a-a48d-dbeedc346ebc","system_id":"levelo_inurba_marseille","lat":43.29571,"lon":5.37529,"is_reserved":false,"is_disabled":false,"rental_uris":{"android":"levelo://app?vid=751a161a-b4f4-471a-a48d-dbeedc346ebc","ios":"levelo://app?vid=751a161a-b4f4-471a-a48d-dbeedc346ebc"},"vehicle_type_id":"4","last_reported":1711660029,"current_range_meters":20400,"station_id":"ce4bgh92rcd13ifvqb50","pricing_plan_id":"cebpf4jnsgd1na2vs0mg"},{"bike_id":"95c82e2d-68ef-49b3-8db4-b36356a0e657","system_id":"levelo_inurba_marseille","lat":43.29568,"lon":5.37527,"is_reserved":false,"is_disabled":false,"rental_uris":{"android":"levelo://app?vid=95c82e2d-68ef-49b3-8db4-b36356a0e657","ios":"levelo://app?vid=95c82e2d-68ef-49b3-8db4-b36356a0e657"},"vehicle_type_id":"4","last_reported":1711660029,"current_range_meters":6800,"station_id":"ce4bgh92rcd13ifvqb50","pricing_plan_id":"cebpf4jnsgd1na2vs0mg"},{"bike_id":"f4471e49-8536-401a-acdc-3db85d80af90","system_id":"levelo_inurba_marseille","lat":43.304324,"lon":5.388966,"is_reserved":false,"is_disabled":false,"rental_uris":{"android":"levelo://app?vid=f4471e49-8536-401a-acdc-3db85d80af90","ios":"levelo://app?vid=f4471e49-8536-401a-acdc-3db85d80af90"},"vehicle_type_id":"4","last_reported":1711660029,"current_range_meters":16000,"station_id":"ce4bgk12rcd13ifvqbi0","pricing_plan_id":"cebpf4jnsgd1na2vs0mg"},{"bike_id":"5bb01a96-11e9-48d2-872d-1ac2186be532","system_id":"levelo_inurba_marseille","lat":43.29626,"lon":5.37729,"is_reserved":false,"is_disabled":false,"rental_uris":{"android":"levelo://app?vid=5bb01a96-11e9-48d2-872d-1ac2186be532","ios":"levelo://app?vid=5bb01a96-11e9-48d2-872d-1ac2186be532"},"vehicle_type_id":"4","last_reported":1711660029,"current_range_meters":1600,"station_id":"ce4bgi92rcd13ifvqb90","pricing_plan_id":"cebpf4jnsgd1na2vs0mg"},{"bike_id":"c68678ba-d3cb-40fc-aa53-418542c0d95c","system_id":"levelo_inurba_marseille","lat":43.29625,"lon":5.3773,"is_reserved":false,"is_disabled":false,"rental_uris":{"android":"levelo://app?vid=c68678ba-d3cb-40fc-aa53-418542c0d95c","ios":"levelo://app?vid=c68678ba-d3cb-40fc-aa53-418542c0d95c"},"vehicle_type_id":"4","last_reported":1711660029,"current_range_meters":1200,"station_id":"ce4bgi92rcd13ifvqb90","pricing_plan_id":"cebpf4jnsgd1na2vs0mg"},{"bike_id":"f440145c-9da9-4930-9024-4b46f0a12fff","system_id":"levelo_inurba_marseille","lat":43.304274,"lon":5.388873,"is_reserved":false,"is_disabled":false,"rental_uris":{"android":"levelo://app?vid=f440145c-9da9-4930-9024-4b46f0a12fff","ios":"levelo://app?vid=f440145c-9da9-4930-9024-4b46f0a12fff"},"vehicle_type_id":"4","last_reported":1711660029,"current_range_meters":9600,"station_id":"ce4bgk12rcd13ifvqbi0","pricing_plan_id":"cebpf4jnsgd1na2vs0mg"},{"bike_id":"b55982cb-a125-4570-860a-93c2fc9c05a3","system_id":"levelo_inurba_marseille","lat":43.29616,"lon":5.37722,"is_reserved":false,"is_disabled":false,"rental_uris":{"android":"levelo://app?vid=b55982cb-a125-4570-860a-93c2fc9c05a3","ios":"levelo://app?vid=b55982cb-a125-4570-860a-93c2fc9c05a3"},"vehicle_type_id":"4","last_reported":1711660029,"current_range_meters":0,"station_id":"ce4bgi92rcd13ifvqb90","pricing_plan_id":"cebpf4jnsgd1na2vs0mg"},{"bike_id":"ee9ff71e-6fef-4614-af5d-7f6e3e5076dc","system_id":"levelo_inurba_marseille","lat":43.296153,"lon":5.37725,"is_reserved":false,"is_disabled":false,"rental_uris":{"android":"levelo://app?vid=ee9ff71e-6fef-4614-af5d-7f6e3e5076dc","ios":"levelo://app?vid=ee9ff71e-6fef-4614-af5d-7f6e3e5076dc"},"vehicle_type_id":"4","last_reported":1711660029,"current_range_meters":3600,"station_id":"ce4bgi92rcd13ifvqb90","pricing_plan_id":"cebpf4jnsgd1na2vs0mg"},{"bike_id":"3829ba51-60f3-4c38-a0a0-c051ec250c96","system_id":"levelo_inurba_marseille","lat":43.295293,"lon":5.374953,"is_reserved":false,"is_disabled":false,"rental_uris":{"android":"levelo://app?vid=3829ba51-60f3-4c38-a0a0-c051ec250c96","ios":"levelo://app?vid=3829ba51-60f3-4c38-a0a0-c051ec250c96"},"vehicle_type_id":"4","last_reported":1711660029,"current_range_meters":1200,"station_id":"ce4bgkp2rcd13ifvqbmg","pricing_plan_id":"cebpf4jnsgd1na2vs0mg"},{"bike_id":"cf030bd4-4040-4d45-9112-b0bc17746e95","system_id":"levelo_inurba_marseille","lat":43.295279,"lon":5.375048,"is_reserved":false,"is_disabled":false,"rental_uris":{"android":"levelo://app?vid=cf030bd4-4040-4d45-9112-b0bc17746e95","ios":"levelo://app?vid=cf030bd4-4040-4d45-9112-b0bc17746e95"},"vehicle_type_id":"4","last_reported":1711660029,"current_range_meters":0,"station_id":"ce4bgkp2rcd13ifvqbmg","pricing_plan_id":"cebpf4jnsgd1na2vs0mg"},{"bike_id":"4ae576c4-f892-4869-8b37-caf77ecd2377","system_id":"levelo_inurba_marseille","lat":43.299707,"lon":5.384859,"is_reserved":false,"is_disabled":false,"rental_uris":{"android":"levelo://app?vid=4ae576c4-f892-4869-8b37-caf77ecd2377","ios":"levelo://app?vid=4ae576c4-f892-4869-8b37-caf77ecd2377"},"vehicle_type_id":"4","last_reported":1711660029,"current_range_meters":0,"station_id":"ce4bgj92rcd13ifvqbd0","pricing_plan_id":"cebpf4jnsgd1na2vs0mg"},{"bike_id":"f0f2521c-a033-451d-a755-87c1ca1d9ef6","system_id":"levelo_inurba_marseille","lat":43.299707,"lon":5.384859,"is_reserved":false,"is_disabled":false,"rental_uris":{"android":"levelo://app?vid=f0f2521c-a033-451d-a755-87c1ca1d9ef6","ios":"levelo://app?vid=f0f2521c-a033-451d-a755-87c1ca1d9ef6"},"vehicle_type_id":"4","last_reported":1711660029,"current_range_meters":5600,"station_id":"ce4bgj92rcd13ifvqbd0","pricing_plan_id":"cebpf4jnsgd1na2vs0mg"},{"bike_id":"975451a3-dc4d-49d0-b27d-e6ac9377c829","system_id":"levelo_inurba_marseille","lat":43.289307,"lon":5.38406,"is_reserved":false,"is_disabled":false,"rental_uris":{"android":"levelo://app?vid=975451a3-dc4d-49d0-b27d-e6ac9377c829","ios":"levelo://app?vid=975451a3-dc4d-49d0-b27d-e6ac9377c829"},"vehicle_type_id":"4","last_reported":1711660029,"current_range_meters":11600,"station_id":"ce4bh612rcd13ifvqe6g","pricing_plan_id":"cebpf4jnsgd1na2vs0mg"},{"bike_id":"6a3a6a35-4f3a-4361-a315-b6450a329d99","system_id":"levelo_inurba_marseille","lat":43.295279,"lon":5.375048,"is_reserved":false,"is_disabled":false,"rental_uris":{"android":"levelo://app?vid=6a3a6a35-4f3a-4361-a315-b6450a329d99","ios":"levelo://app?vid=6a3a6a35-4f3a-4361-a315-b6450a329d99"},"vehicle_type_id":"4","last_reported":1711660029,"current_range_meters":0,"station_id":"ce4bgkp2rcd13ifvqbmg","pricing_plan_id":"cebpf4jnsgd1na2vs0mg"},{"bike_id":"5a26bab3-9923-42c0-8c90-29e7923e0e3f","system_id":"levelo_inurba_marseille","lat":43.299717,"lon":5.384845,"is_reserved":false,"is_disabled":false,"rental_uris":{"android":"levelo://app?vid=5a26bab3-9923-42c0-8c90-29e7923e0e3f","ios":"levelo://app?vid=5a26bab3-9923-42c0-8c90-29e7923e0e3f"},"vehicle_type_id":"4","last_reported":1711660029,"current_range_meters":9200,"station_id":"ce4bgj92rcd13ifvqbd0","pricing_plan_id":"cebpf4jnsgd1na2vs0mg"},{"bike_id":"8f88475f-12c4-443d-912b-6449e0dfb482","system_id":"levelo_inurba_marseille","lat":43.299717,"lon":5.384845,"is_reserved":false,"is_disabled":false,"rental_uris":{"android":"levelo://app?vid=8f88475f-12c4-443d-912b-6449e0dfb482","ios":"levelo://app?vid=8f88475f-12c4-443d-912b-6449e0dfb482"},"vehicle_type_id":"4","last_reported":1711660029,"current_range_meters":0,"station_id":"ce4bgj92rcd13ifvqbd0","pricing_plan_id":"cebpf4jnsgd1na2vs0mg"},{"bike_id":"e66ae435-942e-455c-9147-60d0c1a7f549","system_id":"levelo_inurba_marseille","lat":43.295279,"lon":5.375048,"is_reserved":false,"is_disabled":false,"rental_uris":{"android":"levelo://app?vid=e66ae435-942e-455c-9147-60d0c1a7f549","ios":"levelo://app?vid=e66ae435-942e-455c-9147-60d0c1a7f549"},"vehicle_type_id":"4","last_reported":1711660029,"current_range_meters":7600,"station_id":"ce4bgkp2rcd13ifvqbmg","pricing_plan_id":"cebpf4jnsgd1na2vs0mg"},{"bike_id":"d15381f7-6688-4bf6-87c1-20054670f7ae","system_id":"levelo_inurba_marseille","lat":43.29957,"lon":5.38491,"is_reserved":false,"is_disabled":false,"rental_uris":{"android":"levelo://app?vid=d15381f7-6688-4bf6-87c1-20054670f7ae","ios":"levelo://app?vid=d15381f7-6688-4bf6-87c1-20054670f7ae"},"vehicle_type_id":"4","last_reported":1711660029,"current_range_meters":1200,"station_id":"ce4bgj92rcd13ifvqbd0","pricing_plan_id":"cebpf4jnsgd1na2vs0mg"},{"bike_id":"58748b15-022e-40ff-b624-791bc93b309a","system_id":"levelo_inurba_marseille","lat":43.299724,"lon":5.384848,"is_reserved":false,"is_disabled":false,"rental_uris":{"android":"levelo://app?vid=58748b15-022e-40ff-b624-791bc93b309a","ios":"levelo://app?vid=58748b15-022e-40ff-b624-791bc93b309a"},"vehicle_type_id":"4","last_reported":1711660029,"current_range_meters":4400,"station_id":"ce4bgj92rcd13ifvqbd0","pricing_plan_id":"cebpf4jnsgd1na2vs0mg"},{"bike_id":"c3410d74-a7b2-4831-9693-762561b18e87","system_id":"levelo_inurba_marseille","lat":43.29669,"lon":5.38119,"is_reserved":false,"is_disabled":false,"rental_uris":{"android":"levelo://app?vid=c3410d74-a7b2-4831-9693-762561b18e87","ios":"levelo://app?vid=c3410d74-a7b2-4831-9693-762561b18e87"},"vehicle_type_id":"4","last_reported":1711660029,"current_range_meters":22400,"station_id":"ce4bgih2rcd13ifvqba0","pricing_plan_id":"cebpf4jnsgd1na2vs0mg"},{"bike_id":"f4f06a98-fad7-4671-b11e-16c23a8e2b3d","system_id":"levelo_inurba_marseille","lat":43.32367,"lon":5.388836,"is_reserved":false,"is_disabled":false,"rental_uris":{"android":"levelo://app?vid=f4f06a98-fad7-4671-b11e-16c23a8e2b3d","ios":"levelo://app?vid=f4f06a98-fad7-4671-b11e-16c23a8e2b3d"},"vehicle_type_id":"4","last_reported":1711660029,"current_range_meters":12000,"station_id":"ce4bhqp2rcd13ifvqhog","pricing_plan_id":"cebpf4jnsgd1na2vs0mg"},{"bike_id":"f5f1a870-2efe-4f1a-b8d8-e342b746a405","system_id":"levelo_inurba_marseille","lat":43.32367,"lon":5.388836,"is_reserved":false,"is_disabled":false,"rental_uris":{"android":"levelo://app?vid=f5f1a870-2efe-4f1a-b8d8-e342b746a405","ios":"levelo://app?vid=f5f1a870-2efe-4f1a-b8d8-e342b746a405"},"vehicle_type_id":"4","last_reported":1711660029,"current_range_meters":21600,"station_id":"ce4bhqp2rcd13ifvqhog","pricing_plan_id":"cebpf4jnsgd1na2vs0mg"},{"bike_id":"4c95fb36-323d-40c2-9ea5-0fe226e0bee4","system_id":"levelo_inurba_marseille","lat":43.29601,"lon":5.381084,"is_reserved":false,"is_disabled":false,"rental_uris":{"android":"levelo://app?vid=4c95fb36-323d-40c2-9ea5-0fe226e0bee4","ios":"levelo://app?vid=4c95fb36-323d-40c2-9ea5-0fe226e0bee4"},"vehicle_type_id":"4","last_reported":1711660029,"current_range_meters":4400,"station_id":"ce4bgl12rcd13ifvqbo0","pricing_plan_id":"cebpf4jnsgd1na2vs0mg"},{"bike_id":"bd2471bc-b8f9-49bb-809c-94c20813d922","system_id":"levelo_inurba_marseille","lat":43.29602,"lon":5.381084,"is_reserved":false,"is_disabled":false,"rental_uris":{"android":"levelo://app?vid=bd2471bc-b8f9-49bb-809c-94c20813d922","ios":"levelo://app?vid=bd2471bc-b8f9-49bb-809c-94c20813d922"},"vehicle_type_id":"4","last_reported":1711660029,"current_range_meters":3600,"station_id":"ce4bgl12rcd13ifvqbo0","pricing_plan_id":"cebpf4jnsgd1na2vs0mg"},{"bike_id":"55cb2992-3810-45fe-870f-389dc1d8c7d3","system_id":"levelo_inurba_marseille","lat":43.29602,"lon":5.381084,"is_reserved":false,"is_disabled":false,"rental_uris":{"android":"levelo://app?vid=55cb2992-3810-45fe-870f-389dc1d8c7d3","ios":"levelo://app?vid=55cb2992-3810-45fe-870f-389dc1d8c7d3"},"vehicle_type_id":"4","last_reported":1711660029,"current_range_meters":16400,"station_id":"ce4bgl12rcd13ifvqbo0","pricing_plan_id":"cebpf4jnsgd1na2vs0mg"},{"bike_id":"f43552e9-8c99-453c-8f1e-b650a24be59a","system_id":"levelo_inurba_marseille","lat":43.29602,"lon":5.381084,"is_reserved":false,"is_disabled":false,"rental_uris":{"android":"levelo://app?vid=f43552e9-8c99-453c-8f1e-b650a24be59a","ios":"levelo://app?vid=f43552e9-8c99-453c-8f1e-b650a24be59a"},"vehicle_type_id":"4","last_reported":1711660029,"current_range_meters":8400,"station_id":"ce4bgl12rcd13ifvqbo0","pricing_plan_id":"cebpf4jnsgd1na2vs0mg"},{"bike_id":"d5ac95e9-9f50-42d7-982f-cedfdc668ca5","system_id":"levelo_inurba_marseille","lat":43.29277,"lon":5.36835,"is_reserved":false,"is_disabled":false,"rental_uris":{"android":"levelo://app?vid=d5ac95e9-9f50-42d7-982f-cedfdc668ca5","ios":"levelo://app?vid=d5ac95e9-9f50-42d7-982f-cedfdc668ca5"},"vehicle_type_id":"4","last_reported":1711660029,"current_range_meters":0,"station_id":"ce4bhbp2rcd13ifvqesg","pricing_plan_id":"cebpf4jnsgd1na2vs0mg"},{"bike_id":"a10cbed6-4130-4bd2-8b65-b944d2350e68","system_id":"levelo_inurba_marseille","lat":43.292749,"lon":5.368402,"is_reserved":false,"is_disabled":false,"rental_uris":{"android":"levelo://app?vid=a10cbed6-4130-4bd2-8b65-b944d2350e68","ios":"levelo://app?vid=a10cbed6-4130-4bd2-8b65-b944d2350e68"},"vehicle_type_id":"4","last_reported":1711660029,"current_range_meters":1600,"station_id":"ce4bhbp2rcd13ifvqesg","pricing_plan_id":"cebpf4jnsgd1na2vs0mg"},{"bike_id":"2c7e4f11-4df1-4d8c-865f-f2c5b5196dd9","system_id":"levelo_inurba_marseille","lat":43.29273,"lon":5.36843,"is_reserved":false,"is_disabled":false,"rental_uris":{"android":"levelo://app?vid=2c7e4f11-4df1-4d8c-865f-f2c5b5196dd9","ios":"levelo://app?vid=2c7e4f11-4df1-4d8c-865f-f2c5b5196dd9"},"vehicle_type_id":"4","last_reported":1711660029,"current_range_meters":6800,"station_id":"ce4bhbp2rcd13ifvqesg","pricing_plan_id":"cebpf4jnsgd1na2vs0mg"},{"bike_id":"233efa81-5f5f-447a-99a3-a289009548b9","system_id":"levelo_inurba_marseille","lat":43.29271,"lon":5.36854,"is_reserved":false,"is_disabled":false,"rental_uris":{"android":"levelo://app?vid=233efa81-5f5f-447a-99a3-a289009548b9","ios":"levelo://app?vid=233efa81-5f5f-447a-99a3-a289009548b9"},"vehicle_type_id":"4","last_reported":1711660029,"current_range_meters":0,"station_id":"","pricing_plan_id":"cebpf4jnsgd1na2vs0mg"},{"bike_id":"15f933f1-f946-47d9-bdbd-51c605f1a3ed","system_id":"levelo_inurba_marseille","lat":43.295443,"lon":5.38165,"is_reserved":false,"is_disabled":false,"rental_uris":{"android":"levelo://app?vid=15f933f1-f946-47d9-bdbd-51c605f1a3ed","ios":"levelo://app?vid=15f933f1-f946-47d9-bdbd-51c605f1a3ed"},"vehicle_type_id":"4","last_reported":1711660029,"current_range_meters":8000,"station_id":"","pricing_plan_id":"cebpf4jnsgd1na2vs0mg"},{"bike_id":"bbeac050-7640-41cf-a965-1c7af12737a7","system_id":"levelo_inurba_marseille","lat":43.29574,"lon":5.38261,"is_reserved":false,"is_disabled":false,"rental_uris":{"android":"levelo://app?vid=bbeac050-7640-41cf-a965-1c7af12737a7","ios":"levelo://app?vid=bbeac050-7640-41cf-a965-1c7af12737a7"},"vehicle_type_id":"4","last_reported":1711660029,"current_range_meters":0,"station_id":"","pricing_plan_id":"cebpf4jnsgd1na2vs0mg"},{"bike_id":"1f31f567-98fd-4be7-9080-b8fd8c5067ad","system_id":"levelo_inurba_marseille","lat":43.305994,"lon":5.393687,"is_reserved":false,"is_disabled":false,"rental_uris":{"android":"levelo://app?vid=1f31f567-98fd-4be7-9080-b8fd8c5067ad","ios":"levelo://app?vid=1f31f567-98fd-4be7-9080-b8fd8c5067ad"},"vehicle_type_id":"4","last_reported":1711660029,"current_range_meters":800,"station_id":"ce4bh0p2rcd13ifvqd80","pricing_plan_id":"cebpf4jnsgd1na2vs0mg"},{"bike_id":"8fefc68e-b4f2-4dba-8f80-50e9d444b0be","system_id":"levelo_inurba_marseille","lat":43.305994,"lon":5.393687,"is_reserved":false,"is_disabled":false,"rental_uris":{"android":"levelo://app?vid=8fefc68e-b4f2-4dba-8f80-50e9d444b0be","ios":"levelo://app?vid=8fefc68e-b4f2-4dba-8f80-50e9d444b0be"},"vehicle_type_id":"4","last_reported":1711660029,"current_range_meters":17200,"station_id":"ce4bh0p2rcd13ifvqd80","pricing_plan_id":"cebpf4jnsgd1na2vs0mg"},{"bike_id":"455dc993-6523-4a66-8cee-756d7cbe2c90","system_id":"levelo_inurba_marseille","lat":43.305994,"lon":5.393687,"is_reserved":false,"is_disabled":false,"rental_uris":{"android":"levelo://app?vid=455dc993-6523-4a66-8cee-756d7cbe2c90","ios":"levelo://app?vid=455dc993-6523-4a66-8cee-756d7cbe2c90"},"vehicle_type_id":"4","last_reported":1711660029,"current_range_meters":30400,"station_id":"ce4bh0p2rcd13ifvqd80","pricing_plan_id":"cebpf4jnsgd1na2vs0mg"},{"bike_id":"257fed5a-299e-4945-b275-03dd95b33830","system_id":"levelo_inurba_marseille","lat":43.305994,"lon":5.393687,"is_reserved":false,"is_disabled":false,"rental_uris":{"android":"levelo://app?vid=257fed5a-299e-4945-b275-03dd95b33830","ios":"levelo://app?vid=257fed5a-299e-4945-b275-03dd95b33830"},"vehicle_type_id":"4","last_reported":1711660029,"current_range_meters":16400,"station_id":"ce4bh0p2rcd13ifvqd80","pricing_plan_id":"cebpf4jnsgd1na2vs0mg"},{"bike_id":"84190116-f48e-4411-91ae-01a23cb7de88","system_id":"levelo_inurba_marseille","lat":43.305994,"lon":5.393687,"is_reserved":false,"is_disabled":false,"rental_uris":{"android":"levelo://app?vid=84190116-f48e-4411-91ae-01a23cb7de88","ios":"levelo://app?vid=84190116-f48e-4411-91ae-01a23cb7de88"},"vehicle_type_id":"4","last_reported":1711660029,"current_range_meters":14800,"station_id":"ce4bh0p2rcd13ifvqd80","pricing_plan_id":"cebpf4jnsgd1na2vs0mg"},{"bike_id":"3b9acbd5-af2b-4ed1-81dc-0dfb3f703617","system_id":"levelo_inurba_marseille","lat":43.305994,"lon":5.393687,"is_reserved":false,"is_disabled":false,"rental_uris":{"android":"levelo://app?vid=3b9acbd5-af2b-4ed1-81dc-0dfb3f703617","ios":"levelo://app?vid=3b9acbd5-af2b-4ed1-81dc-0dfb3f703617"},"vehicle_type_id":"4","last_reported":1711660029,"current_range_meters":28800,"station_id":"ce4bh0p2rcd13ifvqd80","pricing_plan_id":"cebpf4jnsgd1na2vs0mg"},{"bike_id":"f2abfd08-8545-4f8b-b10f-c1e2b82bb13a","system_id":"levelo_inurba_marseille","lat":43.303013,"lon":5.392023,"is_reserved":false,"is_disabled":false,"rental_uris":{"android":"levelo://app?vid=f2abfd08-8545-4f8b-b10f-c1e2b82bb13a","ios":"levelo://app?vid=f2abfd08-8545-4f8b-b10f-c1e2b82bb13a"},"vehicle_type_id":"4","last_reported":1711660029,"current_range_meters":0,"station_id":"ce4bgkh2rcd13ifvqbk0","pricing_plan_id":"cebpf4jnsgd1na2vs0mg"},{"bike_id":"60442c4f-7b65-4472-aefe-798e1da2abf7","system_id":"levelo_inurba_marseille","lat":43.303089,"lon":5.392154,"is_reserved":false,"is_disabled":false,"rental_uris":{"android":"levelo://app?vid=60442c4f-7b65-4472-aefe-798e1da2abf7","ios":"levelo://app?vid=60442c4f-7b65-4472-aefe-798e1da2abf7"},"vehicle_type_id":"4","last_reported":1711660029,"current_range_meters":0,"station_id":"ce4bgkh2rcd13ifvqbk0","pricing_plan_id":"cebpf4jnsgd1na2vs0mg"},{"bike_id":"de054245-1fa5-44b1-a4e5-417a66760c73","system_id":"levelo_inurba_marseille","lat":43.303002,"lon":5.392142,"is_reserved":false,"is_disabled":false,"rental_uris":{"android":"levelo://app?vid=de054245-1fa5-44b1-a4e5-417a66760c73","ios":"levelo://app?vid=de054245-1fa5-44b1-a4e5-417a66760c73"},"vehicle_type_id":"4","last_reported":1711660029,"current_range_meters":5600,"station_id":"ce4bgkh2rcd13ifvqbk0","pricing_plan_id":"cebpf4jnsgd1na2vs0mg"},{"bike_id":"f9fa7713-1c02-4b9a-9be7-3c307943cd16","system_id":"levelo_inurba_marseille","lat":43.30085,"lon":5.390856,"is_reserved":false,"is_disabled":false,"rental_uris":{"android":"levelo://app?vid=f9fa7713-1c02-4b9a-9be7-3c307943cd16","ios":"levelo://app?vid=f9fa7713-1c02-4b9a-9be7-3c307943cd16"},"vehicle_type_id":"4","last_reported":1711660029,"current_range_meters":21600,"station_id":"ce4bh192rcd13ifvqdb0","pricing_plan_id":"cebpf4jnsgd1na2vs0mg"},{"bike_id":"42f7a543-40d2-406e-9834-5d517988d65b","system_id":"levelo_inurba_marseille","lat":43.300852,"lon":5.390859,"is_reserved":false,"is_disabled":false,"rental_uris":{"android":"levelo://app?vid=42f7a543-40d2-406e-9834-5d517988d65b","ios":"levelo://app?vid=42f7a543-40d2-406e-9834-5d517988d65b"},"vehicle_type_id":"4","last_reported":1711660029,"current_range_meters":8000,"station_id":"ce4bh192rcd13ifvqdb0","pricing_plan_id":"cebpf4jnsgd1na2vs0mg"},{"bike_id":"c5369abf-cb61-43b4-8b0a-c51a7a3187e8","system_id":"levelo_inurba_marseille","lat":43.30085,"lon":5.390856,"is_reserved":false,"is_disabled":false,"rental_uris":{"android":"levelo://app?vid=c5369abf-cb61-43b4-8b0a-c51a7a3187e8","ios":"levelo://app?vid=c5369abf-cb61-43b4-8b0a-c51a7a3187e8"},"vehicle_type_id":"4","last_reported":1711660029,"current_range_meters":13200,"station_id":"ce4bh192rcd13ifvqdb0","pricing_plan_id":"cebpf4jnsgd1na2vs0mg"},{"bike_id":"820b08c2-6a15-4ef7-86f7-9d02656dacb7","system_id":"levelo_inurba_marseille","lat":43.30085,"lon":5.390856,"is_reserved":false,"is_disabled":false,"rental_uris":{"android":"levelo://app?vid=820b08c2-6a15-4ef7-86f7-9d02656dacb7","ios":"levelo://app?vid=820b08c2-6a15-4ef7-86f7-9d02656dacb7"},"vehicle_type_id":"4","last_reported":1711660029,"current_range_meters":5200,"station_id":"ce4bh192rcd13ifvqdb0","pricing_plan_id":"cebpf4jnsgd1na2vs0mg"},{"bike_id":"a745db81-3c76-4fb0-b1bd-64f4db34ab4f","system_id":"levelo_inurba_marseille","lat":43.300852,"lon":5.390859,"is_reserved":false,"is_disabled":false,"rental_uris":{"android":"levelo://app?vid=a745db81-3c76-4fb0-b1bd-64f4db34ab4f","ios":"levelo://app?vid=a745db81-3c76-4fb0-b1bd-64f4db34ab4f"},"vehicle_type_id":"4","last_reported":1711660029,"current_range_meters":6400,"station_id":"ce4bh192rcd13ifvqdb0","pricing_plan_id":"cebpf4jnsgd1na2vs0mg"},{"bike_id":"c90c30e5-4e31-4449-b1bd-cca19e8e9f78","system_id":"levelo_inurba_marseille","lat":43.298764,"lon":5.388973,"is_reserved":false,"is_disabled":false,"rental_uris":{"android":"levelo://app?vid=c90c30e5-4e31-4449-b1bd-cca19e8e9f78","ios":"levelo://app?vid=c90c30e5-4e31-4449-b1bd-cca19e8e9f78"},"vehicle_type_id":"4","last_reported":1711660029,"current_range_meters":800,"station_id":"ce4bh392rcd13ifvqdl0","pricing_plan_id":"cebpf4jnsgd1na2vs0mg"},{"bike_id":"99148dfa-fdc9-41bc-b76b-750aeca24668","system_id":"levelo_inurba_marseille","lat":43.292637,"lon":5.376223,"is_reserved":false,"is_disabled":false,"rental_uris":{"android":"levelo://app?vid=99148dfa-fdc9-41bc-b76b-750aeca24668","ios":"levelo://app?vid=99148dfa-fdc9-41bc-b76b-750aeca24668"},"vehicle_type_id":"4","last_reported":1711660029,"current_range_meters":4000,"station_id":"","pricing_plan_id":"cebpf4jnsgd1na2vs0mg"},{"bike_id":"161dcd1c-7a19-486c-acd5-27fedc6507d2","system_id":"levelo_inurba_marseille","lat":43.291783,"lon":5.37164,"is_reserved":false,"is_disabled":false,"rental_uris":{"android":"levelo://app?vid=161dcd1c-7a19-486c-acd5-27fedc6507d2","ios":"levelo://app?vid=161dcd1c-7a19-486c-acd5-27fedc6507d2"},"vehicle_type_id":"4","last_reported":1711660029,"current_range_meters":24000,"station_id":"ce4bha92rcd13ifvqeh0","pricing_plan_id":"cebpf4jnsgd1na2vs0mg"},{"bike_id":"26226e35-a79d-4e20-a243-fd78ca300135","system_id":"levelo_inurba_marseille","lat":43.291671,"lon":5.371575,"is_reserved":false,"is_disabled":false,"rental_uris":{"android":"levelo://app?vid=26226e35-a79d-4e20-a243-fd78ca300135","ios":"levelo://app?vid=26226e35-a79d-4e20-a243-fd78ca300135"},"vehicle_type_id":"4","last_reported":1711660029,"current_range_meters":0,"station_id":"ce4bha92rcd13ifvqeh0","pricing_plan_id":"cebpf4jnsgd1na2vs0mg"},{"bike_id":"c4833118-a96c-4a99-b8bc-a40a677fe295","system_id":"levelo_inurba_marseille","lat":43.298764,"lon":5.388973,"is_reserved":false,"is_disabled":false,"rental_uris":{"android":"levelo://app?vid=c4833118-a96c-4a99-b8bc-a40a677fe295","ios":"levelo://app?vid=c4833118-a96c-4a99-b8bc-a40a677fe295"},"vehicle_type_id":"4","last_reported":1711660029,"current_range_meters":4400,"station_id":"ce4bh392rcd13ifvqdl0","pricing_plan_id":"cebpf4jnsgd1na2vs0mg"},{"bike_id":"d8cfd975-10fc-4eff-8f3a-db090508926b","system_id":"levelo_inurba_marseille","lat":43.298764,"lon":5.388973,"is_reserved":false,"is_disabled":false,"rental_uris":{"android":"levelo://app?vid=d8cfd975-10fc-4eff-8f3a-db090508926b","ios":"levelo://app?vid=d8cfd975-10fc-4eff-8f3a-db090508926b"},"vehicle_type_id":"4","last_reported":1711660029,"current_range_meters":1600,"station_id":"ce4bh392rcd13ifvqdl0","pricing_plan_id":"cebpf4jnsgd1na2vs0mg"},{"bike_id":"79f564c5-ae1c-4ff6-87f3-4d2741d6c7a4","system_id":"levelo_inurba_marseille","lat":43.30085,"lon":5.390856,"is_reserved":false,"is_disabled":false,"rental_uris":{"android":"levelo://app?vid=79f564c5-ae1c-4ff6-87f3-4d2741d6c7a4","ios":"levelo://app?vid=79f564c5-ae1c-4ff6-87f3-4d2741d6c7a4"},"vehicle_type_id":"4","last_reported":1711660029,"current_range_meters":14800,"station_id":"ce4bh192rcd13ifvqdb0","pricing_plan_id":"cebpf4jnsgd1na2vs0mg"},{"bike_id":"dbfc1d57-1fee-4a9d-8c8f-a722c606ca3b","system_id":"levelo_inurba_marseille","lat":43.298764,"lon":5.388973,"is_reserved":false,"is_disabled":false,"rental_uris":{"android":"levelo://app?vid=dbfc1d57-1fee-4a9d-8c8f-a722c606ca3b","ios":"levelo://app?vid=dbfc1d57-1fee-4a9d-8c8f-a722c606ca3b"},"vehicle_type_id":"4","last_reported":1711660029,"current_range_meters":4800,"station_id":"ce4bh392rcd13ifvqdl0","pricing_plan_id":"cebpf4jnsgd1na2vs0mg"},{"bike_id":"28449022-df55-4d2a-950c-e4a764bd6e9d","system_id":"levelo_inurba_marseille","lat":43.291693,"lon":5.371507,"is_reserved":false,"is_disabled":false,"rental_uris":{"android":"levelo://app?vid=28449022-df55-4d2a-950c-e4a764bd6e9d","ios":"levelo://app?vid=28449022-df55-4d2a-950c-e4a764bd6e9d"},"vehicle_type_id":"4","last_reported":1711660029,"current_range_meters":0,"station_id":"ce4bha92rcd13ifvqeh0","pricing_plan_id":"cebpf4jnsgd1na2vs0mg"},{"bike_id":"3d8f225a-d5c0-494f-8c80-731f7f9bab94","system_id":"levelo_inurba_marseille","lat":43.298764,"lon":5.388973,"is_reserved":false,"is_disabled":false,"rental_uris":{"android":"levelo://app?vid=3d8f225a-d5c0-494f-8c80-731f7f9bab94","ios":"levelo://app?vid=3d8f225a-d5c0-494f-8c80-731f7f9bab94"},"vehicle_type_id":"4","last_reported":1711660029,"current_range_meters":13200,"station_id":"ce4bh392rcd13ifvqdl0","pricing_plan_id":"cebpf4jnsgd1na2vs0mg"},{"bike_id":"807afa39-082a-48ef-b349-c0295a7390f0","system_id":"levelo_inurba_marseille","lat":43.298764,"lon":5.388973,"is_reserved":false,"is_disabled":false,"rental_uris":{"android":"levelo://app?vid=807afa39-082a-48ef-b349-c0295a7390f0","ios":"levelo://app?vid=807afa39-082a-48ef-b349-c0295a7390f0"},"vehicle_type_id":"4","last_reported":1711660029,"current_range_meters":8400,"station_id":"ce4bh392rcd13ifvqdl0","pricing_plan_id":"cebpf4jnsgd1na2vs0mg"},{"bike_id":"6c82c866-691d-4461-b312-af8b9fe92456","system_id":"levelo_inurba_marseille","lat":43.291994,"lon":5.357886,"is_reserved":false,"is_disabled":false,"rental_uris":{"android":"levelo://app?vid=6c82c866-691d-4461-b312-af8b9fe92456","ios":"levelo://app?vid=6c82c866-691d-4461-b312-af8b9fe92456"},"vehicle_type_id":"4","last_reported":1711660029,"current_range_meters":0,"station_id":"ce4bhb12rcd13ifvqel0","pricing_plan_id":"cebpf4jnsgd1na2vs0mg"},{"bike_id":"e0785e2e-1cda-4c93-be1e-9b07469724ee","system_id":"levelo_inurba_marseille","lat":43.31326,"lon":5.39684,"is_reserved":false,"is_disabled":false,"rental_uris":{"android":"levelo://app?vid=e0785e2e-1cda-4c93-be1e-9b07469724ee","ios":"levelo://app?vid=e0785e2e-1cda-4c93-be1e-9b07469724ee"},"vehicle_type_id":"4","last_reported":1711660029,"current_range_meters":25600,"station_id":"ce4bgvp2rcd13ifvqcu0","pricing_plan_id":"cebpf4jnsgd1na2vs0mg"},