{"last_updated":1745673371,"ttl":60,"version":"2.2","data":{"bikes":[{"bike_id":"46374c49-3adc-4c5a-8966-e00f056c0d57","system_id":"levelo_inurba_marseille","lat":43.27846,"lon":5.35442,"is_reserved":false,"is_disabled":false,"rental_uris":{"android":"levelo://app?vid=46374c49-3adc-4c5a-8966-e00f056c0d57","ios":"levelo://app?vid=46374c49-3adc-4c5a-8966-e00f056c0d57"},"vehicle_type_id":"4","last_reported":1745673371,"current_range_meters":2800,"station_id":"","pricing_plan_id":"cebpf4jnsgd1na2vs0mg"},{"bike_id":"8f1f84a8-8b3e-4367-aaae-24597a10a4b0","system_id":"levelo_inurba_marseille","lat":43.27041,"lon":5.42333,"is_reserved":false,"is_disabled":false,"rental_uris":{"android":"levelo://app?vid=8f1f84a8-8b3e-4367-aaae-24597a10a4b0","ios":"levelo://app?vid=8f1f84a8-8b3e-4367-aaae-24597a10a4b0"},"vehicle_type_id":"4","last_reported":1745673371,"current_range_meters":3200,"station_id":"","pricing_plan_id":"cebpf4jnsgd1na2vs0mg"},{"bike_id":"45c4a27e-2977-47d3-a659-033db87d98e9","system_id":"levelo_inurba_marseille","lat":43.29985,"lon":5.37188,"is_reserved":false,"is_disabled":false,"rental_uris":{"android":"levelo://app?vid=45c4a27e-2977-47d3-a659-033db87d98e9","ios":"levelo://app?vid=45c4a27e-2977-47d3-a659-033db87d98e9"},"vehicle_type_id":"4","last_reported":1745673371,"current_range_meters":2800,"station_id":"ce4bgr92rcd13ifvqc7g","pricing_plan_id":"cebpf4jnsgd1na2vs0mg"},{"bike_id":"b8a2d039-1014-454c-851f-34ece714a005","system_id":"levelo_inurba_marseille","lat":43.31366,"lon":5.38477,"is_reserved":false,"is_disabled":false,"rental_uris":{"android":"levelo://app?vid=b8a2d039-1014-454c-851f-34ece714a005","ios":"levelo://app?vid=b8a2d039-1014-454c-851f-34ece714a005"},"vehicle_type_id":"4","last_reported":1745673371,"current_range_meters":3200,"station_id":"ce4bgt92rcd13ifvqcf0","pricing_plan_id":"cebpf4jnsgd1na2vs0mg"},{"bike_id":"694c1535-be47-4635-99e0-e049b5043af0","system_id":"levelo_inurba_marseille","lat":43.25505,"lon":5.37646,"is_reserved":false,"is_disabled":false,"rental_uris":{"android":"levelo://app?vid=694c1535-be47-4635-99e0-e049b5043af0","ios":"levelo://app?vid=694c1535-be47-4635-99e0-e049b5043af0"},"vehicle_type_id":"4","last_reported":1745673371,"current_range_meters":3200,"station_id":"ce4bhh12rcd13ifvqff0","pricing_plan_id":"cebpf4jnsgd1na2vs0mg"},{"bike_id":"c140819c-3d08-4cea-83bc-52d744e9aba5","system_id":"levelo_inurba_marseille","lat":43.28438,"lon":5.39202,"is_reserved":false,"is_disabled":false,"rental_uris":{"android":"levelo://app?vid=c140819c-3d08-4cea-83bc-52d744e9aba5","ios":"levelo://app?vid=c140819c-3d08-4cea-83bc-52d744e9aba5"},"vehicle_type_id":"4","last_reported":1745673371,"current_range_meters":2800,"station_id":"ce4bhoh2rcd13ifvqh5g","pricing_plan_id":"cebpf4jnsgd1na2vs0mg"},{"bike_id":"eda21aab-f1fe-4c33-aaed-66dd5fdc4b29","system_id":"levelo_inurba_marseille","lat":43.24809,"lon":5.37459,"is_reserved":false,"is_disabled":false,"rental_uris":{"android":"levelo://app?vid=eda21aab-f1fe-4c33-aaed-66dd5fdc4b29","ios":"levelo://app?vid=eda21aab-f1fe-4c33-aaed-66dd5fdc4b29"},"vehicle_type_id":"4","last_reported":1745673371,"current_range_meters":3200,"station_id":"ce4bhgh2rcd13ifvqfb0","pricing_plan_id":"cebpf4jnsgd1na2vs0mg"},{"bike_id":"809e59ac-ee8e-4f79-a65e-a2fad53fd2cc","system_id":"levelo_inurba_marseille","lat":43.29749,"lon":5.40957,"is_reserved":false,"is_disabled":false,"rental_uris":{"android":"levelo://app?vid=809e59ac-ee8e-4f79-a65e-a2fad53fd2cc","ios":"levelo://app?vid=809e59ac-ee8e-4f79-a65e-a2fad53fd2cc"},"vehicle_type_id":"4","last_reported":1745673371,"current_range_meters":3200,"station_id":"","pricing_plan_id":"cebpf4jnsgd1na2vs0mg"},{"bike_id":"3f68e3a0-b12d-4cfe-b792-00be12db57b9","system_id":"levelo_inurba_marseille","lat":43.28074,"lon":5.39653,"is_reserved":false,"is_disabled":false,"rental_uris":{"android":"levelo://app?vid=3f68e3a0-b12d-4cfe-b792-00be12db57b9","ios":"levelo://app?vid=3f68e3a0-b12d-4cfe-b792-00be12db57b9"},"vehicle_type_id":"4","last_reported":1745673371,"current_range_meters":3200,"station_id":"ce4bho12rcd13ifvqh2g","pricing_plan_id":"cebpf4jnsgd1na2vs0mg"},{"bike_id":"7fe0db53-5e35-436c-91de-a1ea3a6c3096","system_id":"levelo_inurba_marseille","lat":43.29631,"lon":5.40597,"is_reserved":false,"is_disabled":false,"rental_uris":{"android":"levelo://app?vid=7fe0db53-5e35-436c-91de-a1ea3a6c3096","ios":"levelo://app?vid=7fe0db53-5e35-436c-91de-a1ea3a6c3096"},"vehicle_type_id":"4","last_reported":1745673371,"current_range_meters":3200,"station_id":"ce4bh0h2rcd13ifvqd60","pricing_plan_id":"cebpf4jnsgd1na2vs0mg"},{"bike_id":"1aaf3f1c-9526-4684-82fe-5fb7a298dd6c","system_id":"levelo_inurba_marseille","lat":43.25879,"lon":5.39889,"is_reserved":false,"is_disabled":false,"rental_uris":{"android":"levelo://app?vid=1aaf3f1c-9526-4684-82fe-5fb7a298dd6c","ios":"levelo://app?vid=1aaf3f1c-9526-4684-82fe-5fb7a298dd6c"},"vehicle_type_id":"4","last_reported":1745673371,"current_range_meters":3200,"station_id":"ce4bhl92rcd13ifvqghg","pricing_plan_id":"cebpf4jnsgd1na2vs0mg"},{"bike_id":"40c36b84-0ac6-440b-aa18-5dcf9bc2b014","system_id":"levelo_inurba_marseille","lat":43.29527,"lon":5.38537,"is_reserved":false,"is_disabled":false,"rental_uris":{"android":"levelo://app?vid=40c36b84-0ac6-440b-aa18-5dcf9bc2b014","ios":"levelo://app?vid=40c36b84-0ac6-440b-aa18-5dcf9bc2b014"},"vehicle_type_id":"4","last_reported":1745673371,"current_range_meters":3200,"station_id":"ce4bgih2rcd13ifvqba0","pricing_plan_id":"cebpf4jnsgd1na2vs0mg"},{"bike_id":"f8546583-4b1f-461d-8f16-996c31dd0471","system_id":"levelo_inurba_marseille","lat":43.211911,"lon":5.350753,"is_reserved":false,"is_disabled":false,"rental_uris":{"android":"levelo://app?vid=f8546583-4b1f-461d-8f16-996c31dd0471","ios":"levelo://app?vid=f8546583-4b1f-461d-8f16-996c31dd0471"},"vehicle_type_id":"4","last_reported":1745673371,"current_range_meters":3600,"station_id":"st_cvj6sg6p6f1abm77japg","pricing_plan_id":"cebpf4jnsgd1na2vs0mg"},{"bike_id":"f1a9f5db-d774-4f36-a0be-69b289d14fd1","system_id":"levelo_inurba_marseille","lat":43.21192,"lon":5.35074,"is_reserved":false,"is_disabled":false,"rental_uris":{"android":"levelo://app?vid=f1a9f5db-d774-4f36-a0be-69b289d14fd1","ios":"levelo://app?vid=f1a9f5db-d774-4f36-a0be-69b289d14fd1"},"vehicle_type_id":"4","last_reported":1745673371,"current_range_meters":3600,"station_id":"st_cvj6sg6p6f1abm77japg","pricing_plan_id":"cebpf4jnsgd1na2vs0mg"},{"bike_id":"1c4e578f-fe44-4a7a-9e11-1dba3a575c3c","system_id":"levelo_inurba_marseille","lat":43.30956,"lon":5.39032,"is_reserved":false,"is_disabled":false,"rental_uris":{"android":"levelo://app?vid=1c4e578f-fe44-4a7a-9e11-1dba3a575c3c","ios":"levelo://app?vid=1c4e578f-fe44-4a7a-9e11-1dba3a575c3c"},"vehicle_type_id":"4","last_reported":1745673371,"current_range_meters":3600,"station_id":"ce4bgup2rcd13ifvqco0","pricing_plan_id":"cebpf4jnsgd1na2vs0mg"},{"bike_id":"5eb8248a-80f2-43d1-b889-0e713d1ef16f","system_id":"levelo_inurba_marseille","lat":43.22937,"lon":5.35372,"is_reserved":false,"is_disabled":false,"rental_uris":{"android":"levelo://app?vid=5eb8248a-80f2-43d1-b889-0e713d1ef16f","ios":"levelo://app?vid=5eb8248a-80f2-43d1-b889-0e713d1ef16f"},"vehicle_type_id":"4","last_reported":1745673371,"current_range_meters":4000,"station_id":"cpo3532slgdg3j2ikp40","pricing_plan_id":"cebpf4jnsgd1na2vs0mg"},{"bike_id":"3913154d-ec97-4a4c-be9e-2c038adb4cfe","system_id":"levelo_inurba_marseille","lat":43.25133,"lon":5.40351,"is_reserved":false,"is_disabled":false,"rental_uris":{"android":"levelo://app?vid=3913154d-ec97-4a4c-be9e-2c038adb4cfe","ios":"levelo://app?vid=3913154d-ec97-4a4c-be9e-2c038adb4cfe"},"vehicle_type_id":"4","last_reported":1745673371,"current_range_meters":4000,"station_id":"ce4bhlh2rcd13ifvqgig","pricing_plan_id":"cebpf4jnsgd1na2vs0mg"},{"bike_id":"550dfadb-80f3-49c1-9dec-a835215799bc","system_id":"levelo_inurba_marseille","lat":43.22931,"lon":5.35382,"is_reserved":false,"is_disabled":false,"rental_uris":{"android":"levelo://app?vid=550dfadb-80f3-49c1-9dec-a835215799bc","ios":"levelo://app?vid=550dfadb-80f3-49c1-9dec-a835215799bc"},"vehicle_type_id":"4","last_reported":1745673371,"current_range_meters":4000,"station_id":"cpo3532slgdg3j2ikp40","pricing_plan_id":"cebpf4jnsgd1na2vs0mg"},{"bike_id":"c6983332-2340-4443-9384-a831b05f8e36","system_id":"levelo_inurba_marseille","lat":43.24169,"lon":5.36387,"is_reserved":false,"is_disabled":false,"rental_uris":{"android":"levelo://app?vid=c6983332-2340-4443-9384-a831b05f8e36","ios":"levelo://app?vid=c6983332-2340-4443-9384-a831b05f8e36"},"vehicle_type_id":"4","last_reported":1745673371,"current_range_meters":4000,"station_id":"cpo36qri1sfpv3e86is0","pricing_plan_id":"cebpf4jnsgd1na2vs0mg"},{"bike_id":"2bd4aab7-8b3a-47c6-9815-64eeba68f150","system_id":"levelo_inurba_marseille","lat":43.21741,"lon":5.34589,"is_reserved":false,"is_disabled":false,"rental_uris":{"android":"levelo://app?vid=2bd4aab7-8b3a-47c6-9815-64eeba68f150","ios":"levelo://app?vid=2bd4aab7-8b3a-47c6-9815-64eeba68f150"},"vehicle_type_id":"4","last_reported":1745673371,"current_range_meters":4400,"station_id":"st_cvj6r9ubvosntc0bgbag","pricing_plan_id":"cebpf4jnsgd1na2vs0mg"},{"bike_id":"1b56e1a6-5051-4bdc-8a23-b0c53d6d9efe","system_id":"levelo_inurba_marseille","lat":43.27565,"lon":5.38411,"is_reserved":false,"is_disabled":false,"rental_uris":{"android":"levelo://app?vid=1b56e1a6-5051-4bdc-8a23-b0c53d6d9efe","ios":"levelo://app?vid=1b56e1a6-5051-4bdc-8a23-b0c53d6d9efe"},"vehicle_type_id":"4","last_reported":1745673371,"current_range_meters":4400,"station_id":"ce4bhh92rcd13ifvqfi0","pricing_plan_id":"cebpf4jnsgd1na2vs0mg"},{"bike_id":"5c7d2a14-f95e-4e7e-9246-b461acd5f6b4","system_id":"levelo_inurba_marseille","lat":43.26208,"lon":5.37439,"is_reserved":false,"is_disabled":false,"rental_uris":{"android":"levelo://app?vid=5c7d2a14-f95e-4e7e-9246-b461acd5f6b4","ios":"levelo://app?vid=5c7d2a14-f95e-4e7e-9246-b461acd5f6b4"},"vehicle_type_id":"4","last_reported":1745673371,"current_range_meters":4400,"station_id":"ce4bhgp2rcd13ifvqfc0","pricing_plan_id":"cebpf4jnsgd1na2vs0mg"},{"bike_id":"2712c79d-9981-4539-986b-85033eb2dae5","system_id":"levelo_inurba_marseille","lat":43.29712,"lon":5.3661,"is_reserved":false,"is_disabled":false,"rental_uris":{"android":"levelo://app?vid=2712c79d-9981-4539-986b-85033eb2dae5","ios":"levelo://app?vid=2712c79d-9981-4539-986b-85033eb2dae5"},"vehicle_type_id":"4","last_reported":1745673371,"current_range_meters":4400,"station_id":"ce4bgn12rcd13ifvqbt0","pricing_plan_id":"cebpf4jnsgd1na2vs0mg"},{"bike_id":"db740930-51e3-4b45-91be-ab26d4c2806e","system_id":"levelo_inurba_marseille","lat":43.23196,"lon":5.35556,"is_reserved":false,"is_disabled":false,"rental_uris":{"android":"levelo://app?vid=db740930-51e3-4b45-91be-ab26d4c2806e","ios":"levelo://app?vid=db740930-51e3-4b45-91be-ab26d4c2806e"},"vehicle_type_id":"4","last_reported":1745673371,"current_range_meters":4400,"station_id":"ce4bhu92rcd13ifvqi70","pricing_plan_id":"cebpf4jnsgd1na2vs0mg"},{"bike_id":"c48c516a-9c7d-40a6-b754-55b8e2304c76","system_id":"levelo_inurba_marseille","lat":43.30637,"lon":5.40076,"is_reserved":false,"is_disabled":false,"rental_uris":{"android":"levelo://app?vid=c48c516a-9c7d-40a6-b754-55b8e2304c76","ios":"levelo://app?vid=c48c516a-9c7d-40a6-b754-55b8e2304c76"},"vehicle_type_id":"4","last_reported":1745673371,"current_range_meters":4400,"station_id":"ce4bh112rcd13ifvqda0","pricing_plan_id":"cebpf4jnsgd1na2vs0mg"},{"bike_id":"ade9f1ff-b109-48b7-b5f2-443973be9921","system_id":"levelo_inurba_marseille","lat":43.23968,"lon":5.36629,"is_reserved":false,"is_disabled":false,"rental_uris":{"android":"levelo://app?vid=ade9f1ff-b109-48b7-b5f2-443973be9921","ios":"levelo://app?vid=ade9f1ff-b109-48b7-b5f2-443973be9921"},"vehicle_type_id":"4","last_reported":1745673371,"current_range_meters":4800,"station_id":"ce4bhi12rcd13ifvqfp0","pricing_plan_id":"cebpf4jnsgd1na2vs0mg"},{"bike_id":"afbc4a8e-3e26-473b-a4d8-97333219ffc5","system_id":"levelo_inurba_marseille","lat":43.26214,"lon":5.37443,"is_reserved":false,"is_disabled":false,"rental_uris":{"android":"levelo://app?vid=afbc4a8e-3e26-473b-a4d8-97333219ffc5","ios":"levelo://app?vid=afbc4a8e-3e26-473b-a4d8-97333219ffc5"},"vehicle_type_id":"4","last_reported":1745673371,"current_range_meters":4800,"station_id":"ce4bhgp2rcd13ifvqfc0","pricing_plan_id":"cebpf4jnsgd1na2vs0mg"},{"bike_id":"a0d26492-24b6-45f4-a3b8-5586683e4fc8","system_id":"levelo_inurba_marseille","lat":43.2737,"lon":5.36254,"is_reserved":false,"is_disabled":false,"rental_uris":{"android":"levelo://app?vid=a0d26492-24b6-45f4-a3b8-5586683e4fc8","ios":"levelo://app?vid=a0d26492-24b6-45f4-a3b8-5586683e4fc8"},"vehicle_type_id":"4","last_reported":1745673371,"current_range_meters":4800,"station_id":"ce4bhbh2rcd13ifvqeo0","pricing_plan_id":"cebpf4jnsgd1na2vs0mg"},{"bike_id":"319efa37-a4b3-42e1-bdc2-797d1f813a0f","system_id":"levelo_inurba_marseille","lat":43.299,"lon":5.38136,"is_reserved":false,"is_disabled":false,"rental_uris":{"android":"levelo://app?vid=319efa37-a4b3-42e1-bdc2-797d1f813a0f","ios":"levelo://app?vid=319efa37-a4b3-42e1-bdc2-797d1f813a0f"},"vehicle_type_id":"4","last_reported":1745673371,"current_range_meters":5600,"station_id":"ce4bgj12rcd13ifvqbc0","pricing_plan_id":"cebpf4jnsgd1na2vs0mg"},{"bike_id":"e5606821-7012-4a8e-ae78-07ccb2798d89","system_id":"levelo_inurba_marseille","lat":43.26216,"lon":5.37436,"is_reserved":false,"is_disabled":false,"rental_uris":{"android":"levelo://app?vid=e5606821-7012-4a8e-ae78-07ccb2798d89","ios":"levelo://app?vid=e5606821-7012-4a8e-ae78-07ccb2798d89"},"vehicle_type_id":"4","last_reported":1745673371,"current_range_meters":5600,"station_id":"ce4bhgp2rcd13ifvqfc0","pricing_plan_id":"cebpf4jnsgd1na2vs0mg"},{"bike_id":"1746265e-27ad-4913-8a06-b6dc5372d844","system_id":"levelo_inurba_marseille","lat":43.25995,"lon":5.37475,"is_reserved":false,"is_disabled":false,"rental_uris":{"android":"levelo://app?vid=1746265e-27ad-4913-8a06-b6dc5372d844","ios":"levelo://app?vid=1746265e-27ad-4913-8a06-b6dc5372d844"},"vehicle_type_id":"4","last_reported":1745673371,"current_range_meters":6000,"station_id":"","pricing_plan_id":"cebpf4jnsgd1na2vs0mg"},{"bike_id":"a5267ada-7d1c-4083-8b99-96acdc205fbf","system_id":"levelo_inurba_marseille","lat":43.316885,"lon":5.404697,"is_reserved":false,"is_disabled":false,"rental_uris":{"android":"levelo://app?vid=a5267ada-7d1c-4083-8b99-96acdc205fbf","ios":"levelo://app?vid=a5267ada-7d1c-4083-8b99-96acdc205fbf"},"vehicle_type_id":"4","last_reported":1745673371,"current_range_meters":6000,"station_id":"ce4bh012rcd13ifvqd00","pricing_plan_id":"cebpf4jnsgd1na2vs0mg"},{"bike_id":"0f7697fd-f00f-4506-b484-ba579172cd56","system_id":"levelo_inurba_marseille","lat":43.21191,"lon":5.35068,"is_reserved":false,"is_disabled":false,"rental_uris":{"android":"levelo://app?vid=0f7697fd-f00f-4506-b484-ba579172cd56","ios":"levelo://app?vid=0f7697fd-f00f-4506-b484-ba579172cd56"},"vehicle_type_id":"4","last_reported":1745673371,"current_range_meters":6000,"station_id":"st_cvj6sg6p6f1abm77japg","pricing_plan_id":"cebpf4jnsgd1na2vs0mg"},{"bike_id":"798bbf90-0759-4254-b5ca-9215f5f6789d","system_id":"levelo_inurba_marseille","lat":43.3054,"lon":5.36554,"is_reserved":false,"is_disabled":false,"rental_uris":{"android":"levelo://app?vid=798bbf90-0759-4254-b5ca-9215f5f6789d","ios":"levelo://app?vid=798bbf90-0759-4254-b5ca-9215f5f6789d"},"vehicle_type_id":"4","last_reported":1745673371,"current_range_meters":6000,"station_id":"ce4bgs12rcd13ifvqcag","pricing_plan_id":"cebpf4jnsgd1na2vs0mg"},{"bike_id":"e1e74f2a-b348-4f31-88e1-9c69c6e4dfb3","system_id":"levelo_inurba_marseille","lat":43.24171,"lon":5.36395,"is_reserved":false,"is_disabled":false,"rental_uris":{"android":"levelo://app?vid=e1e74f2a-b348-4f31-88e1-9c69c6e4dfb3","ios":"levelo://app?vid=e1e74f2a-b348-4f31-88e1-9c69c6e4dfb3"},"vehicle_type_id":"4","last_reported":1745673371,"current_range_meters":6000,"station_id":"cpo36qri1sfpv3e86is0","pricing_plan_id":"cebpf4jnsgd1na2vs0mg"},{"bike_id":"a84dda67-2771-448f-9f2c-69a47019d774","system_id":"levelo_inurba_marseille","lat":43.33573,"lon":5.41043,"is_reserved":false,"is_disabled":true,"rental_uris":{"android":"levelo://app?vid=a84dda67-2771-448f-9f2c-69a47019d774","ios":"levelo://app?vid=a84dda67-2771-448f-9f2c-69a47019d774"},"vehicle_type_id":"4","last_reported":1745673371,"current_range_meters":6000,"station_id":"ce4bhqh2rcd13ifvqhmg","pricing_plan_id":"cebpf4jnsgd1na2vs0mg"},{"bike_id":"1281d081-9915-4fe6-b58d-8e96cfd646b1","system_id":"levelo_inurba_marseille","lat":43.26213,"lon":5.37441,"is_reserved":false,"is_disabled":false,"rental_uris":{"android":"levelo://app?vid=1281d081-9915-4fe6-b58d-8e96cfd646b1","ios":"levelo://app?vid=1281d081-9915-4fe6-b58d-8e96cfd646b1"},"vehicle_type_id":"4","last_reported":1745673371,"current_range_meters":6000,"station_id":"ce4bhgp2rcd13ifvqfc0","pricing_plan_id":"cebpf4jnsgd1na2vs0mg"},{"bike_id":"af22e109-08fb-48e4-8221-27cd4aef96ee","system_id":"levelo_inurba_marseille","lat":43.21195,"lon":5.35062,"is_reserved":false,"is_disabled":false,"rental_uris":{"android":"levelo://app?vid=af22e109-08fb-48e4-8221-27cd4aef96ee","ios":"levelo://app?vid=af22e109-08fb-48e4-8221-27cd4aef96ee"},"vehicle_type_id":"4","last_reported":1745673371,"current_range_meters":6000,"station_id":"st_cvj6sg6p6f1abm77japg","pricing_plan_id":"cebpf4jnsgd1na2vs0mg"},{"bike_id":"cb062a81-3206-4e55-a767-128ed3e782da","system_id":"levelo_inurba_marseille","lat":43.29414,"lon":5.38625,"is_reserved":false,"is_disabled":false,"rental_uris":{"android":"levelo://app?vid=cb062a81-3206-4e55-a767-128ed3e782da","ios":"levelo://app?vid=cb062a81-3206-4e55-a767-128ed3e782da"},"vehicle_type_id":"4","last_reported":1745673371,"current_range_meters":6000,"station_id":"ce4bh2h2rcd13ifvqdh0","pricing_plan_id":"cebpf4jnsgd1na2vs0mg"},{"bike_id":"aac6b705-b359-4917-8f59-2f51f3d1908a","system_id":"levelo_inurba_marseille","lat":43.30961,"lon":5.39037,"is_reserved":false,"is_disabled":false,"rental_uris":{"android":"levelo://app?vid=aac6b705-b359-4917-8f59-2f51f3d1908a","ios":"levelo://app?vid=aac6b705-b359-4917-8f59-2f51f3d1908a"},"vehicle_type_id":"4","last_reported":1745673371,"current_range_meters":6000,"station_id":"ce4bgup2rcd13ifvqco0","pricing_plan_id":"cebpf4jnsgd1na2vs0mg"},{"bike_id":"f12707fa-c1e2-4e35-890c-0d045935da4e","system_id":"levelo_inurba_marseille","lat":43.24391,"lon":5.37046,"is_reserved":false,"is_disabled":false,"rental_uris":{"android":"levelo://app?vid=f12707fa-c1e2-4e35-890c-0d045935da4e","ios":"levelo://app?vid=f12707fa-c1e2-4e35-890c-0d045935da4e"},"vehicle_type_id":"4","last_reported":1745673371,"current_range_meters":6000,"station_id":"ce4bhhh2rcd13ifvqfk0","pricing_plan_id":"cebpf4jnsgd1na2vs0mg"},{"bike_id":"8603047f-2541-4882-be33-9ff77b949d38","system_id":"levelo_inurba_marseille","lat":43.2981,"lon":5.40399,"is_reserved":false,"is_disabled":false,"rental_uris":{"android":"levelo://app?vid=8603047f-2541-4882-be33-9ff77b949d38","ios":"levelo://app?vid=8603047f-2541-4882-be33-9ff77b949d38"},"vehicle_type_id":"4","last_reported":1745673371,"current_range_meters":6000,"station_id":"ce4bh112rcd13ifvqd90","pricing_plan_id":"cebpf4jnsgd1na2vs0mg"},{"bike_id":"6d0a61fc-518d-48e6-b383-0cc8c0395f0a","system_id":"levelo_inurba_marseille","lat":43.24166,"lon":5.36383,"is_reserved":false,"is_disabled":false,"rental_uris":{"android":"levelo://app?vid=6d0a61fc-518d-48e6-b383-0cc8c0395f0a","ios":"levelo://app?vid=6d0a61fc-518d-48e6-b383-0cc8c0395f0a"},"vehicle_type_id":"4","last_reported":1745673371,"current_range_meters":6400,"station_id":"cpo36qri1sfpv3e86is0","pricing_plan_id":"cebpf4jnsgd1na2vs0mg"},{"bike_id":"4751c42c-df70-44f1-921f-311585e43c28","system_id":"levelo_inurba_marseille","lat":43.28032,"lon":5.35638,"is_reserved":false,"is_disabled":false,"rental_uris":{"android":"levelo://app?vid=4751c42c-df70-44f1-921f-311585e43c28","ios":"levelo://app?vid=4751c42c-df70-44f1-921f-311585e43c28"},"vehicle_type_id":"4","last_reported":1745673371,"current_range_meters":6400,"station_id":"ce4bhp92rcd13ifvqhbg","pricing_plan_id":"cebpf4jnsgd1na2vs0mg"},{"bike_id":"37f1573c-9b7b-4aad-8d67-c26719e65ad4","system_id":"levelo_inurba_marseille","lat":43.27673,"lon":5.38866,"is_reserved":false,"is_disabled":false,"rental_uris":{"android":"levelo://app?vid=37f1573c-9b7b-4aad-8d67-c26719e65ad4","ios":"levelo://app?vid=37f1573c-9b7b-4aad-8d67-c26719e65ad4"},"vehicle_type_id":"4","last_reported":1745673371,"current_range_meters":6000,"station_id":"ce4bhi12rcd13ifvqfo0","pricing_plan_id":"cebpf4jnsgd1na2vs0mg"},{"bike_id":"40f78a3f-fb63-4b44-b5f3-e24c279c253f","system_id":"levelo_inurba_marseille","lat":43.30968,"lon":5.39038,"is_reserved":false,"is_disabled":false,"rental_uris":{"android":"levelo://app?vid=40f78a3f-fb63-4b44-b5f3-e24c279c253f","ios":"levelo://app?vid=40f78a3f-fb63-4b44-b5f3-e24c279c253f"},"vehicle_type_id":"4","last_reported":1745673371,"current_range_meters":6400,"station_id":"ce4bgup2rcd13ifvqco0","pricing_plan_id":"cebpf4jnsgd1na2vs0mg"},{"bike_id":"e61abe7b-e6ae-4e72-ad6d-fc4a72d74f14","system_id":"levelo_inurba_marseille","lat":43.27616,"lon":5.36121,"is_reserved":false,"is_disabled":false,"rental_uris":{"android":"levelo://app?vid=e61abe7b-e6ae-4e72-ad6d-fc4a72d74f14","ios":"levelo://app?vid=e61abe7b-e6ae-4e72-ad6d-fc4a72d74f14"},"vehicle_type_id":"4","last_reported":1745673371,"current_range_meters":6400,"station_id":"ce4bgj92rcd13ifvqbe0","pricing_plan_id":"cebpf4jnsgd1na2vs0mg"},{"bike_id":"eac114d2-8101-41f6-8864-5d253dc34f23","system_id":"levelo_inurba_marseille","lat":43.27207,"lon":5.39183,"is_reserved":false,"is_disabled":false,"rental_uris":{"android":"levelo://app?vid=eac114d2-8101-41f6-8864-5d253dc34f23","ios":"levelo://app?vid=eac114d2-8101-41f6-8864-5d253dc34f23"},"vehicle_type_id":"4","last_reported":1745673371,"current_range_meters":6400,"station_id":"ce4bhhp2rcd13ifvqfm0","pricing_plan_id":"cebpf4jnsgd1na2vs0mg"},{"bike_id":"3176054b-2f30-478f-ad07-663c1b2ff068","system_id":"levelo_inurba_marseille","lat":43.30212,"lon":5.39467,"is_reserved":false,"is_disabled":false,"rental_uris":{"android":"levelo://app?vid=3176054b-2f30-478f-ad07-663c1b2ff068","ios":"levelo://app?vid=3176054b-2f30-478f-ad07-663c1b2ff068"},"vehicle_type_id":"4","last_reported":1745673371,"current_range_meters":6800,"station_id":"ce4bh0p2rcd13ifvqd70","pricing_plan_id":"cebpf4jnsgd1na2vs0mg"},{"bike_id":"89f54833-19e1-459b-ad74-1ed9b3d4477c","system_id":"levelo_inurba_marseille","lat":43.22938,"lon":5.35382,"is_reserved":false,"is_disabled":false,"rental_uris":{"android":"levelo://app?vid=89f54833-19e1-459b-ad74-1ed9b3d4477c","ios":"levelo://app?vid=89f54833-19e1-459b-ad74-1ed9b3d4477c"},"vehicle_type_id":"4","last_reported":1745673371,"current_range_meters":6800,"station_id":"cpo3532slgdg3j2ikp40","pricing_plan_id":"cebpf4jnsgd1na2vs0mg"},{"bike_id":"f5758ed2-1d0d-4955-902e-71d997525050","system_id":"levelo_inurba_marseille","lat":43.28702,"lon":5.37409,"is_reserved":false,"is_disabled":false,"rental_uris":{"android":"levelo://app?vid=f5758ed2-1d0d-4955-902e-71d997525050","ios":"levelo://app?vid=f5758ed2-1d0d-4955-902e-71d997525050"},"vehicle_type_id":"4","last_reported":1745673371,"current_range_meters":6800,"station_id":"ce4bh3p2rcd13ifvqdq0","pricing_plan_id":"cebpf4jnsgd1na2vs0mg"},{"bike_id":"2c2e5bcc-b9ff-41a6-be9a-7733528f3bfa","system_id":"levelo_inurba_marseille","lat":43.27507,"lon":5.42449,"is_reserved":false,"is_disabled":false,"rental_uris":{"android":"levelo://app?vid=2c2e5bcc-b9ff-41a6-be9a-7733528f3bfa","ios":"levelo://app?vid=2c2e5bcc-b9ff-41a6-be9a-7733528f3bfa"},"vehicle_type_id":"4","last_reported":1745673371,"current_range_meters":6800,"station_id":"ce4bhn92rcd13ifvqgrg","pricing_plan_id":"cebpf4jnsgd1na2vs0mg"},{"bike_id":"d1ff7e34-d25d-4063-9648-2bd4db47424f","system_id":"levelo_inurba_marseille","lat":43.32369,"lon":5.38874,"is_reserved":false,"is_disabled":false,"rental_uris":{"android":"levelo://app?vid=d1ff7e34-d25d-4063-9648-2bd4db47424f","ios":"levelo://app?vid=d1ff7e34-d25d-4063-9648-2bd4db47424f"},"vehicle_type_id":"4","last_reported":1745673371,"current_range_meters":6800,"station_id":"ce4bhqp2rcd13ifvqhog","pricing_plan_id":"cebpf4jnsgd1na2vs0mg"},{"bike_id":"5e6aa80e-4ae4-4a58-83f0-1aef09e7e70e","system_id":"levelo_inurba_marseille","lat":43.311758,"lon":5.387171,"is_reserved":false,"is_disabled":false,"rental_uris":{"android":"levelo://app?vid=5e6aa80e-4ae4-4a58-83f0-1aef09e7e70e","ios":"levelo://app?vid=5e6aa80e-4ae4-4a58-83f0-1aef09e7e70e"},"vehicle_type_id":"4","last_reported":1745673371,"current_range_meters":6800,"station_id":"","pricing_plan_id":"cebpf4jnsgd1na2vs0mg"},{"bike_id":"c24dda5c-2188-42d1-8c0d-e32622b4128a","system_id":"levelo_inurba_marseille","lat":43.26209,"lon":5.37448,"is_reserved":false,"is_disabled":false,"rental_uris":{"android":"levelo://app?vid=c24dda5c-2188-42d1-8c0d-e32622b4128a","ios":"levelo://app?vid=c24dda5c-2188-42d1-8c0d-e32622b4128a"},"vehicle_type_id":"4","last_reported":1745673371,"current_range_meters":7200,"station_id":"ce4bhgp2rcd13ifvqfc0","pricing_plan_id":"cebpf4jnsgd1na2vs0mg"},{"bike_id":"a45396b4-6a30-4907-9c08-e415b6011144","system_id":"levelo_inurba_marseille","lat":43.24069,"lon":5.37757,"is_reserved":false,"is_disabled":false,"rental_uris":{"android":"levelo://app?vid=a45396b4-6a30-4907-9c08-e415b6011144","ios":"levelo://app?vid=a45396b4-6a30-4907-9c08-e415b6011144"},"vehicle_type_id":"4","last_reported":1745673371,"current_range_meters":7200,"station_id":"ce4bhnp2rcd13ifvqgvg","pricing_plan_id":"cebpf4jnsgd1na2vs0mg"},{"bike_id":"ccaa787d-adea-4d05-b006-d1c5ea6cac98","system_id":"levelo_inurba_marseille","lat":43.26569,"lon":5.38997,"is_reserved":false,"is_disabled":false,"rental_uris":{"android":"levelo://app?vid=ccaa787d-adea-4d05-b006-d1c5ea6cac98","ios":"levelo://app?vid=ccaa787d-adea-4d05-b006-d1c5ea6cac98"},"vehicle_type_id":"4","last_reported":1745673371,"current_range_meters":3600,"station_id":"ce4bhe12rcd13ifvqf30","pricing_plan_id":"cebpf4jnsgd1na2vs0mg"},{"bike_id":"cad2beda-9e87-4322-b2c1-67910d69283d","system_id":"levelo_inurba_marseille","lat":43.30128,"lon":5.39862,"is_reserved":false,"is_disabled":false,"rental_uris":{"android":"levelo://app?vid=cad2beda-9e87-4322-b2c1-67910d69283d","ios":"levelo://app?vid=cad2beda-9e87-4322-b2c1-67910d69283d"},"vehicle_type_id":"4","last_reported":1745673371,"current_range_meters":8000,"station_id":"ce4bh0h2rcd13ifvqd40","pricing_plan_id":"cebpf4jnsgd1na2vs0mg"},{"bike_id":"422b5989-c8b6-43aa-b2b9-3bfeb2e1ddc0","system_id":"levelo_inurba_marseille","lat":43.24712,"lon":5.41173,"is_reserved":false,"is_disabled":false,"rental_uris":{"android":"levelo://app?vid=422b5989-c8b6-43aa-b2b9-3bfeb2e1ddc0","ios":"levelo://app?vid=422b5989-c8b6-43aa-b2b9-3bfeb2e1ddc0"},"vehicle_type_id":"4","last_reported":1745673371,"current_range_meters":8000,"station_id":"","pricing_plan_id":"cebpf4jnsgd1na2vs0mg"},{"bike_id":"f62a4552-ec40-438e-82bf-49608a81162e","system_id":"levelo_inurba_marseille","lat":43.23966,"lon":5.36618,"is_reserved":false,"is_disabled":false,"rental_uris":{"android":"levelo://app?vid=f62a4552-ec40-438e-82bf-49608a81162e","ios":"levelo://app?vid=f62a4552-ec40-438e-82bf-49608a81162e"},"vehicle_type_id":"4","last_reported":1745673371,"current_range_meters":8000,"station_id":"ce4bhi12rcd13ifvqfp0","pricing_plan_id":"cebpf4jnsgd1na2vs0mg"},{"bike_id":"7a78217b-7558-475d-afab-ecd4b02be08d","system_id":"levelo_inurba_marseille","lat":43.27062,"lon":5.4026,"is_reserved":false,"is_disabled":false,"rental_uris":{"android":"levelo://app?vid=7a78217b-7558-475d-afab-ecd4b02be08d","ios":"levelo://app?vid=7a78217b-7558-475d-afab-ecd4b02be08d"},"vehicle_type_id":"4","last_reported":1745673371,"current_range_meters":8000,"station_id":"ce4bhk92rcd13ifvqgc0","pricing_plan_id":"cebpf4jnsgd1na2vs0mg"},{"bike_id":"7c8b0050-da75-490e-a8f7-4daf22ee9e0c","system_id":"levelo_inurba_marseille","lat":43.27913,"lon":5.39581,"is_reserved":false,"is_disabled":false,"rental_uris":{"android":"levelo://app?vid=7c8b0050-da75-490e-a8f7-4daf22ee9e0c","ios":"levelo://app?vid=7c8b0050-da75-490e-a8f7-4daf22ee9e0c"},"vehicle_type_id":"4","last_reported":1745673371,"current_range_meters":8000,"station_id":"ce4bhf92rcd13ifvqf40","pricing_plan_id":"cebpf4jnsgd1na2vs0mg"},{"bike_id":"4f944775-57ad-4dfe-887f-1080686cb12e","system_id":"levelo_inurba_marseille","lat":43.29378,"lon":5.37859,"is_reserved":false,"is_disabled":false,"rental_uris":{"android":"levelo://app?vid=4f944775-57ad-4dfe-887f-1080686cb12e","ios":"levelo://app?vid=4f944775-57ad-4dfe-887f-1080686cb12e"},"vehicle_type_id":"4","last_reported":1745673371,"current_range_meters":8000,"station_id":"ce4bgjh2rcd13ifvqbf0","pricing_plan_id":"cebpf4jnsgd1na2vs0mg"},{"bike_id":"1ef1fab3-0aa0-4786-8f52-e8ae16833c9c","system_id":"levelo_inurba_marseille","lat":43.2621,"lon":5.37435,"is_reserved":false,"is_disabled":false,"rental_uris":{"android":"levelo://app?vid=1ef1fab3-0aa0-4786-8f52-e8ae16833c9c","ios":"levelo://app?vid=1ef1fab3-0aa0-4786-8f52-e8ae16833c9c"},"vehicle_type_id":"4","last_reported":1745673371,"current_range_meters":8000,"station_id":"ce4bhgp2rcd13ifvqfc0","pricing_plan_id":"cebpf4jnsgd1na2vs0mg"},{"bike_id":"03b231f5-ccf9-4bc5-887f-3957ab6d316b","system_id":"levelo_inurba_marseille","lat":43.23968,"lon":5.36618,"is_reserved":false,"is_disabled":false,"rental_uris":{"android":"levelo://app?vid=03b231f5-ccf9-4bc5-887f-3957ab6d316b","ios":"levelo://app?vid=03b231f5-ccf9-4bc5-887f-3957ab6d316b"},"vehicle_type_id":"4","last_reported":1745673371,"current_range_meters":8000,"station_id":"ce4bhi12rcd13ifvqfp0","pricing_plan_id":"cebpf4jnsgd1na2vs0mg"},{"bike_id":"18ae1d78-8d9e-4697-bc48-a39d36035c1d","system_id":"levelo_inurba_marseille","lat":43.23971,"lon":5.36614,"is_reserved":false,"is_disabled":false,"rental_uris":{"android":"levelo://app?vid=18ae1d78-8d9e-4697-bc48-a39d36035c1d","ios":"levelo://app?vid=18ae1d78-8d9e-4697-bc48-a39d36035c1d"},"vehicle_type_id":"4","last_reported":1745673371,"current_range_meters":8000,"station_id":"ce4bhi12rcd13ifvqfp0","pricing_plan_id":"cebpf4jnsgd1na2vs0mg"},{"bike_id":"ae2f8384-ab79-4241-aa7f-a13b45da22ce","system_id":"levelo_inurba_marseille","lat":43.262138,"lon":5.374355,"is_reserved":false,"is_disabled":false,"rental_uris":{"android":"levelo://app?vid=ae2f8384-ab79-4241-aa7f-a13b45da22ce","ios":"levelo://app?vid=ae2f8384-ab79-4241-aa7f-a13b45da22ce"},"vehicle_type_id":"4","last_reported":1745673371,"current_range_meters":8000,"station_id":"ce4bhgp2rcd13ifvqfc0","pricing_plan_id":"cebpf4jnsgd1na2vs0mg"},{"bike_id":"0f247a31-3b2b-48b7-9799-1620d33d6bc6","system_id":"levelo_inurba_marseille","lat":43.23151,"lon":5.4371,"is_reserved":false,"is_disabled":false,"rental_uris":{"android":"levelo://app?vid=0f247a31-3b2b-48b7-9799-1620d33d6bc6","ios":"levelo://app?vid=0f247a31-3b2b-48b7-9799-1620d33d6bc6"},"vehicle_type_id":"4","last_reported":1745673371,"current_range_meters":8400,"station_id":"ce4bhmp2rcd13ifvqgog","pricing_plan_id":"cebpf4jnsgd1na2vs0mg"},{"bike_id":"3d087bc1-affe-44fc-8199-35eadfcf6448","system_id":"levelo_inurba_marseille","lat":43.26198,"lon":5.37442,"is_reserved":false,"is_disabled":false,"rental_uris":{"android":"levelo://app?vid=3d087bc1-affe-44fc-8199-35eadfcf6448","ios":"levelo://app?vid=3d087bc1-affe-44fc-8199-35eadfcf6448"},"vehicle_type_id":"4","last_reported":1745673371,"current_range_meters":8400,"station_id":"ce4bhgp2rcd13ifvqfc0","pricing_plan_id":"cebpf4jnsgd1na2vs0mg"},{"bike_id":"78f86ce9-2162-45f6-b305-bcb23d0cd8a9","system_id":"levelo_inurba_marseille","lat":43.2439,"lon":5.37068,"is_reserved":false,"is_disabled":false,"rental_uris":{"android":"levelo://app?vid=78f86ce9-2162-45f6-b305-bcb23d0cd8a9","ios":"levelo://app?vid=78f86ce9-2162-45f6-b305-bcb23d0cd8a9"},"vehicle_type_id":"4","last_reported":1745673371,"current_range_meters":8400,"station_id":"ce4bhhh2rcd13ifvqfk0","pricing_plan_id":"cebpf4jnsgd1na2vs0mg"},{"bike_id":"51376682-930e-45ed-90e0-b53d931ddc33","system_id":"levelo_inurba_marseille","lat":43.275,"lon":5.42448,"is_reserved":false,"is_disabled":false,"rental_uris":{"android":"levelo://app?vid=51376682-930e-45ed-90e0-b53d931ddc33","ios":"levelo://app?vid=51376682-930e-45ed-90e0-b53d931ddc33"},"vehicle_type_id":"4","last_reported":1745673371,"current_range_meters":8400,"station_id":"ce4bhn92rcd13ifvqgrg","pricing_plan_id":"cebpf4jnsgd1na2vs0mg"},{"bike_id":"2f369d82-d8b0-4a4a-b98d-95d06db99775","system_id":"levelo_inurba_marseille","lat":43.2439,"lon":5.37062,"is_reserved":false,"is_disabled":false,"rental_uris":{"android":"levelo://app?vid=2f369d82-d8b0-4a4a-b98d-95d06db99775","ios":"levelo://app?vid=2f369d82-d8b0-4a4a-b98d-95d06db99775"},"vehicle_type_id":"4","last_reported":1745673371,"current_range_meters":8400,"station_id":"ce4bhhh2rcd13ifvqfk0","pricing_plan_id":"cebpf4jnsgd1na2vs0mg"},{"bike_id":"2743111f-6f05-405a-b992-7e5d8fae8924","system_id":"levelo_inurba_marseille","lat":43.22938,"lon":5.35373,"is_reserved":false,"is_disabled":false,"rental_uris":{"android":"levelo://app?vid=2743111f-6f05-405a-b992-7e5d8fae8924","ios":"levelo://app?vid=2743111f-6f05-405a-b992-7e5d8fae8924"},"vehicle_type_id":"4","last_reported":1745673371,"current_range_meters":8400,"station_id":"cpo3532slgdg3j2ikp40","pricing_plan_id":"cebpf4jnsgd1na2vs0mg"},{"bike_id":"7c112dcd-73e3-40db-b25a-7a6c4f67433a","system_id":"levelo_inurba_marseille","lat":43.24386,"lon":5.37058,"is_reserved":false,"is_disabled":false,"rental_uris":{"android":"levelo://app?vid=7c112dcd-73e3-40db-b25a-7a6c4f67433a","ios":"levelo://app?vid=7c112dcd-73e3-40db-b25a-7a6c4f67433a"},"vehicle_type_id":"4","last_reported":1745673371,"current_range_meters":8400,"station_id":"ce4bhhh2rcd13ifvqfk0","pricing_plan_id":"cebpf4jnsgd1na2vs0mg"},{"bike_id":"1a812466-2aee-44ca-8510-5523324110ac","system_id":"levelo_inurba_marseille","lat":43.30634,"lon":5.4009,"is_reserved":false,"is_disabled":false,"rental_uris":{"android":"levelo://app?vid=1a812466-2aee-44ca-8510-5523324110ac","ios":"levelo://app?vid=1a812466-2aee-44ca-8510-5523324110ac"},"vehicle_type_id":"4","last_reported":1745673371,"current_range_meters":8400,"station_id":"ce4bh112rcd13ifvqda0","pricing_plan_id":"cebpf4jnsgd1na2vs0mg"},{"bike_id":"51587a7a-4431-438e-928f-ef27df76a80e","system_id":"levelo_inurba_marseille","lat":43.2621,"lon":5.37445,"is_reserved":false,"is_disabled":false,"rental_uris":{"android":"levelo://app?vid=51587a7a-4431-438e-928f-ef27df76a80e","ios":"levelo://app?vid=51587a7a-4431-438e-928f-ef27df76a80e"},"vehicle_type_id":"4","last_reported":1745673371,"current_range_meters":8800,"station_id":"ce4bhgp2rcd13ifvqfc0","pricing_plan_id":"cebpf4jnsgd1na2vs0mg"},{"bike_id":"90ad068d-64b6-4b03-aa5b-ce79fed1796a","system_id":"levelo_inurba_marseille","lat":43.29276,"lon":5.36847,"is_reserved":false,"is_disabled":false,"rental_uris":{"android":"levelo://app?vid=90ad068d-64b6-4b03-aa5b-ce79fed1796a","ios":"levelo://app?vid=90ad068d-64b6-4b03-aa5b-ce79fed1796a"},"vehicle_type_id":"4","last_reported":1745673371,"current_range_meters":8800,"station_id":"","pricing_plan_id":"cebpf4jnsgd1na2vs0mg"},{"bike_id":"4c11ff0f-a579-4f78-9960-a443174b0bdd","system_id":"levelo_inurba_marseille","lat":43.21188,"lon":5.35072,"is_reserved":false,"is_disabled":false,"rental_uris":{"android":"levelo://app?vid=4c11ff0f-a579-4f78-9960-a443174b0bdd","ios":"levelo://app?vid=4c11ff0f-a579-4f78-9960-a443174b0bdd"},"vehicle_type_id":"4","last_reported":1745673371,"current_range_meters":8800,"station_id":"st_cvj6sg6p6f1abm77japg","pricing_plan_id":"cebpf4jnsgd1na2vs0mg"},{"bike_id":"c46c1b23-b12b-48ad-ab49-f69c7d2b5cdd","system_id":"levelo_inurba_marseille","lat":43.27992,"lon":5.41657,"is_reserved":false,"is_disabled":false,"rental_uris":{"android":"levelo://app?vid=c46c1b23-b12b-48ad-ab49-f69c7d2b5cdd","ios":"levelo://app?vid=c46c1b23-b12b-48ad-ab49-f69c7d2b5cdd"},"vehicle_type_id":"4","last_reported":1745673371,"current_range_meters":8800,"station_id":"ce4bho12rcd13ifvqh1g","pricing_plan_id":"cebpf4jnsgd1na2vs0mg"},{"bike_id":"f997f3a2-6ef7-4d7a-931e-8083cf2fa70c","system_id":"levelo_inurba_marseille","lat":43.268,"lon":5.40248,"is_reserved":false,"is_disabled":false,"rental_uris":{"android":"levelo://app?vid=f997f3a2-6ef7-4d7a-931e-8083cf2fa70c","ios":"levelo://app?vid=f997f3a2-6ef7-4d7a-931e-8083cf2fa70c"},"vehicle_type_id":"4","last_reported":1745673371,"current_range_meters":8800,"station_id":"ce501612rcd8frsf0b60","pricing_plan_id":"cebpf4jnsgd1na2vs0mg"},{"bike_id":"3084e53c-5740-4a36-b153-c31106199cf3","system_id":"levelo_inurba_marseille","lat":43.211929,"lon":5.350742,"is_reserved":false,"is_disabled":false,"rental_uris":{"android":"levelo://app?vid=3084e53c-5740-4a36-b153-c31106199cf3","ios":"levelo://app?vid=3084e53c-5740-4a36-b153-c31106199cf3"},"vehicle_type_id":"4","last_reported":1745673371,"current_range_meters":8800,"station_id":"st_cvj6sg6p6f1abm77japg","pricing_plan_id":"cebpf4jnsgd1na2vs0mg"},{"bike_id":"def40c32-2623-4cf0-8ba4-59edb1ed75c9","system_id":"levelo_inurba_marseille","lat":43.295258,"lon":5.390298,"is_reserved":false,"is_disabled":false,"rental_uris":{"android":"levelo://app?vid=def40c32-2623-4cf0-8ba4-59edb1ed75c9","ios":"levelo://app?vid=def40c32-2623-4cf0-8ba4-59edb1ed75c9"},"vehicle_type_id":"4","last_reported":1745673371,"current_range_meters":9200,"station_id":"ce4bgl12rcd13ifvqbo0","pricing_plan_id":"cebpf4jnsgd1na2vs0mg"},{"bike_id":"6104de1b-83a6-4912-bfa1-49d35364e6af","system_id":"levelo_inurba_marseille","lat":43.23961,"lon":5.36629,"is_reserved":false,"is_disabled":false,"rental_uris":{"android":"levelo://app?vid=6104de1b-83a6-4912-bfa1-49d35364e6af","ios":"levelo://app?vid=6104de1b-83a6-4912-bfa1-49d35364e6af"},"vehicle_type_id":"4","last_reported":1745673371,"current_range_meters":9200,"station_id":"ce4bhi12rcd13ifvqfp0","pricing_plan_id":"cebpf4jnsgd1na2vs0mg"},{"bike_id":"3f149be8-3fc0-4e3f-9f05-51add445dfa2","system_id":"levelo_inurba_marseille","lat":43.26583,"lon":5.38984,"is_reserved":false,"is_disabled":false,"rental_uris":{"android":"levelo://app?vid=3f149be8-3fc0-4e3f-9f05-51add445dfa2","ios":"levelo://app?vid=3f149be8-3fc0-4e3f-9f05-51add445dfa2"},"vehicle_type_id":"4","last_reported":1745673371,"current_range_meters":9200,"station_id":"ce4bhe12rcd13ifvqf30","pricing_plan_id":"cebpf4jnsgd1na2vs0mg"},{"bike_id":"3ee52dd6-ee76-4da1-bbf0-da3ef76cb155","system_id":"levelo_inurba_marseille","lat":43.34647,"lon":5.34734,"is_reserved":false,"is_disabled":false,"rental_uris":{"android":"levelo://app?vid=3ee52dd6-ee76-4da1-bbf0-da3ef76cb155","ios":"levelo://app?vid=3ee52dd6-ee76-4da1-bbf0-da3ef76cb155"},"vehicle_type_id":"4","last_reported":1745673371,"current_range_meters":9200,"station_id":"","pricing_plan_id":"cebpf4jnsgd1na2vs0mg"},{"bike_id":"7643ce4e-9a94-4503-bf68-4fe422ce9a69","system_id":"levelo_inurba_marseille","lat":43.26557,"lon":5.37287,"is_reserved":false,"is_disabled":false,"rental_uris":{"android":"levelo://app?vid=7643ce4e-9a94-4503-bf68-4fe422ce9a69","ios":"levelo://app?vid=7643ce4e-9a94-4503-bf68-4fe422ce9a69"},"vehicle_type_id":"4","last_reported":1745673371,"current_range_meters":9600,"station_id":"ce4bhg12rcd13ifvqf70","pricing_plan_id":"cebpf4jnsgd1na2vs0mg"},{"bike_id":"a506b875-0ce8-46ca-92a5-5e9e4286e37a","system_id":"levelo_inurba_marseille","lat":43.2797,"lon":5.38738,"is_reserved":false,"is_disabled":false,"rental_uris":{"android":"levelo://app?vid=a506b875-0ce8-46ca-92a5-5e9e4286e37a","ios":"levelo://app?vid=a506b875-0ce8-46ca-92a5-5e9e4286e37a"},"vehicle_type_id":"4","last_reported":1745673371,"current_range_meters":9600,"station_id":"ce4bhg12rcd13ifvqf80","pricing_plan_id":"cebpf4jnsgd1na2vs0mg"},{"bike_id":"b5e7946e-ce6e-435d-a1bb-13192d6f5ce3","system_id":"levelo_inurba_marseille","lat":43.30096,"lon":5.3907,"is_reserved":false,"is_disabled":false,"rental_uris":{"android":"levelo://app?vid=b5e7946e-ce6e-435d-a1bb-13192d6f5ce3","ios":"levelo://app?vid=b5e7946e-ce6e-435d-a1bb-13192d6f5ce3"},"vehicle_type_id":"4","last_reported":1745673371,"current_range_meters":9600,"station_id":"ce4bh0h2rcd13ifvqd60","pricing_plan_id":"cebpf4jnsgd1na2vs0mg"},{"bike_id":"72a2ecab-78ba-4933-8f0e-a1e7d9156f2b","system_id":"levelo_inurba_marseille","lat":43.211841,"lon":5.350754,"is_reserved":false,"is_disabled":false,"rental_uris":{"android":"levelo://app?vid=72a2ecab-78ba-4933-8f0e-a1e7d9156f2b","ios":"levelo://app?vid=72a2ecab-78ba-4933-8f0e-a1e7d9156f2b"},"vehicle_type_id":"4","last_reported":1745673371,"current_range_meters":10000,"station_id":"st_cvj6sg6p6f1abm77japg","pricing_plan_id":"cebpf4jnsgd1na2vs0mg"},{"bike_id":"65411f52-d7de-4877-a13f-3f34e73efe61","system_id":"levelo_inurba_marseille","lat":43.24673,"lon":5.38864,"is_reserved":false,"is_disabled":false,"rental_uris":{"android":"levelo://app?vid=65411f52-d7de-4877-a13f-3f34e73efe61","ios":"levelo://app?vid=65411f52-d7de-4877-a13f-3f34e73efe61"},"vehicle_type_id":"4","last_reported":1745673371,"current_range_meters":10000,"station_id":"ce4bhg12rcd13ifvqf60","pricing_plan_id":"cebpf4jnsgd1na2vs0mg"},{"bike_id":"da1f83f9-0ee6-4bbf-a8a9-57e394ccaa55","system_id":"levelo_inurba_marseille","lat":43.28443,"lon":5.39206,"is_reserved":false,"is_disabled":false,"rental_uris":{"android":"levelo://app?vid=da1f83f9-0ee6-4bbf-a8a9-57e394ccaa55","ios":"levelo://app?vid=da1f83f9-0ee6-4bbf-a8a9-57e394ccaa55"},"vehicle_type_id":"4","last_reported":1745673371,"current_range_meters":10000,"station_id":"ce4bhoh2rcd13ifvqh5g","pricing_plan_id":"cebpf4jnsgd1na2vs0mg"},{"bike_id":"ff062f05-860f-4e02-8275-dd31fed8fe8c","system_id":"levelo_inurba_marseille","lat":43.279432,"lon":5.410462,"is_reserved":false,"is_disabled":false,"rental_uris":{"android":"levelo://app?vid=ff062f05-860f-4e02-8275-dd31fed8fe8c","ios":"levelo://app?vid=ff062f05-860f-4e02-8275-dd31fed8fe8c"},"vehicle_type_id":"4","last_reported":1745673371,"current_range_meters":10000,"station_id":"ce4bhnp2rcd13ifvqh0g","pricing_plan_id":"cebpf4jnsgd1na2vs0mg"},{"bike_id":"72c8e315-bcd4-4e24-bedc-9228dddd487e","system_id":"levelo_inurba_marseille","lat":43.27061,"lon":5.4026,"is_reserved":false,"is_disabled":false,"rental_uris":{"android":"levelo://app?vid=72c8e315-bcd4-4e24-bedc-9228dddd487e","ios":"levelo://app?vid=72c8e315-bcd4-4e24-bedc-9228dddd487e"},"vehicle_type_id":"4","last_reported":1745673371,"current_range_meters":10000,"station_id":"ce4bhk92rcd13ifvqgc0","pricing_plan_id":"cebpf4jnsgd1na2vs0mg"},{"bike_id":"b85cb979-63a3-4246-aee0-732a6680ea1f","system_id":"levelo_inurba_marseille","lat":43.26213,"lon":5.37452,"is_reserved":false,"is_disabled":false,"rental_uris":{"android":"levelo://app?vid=b85cb979-63a3-4246-aee0-732a6680ea1f","ios":"levelo://app?vid=b85cb979-63a3-4246-aee0-732a6680ea1f"},"vehicle_type_id":"4","last_reported":1745673371,"current_range_meters":10000,"station_id":"ce4bhgp2rcd13ifvqfc0","pricing_plan_id":"cebpf4jnsgd1na2vs0mg"},{"bike_id":"d5afa86c-5521-4399-bb8d-753e7ab2ffa5","system_id":"levelo_inurba_marseille","lat":43.23175,"lon":5.40007,"is_reserved":false,"is_disabled":false,"rental_uris":{"android":"levelo://app?vid=d5afa86c-5521-4399-bb8d-753e7ab2ffa5","ios":"levelo://app?vid=d5afa86c-5521-4399-bb8d-753e7ab2ffa5"},"vehicle_type_id":"4","last_reported":1745673371,"current_range_meters":10800,"station_id":"ce4bhn12rcd13ifvqgqg","pricing_plan_id":"cebpf4jnsgd1na2vs0mg"},{"bike_id":"b337b47e-e0c0-40c3-878a-37e58bb44305","system_id":"levelo_inurba_marseille","lat":43.3117,"lon":5.40776,"is_reserved":false,"is_disabled":false,"rental_uris":{"android":"levelo://app?vid=b337b47e-e0c0-40c3-878a-37e58bb44305","ios":"levelo://app?vid=b337b47e-e0c0-40c3-878a-37e58bb44305"},"vehicle_type_id":"4","last_reported":1745673371,"current_range_meters":10800,"station_id":"","pricing_plan_id":"cebpf4jnsgd1na2vs0mg"},{"bike_id":"f2ac7098-9dbe-4684-a3e7-cf90caaf304f","system_id":"levelo_inurba_marseille","lat":43.24181,"lon":5.39724,"is_reserved":false,"is_disabled":false,"rental_uris":{"android":"levelo://app?vid=f2ac7098-9dbe-4684-a3e7-cf90caaf304f","ios":"levelo://app?vid=f2ac7098-9dbe-4684-a3e7-cf90caaf304f"},"vehicle_type_id":"4","last_reported":1745673371,"current_range_meters":10800,"station_id":"ce4bhn12rcd13ifvqgpg","pricing_plan_id":"cebpf4jnsgd1na2vs0mg"},{"bike_id":"200d5653-e09e-44de-b9a1-09ced670514e","system_id":"levelo_inurba_marseille","lat":43.24386,"lon":5.37062,"is_reserved":false,"is_disabled":false,"rental_uris":{"android":"levelo://app?vid=200d5653-e09e-44de-b9a1-09ced670514e","ios":"levelo://app?vid=200d5653-e09e-44de-b9a1-09ced670514e"},"vehicle_type_id":"4","last_reported":1745673371,"current_range_meters":10000,"station_id":"ce4bhhh2rcd13ifvqfk0","pricing_plan_id":"cebpf4jnsgd1na2vs0mg"},{"bike_id":"a00fab57-35a8-4075-9768-1cc376bc9a52","system_id":"levelo_inurba_marseille","lat":43.31237,"lon":5.36855,"is_reserved":false,"is_disabled":false,"rental_uris":{"android":"levelo://app?vid=a00fab57-35a8-4075-9768-1cc376bc9a52","ios":"levelo://app?vid=a00fab57-35a8-4075-9768-1cc376bc9a52"},"vehicle_type_id":"4","last_reported":1745673371,"current_range_meters":10800,"station_id":"ce4bgl92rcd13ifvqbq0","pricing_plan_id":"cebpf4jnsgd1na2vs0mg"},{"bike_id":"3fb01e52-83e7-42f4-8fc7-5d6dd3e1d24e","system_id":"levelo_inurba_marseille","lat":43.24998,"lon":5.38929,"is_reserved":false,"is_disabled":false,"rental_uris":{"android":"levelo://app?vid=3fb01e52-83e7-42f4-8fc7-5d6dd3e1d24e","ios":"levelo://app?vid=3fb01e52-83e7-42f4-8fc7-5d6dd3e1d24e"},"vehicle_type_id":"4","last_reported":1745673371,"current_range_meters":10800,"station_id":"ce4bhgp2rcd13ifvqfd0","pricing_plan_id":"cebpf4jnsgd1na2vs0mg"},{"bike_id":"df63c525-ee18-4e9a-b2a8-a4c1c3fd001a","system_id":"levelo_inurba_marseille","lat":43.31087,"lon":5.42435,"is_reserved":false,"is_disabled":false,"rental_uris":{"android":"levelo://app?vid=df63c525-ee18-4e9a-b2a8-a4c1c3fd001a","ios":"levelo://app?vid=df63c525-ee18-4e9a-b2a8-a4c1c3fd001a"},"vehicle_type_id":"4","last_reported":1745673371,"current_range_meters":10800,"station_id":"ce4bhp92rcd13ifvqhag","pricing_plan_id":"cebpf4jnsgd1na2vs0mg"},{"bike_id":"f96364af-8e2b-4857-bee6-484273e5da01","system_id":"levelo_inurba_marseille","lat":43.21209,"lon":5.3508,"is_reserved":false,"is_disabled":false,"rental_uris":{"android":"levelo://app?vid=f96364af-8e2b-4857-bee6-484273e5da01","ios":"levelo://app?vid=f96364af-8e2b-4857-bee6-484273e5da01"},"vehicle_type_id":"4","last_reported":1745673371,"current_range_meters":11200,"station_id":"st_cvj6sg6p6f1abm77japg","pricing_plan_id":"cebpf4jnsgd1na2vs0mg"},{"bike_id":"7d9669fc-32f8-4d0c-965b-3fa72110d608","system_id":"levelo_inurba_marseille","lat":43.2354,"lon":5.3602,"is_reserved":false,"is_disabled":false,"rental_uris":{"android":"levelo://app?vid=7d9669fc-32f8-4d0c-965b-3fa72110d608","ios":"levelo://app?vid=7d9669fc-32f8-4d0c-965b-3fa72110d608"},"vehicle_type_id":"4","last_reported":1745673371,"current_range_meters":11200,"station_id":"","pricing_plan_id":"cebpf4jnsgd1na2vs0mg"},{"bike_id":"dfb6fbfd-7592-48ec-9868-14521422e174","system_id":"levelo_inurba_marseille","lat":43.21191,"lon":5.35068,"is_reserved":false,"is_disabled":false,"rental_uris":{"android":"levelo://app?vid=dfb6fbfd-7592-48ec-9868-14521422e174","ios":"levelo://app?vid=dfb6fbfd-7592-48ec-9868-14521422e174"},"vehicle_type_id":"4","last_reported":1745673371,"current_range_meters":11200,"station_id":"st_cvj6sg6p6f1abm77japg","pricing_plan_id":"cebpf4jnsgd1na2vs0mg"},{"bike_id":"39926d7b-8a7d-456d-bde6-a6f35183b808","system_id":"levelo_inurba_marseille","lat":43.30453,"lon":5.37912,"is_reserved":false,"is_disabled":false,"rental_uris":{"android":"levelo://app?vid=39926d7b-8a7d-456d-bde6-a6f35183b808","ios":"levelo://app?vid=39926d7b-8a7d-456d-bde6-a6f35183b808"},"vehicle_type_id":"4","last_reported":1745673371,"current_range_meters":11200,"station_id":"ce4bgup2rcd13ifvqcn0","pricing_plan_id":"cebpf4jnsgd1na2vs0mg"},{"bike_id":"b2511a21-a10e-4a23-a72f-37faa4d8515c","system_id":"levelo_inurba_marseille","lat":43.21748,"lon":5.34583,"is_reserved":false,"is_disabled":false,"rental_uris":{"android":"levelo://app?vid=b2511a21-a10e-4a23-a72f-37faa4d8515c","ios":"levelo://app?vid=b2511a21-a10e-4a23-a72f-37faa4d8515c"},"vehicle_type_id":"4","last_reported":1745673371,"current_range_meters":11600,"station_id":"st_cvj6r9ubvosntc0bgbag","pricing_plan_id":"cebpf4jnsgd1na2vs0mg"},{"bike_id":"aa7dd23a-c50c-4359-a4fa-3d29c4576751","system_id":"levelo_inurba_marseille","lat":43.24167,"lon":5.3639,"is_reserved":false,"is_disabled":false,"rental_uris":{"android":"levelo://app?vid=aa7dd23a-c50c-4359-a4fa-3d29c4576751","ios":"levelo://app?vid=aa7dd23a-c50c-4359-a4fa-3d29c4576751"},"vehicle_type_id":"4","last_reported":1745673371,"current_range_meters":11600,"station_id":"cpo36qri1sfpv3e86is0","pricing_plan_id":"cebpf4jnsgd1na2vs0mg"},{"bike_id":"336cce88-f648-4746-a0a9-823f21558c20","system_id":"levelo_inurba_marseille","lat":43.276109,"lon":5.361098,"is_reserved":false,"is_disabled":false,"rental_uris":{"android":"levelo://app?vid=336cce88-f648-4746-a0a9-823f21558c20","ios":"levelo://app?vid=336cce88-f648-4746-a0a9-823f21558c20"},"vehicle_type_id":"4","last_reported":1745673371,"current_range_meters":11600,"station_id":"ce4bgj92rcd13ifvqbe0","pricing_plan_id":"cebpf4jnsgd1na2vs0mg"},{"bike_id":"2de48fac-0eb5-4d74-a130-eb6fe60b2ca2","system_id":"levelo_inurba_marseille","lat":43.29273,"lon":5.36839,"is_reserved":false,"is_disabled":false,"rental_uris":{"android":"levelo://app?vid=2de48fac-0eb5-4d74-a130-eb6fe60b2ca2","ios":"levelo://app?vid=2de48fac-0eb5-4d74-a130-eb6fe60b2ca2"},"vehicle_type_id":"4","last_reported":1745673371,"current_range_meters":11600,"station_id":"","pricing_plan_id":"cebpf4jnsgd1na2vs0mg"},{"bike_id":"4b30073c-0704-4a80-803d-17f20dfd878d","system_id":"levelo_inurba_marseille","lat":43.33608,"lon":5.41031,"is_reserved":false,"is_disabled":false,"rental_uris":{"android":"levelo://app?vid=4b30073c-0704-4a80-803d-17f20dfd878d","ios":"levelo://app?vid=4b30073c-0704-4a80-803d-17f20dfd878d"},"vehicle_type_id":"4","last_reported":1745673371,"current_range_meters":11600,"station_id":"ce4bhqh2rcd13ifvqhmg","pricing_plan_id":"cebpf4jnsgd1na2vs0mg"},{"bike_id":"f4eed239-3da6-4ac7-b860-229139b2a44b","system_id":"levelo_inurba_marseille","lat":43.29708,"lon":5.377459,"is_reserved":false,"is_disabled":false,"rental_uris":{"android":"levelo://app?vid=f4eed239-3da6-4ac7-b860-229139b2a44b","ios":"levelo://app?vid=f4eed239-3da6-4ac7-b860-229139b2a44b"},"vehicle_type_id":"4","last_reported":1745673371,"current_range_meters":11600,"station_id":"ce4bh4p2rcd13ifvqe1g","pricing_plan_id":"cebpf4jnsgd1na2vs0mg"},{"bike_id":"f4491695-3fca-4774-9974-e574fa4c7199","system_id":"levelo_inurba_marseille","lat":43.297114,"lon":5.362747,"is_reserved":false,"is_disabled":false,"rental_uris":{"android":"levelo://app?vid=f4491695-3fca-4774-9974-e574fa4c7199","ios":"levelo://app?vid=f4491695-3fca-4774-9974-e574fa4c7199"},"vehicle_type_id":"4","last_reported":1745673371,"current_range_meters":11600,"station_id":"","pricing_plan_id":"cebpf4jnsgd1na2vs0mg"},{"bike_id":"5087cd33-e9b8-4cff-a2a6-fe7deefab500","system_id":"levelo_inurba_marseille","lat":43.303277,"lon":5.404347,"is_reserved":false,"is_disabled":false,"rental_uris":{"android":"levelo://app?vid=5087cd33-e9b8-4cff-a2a6-fe7deefab500","ios":"levelo://app?vid=5087cd33-e9b8-4cff-a2a6-fe7deefab500"},"vehicle_type_id":"4","last_reported":1745673371,"current_range_meters":11600,"station_id":"ce4bh012rcd13ifvqd10","pricing_plan_id":"cebpf4jnsgd1na2vs0mg"},{"bike_id":"e41af021-a04d-4aa5-930b-65d26051384d","system_id":"levelo_inurba_marseille","lat":43.25503,"lon":5.37646,"is_reserved":false,"is_disabled":false,"rental_uris":{"android":"levelo://app?vid=e41af021-a04d-4aa5-930b-65d26051384d","ios":"levelo://app?vid=e41af021-a04d-4aa5-930b-65d26051384d"},"vehicle_type_id":"4","last_reported":1745673371,"current_range_meters":12000,"station_id":"ce4bhh12rcd13ifvqff0","pricing_plan_id":"cebpf4jnsgd1na2vs0mg"},{"bike_id":"301b16f3-6ccc-4bb8-af6d-bbf550ddf756","system_id":"levelo_inurba_marseille","lat":43.29568,"lon":5.37506,"is_reserved":false,"is_disabled":false,"rental_uris":{"android":"levelo://app?vid=301b16f3-6ccc-4bb8-af6d-bbf550ddf756","ios":"levelo://app?vid=301b16f3-6ccc-4bb8-af6d-bbf550ddf756"},"vehicle_type_id":"4","last_reported":1745673371,"current_range_meters":12000,"station_id":"ce4bgh92rcd13ifvqb50","pricing_plan_id":"cebpf4jnsgd1na2vs0mg"},{"bike_id":"88be1745-1bda-4233-aec2-361a3d16552f","system_id":"levelo_inurba_marseille","lat":43.25492,"lon":5.37644,"is_reserved":false,"is_disabled":false,"rental_uris":{"android":"levelo://app?vid=88be1745-1bda-4233-aec2-361a3d16552f","ios":"levelo://app?vid=88be1745-1bda-4233-aec2-361a3d16552f"},"vehicle_type_id":"4","last_reported":1745673371,"current_range_meters":11600,"station_id":"ce4bhh12rcd13ifvqff0","pricing_plan_id":"cebpf4jnsgd1na2vs0mg"},{"bike_id":"f8fe13e6-7371-4bb9-b1f3-922290d25153","system_id":"levelo_inurba_marseille","lat":43.26558,"lon":5.37294,"is_reserved":false,"is_disabled":false,"rental_uris":{"android":"levelo://app?vid=f8fe13e6-7371-4bb9-b1f3-922290d25153","ios":"levelo://app?vid=f8fe13e6-7371-4bb9-b1f3-922290d25153"},"vehicle_type_id":"4","last_reported":1745673371,"current_range_meters":12000,"station_id":"ce4bhg12rcd13ifvqf70","pricing_plan_id":"cebpf4jnsgd1na2vs0mg"},{"bike_id":"d44159bf-36cc-4040-891a-072bbfcff1a2","system_id":"levelo_inurba_marseille","lat":43.29278,"lon":5.3684,"is_reserved":false,"is_disabled":false,"rental_uris":{"android":"levelo://app?vid=d44159bf-36cc-4040-891a-072bbfcff1a2","ios":"levelo://app?vid=d44159bf-36cc-4040-891a-072bbfcff1a2"},"vehicle_type_id":"4","last_reported":1745673371,"current_range_meters":12000,"station_id":"","pricing_plan_id":"cebpf4jnsgd1na2vs0mg"},{"bike_id":"dc13e6c9-493d-46d1-88c6-41b911e80700","system_id":"levelo_inurba_marseille","lat":43.26216,"lon":5.37437,"is_reserved":false,"is_disabled":false,"rental_uris":{"android":"levelo://app?vid=dc13e6c9-493d-46d1-88c6-41b911e80700","ios":"levelo://app?vid=dc13e6c9-493d-46d1-88c6-41b911e80700"},"vehicle_type_id":"4","last_reported":1745673371,"current_range_meters":12000,"station_id":"ce4bhgp2rcd13ifvqfc0","pricing_plan_id":"cebpf4jnsgd1na2vs0mg"},{"bike_id":"adc52c6e-749d-45f6-b1a8-531f44bbf424","system_id":"levelo_inurba_marseille","lat":43.27381,"lon":5.36253,"is_reserved":false,"is_disabled":false,"rental_uris":{"android":"levelo://app?vid=adc52c6e-749d-45f6-b1a8-531f44bbf424","ios":"levelo://app?vid=adc52c6e-749d-45f6-b1a8-531f44bbf424"},"vehicle_type_id":"4","last_reported":1745673371,"current_range_meters":12000,"station_id":"","pricing_plan_id":"cebpf4jnsgd1na2vs0mg"},{"bike_id":"f5cbab12-fa34-49d7-b6ad-d3a54980adbe","system_id":"levelo_inurba_marseille","lat":43.291997,"lon":5.393343,"is_reserved":false,"is_disabled":false,"rental_uris":{"android":"levelo://app?vid=f5cbab12-fa34-49d7-b6ad-d3a54980adbe","ios":"levelo://app?vid=f5cbab12-fa34-49d7-b6ad-d3a54980adbe"},"vehicle_type_id":"4","last_reported":1745673371,"current_range_meters":12400,"station_id":"ce4bh192rcd13ifvqdd0","pricing_plan_id":"cebpf4jnsgd1na2vs0mg"},{"bike_id":"3f8e74df-4b8a-4fe8-9f20-4fbe47605119","system_id":"levelo_inurba_marseille","lat":43.2902,"lon":5.37541,"is_reserved":false,"is_disabled":true,"rental_uris":{"android":"levelo://app?vid=3f8e74df-4b8a-4fe8-9f20-4fbe47605119","ios":"levelo://app?vid=3f8e74df-4b8a-4fe8-9f20-4fbe47605119"},"vehicle_type_id":"4","last_reported":1745673371,"current_range_meters":12800,"station_id":"ce4bh692rcd13ifvqe90","pricing_plan_id":"cebpf4jnsgd1na2vs0mg"},{"bike_id":"e6dd51ac-2075-47cd-ad99-bcf7ffe96cb9","system_id":"levelo_inurba_marseille","lat":43.22503,"lon":5.34781,"is_reserved":false,"is_disabled":false,"rental_uris":{"android":"levelo://app?vid=e6dd51ac-2075-47cd-ad99-bcf7ffe96cb9","ios":"levelo://app?vid=e6dd51ac-2075-47cd-ad99-bcf7ffe96cb9"},"vehicle_type_id":"4","last_reported":1745673371,"current_range_meters":12800,"station_id":"st_cvj5dfep6f1abm77gieg","pricing_plan_id":"cebpf4jnsgd1na2vs0mg"},{"bike_id":"736ee7d5-708e-48bd-8281-35bb85d0bc7d","system_id":"levelo_inurba_marseille","lat":43.29002,"lon":5.35604,"is_reserved":false,"is_disabled":true,"rental_uris":{"android":"levelo://app?vid=736ee7d5-708e-48bd-8281-35bb85d0bc7d","ios":"levelo://app?vid=736ee7d5-708e-48bd-8281-35bb85d0bc7d"},"vehicle_type_id":"4","last_reported":1745673371,"current_range_meters":12800,"station_id":"ce4bhb92rcd13ifvqen0","pricing_plan_id":"cebpf4jnsgd1na2vs0mg"},{"bike_id":"bdd9e4c6-a419-4ecc-bb78-fd8c1009f359","system_id":"levelo_inurba_marseille","lat":43.21747,"lon":5.346,"is_reserved":false,"is_disabled":false,"rental_uris":{"android":"levelo://app?vid=bdd9e4c6-a419-4ecc-bb78-fd8c1009f359","ios":"levelo://app?vid=bdd9e4c6-a419-4ecc-bb78-fd8c1009f359"},"vehicle_type_id":"4","last_reported":1745673371,"current_range_meters":12800,"station_id":"st_cvj6r9ubvosntc0bgbag","pricing_plan_id":"cebpf4jnsgd1na2vs0mg"},{"bike_id":"3b3774a3-111f-442c-bf5c-0a16c8cf7b0a","system_id":"levelo_inurba_marseille","lat":43.27183,"lon":5.40975,"is_reserved":false,"is_disabled":false,"rental_uris":{"android":"levelo://app?vid=3b3774a3-111f-442c-bf5c-0a16c8cf7b0a","ios":"levelo://app?vid=3b3774a3-111f-442c-bf5c-0a16c8cf7b0a"},"vehicle_type_id":"4","last_reported":1745673371,"current_range_meters":13600,"station_id":"ce4bhl12rcd13ifvqgf0","pricing_plan_id":"cebpf4jnsgd1na2vs0mg"},{"bike_id":"1bbdefe9-367b-4f2e-9096-df84b36401cc","system_id":"levelo_inurba_marseille","lat":43.21195,"lon":5.35067,"is_reserved":false,"is_disabled":false,"rental_uris":{"android":"levelo://app?vid=1bbdefe9-367b-4f2e-9096-df84b36401cc","ios":"levelo://app?vid=1bbdefe9-367b-4f2e-9096-df84b36401cc"},"vehicle_type_id":"4","last_reported":1745673371,"current_range_meters":13600,"station_id":"st_cvj6sg6p6f1abm77japg","pricing_plan_id":"cebpf4jnsgd1na2vs0mg"},{"bike_id":"269d0b62-9d38-47b3-a3db-3edcd31bc226","system_id":"levelo_inurba_marseille","lat":43.30458,"lon":5.37898,"is_reserved":false,"is_disabled":false,"rental_uris":{"android":"levelo://app?vid=269d0b62-9d38-47b3-a3db-3edcd31bc226","ios":"levelo://app?vid=269d0b62-9d38-47b3-a3db-3edcd31bc226"},"vehicle_type_id":"4","last_reported":1745673371,"current_range_meters":13600,"station_id":"ce4bgup2rcd13ifvqcn0","pricing_plan_id":"cebpf4jnsgd1na2vs0mg"},{"bike_id":"6c699b0f-21e1-4eeb-be8c-cc4c9ccde0cf","system_id":"levelo_inurba_marseille","lat":43.290055,"lon":5.356145,"is_reserved":false,"is_disabled":false,"rental_uris":{"android":"levelo://app?vid=6c699b0f-21e1-4eeb-be8c-cc4c9ccde0cf","ios":"levelo://app?vid=6c699b0f-21e1-4eeb-be8c-cc4c9ccde0cf"},"vehicle_type_id":"4","last_reported":1745673371,"current_range_meters":13600,"station_id":"","pricing_plan_id":"cebpf4jnsgd1na2vs0mg"},{"bike_id":"e08bec28-265a-4bf9-922f-ac47d723ef69","system_id":"levelo_inurba_marseille","lat":43.31368,"lon":5.38495,"is_reserved":false,"is_disabled":false,"rental_uris":{"android":"levelo://app?vid=e08bec28-265a-4bf9-922f-ac47d723ef69","ios":"levelo://app?vid=e08bec28-265a-4bf9-922f-ac47d723ef69"},"vehicle_type_id":"4","last_reported":1745673371,"current_range_meters":13600,"station_id":"ce4bgt92rcd13ifvqcf0","pricing_plan_id":"cebpf4jnsgd1na2vs0mg"},{"bike_id":"2e02a452-8658-4d94-876d-cc35ee59c2b7","system_id":"levelo_inurba_marseille","lat":43.21193,"lon":5.35069,"is_reserved":false,"is_disabled":false,"rental_uris":{"android":"levelo://app?vid=2e02a452-8658-4d94-876d-cc35ee59c2b7","ios":"levelo://app?vid=2e02a452-8658-4d94-876d-cc35ee59c2b7"},"vehicle_type_id":"4","last_reported":1745673371,"current_range_meters":14000,"station_id":"st_cvj6sg6p6f1abm77japg","pricing_plan_id":"cebpf4jnsgd1na2vs0mg"},{"bike_id":"b6d71c27-56fd-4b5e-a2a6-d51a8eea71f6","system_id":"levelo_inurba_marseille","lat":43.30799,"lon":5.38159,"is_reserved":false,"is_disabled":false,"rental_uris":{"android":"levelo://app?vid=b6d71c27-56fd-4b5e-a2a6-d51a8eea71f6","ios":"levelo://app?vid=b6d71c27-56fd-4b5e-a2a6-d51a8eea71f6"},"vehicle_type_id":"4","last_reported":1745673371,"current_range_meters":14000,"station_id":"ce4bgt12rcd13ifvqce0","pricing_plan_id":"cebpf4jnsgd1na2vs0mg"},{"bike_id":"0dee11c0-1a5f-4ccf-8762-5d4b09817920","system_id":"levelo_inurba_marseille","lat":43.27208,"lon":5.39179,"is_reserved":false,"is_disabled":false,"rental_uris":{"android":"levelo://app?vid=0dee11c0-1a5f-4ccf-8762-5d4b09817920","ios":"levelo://app?vid=0dee11c0-1a5f-4ccf-8762-5d4b09817920"},"vehicle_type_id":"4","last_reported":1745673371,"current_range_meters":14000,"station_id":"ce4bhhp2rcd13ifvqfm0","pricing_plan_id":"cebpf4jnsgd1na2vs0mg"},{"bike_id":"ae376b6f-f74b-4712-b546-f4ec2e411a84","system_id":"levelo_inurba_marseille","lat":43.30098,"lon":5.39073,"is_reserved":false,"is_disabled":false,"rental_uris":{"android":"levelo://app?vid=ae376b6f-f74b-4712-b546-f4ec2e411a84","ios":"levelo://app?vid=ae376b6f-f74b-4712-b546-f4ec2e411a84"},"vehicle_type_id":"4","last_reported":1745673371,"current_range_meters":14000,"station_id":"ce4bh192rcd13ifvqdb0","pricing_plan_id":"cebpf4jnsgd1na2vs0mg"},{"bike_id":"ad1dd68c-20a8-4cb1-ba41-f86fa7298de1","system_id":"levelo_inurba_marseille","lat":43.30794,"lon":5.43523,"is_reserved":false,"is_disabled":false,"rental_uris":{"android":"levelo://app?vid=ad1dd68c-20a8-4cb1-ba41-f86fa7298de1","ios":"levelo://app?vid=ad1dd68c-20a8-4cb1-ba41-f86fa7298de1"},"vehicle_type_id":"4","last_reported":1745673371,"current_range_meters":14000,"station_id":"ce4bhph2rcd13ifvqheg","pricing_plan_id":"cebpf4jnsgd1na2vs0mg"},{"bike_id":"49a17149-3428-41b2-bcc2-7383b2d11a13","system_id":"levelo_inurba_marseille","lat":43.29858,"lon":5.36277,"is_reserved":false,"is_disabled":false,"rental_uris":{"android":"levelo://app?vid=49a17149-3428-41b2-bcc2-7383b2d11a13","ios":"levelo://app?vid=49a17149-3428-41b2-bcc2-7383b2d11a13"},"vehicle_type_id":"4","last_reported":1745673371,"current_range_meters":14000,"station_id":"ce4bgpp2rcd13ifvqc3g","pricing_plan_id":"cebpf4jnsgd1na2vs0mg"},{"bike_id":"97005fc0-54bc-4d42-8417-502718c9a427","system_id":"levelo_inurba_marseille","lat":43.25121,"lon":5.40313,"is_reserved":false,"is_disabled":false,"rental_uris":{"android":"levelo://app?vid=97005fc0-54bc-4d42-8417-502718c9a427","ios":"levelo://app?vid=97005fc0-54bc-4d42-8417-502718c9a427"},"vehicle_type_id":"4","last_reported":1745673371,"current_range_meters":13600,"station_id":"ce4bhlh2rcd13ifvqgig","pricing_plan_id":"cebpf4jnsgd1na2vs0mg"},{"bike_id":"d93cf9ba-0405-43e6-a9be-4596f3e2e7e6","system_id":"levelo_inurba_marseille","lat":43.297908,"lon":5.36222,"is_reserved":false,"is_disabled":false,"rental_uris":{"android":"levelo://app?vid=d93cf9ba-0405-43e6-a9be-4596f3e2e7e6","ios":"levelo://app?vid=d93cf9ba-0405-43e6-a9be-4596f3e2e7e6"},"vehicle_type_id":"4","last_reported":1745673371,"current_range_meters":14000,"station_id":"","pricing_plan_id":"cebpf4jnsgd1na2vs0mg"},{"bike_id":"358bf507-2d25-4c26-8d89-0cf811cab4a2","system_id":"levelo_inurba_marseille","lat":43.21192,"lon":5.35064,"is_reserved":false,"is_disabled":false,"rental_uris":{"android":"levelo://app?vid=358bf507-2d25-4c26-8d89-0cf811cab4a2","ios":"levelo://app?vid=358bf507-2d25-4c26-8d89-0cf811cab4a2"},"vehicle_type_id":"4","last_reported":1745673371,"current_range_meters":14400,"station_id":"st_cvj6sg6p6f1abm77japg","pricing_plan_id":"cebpf4jnsgd1na2vs0mg"},{"bike_id":"86082c5a-74ec-45ee-9bbd-681fdfc8da73","system_id":"levelo_inurba_marseille","lat":43.239623,"lon":5.366263,"is_reserved":false,"is_disabled":false,"rental_uris":{"android":"levelo://app?vid=86082c5a-74ec-45ee-9bbd-681fdfc8da73","ios":"levelo://app?vid=86082c5a-74ec-45ee-9bbd-681fdfc8da73"},"vehicle_type_id":"4","last_reported":1745673371,"current_range_meters":14400,"station_id":"ce4bhi12rcd13ifvqfp0","pricing_plan_id":"cebpf4jnsgd1na2vs0mg"},{"bike_id":"4046a82f-66e8-4b55-bd0a-356edea772d8","system_id":"levelo_inurba_marseille","lat":43.3096,"lon":5.37007,"is_reserved":false,"is_disabled":false,"rental_uris":{"android":"levelo://app?vid=4046a82f-66e8-4b55-bd0a-356edea772d8","ios":"levelo://app?vid=4046a82f-66e8-4b55-bd0a-356edea772d8"},"vehicle_type_id":"4","last_reported":1745673371,"current_range_meters":14400,"station_id":"","pricing_plan_id":"cebpf4jnsgd1na2vs0mg"},{"bike_id":"f12a8215-0659-40a9-ad85-48be55b22391","system_id":"levelo_inurba_marseille","lat":43.29231,"lon":5.360801,"is_reserved":false,"is_disabled":false,"rental_uris":{"android":"levelo://app?vid=f12a8215-0659-40a9-ad85-48be55b22391","ios":"levelo://app?vid=f12a8215-0659-40a9-ad85-48be55b22391"},"vehicle_type_id":"4","last_reported":1745673371,"current_range_meters":14400,"station_id":"ce4bhbh2rcd13ifvqeqg","pricing_plan_id":"cebpf4jnsgd1na2vs0mg"},{"bike_id":"6c5dbaa5-239a-499b-bb6c-63f507c339d5","system_id":"levelo_inurba_marseille","lat":43.3008,"lon":5.39075,"is_reserved":false,"is_disabled":false,"rental_uris":{"android":"levelo://app?vid=6c5dbaa5-239a-499b-bb6c-63f507c339d5","ios":"levelo://app?vid=6c5dbaa5-239a-499b-bb6c-63f507c339d5"},"vehicle_type_id":"4","last_reported":1745673371,"current_range_meters":14400,"station_id":"ce4bh192rcd13ifvqdb0","pricing_plan_id":"cebpf4jnsgd1na2vs0mg"},{"bike_id":"f4bf4041-6a1c-491a-a5d2-2c6fb8b48b5a","system_id":"levelo_inurba_marseille","lat":43.2923,"lon":5.36058,"is_reserved":false,"is_disabled":false,"rental_uris":{"android":"levelo://app?vid=f4bf4041-6a1c-491a-a5d2-2c6fb8b48b5a","ios":"levelo://app?vid=f4bf4041-6a1c-491a-a5d2-2c6fb8b48b5a"},"vehicle_type_id":"4","last_reported":1745673371,"current_range_meters":14800,"station_id":"ce4bhbh2rcd13ifvqeqg","pricing_plan_id":"cebpf4jnsgd1na2vs0mg"},{"bike_id":"e8b62835-a84e-47ec-ae17-92ed9baa736d","system_id":"levelo_inurba_marseille","lat":43.21749,"lon":5.3459,"is_reserved":false,"is_disabled":false,"rental_uris":{"android":"levelo://app?vid=e8b62835-a84e-47ec-ae17-92ed9baa736d","ios":"levelo://app?vid=e8b62835-a84e-47ec-ae17-92ed9baa736d"},"vehicle_type_id":"4","last_reported":1745673371,"current_range_meters":15200,"station_id":"st_cvj6r9ubvosntc0bgbag","pricing_plan_id":"cebpf4jnsgd1na2vs0mg"},{"bike_id":"0abb145a-12ac-4105-b164-8feb4fb022b8","system_id":"levelo_inurba_marseille","lat":43.21195,"lon":5.35075,"is_reserved":false,"is_disabled":false,"rental_uris":{"android":"levelo://app?vid=0abb145a-12ac-4105-b164-8feb4fb022b8","ios":"levelo://app?vid=0abb145a-12ac-4105-b164-8feb4fb022b8"},"vehicle_type_id":"4","last_reported":1745673371,"current_range_meters":15200,"station_id":"st_cvj6sg6p6f1abm77japg","pricing_plan_id":"cebpf4jnsgd1na2vs0mg"},{"bike_id":"e2982129-0a81-4346-98bc-974c80e409ff","system_id":"levelo_inurba_marseille","lat":43.21191,"lon":5.35068,"is_reserved":false,"is_disabled":false,"rental_uris":{"android":"levelo://app?vid=e2982129-0a81-4346-98bc-974c80e409ff","ios":"levelo://app?vid=e2982129-0a81-4346-98bc-974c80e409ff"},"vehicle_type_id":"4","last_reported":1745673371,"current_range_meters":15200,"station_id":"st_cvj6sg6p6f1abm77japg","pricing_plan_id":"cebpf4jnsgd1na2vs0mg"},{"bike_id":"91a17d85-6192-40a3-a3a7-4f81c0698768","system_id":"levelo_inurba_marseille","lat":43.292785,"lon":5.36839,"is_reserved":false,"is_disabled":false,"rental_uris":{"android":"levelo://app?vid=91a17d85-6192-40a3-a3a7-4f81c0698768","ios":"levelo://app?vid=91a17d85-6192-40a3-a3a7-4f81c0698768"},"vehicle_type_id":"4","last_reported":1745673371,"current_range_meters":15200,"station_id":"","pricing_plan_id":"cebpf4jnsgd1na2vs0mg"},{"bike_id":"ae869c74-f328-4c2f-a41c-0bbe39c21c5e","system_id":"levelo_inurba_marseille","lat":43.29717,"lon":5.37701,"is_reserved":false,"is_disabled":false,"rental_uris":{"android":"levelo://app?vid=ae869c74-f328-4c2f-a41c-0bbe39c21c5e","ios":"levelo://app?vid=ae869c74-f328-4c2f-a41c-0bbe39c21c5e"},"vehicle_type_id":"4","last_reported":1745673371,"current_range_meters":15200,"station_id":"ce4bgkh2rcd13ifvqbl0","pricing_plan_id":"cebpf4jnsgd1na2vs0mg"},{"bike_id":"9abf1fb8-c524-49cf-97ef-a5373ae2f7a2","system_id":"levelo_inurba_marseille","lat":43.29557,"lon":5.37535,"is_reserved":false,"is_disabled":false,"rental_uris":{"android":"levelo://app?vid=9abf1fb8-c524-49cf-97ef-a5373ae2f7a2","ios":"levelo://app?vid=9abf1fb8-c524-49cf-97ef-a5373ae2f7a2"},"vehicle_type_id":"4","last_reported":1745673371,"current_range_meters":15200,"station_id":"","pricing_plan_id":"cebpf4jnsgd1na2vs0mg"},{"bike_id":"255beaba-5016-4499-bb9b-9119c5cca6ee","system_id":"levelo_inurba_marseille","lat":43.292721,"lon":5.368491,"is_reserved":false,"is_disabled":false,"rental_uris":{"android":"levelo://app?vid=255beaba-5016-4499-bb9b-9119c5cca6ee","ios":"levelo://app?vid=255beaba-5016-4499-bb9b-9119c5cca6ee"},"vehicle_type_id":"4","last_reported":1745673371,"current_range_meters":16000,"station_id":"ce4bhn12rcd13ifvqgqg","pricing_plan_id":"cebpf4jnsgd1na2vs0mg"},{"bike_id":"ee696d87-e7d6-4c39-91b8-dd13e5f590f1","system_id":"levelo_inurba_marseille","lat":43.292417,"lon":5.382716,"is_reserved":false,"is_disabled":false,"rental_uris":{"android":"levelo://app?vid=ee696d87-e7d6-4c39-91b8-dd13e5f590f1","ios":"levelo://app?vid=ee696d87-e7d6-4c39-91b8-dd13e5f590f1"},"vehicle_type_id":"4","last_reported":1745673371,"current_range_meters":16000,"station_id":"","pricing_plan_id":"cebpf4jnsgd1na2vs0mg"},{"bike_id":"995b3c75-842a-4f35-a681-74bd870769bb","system_id":"levelo_inurba_marseille","lat":43.3052,"lon":5.36532,"is_reserved":false,"is_disabled":false,"rental_uris":{"android":"levelo://app?vid=995b3c75-842a-4f35-a681-74bd870769bb","ios":"levelo://app?vid=995b3c75-842a-4f35-a681-74bd870769bb"},"vehicle_type_id":"4","last_reported":1745673371,"current_range_meters":16000,"station_id":"","pricing_plan_id":"cebpf4jnsgd1na2vs0mg"},{"bike_id":"bc2652db-32ee-450e-8cc0-005a02c1f054","system_id":"levelo_inurba_marseille","lat":43.21195,"lon":5.35076,"is_reserved":false,"is_disabled":false,"rental_uris":{"android":"levelo://app?vid=bc2652db-32ee-450e-8cc0-005a02c1f054","ios":"levelo://app?vid=bc2652db-32ee-450e-8cc0-005a02c1f054"},"vehicle_type_id":"4","last_reported":1745673371,"current_range_meters":16000,"station_id":"st_cvj6sg6p6f1abm77japg","pricing_plan_id":"cebpf4jnsgd1na2vs0mg"},{"bike_id":"4741e6af-20c0-42f4-b950-4d85a1b8cba0","system_id":"levelo_inurba_marseille","lat":43.30831,"lon":5.37897,"is_reserved":false,"is_disabled":false,"rental_uris":{"android":"levelo://app?vid=4741e6af-20c0-42f4-b950-4d85a1b8cba0","ios":"levelo://app?vid=4741e6af-20c0-42f4-b950-4d85a1b8cba0"},"vehicle_type_id":"4","last_reported":1745673371,"current_range_meters":16000,"station_id":"","pricing_plan_id":"cebpf4jnsgd1na2vs0mg"},{"bike_id":"3815c263-b3af-46ad-808c-4511f817e010","system_id":"levelo_inurba_marseille","lat":43.295044,"lon":5.38729,"is_reserved":false,"is_disabled":false,"rental_uris":{"android":"levelo://app?vid=3815c263-b3af-46ad-808c-4511f817e010","ios":"levelo://app?vid=3815c263-b3af-46ad-808c-4511f817e010"},"vehicle_type_id":"4","last_reported":1745673371,"current_range_meters":16000,"station_id":"ce4bh0h2rcd13ifvqd60","pricing_plan_id":"cebpf4jnsgd1na2vs0mg"},{"bike_id":"a8550640-02d1-4490-89db-a13f06f63abc","system_id":"levelo_inurba_marseille","lat":43.32114,"lon":5.36787,"is_reserved":false,"is_disabled":false,"rental_uris":{"android":"levelo://app?vid=a8550640-02d1-4490-89db-a13f06f63abc","ios":"levelo://app?vid=a8550640-02d1-4490-89db-a13f06f63abc"},"vehicle_type_id":"4","last_reported":1745673371,"current_range_meters":16000,"station_id":"ce4bhrh2rcd13ifvqhug","pricing_plan_id":"cebpf4jnsgd1na2vs0mg"},{"bike_id":"352e7244-258c-4727-8328-07ad1e311219","system_id":"levelo_inurba_marseille","lat":43.28437,"lon":5.39203,"is_reserved":false,"is_disabled":false,"rental_uris":{"android":"levelo://app?vid=352e7244-258c-4727-8328-07ad1e311219","ios":"levelo://app?vid=352e7244-258c-4727-8328-07ad1e311219"},"vehicle_type_id":"4","last_reported":1745673371,"current_range_meters":16400,"station_id":"ce4bhoh2rcd13ifvqh5g","pricing_plan_id":"cebpf4jnsgd1na2vs0mg"},{"bike_id":"25013bb2-80c2-4fab-8300-f567f4995705","system_id":"levelo_inurba_marseille","lat":43.24074,"lon":5.3776,"is_reserved":false,"is_disabled":false,"rental_uris":{"android":"levelo://app?vid=25013bb2-80c2-4fab-8300-f567f4995705","ios":"levelo://app?vid=25013bb2-80c2-4fab-8300-f567f4995705"},"vehicle_type_id":"4","last_reported":1745673371,"current_range_meters":16400,"station_id":"ce4bhnp2rcd13ifvqgvg","pricing_plan_id":"cebpf4jnsgd1na2vs0mg"},{"bike_id":"31094790-de6b-4aab-a356-754e014fb877","system_id":"levelo_inurba_marseille","lat":43.26212,"lon":5.37446,"is_reserved":false,"is_disabled":false,"rental_uris":{"android":"levelo://app?vid=31094790-de6b-4aab-a356-754e014fb877","ios":"levelo://app?vid=31094790-de6b-4aab-a356-754e014fb877"},"vehicle_type_id":"4","last_reported":1745673371,"current_range_meters":16400,"station_id":"ce4bhgp2rcd13ifvqfc0","pricing_plan_id":"cebpf4jnsgd1na2vs0mg"},{"bike_id":"83a2e2a0-41a8-4e85-a86a-88186783dbcf","system_id":"levelo_inurba_marseille","lat":43.294052,"lon":5.386144,"is_reserved":false,"is_disabled":false,"rental_uris":{"android":"levelo://app?vid=83a2e2a0-41a8-4e85-a86a-88186783dbcf","ios":"levelo://app?vid=83a2e2a0-41a8-4e85-a86a-88186783dbcf"},"vehicle_type_id":"4","last_reported":1745673371,"current_range_meters":16400,"station_id":"ce4bh2h2rcd13ifvqdh0","pricing_plan_id":"cebpf4jnsgd1na2vs0mg"},{"bike_id":"50c147db-60be-4c88-a5f9-d3b77a033a6f","system_id":"levelo_inurba_marseille","lat":43.24067,"lon":5.37757,"is_reserved":false,"is_disabled":false,"rental_uris":{"android":"levelo://app?vid=50c147db-60be-4c88-a5f9-d3b77a033a6f","ios":"levelo://app?vid=50c147db-60be-4c88-a5f9-d3b77a033a6f"},"vehicle_type_id":"4","last_reported":1745673371,"current_range_meters":16400,"station_id":"ce4bhnp2rcd13ifvqgvg","pricing_plan_id":"cebpf4jnsgd1na2vs0mg"},{"bike_id":"5534b0a9-0930-422c-96ab-97c6915582ca","system_id":"levelo_inurba_marseille","lat":43.29855,"lon":5.36283,"is_reserved":false,"is_disabled":false,"rental_uris":{"android":"levelo://app?vid=5534b0a9-0930-422c-96ab-97c6915582ca","ios":"levelo://app?vid=5534b0a9-0930-422c-96ab-97c6915582ca"},"vehicle_type_id":"4","last_reported":1745673371,"current_range_meters":16400,"station_id":"ce4bgpp2rcd13ifvqc3g","pricing_plan_id":"cebpf4jnsgd1na2vs0mg"},{"bike_id":"1545c628-78da-40c3-8c9e-23e80abea750","system_id":"levelo_inurba_marseille","lat":43.23148,"lon":5.4372,"is_reserved":false,"is_disabled":false,"rental_uris":{"android":"levelo://app?vid=1545c628-78da-40c3-8c9e-23e80abea750","ios":"levelo://app?vid=1545c628-78da-40c3-8c9e-23e80abea750"},"vehicle_type_id":"4","last_reported":1745673371,"current_range_meters":16800,"station_id":"ce4bhmp2rcd13ifvqgog","pricing_plan_id":"cebpf4jnsgd1na2vs0mg"},{"bike_id":"0053b840-de47-4900-98aa-cc8575176b05","system_id":"levelo_inurba_marseille","lat":43.24177,"lon":5.36391,"is_reserved":false,"is_disabled":true,"rental_uris":{"android":"levelo://app?vid=0053b840-de47-4900-98aa-cc8575176b05","ios":"levelo://app?vid=0053b840-de47-4900-98aa-cc8575176b05"},"vehicle_type_id":"4","last_reported":1745673371,"current_range_meters":16800,"station_id":"cpo36qri1sfpv3e86is0","pricing_plan_id":"cebpf4jnsgd1na2vs0mg"},{"bike_id":"a0bf8349-e5bc-415f-b5b1-5baf695221a5","system_id":"levelo_inurba_marseille","lat":43.21744,"lon":5.34601,"is_reserved":false,"is_disabled":false,"rental_uris":{"android":"levelo://app?vid=a0bf8349-e5bc-415f-b5b1-5baf695221a5","ios":"levelo://app?vid=a0bf8349-e5bc-415f-b5b1-5baf695221a5"},"vehicle_type_id":"4","last_reported":1745673371,"current_range_meters":16800,"station_id":"st_cvj6r9ubvosntc0bgbag","pricing_plan_id":"cebpf4jnsgd1na2vs0mg"},{"bike_id":"034fb786-dca4-4585-9d75-dc55c197e9d4","system_id":"levelo_inurba_marseille","lat":43.24184,"lon":5.367906,"is_reserved":false,"is_disabled":false,"rental_uris":{"android":"levelo://app?vid=034fb786-dca4-4585-9d75-dc55c197e9d4","ios":"levelo://app?vid=034fb786-dca4-4585-9d75-dc55c197e9d4"},"vehicle_type_id":"4","last_reported":1745673371,"current_range_meters":16800,"station_id":"ce4bhi12rcd13ifvqfp0","pricing_plan_id":"cebpf4jnsgd1na2vs0mg"},{"bike_id":"314a7709-793a-4cd8-a4f0-aa8320fcf0cb","system_id":"levelo_inurba_marseille","lat":43.27491,"lon":5.4245,"is_reserved":false,"is_disabled":false,"rental_uris":{"android":"levelo://app?vid=314a7709-793a-4cd8-a4f0-aa8320fcf0cb","ios":"levelo://app?vid=314a7709-793a-4cd8-a4f0-aa8320fcf0cb"},"vehicle_type_id":"4","last_reported":1745673371,"current_range_meters":16800,"station_id":"ce4bhn92rcd13ifvqgrg","pricing_plan_id":"cebpf4jnsgd1na2vs0mg"},{"bike_id":"d0d7e6e2-cfae-4f63-b676-9b779f78a3a8","system_id":"levelo_inurba_marseille","lat":43.22929,"lon":5.35382,"is_reserved":false,"is_disabled":false,"rental_uris":{"android":"levelo://app?vid=d0d7e6e2-cfae-4f63-b676-9b779f78a3a8","ios":"levelo://app?vid=d0d7e6e2-cfae-4f63-b676-9b779f78a3a8"},"vehicle_type_id":"4","last_reported":1745673371,"current_range_meters":16800,"station_id":"cpo3532slgdg3j2ikp40","pricing_plan_id":"cebpf4jnsgd1na2vs0mg"},{"bike_id":"134b2252-657f-4971-8023-4d50b879a189","system_id":"levelo_inurba_marseille","lat":43.31489,"lon":5.37307,"is_reserved":false,"is_disabled":false,"rental_uris":{"android":"levelo://app?vid=134b2252-657f-4971-8023-4d50b879a189","ios":"levelo://app?vid=134b2252-657f-4971-8023-4d50b879a189"},"vehicle_type_id":"4","last_reported":1745673371,"current_range_meters":16800,"station_id":"ce4bgt12rcd13ifvqcd0","pricing_plan_id":"cebpf4jnsgd1na2vs0mg"},{"bike_id":"87226611-7c51-4f9a-b70b-2b3b2a8107d2","system_id":"levelo_inurba_marseille","lat":43.29792,"lon":5.40396,"is_reserved":false,"is_disabled":false,"rental_uris":{"android":"levelo://app?vid=87226611-7c51-4f9a-b70b-2b3b2a8107d2","ios":"levelo://app?vid=87226611-7c51-4f9a-b70b-2b3b2a8107d2"},"vehicle_type_id":"4","last_reported":1745673371,"current_range_meters":17200,"station_id":"ce4bh112rcd13ifvqd90","pricing_plan_id":"cebpf4jnsgd1na2vs0mg"},{"bike_id":"009a8a5d-83ec-46cb-a414-066161a3ad60","system_id":"levelo_inurba_marseille","lat":43.27698,"lon":5.38894,"is_reserved":false,"is_disabled":false,"rental_uris":{"android":"levelo://app?vid=009a8a5d-83ec-46cb-a414-066161a3ad60","ios":"levelo://app?vid=009a8a5d-83ec-46cb-a414-066161a3ad60"},"vehicle_type_id":"4","last_reported":1745673371,"current_range_meters":16800,"station_id":"ce4bhi12rcd13ifvqfo0","pricing_plan_id":"cebpf4jnsgd1na2vs0mg"},{"bike_id":"ff62f4a5-1ab4-478c-bc80-e9e117f7ac70","system_id":"levelo_inurba_marseille","lat":43.29589,"lon":5.37723,"is_reserved":false,"is_disabled":false,"rental_uris":{"android":"levelo://app?vid=ff62f4a5-1ab4-478c-bc80-e9e117f7ac70","ios":"levelo://app?vid=ff62f4a5-1ab4-478c-bc80-e9e117f7ac70"},"vehicle_type_id":"4","last_reported":1745673371,"current_range_meters":17200,"station_id":"ce4bgi92rcd13ifvqb90","pricing_plan_id":"cebpf4jnsgd1na2vs0mg"},{"bike_id":"a08e6535-7d97-4f82-b424-5e6daf2d2362","system_id":"levelo_inurba_marseille","lat":43.295111,"lon":5.393973,"is_reserved":false,"is_disabled":true,"rental_uris":{"android":"levelo://app?vid=a08e6535-7d97-4f82-b424-5e6daf2d2362","ios":"levelo://app?vid=a08e6535-7d97-4f82-b424-5e6daf2d2362"},"vehicle_type_id":"4","last_reported":1745673371,"current_range_meters":17200,"station_id":"ce4bh292rcd13ifvqdf0","pricing_plan_id":"cebpf4jnsgd1na2vs0mg"},{"bike_id":"328b4f96-a814-4488-ab83-cac4e7dc04e2","system_id":"levelo_inurba_marseille","lat":43.2293,"lon":5.35386,"is_reserved":false,"is_disabled":false,"rental_uris":{"android":"levelo://app?vid=328b4f96-a814-4488-ab83-cac4e7dc04e2","ios":"levelo://app?vid=328b4f96-a814-4488-ab83-cac4e7dc04e2"},"vehicle_type_id":"4","last_reported":1745673371,"current_range_meters":17200,"station_id":"cpo3532slgdg3j2ikp40","pricing_plan_id":"cebpf4jnsgd1na2vs0mg"},{"bike_id":"49535e0a-a385-492b-b94b-5bfe3539f86b","system_id":"levelo_inurba_marseille","lat":43.28688,"lon":5.37392,"is_reserved":false,"is_disabled":false,"rental_uris":{"android":"levelo://app?vid=49535e0a-a385-492b-b94b-5bfe3539f86b","ios":"levelo://app?vid=49535e0a-a385-492b-b94b-5bfe3539f86b"},"vehicle_type_id":"4","last_reported":1745673371,"current_range_meters":17200,"station_id":"ce4bh3p2rcd13ifvqdq0","pricing_plan_id":"cebpf4jnsgd1na2vs0mg"},{"bike_id":"22244b37-2307-4723-9a75-0269344eab29","system_id":"levelo_inurba_marseille","lat":43.2622,"lon":5.37435,"is_reserved":false,"is_disabled":false,"rental_uris":{"android":"levelo://app?vid=22244b37-2307-4723-9a75-0269344eab29","ios":"levelo://app?vid=22244b37-2307-4723-9a75-0269344eab29"},"vehicle_type_id":"4","last_reported":1745673371,"current_range_meters":17200,"station_id":"ce4bhgp2rcd13ifvqfc0","pricing_plan_id":"cebpf4jnsgd1na2vs0mg"},{"bike_id":"e17b134d-7e7d-4aae-8cf2-86580465b00b","system_id":"levelo_inurba_marseille","lat":43.29857,"lon":5.36267,"is_reserved":false,"is_disabled":false,"rental_uris":{"android":"levelo://app?vid=e17b134d-7e7d-4aae-8cf2-86580465b00b","ios":"levelo://app?vid=e17b134d-7e7d-4aae-8cf2-86580465b00b"},"vehicle_type_id":"4","last_reported":1745673371,"current_range_meters":17200,"station_id":"ce4bgpp2rcd13ifvqc3g","pricing_plan_id":"cebpf4jnsgd1na2vs0mg"},{"bike_id":"26dc70e9-1c4c-4ff4-9ddf-481946653f76","system_id":"levelo_inurba_marseille","lat":43.28045,"lon":5.39675,"is_reserved":false,"is_disabled":false,"rental_uris":{"android":"levelo://app?vid=26dc70e9-1c4c-4ff4-9ddf-481946653f76","ios":"levelo://app?vid=26dc70e9-1c4c-4ff4-9ddf-481946653f76"},"vehicle_type_id":"4","last_reported":1745673371,"current_range_meters":17600,"station_id":"ce4bho12rcd13ifvqh2g","pricing_plan_id":"cebpf4jnsgd1na2vs0mg"},{"bike_id":"ba830dc3-01a5-4411-affb-d1bb7d19d1d5","system_id":"levelo_inurba_marseille","lat":43.29974,"lon":5.38483,"is_reserved":false,"is_disabled":false,"rental_uris":{"android":"levelo://app?vid=ba830dc3-01a5-4411-affb-d1bb7d19d1d5","ios":"levelo://app?vid=ba830dc3-01a5-4411-affb-d1bb7d19d1d5"},"vehicle_type_id":"4","last_reported":1745673371,"current_range_meters":17600,"station_id":"ce4bgj92rcd13ifvqbd0","pricing_plan_id":"cebpf4jnsgd1na2vs0mg"},{"bike_id":"d82d573c-5f64-4664-b714-12e30f87ce49","system_id":"levelo_inurba_marseille","lat":43.32107,"lon":5.36766,"is_reserved":false,"is_disabled":false,"rental_uris":{"android":"levelo://app?vid=d82d573c-5f64-4664-b714-12e30f87ce49","ios":"levelo://app?vid=d82d573c-5f64-4664-b714-12e30f87ce49"},"vehicle_type_id":"4","last_reported":1745673371,"current_range_meters":17600,"station_id":"ce4bhrh2rcd13ifvqhug","pricing_plan_id":"cebpf4jnsgd1na2vs0mg"},{"bike_id":"0e18cd15-de4a-4606-8d6f-7e2903882f46","system_id":"levelo_inurba_marseille","lat":43.29638,"lon":5.37149,"is_reserved":false,"is_disabled":false,"rental_uris":{"android":"levelo://app?vid=0e18cd15-de4a-4606-8d6f-7e2903882f46","ios":"levelo://app?vid=0e18cd15-de4a-4606-8d6f-7e2903882f46"},"vehicle_type_id":"4","last_reported":1745673371,"current_range_meters":17600,"station_id":"","pricing_plan_id":"cebpf4jnsgd1na2vs0mg"},{"bike_id":"c41c7dcb-05d5-4db6-815f-26c60a5d2e9e","system_id":"levelo_inurba_marseille","lat":43.21731,"lon":5.34629,"is_reserved":false,"is_disabled":false,"rental_uris":{"android":"levelo://app?vid=c41c7dcb-05d5-4db6-815f-26c60a5d2e9e","ios":"levelo://app?vid=c41c7dcb-05d5-4db6-815f-26c60a5d2e9e"},"vehicle_type_id":"4","last_reported":1745673371,"current_range_meters":17600,"station_id":"st_cvj6r9ubvosntc0bgbag","pricing_plan_id":"cebpf4jnsgd1na2vs0mg"},{"bike_id":"9de9d996-1620-4858-b125-d2c76650648e","system_id":"levelo_inurba_marseille","lat":43.26033,"lon":5.37549,"is_reserved":false,"is_disabled":false,"rental_uris":{"android":"levelo://app?vid=9de9d996-1620-4858-b125-d2c76650648e","ios":"levelo://app?vid=9de9d996-1620-4858-b125-d2c76650648e"},"vehicle_type_id":"4","last_reported":1745673371,"current_range_meters":17600,"station_id":"ce4bhgh2rcd13ifvqfa0","pricing_plan_id":"cebpf4jnsgd1na2vs0mg"},{"bike_id":"afd33670-82f7-4c5c-9029-2dc1c34e85e4","system_id":"levelo_inurba_marseille","lat":43.28761,"lon":5.39671,"is_reserved":false,"is_disabled":false,"rental_uris":{"android":"levelo://app?vid=afd33670-82f7-4c5c-9029-2dc1c34e85e4","ios":"levelo://app?vid=afd33670-82f7-4c5c-9029-2dc1c34e85e4"},"vehicle_type_id":"4","last_reported":1745673371,"current_range_meters":17600,"station_id":"","pricing_plan_id":"cebpf4jnsgd1na2vs0mg"},{"bike_id":"127900f2-8e5c-4b23-89a9-4d15e4c66919","system_id":"levelo_inurba_marseille","lat":43.23149,"lon":5.4372,"is_reserved":false,"is_disabled":false,"rental_uris":{"android":"levelo://app?vid=127900f2-8e5c-4b23-89a9-4d15e4c66919","ios":"levelo://app?vid=127900f2-8e5c-4b23-89a9-4d15e4c66919"},"vehicle_type_id":"4","last_reported":1745673371,"current_range_meters":18000,"station_id":"ce4bhmp2rcd13ifvqgog","pricing_plan_id":"cebpf4jnsgd1na2vs0mg"},{"bike_id":"fa43f1ae-5eb7-40e2-a1a3-255bc974b399","system_id":"levelo_inurba_marseille","lat":43.29554,"lon":5.42291,"is_reserved":false,"is_disabled":false,"rental_uris":{"android":"levelo://app?vid=fa43f1ae-5eb7-40e2-a1a3-255bc974b399","ios":"levelo://app?vid=fa43f1ae-5eb7-40e2-a1a3-255bc974b399"},"vehicle_type_id":"4","last_reported":1745673371,"current_range_meters":18000,"station_id":"ce4bhph2rcd13ifvqhdg","pricing_plan_id":"cebpf4jnsgd1na2vs0mg"},{"bike_id":"1e263bea-52b3-471c-b96a-b7b6375c7640","system_id":"levelo_inurba_marseille","lat":43.29694,"lon":5.37304,"is_reserved":false,"is_disabled":false,"rental_uris":{"android":"levelo://app?vid=1e263bea-52b3-471c-b96a-b7b6375c7640","ios":"levelo://app?vid=1e263bea-52b3-471c-b96a-b7b6375c7640"},"vehicle_type_id":"4","last_reported":1745673371,"current_range_meters":17600,"station_id":"ce4bgk12rcd13ifvqbj0","pricing_plan_id":"cebpf4jnsgd1na2vs0mg"},{"bike_id":"d5bc341f-2483-4765-a298-7312fe94908c","system_id":"levelo_inurba_marseille","lat":43.312525,"lon":5.368533,"is_reserved":false,"is_disabled":false,"rental_uris":{"android":"levelo://app?vid=d5bc341f-2483-4765-a298-7312fe94908c","ios":"levelo://app?vid=d5bc341f-2483-4765-a298-7312fe94908c"},"vehicle_type_id":"4","last_reported":1745673371,"current_range_meters":18000,"station_id":"ce4bgl92rcd13ifvqbq0","pricing_plan_id":"cebpf4jnsgd1na2vs0mg"},{"bike_id":"560f12bb-1614-4d7c-b78e-ccf5bdec9ea6","system_id":"levelo_inurba_marseille","lat":43.28477,"lon":5.35876,"is_reserved":false,"is_disabled":true,"rental_uris":{"android":"levelo://app?vid=560f12bb-1614-4d7c-b78e-ccf5bdec9ea6","ios":"levelo://app?vid=560f12bb-1614-4d7c-b78e-ccf5bdec9ea6"},"vehicle_type_id":"4","last_reported":1745673371,"current_range_meters":18000,"station_id":"ce4bhah2rcd13ifvqei0","pricing_plan_id":"cebpf4jnsgd1na2vs0mg"},{"bike_id":"aa0a0acb-a19a-4569-9f7e-6c492cc43a49","system_id":"levelo_inurba_marseille","lat":43.28501,"lon":5.38427,"is_reserved":false,"is_disabled":false,"rental_uris":{"android":"levelo://app?vid=aa0a0acb-a19a-4569-9f7e-6c492cc43a49","ios":"levelo://app?vid=aa0a0acb-a19a-4569-9f7e-6c492cc43a49"},"vehicle_type_id":"4","last_reported":1745673371,"current_range_meters":18000,"station_id":"ce4bh512rcd13ifvqe3g","pricing_plan_id":"cebpf4jnsgd1na2vs0mg"},{"bike_id":"0e96c8db-53ec-48cc-9089-e715927f4e1f","system_id":"levelo_inurba_marseille","lat":43.2396,"lon":5.36633,"is_reserved":false,"is_disabled":false,"rental_uris":{"android":"levelo://app?vid=0e96c8db-53ec-48cc-9089-e715927f4e1f","ios":"levelo://app?vid=0e96c8db-53ec-48cc-9089-e715927f4e1f"},"vehicle_type_id":"4","last_reported":1745673371,"current_range_meters":18800,"station_id":"ce4bhi12rcd13ifvqfp0","pricing_plan_id":"cebpf4jnsgd1na2vs0mg"},{"bike_id":"9400eaf0-9994-4b35-85ce-22818c9143cc","system_id":"levelo_inurba_marseille","lat":43.24169,"lon":5.36385,"is_reserved":false,"is_disabled":false,"rental_uris":{"android":"levelo://app?vid=9400eaf0-9994-4b35-85ce-22818c9143cc","ios":"levelo://app?vid=9400eaf0-9994-4b35-85ce-22818c9143cc"},"vehicle_type_id":"4","last_reported":1745673371,"current_range_meters":18800,"station_id":"cpo36qri1sfpv3e86is0","pricing_plan_id":"cebpf4jnsgd1na2vs0mg"},{"bike_id":"f8ff2426-4922-4e25-ac76-0a1d3b28ce02","system_id":"levelo_inurba_marseille","lat":43.29554,"lon":5.42289,"is_reserved":false,"is_disabled":false,"rental_uris":{"android":"levelo://app?vid=f8ff2426-4922-4e25-ac76-0a1d3b28ce02","ios":"levelo://app?vid=f8ff2426-4922-4e25-ac76-0a1d3b28ce02"},"vehicle_type_id":"4","last_reported":1745673371,"current_range_meters":18800,"station_id":"ce4bhph2rcd13ifvqhdg","pricing_plan_id":"cebpf4jnsgd1na2vs0mg"},{"bike_id":"37ccc92f-4e28-421b-afcd-a8748a8ad998","system_id":"levelo_inurba_marseille","lat":43.29554,"lon":5.4229,"is_reserved":false,"is_disabled":false,"rental_uris":{"android":"levelo://app?vid=37ccc92f-4e28-421b-afcd-a8748a8ad998","ios":"levelo://app?vid=37ccc92f-4e28-421b-afcd-a8748a8ad998"},"vehicle_type_id":"4","last_reported":1745673371,"current_range_meters":18800,"station_id":"ce4bhph2rcd13ifvqhdg","pricing_plan_id":"cebpf4jnsgd1na2vs0mg"},{"bike_id":"1f84cc73-fbc1-48cd-a813-573f806732aa","system_id":"levelo_inurba_marseille","lat":43.302208,"lon":5.394612,"is_reserved":false,"is_disabled":false,"rental_uris":{"android":"levelo://app?vid=1f84cc73-fbc1-48cd-a813-573f806732aa","ios":"levelo://app?vid=1f84cc73-fbc1-48cd-a813-573f806732aa"},"vehicle_type_id":"4","last_reported":1745673371,"current_range_meters":19200,"station_id":"ce4bh0p2rcd13ifvqd70","pricing_plan_id":"cebpf4jnsgd1na2vs0mg"},{"bike_id":"a268bf56-2984-4f4e-9ea7-f3f35ee18eb3","system_id":"levelo_inurba_marseille","lat":43.23147,"lon":5.43713,"is_reserved":false,"is_disabled":false,"rental_uris":{"android":"levelo://app?vid=a268bf56-2984-4f4e-9ea7-f3f35ee18eb3","ios":"levelo://app?vid=a268bf56-2984-4f4e-9ea7-f3f35ee18eb3"},"vehicle_type_id":"4","last_reported":1745673371,"current_range_meters":19200,"station_id":"ce4bhmp2rcd13ifvqgog","pricing_plan_id":"cebpf4jnsgd1na2vs0mg"},{"bike_id":"c2afd97f-df2b-4bbd-a07b-2b7b9d12cbfb","system_id":"levelo_inurba_marseille","lat":43.2948,"lon":5.39538,"is_reserved":false,"is_disabled":false,"rental_uris":{"android":"levelo://app?vid=c2afd97f-df2b-4bbd-a07b-2b7b9d12cbfb","ios":"levelo://app?vid=c2afd97f-df2b-4bbd-a07b-2b7b9d12cbfb"},"vehicle_type_id":"4","last_reported":1745673371,"current_range_meters":19200,"station_id":"","pricing_plan_id":"cebpf4jnsgd1na2vs0mg"},{"bike_id":"c8c2214a-a75d-42db-be03-8e2b05638958","system_id":"levelo_inurba_marseille","lat":43.26205,"lon":5.37458,"is_reserved":false,"is_disabled":false,"rental_uris":{"android":"levelo://app?vid=c8c2214a-a75d-42db-be03-8e2b05638958","ios":"levelo://app?vid=c8c2214a-a75d-42db-be03-8e2b05638958"},"vehicle_type_id":"4","last_reported":1745673371,"current_range_meters":19200,"station_id":"ce4bhgp2rcd13ifvqfc0","pricing_plan_id":"cebpf4jnsgd1na2vs0mg"},{"bike_id":"0d777af5-4166-475a-a6b9-6a0197032592","system_id":"levelo_inurba_marseille","lat":43.23265,"lon":5.35208,"is_reserved":false,"is_disabled":false,"rental_uris":{"android":"levelo://app?vid=0d777af5-4166-475a-a6b9-6a0197032592","ios":"levelo://app?vid=0d777af5-4166-475a-a6b9-6a0197032592"},"vehicle_type_id":"4","last_reported":1745673371,"current_range_meters":19600,"station_id":"","pricing_plan_id":"cebpf4jnsgd1na2vs0mg"},{"bike_id":"ac4c4173-35f2-480f-a156-1e96630b45e8","system_id":"levelo_inurba_marseille","lat":43.24067,"lon":5.37749,"is_reserved":false,"is_disabled":false,"rental_uris":{"android":"levelo://app?vid=ac4c4173-35f2-480f-a156-1e96630b45e8","ios":"levelo://app?vid=ac4c4173-35f2-480f-a156-1e96630b45e8"},"vehicle_type_id":"4","last_reported":1745673371,"current_range_meters":19600,"station_id":"ce4bhnp2rcd13ifvqgvg","pricing_plan_id":"cebpf4jnsgd1na2vs0mg"},{"bike_id":"429a2824-25d3-4e87-8865-ec398d90ebca","system_id":"levelo_inurba_marseille","lat":43.21194,"lon":5.35069,"is_reserved":false,"is_disabled":false,"rental_uris":{"android":"levelo://app?vid=429a2824-25d3-4e87-8865-ec398d90ebca","ios":"levelo://app?vid=429a2824-25d3-4e87-8865-ec398d90ebca"},"vehicle_type_id":"4","last_reported":1745673371,"current_range_meters":19600,"station_id":"st_cvj6sg6p6f1abm77japg","pricing_plan_id":"cebpf4jnsgd1na2vs0mg"},{"bike_id":"16de5f5b-a067-4942-a151-1c7eb80bc039","system_id":"levelo_inurba_marseille","lat":43.30126,"lon":5.39858,"is_reserved":false,"is_disabled":false,"rental_uris":{"android":"levelo://app?vid=16de5f5b-a067-4942-a151-1c7eb80bc039","ios":"levelo://app?vid=16de5f5b-a067-4942-a151-1c7eb80bc039"},"vehicle_type_id":"4","last_reported":1745673371,"current_range_meters":19200,"station_id":"ce4bh0h2rcd13ifvqd40","pricing_plan_id":"cebpf4jnsgd1na2vs0mg"},{"bike_id":"973fba39-5055-4182-bd73-b89ba9e5af9c","system_id":"levelo_inurba_marseille","lat":43.2315,"lon":5.43713,"is_reserved":false,"is_disabled":false,"rental_uris":{"android":"levelo://app?vid=973fba39-5055-4182-bd73-b89ba9e5af9c","ios":"levelo://app?vid=973fba39-5055-4182-bd73-b89ba9e5af9c"},"vehicle_type_id":"4","last_reported":1745673371,"current_range_meters":19600,"station_id":"ce4bhmp2rcd13ifvqgog","pricing_plan_id":"cebpf4jnsgd1na2vs0mg"},{"bike_id":"fe81b107-2e23-4c2c-994c-3f4bb50f297c","system_id":"levelo_inurba_marseille","lat":43.24551,"lon":5.39529,"is_reserved":false,"is_disabled":false,"rental_uris":{"android":"levelo://app?vid=fe81b107-2e23-4c2c-994c-3f4bb50f297c","ios":"levelo://app?vid=fe81b107-2e23-4c2c-994c-3f4bb50f297c"},"vehicle_type_id":"4","last_reported":1745673371,"current_range_meters":19200,"station_id":"ce4bhlp2rcd13ifvqgjg","pricing_plan_id":"cebpf4jnsgd1na2vs0mg"},{"bike_id":"3ad35c25-d89f-4ea6-848b-393a00786d79","system_id":"levelo_inurba_marseille","lat":43.29868,"lon":5.42065,"is_reserved":false,"is_disabled":false,"rental_uris":{"android":"levelo://app?vid=3ad35c25-d89f-4ea6-848b-393a00786d79","ios":"levelo://app?vid=3ad35c25-d89f-4ea6-848b-393a00786d79"},"vehicle_type_id":"4","last_reported":1745673371,"current_range_meters":19600,"station_id":"","pricing_plan_id":"cebpf4jnsgd1na2vs0mg"},{"bike_id":"5d79860b-862b-4615-8be3-10b552f4fb39","system_id":"levelo_inurba_marseille","lat":43.26219,"lon":5.37439,"is_reserved":false,"is_disabled":false,"rental_uris":{"android":"levelo://app?vid=5d79860b-862b-4615-8be3-10b552f4fb39","ios":"levelo://app?vid=5d79860b-862b-4615-8be3-10b552f4fb39"},"vehicle_type_id":"4","last_reported":1745673371,"current_range_meters":20000,"station_id":"ce4bhgp2rcd13ifvqfc0","pricing_plan_id":"cebpf4jnsgd1na2vs0mg"},{"bike_id":"69d66a9d-b919-4160-998e-9203f227910d","system_id":"levelo_inurba_marseille","lat":43.2417,"lon":5.36386,"is_reserved":false,"is_disabled":false,"rental_uris":{"android":"levelo://app?vid=69d66a9d-b919-4160-998e-9203f227910d","ios":"levelo://app?vid=69d66a9d-b919-4160-998e-9203f227910d"},"vehicle_type_id":"4","last_reported":1745673371,"current_range_meters":20000,"station_id":"cpo36qri1sfpv3e86is0","pricing_plan_id":"cebpf4jnsgd1na2vs0mg"},{"bike_id":"f815ac98-ed77-424b-acb4-2f11680a91cc","system_id":"levelo_inurba_marseille","lat":43.21199,"lon":5.35049,"is_reserved":false,"is_disabled":false,"rental_uris":{"android":"levelo://app?vid=f815ac98-ed77-424b-acb4-2f11680a91cc","ios":"levelo://app?vid=f815ac98-ed77-424b-acb4-2f11680a91cc"},"vehicle_type_id":"4","last_reported":1745673371,"current_range_meters":20000,"station_id":"st_cvj6sg6p6f1abm77japg","pricing_plan_id":"cebpf4jnsgd1na2vs0mg"},{"bike_id":"bc356e07-c6ac-43e7-a3c5-5552446665e5","system_id":"levelo_inurba_marseille","lat":43.30988,"lon":5.4173,"is_reserved":false,"is_disabled":false,"rental_uris":{"android":"levelo://app?vid=bc356e07-c6ac-43e7-a3c5-5552446665e5","ios":"levelo://app?vid=bc356e07-c6ac-43e7-a3c5-5552446665e5"},"vehicle_type_id":"4","last_reported":1745673371,"current_range_meters":20000,"station_id":"","pricing_plan_id":"cebpf4jnsgd1na2vs0mg"},{"bike_id":"35aa685e-037f-454e-b3a1-1b8395f94f5b","system_id":"levelo_inurba_marseille","lat":43.23153,"lon":5.43709,"is_reserved":false,"is_disabled":false,"rental_uris":{"android":"levelo://app?vid=35aa685e-037f-454e-b3a1-1b8395f94f5b","ios":"levelo://app?vid=35aa685e-037f-454e-b3a1-1b8395f94f5b"},"vehicle_type_id":"4","last_reported":1745673371,"current_range_meters":20000,"station_id":"ce4bhmp2rcd13ifvqgog","pricing_plan_id":"cebpf4jnsgd1na2vs0mg"},{"bike_id":"0f2204ff-cd77-4ee8-8384-343d95025424","system_id":"levelo_inurba_marseille","lat":43.21744,"lon":5.34602,"is_reserved":false,"is_disabled":false,"rental_uris":{"android":"levelo://app?vid=0f2204ff-cd77-4ee8-8384-343d95025424","ios":"levelo://app?vid=0f2204ff-cd77-4ee8-8384-343d95025424"},"vehicle_type_id":"4","last_reported":1745673371,"current_range_meters":20000,"station_id":"st_cvj6r9ubvosntc0bgbag","pricing_plan_id":"cebpf4jnsgd1na2vs0mg"},{"bike_id":"5df060f2-0f6e-4f72-b0d2-e1a141c60ecd","system_id":"levelo_inurba_marseille","lat":43.30474,"lon":5.37904,"is_reserved":false,"is_disabled":false,"rental_uris":{"android":"levelo://app?vid=5df060f2-0f6e-4f72-b0d2-e1a141c60ecd","ios":"levelo://app?vid=5df060f2-0f6e-4f72-b0d2-e1a141c60ecd"},"vehicle_type_id":"4","last_reported":1745673371,"current_range_meters":20000,"station_id":"ce4bgup2rcd13ifvqcn0","pricing_plan_id":"cebpf4jnsgd1na2vs0mg"},{"bike_id":"389fa13e-9fb8-4551-94cc-3437e858ed36","system_id":"levelo_inurba_marseille","lat":43.24175,"lon":5.36396,"is_reserved":false,"is_disabled":false,"rental_uris":{"android":"levelo://app?vid=389fa13e-9fb8-4551-94cc-3437e858ed36","ios":"levelo://app?vid=389fa13e-9fb8-4551-94cc-3437e858ed36"},"vehicle_type_id":"4","last_reported":1745673371,"current_range_meters":20000,"station_id":"cpo36qri1sfpv3e86is0","pricing_plan_id":"cebpf4jnsgd1na2vs0mg"},{"bike_id":"4caaa821-0e40-44f6-8f8c-f73f5db245b1","system_id":"levelo_inurba_marseille","lat":43.3021,"lon":5.39455,"is_reserved":false,"is_disabled":false,"rental_uris":{"android":"levelo://app?vid=4caaa821-0e40-44f6-8f8c-f73f5db245b1","ios":"levelo://app?vid=4caaa821-0e40-44f6-8f8c-f73f5db245b1"},"vehicle_type_id":"4","last_reported":1745673371,"current_range_meters":20000,"station_id":"ce4bh0p2rcd13ifvqd70","pricing_plan_id":"cebpf4jnsgd1na2vs0mg"},{"bike_id":"eea30f24-d512-45cd-bc9a-de9db826fe01","system_id":"levelo_inurba_marseille","lat":43.21751,"lon":5.346,"is_reserved":false,"is_disabled":false,"rental_uris":{"android":"levelo://app?vid=eea30f24-d512-45cd-bc9a-de9db826fe01","ios":"levelo://app?vid=eea30f24-d512-45cd-bc9a-de9db826fe01"},"vehicle_type_id":"4","last_reported":1745673371,"current_range_meters":20000,"station_id":"st_cvj6r9ubvosntc0bgbag","pricing_plan_id":"cebpf4jnsgd1na2vs0mg"},{"bike_id":"a296941e-f4f1-4bda-a185-081505669c38","system_id":"levelo_inurba_marseille","lat":43.29197,"lon":5.35806,"is_reserved":false,"is_disabled":false,"rental_uris":{"android":"levelo://app?vid=a296941e-f4f1-4bda-a185-081505669c38","ios":"levelo://app?vid=a296941e-f4f1-4bda-a185-081505669c38"},"vehicle_type_id":"4","last_reported":1745673371,"current_range_meters":20400,"station_id":"ce4bhb12rcd13ifvqel0","pricing_plan_id":"cebpf4jnsgd1na2vs0mg"},{"bike_id":"2cc399f1-cfec-43b9-bbd7-2351fafd5194","system_id":"levelo_inurba_marseille","lat":43.22495,"lon":5.34802,"is_reserved":false,"is_disabled":false,"rental_uris":{"android":"levelo://app?vid=2cc399f1-cfec-43b9-bbd7-2351fafd5194","ios":"levelo://app?vid=2cc399f1-cfec-43b9-bbd7-2351fafd5194"},"vehicle_type_id":"4","last_reported":1745673371,"current_range_meters":20400,"station_id":"st_cvj5dfep6f1abm77gieg","pricing_plan_id":"cebpf4jnsgd1na2vs0mg"},{"bike_id":"038e376b-90b0-489a-9d43-27e61b371259","system_id":"levelo_inurba_marseille","lat":43.27983,"lon":5.38728,"is_reserved":false,"is_disabled":false,"rental_uris":{"android":"levelo://app?vid=038e376b-90b0-489a-9d43-27e61b371259","ios":"levelo://app?vid=038e376b-90b0-489a-9d43-27e61b371259"},"vehicle_type_id":"4","last_reported":1745673371,"current_range_meters":20400,"station_id":"ce4bhg12rcd13ifvqf80","pricing_plan_id":"cebpf4jnsgd1na2vs0mg"},{"bike_id":"f5181ff8-3bea-459d-9bd7-848090e8ed24","system_id":"levelo_inurba_marseille","lat":43.26553,"lon":5.37328,"is_reserved":false,"is_disabled":false,"rental_uris":{"android":"levelo://app?vid=f5181ff8-3bea-459d-9bd7-848090e8ed24","ios":"levelo://app?vid=f5181ff8-3bea-459d-9bd7-848090e8ed24"},