{"last_updated":1758806541,"ttl":60,"version":"2.2","data":{"bikes":[{"bike_id":"8816edf3-5975-4886-a4f6-d7a9d85e1a31","system_id":"levelo_inurba_marseille","lat":43.285668,"lon":5.394969,"is_reserved":false,"is_disabled":false,"rental_uris":{"android":"levelo://app?vid=8816edf3-5975-4886-a4f6-d7a9d85e1a31","ios":"levelo://app?vid=8816edf3-5975-4886-a4f6-d7a9d85e1a31"},"vehicle_type_id":"4","last_reported":1758806541,"current_range_meters":2800,"station_id":"ce4bh292rcd13ifvqdg0","pricing_plan_id":"cebpf4jnsgd1na2vs0mg"},{"bike_id":"dfa2e0eb-c01c-40f5-bdf0-94cf19dc56f0","system_id":"levelo_inurba_marseille","lat":43.250926,"lon":5.395241,"is_reserved":false,"is_disabled":false,"rental_uris":{"android":"levelo://app?vid=dfa2e0eb-c01c-40f5-bdf0-94cf19dc56f0","ios":"levelo://app?vid=dfa2e0eb-c01c-40f5-bdf0-94cf19dc56f0"},"vehicle_type_id":"4","last_reported":1758806541,"current_range_meters":3200,"station_id":"","pricing_plan_id":"cebpf4jnsgd1na2vs0mg"},{"bike_id":"6d255a64-409e-42dd-9f6f-68e808e841e6","system_id":"levelo_inurba_marseille","lat":43.30527,"lon":5.36526,"is_reserved":false,"is_disabled":false,"rental_uris":{"android":"levelo://app?vid=6d255a64-409e-42dd-9f6f-68e808e841e6","ios":"levelo://app?vid=6d255a64-409e-42dd-9f6f-68e808e841e6"},"vehicle_type_id":"4","last_reported":1758806541,"current_range_meters":3200,"station_id":"ce4bgs12rcd13ifvqcag","pricing_plan_id":"cebpf4jnsgd1na2vs0mg"},{"bike_id":"e34602d9-d510-47e8-b0f3-643375abe118","system_id":"levelo_inurba_marseille","lat":43.30557,"lon":5.36536,"is_reserved":false,"is_disabled":false,"rental_uris":{"android":"levelo://app?vid=e34602d9-d510-47e8-b0f3-643375abe118","ios":"levelo://app?vid=e34602d9-d510-47e8-b0f3-643375abe118"},"vehicle_type_id":"4","last_reported":1758806541,"current_range_meters":3200,"station_id":"ce4bgs12rcd13ifvqcag","pricing_plan_id":"cebpf4jnsgd1na2vs0mg"},{"bike_id":"02f86840-ee2f-4570-809c-abc9bae8520a","system_id":"levelo_inurba_marseille","lat":43.29535,"lon":5.38531,"is_reserved":false,"is_disabled":false,"rental_uris":{"android":"levelo://app?vid=02f86840-ee2f-4570-809c-abc9bae8520a","ios":"levelo://app?vid=02f86840-ee2f-4570-809c-abc9bae8520a"},"vehicle_type_id":"4","last_reported":1758806541,"current_range_meters":3200,"station_id":"ce4bgih2rcd13ifvqba0","pricing_plan_id":"cebpf4jnsgd1na2vs0mg"},{"bike_id":"9446425e-0a86-42ae-bc3c-f72ad738e590","system_id":"levelo_inurba_marseille","lat":43.33657,"lon":5.36291,"is_reserved":false,"is_disabled":false,"rental_uris":{"android":"levelo://app?vid=9446425e-0a86-42ae-bc3c-f72ad738e590","ios":"levelo://app?vid=9446425e-0a86-42ae-bc3c-f72ad738e590"},"vehicle_type_id":"4","last_reported":1758806541,"current_range_meters":3600,"station_id":"","pricing_plan_id":"cebpf4jnsgd1na2vs0mg"},{"bike_id":"e551e9da-2779-4ca2-92a2-1a8a6f52aaa0","system_id":"levelo_inurba_marseille","lat":43.297975,"lon":5.404073,"is_reserved":false,"is_disabled":false,"rental_uris":{"android":"levelo://app?vid=e551e9da-2779-4ca2-92a2-1a8a6f52aaa0","ios":"levelo://app?vid=e551e9da-2779-4ca2-92a2-1a8a6f52aaa0"},"vehicle_type_id":"4","last_reported":1758806541,"current_range_meters":3600,"station_id":"ce4bh112rcd13ifvqd90","pricing_plan_id":"cebpf4jnsgd1na2vs0mg"},{"bike_id":"1ce0e92d-2291-4f47-96fc-c3c78b7004d0","system_id":"levelo_inurba_marseille","lat":43.28926,"lon":5.38382,"is_reserved":false,"is_disabled":false,"rental_uris":{"android":"levelo://app?vid=1ce0e92d-2291-4f47-96fc-c3c78b7004d0","ios":"levelo://app?vid=1ce0e92d-2291-4f47-96fc-c3c78b7004d0"},"vehicle_type_id":"4","last_reported":1758806541,"current_range_meters":4000,"station_id":"ce4bh612rcd13ifvqe6g","pricing_plan_id":"cebpf4jnsgd1na2vs0mg"},{"bike_id":"1efddf8d-578f-4e4c-8c3f-e3a8bd592ba4","system_id":"levelo_inurba_marseille","lat":43.29953,"lon":5.37317,"is_reserved":false,"is_disabled":false,"rental_uris":{"android":"levelo://app?vid=1efddf8d-578f-4e4c-8c3f-e3a8bd592ba4","ios":"levelo://app?vid=1efddf8d-578f-4e4c-8c3f-e3a8bd592ba4"},"vehicle_type_id":"4","last_reported":1758806541,"current_range_meters":4400,"station_id":"","pricing_plan_id":"cebpf4jnsgd1na2vs0mg"},{"bike_id":"acce0dd1-2b81-48ab-95f4-acc204a0faf8","system_id":"levelo_inurba_marseille","lat":43.30928,"lon":5.40142,"is_reserved":false,"is_disabled":false,"rental_uris":{"android":"levelo://app?vid=acce0dd1-2b81-48ab-95f4-acc204a0faf8","ios":"levelo://app?vid=acce0dd1-2b81-48ab-95f4-acc204a0faf8"},"vehicle_type_id":"4","last_reported":1758806541,"current_range_meters":4400,"station_id":"ce4bgvp2rcd13ifvqct0","pricing_plan_id":"cebpf4jnsgd1na2vs0mg"},{"bike_id":"953afe76-cb66-45c7-95a6-f714bce22dee","system_id":"levelo_inurba_marseille","lat":43.25107,"lon":5.40329,"is_reserved":false,"is_disabled":false,"rental_uris":{"android":"levelo://app?vid=953afe76-cb66-45c7-95a6-f714bce22dee","ios":"levelo://app?vid=953afe76-cb66-45c7-95a6-f714bce22dee"},"vehicle_type_id":"4","last_reported":1758806541,"current_range_meters":4400,"station_id":"ce4bhlh2rcd13ifvqgig","pricing_plan_id":"cebpf4jnsgd1na2vs0mg"},{"bike_id":"965b4c60-c334-4908-a23e-eb01558fc0f9","system_id":"levelo_inurba_marseille","lat":43.305408,"lon":5.365603,"is_reserved":false,"is_disabled":false,"rental_uris":{"android":"levelo://app?vid=965b4c60-c334-4908-a23e-eb01558fc0f9","ios":"levelo://app?vid=965b4c60-c334-4908-a23e-eb01558fc0f9"},"vehicle_type_id":"4","last_reported":1758806541,"current_range_meters":4400,"station_id":"ce4bgs12rcd13ifvqcag","pricing_plan_id":"cebpf4jnsgd1na2vs0mg"},{"bike_id":"46f7bd08-fb4f-4bc9-912e-843cb329953d","system_id":"levelo_inurba_marseille","lat":43.25088,"lon":5.39523,"is_reserved":false,"is_disabled":false,"rental_uris":{"android":"levelo://app?vid=46f7bd08-fb4f-4bc9-912e-843cb329953d","ios":"levelo://app?vid=46f7bd08-fb4f-4bc9-912e-843cb329953d"},"vehicle_type_id":"4","last_reported":1758806541,"current_range_meters":4800,"station_id":"ce4bhm12rcd13ifvqgkg","pricing_plan_id":"cebpf4jnsgd1na2vs0mg"},{"bike_id":"88c2e972-dde0-41a2-9a77-8a7e65445ac7","system_id":"levelo_inurba_marseille","lat":43.28101,"lon":5.37833,"is_reserved":false,"is_disabled":false,"rental_uris":{"android":"levelo://app?vid=88c2e972-dde0-41a2-9a77-8a7e65445ac7","ios":"levelo://app?vid=88c2e972-dde0-41a2-9a77-8a7e65445ac7"},"vehicle_type_id":"4","last_reported":1758806541,"current_range_meters":4400,"station_id":"ce4bha12rcd13ifvqee0","pricing_plan_id":"cebpf4jnsgd1na2vs0mg"},{"bike_id":"d8c6a9f3-39d1-454a-9e79-8fd3b93849ad","system_id":"levelo_inurba_marseille","lat":43.30509,"lon":5.36723,"is_reserved":false,"is_disabled":false,"rental_uris":{"android":"levelo://app?vid=d8c6a9f3-39d1-454a-9e79-8fd3b93849ad","ios":"levelo://app?vid=d8c6a9f3-39d1-454a-9e79-8fd3b93849ad"},"vehicle_type_id":"4","last_reported":1758806541,"current_range_meters":4800,"station_id":"ce4bgrp2rcd13ifvqc9g","pricing_plan_id":"cebpf4jnsgd1na2vs0mg"},{"bike_id":"3d476d69-4af4-40a8-8ecd-153d3d338261","system_id":"levelo_inurba_marseille","lat":43.27202,"lon":5.429353,"is_reserved":false,"is_disabled":false,"rental_uris":{"android":"levelo://app?vid=3d476d69-4af4-40a8-8ecd-153d3d338261","ios":"levelo://app?vid=3d476d69-4af4-40a8-8ecd-153d3d338261"},"vehicle_type_id":"4","last_reported":1758806541,"current_range_meters":5600,"station_id":"","pricing_plan_id":"cebpf4jnsgd1na2vs0mg"},{"bike_id":"7c0482c3-9253-4d1b-b4f3-be55cdb7721d","system_id":"levelo_inurba_marseille","lat":43.33757,"lon":5.37466,"is_reserved":false,"is_disabled":false,"rental_uris":{"android":"levelo://app?vid=7c0482c3-9253-4d1b-b4f3-be55cdb7721d","ios":"levelo://app?vid=7c0482c3-9253-4d1b-b4f3-be55cdb7721d"},"vehicle_type_id":"4","last_reported":1758806541,"current_range_meters":5600,"station_id":"","pricing_plan_id":"cebpf4jnsgd1na2vs0mg"},{"bike_id":"44021e7d-f2e9-482c-b89c-21584638b86c","system_id":"levelo_inurba_marseille","lat":43.24809,"lon":5.37452,"is_reserved":false,"is_disabled":false,"rental_uris":{"android":"levelo://app?vid=44021e7d-f2e9-482c-b89c-21584638b86c","ios":"levelo://app?vid=44021e7d-f2e9-482c-b89c-21584638b86c"},"vehicle_type_id":"4","last_reported":1758806541,"current_range_meters":5600,"station_id":"ce4bhgh2rcd13ifvqfb0","pricing_plan_id":"cebpf4jnsgd1na2vs0mg"},{"bike_id":"ea7b6398-ded5-4bbf-85d8-27095f714200","system_id":"levelo_inurba_marseille","lat":43.255833,"lon":5.382368,"is_reserved":false,"is_disabled":false,"rental_uris":{"android":"levelo://app?vid=ea7b6398-ded5-4bbf-85d8-27095f714200","ios":"levelo://app?vid=ea7b6398-ded5-4bbf-85d8-27095f714200"},"vehicle_type_id":"4","last_reported":1758806541,"current_range_meters":6000,"station_id":"ce4bhih2rcd13ifvqfs0","pricing_plan_id":"cebpf4jnsgd1na2vs0mg"},{"bike_id":"939538dc-20bd-4d94-8a10-8e1e0a179bc7","system_id":"levelo_inurba_marseille","lat":43.305,"lon":5.3665,"is_reserved":false,"is_disabled":false,"rental_uris":{"android":"levelo://app?vid=939538dc-20bd-4d94-8a10-8e1e0a179bc7","ios":"levelo://app?vid=939538dc-20bd-4d94-8a10-8e1e0a179bc7"},"vehicle_type_id":"4","last_reported":1758806541,"current_range_meters":6000,"station_id":"","pricing_plan_id":"cebpf4jnsgd1na2vs0mg"},{"bike_id":"bcebb3a1-ab7c-421f-952d-50fec9c24680","system_id":"levelo_inurba_marseille","lat":43.29568,"lon":5.375,"is_reserved":false,"is_disabled":false,"rental_uris":{"android":"levelo://app?vid=bcebb3a1-ab7c-421f-952d-50fec9c24680","ios":"levelo://app?vid=bcebb3a1-ab7c-421f-952d-50fec9c24680"},"vehicle_type_id":"4","last_reported":1758806541,"current_range_meters":6000,"station_id":"ce4bgh92rcd13ifvqb50","pricing_plan_id":"cebpf4jnsgd1na2vs0mg"},{"bike_id":"63ae35b0-c674-45c8-af85-b0b7b6cef407","system_id":"levelo_inurba_marseille","lat":43.27375,"lon":5.36257,"is_reserved":false,"is_disabled":false,"rental_uris":{"android":"levelo://app?vid=63ae35b0-c674-45c8-af85-b0b7b6cef407","ios":"levelo://app?vid=63ae35b0-c674-45c8-af85-b0b7b6cef407"},"vehicle_type_id":"4","last_reported":1758806541,"current_range_meters":6000,"station_id":"ce4bhbh2rcd13ifvqeo0","pricing_plan_id":"cebpf4jnsgd1na2vs0mg"},{"bike_id":"9c4a7bdb-c552-4dfd-8efb-40b9e0b0b147","system_id":"levelo_inurba_marseille","lat":43.30941,"lon":5.36721,"is_reserved":false,"is_disabled":false,"rental_uris":{"android":"levelo://app?vid=9c4a7bdb-c552-4dfd-8efb-40b9e0b0b147","ios":"levelo://app?vid=9c4a7bdb-c552-4dfd-8efb-40b9e0b0b147"},"vehicle_type_id":"4","last_reported":1758806541,"current_range_meters":6400,"station_id":"","pricing_plan_id":"cebpf4jnsgd1na2vs0mg"},{"bike_id":"edc50e01-bc52-4eb8-9553-06cbc428639b","system_id":"levelo_inurba_marseille","lat":43.304267,"lon":5.412571,"is_reserved":false,"is_disabled":false,"rental_uris":{"android":"levelo://app?vid=edc50e01-bc52-4eb8-9553-06cbc428639b","ios":"levelo://app?vid=edc50e01-bc52-4eb8-9553-06cbc428639b"},"vehicle_type_id":"4","last_reported":1758806541,"current_range_meters":6000,"station_id":"ce4bhop2rcd13ifvqh8g","pricing_plan_id":"cebpf4jnsgd1na2vs0mg"},{"bike_id":"3de2e715-e314-4e89-8a8e-129e218ded43","system_id":"levelo_inurba_marseille","lat":43.28263,"lon":5.35061,"is_reserved":false,"is_disabled":false,"rental_uris":{"android":"levelo://app?vid=3de2e715-e314-4e89-8a8e-129e218ded43","ios":"levelo://app?vid=3de2e715-e314-4e89-8a8e-129e218ded43"},"vehicle_type_id":"4","last_reported":1758806541,"current_range_meters":6400,"station_id":"ce4bhbp2rcd13ifvqerg","pricing_plan_id":"cebpf4jnsgd1na2vs0mg"},{"bike_id":"275709f1-881f-4f90-ab15-d88f738980ba","system_id":"levelo_inurba_marseille","lat":43.305612,"lon":5.365493,"is_reserved":false,"is_disabled":false,"rental_uris":{"android":"levelo://app?vid=275709f1-881f-4f90-ab15-d88f738980ba","ios":"levelo://app?vid=275709f1-881f-4f90-ab15-d88f738980ba"},"vehicle_type_id":"4","last_reported":1758806541,"current_range_meters":6400,"station_id":"ce4bgs12rcd13ifvqcag","pricing_plan_id":"cebpf4jnsgd1na2vs0mg"},{"bike_id":"0f6610c3-0117-423f-96c3-13fb2a429453","system_id":"levelo_inurba_marseille","lat":43.29262,"lon":5.40892,"is_reserved":false,"is_disabled":false,"rental_uris":{"android":"levelo://app?vid=0f6610c3-0117-423f-96c3-13fb2a429453","ios":"levelo://app?vid=0f6610c3-0117-423f-96c3-13fb2a429453"},"vehicle_type_id":"4","last_reported":1758806541,"current_range_meters":6400,"station_id":"ce4bh192rcd13ifvqdc0","pricing_plan_id":"cebpf4jnsgd1na2vs0mg"},{"bike_id":"61c50bf9-4dfc-42fe-a65f-b83bcb65ed25","system_id":"levelo_inurba_marseille","lat":43.3025,"lon":5.4005,"is_reserved":false,"is_disabled":false,"rental_uris":{"android":"levelo://app?vid=61c50bf9-4dfc-42fe-a65f-b83bcb65ed25","ios":"levelo://app?vid=61c50bf9-4dfc-42fe-a65f-b83bcb65ed25"},"vehicle_type_id":"4","last_reported":1758806541,"current_range_meters":6800,"station_id":"ce4bgvh2rcd13ifvqcs0","pricing_plan_id":"cebpf4jnsgd1na2vs0mg"},{"bike_id":"cb3d83dd-8277-415b-bc5d-a118e1200728","system_id":"levelo_inurba_marseille","lat":43.30108,"lon":5.41016,"is_reserved":false,"is_disabled":false,"rental_uris":{"android":"levelo://app?vid=cb3d83dd-8277-415b-bc5d-a118e1200728","ios":"levelo://app?vid=cb3d83dd-8277-415b-bc5d-a118e1200728"},"vehicle_type_id":"4","last_reported":1758806541,"current_range_meters":6800,"station_id":"","pricing_plan_id":"cebpf4jnsgd1na2vs0mg"},{"bike_id":"f0b0db3b-8bd4-4377-aa3c-104290e23eed","system_id":"levelo_inurba_marseille","lat":43.28937,"lon":5.36387,"is_reserved":false,"is_disabled":false,"rental_uris":{"android":"levelo://app?vid=f0b0db3b-8bd4-4377-aa3c-104290e23eed","ios":"levelo://app?vid=f0b0db3b-8bd4-4377-aa3c-104290e23eed"},"vehicle_type_id":"4","last_reported":1758806541,"current_range_meters":6800,"station_id":"ce4bhc92rcd13ifvqetg","pricing_plan_id":"cebpf4jnsgd1na2vs0mg"},{"bike_id":"136a707a-b224-4c44-8119-f846f7b7d0a7","system_id":"levelo_inurba_marseille","lat":43.29516,"lon":5.37375,"is_reserved":false,"is_disabled":false,"rental_uris":{"android":"levelo://app?vid=136a707a-b224-4c44-8119-f846f7b7d0a7","ios":"levelo://app?vid=136a707a-b224-4c44-8119-f846f7b7d0a7"},"vehicle_type_id":"4","last_reported":1758806541,"current_range_meters":7200,"station_id":"","pricing_plan_id":"cebpf4jnsgd1na2vs0mg"},{"bike_id":"3d65cdd4-248b-4d43-8411-e2327cb0d5d1","system_id":"levelo_inurba_marseille","lat":43.30152,"lon":5.38089,"is_reserved":false,"is_disabled":false,"rental_uris":{"android":"levelo://app?vid=3d65cdd4-248b-4d43-8411-e2327cb0d5d1","ios":"levelo://app?vid=3d65cdd4-248b-4d43-8411-e2327cb0d5d1"},"vehicle_type_id":"4","last_reported":1758806541,"current_range_meters":7200,"station_id":"ce4bgjp2rcd13ifvqbh0","pricing_plan_id":"cebpf4jnsgd1na2vs0mg"},{"bike_id":"9d3601e0-8b81-40f0-b7ce-3e97e2964e3d","system_id":"levelo_inurba_marseille","lat":43.28851,"lon":5.39305,"is_reserved":false,"is_disabled":false,"rental_uris":{"android":"levelo://app?vid=9d3601e0-8b81-40f0-b7ce-3e97e2964e3d","ios":"levelo://app?vid=9d3601e0-8b81-40f0-b7ce-3e97e2964e3d"},"vehicle_type_id":"4","last_reported":1758806541,"current_range_meters":7200,"station_id":"ce4bh2p2rcd13ifvqdi0","pricing_plan_id":"cebpf4jnsgd1na2vs0mg"},{"bike_id":"2f4b3ff4-0c4a-495f-a1f4-a4fceedbe576","system_id":"levelo_inurba_marseille","lat":43.30212,"lon":5.39454,"is_reserved":false,"is_disabled":false,"rental_uris":{"android":"levelo://app?vid=2f4b3ff4-0c4a-495f-a1f4-a4fceedbe576","ios":"levelo://app?vid=2f4b3ff4-0c4a-495f-a1f4-a4fceedbe576"},"vehicle_type_id":"4","last_reported":1758806541,"current_range_meters":6800,"station_id":"ce4bh0p2rcd13ifvqd70","pricing_plan_id":"cebpf4jnsgd1na2vs0mg"},{"bike_id":"a0403f0c-8cff-49f4-829a-3b14f0f87d9c","system_id":"levelo_inurba_marseille","lat":43.2883,"lon":5.35857,"is_reserved":false,"is_disabled":false,"rental_uris":{"android":"levelo://app?vid=a0403f0c-8cff-49f4-829a-3b14f0f87d9c","ios":"levelo://app?vid=a0403f0c-8cff-49f4-829a-3b14f0f87d9c"},"vehicle_type_id":"4","last_reported":1758806541,"current_range_meters":7200,"station_id":"ce4bhb12rcd13ifvqem0","pricing_plan_id":"cebpf4jnsgd1na2vs0mg"},{"bike_id":"adb6c379-0cee-4b2f-b510-9797ce94703e","system_id":"levelo_inurba_marseille","lat":43.26933,"lon":5.4026,"is_reserved":false,"is_disabled":false,"rental_uris":{"android":"levelo://app?vid=adb6c379-0cee-4b2f-b510-9797ce94703e","ios":"levelo://app?vid=adb6c379-0cee-4b2f-b510-9797ce94703e"},"vehicle_type_id":"4","last_reported":1758806541,"current_range_meters":7200,"station_id":"cjm6bp8fraef2m0cb0m0","pricing_plan_id":"cebpf4jnsgd1na2vs0mg"},{"bike_id":"9c98fe54-59e1-41d6-9571-832674231453","system_id":"levelo_inurba_marseille","lat":43.30195,"lon":5.36622,"is_reserved":false,"is_disabled":false,"rental_uris":{"android":"levelo://app?vid=9c98fe54-59e1-41d6-9571-832674231453","ios":"levelo://app?vid=9c98fe54-59e1-41d6-9571-832674231453"},"vehicle_type_id":"4","last_reported":1758806541,"current_range_meters":7200,"station_id":"ce4bgrh2rcd13ifvqc8g","pricing_plan_id":"cebpf4jnsgd1na2vs0mg"},{"bike_id":"db7cc735-915b-4630-af5d-7a41fb348c08","system_id":"levelo_inurba_marseille","lat":43.29029,"lon":5.38639,"is_reserved":false,"is_disabled":false,"rental_uris":{"android":"levelo://app?vid=db7cc735-915b-4630-af5d-7a41fb348c08","ios":"levelo://app?vid=db7cc735-915b-4630-af5d-7a41fb348c08"},"vehicle_type_id":"4","last_reported":1758806541,"current_range_meters":6800,"station_id":"ce4bh4p2rcd13ifvqe0g","pricing_plan_id":"cebpf4jnsgd1na2vs0mg"},{"bike_id":"4889bdcf-a55a-43da-a9bd-ab3ca8454902","system_id":"levelo_inurba_marseille","lat":43.23147,"lon":5.43723,"is_reserved":false,"is_disabled":false,"rental_uris":{"android":"levelo://app?vid=4889bdcf-a55a-43da-a9bd-ab3ca8454902","ios":"levelo://app?vid=4889bdcf-a55a-43da-a9bd-ab3ca8454902"},"vehicle_type_id":"4","last_reported":1758806541,"current_range_meters":8000,"station_id":"ce4bhmp2rcd13ifvqgog","pricing_plan_id":"cebpf4jnsgd1na2vs0mg"},{"bike_id":"cbf14a57-e8bf-4b79-b691-a97f72d450ad","system_id":"levelo_inurba_marseille","lat":43.30538,"lon":5.36693,"is_reserved":false,"is_disabled":false,"rental_uris":{"android":"levelo://app?vid=cbf14a57-e8bf-4b79-b691-a97f72d450ad","ios":"levelo://app?vid=cbf14a57-e8bf-4b79-b691-a97f72d450ad"},"vehicle_type_id":"4","last_reported":1758806541,"current_range_meters":8000,"station_id":"ce4bgrp2rcd13ifvqc9g","pricing_plan_id":"cebpf4jnsgd1na2vs0mg"},{"bike_id":"0b5edc20-5925-42e8-b313-534f58df8348","system_id":"levelo_inurba_marseille","lat":43.27075,"lon":5.42274,"is_reserved":false,"is_disabled":false,"rental_uris":{"android":"levelo://app?vid=0b5edc20-5925-42e8-b313-534f58df8348","ios":"levelo://app?vid=0b5edc20-5925-42e8-b313-534f58df8348"},"vehicle_type_id":"4","last_reported":1758806541,"current_range_meters":8000,"station_id":"ce4bhk92rcd13ifvqgb0","pricing_plan_id":"cebpf4jnsgd1na2vs0mg"},{"bike_id":"4e737411-53ce-4bdf-9802-c3bc30d9bc94","system_id":"levelo_inurba_marseille","lat":43.29544,"lon":5.40649,"is_reserved":false,"is_disabled":false,"rental_uris":{"android":"levelo://app?vid=4e737411-53ce-4bdf-9802-c3bc30d9bc94","ios":"levelo://app?vid=4e737411-53ce-4bdf-9802-c3bc30d9bc94"},"vehicle_type_id":"4","last_reported":1758806541,"current_range_meters":8400,"station_id":"","pricing_plan_id":"cebpf4jnsgd1na2vs0mg"},{"bike_id":"6db8b94b-45ee-47f9-bff3-84b0af941556","system_id":"levelo_inurba_marseille","lat":43.29264,"lon":5.38438,"is_reserved":false,"is_disabled":true,"rental_uris":{"android":"levelo://app?vid=6db8b94b-45ee-47f9-bff3-84b0af941556","ios":"levelo://app?vid=6db8b94b-45ee-47f9-bff3-84b0af941556"},"vehicle_type_id":"4","last_reported":1758806541,"current_range_meters":8400,"station_id":"ce4bh692rcd13ifvqea0","pricing_plan_id":"cebpf4jnsgd1na2vs0mg"},{"bike_id":"77daa39a-6d92-4fe8-8266-f8eceab04af2","system_id":"levelo_inurba_marseille","lat":43.29854,"lon":5.36288,"is_reserved":false,"is_disabled":false,"rental_uris":{"android":"levelo://app?vid=77daa39a-6d92-4fe8-8266-f8eceab04af2","ios":"levelo://app?vid=77daa39a-6d92-4fe8-8266-f8eceab04af2"},"vehicle_type_id":"4","last_reported":1758806541,"current_range_meters":8400,"station_id":"ce4bgpp2rcd13ifvqc3g","pricing_plan_id":"cebpf4jnsgd1na2vs0mg"},{"bike_id":"438ead59-de14-4fa0-a61d-03a70a4122ae","system_id":"levelo_inurba_marseille","lat":43.97269,"lon":4.89111,"is_reserved":false,"is_disabled":true,"rental_uris":{"android":"levelo://app?vid=438ead59-de14-4fa0-a61d-03a70a4122ae","ios":"levelo://app?vid=438ead59-de14-4fa0-a61d-03a70a4122ae"},"vehicle_type_id":"4","last_reported":1758806541,"current_range_meters":8400,"station_id":"","pricing_plan_id":"cebpf4jnsgd1na2vs0mg"},{"bike_id":"40915b24-3251-4ff2-874e-18cf558d94a3","system_id":"levelo_inurba_marseille","lat":43.24179,"lon":5.39731,"is_reserved":false,"is_disabled":false,"rental_uris":{"android":"levelo://app?vid=40915b24-3251-4ff2-874e-18cf558d94a3","ios":"levelo://app?vid=40915b24-3251-4ff2-874e-18cf558d94a3"},"vehicle_type_id":"4","last_reported":1758806541,"current_range_meters":8400,"station_id":"ce4bhn12rcd13ifvqgpg","pricing_plan_id":"cebpf4jnsgd1na2vs0mg"},{"bike_id":"47c4f3ab-ac15-4b3d-a5f9-5573a07d0401","system_id":"levelo_inurba_marseille","lat":43.22573,"lon":5.41634,"is_reserved":false,"is_disabled":false,"rental_uris":{"android":"levelo://app?vid=47c4f3ab-ac15-4b3d-a5f9-5573a07d0401","ios":"levelo://app?vid=47c4f3ab-ac15-4b3d-a5f9-5573a07d0401"},"vehicle_type_id":"4","last_reported":1758806541,"current_range_meters":9200,"station_id":"st_d2o4gvlbi1j2169b742g","pricing_plan_id":"cebpf4jnsgd1na2vs0mg"},{"bike_id":"450844ba-2fc2-47be-9959-8fee61f07fb6","system_id":"levelo_inurba_marseille","lat":43.31741,"lon":5.39024,"is_reserved":false,"is_disabled":false,"rental_uris":{"android":"levelo://app?vid=450844ba-2fc2-47be-9959-8fee61f07fb6","ios":"levelo://app?vid=450844ba-2fc2-47be-9959-8fee61f07fb6"},"vehicle_type_id":"4","last_reported":1758806541,"current_range_meters":9600,"station_id":"ce4bhqp2rcd13ifvqhng","pricing_plan_id":"cebpf4jnsgd1na2vs0mg"},{"bike_id":"ae4d123c-65ee-4c52-8933-f4b14d3f9582","system_id":"levelo_inurba_marseille","lat":43.22573,"lon":5.41618,"is_reserved":false,"is_disabled":false,"rental_uris":{"android":"levelo://app?vid=ae4d123c-65ee-4c52-8933-f4b14d3f9582","ios":"levelo://app?vid=ae4d123c-65ee-4c52-8933-f4b14d3f9582"},"vehicle_type_id":"4","last_reported":1758806541,"current_range_meters":9600,"station_id":"st_d2o4gvlbi1j2169b742g","pricing_plan_id":"cebpf4jnsgd1na2vs0mg"},{"bike_id":"0e2eeec7-a638-4adb-8d7d-1bec519d2c34","system_id":"levelo_inurba_marseille","lat":43.26214,"lon":5.37437,"is_reserved":false,"is_disabled":false,"rental_uris":{"android":"levelo://app?vid=0e2eeec7-a638-4adb-8d7d-1bec519d2c34","ios":"levelo://app?vid=0e2eeec7-a638-4adb-8d7d-1bec519d2c34"},"vehicle_type_id":"4","last_reported":1758806541,"current_range_meters":9600,"station_id":"ce4bhgp2rcd13ifvqfc0","pricing_plan_id":"cebpf4jnsgd1na2vs0mg"},{"bike_id":"b7d15b37-9a5f-4b39-995a-987ae6496a26","system_id":"levelo_inurba_marseille","lat":43.324765,"lon":5.36568,"is_reserved":false,"is_disabled":false,"rental_uris":{"android":"levelo://app?vid=b7d15b37-9a5f-4b39-995a-987ae6496a26","ios":"levelo://app?vid=b7d15b37-9a5f-4b39-995a-987ae6496a26"},"vehicle_type_id":"4","last_reported":1758806541,"current_range_meters":9600,"station_id":"ce4bhs12rcd13ifvqhvg","pricing_plan_id":"cebpf4jnsgd1na2vs0mg"},{"bike_id":"d2be082e-bd73-4203-addb-18871b3a9587","system_id":"levelo_inurba_marseille","lat":43.29414,"lon":5.37487,"is_reserved":false,"is_disabled":false,"rental_uris":{"android":"levelo://app?vid=d2be082e-bd73-4203-addb-18871b3a9587","ios":"levelo://app?vid=d2be082e-bd73-4203-addb-18871b3a9587"},"vehicle_type_id":"4","last_reported":1758806541,"current_range_meters":9600,"station_id":"","pricing_plan_id":"cebpf4jnsgd1na2vs0mg"},{"bike_id":"d8bb09e6-7636-4eef-8fb2-84d9034061f1","system_id":"levelo_inurba_marseille","lat":43.28153,"lon":5.426476,"is_reserved":false,"is_disabled":false,"rental_uris":{"android":"levelo://app?vid=d8bb09e6-7636-4eef-8fb2-84d9034061f1","ios":"levelo://app?vid=d8bb09e6-7636-4eef-8fb2-84d9034061f1"},"vehicle_type_id":"4","last_reported":1758806541,"current_range_meters":9600,"station_id":"ce4bhnh2rcd13ifvqgug","pricing_plan_id":"cebpf4jnsgd1na2vs0mg"},{"bike_id":"94b2f036-4ca4-4693-89f2-72df2150ee98","system_id":"levelo_inurba_marseille","lat":43.258265,"lon":5.394374,"is_reserved":false,"is_disabled":false,"rental_uris":{"android":"levelo://app?vid=94b2f036-4ca4-4693-89f2-72df2150ee98","ios":"levelo://app?vid=94b2f036-4ca4-4693-89f2-72df2150ee98"},"vehicle_type_id":"4","last_reported":1758806541,"current_range_meters":9600,"station_id":"ce4bhip2rcd13ifvqft0","pricing_plan_id":"cebpf4jnsgd1na2vs0mg"},{"bike_id":"117acf13-6b03-4ee3-b4a5-edb1f47e11bc","system_id":"levelo_inurba_marseille","lat":43.2684,"lon":5.38729,"is_reserved":false,"is_disabled":false,"rental_uris":{"android":"levelo://app?vid=117acf13-6b03-4ee3-b4a5-edb1f47e11bc","ios":"levelo://app?vid=117acf13-6b03-4ee3-b4a5-edb1f47e11bc"},"vehicle_type_id":"4","last_reported":1758806541,"current_range_meters":9600,"station_id":"","pricing_plan_id":"cebpf4jnsgd1na2vs0mg"},{"bike_id":"82d161be-763e-4df4-a1ba-be0e3c89505c","system_id":"levelo_inurba_marseille","lat":43.28077,"lon":5.39657,"is_reserved":false,"is_disabled":false,"rental_uris":{"android":"levelo://app?vid=82d161be-763e-4df4-a1ba-be0e3c89505c","ios":"levelo://app?vid=82d161be-763e-4df4-a1ba-be0e3c89505c"},"vehicle_type_id":"4","last_reported":1758806541,"current_range_meters":9600,"station_id":"ce4bho12rcd13ifvqh2g","pricing_plan_id":"cebpf4jnsgd1na2vs0mg"},{"bike_id":"bf1244d3-d7e7-45bd-8580-d0cbc34b36e3","system_id":"levelo_inurba_marseille","lat":43.22563,"lon":5.41623,"is_reserved":false,"is_disabled":false,"rental_uris":{"android":"levelo://app?vid=bf1244d3-d7e7-45bd-8580-d0cbc34b36e3","ios":"levelo://app?vid=bf1244d3-d7e7-45bd-8580-d0cbc34b36e3"},"vehicle_type_id":"4","last_reported":1758806541,"current_range_meters":10000,"station_id":"st_d2o4gvlbi1j2169b742g","pricing_plan_id":"cebpf4jnsgd1na2vs0mg"},{"bike_id":"f42461a5-4ffc-4070-af78-8a56e07264da","system_id":"levelo_inurba_marseille","lat":43.30155,"lon":5.38079,"is_reserved":false,"is_disabled":false,"rental_uris":{"android":"levelo://app?vid=f42461a5-4ffc-4070-af78-8a56e07264da","ios":"levelo://app?vid=f42461a5-4ffc-4070-af78-8a56e07264da"},"vehicle_type_id":"4","last_reported":1758806541,"current_range_meters":10000,"station_id":"ce4bgjp2rcd13ifvqbh0","pricing_plan_id":"cebpf4jnsgd1na2vs0mg"},{"bike_id":"4d8c0619-2764-4088-8319-d4267089fb3b","system_id":"levelo_inurba_marseille","lat":43.30158,"lon":5.3808,"is_reserved":false,"is_disabled":false,"rental_uris":{"android":"levelo://app?vid=4d8c0619-2764-4088-8319-d4267089fb3b","ios":"levelo://app?vid=4d8c0619-2764-4088-8319-d4267089fb3b"},"vehicle_type_id":"4","last_reported":1758806541,"current_range_meters":10000,"station_id":"ce4bgjp2rcd13ifvqbh0","pricing_plan_id":"cebpf4jnsgd1na2vs0mg"},{"bike_id":"3a83ddcd-ce03-4ed4-a7fa-b273c2464f02","system_id":"levelo_inurba_marseille","lat":43.279484,"lon":5.363282,"is_reserved":false,"is_disabled":false,"rental_uris":{"android":"levelo://app?vid=3a83ddcd-ce03-4ed4-a7fa-b273c2464f02","ios":"levelo://app?vid=3a83ddcd-ce03-4ed4-a7fa-b273c2464f02"},"vehicle_type_id":"4","last_reported":1758806541,"current_range_meters":10000,"station_id":"","pricing_plan_id":"cebpf4jnsgd1na2vs0mg"},{"bike_id":"d5e141c0-ba2e-42b0-b748-19bde5abe72f","system_id":"levelo_inurba_marseille","lat":43.25732,"lon":5.41104,"is_reserved":false,"is_disabled":false,"rental_uris":{"android":"levelo://app?vid=d5e141c0-ba2e-42b0-b748-19bde5abe72f","ios":"levelo://app?vid=d5e141c0-ba2e-42b0-b748-19bde5abe72f"},"vehicle_type_id":"4","last_reported":1758806541,"current_range_meters":10000,"station_id":"ce4bhkp2rcd13ifvqgd0","pricing_plan_id":"cebpf4jnsgd1na2vs0mg"},{"bike_id":"0ef81889-2d7f-4e70-b480-0b08f55cbfba","system_id":"levelo_inurba_marseille","lat":43.30859,"lon":5.36858,"is_reserved":false,"is_disabled":false,"rental_uris":{"android":"levelo://app?vid=0ef81889-2d7f-4e70-b480-0b08f55cbfba","ios":"levelo://app?vid=0ef81889-2d7f-4e70-b480-0b08f55cbfba"},"vehicle_type_id":"4","last_reported":1758806541,"current_range_meters":10000,"station_id":"","pricing_plan_id":"cebpf4jnsgd1na2vs0mg"},{"bike_id":"c172abc5-f96f-4da1-a250-870b880321ee","system_id":"levelo_inurba_marseille","lat":43.24177,"lon":5.39725,"is_reserved":false,"is_disabled":false,"rental_uris":{"android":"levelo://app?vid=c172abc5-f96f-4da1-a250-870b880321ee","ios":"levelo://app?vid=c172abc5-f96f-4da1-a250-870b880321ee"},"vehicle_type_id":"4","last_reported":1758806541,"current_range_meters":10800,"station_id":"ce4bhn12rcd13ifvqgpg","pricing_plan_id":"cebpf4jnsgd1na2vs0mg"},{"bike_id":"818ee7f4-2e6f-4b0e-96f7-bec2cc5f4b84","system_id":"levelo_inurba_marseille","lat":43.21749,"lon":5.34604,"is_reserved":false,"is_disabled":false,"rental_uris":{"android":"levelo://app?vid=818ee7f4-2e6f-4b0e-96f7-bec2cc5f4b84","ios":"levelo://app?vid=818ee7f4-2e6f-4b0e-96f7-bec2cc5f4b84"},"vehicle_type_id":"4","last_reported":1758806541,"current_range_meters":10800,"station_id":"st_cvj6r9ubvosntc0bgbag","pricing_plan_id":"cebpf4jnsgd1na2vs0mg"},{"bike_id":"192be8d2-5a4e-4c99-b914-b1bb19d2c392","system_id":"levelo_inurba_marseille","lat":43.29006,"lon":5.35611,"is_reserved":false,"is_disabled":false,"rental_uris":{"android":"levelo://app?vid=192be8d2-5a4e-4c99-b914-b1bb19d2c392","ios":"levelo://app?vid=192be8d2-5a4e-4c99-b914-b1bb19d2c392"},"vehicle_type_id":"4","last_reported":1758806541,"current_range_meters":10800,"station_id":"ce4bhb92rcd13ifvqen0","pricing_plan_id":"cebpf4jnsgd1na2vs0mg"},{"bike_id":"9a7828c5-05ba-4b71-b960-fd3ba0376778","system_id":"levelo_inurba_marseille","lat":43.30212,"lon":5.39465,"is_reserved":false,"is_disabled":false,"rental_uris":{"android":"levelo://app?vid=9a7828c5-05ba-4b71-b960-fd3ba0376778","ios":"levelo://app?vid=9a7828c5-05ba-4b71-b960-fd3ba0376778"},"vehicle_type_id":"4","last_reported":1758806541,"current_range_meters":10800,"station_id":"ce4bh0p2rcd13ifvqd70","pricing_plan_id":"cebpf4jnsgd1na2vs0mg"},{"bike_id":"379911e0-a8b9-4b05-96ac-c75be54d3c45","system_id":"levelo_inurba_marseille","lat":43.28859,"lon":5.42524,"is_reserved":false,"is_disabled":false,"rental_uris":{"android":"levelo://app?vid=379911e0-a8b9-4b05-96ac-c75be54d3c45","ios":"levelo://app?vid=379911e0-a8b9-4b05-96ac-c75be54d3c45"},"vehicle_type_id":"4","last_reported":1758806541,"current_range_meters":10800,"station_id":"","pricing_plan_id":"cebpf4jnsgd1na2vs0mg"},{"bike_id":"de034c7b-77bc-4224-844f-5abbbafacb5a","system_id":"levelo_inurba_marseille","lat":43.30881,"lon":5.39639,"is_reserved":false,"is_disabled":false,"rental_uris":{"android":"levelo://app?vid=de034c7b-77bc-4224-844f-5abbbafacb5a","ios":"levelo://app?vid=de034c7b-77bc-4224-844f-5abbbafacb5a"},"vehicle_type_id":"4","last_reported":1758806541,"current_range_meters":11200,"station_id":"ce4bh012rcd13ifvqcv0","pricing_plan_id":"cebpf4jnsgd1na2vs0mg"},{"bike_id":"bf37d095-e776-40d6-8cca-346e28779f82","system_id":"levelo_inurba_marseille","lat":43.25121,"lon":5.40322,"is_reserved":false,"is_disabled":false,"rental_uris":{"android":"levelo://app?vid=bf37d095-e776-40d6-8cca-346e28779f82","ios":"levelo://app?vid=bf37d095-e776-40d6-8cca-346e28779f82"},"vehicle_type_id":"4","last_reported":1758806541,"current_range_meters":11200,"station_id":"ce4bhlh2rcd13ifvqgig","pricing_plan_id":"cebpf4jnsgd1na2vs0mg"},{"bike_id":"c811373e-37aa-4e16-8f70-f6656a27af2c","system_id":"levelo_inurba_marseille","lat":43.301316,"lon":5.37403,"is_reserved":false,"is_disabled":false,"rental_uris":{"android":"levelo://app?vid=c811373e-37aa-4e16-8f70-f6656a27af2c","ios":"levelo://app?vid=c811373e-37aa-4e16-8f70-f6656a27af2c"},"vehicle_type_id":"4","last_reported":1758806541,"current_range_meters":11200,"station_id":"ce4bgs92rcd13ifvqcc0","pricing_plan_id":"cebpf4jnsgd1na2vs0mg"},{"bike_id":"17dceb5c-871e-4477-8a79-a9f444916b18","system_id":"levelo_inurba_marseille","lat":43.287226,"lon":5.373778,"is_reserved":false,"is_disabled":false,"rental_uris":{"android":"levelo://app?vid=17dceb5c-871e-4477-8a79-a9f444916b18","ios":"levelo://app?vid=17dceb5c-871e-4477-8a79-a9f444916b18"},"vehicle_type_id":"4","last_reported":1758806541,"current_range_meters":10800,"station_id":"ce4bh3p2rcd13ifvqdq0","pricing_plan_id":"cebpf4jnsgd1na2vs0mg"},{"bike_id":"0e9ca394-4351-4bf8-a641-f4e5215baf20","system_id":"levelo_inurba_marseille","lat":43.28271,"lon":5.35058,"is_reserved":false,"is_disabled":false,"rental_uris":{"android":"levelo://app?vid=0e9ca394-4351-4bf8-a641-f4e5215baf20","ios":"levelo://app?vid=0e9ca394-4351-4bf8-a641-f4e5215baf20"},"vehicle_type_id":"4","last_reported":1758806541,"current_range_meters":11200,"station_id":"ce4bhbp2rcd13ifvqerg","pricing_plan_id":"cebpf4jnsgd1na2vs0mg"},{"bike_id":"b6a9b367-2165-44be-acb2-9cd05f210360","system_id":"levelo_inurba_marseille","lat":43.30534,"lon":5.36713,"is_reserved":false,"is_disabled":false,"rental_uris":{"android":"levelo://app?vid=b6a9b367-2165-44be-acb2-9cd05f210360","ios":"levelo://app?vid=b6a9b367-2165-44be-acb2-9cd05f210360"},"vehicle_type_id":"4","last_reported":1758806541,"current_range_meters":11200,"station_id":"ce4bgrp2rcd13ifvqc9g","pricing_plan_id":"cebpf4jnsgd1na2vs0mg"},{"bike_id":"8584eb3e-f7b4-4300-97fe-005a37d8d75b","system_id":"levelo_inurba_marseille","lat":43.36866,"lon":5.36304,"is_reserved":false,"is_disabled":false,"rental_uris":{"android":"levelo://app?vid=8584eb3e-f7b4-4300-97fe-005a37d8d75b","ios":"levelo://app?vid=8584eb3e-f7b4-4300-97fe-005a37d8d75b"},"vehicle_type_id":"4","last_reported":1758806541,"current_range_meters":11200,"station_id":"","pricing_plan_id":"cebpf4jnsgd1na2vs0mg"},{"bike_id":"8eae954c-dab6-4303-94f5-569e1c483f62","system_id":"levelo_inurba_marseille","lat":43.2946,"lon":5.40741,"is_reserved":false,"is_disabled":false,"rental_uris":{"android":"levelo://app?vid=8eae954c-dab6-4303-94f5-569e1c483f62","ios":"levelo://app?vid=8eae954c-dab6-4303-94f5-569e1c483f62"},"vehicle_type_id":"4","last_reported":1758806541,"current_range_meters":11600,"station_id":"","pricing_plan_id":"cebpf4jnsgd1na2vs0mg"},{"bike_id":"f97c0048-c7ff-4b71-93c6-9cda50594045","system_id":"levelo_inurba_marseille","lat":43.27366,"lon":5.36254,"is_reserved":false,"is_disabled":false,"rental_uris":{"android":"levelo://app?vid=f97c0048-c7ff-4b71-93c6-9cda50594045","ios":"levelo://app?vid=f97c0048-c7ff-4b71-93c6-9cda50594045"},"vehicle_type_id":"4","last_reported":1758806541,"current_range_meters":11600,"station_id":"ce4bhbh2rcd13ifvqeo0","pricing_plan_id":"cebpf4jnsgd1na2vs0mg"},{"bike_id":"3b31d633-b5d5-4cb8-bc19-6e3745360861","system_id":"levelo_inurba_marseille","lat":43.31231,"lon":5.36864,"is_reserved":false,"is_disabled":false,"rental_uris":{"android":"levelo://app?vid=3b31d633-b5d5-4cb8-bc19-6e3745360861","ios":"levelo://app?vid=3b31d633-b5d5-4cb8-bc19-6e3745360861"},"vehicle_type_id":"4","last_reported":1758806541,"current_range_meters":11600,"station_id":"ce4bgl92rcd13ifvqbq0","pricing_plan_id":"cebpf4jnsgd1na2vs0mg"},{"bike_id":"014f95d2-9b26-4182-8998-a237b4235725","system_id":"levelo_inurba_marseille","lat":43.29172,"lon":5.37151,"is_reserved":false,"is_disabled":false,"rental_uris":{"android":"levelo://app?vid=014f95d2-9b26-4182-8998-a237b4235725","ios":"levelo://app?vid=014f95d2-9b26-4182-8998-a237b4235725"},"vehicle_type_id":"4","last_reported":1758806541,"current_range_meters":11600,"station_id":"ce4bha92rcd13ifvqeh0","pricing_plan_id":"cebpf4jnsgd1na2vs0mg"},{"bike_id":"d5632eaf-207f-4351-be9c-95c58bc9c538","system_id":"levelo_inurba_marseille","lat":43.29553,"lon":5.37504,"is_reserved":false,"is_disabled":true,"rental_uris":{"android":"levelo://app?vid=d5632eaf-207f-4351-be9c-95c58bc9c538","ios":"levelo://app?vid=d5632eaf-207f-4351-be9c-95c58bc9c538"},"vehicle_type_id":"4","last_reported":1758806541,"current_range_meters":12000,"station_id":"ce4bgkp2rcd13ifvqbmg","pricing_plan_id":"cebpf4jnsgd1na2vs0mg"},{"bike_id":"5e909e49-3d5c-4315-8066-678c9dc2ecfa","system_id":"levelo_inurba_marseille","lat":43.29297,"lon":5.37456,"is_reserved":false,"is_disabled":false,"rental_uris":{"android":"levelo://app?vid=5e909e49-3d5c-4315-8066-678c9dc2ecfa","ios":"levelo://app?vid=5e909e49-3d5c-4315-8066-678c9dc2ecfa"},"vehicle_type_id":"4","last_reported":1758806541,"current_range_meters":11600,"station_id":"ce4bgi12rcd13ifvqb70","pricing_plan_id":"cebpf4jnsgd1na2vs0mg"},{"bike_id":"9fd15e46-d713-423e-ab94-b5de949787aa","system_id":"levelo_inurba_marseille","lat":43.26544,"lon":5.37283,"is_reserved":false,"is_disabled":false,"rental_uris":{"android":"levelo://app?vid=9fd15e46-d713-423e-ab94-b5de949787aa","ios":"levelo://app?vid=9fd15e46-d713-423e-ab94-b5de949787aa"},"vehicle_type_id":"4","last_reported":1758806541,"current_range_meters":12000,"station_id":"ce4bhg12rcd13ifvqf70","pricing_plan_id":"cebpf4jnsgd1na2vs0mg"},{"bike_id":"a6ad0c6c-868d-42f3-ba54-573e1a175a36","system_id":"levelo_inurba_marseille","lat":43.26266,"lon":5.41272,"is_reserved":false,"is_disabled":false,"rental_uris":{"android":"levelo://app?vid=a6ad0c6c-868d-42f3-ba54-573e1a175a36","ios":"levelo://app?vid=a6ad0c6c-868d-42f3-ba54-573e1a175a36"},"vehicle_type_id":"4","last_reported":1758806541,"current_range_meters":12000,"station_id":"","pricing_plan_id":"cebpf4jnsgd1na2vs0mg"},{"bike_id":"de350dac-2de4-4c2d-ac13-f12bee9d566f","system_id":"levelo_inurba_marseille","lat":43.30163,"lon":5.38076,"is_reserved":false,"is_disabled":false,"rental_uris":{"android":"levelo://app?vid=de350dac-2de4-4c2d-ac13-f12bee9d566f","ios":"levelo://app?vid=de350dac-2de4-4c2d-ac13-f12bee9d566f"},"vehicle_type_id":"4","last_reported":1758806541,"current_range_meters":12400,"station_id":"ce4bgjp2rcd13ifvqbh0","pricing_plan_id":"cebpf4jnsgd1na2vs0mg"},{"bike_id":"003515e8-8117-44bb-979d-5f47e8d50fda","system_id":"levelo_inurba_marseille","lat":43.30635,"lon":5.37537,"is_reserved":false,"is_disabled":false,"rental_uris":{"android":"levelo://app?vid=003515e8-8117-44bb-979d-5f47e8d50fda","ios":"levelo://app?vid=003515e8-8117-44bb-979d-5f47e8d50fda"},"vehicle_type_id":"4","last_reported":1758806541,"current_range_meters":12400,"station_id":"","pricing_plan_id":"cebpf4jnsgd1na2vs0mg"},{"bike_id":"cfba7b81-2ab1-407b-80c3-4649bd12e934","system_id":"levelo_inurba_marseille","lat":43.27321,"lon":5.39083,"is_reserved":false,"is_disabled":false,"rental_uris":{"android":"levelo://app?vid=cfba7b81-2ab1-407b-80c3-4649bd12e934","ios":"levelo://app?vid=cfba7b81-2ab1-407b-80c3-4649bd12e934"},"vehicle_type_id":"4","last_reported":1758806541,"current_range_meters":12400,"station_id":"ce4bhgp2rcd13ifvqfe0","pricing_plan_id":"cebpf4jnsgd1na2vs0mg"},{"bike_id":"0c16ac8a-a536-4d89-a0b4-2803631fd83e","system_id":"levelo_inurba_marseille","lat":43.25002,"lon":5.38929,"is_reserved":false,"is_disabled":false,"rental_uris":{"android":"levelo://app?vid=0c16ac8a-a536-4d89-a0b4-2803631fd83e","ios":"levelo://app?vid=0c16ac8a-a536-4d89-a0b4-2803631fd83e"},"vehicle_type_id":"4","last_reported":1758806541,"current_range_meters":12400,"station_id":"ce4bhgp2rcd13ifvqfd0","pricing_plan_id":"cebpf4jnsgd1na2vs0mg"},{"bike_id":"bdec3261-de13-477f-818b-7af8ae1d1f6a","system_id":"levelo_inurba_marseille","lat":43.23968,"lon":5.37666,"is_reserved":false,"is_disabled":false,"rental_uris":{"android":"levelo://app?vid=bdec3261-de13-477f-818b-7af8ae1d1f6a","ios":"levelo://app?vid=bdec3261-de13-477f-818b-7af8ae1d1f6a"},"vehicle_type_id":"4","last_reported":1758806541,"current_range_meters":12400,"station_id":"","pricing_plan_id":"cebpf4jnsgd1na2vs0mg"},{"bike_id":"45e3a486-cbf8-41c6-a348-2f2db89d5340","system_id":"levelo_inurba_marseille","lat":43.26506,"lon":5.39538,"is_reserved":false,"is_disabled":false,"rental_uris":{"android":"levelo://app?vid=45e3a486-cbf8-41c6-a348-2f2db89d5340","ios":"levelo://app?vid=45e3a486-cbf8-41c6-a348-2f2db89d5340"},"vehicle_type_id":"4","last_reported":1758806541,"current_range_meters":12400,"station_id":"ce4bhi12rcd13ifvqfq0","pricing_plan_id":"cebpf4jnsgd1na2vs0mg"},{"bike_id":"46923300-e0d3-40c1-8c76-7dadc761100f","system_id":"levelo_inurba_marseille","lat":43.29032,"lon":5.35647,"is_reserved":false,"is_disabled":false,"rental_uris":{"android":"levelo://app?vid=46923300-e0d3-40c1-8c76-7dadc761100f","ios":"levelo://app?vid=46923300-e0d3-40c1-8c76-7dadc761100f"},"vehicle_type_id":"4","last_reported":1758806541,"current_range_meters":12400,"station_id":"ce4bhb92rcd13ifvqen0","pricing_plan_id":"cebpf4jnsgd1na2vs0mg"},{"bike_id":"d1035cda-0828-4480-ab90-b06087f3ef72","system_id":"levelo_inurba_marseille","lat":43.25574,"lon":5.38238,"is_reserved":false,"is_disabled":false,"rental_uris":{"android":"levelo://app?vid=d1035cda-0828-4480-ab90-b06087f3ef72","ios":"levelo://app?vid=d1035cda-0828-4480-ab90-b06087f3ef72"},"vehicle_type_id":"4","last_reported":1758806541,"current_range_meters":12400,"station_id":"ce4bhih2rcd13ifvqfs0","pricing_plan_id":"cebpf4jnsgd1na2vs0mg"},{"bike_id":"212de2eb-8bbc-413c-b204-9fe1facd76e8","system_id":"levelo_inurba_marseille","lat":43.31308,"lon":5.37816,"is_reserved":false,"is_disabled":false,"rental_uris":{"android":"levelo://app?vid=212de2eb-8bbc-413c-b204-9fe1facd76e8","ios":"levelo://app?vid=212de2eb-8bbc-413c-b204-9fe1facd76e8"},"vehicle_type_id":"4","last_reported":1758806541,"current_range_meters":12400,"station_id":"","pricing_plan_id":"cebpf4jnsgd1na2vs0mg"},{"bike_id":"f9af076b-c426-46f0-97f6-f6a5a530c8e2","system_id":"levelo_inurba_marseille","lat":43.33047,"lon":5.39704,"is_reserved":false,"is_disabled":false,"rental_uris":{"android":"levelo://app?vid=f9af076b-c426-46f0-97f6-f6a5a530c8e2","ios":"levelo://app?vid=f9af076b-c426-46f0-97f6-f6a5a530c8e2"},"vehicle_type_id":"4","last_reported":1758806541,"current_range_meters":12400,"station_id":"","pricing_plan_id":"cebpf4jnsgd1na2vs0mg"},{"bike_id":"f0c5386a-9938-4d6a-81e8-14ec0c5e2580","system_id":"levelo_inurba_marseille","lat":43.31495,"lon":5.37768,"is_reserved":false,"is_disabled":false,"rental_uris":{"android":"levelo://app?vid=f0c5386a-9938-4d6a-81e8-14ec0c5e2580","ios":"levelo://app?vid=f0c5386a-9938-4d6a-81e8-14ec0c5e2580"},"vehicle_type_id":"4","last_reported":1758806541,"current_range_meters":12400,"station_id":"","pricing_plan_id":"cebpf4jnsgd1na2vs0mg"},{"bike_id":"9957286a-78bd-4512-a2e9-c89373c449b0","system_id":"levelo_inurba_marseille","lat":43.23184,"lon":5.39983,"is_reserved":false,"is_disabled":false,"rental_uris":{"android":"levelo://app?vid=9957286a-78bd-4512-a2e9-c89373c449b0","ios":"levelo://app?vid=9957286a-78bd-4512-a2e9-c89373c449b0"},"vehicle_type_id":"4","last_reported":1758806541,"current_range_meters":12400,"station_id":"ce4bhn12rcd13ifvqgqg","pricing_plan_id":"cebpf4jnsgd1na2vs0mg"},{"bike_id":"a826086d-eb5d-448a-b236-0e5f80911569","system_id":"levelo_inurba_marseille","lat":43.30951,"lon":5.39029,"is_reserved":false,"is_disabled":false,"rental_uris":{"android":"levelo://app?vid=a826086d-eb5d-448a-b236-0e5f80911569","ios":"levelo://app?vid=a826086d-eb5d-448a-b236-0e5f80911569"},"vehicle_type_id":"4","last_reported":1758806541,"current_range_meters":12800,"station_id":"ce4bgup2rcd13ifvqco0","pricing_plan_id":"cebpf4jnsgd1na2vs0mg"},{"bike_id":"2bd2a176-8590-4e06-8b8c-a96b49b7b36a","system_id":"levelo_inurba_marseille","lat":43.262237,"lon":5.404538,"is_reserved":false,"is_disabled":false,"rental_uris":{"android":"levelo://app?vid=2bd2a176-8590-4e06-8b8c-a96b49b7b36a","ios":"levelo://app?vid=2bd2a176-8590-4e06-8b8c-a96b49b7b36a"},"vehicle_type_id":"4","last_reported":1758806541,"current_range_meters":12800,"station_id":"","pricing_plan_id":"cebpf4jnsgd1na2vs0mg"},{"bike_id":"68f3e7d6-4018-44d2-8a43-0dc5b347ab4a","system_id":"levelo_inurba_marseille","lat":43.2991,"lon":5.37463,"is_reserved":false,"is_disabled":false,"rental_uris":{"android":"levelo://app?vid=68f3e7d6-4018-44d2-8a43-0dc5b347ab4a","ios":"levelo://app?vid=68f3e7d6-4018-44d2-8a43-0dc5b347ab4a"},"vehicle_type_id":"4","last_reported":1758806541,"current_range_meters":12400,"station_id":"ce4bgjh2rcd13ifvqbg0","pricing_plan_id":"cebpf4jnsgd1na2vs0mg"},{"bike_id":"2398e714-da7f-4f0e-a401-0b08570bddf3","system_id":"levelo_inurba_marseille","lat":43.32112,"lon":5.36772,"is_reserved":false,"is_disabled":false,"rental_uris":{"android":"levelo://app?vid=2398e714-da7f-4f0e-a401-0b08570bddf3","ios":"levelo://app?vid=2398e714-da7f-4f0e-a401-0b08570bddf3"},"vehicle_type_id":"4","last_reported":1758806541,"current_range_meters":12800,"station_id":"ce4bhrh2rcd13ifvqhug","pricing_plan_id":"cebpf4jnsgd1na2vs0mg"},{"bike_id":"15e81773-13c2-4026-9a7b-90dea0c2e4d0","system_id":"levelo_inurba_marseille","lat":43.31233,"lon":5.36861,"is_reserved":false,"is_disabled":false,"rental_uris":{"android":"levelo://app?vid=15e81773-13c2-4026-9a7b-90dea0c2e4d0","ios":"levelo://app?vid=15e81773-13c2-4026-9a7b-90dea0c2e4d0"},"vehicle_type_id":"4","last_reported":1758806541,"current_range_meters":12800,"station_id":"ce4bgl92rcd13ifvqbq0","pricing_plan_id":"cebpf4jnsgd1na2vs0mg"},{"bike_id":"0607420b-917e-4e64-b421-9693d2dfab45","system_id":"levelo_inurba_marseille","lat":43.31713,"lon":5.43704,"is_reserved":false,"is_disabled":false,"rental_uris":{"android":"levelo://app?vid=0607420b-917e-4e64-b421-9693d2dfab45","ios":"levelo://app?vid=0607420b-917e-4e64-b421-9693d2dfab45"},"vehicle_type_id":"4","last_reported":1758806541,"current_range_meters":13600,"station_id":"ce4bhp92rcd13ifvqhcg","pricing_plan_id":"cebpf4jnsgd1na2vs0mg"},{"bike_id":"17b6e890-308f-4e08-9acd-7090f69670ec","system_id":"levelo_inurba_marseille","lat":43.31264,"lon":5.36894,"is_reserved":false,"is_disabled":false,"rental_uris":{"android":"levelo://app?vid=17b6e890-308f-4e08-9acd-7090f69670ec","ios":"levelo://app?vid=17b6e890-308f-4e08-9acd-7090f69670ec"},"vehicle_type_id":"4","last_reported":1758806541,"current_range_meters":13600,"station_id":"","pricing_plan_id":"cebpf4jnsgd1na2vs0mg"},{"bike_id":"3b7784af-5b20-4587-9c3b-163666d20134","system_id":"levelo_inurba_marseille","lat":43.290392,"lon":5.378064,"is_reserved":false,"is_disabled":false,"rental_uris":{"android":"levelo://app?vid=3b7784af-5b20-4587-9c3b-163666d20134","ios":"levelo://app?vid=3b7784af-5b20-4587-9c3b-163666d20134"},"vehicle_type_id":"4","last_reported":1758806541,"current_range_meters":13600,"station_id":"ce4bh692rcd13ifvqe90","pricing_plan_id":"cebpf4jnsgd1na2vs0mg"},{"bike_id":"03c12457-0866-4283-a32c-3c94a04d7d47","system_id":"levelo_inurba_marseille","lat":43.26567,"lon":5.37269,"is_reserved":false,"is_disabled":false,"rental_uris":{"android":"levelo://app?vid=03c12457-0866-4283-a32c-3c94a04d7d47","ios":"levelo://app?vid=03c12457-0866-4283-a32c-3c94a04d7d47"},"vehicle_type_id":"4","last_reported":1758806541,"current_range_meters":13600,"station_id":"ce4bhg12rcd13ifvqf70","pricing_plan_id":"cebpf4jnsgd1na2vs0mg"},{"bike_id":"87e35d32-0ec4-4cda-949d-9256b87baba1","system_id":"levelo_inurba_marseille","lat":43.337444,"lon":5.374475,"is_reserved":false,"is_disabled":false,"rental_uris":{"android":"levelo://app?vid=87e35d32-0ec4-4cda-949d-9256b87baba1","ios":"levelo://app?vid=87e35d32-0ec4-4cda-949d-9256b87baba1"},"vehicle_type_id":"4","last_reported":1758806541,"current_range_meters":13600,"station_id":"","pricing_plan_id":"cebpf4jnsgd1na2vs0mg"},{"bike_id":"dbbd0170-cf1c-4e9f-b868-fef4110f9420","system_id":"levelo_inurba_marseille","lat":43.286748,"lon":5.36354,"is_reserved":false,"is_disabled":false,"rental_uris":{"android":"levelo://app?vid=dbbd0170-cf1c-4e9f-b868-fef4110f9420","ios":"levelo://app?vid=dbbd0170-cf1c-4e9f-b868-fef4110f9420"},"vehicle_type_id":"4","last_reported":1758806541,"current_range_meters":13600,"station_id":"ce4bhah2rcd13ifvqej0","pricing_plan_id":"cebpf4jnsgd1na2vs0mg"},{"bike_id":"1ea82c4f-b19e-42c1-8e1c-cd0ff13ff844","system_id":"levelo_inurba_marseille","lat":43.30941,"lon":5.40153,"is_reserved":false,"is_disabled":false,"rental_uris":{"android":"levelo://app?vid=1ea82c4f-b19e-42c1-8e1c-cd0ff13ff844","ios":"levelo://app?vid=1ea82c4f-b19e-42c1-8e1c-cd0ff13ff844"},"vehicle_type_id":"4","last_reported":1758806541,"current_range_meters":14000,"station_id":"ce4bgvp2rcd13ifvqct0","pricing_plan_id":"cebpf4jnsgd1na2vs0mg"},{"bike_id":"595573fc-e79a-41eb-8127-3c8f7b96d8f1","system_id":"levelo_inurba_marseille","lat":43.26579,"lon":5.37285,"is_reserved":false,"is_disabled":false,"rental_uris":{"android":"levelo://app?vid=595573fc-e79a-41eb-8127-3c8f7b96d8f1","ios":"levelo://app?vid=595573fc-e79a-41eb-8127-3c8f7b96d8f1"},"vehicle_type_id":"4","last_reported":1758806541,"current_range_meters":14000,"station_id":"ce4bhg12rcd13ifvqf70","pricing_plan_id":"cebpf4jnsgd1na2vs0mg"},{"bike_id":"90d05c78-fa23-41ac-a27e-bbdfb7ef5b61","system_id":"levelo_inurba_marseille","lat":43.27311,"lon":5.39077,"is_reserved":false,"is_disabled":false,"rental_uris":{"android":"levelo://app?vid=90d05c78-fa23-41ac-a27e-bbdfb7ef5b61","ios":"levelo://app?vid=90d05c78-fa23-41ac-a27e-bbdfb7ef5b61"},"vehicle_type_id":"4","last_reported":1758806541,"current_range_meters":14000,"station_id":"ce4bhgp2rcd13ifvqfe0","pricing_plan_id":"cebpf4jnsgd1na2vs0mg"},{"bike_id":"49484534-aa5c-46cf-893a-a8e302b34e66","system_id":"levelo_inurba_marseille","lat":43.271814,"lon":5.410032,"is_reserved":false,"is_disabled":false,"rental_uris":{"android":"levelo://app?vid=49484534-aa5c-46cf-893a-a8e302b34e66","ios":"levelo://app?vid=49484534-aa5c-46cf-893a-a8e302b34e66"},"vehicle_type_id":"4","last_reported":1758806541,"current_range_meters":14000,"station_id":"ce4bhl12rcd13ifvqgf0","pricing_plan_id":"cebpf4jnsgd1na2vs0mg"},{"bike_id":"d31d856a-933d-49cf-948f-ce03657dfc74","system_id":"levelo_inurba_marseille","lat":43.28418,"lon":5.34972,"is_reserved":false,"is_disabled":false,"rental_uris":{"android":"levelo://app?vid=d31d856a-933d-49cf-948f-ce03657dfc74","ios":"levelo://app?vid=d31d856a-933d-49cf-948f-ce03657dfc74"},"vehicle_type_id":"4","last_reported":1758806541,"current_range_meters":14000,"station_id":"ce4bhbh2rcd13ifvqepg","pricing_plan_id":"cebpf4jnsgd1na2vs0mg"},{"bike_id":"e58e11b2-9d72-4832-b81b-e13d6243530f","system_id":"levelo_inurba_marseille","lat":43.295201,"lon":5.394059,"is_reserved":false,"is_disabled":false,"rental_uris":{"android":"levelo://app?vid=e58e11b2-9d72-4832-b81b-e13d6243530f","ios":"levelo://app?vid=e58e11b2-9d72-4832-b81b-e13d6243530f"},"vehicle_type_id":"4","last_reported":1758806541,"current_range_meters":14000,"station_id":"ce4bh292rcd13ifvqdf0","pricing_plan_id":"cebpf4jnsgd1na2vs0mg"},{"bike_id":"96c55bcf-90b7-4618-9025-978539f925b5","system_id":"levelo_inurba_marseille","lat":43.32371,"lon":5.3678,"is_reserved":false,"is_disabled":false,"rental_uris":{"android":"levelo://app?vid=96c55bcf-90b7-4618-9025-978539f925b5","ios":"levelo://app?vid=96c55bcf-90b7-4618-9025-978539f925b5"},"vehicle_type_id":"4","last_reported":1758806541,"current_range_meters":14000,"station_id":"ce4bhsh2rcd13ifvqi2g","pricing_plan_id":"cebpf4jnsgd1na2vs0mg"},{"bike_id":"3e795a56-fcd5-414a-824d-13838a97cb44","system_id":"levelo_inurba_marseille","lat":43.24166,"lon":5.36383,"is_reserved":false,"is_disabled":false,"rental_uris":{"android":"levelo://app?vid=3e795a56-fcd5-414a-824d-13838a97cb44","ios":"levelo://app?vid=3e795a56-fcd5-414a-824d-13838a97cb44"},"vehicle_type_id":"4","last_reported":1758806541,"current_range_meters":14400,"station_id":"cpo36qri1sfpv3e86is0","pricing_plan_id":"cebpf4jnsgd1na2vs0mg"},{"bike_id":"af60c407-5d0d-4124-90bc-f5c672eb5129","system_id":"levelo_inurba_marseille","lat":43.31711,"lon":5.40478,"is_reserved":false,"is_disabled":false,"rental_uris":{"android":"levelo://app?vid=af60c407-5d0d-4124-90bc-f5c672eb5129","ios":"levelo://app?vid=af60c407-5d0d-4124-90bc-f5c672eb5129"},"vehicle_type_id":"4","last_reported":1758806541,"current_range_meters":14400,"station_id":"ce4bh012rcd13ifvqd00","pricing_plan_id":"cebpf4jnsgd1na2vs0mg"},{"bike_id":"db1891c3-95ea-4702-8171-5241613f2d5c","system_id":"levelo_inurba_marseille","lat":43.29034,"lon":5.35904,"is_reserved":false,"is_disabled":false,"rental_uris":{"android":"levelo://app?vid=db1891c3-95ea-4702-8171-5241613f2d5c","ios":"levelo://app?vid=db1891c3-95ea-4702-8171-5241613f2d5c"},"vehicle_type_id":"4","last_reported":1758806541,"current_range_meters":14400,"station_id":"ce4bha92rcd13ifvqeg0","pricing_plan_id":"cebpf4jnsgd1na2vs0mg"},{"bike_id":"a291eeae-bc52-451c-8f67-3780447bf373","system_id":"levelo_inurba_marseille","lat":43.32358,"lon":5.36742,"is_reserved":false,"is_disabled":false,"rental_uris":{"android":"levelo://app?vid=a291eeae-bc52-451c-8f67-3780447bf373","ios":"levelo://app?vid=a291eeae-bc52-451c-8f67-3780447bf373"},"vehicle_type_id":"4","last_reported":1758806541,"current_range_meters":14400,"station_id":"ce4bhsh2rcd13ifvqi2g","pricing_plan_id":"cebpf4jnsgd1na2vs0mg"},{"bike_id":"f897d300-643c-4c7a-951b-f56d70ef23ca","system_id":"levelo_inurba_marseille","lat":43.30331,"lon":5.39074,"is_reserved":false,"is_disabled":false,"rental_uris":{"android":"levelo://app?vid=f897d300-643c-4c7a-951b-f56d70ef23ca","ios":"levelo://app?vid=f897d300-643c-4c7a-951b-f56d70ef23ca"},"vehicle_type_id":"4","last_reported":1758806541,"current_range_meters":14400,"station_id":"","pricing_plan_id":"cebpf4jnsgd1na2vs0mg"},{"bike_id":"85cd6d06-e6e2-4f5c-a023-284376820711","system_id":"levelo_inurba_marseille","lat":43.29744,"lon":5.36614,"is_reserved":false,"is_disabled":false,"rental_uris":{"android":"levelo://app?vid=85cd6d06-e6e2-4f5c-a023-284376820711","ios":"levelo://app?vid=85cd6d06-e6e2-4f5c-a023-284376820711"},"vehicle_type_id":"4","last_reported":1758806541,"current_range_meters":14400,"station_id":"ce4bgn12rcd13ifvqbt0","pricing_plan_id":"cebpf4jnsgd1na2vs0mg"},{"bike_id":"cbfe4f9d-2fa0-4da2-93dc-4df3c5686f7c","system_id":"levelo_inurba_marseille","lat":43.27079,"lon":5.4226,"is_reserved":false,"is_disabled":false,"rental_uris":{"android":"levelo://app?vid=cbfe4f9d-2fa0-4da2-93dc-4df3c5686f7c","ios":"levelo://app?vid=cbfe4f9d-2fa0-4da2-93dc-4df3c5686f7c"},"vehicle_type_id":"4","last_reported":1758806541,"current_range_meters":14400,"station_id":"ce4bhk92rcd13ifvqgb0","pricing_plan_id":"cebpf4jnsgd1na2vs0mg"},{"bike_id":"725b1ff1-3894-44f1-a38e-91bc39cbab7e","system_id":"levelo_inurba_marseille","lat":43.24665,"lon":5.4311,"is_reserved":false,"is_disabled":false,"rental_uris":{"android":"levelo://app?vid=725b1ff1-3894-44f1-a38e-91bc39cbab7e","ios":"levelo://app?vid=725b1ff1-3894-44f1-a38e-91bc39cbab7e"},"vehicle_type_id":"4","last_reported":1758806541,"current_range_meters":14400,"station_id":"st_d2m6c4gdas8pm72e190g","pricing_plan_id":"cebpf4jnsgd1na2vs0mg"},{"bike_id":"329672fe-8431-49db-9693-2386e08dfeae","system_id":"levelo_inurba_marseille","lat":43.30294,"lon":5.36879,"is_reserved":false,"is_disabled":false,"rental_uris":{"android":"levelo://app?vid=329672fe-8431-49db-9693-2386e08dfeae","ios":"levelo://app?vid=329672fe-8431-49db-9693-2386e08dfeae"},"vehicle_type_id":"4","last_reported":1758806541,"current_range_meters":14400,"station_id":"ce4bgqh2rcd13ifvqc5g","pricing_plan_id":"cebpf4jnsgd1na2vs0mg"},{"bike_id":"1c27f7d4-507d-43e2-b324-44f5e35dee72","system_id":"levelo_inurba_marseille","lat":43.32369,"lon":5.38871,"is_reserved":false,"is_disabled":false,"rental_uris":{"android":"levelo://app?vid=1c27f7d4-507d-43e2-b324-44f5e35dee72","ios":"levelo://app?vid=1c27f7d4-507d-43e2-b324-44f5e35dee72"},"vehicle_type_id":"4","last_reported":1758806541,"current_range_meters":14400,"station_id":"ce4bhqp2rcd13ifvqhog","pricing_plan_id":"cebpf4jnsgd1na2vs0mg"},{"bike_id":"c9075cf3-22c5-4198-9b5a-3df9086d960d","system_id":"levelo_inurba_marseille","lat":43.26951,"lon":5.38631,"is_reserved":false,"is_disabled":false,"rental_uris":{"android":"levelo://app?vid=c9075cf3-22c5-4198-9b5a-3df9086d960d","ios":"levelo://app?vid=c9075cf3-22c5-4198-9b5a-3df9086d960d"},"vehicle_type_id":"4","last_reported":1758806541,"current_range_meters":14400,"station_id":"ce4bhh92rcd13ifvqfh0","pricing_plan_id":"cebpf4jnsgd1na2vs0mg"},{"bike_id":"3731e4b4-e57b-4ad8-affe-801decac42ca","system_id":"levelo_inurba_marseille","lat":43.24955,"lon":5.40498,"is_reserved":false,"is_disabled":false,"rental_uris":{"android":"levelo://app?vid=3731e4b4-e57b-4ad8-affe-801decac42ca","ios":"levelo://app?vid=3731e4b4-e57b-4ad8-affe-801decac42ca"},"vehicle_type_id":"4","last_reported":1758806541,"current_range_meters":14400,"station_id":"st_d2ngiaodas8pm72gd1h0","pricing_plan_id":"cebpf4jnsgd1na2vs0mg"},{"bike_id":"fd4b0929-5dae-4f92-bfeb-801c6778a0f5","system_id":"levelo_inurba_marseille","lat":43.26564,"lon":5.37265,"is_reserved":false,"is_disabled":false,"rental_uris":{"android":"levelo://app?vid=fd4b0929-5dae-4f92-bfeb-801c6778a0f5","ios":"levelo://app?vid=fd4b0929-5dae-4f92-bfeb-801c6778a0f5"},"vehicle_type_id":"4","last_reported":1758806541,"current_range_meters":14400,"station_id":"ce4bhg12rcd13ifvqf70","pricing_plan_id":"cebpf4jnsgd1na2vs0mg"},{"bike_id":"e5303607-da03-4ac7-b81e-b332ede84cf7","system_id":"levelo_inurba_marseille","lat":43.31331,"lon":5.37813,"is_reserved":false,"is_disabled":false,"rental_uris":{"android":"levelo://app?vid=e5303607-da03-4ac7-b81e-b332ede84cf7","ios":"levelo://app?vid=e5303607-da03-4ac7-b81e-b332ede84cf7"},"vehicle_type_id":"4","last_reported":1758806541,"current_range_meters":14400,"station_id":"","pricing_plan_id":"cebpf4jnsgd1na2vs0mg"},{"bike_id":"cdc698d3-912d-45c7-b11f-b3f0e292ec41","system_id":"levelo_inurba_marseille","lat":43.23192,"lon":5.35554,"is_reserved":false,"is_disabled":false,"rental_uris":{"android":"levelo://app?vid=cdc698d3-912d-45c7-b11f-b3f0e292ec41","ios":"levelo://app?vid=cdc698d3-912d-45c7-b11f-b3f0e292ec41"},"vehicle_type_id":"4","last_reported":1758806541,"current_range_meters":14800,"station_id":"ce4bhu92rcd13ifvqi70","pricing_plan_id":"cebpf4jnsgd1na2vs0mg"},{"bike_id":"68c4395b-ad46-4f4b-ad41-b67731fd2355","system_id":"levelo_inurba_marseille","lat":43.29531,"lon":5.38546,"is_reserved":false,"is_disabled":false,"rental_uris":{"android":"levelo://app?vid=68c4395b-ad46-4f4b-ad41-b67731fd2355","ios":"levelo://app?vid=68c4395b-ad46-4f4b-ad41-b67731fd2355"},"vehicle_type_id":"4","last_reported":1758806541,"current_range_meters":14800,"station_id":"ce4bgih2rcd13ifvqba0","pricing_plan_id":"cebpf4jnsgd1na2vs0mg"},{"bike_id":"606509ed-8225-4624-8ecf-492690476bed","system_id":"levelo_inurba_marseille","lat":43.25827,"lon":5.3943,"is_reserved":false,"is_disabled":false,"rental_uris":{"android":"levelo://app?vid=606509ed-8225-4624-8ecf-492690476bed","ios":"levelo://app?vid=606509ed-8225-4624-8ecf-492690476bed"},"vehicle_type_id":"4","last_reported":1758806541,"current_range_meters":14800,"station_id":"ce4bhip2rcd13ifvqft0","pricing_plan_id":"cebpf4jnsgd1na2vs0mg"},{"bike_id":"c7f6a08b-c655-4213-b2ba-7d02e7f382fe","system_id":"levelo_inurba_marseille","lat":43.27988,"lon":5.39483,"is_reserved":false,"is_disabled":false,"rental_uris":{"android":"levelo://app?vid=c7f6a08b-c655-4213-b2ba-7d02e7f382fe","ios":"levelo://app?vid=c7f6a08b-c655-4213-b2ba-7d02e7f382fe"},"vehicle_type_id":"4","last_reported":1758806541,"current_range_meters":14800,"station_id":"","pricing_plan_id":"cebpf4jnsgd1na2vs0mg"},{"bike_id":"98d21211-215a-4898-8ab7-381e23b970bd","system_id":"levelo_inurba_marseille","lat":43.30529,"lon":5.36552,"is_reserved":false,"is_disabled":false,"rental_uris":{"android":"levelo://app?vid=98d21211-215a-4898-8ab7-381e23b970bd","ios":"levelo://app?vid=98d21211-215a-4898-8ab7-381e23b970bd"},"vehicle_type_id":"4","last_reported":1758806541,"current_range_meters":15200,"station_id":"ce4bgs12rcd13ifvqcag","pricing_plan_id":"cebpf4jnsgd1na2vs0mg"},{"bike_id":"041cd397-24ab-4e04-af23-07b961e161f4","system_id":"levelo_inurba_marseille","lat":43.337444,"lon":5.374475,"is_reserved":false,"is_disabled":false,"rental_uris":{"android":"levelo://app?vid=041cd397-24ab-4e04-af23-07b961e161f4","ios":"levelo://app?vid=041cd397-24ab-4e04-af23-07b961e161f4"},"vehicle_type_id":"4","last_reported":1758806541,"current_range_meters":15200,"station_id":"","pricing_plan_id":"cebpf4jnsgd1na2vs0mg"},{"bike_id":"34ef8756-1961-489a-9e01-0b235c81654a","system_id":"levelo_inurba_marseille","lat":43.29869,"lon":5.39722,"is_reserved":false,"is_disabled":false,"rental_uris":{"android":"levelo://app?vid=34ef8756-1961-489a-9e01-0b235c81654a","ios":"levelo://app?vid=34ef8756-1961-489a-9e01-0b235c81654a"},"vehicle_type_id":"4","last_reported":1758806541,"current_range_meters":16000,"station_id":"ce4bh0h2rcd13ifvqd50","pricing_plan_id":"cebpf4jnsgd1na2vs0mg"},{"bike_id":"70f51fcf-74f4-45ec-9be6-a0518cc18044","system_id":"levelo_inurba_marseille","lat":43.33544,"lon":5.40982,"is_reserved":false,"is_disabled":false,"rental_uris":{"android":"levelo://app?vid=70f51fcf-74f4-45ec-9be6-a0518cc18044","ios":"levelo://app?vid=70f51fcf-74f4-45ec-9be6-a0518cc18044"},"vehicle_type_id":"4","last_reported":1758806541,"current_range_meters":16000,"station_id":"","pricing_plan_id":"cebpf4jnsgd1na2vs0mg"},{"bike_id":"d734f0f7-bb82-4cbc-9571-824c32d91d22","system_id":"levelo_inurba_marseille","lat":43.2418,"lon":5.36383,"is_reserved":false,"is_disabled":false,"rental_uris":{"android":"levelo://app?vid=d734f0f7-bb82-4cbc-9571-824c32d91d22","ios":"levelo://app?vid=d734f0f7-bb82-4cbc-9571-824c32d91d22"},"vehicle_type_id":"4","last_reported":1758806541,"current_range_meters":16000,"station_id":"cpo36qri1sfpv3e86is0","pricing_plan_id":"cebpf4jnsgd1na2vs0mg"},{"bike_id":"dc284cdd-6149-450a-a608-d69b0c94358f","system_id":"levelo_inurba_marseille","lat":43.25115,"lon":5.4032,"is_reserved":false,"is_disabled":false,"rental_uris":{"android":"levelo://app?vid=dc284cdd-6149-450a-a608-d69b0c94358f","ios":"levelo://app?vid=dc284cdd-6149-450a-a608-d69b0c94358f"},"vehicle_type_id":"4","last_reported":1758806541,"current_range_meters":15200,"station_id":"ce4bhlh2rcd13ifvqgig","pricing_plan_id":"cebpf4jnsgd1na2vs0mg"},{"bike_id":"da808dfc-cbfb-4a8e-a9cd-723c832f9b69","system_id":"levelo_inurba_marseille","lat":43.30749,"lon":5.42421,"is_reserved":false,"is_disabled":false,"rental_uris":{"android":"levelo://app?vid=da808dfc-cbfb-4a8e-a9cd-723c832f9b69","ios":"levelo://app?vid=da808dfc-cbfb-4a8e-a9cd-723c832f9b69"},"vehicle_type_id":"4","last_reported":1758806541,"current_range_meters":16000,"station_id":"st_cvj6ca6bvosntc0bfgr0","pricing_plan_id":"cebpf4jnsgd1na2vs0mg"},{"bike_id":"8853ca67-02c3-4604-aaf0-76ea98b989a3","system_id":"levelo_inurba_marseille","lat":43.25474,"lon":5.37661,"is_reserved":false,"is_disabled":false,"rental_uris":{"android":"levelo://app?vid=8853ca67-02c3-4604-aaf0-76ea98b989a3","ios":"levelo://app?vid=8853ca67-02c3-4604-aaf0-76ea98b989a3"},"vehicle_type_id":"4","last_reported":1758806541,"current_range_meters":16000,"station_id":"ce4bhbp2rcd13ifvqerg","pricing_plan_id":"cebpf4jnsgd1na2vs0mg"},{"bike_id":"2174357d-9970-4022-8e07-7a8f269691be","system_id":"levelo_inurba_marseille","lat":43.280815,"lon":5.396495,"is_reserved":false,"is_disabled":false,"rental_uris":{"android":"levelo://app?vid=2174357d-9970-4022-8e07-7a8f269691be","ios":"levelo://app?vid=2174357d-9970-4022-8e07-7a8f269691be"},"vehicle_type_id":"4","last_reported":1758806541,"current_range_meters":19200,"station_id":"ce4bho12rcd13ifvqh2g","pricing_plan_id":"cebpf4jnsgd1na2vs0mg"},{"bike_id":"97a5ee76-2e0a-479d-a727-d5a9ad8fecb2","system_id":"levelo_inurba_marseille","lat":43.22935,"lon":5.35392,"is_reserved":false,"is_disabled":false,"rental_uris":{"android":"levelo://app?vid=97a5ee76-2e0a-479d-a727-d5a9ad8fecb2","ios":"levelo://app?vid=97a5ee76-2e0a-479d-a727-d5a9ad8fecb2"},"vehicle_type_id":"4","last_reported":1758806541,"current_range_meters":16400,"station_id":"cpo3532slgdg3j2ikp40","pricing_plan_id":"cebpf4jnsgd1na2vs0mg"},{"bike_id":"61343015-8da6-4717-a174-1c0b21eb3ac8","system_id":"levelo_inurba_marseille","lat":43.30191,"lon":5.36605,"is_reserved":false,"is_disabled":false,"rental_uris":{"android":"levelo://app?vid=61343015-8da6-4717-a174-1c0b21eb3ac8","ios":"levelo://app?vid=61343015-8da6-4717-a174-1c0b21eb3ac8"},"vehicle_type_id":"4","last_reported":1758806541,"current_range_meters":16000,"station_id":"ce4bgrh2rcd13ifvqc8g","pricing_plan_id":"cebpf4jnsgd1na2vs0mg"},{"bike_id":"9b60f32b-f965-4366-b2f7-6a0d1f9f47cb","system_id":"levelo_inurba_marseille","lat":43.26061,"lon":5.39395,"is_reserved":false,"is_disabled":false,"rental_uris":{"android":"levelo://app?vid=9b60f32b-f965-4366-b2f7-6a0d1f9f47cb","ios":"levelo://app?vid=9b60f32b-f965-4366-b2f7-6a0d1f9f47cb"},"vehicle_type_id":"4","last_reported":1758806541,"current_range_meters":16400,"station_id":"ce4bhh92rcd13ifvqfj0","pricing_plan_id":"cebpf4jnsgd1na2vs0mg"},{"bike_id":"1962763a-068c-43af-80ca-b2d480514eda","system_id":"levelo_inurba_marseille","lat":43.249545,"lon":5.404915,"is_reserved":false,"is_disabled":false,"rental_uris":{"android":"levelo://app?vid=1962763a-068c-43af-80ca-b2d480514eda","ios":"levelo://app?vid=1962763a-068c-43af-80ca-b2d480514eda"},"vehicle_type_id":"4","last_reported":1758806541,"current_range_meters":16400,"station_id":"st_d2ngiaodas8pm72gd1h0","pricing_plan_id":"cebpf4jnsgd1na2vs0mg"},{"bike_id":"f295db90-bac2-432b-b21c-e5c74b310cdb","system_id":"levelo_inurba_marseille","lat":43.31328,"lon":5.396867,"is_reserved":false,"is_disabled":false,"rental_uris":{"android":"levelo://app?vid=f295db90-bac2-432b-b21c-e5c74b310cdb","ios":"levelo://app?vid=f295db90-bac2-432b-b21c-e5c74b310cdb"},"vehicle_type_id":"4","last_reported":1758806541,"current_range_meters":16400,"station_id":"ce4bgvp2rcd13ifvqcu0","pricing_plan_id":"cebpf4jnsgd1na2vs0mg"},{"bike_id":"39e6b2d7-e7bc-4366-8a01-87bc46855564","system_id":"levelo_inurba_marseille","lat":43.32139,"lon":5.36761,"is_reserved":false,"is_disabled":false,"rental_uris":{"android":"levelo://app?vid=39e6b2d7-e7bc-4366-8a01-87bc46855564","ios":"levelo://app?vid=39e6b2d7-e7bc-4366-8a01-87bc46855564"},"vehicle_type_id":"4","last_reported":1758806541,"current_range_meters":16400,"station_id":"ce4bhrh2rcd13ifvqhug","pricing_plan_id":"cebpf4jnsgd1na2vs0mg"},{"bike_id":"b6ff3672-4e7c-404c-ab2a-bd902cf95e14","system_id":"levelo_inurba_marseille","lat":43.26848,"lon":5.40689,"is_reserved":false,"is_disabled":false,"rental_uris":{"android":"levelo://app?vid=b6ff3672-4e7c-404c-ab2a-bd902cf95e14","ios":"levelo://app?vid=b6ff3672-4e7c-404c-ab2a-bd902cf95e14"},"vehicle_type_id":"4","last_reported":1758806541,"current_range_meters":16400,"station_id":"","pricing_plan_id":"cebpf4jnsgd1na2vs0mg"},{"bike_id":"4ed9442b-8d76-48e4-b297-5e708eff2d9a","system_id":"levelo_inurba_marseille","lat":43.28263,"lon":5.35051,"is_reserved":false,"is_disabled":false,"rental_uris":{"android":"levelo://app?vid=4ed9442b-8d76-48e4-b297-5e708eff2d9a","ios":"levelo://app?vid=4ed9442b-8d76-48e4-b297-5e708eff2d9a"},"vehicle_type_id":"4","last_reported":1758806541,"current_range_meters":16800,"station_id":"ce4bhbp2rcd13ifvqerg","pricing_plan_id":"cebpf4jnsgd1na2vs0mg"},{"bike_id":"567c9c08-2df1-4876-b0b0-3894b43cbc13","system_id":"levelo_inurba_marseille","lat":43.30155,"lon":5.38086,"is_reserved":false,"is_disabled":false,"rental_uris":{"android":"levelo://app?vid=567c9c08-2df1-4876-b0b0-3894b43cbc13","ios":"levelo://app?vid=567c9c08-2df1-4876-b0b0-3894b43cbc13"},"vehicle_type_id":"4","last_reported":1758806541,"current_range_meters":16800,"station_id":"ce4bgjp2rcd13ifvqbh0","pricing_plan_id":"cebpf4jnsgd1na2vs0mg"},{"bike_id":"c31c58ee-4e29-4ce3-bf0a-25ae5cf57cfc","system_id":"levelo_inurba_marseille","lat":43.24944,"lon":5.40508,"is_reserved":false,"is_disabled":false,"rental_uris":{"android":"levelo://app?vid=c31c58ee-4e29-4ce3-bf0a-25ae5cf57cfc","ios":"levelo://app?vid=c31c58ee-4e29-4ce3-bf0a-25ae5cf57cfc"},"vehicle_type_id":"4","last_reported":1758806541,"current_range_meters":16800,"station_id":"st_d2ngiaodas8pm72gd1h0","pricing_plan_id":"cebpf4jnsgd1na2vs0mg"},{"bike_id":"f84ca7be-c651-4e74-bba2-65c5fe4928ff","system_id":"levelo_inurba_marseille","lat":43.23132,"lon":5.43662,"is_reserved":false,"is_disabled":false,"rental_uris":{"android":"levelo://app?vid=f84ca7be-c651-4e74-bba2-65c5fe4928ff","ios":"levelo://app?vid=f84ca7be-c651-4e74-bba2-65c5fe4928ff"},"vehicle_type_id":"4","last_reported":1758806541,"current_range_meters":16800,"station_id":"ce4bhmp2rcd13ifvqgog","pricing_plan_id":"cebpf4jnsgd1na2vs0mg"},{"bike_id":"a28c4950-acb8-4027-9776-770922e1aae9","system_id":"levelo_inurba_marseille","lat":43.2315,"lon":5.43702,"is_reserved":false,"is_disabled":false,"rental_uris":{"android":"levelo://app?vid=a28c4950-acb8-4027-9776-770922e1aae9","ios":"levelo://app?vid=a28c4950-acb8-4027-9776-770922e1aae9"},"vehicle_type_id":"4","last_reported":1758806541,"current_range_meters":16800,"station_id":"ce4bhmp2rcd13ifvqgog","pricing_plan_id":"cebpf4jnsgd1na2vs0mg"},{"bike_id":"a57b3feb-2354-42fe-87fd-e8fcee3a0260","system_id":"levelo_inurba_marseille","lat":43.26953,"lon":5.40241,"is_reserved":false,"is_disabled":false,"rental_uris":{"android":"levelo://app?vid=a57b3feb-2354-42fe-87fd-e8fcee3a0260","ios":"levelo://app?vid=a57b3feb-2354-42fe-87fd-e8fcee3a0260"},"vehicle_type_id":"4","last_reported":1758806541,"current_range_meters":16800,"station_id":"","pricing_plan_id":"cebpf4jnsgd1na2vs0mg"},{"bike_id":"75d73ab9-ac13-44ed-a5f2-2eb47879b783","system_id":"levelo_inurba_marseille","lat":43.3057,"lon":5.36707,"is_reserved":false,"is_disabled":false,"rental_uris":{"android":"levelo://app?vid=75d73ab9-ac13-44ed-a5f2-2eb47879b783","ios":"levelo://app?vid=75d73ab9-ac13-44ed-a5f2-2eb47879b783"},"vehicle_type_id":"4","last_reported":1758806541,"current_range_meters":16800,"station_id":"ce4bgrp2rcd13ifvqc9g","pricing_plan_id":"cebpf4jnsgd1na2vs0mg"},{"bike_id":"09c6a8cb-4b23-49d2-88a9-9b6b1fe0e5a8","system_id":"levelo_inurba_marseille","lat":43.273159,"lon":5.39075,"is_reserved":false,"is_disabled":false,"rental_uris":{"android":"levelo://app?vid=09c6a8cb-4b23-49d2-88a9-9b6b1fe0e5a8","ios":"levelo://app?vid=09c6a8cb-4b23-49d2-88a9-9b6b1fe0e5a8"},"vehicle_type_id":"4","last_reported":1758806541,"current_range_meters":17200,"station_id":"ce4bhgp2rcd13ifvqfe0","pricing_plan_id":"cebpf4jnsgd1na2vs0mg"},{"bike_id":"a06a9cb0-5cc8-4917-9b24-398cf30dba19","system_id":"levelo_inurba_marseille","lat":43.27315,"lon":5.39082,"is_reserved":false,"is_disabled":false,"rental_uris":{"android":"levelo://app?vid=a06a9cb0-5cc8-4917-9b24-398cf30dba19","ios":"levelo://app?vid=a06a9cb0-5cc8-4917-9b24-398cf30dba19"},"vehicle_type_id":"4","last_reported":1758806541,"current_range_meters":17200,"station_id":"ce4bhgp2rcd13ifvqfe0","pricing_plan_id":"cebpf4jnsgd1na2vs0mg"},{"bike_id":"7c4ad0e1-6c14-4cb3-bded-113bec18a207","system_id":"levelo_inurba_marseille","lat":43.336077,"lon":5.410312,"is_reserved":false,"is_disabled":false,"rental_uris":{"android":"levelo://app?vid=7c4ad0e1-6c14-4cb3-bded-113bec18a207","ios":"levelo://app?vid=7c4ad0e1-6c14-4cb3-bded-113bec18a207"},"vehicle_type_id":"4","last_reported":1758806541,"current_range_meters":17200,"station_id":"ce4bhqh2rcd13ifvqhmg","pricing_plan_id":"cebpf4jnsgd1na2vs0mg"},{"bike_id":"6abff3ff-6f25-403c-932e-68932b6e0682","system_id":"levelo_inurba_marseille","lat":43.23142,"lon":5.43698,"is_reserved":false,"is_disabled":false,"rental_uris":{"android":"levelo://app?vid=6abff3ff-6f25-403c-932e-68932b6e0682","ios":"levelo://app?vid=6abff3ff-6f25-403c-932e-68932b6e0682"},"vehicle_type_id":"4","last_reported":1758806541,"current_range_meters":17200,"station_id":"ce4bhmp2rcd13ifvqgog","pricing_plan_id":"cebpf4jnsgd1na2vs0mg"},{"bike_id":"f08718b9-e1c7-4dd4-8a31-eead7fcd1c85","system_id":"levelo_inurba_marseille","lat":43.321136,"lon":5.367692,"is_reserved":false,"is_disabled":false,"rental_uris":{"android":"levelo://app?vid=f08718b9-e1c7-4dd4-8a31-eead7fcd1c85","ios":"levelo://app?vid=f08718b9-e1c7-4dd4-8a31-eead7fcd1c85"},"vehicle_type_id":"4","last_reported":1758806541,"current_range_meters":17200,"station_id":"ce4bhrh2rcd13ifvqhug","pricing_plan_id":"cebpf4jnsgd1na2vs0mg"},{"bike_id":"4b88bd3c-6fff-474f-b366-59010230e0a6","system_id":"levelo_inurba_marseille","lat":43.31167,"lon":5.387252,"is_reserved":false,"is_disabled":false,"rental_uris":{"android":"levelo://app?vid=4b88bd3c-6fff-474f-b366-59010230e0a6","ios":"levelo://app?vid=4b88bd3c-6fff-474f-b366-59010230e0a6"},"vehicle_type_id":"4","last_reported":1758806541,"current_range_meters":17200,"station_id":"ce4bgv12rcd13ifvqcp0","pricing_plan_id":"cebpf4jnsgd1na2vs0mg"},{"bike_id":"35425744-1bb5-4605-bd68-007206a687a1","system_id":"levelo_inurba_marseille","lat":43.31316,"lon":5.39744,"is_reserved":false,"is_disabled":false,"rental_uris":{"android":"levelo://app?vid=35425744-1bb5-4605-bd68-007206a687a1","ios":"levelo://app?vid=35425744-1bb5-4605-bd68-007206a687a1"},"vehicle_type_id":"4","last_reported":1758806541,"current_range_meters":17200,"station_id":"","pricing_plan_id":"cebpf4jnsgd1na2vs0mg"},{"bike_id":"f08c9e6c-af4e-4dfd-ada3-373cd9f7e093","system_id":"levelo_inurba_marseille","lat":43.2695,"lon":5.38626,"is_reserved":false,"is_disabled":false,"rental_uris":{"android":"levelo://app?vid=f08c9e6c-af4e-4dfd-ada3-373cd9f7e093","ios":"levelo://app?vid=f08c9e6c-af4e-4dfd-ada3-373cd9f7e093"},"vehicle_type_id":"4","last_reported":1758806541,"current_range_meters":17600,"station_id":"ce4bhh92rcd13ifvqfh0","pricing_plan_id":"cebpf4jnsgd1na2vs0mg"},{"bike_id":"e48d3e81-b8de-43dd-9745-81177e2deafb","system_id":"levelo_inurba_marseille","lat":43.30564,"lon":5.36535,"is_reserved":false,"is_disabled":false,"rental_uris":{"android":"levelo://app?vid=e48d3e81-b8de-43dd-9745-81177e2deafb","ios":"levelo://app?vid=e48d3e81-b8de-43dd-9745-81177e2deafb"},"vehicle_type_id":"4","last_reported":1758806541,"current_range_meters":17600,"station_id":"ce4bgs12rcd13ifvqcag","pricing_plan_id":"cebpf4jnsgd1na2vs0mg"},{"bike_id":"ba497036-143b-4452-b70f-c2678e359f20","system_id":"levelo_inurba_marseille","lat":43.2622,"lon":5.3745,"is_reserved":false,"is_disabled":false,"rental_uris":{"android":"levelo://app?vid=ba497036-143b-4452-b70f-c2678e359f20","ios":"levelo://app?vid=ba497036-143b-4452-b70f-c2678e359f20"},"vehicle_type_id":"4","last_reported":1758806541,"current_range_meters":17600,"station_id":"ce4bhgp2rcd13ifvqfc0","pricing_plan_id":"cebpf4jnsgd1na2vs0mg"},{"bike_id":"fe122dd9-ae1f-4c60-9d9d-a8486e2196bf","system_id":"levelo_inurba_marseille","lat":43.23153,"lon":5.43706,"is_reserved":false,"is_disabled":false,"rental_uris":{"android":"levelo://app?vid=fe122dd9-ae1f-4c60-9d9d-a8486e2196bf","ios":"levelo://app?vid=fe122dd9-ae1f-4c60-9d9d-a8486e2196bf"},"vehicle_type_id":"4","last_reported":1758806541,"current_range_meters":17600,"station_id":"ce4bhmp2rcd13ifvqgog","pricing_plan_id":"cebpf4jnsgd1na2vs0mg"},{"bike_id":"32b80ec0-a46c-4df5-921f-da88bbda1654","system_id":"levelo_inurba_marseille","lat":43.32538,"lon":5.41429,"is_reserved":false,"is_disabled":false,"rental_uris":{"android":"levelo://app?vid=32b80ec0-a46c-4df5-921f-da88bbda1654","ios":"levelo://app?vid=32b80ec0-a46c-4df5-921f-da88bbda1654"},"vehicle_type_id":"4","last_reported":1758806541,"current_range_meters":17200,"station_id":"ce4bhq12rcd13ifvqhhg","pricing_plan_id":"cebpf4jnsgd1na2vs0mg"},{"bike_id":"f47764c4-bb47-406e-9df7-4d8ccf1de1a4","system_id":"levelo_inurba_marseille","lat":43.275669,"lon":5.384207,"is_reserved":false,"is_disabled":false,"rental_uris":{"android":"levelo://app?vid=f47764c4-bb47-406e-9df7-4d8ccf1de1a4","ios":"levelo://app?vid=f47764c4-bb47-406e-9df7-4d8ccf1de1a4"},"vehicle_type_id":"4","last_reported":1758806541,"current_range_meters":17600,"station_id":"ce4bhh92rcd13ifvqfi0","pricing_plan_id":"cebpf4jnsgd1na2vs0mg"},{"bike_id":"27c7dccf-293e-424c-b564-456ad9a2e6b3","system_id":"levelo_inurba_marseille","lat":43.2417,"lon":5.36389,"is_reserved":false,"is_disabled":false,"rental_uris":{"android":"levelo://app?vid=27c7dccf-293e-424c-b564-456ad9a2e6b3","ios":"levelo://app?vid=27c7dccf-293e-424c-b564-456ad9a2e6b3"},"vehicle_type_id":"4","last_reported":1758806541,"current_range_meters":17600,"station_id":"cpo36qri1sfpv3e86is0","pricing_plan_id":"cebpf4jnsgd1na2vs0mg"},{"bike_id":"7f09bc43-02a6-468a-9182-731c83281b4a","system_id":"levelo_inurba_marseille","lat":43.26366,"lon":5.37507,"is_reserved":false,"is_disabled":false,"rental_uris":{"android":"levelo://app?vid=7f09bc43-02a6-468a-9182-731c83281b4a","ios":"levelo://app?vid=7f09bc43-02a6-468a-9182-731c83281b4a"},"vehicle_type_id":"4","last_reported":1758806541,"current_range_meters":17600,"station_id":"","pricing_plan_id":"cebpf4jnsgd1na2vs0mg"},{"bike_id":"13be0879-670b-43f4-8fc1-8fbc1c4ccf9c","system_id":"levelo_inurba_marseille","lat":43.28417,"lon":5.34975,"is_reserved":false,"is_disabled":false,"rental_uris":{"android":"levelo://app?vid=13be0879-670b-43f4-8fc1-8fbc1c4ccf9c","ios":"levelo://app?vid=13be0879-670b-43f4-8fc1-8fbc1c4ccf9c"},"vehicle_type_id":"4","last_reported":1758806541,"current_range_meters":17600,"station_id":"ce4bhbh2rcd13ifvqepg","pricing_plan_id":"cebpf4jnsgd1na2vs0mg"},{"bike_id":"e37e8de6-367f-4781-830a-609c7b547700","system_id":"levelo_inurba_marseille","lat":43.28371,"lon":5.38618,"is_reserved":false,"is_disabled":false,"rental_uris":{"android":"levelo://app?vid=e37e8de6-367f-4781-830a-609c7b547700","ios":"levelo://app?vid=e37e8de6-367f-4781-830a-609c7b547700"},"vehicle_type_id":"4","last_reported":1758806541,"current_range_meters":17600,"station_id":"ce4bh492rcd13ifvqdvg","pricing_plan_id":"cebpf4jnsgd1na2vs0mg"},{"bike_id":"a10f7ed7-4d21-45d1-b57d-01405ef498fe","system_id":"levelo_inurba_marseille","lat":43.31237,"lon":5.36844,"is_reserved":false,"is_disabled":false,"rental_uris":{"android":"levelo://app?vid=a10f7ed7-4d21-45d1-b57d-01405ef498fe","ios":"levelo://app?vid=a10f7ed7-4d21-45d1-b57d-01405ef498fe"},"vehicle_type_id":"4","last_reported":1758806541,"current_range_meters":17600,"station_id":"ce4bgl92rcd13ifvqbq0","pricing_plan_id":"cebpf4jnsgd1na2vs0mg"},{"bike_id":"3af59ad9-2121-4d73-9a5c-1420973e949d","system_id":"levelo_inurba_marseille","lat":43.31754,"lon":5.39009,"is_reserved":false,"is_disabled":false,"rental_uris":{"android":"levelo://app?vid=3af59ad9-2121-4d73-9a5c-1420973e949d","ios":"levelo://app?vid=3af59ad9-2121-4d73-9a5c-1420973e949d"},"vehicle_type_id":"4","last_reported":1758806541,"current_range_meters":17200,"station_id":"ce4bhqp2rcd13ifvqhng","pricing_plan_id":"cebpf4jnsgd1na2vs0mg"},{"bike_id":"43009bdc-c1d2-476d-8753-a235cb8d1a73","system_id":"levelo_inurba_marseille","lat":43.2503,"lon":5.38974,"is_reserved":false,"is_disabled":false,"rental_uris":{"android":"levelo://app?vid=43009bdc-c1d2-476d-8753-a235cb8d1a73","ios":"levelo://app?vid=43009bdc-c1d2-476d-8753-a235cb8d1a73"},"vehicle_type_id":"4","last_reported":1758806541,"current_range_meters":17600,"station_id":"","pricing_plan_id":"cebpf4jnsgd1na2vs0mg"},{"bike_id":"d187702b-137e-4724-8733-02dce1ea8280","system_id":"levelo_inurba_marseille","lat":43.27559,"lon":5.384,"is_reserved":false,"is_disabled":false,"rental_uris":{"android":"levelo://app?vid=d187702b-137e-4724-8733-02dce1ea8280","ios":"levelo://app?vid=d187702b-137e-4724-8733-02dce1ea8280"},"vehicle_type_id":"4","last_reported":1758806541,"current_range_meters":17600,"station_id":"ce4bhh92rcd13ifvqfi0","pricing_plan_id":"cebpf4jnsgd1na2vs0mg"},{"bike_id":"327c041e-5c9e-4b0d-a97c-a2dbaab036ae","system_id":"levelo_inurba_marseille","lat":43.328,"lon":5.41063,"is_reserved":false,"is_disabled":false,"rental_uris":{"android":"levelo://app?vid=327c041e-5c9e-4b0d-a97c-a2dbaab036ae","ios":"levelo://app?vid=327c041e-5c9e-4b0d-a97c-a2dbaab036ae"},"vehicle_type_id":"4","last_reported":1758806541,"current_range_meters":18000,"station_id":"","pricing_plan_id":"cebpf4jnsgd1na2vs0mg"},{"bike_id":"dd64c74e-9efb-46f0-a85b-00c101f649b0","system_id":"levelo_inurba_marseille","lat":43.30549,"lon":5.36693,"is_reserved":false,"is_disabled":false,"rental_uris":{"android":"levelo://app?vid=dd64c74e-9efb-46f0-a85b-00c101f649b0","ios":"levelo://app?vid=dd64c74e-9efb-46f0-a85b-00c101f649b0"},"vehicle_type_id":"4","last_reported":1758806541,"current_range_meters":18000,"station_id":"ce4bgrp2rcd13ifvqc9g","pricing_plan_id":"cebpf4jnsgd1na2vs0mg"},{"bike_id":"467b4306-5fd8-484e-9a4b-cf8eb50151ba","system_id":"levelo_inurba_marseille","lat":43.32283,"lon":5.38292,"is_reserved":false,"is_disabled":false,"rental_uris":{"android":"levelo://app?vid=467b4306-5fd8-484e-9a4b-cf8eb50151ba","ios":"levelo://app?vid=467b4306-5fd8-484e-9a4b-cf8eb50151ba"},"vehicle_type_id":"4","last_reported":1758806541,"current_range_meters":18000,"station_id":"ce4bhr12rcd13ifvqhqg","pricing_plan_id":"cebpf4jnsgd1na2vs0mg"},{"bike_id":"c45d8616-a049-48de-aaf2-401d0dcbb31c","system_id":"levelo_inurba_marseille","lat":43.29173,"lon":5.37162,"is_reserved":false,"is_disabled":false,"rental_uris":{"android":"levelo://app?vid=c45d8616-a049-48de-aaf2-401d0dcbb31c","ios":"levelo://app?vid=c45d8616-a049-48de-aaf2-401d0dcbb31c"},"vehicle_type_id":"4","last_reported":1758806541,"current_range_meters":18000,"station_id":"ce4bha92rcd13ifvqeh0","pricing_plan_id":"cebpf4jnsgd1na2vs0mg"},{"bike_id":"9e998cef-d196-444b-b732-61a5398f28dd","system_id":"levelo_inurba_marseille","lat":43.337444,"lon":5.374475,"is_reserved":false,"is_disabled":false,"rental_uris":{"android":"levelo://app?vid=9e998cef-d196-444b-b732-61a5398f28dd","ios":"levelo://app?vid=9e998cef-d196-444b-b732-61a5398f28dd"},"vehicle_type_id":"4","last_reported":1758806541,"current_range_meters":18800,"station_id":"ce4bh012rcd13ifvqcv0","pricing_plan_id":"cebpf4jnsgd1na2vs0mg"},{"bike_id":"410c3b60-7ae1-4574-9c5c-d727f421b34d","system_id":"levelo_inurba_marseille","lat":43.29253,"lon":5.37612,"is_reserved":false,"is_disabled":false,"rental_uris":{"android":"levelo://app?vid=410c3b60-7ae1-4574-9c5c-d727f421b34d","ios":"levelo://app?vid=410c3b60-7ae1-4574-9c5c-d727f421b34d"},"vehicle_type_id":"4","last_reported":1758806541,"current_range_meters":18000,"station_id":"ce4bgi12rcd13ifvqb80","pricing_plan_id":"cebpf4jnsgd1na2vs0mg"},{"bike_id":"0c8cc4cf-1548-4702-8beb-4813f33f974a","system_id":"levelo_inurba_marseille","lat":43.23162,"lon":5.43706,"is_reserved":false,"is_disabled":false,"rental_uris":{"android":"levelo://app?vid=0c8cc4cf-1548-4702-8beb-4813f33f974a","ios":"levelo://app?vid=0c8cc4cf-1548-4702-8beb-4813f33f974a"},"vehicle_type_id":"4","last_reported":1758806541,"current_range_meters":18000,"station_id":"ce4bhmp2rcd13ifvqgog","pricing_plan_id":"cebpf4jnsgd1na2vs0mg"},{"bike_id":"bf36ed01-e725-4c64-bbb7-638745867c41","system_id":"levelo_inurba_marseille","lat":43.337444,"lon":5.374475,"is_reserved":false,"is_disabled":false,"rental_uris":{"android":"levelo://app?vid=bf36ed01-e725-4c64-bbb7-638745867c41","ios":"levelo://app?vid=bf36ed01-e725-4c64-bbb7-638745867c41"},"vehicle_type_id":"4","last_reported":1758806541,"current_range_meters":18000,"station_id":"ce4bh012rcd13ifvqcv0","pricing_plan_id":"cebpf4jnsgd1na2vs0mg"},{"bike_id":"f5a888db-229a-4246-81ee-0ff2a1bcfdfa","system_id":"levelo_inurba_marseille","lat":43.229246,"lon":5.353752,"is_reserved":false,"is_disabled":false,"rental_uris":{"android":"levelo://app?vid=f5a888db-229a-4246-81ee-0ff2a1bcfdfa","ios":"levelo://app?vid=f5a888db-229a-4246-81ee-0ff2a1bcfdfa"},"vehicle_type_id":"4","last_reported":1758806541,"current_range_meters":18000,"station_id":"cpo3532slgdg3j2ikp40","pricing_plan_id":"cebpf4jnsgd1na2vs0mg"},{"bike_id":"08fe2b08-b3fa-43f8-ae73-04061f76318d","system_id":"levelo_inurba_marseille","lat":43.305552,"lon":5.365395,"is_reserved":false,"is_disabled":false,"rental_uris":{"android":"levelo://app?vid=08fe2b08-b3fa-43f8-ae73-04061f76318d","ios":"levelo://app?vid=08fe2b08-b3fa-43f8-ae73-04061f76318d"},"vehicle_type_id":"4","last_reported":1758806541,"current_range_meters":18000,"station_id":"","pricing_plan_id":"cebpf4jnsgd1na2vs0mg"},{"bike_id":"1da878b2-6c33-4f2e-8a31-9a256db0616b","system_id":"levelo_inurba_marseille","lat":43.29853,"lon":5.36264,"is_reserved":false,"is_disabled":false,"rental_uris":{"android":"levelo://app?vid=1da878b2-6c33-4f2e-8a31-9a256db0616b","ios":"levelo://app?vid=1da878b2-6c33-4f2e-8a31-9a256db0616b"},"vehicle_type_id":"4","last_reported":1758806541,"current_range_meters":18000,"station_id":"ce4bgpp2rcd13ifvqc3g","pricing_plan_id":"cebpf4jnsgd1na2vs0mg"},{"bike_id":"208d8654-3228-40c7-b9c8-8618c2e5fa52","system_id":"levelo_inurba_marseille","lat":43.28652,"lon":5.38265,"is_reserved":false,"is_disabled":false,"rental_uris":{"android":"levelo://app?vid=208d8654-3228-40c7-b9c8-8618c2e5fa52","ios":"levelo://app?vid=208d8654-3228-40c7-b9c8-8618c2e5fa52"},"vehicle_type_id":"4","last_reported":1758806541,"current_range_meters":18000,"station_id":"","pricing_plan_id":"cebpf4jnsgd1na2vs0mg"},{"bike_id":"11691f1d-e624-4821-af5b-86cd6f6d081a","system_id":"levelo_inurba_marseille","lat":43.27941,"lon":5.41043,"is_reserved":false,"is_disabled":false,"rental_uris":{"android":"levelo://app?vid=11691f1d-e624-4821-af5b-86cd6f6d081a","ios":"levelo://app?vid=11691f1d-e624-4821-af5b-86cd6f6d081a"},"vehicle_type_id":"4","last_reported":1758806541,"current_range_meters":18000,"station_id":"ce4bhnp2rcd13ifvqh0g","pricing_plan_id":"cebpf4jnsgd1na2vs0mg"},{"bike_id":"66fcbac2-88a5-44e2-888a-4522a9a931e0","system_id":"levelo_inurba_marseille","lat":43.3019,"lon":5.36622,"is_reserved":false,"is_disabled":false,"rental_uris":{"android":"levelo://app?vid=66fcbac2-88a5-44e2-888a-4522a9a931e0","ios":"levelo://app?vid=66fcbac2-88a5-44e2-888a-4522a9a931e0"},"vehicle_type_id":"4","last_reported":1758806541,"current_range_meters":18000,"station_id":"ce4bgrh2rcd13ifvqc8g","pricing_plan_id":"cebpf4jnsgd1na2vs0mg"},{"bike_id":"10b8d871-07e9-4114-9eb9-6bcce40e7beb","system_id":"levelo_inurba_marseille","lat":43.27045,"lon":5.392226,"is_reserved":false,"is_disabled":false,"rental_uris":{"android":"levelo://app?vid=10b8d871-07e9-4114-9eb9-6bcce40e7beb","ios":"levelo://app?vid=10b8d871-07e9-4114-9eb9-6bcce40e7beb"},"vehicle_type_id":"4","last_reported":1758806541,"current_range_meters":18000,"station_id":"ce4bhe12rcd13ifvqf30","pricing_plan_id":"cebpf4jnsgd1na2vs0mg"},{"bike_id":"75611fb7-df45-4d9f-9db0-a181136cc424","system_id":"levelo_inurba_marseille","lat":43.21748,"lon":5.3459,"is_reserved":false,"is_disabled":true,"rental_uris":{"android":"levelo://app?vid=75611fb7-df45-4d9f-9db0-a181136cc424","ios":"levelo://app?vid=75611fb7-df45-4d9f-9db0-a181136cc424"},"vehicle_type_id":"4","last_reported":1758806541,"current_range_meters":18800,"station_id":"st_cvj6r9ubvosntc0bgbag","pricing_plan_id":"cebpf4jnsgd1na2vs0mg"},{"bike_id":"7d386e92-0637-4894-be92-264d6a72c11e","system_id":"levelo_inurba_marseille","lat":43.28425,"lon":5.34979,"is_reserved":false,"is_disabled":false,"rental_uris":{"android":"levelo://app?vid=7d386e92-0637-4894-be92-264d6a72c11e","ios":"levelo://app?vid=7d386e92-0637-4894-be92-264d6a72c11e"},"vehicle_type_id":"4","last_reported":1758806541,"current_range_meters":18800,"station_id":"ce4bhbh2rcd13ifvqepg","pricing_plan_id":"cebpf4jnsgd1na2vs0mg"},{"bike_id":"1bc81293-e67c-4b20-b52e-1045d44975f7","system_id":"levelo_inurba_marseille","lat":43.27999,"lon":5.40045,"is_reserved":false,"is_disabled":false,"rental_uris":{"android":"levelo://app?vid=1bc81293-e67c-4b20-b52e-1045d44975f7","ios":"levelo://app?vid=1bc81293-e67c-4b20-b52e-1045d44975f7"},"vehicle_type_id":"4","last_reported":1758806541,"current_range_meters":18800,"station_id":"ce4bho92rcd13ifvqh4g","pricing_plan_id":"cebpf4jnsgd1na2vs0mg"},{"bike_id":"48f118ba-5e81-4c62-9fdf-4f2e2bca94e9","system_id":"levelo_inurba_marseille","lat":43.26211,"lon":5.37449,"is_reserved":false,"is_disabled":false,"rental_uris":{"android":"levelo://app?vid=48f118ba-5e81-4c62-9fdf-4f2e2bca94e9","ios":"levelo://app?vid=48f118ba-5e81-4c62-9fdf-4f2e2bca94e9"},"vehicle_type_id":"4","last_reported":1758806541,"current_range_meters":18800,"station_id":"ce4bhgp2rcd13ifvqfc0","pricing_plan_id":"cebpf4jnsgd1na2vs0mg"},{"bike_id":"77e2d895-129a-4ff3-9d84-075d048492b7","system_id":"levelo_inurba_marseille","lat":43.24992,"lon":5.38935,"is_reserved":false,"is_disabled":false,"rental_uris":{"android":"levelo://app?vid=77e2d895-129a-4ff3-9d84-075d048492b7","ios":"levelo://app?vid=77e2d895-129a-4ff3-9d84-075d048492b7"},"vehicle_type_id":"4","last_reported":1758806541,"current_range_meters":18800,"station_id":"ce4bhgp2rcd13ifvqfd0","pricing_plan_id":"cebpf4jnsgd1na2vs0mg"},{"bike_id":"9006bf3d-4da8-4adb-9ea9-b302b3a5f525","system_id":"levelo_inurba_marseille","lat":43.24092,"lon":5.37737,"is_reserved":false,"is_disabled":false,"rental_uris":{"android":"levelo://app?vid=9006bf3d-4da8-4adb-9ea9-b302b3a5f525","ios":"levelo://app?vid=9006bf3d-4da8-4adb-9ea9-b302b3a5f525"},"vehicle_type_id":"4","last_reported":1758806541,"current_range_meters":18800,"station_id":"ce4bhnp2rcd13ifvqgvg","pricing_plan_id":"cebpf4jnsgd1na2vs0mg"},{"bike_id":"f792f6de-294f-410b-a3c8-e012988cffd4","system_id":"levelo_inurba_marseille","lat":43.32531,"lon":5.41489,"is_reserved":false,"is_disabled":false,"rental_uris":{"android":"levelo://app?vid=f792f6de-294f-410b-a3c8-e012988cffd4","ios":"levelo://app?vid=f792f6de-294f-410b-a3c8-e012988cffd4"},"vehicle_type_id":"4","last_reported":1758806541,"current_range_meters":18800,"station_id":"ce4bhq12rcd13ifvqhhg","pricing_plan_id":"cebpf4jnsgd1na2vs0mg"},{"bike_id":"1d5d14cf-15e7-4470-bff9-613bb9abe120","system_id":"levelo_inurba_marseille","lat":43.33499,"lon":5.4203,"is_reserved":false,"is_disabled":false,"rental_uris":{"android":"levelo://app?vid=1d5d14cf-15e7-4470-bff9-613bb9abe120","ios":"levelo://app?vid=1d5d14cf-15e7-4470-bff9-613bb9abe120"},"vehicle_type_id":"4","last_reported":1758806541,"current_range_meters":18800,"station_id":"","pricing_plan_id":"cebpf4jnsgd1na2vs0mg"},{"bike_id":"1df5ce8c-d7d2-4870-a705-78837839c325","system_id":"levelo_inurba_marseille","lat":43.26783,"lon":5.39419,"is_reserved":false,"is_disabled":false,"rental_uris":{"android":"levelo://app?vid=1df5ce8c-d7d2-4870-a705-78837839c325","ios":"levelo://app?vid=1df5ce8c-d7d2-4870-a705-78837839c325"},"vehicle_type_id":"4","last_reported":1758806541,"current_range_meters":18800,"station_id":"ce4bhh12rcd13ifvqfg0","pricing_plan_id":"cebpf4jnsgd1na2vs0mg"},{"bike_id":"946d80c4-8f08-4811-b89b-bbc74a3b20aa","system_id":"levelo_inurba_marseille","lat":43.33038,"lon":5.39019,"is_reserved":false,"is_disabled":false,"rental_uris":{"android":"levelo://app?vid=946d80c4-8f08-4811-b89b-bbc74a3b20aa","ios":"levelo://app?vid=946d80c4-8f08-4811-b89b-bbc74a3b20aa"},"vehicle_type_id":"4","last_reported":1758806541,"current_range_meters":18800,"station_id":"ce4bhr92rcd13ifvqhrg","pricing_plan_id":"cebpf4jnsgd1na2vs0mg"},{"bike_id":"5b44d860-a0c5-4ed9-a94a-62a1fd1abff4","system_id":"levelo_inurba_marseille","lat":43.29851,"lon":5.36283,"is_reserved":false,"is_disabled":false,"rental_uris":{"android":"levelo://app?vid=5b44d860-a0c5-4ed9-a94a-62a1fd1abff4","ios":"levelo://app?vid=5b44d860-a0c5-4ed9-a94a-62a1fd1abff4"},"vehicle_type_id":"4","last_reported":1758806541,"current_range_meters":19200,"station_id":"ce4bgpp2rcd13ifvqc3g","pricing_plan_id":"cebpf4jnsgd1na2vs0mg"},{"bike_id":"8c835afe-ceec-4eb7-878b-eb278df297ca","system_id":"levelo_inurba_marseille","lat":43.3136,"lon":5.3849,"is_reserved":false,"is_disabled":false,"rental_uris":{"android":"levelo://app?vid=8c835afe-ceec-4eb7-878b-eb278df297ca","ios":"levelo://app?vid=8c835afe-ceec-4eb7-878b-eb278df297ca"},"vehicle_type_id":"4","last_reported":1758806541,"current_range_meters":19200,"station_id":"ce4bgt92rcd13ifvqcf0","pricing_plan_id":"cebpf4jnsgd1na2vs0mg"},{"bike_id":"e4fa45e2-da10-440b-87a9-554053aae45b","system_id":"levelo_inurba_marseille","lat":43.27381,"lon":5.362523,"is_reserved":false,"is_disabled":false,"rental_uris":{"android":"levelo://app?vid=e4fa45e2-da10-440b-87a9-554053aae45b","ios":"levelo://app?vid=e4fa45e2-da10-440b-87a9-554053aae45b"},"vehicle_type_id":"4","last_reported":1758806541,"current_range_meters":19200,"station_id":"ce4bhbh2rcd13ifvqeo0","pricing_plan_id":"cebpf4jnsgd1na2vs0mg"},{"bike_id":"9ababc54-a2fe-4564-9c73-45f4b3ab8ee9","system_id":"levelo_inurba_marseille","lat":43.25721,"lon":5.4112,"is_reserved":false,"is_disabled":false,"rental_uris":{"android":"levelo://app?vid=9ababc54-a2fe-4564-9c73-45f4b3ab8ee9","ios":"levelo://app?vid=9ababc54-a2fe-4564-9c73-45f4b3ab8ee9"},"vehicle_type_id":"4","last_reported":1758806541,"current_range_meters":19200,"station_id":"ce4bhkp2rcd13ifvqgd0","pricing_plan_id":"cebpf4jnsgd1na2vs0mg"},{"bike_id":"2204779a-1302-4a3e-98db-6c2bb24c7fec","system_id":"levelo_inurba_marseille","lat":43.31477,"lon":5.37294,"is_reserved":false,"is_disabled":false,"rental_uris":{"android":"levelo://app?vid=2204779a-1302-4a3e-98db-6c2bb24c7fec","ios":"levelo://app?vid=2204779a-1302-4a3e-98db-6c2bb24c7fec"},"vehicle_type_id":"4","last_reported":1758806541,"current_range_meters":19200,"station_id":"ce4bgt12rcd13ifvqcd0","pricing_plan_id":"cebpf4jnsgd1na2vs0mg"},{"bike_id":"784189ea-0792-49a9-a475-ae376b0b8868","system_id":"levelo_inurba_marseille","lat":43.29785,"lon":5.39335,"is_reserved":false,"is_disabled":false,"rental_uris":{"android":"levelo://app?vid=784189ea-0792-49a9-a475-ae376b0b8868","ios":"levelo://app?vid=784189ea-0792-49a9-a475-ae376b0b8868"},"vehicle_type_id":"4","last_reported":1758806541,"current_range_meters":19200,"station_id":"chh1huq6cuj3fo74tm60","pricing_plan_id":"cebpf4jnsgd1na2vs0mg"},{"bike_id":"cc1b766d-7a66-4717-9955-e5ea9f76c1b8","system_id":"levelo_inurba_marseille","lat":43.2994,"lon":5.36544,"is_reserved":false,"is_disabled":false,"rental_uris":{"android":"levelo://app?vid=cc1b766d-7a66-4717-9955-e5ea9f76c1b8","ios":"levelo://app?vid=cc1b766d-7a66-4717-9955-e5ea9f76c1b8"},"vehicle_type_id":"4","last_reported":1758806541,"current_range_meters":19200,"station_id":"ce4bgm92rcd13ifvqbr0","pricing_plan_id":"cebpf4jnsgd1na2vs0mg"},{"bike_id":"e7e40ad3-d4f8-4364-9f4b-f83ec4c55a12","system_id":"levelo_inurba_marseille","lat":43.27199,"lon":5.3919,"is_reserved":false,"is_disabled":false,"rental_uris":{"android":"levelo://app?vid=e7e40ad3-d4f8-4364-9f4b-f83ec4c55a12","ios":"levelo://app?vid=e7e40ad3-d4f8-4364-9f4b-f83ec4c55a12"},"vehicle_type_id":"4","last_reported":1758806541,"current_range_meters":19600,"station_id":"ce4bhhp2rcd13ifvqfm0","pricing_plan_id":"cebpf4jnsgd1na2vs0mg"},{"bike_id":"98569363-cb12-4a54-822e-4b717d3f1db9","system_id":"levelo_inurba_marseille","lat":43.308913,"lon":5.396521,"is_reserved":false,"is_disabled":false,"rental_uris":{"android":"levelo://app?vid=98569363-cb12-4a54-822e-4b717d3f1db9","ios":"levelo://app?vid=98569363-cb12-4a54-822e-4b717d3f1db9"},"vehicle_type_id":"4","last_reported":1758806541,"current_range_meters":19600,"station_id":"ce4bh012rcd13ifvqcv0","pricing_plan_id":"cebpf4jnsgd1na2vs0mg"},{"bike_id":"992154ae-ecb3-4559-9ed6-3d34d90dc0a7","system_id":"levelo_inurba_marseille","lat":43.28469,"lon":5.38425,"is_reserved":false,"is_disabled":false,"rental_uris":{"android":"levelo://app?vid=992154ae-ecb3-4559-9ed6-3d34d90dc0a7","ios":"levelo://app?vid=992154ae-ecb3-4559-9ed6-3d34d90dc0a7"},"vehicle_type_id":"4","last_reported":1758806541,"current_range_meters":19600,"station_id":"ce4bh512rcd13ifvqe3g","pricing_plan_id":"cebpf4jnsgd1na2vs0mg"},{"bike_id":"9a4f92ed-e086-4038-a651-bbe0613f80bd","system_id":"levelo_inurba_marseille","lat":43.22566,"lon":5.41616,"is_reserved":false,"is_disabled":false,"rental_uris":{"android":"levelo://app?vid=9a4f92ed-e086-4038-a651-bbe0613f80bd","ios":"levelo://app?vid=9a4f92ed-e086-4038-a651-bbe0613f80bd"},"vehicle_type_id":"4","last_reported":1758806541,"current_range_meters":19600,"station_id":"st_d2o4gvlbi1j2169b742g","pricing_plan_id":"cebpf4jnsgd1na2vs0mg"},{"bike_id":"4736207d-942c-4db1-a3a0-3b7f20f74b2c","system_id":"levelo_inurba_marseille","lat":43.286719,"lon":5.363483,"is_reserved":false,"is_disabled":false,"rental_uris":{"android":"levelo://app?vid=4736207d-942c-4db1-a3a0-3b7f20f74b2c","ios":"levelo://app?vid=4736207d-942c-4db1-a3a0-3b7f20f74b2c"},"vehicle_type_id":"4","last_reported":1758806541,"current_range_meters":19600,"station_id":"","pricing_plan_id":"cebpf4jnsgd1na2vs0mg"},{"bike_id":"424f0886-3579-4321-a9a5-3977f1408b16","system_id":"levelo_inurba_marseille","lat":43.21737,"lon":5.34597,"is_reserved":false,"is_disabled":false,"rental_uris":{"android":"levelo://app?vid=424f0886-3579-4321-a9a5-3977f1408b16","ios":"levelo://app?vid=424f0886-3579-4321-a9a5-3977f1408b16"},"vehicle_type_id":"4","last_reported":1758806541,"current_range_meters":19600,"station_id":"st_cvj6r9ubvosntc0bgbag","pricing_plan_id":"cebpf4jnsgd1na2vs0mg"},{"bike_id":"76ca7917-52da-4485-9534-fccc0304a7c1","system_id":"levelo_inurba_marseille","lat":43.26951,"lon":5.38639,"is_reserved":false,"is_disabled":false,"rental_uris":{"android":"levelo://app?vid=76ca7917-52da-4485-9534-fccc0304a7c1","ios":"levelo://app?vid=76ca7917-52da-4485-9534-fccc0304a7c1"},"vehicle_type_id":"4","last_reported":1758806541,"current_range_meters":19600,"station_id":"ce4bhh92rcd13ifvqfh0","pricing_plan_id":"cebpf4jnsgd1na2vs0mg"},{"bike_id":"fee74e98-eb52-4f66-a612-109c75f34aa6","system_id":"levelo_inurba_marseille","lat":43.29619,"lon":5.37947,"is_reserved":false,"is_disabled":false,"rental_uris":{"android":"levelo://app?vid=fee74e98-eb52-4f66-a612-109c75f34aa6","ios":"levelo://app?vid=fee74e98-eb52-4f66-a612-109c75f34aa6"},"vehicle_type_id":"4","last_reported":1758806541,"current_range_meters":19600,"station_id":"","pricing_plan_id":"cebpf4jnsgd1na2vs0mg"},{"bike_id":"ef4ee8b7-3258-4aad-a3f8-62940ae3f55f","system_id":"levelo_inurba_marseille","lat":43.23139,"lon":5.43693,"is_reserved":false,"is_disabled":false,"rental_uris":{"android":"levelo://app?vid=ef4ee8b7-3258-4aad-a3f8-62940ae3f55f","ios":"levelo://app?vid=ef4ee8b7-3258-4aad-a3f8-62940ae3f55f"},"vehicle_type_id":"4","last_reported":1758806541,"current_range_meters":19600,"station_id":"ce4bhmp2rcd13ifvqgog","pricing_plan_id":"cebpf4jnsgd1na2vs0mg"},{"bike_id":"d16c568a-77de-423c-a91e-bbcd9a55a495","system_id":"levelo_inurba_marseille","lat":43.23158,"lon":5.43731,"is_reserved":false,"is_disabled":false,"rental_uris":{"android":"levelo://app?vid=d16c568a-77de-423c-a91e-bbcd9a55a495","ios":"levelo://app?vid=d16c568a-77de-423c-a91e-bbcd9a55a495"},"vehicle_type_id":"4","last_reported":1758806541,"current_range_meters":19200,"station_id":"ce4bhmp2rcd13ifvqgog","pricing_plan_id":"cebpf4jnsgd1na2vs0mg"},{"bike_id":"20f9bd49-6fda-4430-aefc-408e616dd032","system_id":"levelo_inurba_marseille","lat":43.32357,"lon":5.36771,"is_reserved":false,"is_disabled":false,"rental_uris":{"android":"levelo://app?vid=20f9bd49-6fda-4430-aefc-408e616dd032","ios":"levelo://app?vid=20f9bd49-6fda-4430-aefc-408e616dd032"},"vehicle_type_id":"4","last_reported":1758806541,"current_range_meters":19600,"station_id":"ce4bhsh2rcd13ifvqi2g","pricing_plan_id":"cebpf4jnsgd1na2vs0mg"},{"bike_id":"d7dc6888-512c-47b2-be62-8950ff4cf027","system_id":"levelo_inurba_marseille","lat":43.31203,"lon":5.36842,"is_reserved":false,"is_disabled":false,"rental_uris":{"android":"levelo://app?vid=d7dc6888-512c-47b2-be62-8950ff4cf027","ios":"levelo://app?vid=d7dc6888-512c-47b2-be62-8950ff4cf027"},"vehicle_type_id":"4","last_reported":1758806541,"current_range_meters":20000,"station_id":"ce4bgl92rcd13ifvqbq0","pricing_plan_id":"cebpf4jnsgd1na2vs0mg"},{"bike_id":"353d16a4-65e9-4896-ad53-df82bb14ace3","system_id":"levelo_inurba_marseille","lat":43.2842,"lon":5.34973,"is_reserved":false,"is_disabled":false,"rental_uris":{"android":"levelo://app?vid=353d16a4-65e9-4896-ad53-df82bb14ace3","ios":"levelo://app?vid=353d16a4-65e9-4896-ad53-df82bb14ace3"},"vehicle_type_id":"4","last_reported":1758806541,"current_range_meters":20000,"station_id":"ce4bhbh2rcd13ifvqepg","pricing_plan_id":"cebpf4jnsgd1na2vs0mg"},{"bike_id":"ea9ccac1-c722-4459-a755-b94015c6a0f9","system_id":"levelo_inurba_marseille","lat":43.24088,"lon":5.37719,"is_reserved":false,"is_disabled":false,"rental_uris":{"android":"levelo://app?vid=ea9ccac1-c722-4459-a755-b94015c6a0f9","ios":"levelo://app?vid=ea9ccac1-c722-4459-a755-b94015c6a0f9"},"vehicle_type_id":"4","last_reported":1758806541,"current_range_meters":20000,"station_id":"ce4bhnp2rcd13ifvqgvg","pricing_plan_id":"cebpf4jnsgd1na2vs0mg"},