{"last_updated":1702973389,"ttl":30,"version":"2.2","data":{"bikes":[{"bike_id":"a6516d1d-2676-4f1d-b129-a39b7b9814c3","system_id":"levelo_inurba_marseille","lat":43.31341,"lon":5.367098,"is_reserved":false,"is_disabled":false,"rental_uris":{"android":"levelo://app?vid=a6516d1d-2676-4f1d-b129-a39b7b9814c3","ios":"levelo://app?vid=a6516d1d-2676-4f1d-b129-a39b7b9814c3"},"vehicle_type_id":"4","last_reported":1702973390,"current_range_meters":22400,"station_id":"ce4bgr92rcd13ifvqc6g","pricing_plan_id":"free"},{"bike_id":"85b1292c-66ec-43d6-b77a-70010a7a3113","system_id":"levelo_inurba_marseille","lat":43.31341,"lon":5.367098,"is_reserved":false,"is_disabled":false,"rental_uris":{"android":"levelo://app?vid=85b1292c-66ec-43d6-b77a-70010a7a3113","ios":"levelo://app?vid=85b1292c-66ec-43d6-b77a-70010a7a3113"},"vehicle_type_id":"4","last_reported":1702973390,"current_range_meters":19200,"station_id":"ce4bgr92rcd13ifvqc6g","pricing_plan_id":"free"},{"bike_id":"2be214aa-d228-498e-8f9a-b728cc90bc44","system_id":"levelo_inurba_marseille","lat":43.313391,"lon":5.36706,"is_reserved":false,"is_disabled":false,"rental_uris":{"android":"levelo://app?vid=2be214aa-d228-498e-8f9a-b728cc90bc44","ios":"levelo://app?vid=2be214aa-d228-498e-8f9a-b728cc90bc44"},"vehicle_type_id":"4","last_reported":1702973390,"current_range_meters":27600,"station_id":"ce4bgr92rcd13ifvqc6g","pricing_plan_id":"free"},{"bike_id":"60a8ef75-9e0e-4b58-8487-6c8f20bd7000","system_id":"levelo_inurba_marseille","lat":43.313391,"lon":5.36706,"is_reserved":false,"is_disabled":false,"rental_uris":{"android":"levelo://app?vid=60a8ef75-9e0e-4b58-8487-6c8f20bd7000","ios":"levelo://app?vid=60a8ef75-9e0e-4b58-8487-6c8f20bd7000"},"vehicle_type_id":"4","last_reported":1702973390,"current_range_meters":30000,"station_id":"ce4bgr92rcd13ifvqc6g","pricing_plan_id":"free"},{"bike_id":"e1232045-5eec-4d5d-81e4-6dbc0bc67eb6","system_id":"levelo_inurba_marseille","lat":43.31341,"lon":5.367098,"is_reserved":false,"is_disabled":false,"rental_uris":{"android":"levelo://app?vid=e1232045-5eec-4d5d-81e4-6dbc0bc67eb6","ios":"levelo://app?vid=e1232045-5eec-4d5d-81e4-6dbc0bc67eb6"},"vehicle_type_id":"4","last_reported":1702973390,"current_range_meters":14400,"station_id":"ce4bgr92rcd13ifvqc6g","pricing_plan_id":"free"},{"bike_id":"20b9a23e-e8dc-45a6-ba34-652c0fc08184","system_id":"levelo_inurba_marseille","lat":43.31341,"lon":5.367098,"is_reserved":false,"is_disabled":false,"rental_uris":{"android":"levelo://app?vid=20b9a23e-e8dc-45a6-ba34-652c0fc08184","ios":"levelo://app?vid=20b9a23e-e8dc-45a6-ba34-652c0fc08184"},"vehicle_type_id":"4","last_reported":1702973390,"current_range_meters":30400,"station_id":"ce4bgr92rcd13ifvqc6g","pricing_plan_id":"free"},{"bike_id":"dd8c9dfa-86b0-44f0-bcdd-c84ee712d9be","system_id":"levelo_inurba_marseille","lat":43.313391,"lon":5.36706,"is_reserved":false,"is_disabled":false,"rental_uris":{"android":"levelo://app?vid=dd8c9dfa-86b0-44f0-bcdd-c84ee712d9be","ios":"levelo://app?vid=dd8c9dfa-86b0-44f0-bcdd-c84ee712d9be"},"vehicle_type_id":"4","last_reported":1702973390,"current_range_meters":23600,"station_id":"ce4bgr92rcd13ifvqc6g","pricing_plan_id":"free"},{"bike_id":"00a1914f-bad6-4efa-8400-c1cdf7615f26","system_id":"levelo_inurba_marseille","lat":43.31341,"lon":5.367098,"is_reserved":false,"is_disabled":false,"rental_uris":{"android":"levelo://app?vid=00a1914f-bad6-4efa-8400-c1cdf7615f26","ios":"levelo://app?vid=00a1914f-bad6-4efa-8400-c1cdf7615f26"},"vehicle_type_id":"4","last_reported":1702973390,"current_range_meters":22400,"station_id":"ce4bgr92rcd13ifvqc6g","pricing_plan_id":"free"},{"bike_id":"7565ac83-2152-4b1e-94c3-27227871203b","system_id":"levelo_inurba_marseille","lat":43.31341,"lon":5.367098,"is_reserved":false,"is_disabled":false,"rental_uris":{"android":"levelo://app?vid=7565ac83-2152-4b1e-94c3-27227871203b","ios":"levelo://app?vid=7565ac83-2152-4b1e-94c3-27227871203b"},"vehicle_type_id":"4","last_reported":1702973390,"current_range_meters":16400,"station_id":"ce4bgr92rcd13ifvqc6g","pricing_plan_id":"free"},{"bike_id":"7fc660bf-00b2-475b-896a-d19bf7596e33","system_id":"levelo_inurba_marseille","lat":43.312239,"lon":5.368562,"is_reserved":false,"is_disabled":false,"rental_uris":{"android":"levelo://app?vid=7fc660bf-00b2-475b-896a-d19bf7596e33","ios":"levelo://app?vid=7fc660bf-00b2-475b-896a-d19bf7596e33"},"vehicle_type_id":"4","last_reported":1702973390,"current_range_meters":18000,"station_id":"ce4bgl92rcd13ifvqbq0","pricing_plan_id":"free"},{"bike_id":"08b630a1-c332-4042-9566-0dcfa263e3f6","system_id":"levelo_inurba_marseille","lat":43.312239,"lon":5.368562,"is_reserved":false,"is_disabled":false,"rental_uris":{"android":"levelo://app?vid=08b630a1-c332-4042-9566-0dcfa263e3f6","ios":"levelo://app?vid=08b630a1-c332-4042-9566-0dcfa263e3f6"},"vehicle_type_id":"4","last_reported":1702973390,"current_range_meters":22800,"station_id":"ce4bgl92rcd13ifvqbq0","pricing_plan_id":"free"},{"bike_id":"c715b015-30fc-402b-bf0c-c1cade3ce502","system_id":"levelo_inurba_marseille","lat":43.312239,"lon":5.368562,"is_reserved":false,"is_disabled":false,"rental_uris":{"android":"levelo://app?vid=c715b015-30fc-402b-bf0c-c1cade3ce502","ios":"levelo://app?vid=c715b015-30fc-402b-bf0c-c1cade3ce502"},"vehicle_type_id":"4","last_reported":1702973390,"current_range_meters":18800,"station_id":"ce4bgl92rcd13ifvqbq0","pricing_plan_id":"free"},{"bike_id":"0959ee72-75c4-44db-9b97-0ce0b9ddb9c2","system_id":"levelo_inurba_marseille","lat":43.312239,"lon":5.368562,"is_reserved":false,"is_disabled":false,"rental_uris":{"android":"levelo://app?vid=0959ee72-75c4-44db-9b97-0ce0b9ddb9c2","ios":"levelo://app?vid=0959ee72-75c4-44db-9b97-0ce0b9ddb9c2"},"vehicle_type_id":"4","last_reported":1702973390,"current_range_meters":27600,"station_id":"ce4bgl92rcd13ifvqbq0","pricing_plan_id":"free"},{"bike_id":"65cf7538-beb8-49e0-8e37-450fc8be71a7","system_id":"levelo_inurba_marseille","lat":43.312239,"lon":5.368562,"is_reserved":false,"is_disabled":false,"rental_uris":{"android":"levelo://app?vid=65cf7538-beb8-49e0-8e37-450fc8be71a7","ios":"levelo://app?vid=65cf7538-beb8-49e0-8e37-450fc8be71a7"},"vehicle_type_id":"4","last_reported":1702973390,"current_range_meters":29200,"station_id":"ce4bgl92rcd13ifvqbq0","pricing_plan_id":"free"},{"bike_id":"faef1354-2906-47c4-9b47-28fccd65652d","system_id":"levelo_inurba_marseille","lat":43.312239,"lon":5.368562,"is_reserved":false,"is_disabled":false,"rental_uris":{"android":"levelo://app?vid=faef1354-2906-47c4-9b47-28fccd65652d","ios":"levelo://app?vid=faef1354-2906-47c4-9b47-28fccd65652d"},"vehicle_type_id":"4","last_reported":1702973390,"current_range_meters":31200,"station_id":"ce4bgl92rcd13ifvqbq0","pricing_plan_id":"free"},{"bike_id":"41d65d69-db9c-410b-b29d-fe2b3a028e9f","system_id":"levelo_inurba_marseille","lat":43.309076,"lon":5.368465,"is_reserved":false,"is_disabled":false,"rental_uris":{"android":"levelo://app?vid=41d65d69-db9c-410b-b29d-fe2b3a028e9f","ios":"levelo://app?vid=41d65d69-db9c-410b-b29d-fe2b3a028e9f"},"vehicle_type_id":"4","last_reported":1702973390,"current_range_meters":27200,"station_id":"ce4bgn92rcd13ifvqbvg","pricing_plan_id":"free"},{"bike_id":"d7c11136-6d2b-46b7-a17e-25647cce67c2","system_id":"levelo_inurba_marseille","lat":43.309076,"lon":5.368465,"is_reserved":false,"is_disabled":false,"rental_uris":{"android":"levelo://app?vid=d7c11136-6d2b-46b7-a17e-25647cce67c2","ios":"levelo://app?vid=d7c11136-6d2b-46b7-a17e-25647cce67c2"},"vehicle_type_id":"4","last_reported":1702973390,"current_range_meters":25600,"station_id":"ce4bgn92rcd13ifvqbvg","pricing_plan_id":"free"},{"bike_id":"70113bc6-f4b5-4546-91e9-ad8865fea9b8","system_id":"levelo_inurba_marseille","lat":43.309076,"lon":5.368465,"is_reserved":false,"is_disabled":false,"rental_uris":{"android":"levelo://app?vid=70113bc6-f4b5-4546-91e9-ad8865fea9b8","ios":"levelo://app?vid=70113bc6-f4b5-4546-91e9-ad8865fea9b8"},"vehicle_type_id":"4","last_reported":1702973390,"current_range_meters":26800,"station_id":"ce4bgn92rcd13ifvqbvg","pricing_plan_id":"free"},{"bike_id":"c6fa8f52-4c81-4ee7-903f-6c94dbeb9953","system_id":"levelo_inurba_marseille","lat":43.309076,"lon":5.368465,"is_reserved":false,"is_disabled":false,"rental_uris":{"android":"levelo://app?vid=c6fa8f52-4c81-4ee7-903f-6c94dbeb9953","ios":"levelo://app?vid=c6fa8f52-4c81-4ee7-903f-6c94dbeb9953"},"vehicle_type_id":"4","last_reported":1702973390,"current_range_meters":25600,"station_id":"ce4bgn92rcd13ifvqbvg","pricing_plan_id":"free"},{"bike_id":"c2b15e57-5ad3-4e7a-827b-b126dc707367","system_id":"levelo_inurba_marseille","lat":43.309076,"lon":5.368465,"is_reserved":false,"is_disabled":false,"rental_uris":{"android":"levelo://app?vid=c2b15e57-5ad3-4e7a-827b-b126dc707367","ios":"levelo://app?vid=c2b15e57-5ad3-4e7a-827b-b126dc707367"},"vehicle_type_id":"4","last_reported":1702973390,"current_range_meters":30000,"station_id":"ce4bgn92rcd13ifvqbvg","pricing_plan_id":"free"},{"bike_id":"bd26b8d7-6d83-40e2-acdb-2338bf369da2","system_id":"levelo_inurba_marseille","lat":43.309076,"lon":5.368465,"is_reserved":false,"is_disabled":false,"rental_uris":{"android":"levelo://app?vid=bd26b8d7-6d83-40e2-acdb-2338bf369da2","ios":"levelo://app?vid=bd26b8d7-6d83-40e2-acdb-2338bf369da2"},"vehicle_type_id":"4","last_reported":1702973390,"current_range_meters":14400,"station_id":"ce4bgn92rcd13ifvqbvg","pricing_plan_id":"free"},{"bike_id":"0fb9eeee-2928-4eb3-bdc3-52736553797a","system_id":"levelo_inurba_marseille","lat":43.309076,"lon":5.368465,"is_reserved":false,"is_disabled":false,"rental_uris":{"android":"levelo://app?vid=0fb9eeee-2928-4eb3-bdc3-52736553797a","ios":"levelo://app?vid=0fb9eeee-2928-4eb3-bdc3-52736553797a"},"vehicle_type_id":"4","last_reported":1702973390,"current_range_meters":12400,"station_id":"ce4bgn92rcd13ifvqbvg","pricing_plan_id":"free"},{"bike_id":"ae8d79d1-7590-48e0-9837-6ebab1dcf12e","system_id":"levelo_inurba_marseille","lat":43.309076,"lon":5.368465,"is_reserved":false,"is_disabled":false,"rental_uris":{"android":"levelo://app?vid=ae8d79d1-7590-48e0-9837-6ebab1dcf12e","ios":"levelo://app?vid=ae8d79d1-7590-48e0-9837-6ebab1dcf12e"},"vehicle_type_id":"4","last_reported":1702973390,"current_range_meters":29200,"station_id":"ce4bgn92rcd13ifvqbvg","pricing_plan_id":"free"},{"bike_id":"5bc5b432-c8de-43ca-8904-fd87aeb6a567","system_id":"levelo_inurba_marseille","lat":43.314811,"lon":5.373103,"is_reserved":false,"is_disabled":false,"rental_uris":{"android":"levelo://app?vid=5bc5b432-c8de-43ca-8904-fd87aeb6a567","ios":"levelo://app?vid=5bc5b432-c8de-43ca-8904-fd87aeb6a567"},"vehicle_type_id":"4","last_reported":1702973390,"current_range_meters":18000,"station_id":"ce4bgt12rcd13ifvqcd0","pricing_plan_id":"free"},{"bike_id":"eb80dfd5-65aa-4b3c-a6d0-e8f7a95b8436","system_id":"levelo_inurba_marseille","lat":43.314811,"lon":5.373103,"is_reserved":false,"is_disabled":false,"rental_uris":{"android":"levelo://app?vid=eb80dfd5-65aa-4b3c-a6d0-e8f7a95b8436","ios":"levelo://app?vid=eb80dfd5-65aa-4b3c-a6d0-e8f7a95b8436"},"vehicle_type_id":"4","last_reported":1702973390,"current_range_meters":18400,"station_id":"ce4bgt12rcd13ifvqcd0","pricing_plan_id":"free"},{"bike_id":"b564ba57-2f8d-4f45-b4f3-ed32f9f69b8f","system_id":"levelo_inurba_marseille","lat":43.309039,"lon":5.371797,"is_reserved":false,"is_disabled":false,"rental_uris":{"android":"levelo://app?vid=b564ba57-2f8d-4f45-b4f3-ed32f9f69b8f","ios":"levelo://app?vid=b564ba57-2f8d-4f45-b4f3-ed32f9f69b8f"},"vehicle_type_id":"4","last_reported":1702973390,"current_range_meters":30400,"station_id":"ce4bguh2rcd13ifvqckg","pricing_plan_id":"free"},{"bike_id":"81a92fd7-ee18-40d0-a3e2-cc270f4b09f1","system_id":"levelo_inurba_marseille","lat":43.305712,"lon":5.365641,"is_reserved":false,"is_disabled":false,"rental_uris":{"android":"levelo://app?vid=81a92fd7-ee18-40d0-a3e2-cc270f4b09f1","ios":"levelo://app?vid=81a92fd7-ee18-40d0-a3e2-cc270f4b09f1"},"vehicle_type_id":"4","last_reported":1702973390,"current_range_meters":20400,"station_id":"ce4bgs12rcd13ifvqcag","pricing_plan_id":"free"},{"bike_id":"293e8745-e127-4333-85dd-fa0fb52fbf36","system_id":"levelo_inurba_marseille","lat":43.305712,"lon":5.365641,"is_reserved":false,"is_disabled":false,"rental_uris":{"android":"levelo://app?vid=293e8745-e127-4333-85dd-fa0fb52fbf36","ios":"levelo://app?vid=293e8745-e127-4333-85dd-fa0fb52fbf36"},"vehicle_type_id":"4","last_reported":1702973390,"current_range_meters":19200,"station_id":"ce4bgs12rcd13ifvqcag","pricing_plan_id":"free"},{"bike_id":"56f8a1ac-127d-4b5b-aca5-08afffa8effd","system_id":"levelo_inurba_marseille","lat":43.30537,"lon":5.367345,"is_reserved":false,"is_disabled":false,"rental_uris":{"android":"levelo://app?vid=56f8a1ac-127d-4b5b-aca5-08afffa8effd","ios":"levelo://app?vid=56f8a1ac-127d-4b5b-aca5-08afffa8effd"},"vehicle_type_id":"4","last_reported":1702973390,"current_range_meters":25600,"station_id":"ce4bgrp2rcd13ifvqc9g","pricing_plan_id":"free"},{"bike_id":"190bb94a-8dd4-4249-8948-cef756ef4849","system_id":"levelo_inurba_marseille","lat":43.305712,"lon":5.365641,"is_reserved":false,"is_disabled":false,"rental_uris":{"android":"levelo://app?vid=190bb94a-8dd4-4249-8948-cef756ef4849","ios":"levelo://app?vid=190bb94a-8dd4-4249-8948-cef756ef4849"},"vehicle_type_id":"4","last_reported":1702973390,"current_range_meters":28400,"station_id":"ce4bgs12rcd13ifvqcag","pricing_plan_id":"free"},{"bike_id":"2d8cc8c5-0d89-4b61-88d5-a541a830bc2c","system_id":"levelo_inurba_marseille","lat":43.30537,"lon":5.367345,"is_reserved":false,"is_disabled":false,"rental_uris":{"android":"levelo://app?vid=2d8cc8c5-0d89-4b61-88d5-a541a830bc2c","ios":"levelo://app?vid=2d8cc8c5-0d89-4b61-88d5-a541a830bc2c"},"vehicle_type_id":"4","last_reported":1702973390,"current_range_meters":30000,"station_id":"ce4bgrp2rcd13ifvqc9g","pricing_plan_id":"free"},{"bike_id":"39ff088a-68cb-4dc4-aa61-51995e813043","system_id":"levelo_inurba_marseille","lat":43.305368,"lon":5.367343,"is_reserved":false,"is_disabled":false,"rental_uris":{"android":"levelo://app?vid=39ff088a-68cb-4dc4-aa61-51995e813043","ios":"levelo://app?vid=39ff088a-68cb-4dc4-aa61-51995e813043"},"vehicle_type_id":"4","last_reported":1702973390,"current_range_meters":21600,"station_id":"ce4bgrp2rcd13ifvqc9g","pricing_plan_id":"free"},{"bike_id":"7aeb448b-1750-4e30-9524-3a9ec2ea6519","system_id":"levelo_inurba_marseille","lat":43.305714,"lon":5.365633,"is_reserved":false,"is_disabled":false,"rental_uris":{"android":"levelo://app?vid=7aeb448b-1750-4e30-9524-3a9ec2ea6519","ios":"levelo://app?vid=7aeb448b-1750-4e30-9524-3a9ec2ea6519"},"vehicle_type_id":"4","last_reported":1702973390,"current_range_meters":28000,"station_id":"ce4bgs12rcd13ifvqcag","pricing_plan_id":"free"},{"bike_id":"d3b97062-8fd7-46c4-a27c-46444171065a","system_id":"levelo_inurba_marseille","lat":43.305368,"lon":5.367343,"is_reserved":false,"is_disabled":false,"rental_uris":{"android":"levelo://app?vid=d3b97062-8fd7-46c4-a27c-46444171065a","ios":"levelo://app?vid=d3b97062-8fd7-46c4-a27c-46444171065a"},"vehicle_type_id":"4","last_reported":1702973390,"current_range_meters":20800,"station_id":"ce4bgrp2rcd13ifvqc9g","pricing_plan_id":"free"},{"bike_id":"1116e87c-ffc1-4009-a215-2b1e00e745f2","system_id":"levelo_inurba_marseille","lat":43.30533,"lon":5.36695,"is_reserved":false,"is_disabled":false,"rental_uris":{"android":"levelo://app?vid=1116e87c-ffc1-4009-a215-2b1e00e745f2","ios":"levelo://app?vid=1116e87c-ffc1-4009-a215-2b1e00e745f2"},"vehicle_type_id":"4","last_reported":1702973390,"current_range_meters":26800,"station_id":"","pricing_plan_id":"free"},{"bike_id":"274dcdb0-d28c-4362-960b-f13b02ff3ff8","system_id":"levelo_inurba_marseille","lat":43.305706,"lon":5.365654,"is_reserved":false,"is_disabled":false,"rental_uris":{"android":"levelo://app?vid=274dcdb0-d28c-4362-960b-f13b02ff3ff8","ios":"levelo://app?vid=274dcdb0-d28c-4362-960b-f13b02ff3ff8"},"vehicle_type_id":"4","last_reported":1702973390,"current_range_meters":22800,"station_id":"ce4bgs12rcd13ifvqcag","pricing_plan_id":"free"},{"bike_id":"12f6cf45-2cbd-4341-bc5e-651ba0f357d3","system_id":"levelo_inurba_marseille","lat":43.305989,"lon":5.37225,"is_reserved":false,"is_disabled":false,"rental_uris":{"android":"levelo://app?vid=12f6cf45-2cbd-4341-bc5e-651ba0f357d3","ios":"levelo://app?vid=12f6cf45-2cbd-4341-bc5e-651ba0f357d3"},"vehicle_type_id":"4","last_reported":1702973390,"current_range_meters":28800,"station_id":"ce4bgqh2rcd13ifvqc4g","pricing_plan_id":"free"},{"bike_id":"dcf103a4-038b-4932-9161-bd76ecec98d8","system_id":"levelo_inurba_marseille","lat":43.305989,"lon":5.37225,"is_reserved":false,"is_disabled":false,"rental_uris":{"android":"levelo://app?vid=dcf103a4-038b-4932-9161-bd76ecec98d8","ios":"levelo://app?vid=dcf103a4-038b-4932-9161-bd76ecec98d8"},"vehicle_type_id":"4","last_reported":1702973390,"current_range_meters":28800,"station_id":"ce4bgqh2rcd13ifvqc4g","pricing_plan_id":"free"},{"bike_id":"8378603c-2671-40b2-9529-66b05950fcbf","system_id":"levelo_inurba_marseille","lat":43.303046,"lon":5.368981,"is_reserved":false,"is_disabled":false,"rental_uris":{"android":"levelo://app?vid=8378603c-2671-40b2-9529-66b05950fcbf","ios":"levelo://app?vid=8378603c-2671-40b2-9529-66b05950fcbf"},"vehicle_type_id":"4","last_reported":1702973390,"current_range_meters":20400,"station_id":"ce4bgqh2rcd13ifvqc5g","pricing_plan_id":"free"},{"bike_id":"57fb8f5b-e00a-497d-93fd-6736f87a05bc","system_id":"levelo_inurba_marseille","lat":43.30304,"lon":5.368987,"is_reserved":false,"is_disabled":false,"rental_uris":{"android":"levelo://app?vid=57fb8f5b-e00a-497d-93fd-6736f87a05bc","ios":"levelo://app?vid=57fb8f5b-e00a-497d-93fd-6736f87a05bc"},"vehicle_type_id":"4","last_reported":1702973390,"current_range_meters":25600,"station_id":"ce4bgqh2rcd13ifvqc5g","pricing_plan_id":"free"},{"bike_id":"deae277f-73c4-4e46-a123-4d18aaba1a41","system_id":"levelo_inurba_marseille","lat":43.303046,"lon":5.368981,"is_reserved":false,"is_disabled":false,"rental_uris":{"android":"levelo://app?vid=deae277f-73c4-4e46-a123-4d18aaba1a41","ios":"levelo://app?vid=deae277f-73c4-4e46-a123-4d18aaba1a41"},"vehicle_type_id":"4","last_reported":1702973390,"current_range_meters":11600,"station_id":"ce4bgqh2rcd13ifvqc5g","pricing_plan_id":"free"},{"bike_id":"fa4995b0-4917-42ae-be5a-bf643a82089b","system_id":"levelo_inurba_marseille","lat":43.301939,"lon":5.366286,"is_reserved":false,"is_disabled":false,"rental_uris":{"android":"levelo://app?vid=fa4995b0-4917-42ae-be5a-bf643a82089b","ios":"levelo://app?vid=fa4995b0-4917-42ae-be5a-bf643a82089b"},"vehicle_type_id":"4","last_reported":1702973390,"current_range_meters":22800,"station_id":"ce4bgrh2rcd13ifvqc8g","pricing_plan_id":"free"},{"bike_id":"c97da268-2ce2-4f15-b2c5-d6fcbe5db83a","system_id":"levelo_inurba_marseille","lat":43.30469,"lon":5.37898,"is_reserved":false,"is_disabled":false,"rental_uris":{"android":"levelo://app?vid=c97da268-2ce2-4f15-b2c5-d6fcbe5db83a","ios":"levelo://app?vid=c97da268-2ce2-4f15-b2c5-d6fcbe5db83a"},"vehicle_type_id":"4","last_reported":1702973390,"current_range_meters":19600,"station_id":"ce4bgup2rcd13ifvqcn0","pricing_plan_id":"free"},{"bike_id":"f7269c7c-fdb2-4fee-82ce-97e2797cd080","system_id":"levelo_inurba_marseille","lat":43.304606,"lon":5.379026,"is_reserved":false,"is_disabled":false,"rental_uris":{"android":"levelo://app?vid=f7269c7c-fdb2-4fee-82ce-97e2797cd080","ios":"levelo://app?vid=f7269c7c-fdb2-4fee-82ce-97e2797cd080"},"vehicle_type_id":"4","last_reported":1702973390,"current_range_meters":17600,"station_id":"ce4bgup2rcd13ifvqcn0","pricing_plan_id":"free"},{"bike_id":"33f0b5e6-70ed-4e2e-a102-21e0d9571c2c","system_id":"levelo_inurba_marseille","lat":43.324771,"lon":5.36557,"is_reserved":false,"is_disabled":false,"rental_uris":{"android":"levelo://app?vid=33f0b5e6-70ed-4e2e-a102-21e0d9571c2c","ios":"levelo://app?vid=33f0b5e6-70ed-4e2e-a102-21e0d9571c2c"},"vehicle_type_id":"4","last_reported":1702973390,"current_range_meters":13200,"station_id":"ce4bhs12rcd13ifvqhvg","pricing_plan_id":"free"},{"bike_id":"e84dca7b-8d77-47e9-80fa-3462fcd07cf2","system_id":"levelo_inurba_marseille","lat":43.302784,"lon":5.377158,"is_reserved":false,"is_disabled":false,"rental_uris":{"android":"levelo://app?vid=e84dca7b-8d77-47e9-80fa-3462fcd07cf2","ios":"levelo://app?vid=e84dca7b-8d77-47e9-80fa-3462fcd07cf2"},"vehicle_type_id":"4","last_reported":1702973390,"current_range_meters":11200,"station_id":"ce4bguh2rcd13ifvqcj0","pricing_plan_id":"free"},{"bike_id":"2b58bf50-356e-4d40-bda8-a2be25040aa2","system_id":"levelo_inurba_marseille","lat":43.302784,"lon":5.377158,"is_reserved":false,"is_disabled":false,"rental_uris":{"android":"levelo://app?vid=2b58bf50-356e-4d40-bda8-a2be25040aa2","ios":"levelo://app?vid=2b58bf50-356e-4d40-bda8-a2be25040aa2"},"vehicle_type_id":"4","last_reported":1702973390,"current_range_meters":21200,"station_id":"ce4bguh2rcd13ifvqcj0","pricing_plan_id":"free"},{"bike_id":"242d3970-15e0-4463-9f0a-902581b3522a","system_id":"levelo_inurba_marseille","lat":43.301429,"lon":5.37413,"is_reserved":false,"is_disabled":false,"rental_uris":{"android":"levelo://app?vid=242d3970-15e0-4463-9f0a-902581b3522a","ios":"levelo://app?vid=242d3970-15e0-4463-9f0a-902581b3522a"},"vehicle_type_id":"4","last_reported":1702973390,"current_range_meters":21600,"station_id":"ce4bgs92rcd13ifvqcc0","pricing_plan_id":"free"},{"bike_id":"7e2dadc9-b095-49b8-8a6e-4c37229b8003","system_id":"levelo_inurba_marseille","lat":43.30143,"lon":5.37413,"is_reserved":false,"is_disabled":false,"rental_uris":{"android":"levelo://app?vid=7e2dadc9-b095-49b8-8a6e-4c37229b8003","ios":"levelo://app?vid=7e2dadc9-b095-49b8-8a6e-4c37229b8003"},"vehicle_type_id":"4","last_reported":1702973390,"current_range_meters":20800,"station_id":"ce4bgs92rcd13ifvqcc0","pricing_plan_id":"free"},{"bike_id":"126a5ca1-7a16-4283-a5e7-600e3c957491","system_id":"levelo_inurba_marseille","lat":43.301429,"lon":5.37413,"is_reserved":false,"is_disabled":false,"rental_uris":{"android":"levelo://app?vid=126a5ca1-7a16-4283-a5e7-600e3c957491","ios":"levelo://app?vid=126a5ca1-7a16-4283-a5e7-600e3c957491"},"vehicle_type_id":"4","last_reported":1702973390,"current_range_meters":24800,"station_id":"ce4bgs92rcd13ifvqcc0","pricing_plan_id":"free"},{"bike_id":"c2e4c9a0-68f0-4f31-b3e7-889be6c1e0de","system_id":"levelo_inurba_marseille","lat":43.301429,"lon":5.37413,"is_reserved":false,"is_disabled":false,"rental_uris":{"android":"levelo://app?vid=c2e4c9a0-68f0-4f31-b3e7-889be6c1e0de","ios":"levelo://app?vid=c2e4c9a0-68f0-4f31-b3e7-889be6c1e0de"},"vehicle_type_id":"4","last_reported":1702973390,"current_range_meters":5600,"station_id":"ce4bgs92rcd13ifvqcc0","pricing_plan_id":"free"},{"bike_id":"d75605e7-261d-4811-bda9-9427769b961a","system_id":"levelo_inurba_marseille","lat":43.301429,"lon":5.37413,"is_reserved":false,"is_disabled":false,"rental_uris":{"android":"levelo://app?vid=d75605e7-261d-4811-bda9-9427769b961a","ios":"levelo://app?vid=d75605e7-261d-4811-bda9-9427769b961a"},"vehicle_type_id":"4","last_reported":1702973390,"current_range_meters":28000,"station_id":"ce4bgs92rcd13ifvqcc0","pricing_plan_id":"free"},{"bike_id":"4fbb90fd-8787-4a2f-bee5-871a5a1c19a8","system_id":"levelo_inurba_marseille","lat":43.302784,"lon":5.377158,"is_reserved":false,"is_disabled":false,"rental_uris":{"android":"levelo://app?vid=4fbb90fd-8787-4a2f-bee5-871a5a1c19a8","ios":"levelo://app?vid=4fbb90fd-8787-4a2f-bee5-871a5a1c19a8"},"vehicle_type_id":"4","last_reported":1702973390,"current_range_meters":22000,"station_id":"ce4bguh2rcd13ifvqcj0","pricing_plan_id":"free"},{"bike_id":"d881cd7f-8df8-43e8-af3b-b8f60eea9e81","system_id":"levelo_inurba_marseille","lat":43.301429,"lon":5.37413,"is_reserved":false,"is_disabled":false,"rental_uris":{"android":"levelo://app?vid=d881cd7f-8df8-43e8-af3b-b8f60eea9e81","ios":"levelo://app?vid=d881cd7f-8df8-43e8-af3b-b8f60eea9e81"},"vehicle_type_id":"4","last_reported":1702973390,"current_range_meters":21200,"station_id":"ce4bgs92rcd13ifvqcc0","pricing_plan_id":"free"},{"bike_id":"fcd6b6d1-a565-42ad-a404-a0dec692a33d","system_id":"levelo_inurba_marseille","lat":43.299222,"lon":5.365554,"is_reserved":false,"is_disabled":false,"rental_uris":{"android":"levelo://app?vid=fcd6b6d1-a565-42ad-a404-a0dec692a33d","ios":"levelo://app?vid=fcd6b6d1-a565-42ad-a404-a0dec692a33d"},"vehicle_type_id":"4","last_reported":1702973390,"current_range_meters":26800,"station_id":"ce4bgm92rcd13ifvqbr0","pricing_plan_id":"free"},{"bike_id":"e2fc7d62-291e-4898-bb42-6ca2c98ec136","system_id":"levelo_inurba_marseille","lat":43.305364,"lon":5.384119,"is_reserved":false,"is_disabled":false,"rental_uris":{"android":"levelo://app?vid=e2fc7d62-291e-4898-bb42-6ca2c98ec136","ios":"levelo://app?vid=e2fc7d62-291e-4898-bb42-6ca2c98ec136"},"vehicle_type_id":"4","last_reported":1702973390,"current_range_meters":24000,"station_id":"ce4bgg92rcd13ifvqb30","pricing_plan_id":"free"},{"bike_id":"55abebe7-bc5b-46ab-bc00-1f8bfd4af66a","system_id":"levelo_inurba_marseille","lat":43.298433,"lon":5.362774,"is_reserved":false,"is_disabled":false,"rental_uris":{"android":"levelo://app?vid=55abebe7-bc5b-46ab-bc00-1f8bfd4af66a","ios":"levelo://app?vid=55abebe7-bc5b-46ab-bc00-1f8bfd4af66a"},"vehicle_type_id":"4","last_reported":1702973390,"current_range_meters":18400,"station_id":"ce4bgpp2rcd13ifvqc3g","pricing_plan_id":"free"},{"bike_id":"ca0834b0-077b-48e5-8d61-d563b65c06e3","system_id":"levelo_inurba_marseille","lat":43.305434,"lon":5.384359,"is_reserved":false,"is_disabled":false,"rental_uris":{"android":"levelo://app?vid=ca0834b0-077b-48e5-8d61-d563b65c06e3","ios":"levelo://app?vid=ca0834b0-077b-48e5-8d61-d563b65c06e3"},"vehicle_type_id":"4","last_reported":1702973390,"current_range_meters":4000,"station_id":"ce4bgg92rcd13ifvqb30","pricing_plan_id":"free"},{"bike_id":"aff02a69-623c-40c5-bc96-1e441a8c34c3","system_id":"levelo_inurba_marseille","lat":43.299243,"lon":5.37481,"is_reserved":false,"is_disabled":false,"rental_uris":{"android":"levelo://app?vid=aff02a69-623c-40c5-bc96-1e441a8c34c3","ios":"levelo://app?vid=aff02a69-623c-40c5-bc96-1e441a8c34c3"},"vehicle_type_id":"4","last_reported":1702973390,"current_range_meters":28400,"station_id":"ce4bgjh2rcd13ifvqbg0","pricing_plan_id":"free"},{"bike_id":"ee5c0e2c-4f04-481f-838e-b1ede6632684","system_id":"levelo_inurba_marseille","lat":43.29783,"lon":5.37112,"is_reserved":false,"is_disabled":false,"rental_uris":{"android":"levelo://app?vid=ee5c0e2c-4f04-481f-838e-b1ede6632684","ios":"levelo://app?vid=ee5c0e2c-4f04-481f-838e-b1ede6632684"},"vehicle_type_id":"4","last_reported":1702973390,"current_range_meters":28000,"station_id":"ce4bgop2rcd13ifvqc1g","pricing_plan_id":"free"},{"bike_id":"e634940c-1ae4-4771-a219-f87b156a8c65","system_id":"levelo_inurba_marseille","lat":43.322872,"lon":5.382756,"is_reserved":false,"is_disabled":false,"rental_uris":{"android":"levelo://app?vid=e634940c-1ae4-4771-a219-f87b156a8c65","ios":"levelo://app?vid=e634940c-1ae4-4771-a219-f87b156a8c65"},"vehicle_type_id":"4","last_reported":1702973390,"current_range_meters":23200,"station_id":"ce4bhr12rcd13ifvqhqg","pricing_plan_id":"free"},{"bike_id":"bdcd694d-0746-4772-a7e2-19b26a64793f","system_id":"levelo_inurba_marseille","lat":43.328371,"lon":5.366909,"is_reserved":false,"is_disabled":false,"rental_uris":{"android":"levelo://app?vid=bdcd694d-0746-4772-a7e2-19b26a64793f","ios":"levelo://app?vid=bdcd694d-0746-4772-a7e2-19b26a64793f"},"vehicle_type_id":"4","last_reported":1702973390,"current_range_meters":20800,"station_id":"ce4bhs92rcd13ifvqi0g","pricing_plan_id":"free"},{"bike_id":"d83fbae2-5f8f-42f4-8ccf-5b712fffb999","system_id":"levelo_inurba_marseille","lat":43.328371,"lon":5.366909,"is_reserved":false,"is_disabled":false,"rental_uris":{"android":"levelo://app?vid=d83fbae2-5f8f-42f4-8ccf-5b712fffb999","ios":"levelo://app?vid=d83fbae2-5f8f-42f4-8ccf-5b712fffb999"},"vehicle_type_id":"4","last_reported":1702973390,"current_range_meters":28000,"station_id":"ce4bhs92rcd13ifvqi0g","pricing_plan_id":"free"},{"bike_id":"512fed00-2c88-4ea0-8c68-cfc4ed2843c6","system_id":"levelo_inurba_marseille","lat":43.296131,"lon":5.370791,"is_reserved":false,"is_disabled":false,"rental_uris":{"android":"levelo://app?vid=512fed00-2c88-4ea0-8c68-cfc4ed2843c6","ios":"levelo://app?vid=512fed00-2c88-4ea0-8c68-cfc4ed2843c6"},"vehicle_type_id":"4","last_reported":1702973390,"current_range_meters":24800,"station_id":"ce4bgnh2rcd13ifvqc0g","pricing_plan_id":"free"},{"bike_id":"8f3e19a2-5023-4035-867a-4dc167a76348","system_id":"levelo_inurba_marseille","lat":43.29573,"lon":5.367355,"is_reserved":false,"is_disabled":false,"rental_uris":{"android":"levelo://app?vid=8f3e19a2-5023-4035-867a-4dc167a76348","ios":"levelo://app?vid=8f3e19a2-5023-4035-867a-4dc167a76348"},"vehicle_type_id":"4","last_reported":1702973390,"current_range_meters":20400,"station_id":"ce4bgph2rcd13ifvqc2g","pricing_plan_id":"free"},{"bike_id":"4467ea74-2a71-430b-b530-68c7d7d8ee97","system_id":"levelo_inurba_marseille","lat":43.309589,"lon":5.390258,"is_reserved":false,"is_disabled":false,"rental_uris":{"android":"levelo://app?vid=4467ea74-2a71-430b-b530-68c7d7d8ee97","ios":"levelo://app?vid=4467ea74-2a71-430b-b530-68c7d7d8ee97"},"vehicle_type_id":"4","last_reported":1702973390,"current_range_meters":16000,"station_id":"ce4bgup2rcd13ifvqco0","pricing_plan_id":"free"},{"bike_id":"f63dae33-b274-44c8-8aaf-44016be3834a","system_id":"levelo_inurba_marseille","lat":43.309589,"lon":5.390258,"is_reserved":false,"is_disabled":false,"rental_uris":{"android":"levelo://app?vid=f63dae33-b274-44c8-8aaf-44016be3834a","ios":"levelo://app?vid=f63dae33-b274-44c8-8aaf-44016be3834a"},"vehicle_type_id":"4","last_reported":1702973390,"current_range_meters":18800,"station_id":"ce4bgup2rcd13ifvqco0","pricing_plan_id":"free"},{"bike_id":"32a85c6f-a6b1-48cb-8e38-806811c173ef","system_id":"levelo_inurba_marseille","lat":43.309589,"lon":5.390258,"is_reserved":false,"is_disabled":false,"rental_uris":{"android":"levelo://app?vid=32a85c6f-a6b1-48cb-8e38-806811c173ef","ios":"levelo://app?vid=32a85c6f-a6b1-48cb-8e38-806811c173ef"},"vehicle_type_id":"4","last_reported":1702973390,"current_range_meters":19200,"station_id":"ce4bgup2rcd13ifvqco0","pricing_plan_id":"free"},{"bike_id":"51e9f541-3208-497a-8a70-1667a1e7d9d4","system_id":"levelo_inurba_marseille","lat":43.309589,"lon":5.390258,"is_reserved":false,"is_disabled":false,"rental_uris":{"android":"levelo://app?vid=51e9f541-3208-497a-8a70-1667a1e7d9d4","ios":"levelo://app?vid=51e9f541-3208-497a-8a70-1667a1e7d9d4"},"vehicle_type_id":"4","last_reported":1702973390,"current_range_meters":22000,"station_id":"ce4bgup2rcd13ifvqco0","pricing_plan_id":"free"},{"bike_id":"c8ec15a0-c1cb-4e05-b09a-d8a6c03904b2","system_id":"levelo_inurba_marseille","lat":43.317557,"lon":5.390173,"is_reserved":false,"is_disabled":false,"rental_uris":{"android":"levelo://app?vid=c8ec15a0-c1cb-4e05-b09a-d8a6c03904b2","ios":"levelo://app?vid=c8ec15a0-c1cb-4e05-b09a-d8a6c03904b2"},"vehicle_type_id":"4","last_reported":1702973390,"current_range_meters":4800,"station_id":"ce4bhqp2rcd13ifvqhng","pricing_plan_id":"free"},{"bike_id":"40554fe8-87bf-41d5-b75a-7fd0e2ec929c","system_id":"levelo_inurba_marseille","lat":43.317534,"lon":5.390229,"is_reserved":false,"is_disabled":false,"rental_uris":{"android":"levelo://app?vid=40554fe8-87bf-41d5-b75a-7fd0e2ec929c","ios":"levelo://app?vid=40554fe8-87bf-41d5-b75a-7fd0e2ec929c"},"vehicle_type_id":"4","last_reported":1702973390,"current_range_meters":30800,"station_id":"ce4bhqp2rcd13ifvqhng","pricing_plan_id":"free"},{"bike_id":"b6a646cd-fae8-428d-9fc4-8da886d5f753","system_id":"levelo_inurba_marseille","lat":43.30445,"lon":5.388865,"is_reserved":false,"is_disabled":false,"rental_uris":{"android":"levelo://app?vid=b6a646cd-fae8-428d-9fc4-8da886d5f753","ios":"levelo://app?vid=b6a646cd-fae8-428d-9fc4-8da886d5f753"},"vehicle_type_id":"4","last_reported":1702973390,"current_range_meters":30800,"station_id":"ce4bgk12rcd13ifvqbi0","pricing_plan_id":"free"},{"bike_id":"5cd44052-3c22-4a6a-9424-5e3144510e37","system_id":"levelo_inurba_marseille","lat":43.30435,"lon":5.38884,"is_reserved":false,"is_disabled":false,"rental_uris":{"android":"levelo://app?vid=5cd44052-3c22-4a6a-9424-5e3144510e37","ios":"levelo://app?vid=5cd44052-3c22-4a6a-9424-5e3144510e37"},"vehicle_type_id":"4","last_reported":1702973390,"current_range_meters":14800,"station_id":"ce4bgk12rcd13ifvqbi0","pricing_plan_id":"free"},{"bike_id":"a9a797d1-b953-4f3a-8323-715a72c5f9a6","system_id":"levelo_inurba_marseille","lat":43.30424,"lon":5.38883,"is_reserved":false,"is_disabled":false,"rental_uris":{"android":"levelo://app?vid=a9a797d1-b953-4f3a-8323-715a72c5f9a6","ios":"levelo://app?vid=a9a797d1-b953-4f3a-8323-715a72c5f9a6"},"vehicle_type_id":"4","last_reported":1702973390,"current_range_meters":14000,"station_id":"ce4bgk12rcd13ifvqbi0","pricing_plan_id":"free"},{"bike_id":"027f642c-cab5-42d0-9951-095228f3d0c4","system_id":"levelo_inurba_marseille","lat":43.29786,"lon":5.38113,"is_reserved":false,"is_disabled":false,"rental_uris":{"android":"levelo://app?vid=027f642c-cab5-42d0-9951-095228f3d0c4","ios":"levelo://app?vid=027f642c-cab5-42d0-9951-095228f3d0c4"},"vehicle_type_id":"4","last_reported":1702973390,"current_range_meters":12800,"station_id":"","pricing_plan_id":"free"},{"bike_id":"b96385d8-8e15-4c00-b7d3-23e1dc5cd82b","system_id":"levelo_inurba_marseille","lat":43.299724,"lon":5.384848,"is_reserved":false,"is_disabled":false,"rental_uris":{"android":"levelo://app?vid=b96385d8-8e15-4c00-b7d3-23e1dc5cd82b","ios":"levelo://app?vid=b96385d8-8e15-4c00-b7d3-23e1dc5cd82b"},"vehicle_type_id":"4","last_reported":1702973390,"current_range_meters":22800,"station_id":"ce4bgj92rcd13ifvqbd0","pricing_plan_id":"free"},{"bike_id":"e5b384a6-007d-4bce-9784-692cad4a3609","system_id":"levelo_inurba_marseille","lat":43.299707,"lon":5.384859,"is_reserved":false,"is_disabled":false,"rental_uris":{"android":"levelo://app?vid=e5b384a6-007d-4bce-9784-692cad4a3609","ios":"levelo://app?vid=e5b384a6-007d-4bce-9784-692cad4a3609"},"vehicle_type_id":"4","last_reported":1702973390,"current_range_meters":26400,"station_id":"ce4bgj92rcd13ifvqbd0","pricing_plan_id":"free"},{"bike_id":"24494088-4271-40e3-b304-08222d494acf","system_id":"levelo_inurba_marseille","lat":43.30202,"lon":5.38871,"is_reserved":false,"is_disabled":false,"rental_uris":{"android":"levelo://app?vid=24494088-4271-40e3-b304-08222d494acf","ios":"levelo://app?vid=24494088-4271-40e3-b304-08222d494acf"},"vehicle_type_id":"4","last_reported":1702973390,"current_range_meters":25600,"station_id":"","pricing_plan_id":"free"},{"bike_id":"67a579e1-4bf9-4fa1-bfdd-d0c6cfc4791a","system_id":"levelo_inurba_marseille","lat":43.32367,"lon":5.388836,"is_reserved":false,"is_disabled":false,"rental_uris":{"android":"levelo://app?vid=67a579e1-4bf9-4fa1-bfdd-d0c6cfc4791a","ios":"levelo://app?vid=67a579e1-4bf9-4fa1-bfdd-d0c6cfc4791a"},"vehicle_type_id":"4","last_reported":1702973390,"current_range_meters":4800,"station_id":"ce4bhqp2rcd13ifvqhog","pricing_plan_id":"free"},{"bike_id":"9c2ab6d7-d75d-4d2e-91e4-b12eb9f43f84","system_id":"levelo_inurba_marseille","lat":43.292749,"lon":5.368402,"is_reserved":false,"is_disabled":false,"rental_uris":{"android":"levelo://app?vid=9c2ab6d7-d75d-4d2e-91e4-b12eb9f43f84","ios":"levelo://app?vid=9c2ab6d7-d75d-4d2e-91e4-b12eb9f43f84"},"vehicle_type_id":"4","last_reported":1702973390,"current_range_meters":28800,"station_id":"ce4bhbp2rcd13ifvqesg","pricing_plan_id":"free"},{"bike_id":"cc289bac-f47a-41e4-a297-2d2bc92e4556","system_id":"levelo_inurba_marseille","lat":43.293009,"lon":5.374584,"is_reserved":false,"is_disabled":false,"rental_uris":{"android":"levelo://app?vid=cc289bac-f47a-41e4-a297-2d2bc92e4556","ios":"levelo://app?vid=cc289bac-f47a-41e4-a297-2d2bc92e4556"},"vehicle_type_id":"4","last_reported":1702973390,"current_range_meters":24400,"station_id":"ce4bgi12rcd13ifvqb70","pricing_plan_id":"free"},{"bike_id":"02461411-2157-4048-bb25-60ccbd1a9f5f","system_id":"levelo_inurba_marseille","lat":43.29371,"lon":5.37838,"is_reserved":false,"is_disabled":false,"rental_uris":{"android":"levelo://app?vid=02461411-2157-4048-bb25-60ccbd1a9f5f","ios":"levelo://app?vid=02461411-2157-4048-bb25-60ccbd1a9f5f"},"vehicle_type_id":"4","last_reported":1702973390,"current_range_meters":24000,"station_id":"ce4bgjh2rcd13ifvqbf0","pricing_plan_id":"free"},{"bike_id":"2a07e3b9-5114-40ea-a3de-a116c1a3d6ff","system_id":"levelo_inurba_marseille","lat":43.293692,"lon":5.378401,"is_reserved":false,"is_disabled":false,"rental_uris":{"android":"levelo://app?vid=2a07e3b9-5114-40ea-a3de-a116c1a3d6ff","ios":"levelo://app?vid=2a07e3b9-5114-40ea-a3de-a116c1a3d6ff"},"vehicle_type_id":"4","last_reported":1702973390,"current_range_meters":31200,"station_id":"","pricing_plan_id":"free"},{"bike_id":"c6c2e409-89ef-45ee-a14f-3a31d87f8c47","system_id":"levelo_inurba_marseille","lat":43.300961,"lon":5.390836,"is_reserved":false,"is_disabled":false,"rental_uris":{"android":"levelo://app?vid=c6c2e409-89ef-45ee-a14f-3a31d87f8c47","ios":"levelo://app?vid=c6c2e409-89ef-45ee-a14f-3a31d87f8c47"},"vehicle_type_id":"4","last_reported":1702973390,"current_range_meters":29600,"station_id":"","pricing_plan_id":"free"},{"bike_id":"cdab568c-1859-48d5-a808-837db501f5cf","system_id":"levelo_inurba_marseille","lat":43.292311,"lon":5.360731,"is_reserved":false,"is_disabled":false,"rental_uris":{"android":"levelo://app?vid=cdab568c-1859-48d5-a808-837db501f5cf","ios":"levelo://app?vid=cdab568c-1859-48d5-a808-837db501f5cf"},"vehicle_type_id":"4","last_reported":1702973390,"current_range_meters":29600,"station_id":"ce4bhbh2rcd13ifvqeqg","pricing_plan_id":"free"},{"bike_id":"25316a88-7dca-484d-a1be-38f3e58c4dd1","system_id":"levelo_inurba_marseille","lat":43.298879,"lon":5.389057,"is_reserved":false,"is_disabled":false,"rental_uris":{"android":"levelo://app?vid=25316a88-7dca-484d-a1be-38f3e58c4dd1","ios":"levelo://app?vid=25316a88-7dca-484d-a1be-38f3e58c4dd1"},"vehicle_type_id":"4","last_reported":1702973390,"current_range_meters":18400,"station_id":"","pricing_plan_id":"free"},{"bike_id":"27b04689-5f0f-4750-a9b5-34273f449b70","system_id":"levelo_inurba_marseille","lat":43.291671,"lon":5.371575,"is_reserved":false,"is_disabled":false,"rental_uris":{"android":"levelo://app?vid=27b04689-5f0f-4750-a9b5-34273f449b70","ios":"levelo://app?vid=27b04689-5f0f-4750-a9b5-34273f449b70"},"vehicle_type_id":"4","last_reported":1702973390,"current_range_meters":19200,"station_id":"ce4bha92rcd13ifvqeh0","pricing_plan_id":"free"},{"bike_id":"02ebcd26-ba1b-47a0-bbbd-bb844df921a1","system_id":"levelo_inurba_marseille","lat":43.291671,"lon":5.371575,"is_reserved":false,"is_disabled":false,"rental_uris":{"android":"levelo://app?vid=02ebcd26-ba1b-47a0-bbbd-bb844df921a1","ios":"levelo://app?vid=02ebcd26-ba1b-47a0-bbbd-bb844df921a1"},"vehicle_type_id":"4","last_reported":1702973390,"current_range_meters":21600,"station_id":"ce4bha92rcd13ifvqeh0","pricing_plan_id":"free"},{"bike_id":"f16a7363-728e-46ee-bfc7-dae640cce21b","system_id":"levelo_inurba_marseille","lat":43.313291,"lon":5.396838,"is_reserved":false,"is_disabled":false,"rental_uris":{"android":"levelo://app?vid=f16a7363-728e-46ee-bfc7-dae640cce21b","ios":"levelo://app?vid=f16a7363-728e-46ee-bfc7-dae640cce21b"},"vehicle_type_id":"4","last_reported":1702973390,"current_range_meters":28000,"station_id":"ce4bgvp2rcd13ifvqcu0","pricing_plan_id":"free"},{"bike_id":"31ed0fde-22a4-416a-b227-abd0880cc3da","system_id":"levelo_inurba_marseille","lat":43.302008,"lon":5.394694,"is_reserved":false,"is_disabled":false,"rental_uris":{"android":"levelo://app?vid=31ed0fde-22a4-416a-b227-abd0880cc3da","ios":"levelo://app?vid=31ed0fde-22a4-416a-b227-abd0880cc3da"},"vehicle_type_id":"4","last_reported":1702973390,"current_range_meters":21600,"station_id":"ce4bh0p2rcd13ifvqd70","pricing_plan_id":"free"},{"bike_id":"f342e231-be95-4ef1-a1ca-39e260bbee30","system_id":"levelo_inurba_marseille","lat":43.302008,"lon":5.394694,"is_reserved":false,"is_disabled":false,"rental_uris":{"android":"levelo://app?vid=f342e231-be95-4ef1-a1ca-39e260bbee30","ios":"levelo://app?vid=f342e231-be95-4ef1-a1ca-39e260bbee30"},"vehicle_type_id":"4","last_reported":1702973390,"current_range_meters":30800,"station_id":"ce4bh0p2rcd13ifvqd70","pricing_plan_id":"free"},{"bike_id":"072f6a9e-25df-427f-9cf1-f2f22d97f15e","system_id":"levelo_inurba_marseille","lat":43.290631,"lon":5.359244,"is_reserved":false,"is_disabled":false,"rental_uris":{"android":"levelo://app?vid=072f6a9e-25df-427f-9cf1-f2f22d97f15e","ios":"levelo://app?vid=072f6a9e-25df-427f-9cf1-f2f22d97f15e"},"vehicle_type_id":"4","last_reported":1702973390,"current_range_meters":30800,"station_id":"ce4bha92rcd13ifvqeg0","pricing_plan_id":"free"},{"bike_id":"49447cef-3c9d-4be4-9458-680e4ceca4a6","system_id":"levelo_inurba_marseille","lat":43.290327,"lon":5.375711,"is_reserved":false,"is_disabled":false,"rental_uris":{"android":"levelo://app?vid=49447cef-3c9d-4be4-9458-680e4ceca4a6","ios":"levelo://app?vid=49447cef-3c9d-4be4-9458-680e4ceca4a6"},"vehicle_type_id":"4","last_reported":1702973390,"current_range_meters":11600,"station_id":"ce4bh692rcd13ifvqe90","pricing_plan_id":"free"},{"bike_id":"0172295d-793b-4d54-bd20-a27d890652a1","system_id":"levelo_inurba_marseille","lat":43.290327,"lon":5.375711,"is_reserved":false,"is_disabled":false,"rental_uris":{"android":"levelo://app?vid=0172295d-793b-4d54-bd20-a27d890652a1","ios":"levelo://app?vid=0172295d-793b-4d54-bd20-a27d890652a1"},"vehicle_type_id":"4","last_reported":1702973390,"current_range_meters":26000,"station_id":"ce4bh692rcd13ifvqe90","pricing_plan_id":"free"},{"bike_id":"e30de450-a881-4914-bff9-11a154379848","system_id":"levelo_inurba_marseille","lat":43.290327,"lon":5.375711,"is_reserved":false,"is_disabled":false,"rental_uris":{"android":"levelo://app?vid=e30de450-a881-4914-bff9-11a154379848","ios":"levelo://app?vid=e30de450-a881-4914-bff9-11a154379848"},"vehicle_type_id":"4","last_reported":1702973390,"current_range_meters":12000,"station_id":"ce4bh692rcd13ifvqe90","pricing_plan_id":"free"},{"bike_id":"649f28ca-b98d-42e9-be8a-4bf12da0b381","system_id":"levelo_inurba_marseille","lat":43.290327,"lon":5.375711,"is_reserved":false,"is_disabled":false,"rental_uris":{"android":"levelo://app?vid=649f28ca-b98d-42e9-be8a-4bf12da0b381","ios":"levelo://app?vid=649f28ca-b98d-42e9-be8a-4bf12da0b381"},"vehicle_type_id":"4","last_reported":1702973390,"current_range_meters":0,"station_id":"ce4bh692rcd13ifvqe90","pricing_plan_id":"free"},{"bike_id":"5d5921d7-f487-44a5-aab9-c27738199fa5","system_id":"levelo_inurba_marseille","lat":43.330442,"lon":5.389148,"is_reserved":false,"is_disabled":false,"rental_uris":{"android":"levelo://app?vid=5d5921d7-f487-44a5-aab9-c27738199fa5","ios":"levelo://app?vid=5d5921d7-f487-44a5-aab9-c27738199fa5"},"vehicle_type_id":"4","last_reported":1702973390,"current_range_meters":30400,"station_id":"ce4bhr92rcd13ifvqhrg","pricing_plan_id":"free"},{"bike_id":"fb541042-ca34-42cc-9403-1629f61ffdf5","system_id":"levelo_inurba_marseille","lat":43.33045,"lon":5.38918,"is_reserved":false,"is_disabled":false,"rental_uris":{"android":"levelo://app?vid=fb541042-ca34-42cc-9403-1629f61ffdf5","ios":"levelo://app?vid=fb541042-ca34-42cc-9403-1629f61ffdf5"},"vehicle_type_id":"4","last_reported":1702973390,"current_range_meters":29200,"station_id":"ce4bhr92rcd13ifvqhrg","pricing_plan_id":"free"},{"bike_id":"7269fc81-2794-4e90-abe7-3469bc2c2ea4","system_id":"levelo_inurba_marseille","lat":43.330442,"lon":5.389148,"is_reserved":false,"is_disabled":false,"rental_uris":{"android":"levelo://app?vid=7269fc81-2794-4e90-abe7-3469bc2c2ea4","ios":"levelo://app?vid=7269fc81-2794-4e90-abe7-3469bc2c2ea4"},"vehicle_type_id":"4","last_reported":1702973390,"current_range_meters":25200,"station_id":"ce4bhr92rcd13ifvqhrg","pricing_plan_id":"free"},{"bike_id":"427363f4-e7fe-45e2-b075-4dcf41b9b8a4","system_id":"levelo_inurba_marseille","lat":43.290995,"lon":5.381361,"is_reserved":false,"is_disabled":false,"rental_uris":{"android":"levelo://app?vid=427363f4-e7fe-45e2-b075-4dcf41b9b8a4","ios":"levelo://app?vid=427363f4-e7fe-45e2-b075-4dcf41b9b8a4"},"vehicle_type_id":"4","last_reported":1702973390,"current_range_meters":22800,"station_id":"ce4bh512rcd13ifvqe2g","pricing_plan_id":"free"},{"bike_id":"9151ee39-97b2-470f-a9e5-2bb2d293eb8a","system_id":"levelo_inurba_marseille","lat":43.273125,"lon":5.390731,"is_reserved":false,"is_disabled":false,"rental_uris":{"android":"levelo://app?vid=9151ee39-97b2-470f-a9e5-2bb2d293eb8a","ios":"levelo://app?vid=9151ee39-97b2-470f-a9e5-2bb2d293eb8a"},"vehicle_type_id":"4","last_reported":1702973390,"current_range_meters":18400,"station_id":"ce4bhgp2rcd13ifvqfe0","pricing_plan_id":"free"},{"bike_id":"606f214e-8a96-4fc2-a52b-3272c1b8b7b2","system_id":"levelo_inurba_marseille","lat":43.289743,"lon":5.378304,"is_reserved":false,"is_disabled":false,"rental_uris":{"android":"levelo://app?vid=606f214e-8a96-4fc2-a52b-3272c1b8b7b2","ios":"levelo://app?vid=606f214e-8a96-4fc2-a52b-3272c1b8b7b2"},"vehicle_type_id":"4","last_reported":1702973390,"current_range_meters":26000,"station_id":"ce4bh9p2rcd13ifvqed0","pricing_plan_id":"free"},{"bike_id":"6af56274-8ae9-4a96-84a6-ef772a9d61ba","system_id":"levelo_inurba_marseille","lat":43.29526,"lon":5.39042,"is_reserved":false,"is_disabled":false,"rental_uris":{"android":"levelo://app?vid=6af56274-8ae9-4a96-84a6-ef772a9d61ba","ios":"levelo://app?vid=6af56274-8ae9-4a96-84a6-ef772a9d61ba"},"vehicle_type_id":"4","last_reported":1702973390,"current_range_meters":29600,"station_id":"ce4bh3p2rcd13ifvqdp0","pricing_plan_id":"free"},{"bike_id":"52a4312c-e7e0-4a8e-bf07-ccb212dbfb82","system_id":"levelo_inurba_marseille","lat":43.33762,"lon":5.37439,"is_reserved":false,"is_disabled":false,"rental_uris":{"android":"levelo://app?vid=52a4312c-e7e0-4a8e-bf07-ccb212dbfb82","ios":"levelo://app?vid=52a4312c-e7e0-4a8e-bf07-ccb212dbfb82"},"vehicle_type_id":"4","last_reported":1702973390,"current_range_meters":8800,"station_id":"","pricing_plan_id":"free"},{"bike_id":"c3c3cbbb-aa08-4874-94d9-d40777882ceb","system_id":"levelo_inurba_marseille","lat":43.33766,"lon":5.37424,"is_reserved":false,"is_disabled":false,"rental_uris":{"android":"levelo://app?vid=c3c3cbbb-aa08-4874-94d9-d40777882ceb","ios":"levelo://app?vid=c3c3cbbb-aa08-4874-94d9-d40777882ceb"},"vehicle_type_id":"4","last_reported":1702973390,"current_range_meters":10000,"station_id":"","pricing_plan_id":"free"},{"bike_id":"c8343950-d34b-4865-ad2b-bd6251b18e59","system_id":"levelo_inurba_marseille","lat":43.33768,"lon":5.374595,"is_reserved":false,"is_disabled":false,"rental_uris":{"android":"levelo://app?vid=c8343950-d34b-4865-ad2b-bd6251b18e59","ios":"levelo://app?vid=c8343950-d34b-4865-ad2b-bd6251b18e59"},"vehicle_type_id":"4","last_reported":1702973390,"current_range_meters":31200,"station_id":"","pricing_plan_id":"free"},{"bike_id":"12e235f1-1957-408b-b72f-740dc3090000","system_id":"levelo_inurba_marseille","lat":43.302759,"lon":5.400793,"is_reserved":false,"is_disabled":false,"rental_uris":{"android":"levelo://app?vid=12e235f1-1957-408b-b72f-740dc3090000","ios":"levelo://app?vid=12e235f1-1957-408b-b72f-740dc3090000"},"vehicle_type_id":"4","last_reported":1702973390,"current_range_meters":21600,"station_id":"ce4bgvh2rcd13ifvqcs0","pricing_plan_id":"free"},{"bike_id":"41501bbc-b034-45ad-b316-c32409342290","system_id":"levelo_inurba_marseille","lat":43.286039,"lon":5.370679,"is_reserved":false,"is_disabled":false,"rental_uris":{"android":"levelo://app?vid=41501bbc-b034-45ad-b316-c32409342290","ios":"levelo://app?vid=41501bbc-b034-45ad-b316-c32409342290"},"vehicle_type_id":"4","last_reported":1702973390,"current_range_meters":30000,"station_id":"ce4bht12rcd13ifvqi60","pricing_plan_id":"free"},{"bike_id":"aa4c09e5-e260-4f07-a10c-93bab96c60fc","system_id":"levelo_inurba_marseille","lat":43.316821,"lon":5.404737,"is_reserved":false,"is_disabled":false,"rental_uris":{"android":"levelo://app?vid=aa4c09e5-e260-4f07-a10c-93bab96c60fc","ios":"levelo://app?vid=aa4c09e5-e260-4f07-a10c-93bab96c60fc"},"vehicle_type_id":"4","last_reported":1702973390,"current_range_meters":17200,"station_id":"ce4bh012rcd13ifvqd00","pricing_plan_id":"free"},{"bike_id":"0cfbccd5-9da6-4492-8402-e21c2e0ee4dc","system_id":"levelo_inurba_marseille","lat":43.283998,"lon":5.375062,"is_reserved":false,"is_disabled":false,"rental_uris":{"android":"levelo://app?vid=0cfbccd5-9da6-4492-8402-e21c2e0ee4dc","ios":"levelo://app?vid=0cfbccd5-9da6-4492-8402-e21c2e0ee4dc"},"vehicle_type_id":"4","last_reported":1702973390,"current_range_meters":27200,"station_id":"ce4bh412rcd13ifvqds0","pricing_plan_id":"free"},{"bike_id":"224b4f91-38c0-4291-91ff-6bf2a2e2c34c","system_id":"levelo_inurba_marseille","lat":43.283998,"lon":5.375062,"is_reserved":false,"is_disabled":false,"rental_uris":{"android":"levelo://app?vid=224b4f91-38c0-4291-91ff-6bf2a2e2c34c","ios":"levelo://app?vid=224b4f91-38c0-4291-91ff-6bf2a2e2c34c"},"vehicle_type_id":"4","last_reported":1702973390,"current_range_meters":20800,"station_id":"ce4bh412rcd13ifvqds0","pricing_plan_id":"free"},{"bike_id":"9d3d3fba-057f-466e-82f1-ed3ae1d3c4ac","system_id":"levelo_inurba_marseille","lat":43.283998,"lon":5.375062,"is_reserved":false,"is_disabled":false,"rental_uris":{"android":"levelo://app?vid=9d3d3fba-057f-466e-82f1-ed3ae1d3c4ac","ios":"levelo://app?vid=9d3d3fba-057f-466e-82f1-ed3ae1d3c4ac"},"vehicle_type_id":"4","last_reported":1702973390,"current_range_meters":23200,"station_id":"ce4bh412rcd13ifvqds0","pricing_plan_id":"free"},{"bike_id":"563939bf-4548-4073-a361-616e8451f78a","system_id":"levelo_inurba_marseille","lat":43.283998,"lon":5.375062,"is_reserved":false,"is_disabled":false,"rental_uris":{"android":"levelo://app?vid=563939bf-4548-4073-a361-616e8451f78a","ios":"levelo://app?vid=563939bf-4548-4073-a361-616e8451f78a"},"vehicle_type_id":"4","last_reported":1702973390,"current_range_meters":23600,"station_id":"ce4bh412rcd13ifvqds0","pricing_plan_id":"free"},{"bike_id":"8538e6dd-dbef-4a5a-a119-9a857fd021ad","system_id":"levelo_inurba_marseille","lat":43.33218,"lon":5.397067,"is_reserved":false,"is_disabled":false,"rental_uris":{"android":"levelo://app?vid=8538e6dd-dbef-4a5a-a119-9a857fd021ad","ios":"levelo://app?vid=8538e6dd-dbef-4a5a-a119-9a857fd021ad"},"vehicle_type_id":"4","last_reported":1702973390,"current_range_meters":2400,"station_id":"","pricing_plan_id":"free"},{"bike_id":"b32e9a5f-a492-4404-8905-78accbf527c5","system_id":"levelo_inurba_marseille","lat":43.295713,"lon":5.399639,"is_reserved":false,"is_disabled":false,"rental_uris":{"android":"levelo://app?vid=b32e9a5f-a492-4404-8905-78accbf527c5","ios":"levelo://app?vid=b32e9a5f-a492-4404-8905-78accbf527c5"},"vehicle_type_id":"4","last_reported":1702973390,"current_range_meters":2000,"station_id":"ce4bh312rcd13ifvqdj0","pricing_plan_id":"free"},{"bike_id":"4e13762f-f62f-4184-aeb8-06edb4ec00bf","system_id":"levelo_inurba_marseille","lat":43.286595,"lon":5.386795,"is_reserved":false,"is_disabled":false,"rental_uris":{"android":"levelo://app?vid=4e13762f-f62f-4184-aeb8-06edb4ec00bf","ios":"levelo://app?vid=4e13762f-f62f-4184-aeb8-06edb4ec00bf"},"vehicle_type_id":"4","last_reported":1702973390,"current_range_meters":24000,"station_id":"ce4bh492rcd13ifvqdug","pricing_plan_id":"free"},{"bike_id":"e3295372-a26c-44c1-8737-7c81362b26ed","system_id":"levelo_inurba_marseille","lat":43.286595,"lon":5.386795,"is_reserved":false,"is_disabled":false,"rental_uris":{"android":"levelo://app?vid=e3295372-a26c-44c1-8737-7c81362b26ed","ios":"levelo://app?vid=e3295372-a26c-44c1-8737-7c81362b26ed"},"vehicle_type_id":"4","last_reported":1702973390,"current_range_meters":26400,"station_id":"ce4bh492rcd13ifvqdug","pricing_plan_id":"free"},{"bike_id":"6ef61fad-a186-4f16-b238-060b73663567","system_id":"levelo_inurba_marseille","lat":43.323464,"lon":5.406297,"is_reserved":false,"is_disabled":false,"rental_uris":{"android":"levelo://app?vid=6ef61fad-a186-4f16-b238-060b73663567","ios":"levelo://app?vid=6ef61fad-a186-4f16-b238-060b73663567"},"vehicle_type_id":"4","last_reported":1702973390,"current_range_meters":31200,"station_id":"ce4bhq92rcd13ifvqhjg","pricing_plan_id":"free"},{"bike_id":"18e7facd-1023-4c6b-85b7-81049600964e","system_id":"levelo_inurba_marseille","lat":43.323464,"lon":5.406297,"is_reserved":false,"is_disabled":false,"rental_uris":{"android":"levelo://app?vid=18e7facd-1023-4c6b-85b7-81049600964e","ios":"levelo://app?vid=18e7facd-1023-4c6b-85b7-81049600964e"},"vehicle_type_id":"4","last_reported":1702973390,"current_range_meters":31200,"station_id":"ce4bhq92rcd13ifvqhjg","pricing_plan_id":"free"},{"bike_id":"cb8da506-0c61-4efc-a37a-fcf8db806d53","system_id":"levelo_inurba_marseille","lat":43.337168,"lon":5.391825,"is_reserved":false,"is_disabled":false,"rental_uris":{"android":"levelo://app?vid=cb8da506-0c61-4efc-a37a-fcf8db806d53","ios":"levelo://app?vid=cb8da506-0c61-4efc-a37a-fcf8db806d53"},"vehicle_type_id":"4","last_reported":1702973390,"current_range_meters":27200,"station_id":"ce4bhr92rcd13ifvqhsg","pricing_plan_id":"free"},{"bike_id":"fb945db4-2836-4a09-8c06-22103f4977c5","system_id":"levelo_inurba_marseille","lat":43.284793,"lon":5.384113,"is_reserved":false,"is_disabled":false,"rental_uris":{"android":"levelo://app?vid=fb945db4-2836-4a09-8c06-22103f4977c5","ios":"levelo://app?vid=fb945db4-2836-4a09-8c06-22103f4977c5"},"vehicle_type_id":"4","last_reported":1702973390,"current_range_meters":12000,"station_id":"ce4bh512rcd13ifvqe3g","pricing_plan_id":"free"},{"bike_id":"d8c0083c-42e2-4c2b-86cf-33af9bbe41d1","system_id":"levelo_inurba_marseille","lat":43.288501,"lon":5.393087,"is_reserved":false,"is_disabled":false,"rental_uris":{"android":"levelo://app?vid=d8c0083c-42e2-4c2b-86cf-33af9bbe41d1","ios":"levelo://app?vid=d8c0083c-42e2-4c2b-86cf-33af9bbe41d1"},"vehicle_type_id":"4","last_reported":1702973390,"current_range_meters":11200,"station_id":"ce4bh2p2rcd13ifvqdi0","pricing_plan_id":"free"},{"bike_id":"8d3b5ca2-25e8-4c0c-b6b4-eaa12d7b4387","system_id":"levelo_inurba_marseille","lat":43.29795,"lon":5.404086,"is_reserved":false,"is_disabled":false,"rental_uris":{"android":"levelo://app?vid=8d3b5ca2-25e8-4c0c-b6b4-eaa12d7b4387","ios":"levelo://app?vid=8d3b5ca2-25e8-4c0c-b6b4-eaa12d7b4387"},"vehicle_type_id":"4","last_reported":1702973390,"current_range_meters":1600,"station_id":"ce4bh112rcd13ifvqd90","pricing_plan_id":"free"},{"bike_id":"35e5c977-c3ec-4302-85e4-7f44ba15ca6f","system_id":"levelo_inurba_marseille","lat":43.306412,"lon":5.401035,"is_reserved":false,"is_disabled":false,"rental_uris":{"android":"levelo://app?vid=35e5c977-c3ec-4302-85e4-7f44ba15ca6f","ios":"levelo://app?vid=35e5c977-c3ec-4302-85e4-7f44ba15ca6f"},"vehicle_type_id":"4","last_reported":1702973390,"current_range_meters":24000,"station_id":"ce4bh112rcd13ifvqda0","pricing_plan_id":"free"},{"bike_id":"304ae655-c49c-4194-b97c-3a10b860aa95","system_id":"levelo_inurba_marseille","lat":43.289385,"lon":5.396185,"is_reserved":false,"is_disabled":false,"rental_uris":{"android":"levelo://app?vid=304ae655-c49c-4194-b97c-3a10b860aa95","ios":"levelo://app?vid=304ae655-c49c-4194-b97c-3a10b860aa95"},"vehicle_type_id":"4","last_reported":1702973390,"current_range_meters":1600,"station_id":"ce4bgkh2rcd13ifvqbl0","pricing_plan_id":"free"},{"bike_id":"41a4426a-7858-4c98-807f-50e9b81c0bd6","system_id":"levelo_inurba_marseille","lat":43.283502,"lon":5.386471,"is_reserved":false,"is_disabled":false,"rental_uris":{"android":"levelo://app?vid=41a4426a-7858-4c98-807f-50e9b81c0bd6","ios":"levelo://app?vid=41a4426a-7858-4c98-807f-50e9b81c0bd6"},"vehicle_type_id":"4","last_reported":1702973390,"current_range_meters":22000,"station_id":"ce4bh492rcd13ifvqdvg","pricing_plan_id":"free"},{"bike_id":"faf499e1-6751-4b59-b9ec-a67c709738c8","system_id":"levelo_inurba_marseille","lat":43.282754,"lon":5.350519,"is_reserved":false,"is_disabled":false,"rental_uris":{"android":"levelo://app?vid=faf499e1-6751-4b59-b9ec-a67c709738c8","ios":"levelo://app?vid=faf499e1-6751-4b59-b9ec-a67c709738c8"},"vehicle_type_id":"4","last_reported":1702973390,"current_range_meters":19600,"station_id":"ce4bhbp2rcd13ifvqerg","pricing_plan_id":"free"},{"bike_id":"1e76f530-84e7-4786-8580-a2ed5595a4ab","system_id":"levelo_inurba_marseille","lat":43.28039,"lon":5.369297,"is_reserved":false,"is_disabled":false,"rental_uris":{"android":"levelo://app?vid=1e76f530-84e7-4786-8580-a2ed5595a4ab","ios":"levelo://app?vid=1e76f530-84e7-4786-8580-a2ed5595a4ab"},"vehicle_type_id":"4","last_reported":1702973390,"current_range_meters":22800,"station_id":"ce4bha12rcd13ifvqef0","pricing_plan_id":"free"},{"bike_id":"161e6d15-6281-49c5-8aec-a7ac31f72335","system_id":"levelo_inurba_marseille","lat":43.281044,"lon":5.378308,"is_reserved":false,"is_disabled":false,"rental_uris":{"android":"levelo://app?vid=161e6d15-6281-49c5-8aec-a7ac31f72335","ios":"levelo://app?vid=161e6d15-6281-49c5-8aec-a7ac31f72335"},"vehicle_type_id":"4","last_reported":1702973390,"current_range_meters":27200,"station_id":"ce4bha12rcd13ifvqee0","pricing_plan_id":"free"},{"bike_id":"b17036d7-f6cc-4478-9cbd-c21adf17ee99","system_id":"levelo_inurba_marseille","lat":43.325243,"lon":5.414326,"is_reserved":false,"is_disabled":false,"rental_uris":{"android":"levelo://app?vid=b17036d7-f6cc-4478-9cbd-c21adf17ee99","ios":"levelo://app?vid=b17036d7-f6cc-4478-9cbd-c21adf17ee99"},"vehicle_type_id":"4","last_reported":1702973390,"current_range_meters":22400,"station_id":"ce4bhq12rcd13ifvqhhg","pricing_plan_id":"free"},{"bike_id":"d4eb9cec-ba0e-4085-b737-27e4ef7d809d","system_id":"levelo_inurba_marseille","lat":43.320045,"lon":5.415048,"is_reserved":false,"is_disabled":false,"rental_uris":{"android":"levelo://app?vid=d4eb9cec-ba0e-4085-b737-27e4ef7d809d","ios":"levelo://app?vid=d4eb9cec-ba0e-4085-b737-27e4ef7d809d"},"vehicle_type_id":"4","last_reported":1702973390,"current_range_meters":16800,"station_id":"ce4bhq92rcd13ifvqhkg","pricing_plan_id":"free"},{"bike_id":"0782afe0-0e9d-4c32-ba17-a19fed66c39e","system_id":"levelo_inurba_marseille","lat":43.325233,"lon":5.414318,"is_reserved":false,"is_disabled":false,"rental_uris":{"android":"levelo://app?vid=0782afe0-0e9d-4c32-ba17-a19fed66c39e","ios":"levelo://app?vid=0782afe0-0e9d-4c32-ba17-a19fed66c39e"},"vehicle_type_id":"4","last_reported":1702973390,"current_range_meters":24400,"station_id":"ce4bhq12rcd13ifvqhhg","pricing_plan_id":"free"},{"bike_id":"89508d0f-e74e-43de-9316-936ef4bd1896","system_id":"levelo_inurba_marseille","lat":43.299579,"lon":5.413255,"is_reserved":false,"is_disabled":false,"rental_uris":{"android":"levelo://app?vid=89508d0f-e74e-43de-9316-936ef4bd1896","ios":"levelo://app?vid=89508d0f-e74e-43de-9316-936ef4bd1896"},"vehicle_type_id":"4","last_reported":1702973390,"current_range_meters":31200,"station_id":"ce4bhp12rcd13ifvqh9g","pricing_plan_id":"free"},{"bike_id":"0f2e0e39-6295-4f6b-8b03-2220dfb2ab0f","system_id":"levelo_inurba_marseille","lat":43.279742,"lon":5.38744,"is_reserved":false,"is_disabled":false,"rental_uris":{"android":"levelo://app?vid=0f2e0e39-6295-4f6b-8b03-2220dfb2ab0f","ios":"levelo://app?vid=0f2e0e39-6295-4f6b-8b03-2220dfb2ab0f"},"vehicle_type_id":"4","last_reported":1702973390,"current_range_meters":16800,"station_id":"ce4bhg12rcd13ifvqf80","pricing_plan_id":"free"},{"bike_id":"bf15104b-9db3-4cea-a9f6-9f0fea56ac8d","system_id":"levelo_inurba_marseille","lat":43.320045,"lon":5.415048,"is_reserved":false,"is_disabled":false,"rental_uris":{"android":"levelo://app?vid=bf15104b-9db3-4cea-a9f6-9f0fea56ac8d","ios":"levelo://app?vid=bf15104b-9db3-4cea-a9f6-9f0fea56ac8d"},"vehicle_type_id":"4","last_reported":1702973390,"current_range_meters":19200,"station_id":"ce4bhq92rcd13ifvqhkg","pricing_plan_id":"free"},{"bike_id":"6e049b7d-9668-4bb3-aeb8-0f15bafba83e","system_id":"levelo_inurba_marseille","lat":43.292569,"lon":5.409107,"is_reserved":false,"is_disabled":false,"rental_uris":{"android":"levelo://app?vid=6e049b7d-9668-4bb3-aeb8-0f15bafba83e","ios":"levelo://app?vid=6e049b7d-9668-4bb3-aeb8-0f15bafba83e"},"vehicle_type_id":"4","last_reported":1702973390,"current_range_meters":24000,"station_id":"ce4bh192rcd13ifvqdc0","pricing_plan_id":"free"},{"bike_id":"c56ff55c-8635-4931-8b08-4cbc1bcd04da","system_id":"levelo_inurba_marseille","lat":43.325233,"lon":5.414318,"is_reserved":false,"is_disabled":false,"rental_uris":{"android":"levelo://app?vid=c56ff55c-8635-4931-8b08-4cbc1bcd04da","ios":"levelo://app?vid=c56ff55c-8635-4931-8b08-4cbc1bcd04da"},"vehicle_type_id":"4","last_reported":1702973390,"current_range_meters":17600,"station_id":"ce4bhq12rcd13ifvqhhg","pricing_plan_id":"free"},{"bike_id":"032ab50a-e8ed-46eb-a784-ec24434ca4e9","system_id":"levelo_inurba_marseille","lat":43.325233,"lon":5.414318,"is_reserved":false,"is_disabled":false,"rental_uris":{"android":"levelo://app?vid=032ab50a-e8ed-46eb-a784-ec24434ca4e9","ios":"levelo://app?vid=032ab50a-e8ed-46eb-a784-ec24434ca4e9"},"vehicle_type_id":"4","last_reported":1702973390,"current_range_meters":27200,"station_id":"ce4bhq12rcd13ifvqhhg","pricing_plan_id":"free"},{"bike_id":"40686c10-84a4-405a-9cd7-375127e2b02d","system_id":"levelo_inurba_marseille","lat":43.325233,"lon":5.414318,"is_reserved":false,"is_disabled":false,"rental_uris":{"android":"levelo://app?vid=40686c10-84a4-405a-9cd7-375127e2b02d","ios":"levelo://app?vid=40686c10-84a4-405a-9cd7-375127e2b02d"},"vehicle_type_id":"4","last_reported":1702973390,"current_range_meters":24000,"station_id":"ce4bhq12rcd13ifvqhhg","pricing_plan_id":"free"},{"bike_id":"b73b1dc9-66f1-4f8b-9dc1-65b99e7137a5","system_id":"levelo_inurba_marseille","lat":43.325233,"lon":5.414318,"is_reserved":false,"is_disabled":false,"rental_uris":{"android":"levelo://app?vid=b73b1dc9-66f1-4f8b-9dc1-65b99e7137a5","ios":"levelo://app?vid=b73b1dc9-66f1-4f8b-9dc1-65b99e7137a5"},"vehicle_type_id":"4","last_reported":1702973390,"current_range_meters":31200,"station_id":"ce4bhq12rcd13ifvqhhg","pricing_plan_id":"free"},{"bike_id":"286c371e-c496-4b87-a77b-643f76e6e75d","system_id":"levelo_inurba_marseille","lat":43.280784,"lon":5.396622,"is_reserved":false,"is_disabled":false,"rental_uris":{"android":"levelo://app?vid=286c371e-c496-4b87-a77b-643f76e6e75d","ios":"levelo://app?vid=286c371e-c496-4b87-a77b-643f76e6e75d"},"vehicle_type_id":"4","last_reported":1702973390,"current_range_meters":22000,"station_id":"ce4bho12rcd13ifvqh2g","pricing_plan_id":"free"},{"bike_id":"175508af-eec8-4668-bae1-1bdc4eea0891","system_id":"levelo_inurba_marseille","lat":43.303837,"lon":5.418724,"is_reserved":false,"is_disabled":false,"rental_uris":{"android":"levelo://app?vid=175508af-eec8-4668-bae1-1bdc4eea0891","ios":"levelo://app?vid=175508af-eec8-4668-bae1-1bdc4eea0891"},"vehicle_type_id":"4","last_reported":1702973390,"current_range_meters":6800,"station_id":"ce4bhop2rcd13ifvqh7g","pricing_plan_id":"free"},{"bike_id":"09b5f87e-b8c8-4f3e-b29e-d7af599ff705","system_id":"levelo_inurba_marseille","lat":43.275625,"lon":5.384392,"is_reserved":false,"is_disabled":false,"rental_uris":{"android":"levelo://app?vid=09b5f87e-b8c8-4f3e-b29e-d7af599ff705","ios":"levelo://app?vid=09b5f87e-b8c8-4f3e-b29e-d7af599ff705"},"vehicle_type_id":"4","last_reported":1702973390,"current_range_meters":18800,"station_id":"ce4bhh92rcd13ifvqfi0","pricing_plan_id":"free"},{"bike_id":"dfcbb380-d25a-4da8-a1c7-1c6706f60d37","system_id":"levelo_inurba_marseille","lat":43.279952,"lon":5.400085,"is_reserved":false,"is_disabled":false,"rental_uris":{"android":"levelo://app?vid=dfcbb380-d25a-4da8-a1c7-1c6706f60d37","ios":"levelo://app?vid=dfcbb380-d25a-4da8-a1c7-1c6706f60d37"},"vehicle_type_id":"4","last_reported":1702973390,"current_range_meters":20000,"station_id":"ce4bho92rcd13ifvqh4g","pricing_plan_id":"free"},{"bike_id":"e2c24c56-9d8f-46ce-a6c8-1041ef786684","system_id":"levelo_inurba_marseille","lat":43.317121,"lon":5.423936,"is_reserved":false,"is_disabled":false,"rental_uris":{"android":"levelo://app?vid=e2c24c56-9d8f-46ce-a6c8-1041ef786684","ios":"levelo://app?vid=e2c24c56-9d8f-46ce-a6c8-1041ef786684"},"vehicle_type_id":"4","last_reported":1702973390,"current_range_meters":31200,"station_id":"ce4bhp92rcd13ifvqhbg","pricing_plan_id":"free"},{"bike_id":"974dc7db-ff3c-4554-8964-132f9db52d9b","system_id":"levelo_inurba_marseille","lat":43.276092,"lon":5.395289,"is_reserved":false,"is_disabled":false,"rental_uris":{"android":"levelo://app?vid=974dc7db-ff3c-4554-8964-132f9db52d9b","ios":"levelo://app?vid=974dc7db-ff3c-4554-8964-132f9db52d9b"},"vehicle_type_id":"4","last_reported":1702973390,"current_range_meters":8400,"station_id":"","pricing_plan_id":"free"},{"bike_id":"6cbf2c29-1cd8-4dbf-9c1e-364b43a25a64","system_id":"levelo_inurba_marseille","lat":43.27328,"lon":5.39076,"is_reserved":false,"is_disabled":false,"rental_uris":{"android":"levelo://app?vid=6cbf2c29-1cd8-4dbf-9c1e-364b43a25a64","ios":"levelo://app?vid=6cbf2c29-1cd8-4dbf-9c1e-364b43a25a64"},"vehicle_type_id":"4","last_reported":1702973390,"current_range_meters":19200,"station_id":"","pricing_plan_id":"free"},{"bike_id":"de50934f-37b4-4904-835b-6fb800e98c30","system_id":"levelo_inurba_marseille","lat":43.259009,"lon":5.40929,"is_reserved":false,"is_disabled":false,"rental_uris":{"android":"levelo://app?vid=de50934f-37b4-4904-835b-6fb800e98c30","ios":"levelo://app?vid=de50934f-37b4-4904-835b-6fb800e98c30"},"vehicle_type_id":"4","last_reported":1702973390,"current_range_meters":22000,"station_id":"ce4bhm92rcd13ifvqglg","pricing_plan_id":"free"},{"bike_id":"e5b7a2d9-fc55-4322-8994-c8d343151691","system_id":"levelo_inurba_marseille","lat":43.273125,"lon":5.390731,"is_reserved":false,"is_disabled":false,"rental_uris":{"android":"levelo://app?vid=e5b7a2d9-fc55-4322-8994-c8d343151691","ios":"levelo://app?vid=e5b7a2d9-fc55-4322-8994-c8d343151691"},"vehicle_type_id":"4","last_reported":1702973390,"current_range_meters":26400,"station_id":"ce4bhgp2rcd13ifvqfe0","pricing_plan_id":"free"},{"bike_id":"c2d01cf4-416b-479a-8195-73cfbf290ea6","system_id":"levelo_inurba_marseille","lat":43.304096,"lon":5.425385,"is_reserved":false,"is_disabled":false,"rental_uris":{"android":"levelo://app?vid=c2d01cf4-416b-479a-8195-73cfbf290ea6","ios":"levelo://app?vid=c2d01cf4-416b-479a-8195-73cfbf290ea6"},"vehicle_type_id":"4","last_reported":1702973390,"current_range_meters":30400,"station_id":"ce4bhoh2rcd13ifvqh6g","pricing_plan_id":"free"},{"bike_id":"bbc1dded-28d0-40d2-98b9-c718a84b2b55","system_id":"levelo_inurba_marseille","lat":43.304096,"lon":5.425385,"is_reserved":false,"is_disabled":false,"rental_uris":{"android":"levelo://app?vid=bbc1dded-28d0-40d2-98b9-c718a84b2b55","ios":"levelo://app?vid=bbc1dded-28d0-40d2-98b9-c718a84b2b55"},"vehicle_type_id":"4","last_reported":1702973390,"current_range_meters":18000,"station_id":"ce4bhoh2rcd13ifvqh6g","pricing_plan_id":"free"},{"bike_id":"5259d34a-d8f2-47e1-9b2f-e2f2c6ed23b7","system_id":"levelo_inurba_marseille","lat":43.30416,"lon":5.42545,"is_reserved":false,"is_disabled":false,"rental_uris":{"android":"levelo://app?vid=5259d34a-d8f2-47e1-9b2f-e2f2c6ed23b7","ios":"levelo://app?vid=5259d34a-d8f2-47e1-9b2f-e2f2c6ed23b7"},"vehicle_type_id":"4","last_reported":1702973390,"current_range_meters":27600,"station_id":"ce4bhoh2rcd13ifvqh6g","pricing_plan_id":"free"},{"bike_id":"3cfccba8-f3c6-422f-bec0-1d7a4825ad24","system_id":"levelo_inurba_marseille","lat":43.304096,"lon":5.425385,"is_reserved":false,"is_disabled":false,"rental_uris":{"android":"levelo://app?vid=3cfccba8-f3c6-422f-bec0-1d7a4825ad24","ios":"levelo://app?vid=3cfccba8-f3c6-422f-bec0-1d7a4825ad24"},"vehicle_type_id":"4","last_reported":1702973390,"current_range_meters":30400,"station_id":"ce4bhoh2rcd13ifvqh6g","pricing_plan_id":"free"},{"bike_id":"b39b2c6a-d523-479b-be2d-3409c3d2b582","system_id":"levelo_inurba_marseille","lat":43.279465,"lon":5.410561,"is_reserved":false,"is_disabled":false,"rental_uris":{"android":"levelo://app?vid=b39b2c6a-d523-479b-be2d-3409c3d2b582","ios":"levelo://app?vid=b39b2c6a-d523-479b-be2d-3409c3d2b582"},"vehicle_type_id":"4","last_reported":1702973390,"current_range_meters":20400,"station_id":"ce4bhnp2rcd13ifvqh0g","pricing_plan_id":"free"},{"bike_id":"04abe4ce-c306-49a3-9b90-d0dedcef4fb2","system_id":"levelo_inurba_marseille","lat":43.295511,"lon":5.422926,"is_reserved":false,"is_disabled":false,"rental_uris":{"android":"levelo://app?vid=04abe4ce-c306-49a3-9b90-d0dedcef4fb2","ios":"levelo://app?vid=04abe4ce-c306-49a3-9b90-d0dedcef4fb2"},"vehicle_type_id":"4","last_reported":1702973390,"current_range_meters":31200,"station_id":"ce4bhph2rcd13ifvqhdg","pricing_plan_id":"free"},{"bike_id":"ca314493-3848-477b-95b3-e1722a7aef04","system_id":"levelo_inurba_marseille","lat":43.295177,"lon":5.422627,"is_reserved":false,"is_disabled":false,"rental_uris":{"android":"levelo://app?vid=ca314493-3848-477b-95b3-e1722a7aef04","ios":"levelo://app?vid=ca314493-3848-477b-95b3-e1722a7aef04"},"vehicle_type_id":"4","last_reported":1702973390,"current_range_meters":16800,"station_id":"ce4bhph2rcd13ifvqhdg","pricing_plan_id":"free"},{"bike_id":"1aaeade2-16f7-4c2d-b598-dfecd6c04985","system_id":"levelo_inurba_marseille","lat":43.29552,"lon":5.42288,"is_reserved":false,"is_disabled":false,"rental_uris":{"android":"levelo://app?vid=1aaeade2-16f7-4c2d-b598-dfecd6c04985","ios":"levelo://app?vid=1aaeade2-16f7-4c2d-b598-dfecd6c04985"},"vehicle_type_id":"4","last_reported":1702973390,"current_range_meters":20000,"station_id":"ce4bhph2rcd13ifvqhdg","pricing_plan_id":"free"},{"bike_id":"f0d927f9-4d81-4a61-9e75-257d4a0281cb","system_id":"levelo_inurba_marseille","lat":43.29549,"lon":5.42289,"is_reserved":false,"is_disabled":false,"rental_uris":{"android":"levelo://app?vid=f0d927f9-4d81-4a61-9e75-257d4a0281cb","ios":"levelo://app?vid=f0d927f9-4d81-4a61-9e75-257d4a0281cb"},"vehicle_type_id":"4","last_reported":1702973390,"current_range_meters":24400,"station_id":"ce4bhph2rcd13ifvqhdg","pricing_plan_id":"free"},{"bike_id":"8134bdea-97d9-45ed-a62e-7aa6b1295011","system_id":"levelo_inurba_marseille","lat":43.27188,"lon":5.39224,"is_reserved":false,"is_disabled":false,"rental_uris":{"android":"levelo://app?vid=8134bdea-97d9-45ed-a62e-7aa6b1295011","ios":"levelo://app?vid=8134bdea-97d9-45ed-a62e-7aa6b1295011"},"vehicle_type_id":"4","last_reported":1702973390,"current_range_meters":11200,"station_id":"ce4bhhp2rcd13ifvqfm0","pricing_plan_id":"free"},{"bike_id":"9516b638-b510-4b7a-900d-e7b8c20d2532","system_id":"levelo_inurba_marseille","lat":43.269467,"lon":5.386439,"is_reserved":false,"is_disabled":false,"rental_uris":{"android":"levelo://app?vid=9516b638-b510-4b7a-900d-e7b8c20d2532","ios":"levelo://app?vid=9516b638-b510-4b7a-900d-e7b8c20d2532"},"vehicle_type_id":"4","last_reported":1702973390,"current_range_meters":29200,"station_id":"ce4bhh92rcd13ifvqfh0","pricing_plan_id":"free"},{"bike_id":"a8246e0b-77ae-4381-b0b4-6f31eced4fb3","system_id":"levelo_inurba_marseille","lat":43.269467,"lon":5.386439,"is_reserved":false,"is_disabled":false,"rental_uris":{"android":"levelo://app?vid=a8246e0b-77ae-4381-b0b4-6f31eced4fb3","ios":"levelo://app?vid=a8246e0b-77ae-4381-b0b4-6f31eced4fb3"},"vehicle_type_id":"4","last_reported":1702973390,"current_range_meters":26400,"station_id":"ce4bhh92rcd13ifvqfh0","pricing_plan_id":"free"},{"bike_id":"0ab9359b-4a84-4f5e-877e-67d4583fcec1","system_id":"levelo_inurba_marseille","lat":43.269467,"lon":5.386439,"is_reserved":false,"is_disabled":false,"rental_uris":{"android":"levelo://app?vid=0ab9359b-4a84-4f5e-877e-67d4583fcec1","ios":"levelo://app?vid=0ab9359b-4a84-4f5e-877e-67d4583fcec1"},"vehicle_type_id":"4","last_reported":1702973390,"current_range_meters":29600,"station_id":"ce4bhh92rcd13ifvqfh0","pricing_plan_id":"free"},{"bike_id":"48ab2dba-a442-4c82-9845-e6ffacf9160a","system_id":"levelo_inurba_marseille","lat":43.269467,"lon":5.386439,"is_reserved":false,"is_disabled":false,"rental_uris":{"android":"levelo://app?vid=48ab2dba-a442-4c82-9845-e6ffacf9160a","ios":"levelo://app?vid=48ab2dba-a442-4c82-9845-e6ffacf9160a"},"vehicle_type_id":"4","last_reported":1702973390,"current_range_meters":28400,"station_id":"ce4bhh92rcd13ifvqfh0","pricing_plan_id":"free"},{"bike_id":"633aacc7-068b-4bd9-9a72-c0992b8660c5","system_id":"levelo_inurba_marseille","lat":43.269467,"lon":5.386439,"is_reserved":false,"is_disabled":false,"rental_uris":{"android":"levelo://app?vid=633aacc7-068b-4bd9-9a72-c0992b8660c5","ios":"levelo://app?vid=633aacc7-068b-4bd9-9a72-c0992b8660c5"},"vehicle_type_id":"4","last_reported":1702973390,"current_range_meters":27600,"station_id":"ce4bhh92rcd13ifvqfh0","pricing_plan_id":"free"},{"bike_id":"04bf6c66-6dad-4f89-9fa2-45cc729a40df","system_id":"levelo_inurba_marseille","lat":43.269467,"lon":5.386439,"is_reserved":false,"is_disabled":false,"rental_uris":{"android":"levelo://app?vid=04bf6c66-6dad-4f89-9fa2-45cc729a40df","ios":"levelo://app?vid=04bf6c66-6dad-4f89-9fa2-45cc729a40df"},"vehicle_type_id":"4","last_reported":1702973390,"current_range_meters":30000,"station_id":"ce4bhh92rcd13ifvqfh0","pricing_plan_id":"free"},{"bike_id":"1432c920-c177-4467-9e8d-d4660d6b8ea3","system_id":"levelo_inurba_marseille","lat":43.269467,"lon":5.386439,"is_reserved":false,"is_disabled":false,"rental_uris":{"android":"levelo://app?vid=1432c920-c177-4467-9e8d-d4660d6b8ea3","ios":"levelo://app?vid=1432c920-c177-4467-9e8d-d4660d6b8ea3"},"vehicle_type_id":"4","last_reported":1702973390,"current_range_meters":17600,"station_id":"ce4bhh92rcd13ifvqfh0","pricing_plan_id":"free"},{"bike_id":"bea73b2e-c1f3-4b31-b151-b293759f0132","system_id":"levelo_inurba_marseille","lat":43.269467,"lon":5.386439,"is_reserved":false,"is_disabled":false,"rental_uris":{"android":"levelo://app?vid=bea73b2e-c1f3-4b31-b151-b293759f0132","ios":"levelo://app?vid=bea73b2e-c1f3-4b31-b151-b293759f0132"},"vehicle_type_id":"4","last_reported":1702973390,"current_range_meters":20000,"station_id":"ce4bhh92rcd13ifvqfh0","pricing_plan_id":"free"},{"bike_id":"b8efd2c6-78cc-4ad7-876f-359e004c593d","system_id":"levelo_inurba_marseille","lat":43.269467,"lon":5.386439,"is_reserved":false,"is_disabled":false,"rental_uris":{"android":"levelo://app?vid=b8efd2c6-78cc-4ad7-876f-359e004c593d","ios":"levelo://app?vid=b8efd2c6-78cc-4ad7-876f-359e004c593d"},"vehicle_type_id":"4","last_reported":1702973390,"current_range_meters":24800,"station_id":"ce4bhh92rcd13ifvqfh0","pricing_plan_id":"free"},{"bike_id":"53d37eec-24f8-4192-a229-9f60791c182d","system_id":"levelo_inurba_marseille","lat":43.269319,"lon":5.389397,"is_reserved":false,"is_disabled":false,"rental_uris":{"android":"levelo://app?vid=53d37eec-24f8-4192-a229-9f60791c182d","ios":"levelo://app?vid=53d37eec-24f8-4192-a229-9f60791c182d"},"vehicle_type_id":"4","last_reported":1702973390,"current_range_meters":16400,"station_id":"ce4bhhh2rcd13ifvqfl0","pricing_plan_id":"free"},{"bike_id":"81bcf634-dc0c-4104-980b-2d893f59e14a","system_id":"levelo_inurba_marseille","lat":43.26681,"lon":5.382694,"is_reserved":false,"is_disabled":false,"rental_uris":{"android":"levelo://app?vid=81bcf634-dc0c-4104-980b-2d893f59e14a","ios":"levelo://app?vid=81bcf634-dc0c-4104-980b-2d893f59e14a"},"vehicle_type_id":"4","last_reported":1702973390,"current_range_meters":23200,"station_id":"ce4bhg92rcd13ifvqf90","pricing_plan_id":"free"},{"bike_id":"ea1e624c-1c65-4876-907b-dfab7dc64823","system_id":"levelo_inurba_marseille","lat":43.26681,"lon":5.382694,"is_reserved":false,"is_disabled":false,"rental_uris":{"android":"levelo://app?vid=ea1e624c-1c65-4876-907b-dfab7dc64823","ios":"levelo://app?vid=ea1e624c-1c65-4876-907b-dfab7dc64823"},"vehicle_type_id":"4","last_reported":1702973390,"current_range_meters":16400,"station_id":"ce4bhg92rcd13ifvqf90","pricing_plan_id":"free"},{"bike_id":"a30270aa-6149-4043-bdb5-78431470d13d","system_id":"levelo_inurba_marseille","lat":43.26681,"lon":5.382694,"is_reserved":false,"is_disabled":false,"rental_uris":{"android":"levelo://app?vid=a30270aa-6149-4043-bdb5-78431470d13d","ios":"levelo://app?vid=a30270aa-6149-4043-bdb5-78431470d13d"},"vehicle_type_id":"4","last_reported":1702973390,"current_range_meters":19600,"station_id":"ce4bhg92rcd13ifvqf90","pricing_plan_id":"free"},{"bike_id":"02b1d3f0-c498-44d6-93a0-0a038898d815","system_id":"levelo_inurba_marseille","lat":43.26681,"lon":5.382694,"is_reserved":false,"is_disabled":false,"rental_uris":{"android":"levelo://app?vid=02b1d3f0-c498-44d6-93a0-0a038898d815","ios":"levelo://app?vid=02b1d3f0-c498-44d6-93a0-0a038898d815"},"vehicle_type_id":"4","last_reported":1702973390,"current_range_meters":29600,"station_id":"ce4bhg92rcd13ifvqf90","pricing_plan_id":"free"},{"bike_id":"414560b1-f0ba-4575-8cb2-76f272e8ab22","system_id":"levelo_inurba_marseille","lat":43.26681,"lon":5.382694,"is_reserved":false,"is_disabled":false,"rental_uris":{"android":"levelo://app?vid=414560b1-f0ba-4575-8cb2-76f272e8ab22","ios":"levelo://app?vid=414560b1-f0ba-4575-8cb2-76f272e8ab22"},"vehicle_type_id":"4","last_reported":1702973390,"current_range_meters":22400,"station_id":"ce4bhg92rcd13ifvqf90","pricing_plan_id":"free"},{"bike_id":"4332ea30-0649-4a88-a8f9-46d7928b6f43","system_id":"levelo_inurba_marseille","lat":43.26681,"lon":5.382694,"is_reserved":false,"is_disabled":false,"rental_uris":{"android":"levelo://app?vid=4332ea30-0649-4a88-a8f9-46d7928b6f43","ios":"levelo://app?vid=4332ea30-0649-4a88-a8f9-46d7928b6f43"},"vehicle_type_id":"4","last_reported":1702973390,"current_range_meters":29200,"station_id":"ce4bhg92rcd13ifvqf90","pricing_plan_id":"free"},{"bike_id":"3a9a7c32-8f14-4091-89a6-76b8a591fd42","system_id":"levelo_inurba_marseille","lat":43.26681,"lon":5.382694,"is_reserved":false,"is_disabled":false,"rental_uris":{"android":"levelo://app?vid=3a9a7c32-8f14-4091-89a6-76b8a591fd42","ios":"levelo://app?vid=3a9a7c32-8f14-4091-89a6-76b8a591fd42"},"vehicle_type_id":"4","last_reported":1702973390,"current_range_meters":13200,"station_id":"ce4bhg92rcd13ifvqf90","pricing_plan_id":"free"},{"bike_id":"06b7b265-d935-43f7-a456-7363db57abf8","system_id":"levelo_inurba_marseille","lat":43.26681,"lon":5.382694,"is_reserved":false,"is_disabled":false,"rental_uris":{"android":"levelo://app?vid=06b7b265-d935-43f7-a456-7363db57abf8","ios":"levelo://app?vid=06b7b265-d935-43f7-a456-7363db57abf8"},"vehicle_type_id":"4","last_reported":1702973390,"current_range_meters":22800,"station_id":"ce4bhg92rcd13ifvqf90","pricing_plan_id":"free"},{"bike_id":"b2b1f3ac-cb36-4abf-b35b-81035c4fb25d","system_id":"levelo_inurba_marseille","lat":43.265714,"lon":5.372891,"is_reserved":false,"is_disabled":false,"rental_uris":{"android":"levelo://app?vid=b2b1f3ac-cb36-4abf-b35b-81035c4fb25d","ios":"levelo://app?vid=b2b1f3ac-cb36-4abf-b35b-81035c4fb25d"},"vehicle_type_id":"4","last_reported":1702973390,"current_range_meters":23600,"station_id":"ce4bhg12rcd13ifvqf70","pricing_plan_id":"free"},{"bike_id":"d040d53f-bf65-407f-9276-ca3609a61713","system_id":"levelo_inurba_marseille","lat":43.26681,"lon":5.382694,"is_reserved":false,"is_disabled":false,"rental_uris":{"android":"levelo://app?vid=d040d53f-bf65-407f-9276-ca3609a61713","ios":"levelo://app?vid=d040d53f-bf65-407f-9276-ca3609a61713"},"vehicle_type_id":"4","last_reported":1702973390,"current_range_meters":31200,"station_id":"ce4bhg92rcd13ifvqf90","pricing_plan_id":"free"},{"bike_id":"ac8d2520-91cc-4adc-97cd-0b51dabb02dc","system_id":"levelo_inurba_marseille","lat":43.265714,"lon":5.372891,"is_reserved":false,"is_disabled":false,"rental_uris":{"android":"levelo://app?vid=ac8d2520-91cc-4adc-97cd-0b51dabb02dc","ios":"levelo://app?vid=ac8d2520-91cc-4adc-97cd-0b51dabb02dc"},"vehicle_type_id":"4","last_reported":1702973390,"current_range_meters":16800,"station_id":"ce4bhg12rcd13ifvqf70","pricing_plan_id":"free"},{"bike_id":"b3dee9eb-87bc-418a-94f3-414b9de8167e","system_id":"levelo_inurba_marseille","lat":43.28005,"lon":5.41655,"is_reserved":false,"is_disabled":false,"rental_uris":{"android":"levelo://app?vid=b3dee9eb-87bc-418a-94f3-414b9de8167e","ios":"levelo://app?vid=b3dee9eb-87bc-418a-94f3-414b9de8167e"},"vehicle_type_id":"4","last_reported":1702973390,"current_range_meters":27600,"station_id":"ce4bho12rcd13ifvqh1g","pricing_plan_id":"free"},{"bike_id":"912c6a85-0f50-4ce2-bf0f-f7c0f5a08a38","system_id":"levelo_inurba_marseille","lat":43.267966,"lon":5.393976,"is_reserved":false,"is_disabled":false,"rental_uris":{"android":"levelo://app?vid=912c6a85-0f50-4ce2-bf0f-f7c0f5a08a38","ios":"levelo://app?vid=912c6a85-0f50-4ce2-bf0f-f7c0f5a08a38"},"vehicle_type_id":"4","last_reported":1702973390,"current_range_meters":0,"station_id":"ce4bhh12rcd13ifvqfg0","pricing_plan_id":"free"},{"bike_id":"62d5eba1-1813-47b0-b753-a26d4e03ab9b","system_id":"levelo_inurba_marseille","lat":43.267966,"lon":5.393976,"is_reserved":false,"is_disabled":false,"rental_uris":{"android":"levelo://app?vid=62d5eba1-1813-47b0-b753-a26d4e03ab9b","ios":"levelo://app?vid=62d5eba1-1813-47b0-b753-a26d4e03ab9b"},"vehicle_type_id":"4","last_reported":1702973390,"current_range_meters":400,"station_id":"ce4bhh12rcd13ifvqfg0","pricing_plan_id":"free"},{"bike_id":"cabafd0a-4cbc-4603-aa1a-527615a25de3","system_id":"levelo_inurba_marseille","lat":43.26778,"lon":5.39422,"is_reserved":false,"is_disabled":false,"rental_uris":{"android":"levelo://app?vid=cabafd0a-4cbc-4603-aa1a-527615a25de3","ios":"levelo://app?vid=cabafd0a-4cbc-4603-aa1a-527615a25de3"},"vehicle_type_id":"4","last_reported":1702973390,"current_range_meters":8400,"station_id":"ce4bhh12rcd13ifvqfg0","pricing_plan_id":"free"},{"bike_id":"0f41d3f0-f862-4474-86e3-f64b37b364dc","system_id":"levelo_inurba_marseille","lat":43.265569,"lon":5.390047,"is_reserved":false,"is_disabled":false,"rental_uris":{"android":"levelo://app?vid=0f41d3f0-f862-4474-86e3-f64b37b364dc","ios":"levelo://app?vid=0f41d3f0-f862-4474-86e3-f64b37b364dc"},"vehicle_type_id":"4","last_reported":1702973390,"current_range_meters":16400,"station_id":"ce4bhe12rcd13ifvqf30","pricing_plan_id":"free"},{"bike_id":"7374ef88-6f05-482f-89c0-c8bd213ca304","system_id":"levelo_inurba_marseille","lat":43.26193,"lon":5.3744,"is_reserved":false,"is_disabled":false,"rental_uris":{"android":"levelo://app?vid=7374ef88-6f05-482f-89c0-c8bd213ca304","ios":"levelo://app?vid=7374ef88-6f05-482f-89c0-c8bd213ca304"},"vehicle_type_id":"4","last_reported":1702973390,"current_range_meters":30400,"station_id":"ce4bhgp2rcd13ifvqfc0","pricing_plan_id":"free"},{"bike_id":"7ff8ad28-d7f6-45d2-8bef-ef8e4f332996","system_id":"levelo_inurba_marseille","lat":43.261782,"lon":5.374515,"is_reserved":false,"is_disabled":false,"rental_uris":{"android":"levelo://app?vid=7ff8ad28-d7f6-45d2-8bef-ef8e4f332996","ios":"levelo://app?vid=7ff8ad28-d7f6-45d2-8bef-ef8e4f332996"},"vehicle_type_id":"4","last_reported":1702973390,"current_range_meters":15200,"station_id":"ce4bhgp2rcd13ifvqfc0","pricing_plan_id":"free"},{"bike_id":"067df923-1955-42a0-8ba4-79c36454123d","system_id":"levelo_inurba_marseille","lat":43.261782,"lon":5.374515,"is_reserved":false,"is_disabled":false,"rental_uris":{"android":"levelo://app?vid=067df923-1955-42a0-8ba4-79c36454123d","ios":"levelo://app?vid=067df923-1955-42a0-8ba4-79c36454123d"},"vehicle_type_id":"4","last_reported":1702973390,"current_range_meters":23200,"station_id":"ce4bhgp2rcd13ifvqfc0","pricing_plan_id":"free"},{"bike_id":"ae80a9fb-4e54-4917-bd0b-61cf32c7e455","system_id":"levelo_inurba_marseille","lat":43.261782,"lon":5.374515,"is_reserved":false,"is_disabled":false,"rental_uris":{"android":"levelo://app?vid=ae80a9fb-4e54-4917-bd0b-61cf32c7e455","ios":"levelo://app?vid=ae80a9fb-4e54-4917-bd0b-61cf32c7e455"},"vehicle_type_id":"4","last_reported":1702973390,"current_range_meters":12400,"station_id":"ce4bhgp2rcd13ifvqfc0","pricing_plan_id":"free"},{"bike_id":"03005a26-e14a-4f11-96f1-489357628a6a","system_id":"levelo_inurba_marseille","lat":43.261782,"lon":5.374515,"is_reserved":false,"is_disabled":false,"rental_uris":{"android":"levelo://app?vid=03005a26-e14a-4f11-96f1-489357628a6a","ios":"levelo://app?vid=03005a26-e14a-4f11-96f1-489357628a6a"},"vehicle_type_id":"4","last_reported":1702973390,"current_range_meters":20400,"station_id":"ce4bhgp2rcd13ifvqfc0","pricing_plan_id":"free"},{"bike_id":"80910aa8-0b36-46c5-b32e-6fd4fcf175d5","system_id":"levelo_inurba_marseille","lat":43.261782,"lon":5.374515,"is_reserved":false,"is_disabled":false,"rental_uris":{"android":"levelo://app?vid=80910aa8-0b36-46c5-b32e-6fd4fcf175d5","ios":"levelo://app?vid=80910aa8-0b36-46c5-b32e-6fd4fcf175d5"},"vehicle_type_id":"4","last_reported":1702973390,"current_range_meters":31200,"station_id":"ce4bhgp2rcd13ifvqfc0","pricing_plan_id":"free"},{"bike_id":"fe7fbba6-f7b0-46f1-badd-9c6008265dd2","system_id":"levelo_inurba_marseille","lat":43.271388,"lon":5.409269,"is_reserved":false,"is_disabled":false,"rental_uris":{"android":"levelo://app?vid=fe7fbba6-f7b0-46f1-badd-9c6008265dd2","ios":"levelo://app?vid=fe7fbba6-f7b0-46f1-badd-9c6008265dd2"},"vehicle_type_id":"4","last_reported":1702973390,"current_range_meters":27600,"station_id":"ce4bhl12rcd13ifvqgf0","pricing_plan_id":"free"},{"bike_id":"d9946238-8a56-44ae-a6b0-689cec9fb42b","system_id":"levelo_inurba_marseille","lat":43.271368,"lon":5.40928,"is_reserved":false,"is_disabled":false,"rental_uris":{"android":"levelo://app?vid=d9946238-8a56-44ae-a6b0-689cec9fb42b","ios":"levelo://app?vid=d9946238-8a56-44ae-a6b0-689cec9fb42b"},"vehicle_type_id":"4","last_reported":1702973390,"current_range_meters":31200,"station_id":"ce4bhl12rcd13ifvqgf0","pricing_plan_id":"free"},{"bike_id":"af773fba-0514-4085-aaa6-9a24022684ec","system_id":"levelo_inurba_marseille","lat":43.271388,"lon":5.409269,"is_reserved":false,"is_disabled":false,"rental_uris":{"android":"levelo://app?vid=af773fba-0514-4085-aaa6-9a24022684ec","ios":"levelo://app?vid=af773fba-0514-4085-aaa6-9a24022684ec"},"vehicle_type_id":"4","last_reported":1702973390,"current_range_meters":31200,"station_id":"ce4bhl12rcd13ifvqgf0","pricing_plan_id":"free"},{"bike_id":"2177bc73-907b-4508-94ac-ac23516a52e3","system_id":"levelo_inurba_marseille","lat":43.298768,"lon":5.43643,"is_reserved":false,"is_disabled":false,"rental_uris":{"android":"levelo://app?vid=2177bc73-907b-4508-94ac-ac23516a52e3","ios":"levelo://app?vid=2177bc73-907b-4508-94ac-ac23516a52e3"},"vehicle_type_id":"4","last_reported":1702973390,"current_range_meters":23200,"station_id":"ce4bhpp2rcd13ifvqhfg","pricing_plan_id":"free"},{"bike_id":"3f1f1e7d-4ff2-49fd-85bf-4cb4257e3933","system_id":"levelo_inurba_marseille","lat":43.298768,"lon":5.43643,"is_reserved":false,"is_disabled":false,"rental_uris":{"android":"levelo://app?vid=3f1f1e7d-4ff2-49fd-85bf-4cb4257e3933","ios":"levelo://app?vid=3f1f1e7d-4ff2-49fd-85bf-4cb4257e3933"},"vehicle_type_id":"4","last_reported":1702973390,"current_range_meters":31200,"station_id":"ce4bhpp2rcd13ifvqhfg","pricing_plan_id":"free"},{"bike_id":"b328f603-749e-41e5-80d8-8c652f40eb62","system_id":"levelo_inurba_marseille","lat":43.298768,"lon":5.43643,"is_reserved":false,"is_disabled":false,"rental_uris":{"android":"levelo://app?vid=b328f603-749e-41e5-80d8-8c652f40eb62","ios":"levelo://app?vid=b328f603-749e-41e5-80d8-8c652f40eb62"},"vehicle_type_id":"4","last_reported":1702973390,"current_range_meters":28800,"station_id":"ce4bhpp2rcd13ifvqhfg","pricing_plan_id":"free"},{"bike_id":"d6aec896-bb93-4572-bb32-d830dd3ba797","system_id":"levelo_inurba_marseille","lat":43.281548,"lon":5.42643,"is_reserved":false,"is_disabled":false,"rental_uris":{"android":"levelo://app?vid=d6aec896-bb93-4572-bb32-d830dd3ba797","ios":"levelo://app?vid=d6aec896-bb93-4572-bb32-d830dd3ba797"},"vehicle_type_id":"4","last_reported":1702973390,"current_range_meters":30000,"station_id":"ce4bhnh2rcd13ifvqgug","pricing_plan_id":"free"},{"bike_id":"4f2042cc-7da0-431f-86c6-d82ec2bece9e","system_id":"levelo_inurba_marseille","lat":43.275028,"lon":5.424534,"is_reserved":false,"is_disabled":false,"rental_uris":{"android":"levelo://app?vid=4f2042cc-7da0-431f-86c6-d82ec2bece9e","ios":"levelo://app?vid=4f2042cc-7da0-431f-86c6-d82ec2bece9e"},"vehicle_type_id":"4","last_reported":1702973390,"current_range_meters":26400,"station_id":"ce4bhn92rcd13ifvqgrg","pricing_plan_id":"free"},{"bike_id":"6e268c58-93c0-4654-b5c6-a160032b949a","system_id":"levelo_inurba_marseille","lat":43.260635,"lon":5.393915,"is_reserved":false,"is_disabled":false,"rental_uris":{"android":"levelo://app?vid=6e268c58-93c0-4654-b5c6-a160032b949a","ios":"levelo://app?vid=6e268c58-93c0-4654-b5c6-a160032b949a"},"vehicle_type_id":"4","last_reported":1702973390,"current_range_meters":1200,"station_id":"ce4bhh92rcd13ifvqfj0","pricing_plan_id":"free"},{"bike_id":"8864ebe9-1cd5-4e22-b37e-36f5892242a9","system_id":"levelo_inurba_marseille","lat":43.2607,"lon":5.393983,"is_reserved":false,"is_disabled":false,"rental_uris":{"android":"levelo://app?vid=8864ebe9-1cd5-4e22-b37e-36f5892242a9","ios":"levelo://app?vid=8864ebe9-1cd5-4e22-b37e-36f5892242a9"},"vehicle_type_id":"4","last_reported":1702973390,"current_range_meters":26800,"station_id":"ce4bhh92rcd13ifvqfj0","pricing_plan_id":"free"},{"bike_id":"af809f71-baf7-433c-aa94-c56af5637932","system_id":"levelo_inurba_marseille","lat":43.275028,"lon":5.424534,"is_reserved":false,"is_disabled":false,"rental_uris":{"android":"levelo://app?vid=af809f71-baf7-433c-aa94-c56af5637932","ios":"levelo://app?vid=af809f71-baf7-433c-aa94-c56af5637932"},"vehicle_type_id":"4","last_reported":1702973390,"current_range_meters":16800,"station_id":"ce4bhn92rcd13ifvqgrg","pricing_plan_id":"free"},{"bike_id":"56c2608f-2a8c-44b0-a8f0-1e8a7e1b3c92","system_id":"levelo_inurba_marseille","lat":43.275028,"lon":5.424534,"is_reserved":false,"is_disabled":false,"rental_uris":{"android":"levelo://app?vid=56c2608f-2a8c-44b0-a8f0-1e8a7e1b3c92","ios":"levelo://app?vid=56c2608f-2a8c-44b0-a8f0-1e8a7e1b3c92"},"vehicle_type_id":"4","last_reported":1702973390,"current_range_meters":22000,"station_id":"ce4bhn92rcd13ifvqgrg","pricing_plan_id":"free"},{"bike_id":"f27de55b-24dc-49f6-a978-077789efb37d","system_id":"levelo_inurba_marseille","lat":43.27501,"lon":5.4245,"is_reserved":false,"is_disabled":false,"rental_uris":{"android":"levelo://app?vid=f27de55b-24dc-49f6-a978-077789efb37d","ios":"levelo://app?vid=f27de55b-24dc-49f6-a978-077789efb37d"},"vehicle_type_id":"4","last_reported":1702973390,"current_range_meters":28400,"station_id":"ce4bhn92rcd13ifvqgrg","pricing_plan_id":"free"},{"bike_id":"3b3f4c5c-2522-4a5c-a457-891155ce9028","system_id":"levelo_inurba_marseille","lat":43.27497,"lon":5.42446,"is_reserved":false,"is_disabled":false,"rental_uris":{"android":"levelo://app?vid=3b3f4c5c-2522-4a5c-a457-891155ce9028","ios":"levelo://app?vid=3b3f4c5c-2522-4a5c-a457-891155ce9028"},"vehicle_type_id":"4","last_reported":1702973390,"current_range_meters":21600,"station_id":"ce4bhn92rcd13ifvqgrg","pricing_plan_id":"free"},{"bike_id":"e5c0e845-5529-4741-88ec-85be98a6be97","system_id":"levelo_inurba_marseille","lat":43.275028,"lon":5.424534,"is_reserved":false,"is_disabled":false,"rental_uris":{"android":"levelo://app?vid=e5c0e845-5529-4741-88ec-85be98a6be97","ios":"levelo://app?vid=e5c0e845-5529-4741-88ec-85be98a6be97"},"vehicle_type_id":"4","last_reported":1702973390,"current_range_meters":25200,"station_id":"ce4bhn92rcd13ifvqgrg","pricing_plan_id":"free"},{"bike_id":"8dbc6cb1-e83e-4f58-be99-bea93c26cda5","system_id":"levelo_inurba_marseille","lat":43.27497,"lon":5.42448,"is_reserved":false,"is_disabled":false,"rental_uris":{"android":"levelo://app?vid=8dbc6cb1-e83e-4f58-be99-bea93c26cda5","ios":"levelo://app?vid=8dbc6cb1-e83e-4f58-be99-bea93c26cda5"},"vehicle_type_id":"4","last_reported":1702973390,"current_range_meters":19200,"station_id":"ce4bhn92rcd13ifvqgrg","pricing_plan_id":"free"},{"bike_id":"ff337f60-e3c1-479e-9850-09ad5e0221a6","system_id":"levelo_inurba_marseille","lat":43.275028,"lon":5.424534,"is_reserved":false,"is_disabled":false,"rental_uris":{"android":"levelo://app?vid=ff337f60-e3c1-479e-9850-09ad5e0221a6","ios":"levelo://app?vid=ff337f60-e3c1-479e-9850-09ad5e0221a6"},"vehicle_type_id":"4","last_reported":1702973390,"current_range_meters":25600,"station_id":"ce4bhn92rcd13ifvqgrg","pricing_plan_id":"free"},{"bike_id":"0ac78daa-80e0-4da7-9421-091ef36057c7","system_id":"levelo_inurba_marseille","lat":43.275028,"lon":5.424534,"is_reserved":false,"is_disabled":false,"rental_uris":{"android":"levelo://app?vid=0ac78daa-80e0-4da7-9421-091ef36057c7","ios":"levelo://app?vid=0ac78daa-80e0-4da7-9421-091ef36057c7"},"vehicle_type_id":"4","last_reported":1702973390,"current_range_meters":20800,"station_id":"ce4bhn92rcd13ifvqgrg","pricing_plan_id":"free"},{"bike_id":"c4473f4c-d6b6-4314-9df6-434f3f1f360e","system_id":"levelo_inurba_marseille","lat":43.275028,"lon":5.424534,"is_reserved":false,"is_disabled":false,"rental_uris":{"android":"levelo://app?vid=c4473f4c-d6b6-4314-9df6-434f3f1f360e","ios":"levelo://app?vid=c4473f4c-d6b6-4314-9df6-434f3f1f360e"},"vehicle_type_id":"4","last_reported":1702973390,"current_range_meters":25600,"station_id":"ce4bhn92rcd13ifvqgrg","pricing_plan_id":"free"},{"bike_id":"cd475cf1-8ce7-4ca4-903c-fc74d1b5eb8d","system_id":"levelo_inurba_marseille","lat":43.275028,"lon":5.424534,"is_reserved":false,"is_disabled":false,"rental_uris":{"android":"levelo://app?vid=cd475cf1-8ce7-4ca4-903c-fc74d1b5eb8d","ios":"levelo://app?vid=cd475cf1-8ce7-4ca4-903c-fc74d1b5eb8d"},"vehicle_type_id":"4","last_reported":1702973390,"current_range_meters":22000,"station_id":"ce4bhn92rcd13ifvqgrg","pricing_plan_id":"free"},{"bike_id":"d6f435ba-4bf8-46a2-8514-9e919c5ff01a","system_id":"levelo_inurba_marseille","lat":43.275028,"lon":5.424534,"is_reserved":false,"is_disabled":false,"rental_uris":{"android":"levelo://app?vid=d6f435ba-4bf8-46a2-8514-9e919c5ff01a","ios":"levelo://app?vid=d6f435ba-4bf8-46a2-8514-9e919c5ff01a"},"vehicle_type_id":"4","last_reported":1702973390,"current_range_meters":30000,"station_id":"ce4bhn92rcd13ifvqgrg","pricing_plan_id":"free"},{"bike_id":"1c1f9cf6-f7a1-45f2-8f68-fad4c454897f","system_id":"levelo_inurba_marseille","lat":43.275028,"lon":5.424534,"is_reserved":false,"is_disabled":false,"rental_uris":{"android":"levelo://app?vid=1c1f9cf6-f7a1-45f2-8f68-fad4c454897f","ios":"levelo://app?vid=1c1f9cf6-f7a1-45f2-8f68-fad4c454897f"},"vehicle_type_id":"4","last_reported":1702973390,"current_range_meters":3200,"station_id":"ce4bhn92rcd13ifvqgrg","pricing_plan_id":"free"},{"bike_id":"2a07dffb-d3a3-461f-9436-4b47c6484afc","system_id":"levelo_inurba_marseille","lat":43.275028,"lon":5.424534,"is_reserved":false,"is_disabled":false,"rental_uris":{"android":"levelo://app?vid=2a07dffb-d3a3-461f-9436-4b47c6484afc","ios":"levelo://app?vid=2a07dffb-d3a3-461f-9436-4b47c6484afc"},"vehicle_type_id":"4","last_reported":1702973390,"current_range_meters":18800,"station_id":"ce4bhn92rcd13ifvqgrg","pricing_plan_id":"free"},{"bike_id":"da5181a2-1978-4690-8ffc-fc742df4b2aa","system_id":"levelo_inurba_marseille","lat":43.27492,"lon":5.42449,"is_reserved":false,"is_disabled":false,"rental_uris":{"android":"levelo://app?vid=da5181a2-1978-4690-8ffc-fc742df4b2aa","ios":"levelo://app?vid=da5181a2-1978-4690-8ffc-fc742df4b2aa"},"vehicle_type_id":"4","last_reported":1702973390,"current_range_meters":12000,"station_id":"ce4bhn92rcd13ifvqgrg","pricing_plan_id":"free"},{"bike_id":"f77d9d90-53d5-4f34-87d1-a95b6a5a07f5","system_id":"levelo_inurba_marseille","lat":43.275028,"lon":5.424534,"is_reserved":false,"is_disabled":false,"rental_uris":{"android":"levelo://app?vid=f77d9d90-53d5-4f34-87d1-a95b6a5a07f5","ios":"levelo://app?vid=f77d9d90-53d5-4f34-87d1-a95b6a5a07f5"},"vehicle_type_id":"4","last_reported":1702973390,"current_range_meters":9600,"station_id":"ce4bhn92rcd13ifvqgrg","pricing_plan_id":"free"},{"bike_id":"c0304c10-42b7-4fa4-b6c8-caae3b7a8e3e","system_id":"levelo_inurba_marseille","lat":43.275028,"lon":5.424534,"is_reserved":false,"is_disabled":false,"rental_uris":{"android":"levelo://app?vid=c0304c10-42b7-4fa4-b6c8-caae3b7a8e3e","ios":"levelo://app?vid=c0304c10-42b7-4fa4-b6c8-caae3b7a8e3e"},"vehicle_type_id":"4","last_reported":1702973390,"current_range_meters":31200,"station_id":"ce4bhn92rcd13ifvqgrg","pricing_plan_id":"free"},{"bike_id":"8522c370-1ba4-40c4-baef-01b0b19354a8","system_id":"levelo_inurba_marseille","lat":43.275028,"lon":5.424534,"is_reserved":false,"is_disabled":false,"rental_uris":{"android":"levelo://app?vid=8522c370-1ba4-40c4-baef-01b0b19354a8","ios":"levelo://app?vid=8522c370-1ba4-40c4-baef-01b0b19354a8"},"vehicle_type_id":"4","last_reported":1702973390,"current_range_meters":21200,"station_id":"ce4bhn92rcd13ifvqgrg","pricing_plan_id":"free"},{"bike_id":"1cdc7c9b-5784-4896-9cba-1bc4f33c1b25","system_id":"levelo_inurba_marseille","lat":43.254947,"lon":5.376454,"is_reserved":false,"is_disabled":false,"rental_uris":{"android":"levelo://app?vid=1cdc7c9b-5784-4896-9cba-1bc4f33c1b25","ios":"levelo://app?vid=1cdc7c9b-5784-4896-9cba-1bc4f33c1b25"},"vehicle_type_id":"4","last_reported":1702973390,"current_range_meters":21200,"station_id":"ce4bhh12rcd13ifvqff0","pricing_plan_id":"free"},{"bike_id":"5b0751bc-0225-48f3-8380-57fcccd457dc","system_id":"levelo_inurba_marseille","lat":43.254947,"lon":5.376454,"is_reserved":false,"is_disabled":false,"rental_uris":{"android":"levelo://app?vid=5b0751bc-0225-48f3-8380-57fcccd457dc","ios":"levelo://app?vid=5b0751bc-0225-48f3-8380-57fcccd457dc"},"vehicle_type_id":"4","last_reported":1702973390,"current_range_meters":9200,"station_id":"ce4bhh12rcd13ifvqff0","pricing_plan_id":"free"},{"bike_id":"d9b5f789-a8bd-4b96-9db2-78ad2359f0b1","system_id":"levelo_inurba_marseille","lat":43.254947,"lon":5.376454,"is_reserved":false,"is_disabled":false,"rental_uris":{"android":"levelo://app?vid=d9b5f789-a8bd-4b96-9db2-78ad2359f0b1","ios":"levelo://app?vid=d9b5f789-a8bd-4b96-9db2-78ad2359f0b1"},"vehicle_type_id":"4","last_reported":1702973390,"current_range_meters":19200,"station_id":"ce4bhh12rcd13ifvqff0","pricing_plan_id":"free"},{"bike_id":"8046536d-cd85-4381-9c70-3d1572654f25","system_id":"levelo_inurba_marseille","lat":43.2549,"lon":5.37648,"is_reserved":false,"is_disabled":false,"rental_uris":{"android":"levelo://app?vid=8046536d-cd85-4381-9c70-3d1572654f25","ios":"levelo://app?vid=8046536d-cd85-4381-9c70-3d1572654f25"},"vehicle_type_id":"4","last_reported":1702973390,"current_range_meters":29200,"station_id":"ce4bhh12rcd13ifvqff0","pricing_plan_id":"free"},{"bike_id":"0800482d-9b2a-4c79-8203-94b10ca4d573","system_id":"levelo_inurba_marseille","lat":43.27069,"lon":5.42268,"is_reserved":false,"is_disabled":false,"rental_uris":{"android":"levelo://app?vid=0800482d-9b2a-4c79-8203-94b10ca4d573","ios":"levelo://app?vid=0800482d-9b2a-4c79-8203-94b10ca4d573"},"vehicle_type_id":"4","last_reported":1702973390,"current_range_meters":27200,"station_id":"ce4bhk92rcd13ifvqgb0","pricing_plan_id":"free"},{"bike_id":"1f69052f-dfef-4705-9898-3fcd84310bdc","system_id":"levelo_inurba_marseille","lat":43.270721,"lon":5.422764,"is_reserved":false,"is_disabled":false,"rental_uris":{"android":"levelo://app?vid=1f69052f-dfef-4705-9898-3fcd84310bdc","ios":"levelo://app?vid=1f69052f-dfef-4705-9898-3fcd84310bdc"},"vehicle_type_id":"4","last_reported":1702973390,"current_range_meters":26400,"station_id":"ce4bhk92rcd13ifvqgb0","pricing_plan_id":"free"},{"bike_id":"2457064b-0b58-4d3b-a5ad-0e98c8604404","system_id":"levelo_inurba_marseille","lat":43.27067,"lon":5.42277,"is_reserved":false,"is_disabled":false,"rental_uris":{"android":"levelo://app?vid=2457064b-0b58-4d3b-a5ad-0e98c8604404","ios":"levelo://app?vid=2457064b-0b58-4d3b-a5ad-0e98c8604404"},"vehicle_type_id":"4","last_reported":1702973390,"current_range_meters":12400,"station_id":"ce4bhk92rcd13ifvqgb0","pricing_plan_id":"free"},{"bike_id":"6011e7ff-3021-43e1-90ef-9fc1038cd0e9","system_id":"levelo_inurba_marseille","lat":43.258658,"lon":5.398935,"is_reserved":false,"is_disabled":false,"rental_uris":{"android":"levelo://app?vid=6011e7ff-3021-43e1-90ef-9fc1038cd0e9","ios":"levelo://app?vid=6011e7ff-3021-43e1-90ef-9fc1038cd0e9"},"vehicle_type_id":"4","last_reported":1702973390,"current_range_meters":17600,"station_id":"ce4bhl92rcd13ifvqghg","pricing_plan_id":"free"},