{"last_updated":1726409238,"ttl":30,"version":"2.2","data":{"bikes":[{"bike_id":"35406b97-a7c2-41eb-9099-794f4f76d875","system_id":"levelo_inurba_marseille","lat":43.28618,"lon":5.351,"is_reserved":false,"is_disabled":false,"rental_uris":{"android":"levelo://app?vid=35406b97-a7c2-41eb-9099-794f4f76d875","ios":"levelo://app?vid=35406b97-a7c2-41eb-9099-794f4f76d875"},"vehicle_type_id":"4","last_reported":1726409238,"current_range_meters":30000,"station_id":"ce4bhch2rcd13ifvqeug","pricing_plan_id":"cebpf4jnsgd1na2vs0mg"},{"bike_id":"b7224d74-8fce-4f45-9d9c-edd30cdcf502","system_id":"levelo_inurba_marseille","lat":43.23154,"lon":5.437,"is_reserved":false,"is_disabled":false,"rental_uris":{"android":"levelo://app?vid=b7224d74-8fce-4f45-9d9c-edd30cdcf502","ios":"levelo://app?vid=b7224d74-8fce-4f45-9d9c-edd30cdcf502"},"vehicle_type_id":"4","last_reported":1726409238,"current_range_meters":4800,"station_id":"ce4bhmp2rcd13ifvqgog","pricing_plan_id":"cebpf4jnsgd1na2vs0mg"},{"bike_id":"056313ad-8265-4df1-b42f-640ec0ab3367","system_id":"levelo_inurba_marseille","lat":43.2843,"lon":5.34978,"is_reserved":false,"is_disabled":false,"rental_uris":{"android":"levelo://app?vid=056313ad-8265-4df1-b42f-640ec0ab3367","ios":"levelo://app?vid=056313ad-8265-4df1-b42f-640ec0ab3367"},"vehicle_type_id":"4","last_reported":1726409238,"current_range_meters":30400,"station_id":"ce4bhbh2rcd13ifvqepg","pricing_plan_id":"cebpf4jnsgd1na2vs0mg"},{"bike_id":"660264eb-f765-4334-811a-b29ce4345757","system_id":"levelo_inurba_marseille","lat":43.28265,"lon":5.35062,"is_reserved":false,"is_disabled":false,"rental_uris":{"android":"levelo://app?vid=660264eb-f765-4334-811a-b29ce4345757","ios":"levelo://app?vid=660264eb-f765-4334-811a-b29ce4345757"},"vehicle_type_id":"4","last_reported":1726409238,"current_range_meters":18800,"station_id":"ce4bhbp2rcd13ifvqerg","pricing_plan_id":"cebpf4jnsgd1na2vs0mg"},{"bike_id":"41907fca-a52e-41d5-98d7-71f277307927","system_id":"levelo_inurba_marseille","lat":43.31294,"lon":5.37812,"is_reserved":false,"is_disabled":false,"rental_uris":{"android":"levelo://app?vid=41907fca-a52e-41d5-98d7-71f277307927","ios":"levelo://app?vid=41907fca-a52e-41d5-98d7-71f277307927"},"vehicle_type_id":"4","last_reported":1726409238,"current_range_meters":33600,"station_id":"","pricing_plan_id":"cebpf4jnsgd1na2vs0mg"},{"bike_id":"259c1082-ea70-4a9f-bd06-8385f36a05f6","system_id":"levelo_inurba_marseille","lat":43.28403,"lon":5.34965,"is_reserved":false,"is_disabled":false,"rental_uris":{"android":"levelo://app?vid=259c1082-ea70-4a9f-bd06-8385f36a05f6","ios":"levelo://app?vid=259c1082-ea70-4a9f-bd06-8385f36a05f6"},"vehicle_type_id":"4","last_reported":1726409238,"current_range_meters":34000,"station_id":"ce4bhbh2rcd13ifvqepg","pricing_plan_id":"cebpf4jnsgd1na2vs0mg"},{"bike_id":"491f625c-672a-429b-adf2-44db696ce223","system_id":"levelo_inurba_marseille","lat":43.24811,"lon":5.37454,"is_reserved":false,"is_disabled":false,"rental_uris":{"android":"levelo://app?vid=491f625c-672a-429b-adf2-44db696ce223","ios":"levelo://app?vid=491f625c-672a-429b-adf2-44db696ce223"},"vehicle_type_id":"4","last_reported":1726409238,"current_range_meters":10000,"station_id":"ce4bhgh2rcd13ifvqfb0","pricing_plan_id":"cebpf4jnsgd1na2vs0mg"},{"bike_id":"ce3dc406-963f-4951-a515-a8d7cff6914c","system_id":"levelo_inurba_marseille","lat":43.24167,"lon":5.36388,"is_reserved":false,"is_disabled":false,"rental_uris":{"android":"levelo://app?vid=ce3dc406-963f-4951-a515-a8d7cff6914c","ios":"levelo://app?vid=ce3dc406-963f-4951-a515-a8d7cff6914c"},"vehicle_type_id":"4","last_reported":1726409238,"current_range_meters":24400,"station_id":"cpo36qri1sfpv3e86is0","pricing_plan_id":"cebpf4jnsgd1na2vs0mg"},{"bike_id":"7c475990-5c91-40de-8e97-2ed5070be005","system_id":"levelo_inurba_marseille","lat":43.23032,"lon":5.401,"is_reserved":false,"is_disabled":false,"rental_uris":{"android":"levelo://app?vid=7c475990-5c91-40de-8e97-2ed5070be005","ios":"levelo://app?vid=7c475990-5c91-40de-8e97-2ed5070be005"},"vehicle_type_id":"4","last_reported":1726409238,"current_range_meters":38400,"station_id":"","pricing_plan_id":"cebpf4jnsgd1na2vs0mg"},{"bike_id":"13ec4916-f0ea-4897-8afc-596425b42c42","system_id":"levelo_inurba_marseille","lat":43.23196,"lon":5.35543,"is_reserved":false,"is_disabled":false,"rental_uris":{"android":"levelo://app?vid=13ec4916-f0ea-4897-8afc-596425b42c42","ios":"levelo://app?vid=13ec4916-f0ea-4897-8afc-596425b42c42"},"vehicle_type_id":"4","last_reported":1726409238,"current_range_meters":22400,"station_id":"ce4bhu92rcd13ifvqi70","pricing_plan_id":"cebpf4jnsgd1na2vs0mg"},{"bike_id":"e8549387-9deb-4f66-b733-a7cdaa0db866","system_id":"levelo_inurba_marseille","lat":43.33027,"lon":5.3903,"is_reserved":false,"is_disabled":false,"rental_uris":{"android":"levelo://app?vid=e8549387-9deb-4f66-b733-a7cdaa0db866","ios":"levelo://app?vid=e8549387-9deb-4f66-b733-a7cdaa0db866"},"vehicle_type_id":"4","last_reported":1726409238,"current_range_meters":16400,"station_id":"ce4bhr92rcd13ifvqhrg","pricing_plan_id":"cebpf4jnsgd1na2vs0mg"},{"bike_id":"84773612-f789-42a5-8759-66fd73a6981e","system_id":"levelo_inurba_marseille","lat":43.2816,"lon":5.42639,"is_reserved":false,"is_disabled":false,"rental_uris":{"android":"levelo://app?vid=84773612-f789-42a5-8759-66fd73a6981e","ios":"levelo://app?vid=84773612-f789-42a5-8759-66fd73a6981e"},"vehicle_type_id":"4","last_reported":1726409238,"current_range_meters":10000,"station_id":"ce4bhnh2rcd13ifvqgug","pricing_plan_id":"cebpf4jnsgd1na2vs0mg"},{"bike_id":"3d64c255-1660-41db-ac56-60cbee1ac9b2","system_id":"levelo_inurba_marseille","lat":43.28474,"lon":5.38528,"is_reserved":false,"is_disabled":false,"rental_uris":{"android":"levelo://app?vid=3d64c255-1660-41db-ac56-60cbee1ac9b2","ios":"levelo://app?vid=3d64c255-1660-41db-ac56-60cbee1ac9b2"},"vehicle_type_id":"4","last_reported":1726409238,"current_range_meters":37600,"station_id":"ce4bh8p2rcd13ifvqeb0","pricing_plan_id":"cebpf4jnsgd1na2vs0mg"},{"bike_id":"1b69e28d-b657-4802-b5dd-aa17fb5a768b","system_id":"levelo_inurba_marseille","lat":43.27152,"lon":5.42804,"is_reserved":false,"is_disabled":false,"rental_uris":{"android":"levelo://app?vid=1b69e28d-b657-4802-b5dd-aa17fb5a768b","ios":"levelo://app?vid=1b69e28d-b657-4802-b5dd-aa17fb5a768b"},"vehicle_type_id":"4","last_reported":1726409238,"current_range_meters":22000,"station_id":"","pricing_plan_id":"cebpf4jnsgd1na2vs0mg"},{"bike_id":"e20c70a0-0483-46f9-ad90-c91970919010","system_id":"levelo_inurba_marseille","lat":43.29204,"lon":5.39313,"is_reserved":false,"is_disabled":false,"rental_uris":{"android":"levelo://app?vid=e20c70a0-0483-46f9-ad90-c91970919010","ios":"levelo://app?vid=e20c70a0-0483-46f9-ad90-c91970919010"},"vehicle_type_id":"4","last_reported":1726409238,"current_range_meters":11600,"station_id":"ce4bh192rcd13ifvqdd0","pricing_plan_id":"cebpf4jnsgd1na2vs0mg"},{"bike_id":"22103816-4927-4e66-ad57-2b52f35aa0e2","system_id":"levelo_inurba_marseille","lat":43.27371,"lon":5.36241,"is_reserved":false,"is_disabled":false,"rental_uris":{"android":"levelo://app?vid=22103816-4927-4e66-ad57-2b52f35aa0e2","ios":"levelo://app?vid=22103816-4927-4e66-ad57-2b52f35aa0e2"},"vehicle_type_id":"4","last_reported":1726409238,"current_range_meters":8800,"station_id":"ce4bhbh2rcd13ifvqeo0","pricing_plan_id":"cebpf4jnsgd1na2vs0mg"},{"bike_id":"45159ba8-6e9e-4da6-930e-310d7b3f2e06","system_id":"levelo_inurba_marseille","lat":43.26552,"lon":5.37282,"is_reserved":false,"is_disabled":false,"rental_uris":{"android":"levelo://app?vid=45159ba8-6e9e-4da6-930e-310d7b3f2e06","ios":"levelo://app?vid=45159ba8-6e9e-4da6-930e-310d7b3f2e06"},"vehicle_type_id":"4","last_reported":1726409238,"current_range_meters":25600,"station_id":"ce4bhg12rcd13ifvqf70","pricing_plan_id":"cebpf4jnsgd1na2vs0mg"},{"bike_id":"995d3a7e-289e-4ebd-b785-9d2da426ad57","system_id":"levelo_inurba_marseille","lat":43.23199,"lon":5.35546,"is_reserved":false,"is_disabled":false,"rental_uris":{"android":"levelo://app?vid=995d3a7e-289e-4ebd-b785-9d2da426ad57","ios":"levelo://app?vid=995d3a7e-289e-4ebd-b785-9d2da426ad57"},"vehicle_type_id":"4","last_reported":1726409238,"current_range_meters":13600,"station_id":"ce4bhu92rcd13ifvqi70","pricing_plan_id":"cebpf4jnsgd1na2vs0mg"},{"bike_id":"74c67d55-8a5f-40c9-8066-d68354718f8c","system_id":"levelo_inurba_marseille","lat":43.23203,"lon":5.35541,"is_reserved":false,"is_disabled":false,"rental_uris":{"android":"levelo://app?vid=74c67d55-8a5f-40c9-8066-d68354718f8c","ios":"levelo://app?vid=74c67d55-8a5f-40c9-8066-d68354718f8c"},"vehicle_type_id":"4","last_reported":1726409238,"current_range_meters":19600,"station_id":"ce4bhu92rcd13ifvqi70","pricing_plan_id":"cebpf4jnsgd1na2vs0mg"},{"bike_id":"2348432a-2e1b-4480-8221-dc0ae33b40e8","system_id":"levelo_inurba_marseille","lat":43.24396,"lon":5.37064,"is_reserved":false,"is_disabled":false,"rental_uris":{"android":"levelo://app?vid=2348432a-2e1b-4480-8221-dc0ae33b40e8","ios":"levelo://app?vid=2348432a-2e1b-4480-8221-dc0ae33b40e8"},"vehicle_type_id":"4","last_reported":1726409238,"current_range_meters":19200,"station_id":"ce4bhhh2rcd13ifvqfk0","pricing_plan_id":"cebpf4jnsgd1na2vs0mg"},{"bike_id":"d0698402-85d8-4942-960d-db4ee8bd1c46","system_id":"levelo_inurba_marseille","lat":43.32491,"lon":5.36554,"is_reserved":false,"is_disabled":false,"rental_uris":{"android":"levelo://app?vid=d0698402-85d8-4942-960d-db4ee8bd1c46","ios":"levelo://app?vid=d0698402-85d8-4942-960d-db4ee8bd1c46"},"vehicle_type_id":"4","last_reported":1726409238,"current_range_meters":4800,"station_id":"ce4bhs12rcd13ifvqhvg","pricing_plan_id":"cebpf4jnsgd1na2vs0mg"},{"bike_id":"e7cd2dd3-5044-4054-887e-8d99b4566ce5","system_id":"levelo_inurba_marseille","lat":43.32376,"lon":5.38349,"is_reserved":false,"is_disabled":false,"rental_uris":{"android":"levelo://app?vid=e7cd2dd3-5044-4054-887e-8d99b4566ce5","ios":"levelo://app?vid=e7cd2dd3-5044-4054-887e-8d99b4566ce5"},"vehicle_type_id":"4","last_reported":1726409238,"current_range_meters":4400,"station_id":"","pricing_plan_id":"cebpf4jnsgd1na2vs0mg"},{"bike_id":"1aeff3de-970e-4440-8b84-9abb74479e56","system_id":"levelo_inurba_marseille","lat":43.29964,"lon":5.41329,"is_reserved":false,"is_disabled":false,"rental_uris":{"android":"levelo://app?vid=1aeff3de-970e-4440-8b84-9abb74479e56","ios":"levelo://app?vid=1aeff3de-970e-4440-8b84-9abb74479e56"},"vehicle_type_id":"4","last_reported":1726409238,"current_range_meters":19600,"station_id":"ce4bhp12rcd13ifvqh9g","pricing_plan_id":"cebpf4jnsgd1na2vs0mg"},{"bike_id":"dfb89513-f211-47bc-95b2-ffac780f14a8","system_id":"levelo_inurba_marseille","lat":43.23199,"lon":5.35543,"is_reserved":false,"is_disabled":false,"rental_uris":{"android":"levelo://app?vid=dfb89513-f211-47bc-95b2-ffac780f14a8","ios":"levelo://app?vid=dfb89513-f211-47bc-95b2-ffac780f14a8"},"vehicle_type_id":"4","last_reported":1726409238,"current_range_meters":8400,"station_id":"ce4bhu92rcd13ifvqi70","pricing_plan_id":"cebpf4jnsgd1na2vs0mg"},{"bike_id":"2b1683b7-66bd-452d-bac0-9f4439c73a4f","system_id":"levelo_inurba_marseille","lat":43.32295,"lon":5.38263,"is_reserved":false,"is_disabled":false,"rental_uris":{"android":"levelo://app?vid=2b1683b7-66bd-452d-bac0-9f4439c73a4f","ios":"levelo://app?vid=2b1683b7-66bd-452d-bac0-9f4439c73a4f"},"vehicle_type_id":"4","last_reported":1726409238,"current_range_meters":28800,"station_id":"ce4bhr12rcd13ifvqhqg","pricing_plan_id":"cebpf4jnsgd1na2vs0mg"},{"bike_id":"dc716c57-1dcc-400e-abd7-9c9cc9531cd2","system_id":"levelo_inurba_marseille","lat":43.28159,"lon":5.42638,"is_reserved":false,"is_disabled":false,"rental_uris":{"android":"levelo://app?vid=dc716c57-1dcc-400e-abd7-9c9cc9531cd2","ios":"levelo://app?vid=dc716c57-1dcc-400e-abd7-9c9cc9531cd2"},"vehicle_type_id":"4","last_reported":1726409238,"current_range_meters":7200,"station_id":"ce4bhnh2rcd13ifvqgug","pricing_plan_id":"cebpf4jnsgd1na2vs0mg"},{"bike_id":"8f7d2222-b8b1-4df4-8f4e-3209ab742980","system_id":"levelo_inurba_marseille","lat":43.30883,"lon":5.3962,"is_reserved":false,"is_disabled":false,"rental_uris":{"android":"levelo://app?vid=8f7d2222-b8b1-4df4-8f4e-3209ab742980","ios":"levelo://app?vid=8f7d2222-b8b1-4df4-8f4e-3209ab742980"},"vehicle_type_id":"4","last_reported":1726409238,"current_range_meters":24400,"station_id":"ce4bh012rcd13ifvqcv0","pricing_plan_id":"cebpf4jnsgd1na2vs0mg"},{"bike_id":"33e3b5af-e6bf-4a19-9a11-ee1b8b29314e","system_id":"levelo_inurba_marseille","lat":43.319565,"lon":5.409008,"is_reserved":false,"is_disabled":false,"rental_uris":{"android":"levelo://app?vid=33e3b5af-e6bf-4a19-9a11-ee1b8b29314e","ios":"levelo://app?vid=33e3b5af-e6bf-4a19-9a11-ee1b8b29314e"},"vehicle_type_id":"4","last_reported":1726409238,"current_range_meters":7200,"station_id":"ce4bhq92rcd13ifvqhjg","pricing_plan_id":"cebpf4jnsgd1na2vs0mg"},{"bike_id":"30fc1f51-20b6-4e13-8f56-75175e166910","system_id":"levelo_inurba_marseille","lat":43.23056,"lon":5.35496,"is_reserved":false,"is_disabled":false,"rental_uris":{"android":"levelo://app?vid=30fc1f51-20b6-4e13-8f56-75175e166910","ios":"levelo://app?vid=30fc1f51-20b6-4e13-8f56-75175e166910"},"vehicle_type_id":"4","last_reported":1726409238,"current_range_meters":36000,"station_id":"cpo3342slgdg3j2ifvpg","pricing_plan_id":"cebpf4jnsgd1na2vs0mg"},{"bike_id":"b14fccef-47a8-4410-a8a1-f1884744c008","system_id":"levelo_inurba_marseille","lat":43.2397,"lon":5.36627,"is_reserved":false,"is_disabled":false,"rental_uris":{"android":"levelo://app?vid=b14fccef-47a8-4410-a8a1-f1884744c008","ios":"levelo://app?vid=b14fccef-47a8-4410-a8a1-f1884744c008"},"vehicle_type_id":"4","last_reported":1726409238,"current_range_meters":30800,"station_id":"ce4bhi12rcd13ifvqfp0","pricing_plan_id":"cebpf4jnsgd1na2vs0mg"},{"bike_id":"610c7215-052b-40c9-a8aa-314130aa6c30","system_id":"levelo_inurba_marseille","lat":43.31321,"lon":5.39695,"is_reserved":false,"is_disabled":false,"rental_uris":{"android":"levelo://app?vid=610c7215-052b-40c9-a8aa-314130aa6c30","ios":"levelo://app?vid=610c7215-052b-40c9-a8aa-314130aa6c30"},"vehicle_type_id":"4","last_reported":1726409238,"current_range_meters":24400,"station_id":"ce4bgvp2rcd13ifvqcu0","pricing_plan_id":"cebpf4jnsgd1na2vs0mg"},{"bike_id":"ec9006f1-9246-40db-9584-a79270db200a","system_id":"levelo_inurba_marseille","lat":43.3172,"lon":5.42395,"is_reserved":false,"is_disabled":false,"rental_uris":{"android":"levelo://app?vid=ec9006f1-9246-40db-9584-a79270db200a","ios":"levelo://app?vid=ec9006f1-9246-40db-9584-a79270db200a"},"vehicle_type_id":"4","last_reported":1726409238,"current_range_meters":39200,"station_id":"ce4bhp92rcd13ifvqhbg","pricing_plan_id":"cebpf4jnsgd1na2vs0mg"},{"bike_id":"3fda09b8-16b0-48a8-9753-2a6bf2d27db3","system_id":"levelo_inurba_marseille","lat":43.260214,"lon":5.375566,"is_reserved":false,"is_disabled":false,"rental_uris":{"android":"levelo://app?vid=3fda09b8-16b0-48a8-9753-2a6bf2d27db3","ios":"levelo://app?vid=3fda09b8-16b0-48a8-9753-2a6bf2d27db3"},"vehicle_type_id":"4","last_reported":1726409238,"current_range_meters":17200,"station_id":"ce4bhgh2rcd13ifvqfa0","pricing_plan_id":"cebpf4jnsgd1na2vs0mg"},{"bike_id":"65c19f49-c4fe-4c2d-8a06-e52117f63875","system_id":"levelo_inurba_marseille","lat":43.2502,"lon":5.3891,"is_reserved":false,"is_disabled":false,"rental_uris":{"android":"levelo://app?vid=65c19f49-c4fe-4c2d-8a06-e52117f63875","ios":"levelo://app?vid=65c19f49-c4fe-4c2d-8a06-e52117f63875"},"vehicle_type_id":"4","last_reported":1726409238,"current_range_meters":4000,"station_id":"ce4bhgp2rcd13ifvqfd0","pricing_plan_id":"cebpf4jnsgd1na2vs0mg"},{"bike_id":"93817263-554e-44cd-a61f-8b297fdb4e30","system_id":"levelo_inurba_marseille","lat":43.27899,"lon":5.38006,"is_reserved":false,"is_disabled":false,"rental_uris":{"android":"levelo://app?vid=93817263-554e-44cd-a61f-8b297fdb4e30","ios":"levelo://app?vid=93817263-554e-44cd-a61f-8b297fdb4e30"},"vehicle_type_id":"4","last_reported":1726409238,"current_range_meters":39200,"station_id":"ce4bhf92rcd13ifvqf50","pricing_plan_id":"cebpf4jnsgd1na2vs0mg"},{"bike_id":"1bf1898d-459f-4679-9af8-c8d6b0f3256f","system_id":"levelo_inurba_marseille","lat":43.30083,"lon":5.41779,"is_reserved":false,"is_disabled":false,"rental_uris":{"android":"levelo://app?vid=1bf1898d-459f-4679-9af8-c8d6b0f3256f","ios":"levelo://app?vid=1bf1898d-459f-4679-9af8-c8d6b0f3256f"},"vehicle_type_id":"4","last_reported":1726409238,"current_range_meters":24400,"station_id":"ce4bhp92rcd13ifvqhag","pricing_plan_id":"cebpf4jnsgd1na2vs0mg"},{"bike_id":"f79ff168-7c1f-43a6-9a48-819ae1e3b151","system_id":"levelo_inurba_marseille","lat":43.24071,"lon":5.37756,"is_reserved":false,"is_disabled":false,"rental_uris":{"android":"levelo://app?vid=f79ff168-7c1f-43a6-9a48-819ae1e3b151","ios":"levelo://app?vid=f79ff168-7c1f-43a6-9a48-819ae1e3b151"},"vehicle_type_id":"4","last_reported":1726409238,"current_range_meters":12400,"station_id":"ce4bhnp2rcd13ifvqgvg","pricing_plan_id":"cebpf4jnsgd1na2vs0mg"},{"bike_id":"6d5614e0-2e6f-4d24-9d4a-5c6cca74e3e5","system_id":"levelo_inurba_marseille","lat":43.23202,"lon":5.35547,"is_reserved":false,"is_disabled":false,"rental_uris":{"android":"levelo://app?vid=6d5614e0-2e6f-4d24-9d4a-5c6cca74e3e5","ios":"levelo://app?vid=6d5614e0-2e6f-4d24-9d4a-5c6cca74e3e5"},"vehicle_type_id":"4","last_reported":1726409238,"current_range_meters":10800,"station_id":"ce4bhu92rcd13ifvqi70","pricing_plan_id":"cebpf4jnsgd1na2vs0mg"},{"bike_id":"2bd6d586-7a39-4193-b931-436964993ed9","system_id":"levelo_inurba_marseille","lat":43.28273,"lon":5.35056,"is_reserved":false,"is_disabled":false,"rental_uris":{"android":"levelo://app?vid=2bd6d586-7a39-4193-b931-436964993ed9","ios":"levelo://app?vid=2bd6d586-7a39-4193-b931-436964993ed9"},"vehicle_type_id":"4","last_reported":1726409238,"current_range_meters":38800,"station_id":"ce4bhbp2rcd13ifvqerg","pricing_plan_id":"cebpf4jnsgd1na2vs0mg"},{"bike_id":"472398ca-7be6-45c1-a57c-fce088f97183","system_id":"levelo_inurba_marseille","lat":43.2842,"lon":5.34984,"is_reserved":false,"is_disabled":false,"rental_uris":{"android":"levelo://app?vid=472398ca-7be6-45c1-a57c-fce088f97183","ios":"levelo://app?vid=472398ca-7be6-45c1-a57c-fce088f97183"},"vehicle_type_id":"4","last_reported":1726409238,"current_range_meters":26800,"station_id":"ce4bhbh2rcd13ifvqepg","pricing_plan_id":"cebpf4jnsgd1na2vs0mg"},{"bike_id":"90521811-f8fd-48e1-ade7-4d07ddb065bb","system_id":"levelo_inurba_marseille","lat":43.23193,"lon":5.35559,"is_reserved":false,"is_disabled":false,"rental_uris":{"android":"levelo://app?vid=90521811-f8fd-48e1-ade7-4d07ddb065bb","ios":"levelo://app?vid=90521811-f8fd-48e1-ade7-4d07ddb065bb"},"vehicle_type_id":"4","last_reported":1726409238,"current_range_meters":12400,"station_id":"ce4bhu92rcd13ifvqi70","pricing_plan_id":"cebpf4jnsgd1na2vs0mg"},{"bike_id":"ac0b2d92-4e72-4a28-851c-700dc240dbdc","system_id":"levelo_inurba_marseille","lat":43.24801,"lon":5.37444,"is_reserved":false,"is_disabled":false,"rental_uris":{"android":"levelo://app?vid=ac0b2d92-4e72-4a28-851c-700dc240dbdc","ios":"levelo://app?vid=ac0b2d92-4e72-4a28-851c-700dc240dbdc"},"vehicle_type_id":"4","last_reported":1726409238,"current_range_meters":36800,"station_id":"ce4bhgh2rcd13ifvqfb0","pricing_plan_id":"cebpf4jnsgd1na2vs0mg"},{"bike_id":"c0e7bae2-c423-4ff7-ac0e-a1b761292386","system_id":"levelo_inurba_marseille","lat":43.296173,"lon":5.376835,"is_reserved":false,"is_disabled":false,"rental_uris":{"android":"levelo://app?vid=c0e7bae2-c423-4ff7-ac0e-a1b761292386","ios":"levelo://app?vid=c0e7bae2-c423-4ff7-ac0e-a1b761292386"},"vehicle_type_id":"4","last_reported":1726409238,"current_range_meters":10800,"station_id":"ce4bhgh2rcd13ifvqfa0","pricing_plan_id":"cebpf4jnsgd1na2vs0mg"},{"bike_id":"c1e648ef-07dc-43ac-9ec5-8db02013910e","system_id":"levelo_inurba_marseille","lat":43.26192,"lon":5.37453,"is_reserved":false,"is_disabled":false,"rental_uris":{"android":"levelo://app?vid=c1e648ef-07dc-43ac-9ec5-8db02013910e","ios":"levelo://app?vid=c1e648ef-07dc-43ac-9ec5-8db02013910e"},"vehicle_type_id":"4","last_reported":1726409238,"current_range_meters":24400,"station_id":"ce4bhgp2rcd13ifvqfc0","pricing_plan_id":"cebpf4jnsgd1na2vs0mg"},{"bike_id":"e366009c-ead0-41a7-8acf-f7d208c2d7ce","system_id":"levelo_inurba_marseille","lat":43.24673,"lon":5.38163,"is_reserved":false,"is_disabled":false,"rental_uris":{"android":"levelo://app?vid=e366009c-ead0-41a7-8acf-f7d208c2d7ce","ios":"levelo://app?vid=e366009c-ead0-41a7-8acf-f7d208c2d7ce"},"vehicle_type_id":"4","last_reported":1726409238,"current_range_meters":38000,"station_id":"ce4bhih2rcd13ifvqfr0","pricing_plan_id":"cebpf4jnsgd1na2vs0mg"},{"bike_id":"26db0265-0a91-4c66-8aa8-67a94f7eef0d","system_id":"levelo_inurba_marseille","lat":43.26937,"lon":5.40054,"is_reserved":false,"is_disabled":false,"rental_uris":{"android":"levelo://app?vid=26db0265-0a91-4c66-8aa8-67a94f7eef0d","ios":"levelo://app?vid=26db0265-0a91-4c66-8aa8-67a94f7eef0d"},"vehicle_type_id":"4","last_reported":1726409238,"current_range_meters":10000,"station_id":"","pricing_plan_id":"cebpf4jnsgd1na2vs0mg"},{"bike_id":"9b49fc06-69dc-4375-9bc8-2ab31283d424","system_id":"levelo_inurba_marseille","lat":43.29903,"lon":5.43661,"is_reserved":false,"is_disabled":false,"rental_uris":{"android":"levelo://app?vid=9b49fc06-69dc-4375-9bc8-2ab31283d424","ios":"levelo://app?vid=9b49fc06-69dc-4375-9bc8-2ab31283d424"},"vehicle_type_id":"4","last_reported":1726409238,"current_range_meters":27200,"station_id":"ce4bhpp2rcd13ifvqhfg","pricing_plan_id":"cebpf4jnsgd1na2vs0mg"},{"bike_id":"332e7158-8ad6-4ff8-a711-56e21947b7b5","system_id":"levelo_inurba_marseille","lat":43.28421,"lon":5.34993,"is_reserved":false,"is_disabled":false,"rental_uris":{"android":"levelo://app?vid=332e7158-8ad6-4ff8-a711-56e21947b7b5","ios":"levelo://app?vid=332e7158-8ad6-4ff8-a711-56e21947b7b5"},"vehicle_type_id":"4","last_reported":1726409238,"current_range_meters":39200,"station_id":"ce4bhbh2rcd13ifvqepg","pricing_plan_id":"cebpf4jnsgd1na2vs0mg"},{"bike_id":"7cb86f02-015f-4218-848c-60a0be8facd1","system_id":"levelo_inurba_marseille","lat":43.25722,"lon":5.41093,"is_reserved":false,"is_disabled":false,"rental_uris":{"android":"levelo://app?vid=7cb86f02-015f-4218-848c-60a0be8facd1","ios":"levelo://app?vid=7cb86f02-015f-4218-848c-60a0be8facd1"},"vehicle_type_id":"4","last_reported":1726409238,"current_range_meters":15200,"station_id":"ce4bhkp2rcd13ifvqgd0","pricing_plan_id":"cebpf4jnsgd1na2vs0mg"},{"bike_id":"fa0bba81-ae28-438c-aaa0-a2a0c9d69ac5","system_id":"levelo_inurba_marseille","lat":43.29557,"lon":5.42283,"is_reserved":false,"is_disabled":false,"rental_uris":{"android":"levelo://app?vid=fa0bba81-ae28-438c-aaa0-a2a0c9d69ac5","ios":"levelo://app?vid=fa0bba81-ae28-438c-aaa0-a2a0c9d69ac5"},"vehicle_type_id":"4","last_reported":1726409238,"current_range_meters":33200,"station_id":"ce4bhph2rcd13ifvqhdg","pricing_plan_id":"cebpf4jnsgd1na2vs0mg"},{"bike_id":"e00d038a-00c7-4258-ab4b-259bdb081cfd","system_id":"levelo_inurba_marseille","lat":43.23193,"lon":5.35544,"is_reserved":false,"is_disabled":false,"rental_uris":{"android":"levelo://app?vid=e00d038a-00c7-4258-ab4b-259bdb081cfd","ios":"levelo://app?vid=e00d038a-00c7-4258-ab4b-259bdb081cfd"},"vehicle_type_id":"4","last_reported":1726409238,"current_range_meters":28000,"station_id":"ce4bhu92rcd13ifvqi70","pricing_plan_id":"cebpf4jnsgd1na2vs0mg"},{"bike_id":"459ca2fe-304d-47b2-a604-8dea281edb0c","system_id":"levelo_inurba_marseille","lat":43.31083,"lon":5.42434,"is_reserved":false,"is_disabled":false,"rental_uris":{"android":"levelo://app?vid=459ca2fe-304d-47b2-a604-8dea281edb0c","ios":"levelo://app?vid=459ca2fe-304d-47b2-a604-8dea281edb0c"},"vehicle_type_id":"4","last_reported":1726409238,"current_range_meters":32000,"station_id":"ce4bhp92rcd13ifvqhag","pricing_plan_id":"cebpf4jnsgd1na2vs0mg"},{"bike_id":"0e8a55c8-12ef-43a9-a58c-75d96b781b74","system_id":"levelo_inurba_marseille","lat":43.26187,"lon":5.374623,"is_reserved":false,"is_disabled":false,"rental_uris":{"android":"levelo://app?vid=0e8a55c8-12ef-43a9-a58c-75d96b781b74","ios":"levelo://app?vid=0e8a55c8-12ef-43a9-a58c-75d96b781b74"},"vehicle_type_id":"4","last_reported":1726409238,"current_range_meters":10000,"station_id":"ce4bhgp2rcd13ifvqfc0","pricing_plan_id":"cebpf4jnsgd1na2vs0mg"},{"bike_id":"ba09d904-a101-43f3-b3ed-b8013ab13e75","system_id":"levelo_inurba_marseille","lat":43.26035,"lon":5.37543,"is_reserved":false,"is_disabled":false,"rental_uris":{"android":"levelo://app?vid=ba09d904-a101-43f3-b3ed-b8013ab13e75","ios":"levelo://app?vid=ba09d904-a101-43f3-b3ed-b8013ab13e75"},"vehicle_type_id":"4","last_reported":1726409238,"current_range_meters":27600,"station_id":"ce4bhgh2rcd13ifvqfa0","pricing_plan_id":"cebpf4jnsgd1na2vs0mg"},{"bike_id":"c90f4264-ce06-43e4-85e7-8ff74131e4a6","system_id":"levelo_inurba_marseille","lat":43.287146,"lon":5.360859,"is_reserved":false,"is_disabled":false,"rental_uris":{"android":"levelo://app?vid=c90f4264-ce06-43e4-85e7-8ff74131e4a6","ios":"levelo://app?vid=c90f4264-ce06-43e4-85e7-8ff74131e4a6"},"vehicle_type_id":"4","last_reported":1726409238,"current_range_meters":36400,"station_id":"cki0cbj6b192h4jlfktg","pricing_plan_id":"cebpf4jnsgd1na2vs0mg"},{"bike_id":"ec19b6e1-4ec0-4e39-b98f-e4b7c23ca064","system_id":"levelo_inurba_marseille","lat":43.27378,"lon":5.36253,"is_reserved":false,"is_disabled":false,"rental_uris":{"android":"levelo://app?vid=ec19b6e1-4ec0-4e39-b98f-e4b7c23ca064","ios":"levelo://app?vid=ec19b6e1-4ec0-4e39-b98f-e4b7c23ca064"},"vehicle_type_id":"4","last_reported":1726409238,"current_range_meters":7200,"station_id":"ce4bhbh2rcd13ifvqeo0","pricing_plan_id":"cebpf4jnsgd1na2vs0mg"},{"bike_id":"81a74cbf-28e3-4423-bed8-3a1bc031474c","system_id":"levelo_inurba_marseille","lat":43.29601,"lon":5.38092,"is_reserved":false,"is_disabled":false,"rental_uris":{"android":"levelo://app?vid=81a74cbf-28e3-4423-bed8-3a1bc031474c","ios":"levelo://app?vid=81a74cbf-28e3-4423-bed8-3a1bc031474c"},"vehicle_type_id":"4","last_reported":1726409238,"current_range_meters":28800,"station_id":"ce4bgl12rcd13ifvqbo0","pricing_plan_id":"cebpf4jnsgd1na2vs0mg"},{"bike_id":"b1db6496-7d7b-4acc-a88c-e5406d38e100","system_id":"levelo_inurba_marseille","lat":43.23205,"lon":5.35547,"is_reserved":false,"is_disabled":false,"rental_uris":{"android":"levelo://app?vid=b1db6496-7d7b-4acc-a88c-e5406d38e100","ios":"levelo://app?vid=b1db6496-7d7b-4acc-a88c-e5406d38e100"},"vehicle_type_id":"4","last_reported":1726409238,"current_range_meters":36800,"station_id":"ce4bhu92rcd13ifvqi70","pricing_plan_id":"cebpf4jnsgd1na2vs0mg"},{"bike_id":"ee721f16-71d0-49c8-9da4-858f78b55bcb","system_id":"levelo_inurba_marseille","lat":43.25938,"lon":5.40902,"is_reserved":false,"is_disabled":false,"rental_uris":{"android":"levelo://app?vid=ee721f16-71d0-49c8-9da4-858f78b55bcb","ios":"levelo://app?vid=ee721f16-71d0-49c8-9da4-858f78b55bcb"},"vehicle_type_id":"4","last_reported":1726409238,"current_range_meters":25600,"station_id":"ce4bhm92rcd13ifvqglg","pricing_plan_id":"cebpf4jnsgd1na2vs0mg"},{"bike_id":"826f4136-a005-4203-8c5f-7808e18dcf00","system_id":"levelo_inurba_marseille","lat":43.29557,"lon":5.42285,"is_reserved":false,"is_disabled":false,"rental_uris":{"android":"levelo://app?vid=826f4136-a005-4203-8c5f-7808e18dcf00","ios":"levelo://app?vid=826f4136-a005-4203-8c5f-7808e18dcf00"},"vehicle_type_id":"4","last_reported":1726409238,"current_range_meters":8800,"station_id":"ce4bhph2rcd13ifvqhdg","pricing_plan_id":"cebpf4jnsgd1na2vs0mg"},{"bike_id":"4b06523d-eac1-458a-b1ed-f2d3d8c74cc9","system_id":"levelo_inurba_marseille","lat":43.28617,"lon":5.35097,"is_reserved":false,"is_disabled":false,"rental_uris":{"android":"levelo://app?vid=4b06523d-eac1-458a-b1ed-f2d3d8c74cc9","ios":"levelo://app?vid=4b06523d-eac1-458a-b1ed-f2d3d8c74cc9"},"vehicle_type_id":"4","last_reported":1726409238,"current_range_meters":38800,"station_id":"ce4bhch2rcd13ifvqeug","pricing_plan_id":"cebpf4jnsgd1na2vs0mg"},{"bike_id":"5cf4c2f1-f092-4550-b8cf-369099ebc3bc","system_id":"levelo_inurba_marseille","lat":43.2456,"lon":5.4155,"is_reserved":false,"is_disabled":false,"rental_uris":{"android":"levelo://app?vid=5cf4c2f1-f092-4550-b8cf-369099ebc3bc","ios":"levelo://app?vid=5cf4c2f1-f092-4550-b8cf-369099ebc3bc"},"vehicle_type_id":"4","last_reported":1726409238,"current_range_meters":14400,"station_id":"ce4bhlh2rcd13ifvqgig","pricing_plan_id":"cebpf4jnsgd1na2vs0mg"},{"bike_id":"1a753ff3-a732-4a15-877e-752986003c92","system_id":"levelo_inurba_marseille","lat":43.30879,"lon":5.3718,"is_reserved":false,"is_disabled":false,"rental_uris":{"android":"levelo://app?vid=1a753ff3-a732-4a15-877e-752986003c92","ios":"levelo://app?vid=1a753ff3-a732-4a15-877e-752986003c92"},"vehicle_type_id":"4","last_reported":1726409238,"current_range_meters":9600,"station_id":"ce4bguh2rcd13ifvqckg","pricing_plan_id":"cebpf4jnsgd1na2vs0mg"},{"bike_id":"fee25fe6-9184-4193-a7ce-63f6225f440b","system_id":"levelo_inurba_marseille","lat":43.324768,"lon":5.365905,"is_reserved":false,"is_disabled":false,"rental_uris":{"android":"levelo://app?vid=fee25fe6-9184-4193-a7ce-63f6225f440b","ios":"levelo://app?vid=fee25fe6-9184-4193-a7ce-63f6225f440b"},"vehicle_type_id":"4","last_reported":1726409238,"current_range_meters":12400,"station_id":"ce4bhs12rcd13ifvqhvg","pricing_plan_id":"cebpf4jnsgd1na2vs0mg"},{"bike_id":"dfc7e944-178a-43bd-85e8-0abf1cafc416","system_id":"levelo_inurba_marseille","lat":43.22929,"lon":5.35372,"is_reserved":false,"is_disabled":false,"rental_uris":{"android":"levelo://app?vid=dfc7e944-178a-43bd-85e8-0abf1cafc416","ios":"levelo://app?vid=dfc7e944-178a-43bd-85e8-0abf1cafc416"},"vehicle_type_id":"4","last_reported":1726409238,"current_range_meters":22400,"station_id":"cpo3532slgdg3j2ikp40","pricing_plan_id":"cebpf4jnsgd1na2vs0mg"},{"bike_id":"354f931f-0632-45e1-8742-ec6ddc3feef8","system_id":"levelo_inurba_marseille","lat":43.28412,"lon":5.34982,"is_reserved":false,"is_disabled":false,"rental_uris":{"android":"levelo://app?vid=354f931f-0632-45e1-8742-ec6ddc3feef8","ios":"levelo://app?vid=354f931f-0632-45e1-8742-ec6ddc3feef8"},"vehicle_type_id":"4","last_reported":1726409238,"current_range_meters":33600,"station_id":"ce4bhbh2rcd13ifvqepg","pricing_plan_id":"cebpf4jnsgd1na2vs0mg"},{"bike_id":"acd02986-fb22-43bc-88f1-d76510ab4603","system_id":"levelo_inurba_marseille","lat":43.33289,"lon":5.39443,"is_reserved":false,"is_disabled":false,"rental_uris":{"android":"levelo://app?vid=acd02986-fb22-43bc-88f1-d76510ab4603","ios":"levelo://app?vid=acd02986-fb22-43bc-88f1-d76510ab4603"},"vehicle_type_id":"4","last_reported":1726409238,"current_range_meters":27200,"station_id":"","pricing_plan_id":"cebpf4jnsgd1na2vs0mg"},{"bike_id":"7bc14114-e12c-41c1-ab2a-a4f019a17326","system_id":"levelo_inurba_marseille","lat":43.2306,"lon":5.35495,"is_reserved":false,"is_disabled":false,"rental_uris":{"android":"levelo://app?vid=7bc14114-e12c-41c1-ab2a-a4f019a17326","ios":"levelo://app?vid=7bc14114-e12c-41c1-ab2a-a4f019a17326"},"vehicle_type_id":"4","last_reported":1726409238,"current_range_meters":26000,"station_id":"cpo3342slgdg3j2ifvpg","pricing_plan_id":"cebpf4jnsgd1na2vs0mg"},{"bike_id":"b645ac77-0d58-4fa9-8ad3-947af8bdb1d9","system_id":"levelo_inurba_marseille","lat":43.29902,"lon":5.43666,"is_reserved":false,"is_disabled":false,"rental_uris":{"android":"levelo://app?vid=b645ac77-0d58-4fa9-8ad3-947af8bdb1d9","ios":"levelo://app?vid=b645ac77-0d58-4fa9-8ad3-947af8bdb1d9"},"vehicle_type_id":"4","last_reported":1726409238,"current_range_meters":34000,"station_id":"ce4bhpp2rcd13ifvqhfg","pricing_plan_id":"cebpf4jnsgd1na2vs0mg"},{"bike_id":"03515e55-0de8-4f6d-953a-abbf71a9cce4","system_id":"levelo_inurba_marseille","lat":43.24071,"lon":5.37759,"is_reserved":false,"is_disabled":false,"rental_uris":{"android":"levelo://app?vid=03515e55-0de8-4f6d-953a-abbf71a9cce4","ios":"levelo://app?vid=03515e55-0de8-4f6d-953a-abbf71a9cce4"},"vehicle_type_id":"4","last_reported":1726409238,"current_range_meters":17200,"station_id":"ce4bhnp2rcd13ifvqgvg","pricing_plan_id":"cebpf4jnsgd1na2vs0mg"},{"bike_id":"31d39b5d-3518-4324-99d5-ea5f2a6ca03e","system_id":"levelo_inurba_marseille","lat":43.23067,"lon":5.35485,"is_reserved":false,"is_disabled":false,"rental_uris":{"android":"levelo://app?vid=31d39b5d-3518-4324-99d5-ea5f2a6ca03e","ios":"levelo://app?vid=31d39b5d-3518-4324-99d5-ea5f2a6ca03e"},"vehicle_type_id":"4","last_reported":1726409238,"current_range_meters":29600,"station_id":"cpo3342slgdg3j2ifvpg","pricing_plan_id":"cebpf4jnsgd1na2vs0mg"},{"bike_id":"91d155a1-0e95-42f4-9cf2-24e586735a13","system_id":"levelo_inurba_marseille","lat":43.3373,"lon":5.39176,"is_reserved":false,"is_disabled":false,"rental_uris":{"android":"levelo://app?vid=91d155a1-0e95-42f4-9cf2-24e586735a13","ios":"levelo://app?vid=91d155a1-0e95-42f4-9cf2-24e586735a13"},"vehicle_type_id":"4","last_reported":1726409238,"current_range_meters":39200,"station_id":"ce4bhr92rcd13ifvqhsg","pricing_plan_id":"cebpf4jnsgd1na2vs0mg"},{"bike_id":"c4442831-5b8d-47f9-a6db-f0ce6de3c34c","system_id":"levelo_inurba_marseille","lat":43.28256,"lon":5.35047,"is_reserved":false,"is_disabled":false,"rental_uris":{"android":"levelo://app?vid=c4442831-5b8d-47f9-a6db-f0ce6de3c34c","ios":"levelo://app?vid=c4442831-5b8d-47f9-a6db-f0ce6de3c34c"},"vehicle_type_id":"4","last_reported":1726409238,"current_range_meters":18800,"station_id":"ce4bhbp2rcd13ifvqerg","pricing_plan_id":"cebpf4jnsgd1na2vs0mg"},{"bike_id":"9e8df063-7fda-46c4-8c8b-239a737b1fea","system_id":"levelo_inurba_marseille","lat":43.31073,"lon":5.38361,"is_reserved":false,"is_disabled":false,"rental_uris":{"android":"levelo://app?vid=9e8df063-7fda-46c4-8c8b-239a737b1fea","ios":"levelo://app?vid=9e8df063-7fda-46c4-8c8b-239a737b1fea"},"vehicle_type_id":"4","last_reported":1726409238,"current_range_meters":28800,"station_id":"ce4bgv92rcd13ifvqcr0","pricing_plan_id":"cebpf4jnsgd1na2vs0mg"},{"bike_id":"98b920dc-4a76-4526-83b1-415b00234a56","system_id":"levelo_inurba_marseille","lat":43.28414,"lon":5.34989,"is_reserved":false,"is_disabled":false,"rental_uris":{"android":"levelo://app?vid=98b920dc-4a76-4526-83b1-415b00234a56","ios":"levelo://app?vid=98b920dc-4a76-4526-83b1-415b00234a56"},"vehicle_type_id":"4","last_reported":1726409238,"current_range_meters":14800,"station_id":"ce4bhbh2rcd13ifvqepg","pricing_plan_id":"cebpf4jnsgd1na2vs0mg"},{"bike_id":"7abc2a25-404a-4f70-a7c0-c89315b5c4bc","system_id":"levelo_inurba_marseille","lat":43.30396,"lon":5.37322,"is_reserved":false,"is_disabled":false,"rental_uris":{"android":"levelo://app?vid=7abc2a25-404a-4f70-a7c0-c89315b5c4bc","ios":"levelo://app?vid=7abc2a25-404a-4f70-a7c0-c89315b5c4bc"},"vehicle_type_id":"4","last_reported":1726409238,"current_range_meters":28400,"station_id":"","pricing_plan_id":"cebpf4jnsgd1na2vs0mg"},{"bike_id":"680b296f-8a9e-4ce9-90dd-5edf4faa61c1","system_id":"levelo_inurba_marseille","lat":43.31779,"lon":5.38982,"is_reserved":false,"is_disabled":false,"rental_uris":{"android":"levelo://app?vid=680b296f-8a9e-4ce9-90dd-5edf4faa61c1","ios":"levelo://app?vid=680b296f-8a9e-4ce9-90dd-5edf4faa61c1"},"vehicle_type_id":"4","last_reported":1726409238,"current_range_meters":38000,"station_id":"ce4bhqp2rcd13ifvqhng","pricing_plan_id":"cebpf4jnsgd1na2vs0mg"},{"bike_id":"bbd2450a-84a7-42e1-bc94-af6bf7be8eb5","system_id":"levelo_inurba_marseille","lat":43.33023,"lon":5.39039,"is_reserved":false,"is_disabled":false,"rental_uris":{"android":"levelo://app?vid=bbd2450a-84a7-42e1-bc94-af6bf7be8eb5","ios":"levelo://app?vid=bbd2450a-84a7-42e1-bc94-af6bf7be8eb5"},"vehicle_type_id":"4","last_reported":1726409238,"current_range_meters":32400,"station_id":"ce4bhr92rcd13ifvqhrg","pricing_plan_id":"cebpf4jnsgd1na2vs0mg"},{"bike_id":"445ffd4a-ab9d-404c-8dd4-b02ddd5b2b34","system_id":"levelo_inurba_marseille","lat":43.33728,"lon":5.39181,"is_reserved":false,"is_disabled":false,"rental_uris":{"android":"levelo://app?vid=445ffd4a-ab9d-404c-8dd4-b02ddd5b2b34","ios":"levelo://app?vid=445ffd4a-ab9d-404c-8dd4-b02ddd5b2b34"},"vehicle_type_id":"4","last_reported":1726409238,"current_range_meters":36800,"station_id":"ce4bhr92rcd13ifvqhsg","pricing_plan_id":"cebpf4jnsgd1na2vs0mg"},{"bike_id":"46fa0628-63da-403c-a9e3-76cf9989cf96","system_id":"levelo_inurba_marseille","lat":43.31328,"lon":5.39691,"is_reserved":false,"is_disabled":false,"rental_uris":{"android":"levelo://app?vid=46fa0628-63da-403c-a9e3-76cf9989cf96","ios":"levelo://app?vid=46fa0628-63da-403c-a9e3-76cf9989cf96"},"vehicle_type_id":"4","last_reported":1726409238,"current_range_meters":39200,"station_id":"ce4bgvp2rcd13ifvqcu0","pricing_plan_id":"cebpf4jnsgd1na2vs0mg"},{"bike_id":"f4efe143-1f1a-40c9-b4ed-22454a7082f2","system_id":"levelo_inurba_marseille","lat":43.29787,"lon":5.38099,"is_reserved":false,"is_disabled":false,"rental_uris":{"android":"levelo://app?vid=f4efe143-1f1a-40c9-b4ed-22454a7082f2","ios":"levelo://app?vid=f4efe143-1f1a-40c9-b4ed-22454a7082f2"},"vehicle_type_id":"4","last_reported":1726409238,"current_range_meters":35600,"station_id":"ce4bgip2rcd13ifvqbb0","pricing_plan_id":"cebpf4jnsgd1na2vs0mg"},{"bike_id":"6dd566a1-0f14-4c1e-a358-6802583ceeac","system_id":"levelo_inurba_marseille","lat":43.26032,"lon":5.37541,"is_reserved":false,"is_disabled":false,"rental_uris":{"android":"levelo://app?vid=6dd566a1-0f14-4c1e-a358-6802583ceeac","ios":"levelo://app?vid=6dd566a1-0f14-4c1e-a358-6802583ceeac"},"vehicle_type_id":"4","last_reported":1726409238,"current_range_meters":36000,"station_id":"ce4bhgh2rcd13ifvqfa0","pricing_plan_id":"cebpf4jnsgd1na2vs0mg"},{"bike_id":"ac2f8b18-c4e8-4836-947b-b533a20a9549","system_id":"levelo_inurba_marseille","lat":43.29042,"lon":5.35914,"is_reserved":false,"is_disabled":false,"rental_uris":{"android":"levelo://app?vid=ac2f8b18-c4e8-4836-947b-b533a20a9549","ios":"levelo://app?vid=ac2f8b18-c4e8-4836-947b-b533a20a9549"},"vehicle_type_id":"4","last_reported":1726409238,"current_range_meters":34000,"station_id":"ce4bha92rcd13ifvqeg0","pricing_plan_id":"cebpf4jnsgd1na2vs0mg"},{"bike_id":"552ccea4-a0ab-4fa2-9015-1ea8da64cd61","system_id":"levelo_inurba_marseille","lat":43.25574,"lon":5.38242,"is_reserved":false,"is_disabled":false,"rental_uris":{"android":"levelo://app?vid=552ccea4-a0ab-4fa2-9015-1ea8da64cd61","ios":"levelo://app?vid=552ccea4-a0ab-4fa2-9015-1ea8da64cd61"},"vehicle_type_id":"4","last_reported":1726409238,"current_range_meters":3600,"station_id":"ce4bhih2rcd13ifvqfs0","pricing_plan_id":"cebpf4jnsgd1na2vs0mg"},{"bike_id":"c979dfc3-35c3-4581-bddc-204d4a80487c","system_id":"levelo_inurba_marseille","lat":43.28279,"lon":5.35062,"is_reserved":false,"is_disabled":false,"rental_uris":{"android":"levelo://app?vid=c979dfc3-35c3-4581-bddc-204d4a80487c","ios":"levelo://app?vid=c979dfc3-35c3-4581-bddc-204d4a80487c"},"vehicle_type_id":"4","last_reported":1726409238,"current_range_meters":38800,"station_id":"ce4bhbp2rcd13ifvqerg","pricing_plan_id":"cebpf4jnsgd1na2vs0mg"},{"bike_id":"af19c6cc-2de7-42d0-b57a-f8bb4d7d3bbf","system_id":"levelo_inurba_marseille","lat":43.3108,"lon":5.42429,"is_reserved":false,"is_disabled":false,"rental_uris":{"android":"levelo://app?vid=af19c6cc-2de7-42d0-b57a-f8bb4d7d3bbf","ios":"levelo://app?vid=af19c6cc-2de7-42d0-b57a-f8bb4d7d3bbf"},"vehicle_type_id":"4","last_reported":1726409238,"current_range_meters":8000,"station_id":"ce4bhp92rcd13ifvqhag","pricing_plan_id":"cebpf4jnsgd1na2vs0mg"},{"bike_id":"e72f5267-0dd2-40f4-8c35-eefba3d9dac3","system_id":"levelo_inurba_marseille","lat":43.31269,"lon":5.40166,"is_reserved":false,"is_disabled":false,"rental_uris":{"android":"levelo://app?vid=e72f5267-0dd2-40f4-8c35-eefba3d9dac3","ios":"levelo://app?vid=e72f5267-0dd2-40f4-8c35-eefba3d9dac3"},"vehicle_type_id":"4","last_reported":1726409238,"current_range_meters":38400,"station_id":"ce4bh092rcd13ifvqd30","pricing_plan_id":"cebpf4jnsgd1na2vs0mg"},{"bike_id":"b05f7a86-0c19-41e9-94df-8324c4395640","system_id":"levelo_inurba_marseille","lat":43.24665,"lon":5.38163,"is_reserved":false,"is_disabled":false,"rental_uris":{"android":"levelo://app?vid=b05f7a86-0c19-41e9-94df-8324c4395640","ios":"levelo://app?vid=b05f7a86-0c19-41e9-94df-8324c4395640"},"vehicle_type_id":"4","last_reported":1726409238,"current_range_meters":39200,"station_id":"ce4bhih2rcd13ifvqfr0","pricing_plan_id":"cebpf4jnsgd1na2vs0mg"},{"bike_id":"7251d55d-befd-400d-90d9-ab0b68ba8caa","system_id":"levelo_inurba_marseille","lat":43.24811,"lon":5.37456,"is_reserved":false,"is_disabled":false,"rental_uris":{"android":"levelo://app?vid=7251d55d-befd-400d-90d9-ab0b68ba8caa","ios":"levelo://app?vid=7251d55d-befd-400d-90d9-ab0b68ba8caa"},"vehicle_type_id":"4","last_reported":1726409238,"current_range_meters":38000,"station_id":"ce4bhgh2rcd13ifvqfb0","pricing_plan_id":"cebpf4jnsgd1na2vs0mg"},{"bike_id":"53a2d874-293d-47cc-bdbd-a03b3468623b","system_id":"levelo_inurba_marseille","lat":43.29904,"lon":5.43667,"is_reserved":false,"is_disabled":false,"rental_uris":{"android":"levelo://app?vid=53a2d874-293d-47cc-bdbd-a03b3468623b","ios":"levelo://app?vid=53a2d874-293d-47cc-bdbd-a03b3468623b"},"vehicle_type_id":"4","last_reported":1726409238,"current_range_meters":3600,"station_id":"ce4bhpp2rcd13ifvqhfg","pricing_plan_id":"cebpf4jnsgd1na2vs0mg"},{"bike_id":"bb7acf50-b6bc-4b2d-adf4-833abc23b24c","system_id":"levelo_inurba_marseille","lat":43.2319,"lon":5.35538,"is_reserved":false,"is_disabled":false,"rental_uris":{"android":"levelo://app?vid=bb7acf50-b6bc-4b2d-adf4-833abc23b24c","ios":"levelo://app?vid=bb7acf50-b6bc-4b2d-adf4-833abc23b24c"},"vehicle_type_id":"4","last_reported":1726409238,"current_range_meters":40000,"station_id":"ce4bhu92rcd13ifvqi70","pricing_plan_id":"cebpf4jnsgd1na2vs0mg"},{"bike_id":"19628bd1-9172-46c3-bfa1-37d603408e00","system_id":"levelo_inurba_marseille","lat":43.31329,"lon":5.39694,"is_reserved":false,"is_disabled":false,"rental_uris":{"android":"levelo://app?vid=19628bd1-9172-46c3-bfa1-37d603408e00","ios":"levelo://app?vid=19628bd1-9172-46c3-bfa1-37d603408e00"},"vehicle_type_id":"4","last_reported":1726409238,"current_range_meters":39200,"station_id":"ce4bgvp2rcd13ifvqcu0","pricing_plan_id":"cebpf4jnsgd1na2vs0mg"},{"bike_id":"4c1ecf41-3292-4a63-a103-401c0bb6cad5","system_id":"levelo_inurba_marseille","lat":43.23966,"lon":5.36618,"is_reserved":false,"is_disabled":false,"rental_uris":{"android":"levelo://app?vid=4c1ecf41-3292-4a63-a103-401c0bb6cad5","ios":"levelo://app?vid=4c1ecf41-3292-4a63-a103-401c0bb6cad5"},"vehicle_type_id":"4","last_reported":1726409238,"current_range_meters":24000,"station_id":"ce4bhi12rcd13ifvqfp0","pricing_plan_id":"cebpf4jnsgd1na2vs0mg"},{"bike_id":"d4fa8a26-e183-4ae9-9f9e-e53653323498","system_id":"levelo_inurba_marseille","lat":43.30919,"lon":5.40146,"is_reserved":false,"is_disabled":false,"rental_uris":{"android":"levelo://app?vid=d4fa8a26-e183-4ae9-9f9e-e53653323498","ios":"levelo://app?vid=d4fa8a26-e183-4ae9-9f9e-e53653323498"},"vehicle_type_id":"4","last_reported":1726409238,"current_range_meters":16800,"station_id":"ce4bgvp2rcd13ifvqct0","pricing_plan_id":"cebpf4jnsgd1na2vs0mg"},{"bike_id":"c0309546-03a5-4b13-9ddb-51c84ff57341","system_id":"levelo_inurba_marseille","lat":43.28986,"lon":5.37831,"is_reserved":false,"is_disabled":false,"rental_uris":{"android":"levelo://app?vid=c0309546-03a5-4b13-9ddb-51c84ff57341","ios":"levelo://app?vid=c0309546-03a5-4b13-9ddb-51c84ff57341"},"vehicle_type_id":"4","last_reported":1726409238,"current_range_meters":32400,"station_id":"ce4bh9p2rcd13ifvqed0","pricing_plan_id":"cebpf4jnsgd1na2vs0mg"},{"bike_id":"32d0c597-1844-4063-8b8b-02724571adbc","system_id":"levelo_inurba_marseille","lat":43.31722,"lon":5.4239,"is_reserved":false,"is_disabled":false,"rental_uris":{"android":"levelo://app?vid=32d0c597-1844-4063-8b8b-02724571adbc","ios":"levelo://app?vid=32d0c597-1844-4063-8b8b-02724571adbc"},"vehicle_type_id":"4","last_reported":1726409238,"current_range_meters":39200,"station_id":"ce4bhp92rcd13ifvqhbg","pricing_plan_id":"cebpf4jnsgd1na2vs0mg"},{"bike_id":"9d3d0e56-768e-4892-a48d-97d25cda04cf","system_id":"levelo_inurba_marseille","lat":43.315,"lon":5.37305,"is_reserved":false,"is_disabled":false,"rental_uris":{"android":"levelo://app?vid=9d3d0e56-768e-4892-a48d-97d25cda04cf","ios":"levelo://app?vid=9d3d0e56-768e-4892-a48d-97d25cda04cf"},"vehicle_type_id":"4","last_reported":1726409238,"current_range_meters":20400,"station_id":"ce4bgt12rcd13ifvqcd0","pricing_plan_id":"cebpf4jnsgd1na2vs0mg"},{"bike_id":"14e3114d-8408-486b-a448-7ee1e2190eff","system_id":"levelo_inurba_marseille","lat":43.28422,"lon":5.34989,"is_reserved":false,"is_disabled":false,"rental_uris":{"android":"levelo://app?vid=14e3114d-8408-486b-a448-7ee1e2190eff","ios":"levelo://app?vid=14e3114d-8408-486b-a448-7ee1e2190eff"},"vehicle_type_id":"4","last_reported":1726409238,"current_range_meters":26000,"station_id":"ce4bhbh2rcd13ifvqepg","pricing_plan_id":"cebpf4jnsgd1na2vs0mg"},{"bike_id":"d56cbbe5-b13f-48cb-8b7d-140885a7b197","system_id":"levelo_inurba_marseille","lat":43.31327,"lon":5.39691,"is_reserved":false,"is_disabled":false,"rental_uris":{"android":"levelo://app?vid=d56cbbe5-b13f-48cb-8b7d-140885a7b197","ios":"levelo://app?vid=d56cbbe5-b13f-48cb-8b7d-140885a7b197"},"vehicle_type_id":"4","last_reported":1726409238,"current_range_meters":18000,"station_id":"ce4bgvp2rcd13ifvqcu0","pricing_plan_id":"cebpf4jnsgd1na2vs0mg"},{"bike_id":"bb046787-1b6f-4a52-9f6c-67f38be48f9e","system_id":"levelo_inurba_marseille","lat":43.24542,"lon":5.39523,"is_reserved":false,"is_disabled":false,"rental_uris":{"android":"levelo://app?vid=bb046787-1b6f-4a52-9f6c-67f38be48f9e","ios":"levelo://app?vid=bb046787-1b6f-4a52-9f6c-67f38be48f9e"},"vehicle_type_id":"4","last_reported":1726409238,"current_range_meters":31200,"station_id":"ce4bhlp2rcd13ifvqgjg","pricing_plan_id":"cebpf4jnsgd1na2vs0mg"},{"bike_id":"5e93c3f7-6bb0-4c32-bc88-8d680a6bc45e","system_id":"levelo_inurba_marseille","lat":43.27617,"lon":5.36105,"is_reserved":false,"is_disabled":false,"rental_uris":{"android":"levelo://app?vid=5e93c3f7-6bb0-4c32-bc88-8d680a6bc45e","ios":"levelo://app?vid=5e93c3f7-6bb0-4c32-bc88-8d680a6bc45e"},"vehicle_type_id":"4","last_reported":1726409238,"current_range_meters":35600,"station_id":"ce4bgj92rcd13ifvqbe0","pricing_plan_id":"cebpf4jnsgd1na2vs0mg"},{"bike_id":"b50c6414-87ff-4b18-ac48-91ad87e96b1f","system_id":"levelo_inurba_marseille","lat":43.31887,"lon":5.4073,"is_reserved":false,"is_disabled":false,"rental_uris":{"android":"levelo://app?vid=b50c6414-87ff-4b18-ac48-91ad87e96b1f","ios":"levelo://app?vid=b50c6414-87ff-4b18-ac48-91ad87e96b1f"},"vehicle_type_id":"4","last_reported":1726409238,"current_range_meters":8000,"station_id":"ce4bhq12rcd13ifvqhig","pricing_plan_id":"cebpf4jnsgd1na2vs0mg"},{"bike_id":"1327df04-3825-4e7e-8682-208219df9cf7","system_id":"levelo_inurba_marseille","lat":43.30779,"lon":5.37646,"is_reserved":false,"is_disabled":false,"rental_uris":{"android":"levelo://app?vid=1327df04-3825-4e7e-8682-208219df9cf7","ios":"levelo://app?vid=1327df04-3825-4e7e-8682-208219df9cf7"},"vehicle_type_id":"4","last_reported":1726409238,"current_range_meters":40000,"station_id":"ce4bgv92rcd13ifvqcq0","pricing_plan_id":"cebpf4jnsgd1na2vs0mg"},{"bike_id":"e040efde-f85a-42e1-b011-6999076e9e17","system_id":"levelo_inurba_marseille","lat":43.23192,"lon":5.39974,"is_reserved":false,"is_disabled":false,"rental_uris":{"android":"levelo://app?vid=e040efde-f85a-42e1-b011-6999076e9e17","ios":"levelo://app?vid=e040efde-f85a-42e1-b011-6999076e9e17"},"vehicle_type_id":"4","last_reported":1726409238,"current_range_meters":15200,"station_id":"ce4bhn12rcd13ifvqgqg","pricing_plan_id":"cebpf4jnsgd1na2vs0mg"},{"bike_id":"4188d7c3-1688-408a-a1cd-a2d6f50152e7","system_id":"levelo_inurba_marseille","lat":43.25501,"lon":5.37651,"is_reserved":false,"is_disabled":false,"rental_uris":{"android":"levelo://app?vid=4188d7c3-1688-408a-a1cd-a2d6f50152e7","ios":"levelo://app?vid=4188d7c3-1688-408a-a1cd-a2d6f50152e7"},"vehicle_type_id":"4","last_reported":1726409238,"current_range_meters":15200,"station_id":"ce4bhh12rcd13ifvqff0","pricing_plan_id":"cebpf4jnsgd1na2vs0mg"},{"bike_id":"6bcc742b-48ce-4914-8d02-15bb6fc592ab","system_id":"levelo_inurba_marseille","lat":43.25579,"lon":5.38236,"is_reserved":false,"is_disabled":false,"rental_uris":{"android":"levelo://app?vid=6bcc742b-48ce-4914-8d02-15bb6fc592ab","ios":"levelo://app?vid=6bcc742b-48ce-4914-8d02-15bb6fc592ab"},"vehicle_type_id":"4","last_reported":1726409238,"current_range_meters":6400,"station_id":"ce4bhih2rcd13ifvqfs0","pricing_plan_id":"cebpf4jnsgd1na2vs0mg"},{"bike_id":"88da6985-12f5-4849-8bd3-bd412b033b29","system_id":"levelo_inurba_marseille","lat":43.23063,"lon":5.35486,"is_reserved":false,"is_disabled":false,"rental_uris":{"android":"levelo://app?vid=88da6985-12f5-4849-8bd3-bd412b033b29","ios":"levelo://app?vid=88da6985-12f5-4849-8bd3-bd412b033b29"},"vehicle_type_id":"4","last_reported":1726409238,"current_range_meters":11200,"station_id":"cpo3342slgdg3j2ifvpg","pricing_plan_id":"cebpf4jnsgd1na2vs0mg"},{"bike_id":"ccc81115-c769-40cb-a420-a414e3f0cc3b","system_id":"levelo_inurba_marseille","lat":43.24389,"lon":5.37061,"is_reserved":false,"is_disabled":false,"rental_uris":{"android":"levelo://app?vid=ccc81115-c769-40cb-a420-a414e3f0cc3b","ios":"levelo://app?vid=ccc81115-c769-40cb-a420-a414e3f0cc3b"},"vehicle_type_id":"4","last_reported":1726409238,"current_range_meters":38000,"station_id":"ce4bhhh2rcd13ifvqfk0","pricing_plan_id":"cebpf4jnsgd1na2vs0mg"},{"bike_id":"b3d3640c-1d48-4592-aa89-fc7c55517130","system_id":"levelo_inurba_marseille","lat":43.26946,"lon":5.38616,"is_reserved":false,"is_disabled":false,"rental_uris":{"android":"levelo://app?vid=b3d3640c-1d48-4592-aa89-fc7c55517130","ios":"levelo://app?vid=b3d3640c-1d48-4592-aa89-fc7c55517130"},"vehicle_type_id":"4","last_reported":1726409238,"current_range_meters":16400,"station_id":"ce4bhh92rcd13ifvqfh0","pricing_plan_id":"cebpf4jnsgd1na2vs0mg"},{"bike_id":"c6de37c4-453f-42f5-b6a5-4046dd6757f7","system_id":"levelo_inurba_marseille","lat":43.28708,"lon":5.38784,"is_reserved":false,"is_disabled":false,"rental_uris":{"android":"levelo://app?vid=c6de37c4-453f-42f5-b6a5-4046dd6757f7","ios":"levelo://app?vid=c6de37c4-453f-42f5-b6a5-4046dd6757f7"},"vehicle_type_id":"4","last_reported":1726409238,"current_range_meters":38000,"station_id":"ce4bh312rcd13ifvqdk0","pricing_plan_id":"cebpf4jnsgd1na2vs0mg"},{"bike_id":"d09aedb3-0212-456b-a0d7-0a019f75665d","system_id":"levelo_inurba_marseille","lat":43.23155,"lon":5.43696,"is_reserved":false,"is_disabled":false,"rental_uris":{"android":"levelo://app?vid=d09aedb3-0212-456b-a0d7-0a019f75665d","ios":"levelo://app?vid=d09aedb3-0212-456b-a0d7-0a019f75665d"},"vehicle_type_id":"4","last_reported":1726409238,"current_range_meters":40000,"station_id":"ce4bhmp2rcd13ifvqgog","pricing_plan_id":"cebpf4jnsgd1na2vs0mg"},{"bike_id":"2a29b635-860d-4fcf-b9ef-7b9429843b40","system_id":"levelo_inurba_marseille","lat":43.31724,"lon":5.42394,"is_reserved":false,"is_disabled":false,"rental_uris":{"android":"levelo://app?vid=2a29b635-860d-4fcf-b9ef-7b9429843b40","ios":"levelo://app?vid=2a29b635-860d-4fcf-b9ef-7b9429843b40"},"vehicle_type_id":"4","last_reported":1726409238,"current_range_meters":37600,"station_id":"ce4bhp92rcd13ifvqhbg","pricing_plan_id":"cebpf4jnsgd1na2vs0mg"},{"bike_id":"f2548a14-4115-4c79-8b7d-1ff392dd4ff5","system_id":"levelo_inurba_marseille","lat":43.28157,"lon":5.42638,"is_reserved":false,"is_disabled":false,"rental_uris":{"android":"levelo://app?vid=f2548a14-4115-4c79-8b7d-1ff392dd4ff5","ios":"levelo://app?vid=f2548a14-4115-4c79-8b7d-1ff392dd4ff5"},"vehicle_type_id":"4","last_reported":1726409238,"current_range_meters":8000,"station_id":"ce4bhnh2rcd13ifvqgug","pricing_plan_id":"cebpf4jnsgd1na2vs0mg"},{"bike_id":"5fb80b9c-4c90-47a0-bb0f-a0abc69b22ef","system_id":"levelo_inurba_marseille","lat":43.28933,"lon":5.36643,"is_reserved":false,"is_disabled":false,"rental_uris":{"android":"levelo://app?vid=5fb80b9c-4c90-47a0-bb0f-a0abc69b22ef","ios":"levelo://app?vid=5fb80b9c-4c90-47a0-bb0f-a0abc69b22ef"},"vehicle_type_id":"4","last_reported":1726409238,"current_range_meters":6800,"station_id":"ce4bhap2rcd13ifvqek0","pricing_plan_id":"cebpf4jnsgd1na2vs0mg"},{"bike_id":"bff4cf33-5a86-409f-97ed-7b31d5da6034","system_id":"levelo_inurba_marseille","lat":43.337388,"lon":5.391871,"is_reserved":false,"is_disabled":false,"rental_uris":{"android":"levelo://app?vid=bff4cf33-5a86-409f-97ed-7b31d5da6034","ios":"levelo://app?vid=bff4cf33-5a86-409f-97ed-7b31d5da6034"},"vehicle_type_id":"4","last_reported":1726409238,"current_range_meters":20000,"station_id":"ce4bhr92rcd13ifvqhsg","pricing_plan_id":"cebpf4jnsgd1na2vs0mg"},{"bike_id":"a2a7dd1b-4d18-45d5-adf0-8780a47f4629","system_id":"levelo_inurba_marseille","lat":43.28152,"lon":5.42632,"is_reserved":false,"is_disabled":false,"rental_uris":{"android":"levelo://app?vid=a2a7dd1b-4d18-45d5-adf0-8780a47f4629","ios":"levelo://app?vid=a2a7dd1b-4d18-45d5-adf0-8780a47f4629"},"vehicle_type_id":"4","last_reported":1726409238,"current_range_meters":12800,"station_id":"ce4bhnh2rcd13ifvqgug","pricing_plan_id":"cebpf4jnsgd1na2vs0mg"},{"bike_id":"3bf4f345-785f-4250-9598-3134627dbb3c","system_id":"levelo_inurba_marseille","lat":43.2797,"lon":5.38727,"is_reserved":false,"is_disabled":false,"rental_uris":{"android":"levelo://app?vid=3bf4f345-785f-4250-9598-3134627dbb3c","ios":"levelo://app?vid=3bf4f345-785f-4250-9598-3134627dbb3c"},"vehicle_type_id":"4","last_reported":1726409238,"current_range_meters":3600,"station_id":"ce4bhg12rcd13ifvqf80","pricing_plan_id":"cebpf4jnsgd1na2vs0mg"},{"bike_id":"0476ba3c-af0c-4ce8-a617-bfc26d950ac2","system_id":"levelo_inurba_marseille","lat":43.28352,"lon":5.381,"is_reserved":false,"is_disabled":false,"rental_uris":{"android":"levelo://app?vid=0476ba3c-af0c-4ce8-a617-bfc26d950ac2","ios":"levelo://app?vid=0476ba3c-af0c-4ce8-a617-bfc26d950ac2"},"vehicle_type_id":"4","last_reported":1726409238,"current_range_meters":9200,"station_id":"ce4bh412rcd13ifvqdr0","pricing_plan_id":"cebpf4jnsgd1na2vs0mg"},{"bike_id":"e10be429-cf8f-490f-9d4d-c0e8de5b3b2a","system_id":"levelo_inurba_marseille","lat":43.31361,"lon":5.38491,"is_reserved":false,"is_disabled":false,"rental_uris":{"android":"levelo://app?vid=e10be429-cf8f-490f-9d4d-c0e8de5b3b2a","ios":"levelo://app?vid=e10be429-cf8f-490f-9d4d-c0e8de5b3b2a"},"vehicle_type_id":"4","last_reported":1726409238,"current_range_meters":21600,"station_id":"ce4bgt92rcd13ifvqcf0","pricing_plan_id":"cebpf4jnsgd1na2vs0mg"},{"bike_id":"61e00977-be43-400f-99ea-3c33330f7657","system_id":"levelo_inurba_marseille","lat":43.25007,"lon":5.38914,"is_reserved":false,"is_disabled":false,"rental_uris":{"android":"levelo://app?vid=61e00977-be43-400f-99ea-3c33330f7657","ios":"levelo://app?vid=61e00977-be43-400f-99ea-3c33330f7657"},"vehicle_type_id":"4","last_reported":1726409238,"current_range_meters":14000,"station_id":"ce4bhgp2rcd13ifvqfd0","pricing_plan_id":"cebpf4jnsgd1na2vs0mg"},{"bike_id":"d1f38fcd-be46-4877-a9ac-34b365272c30","system_id":"levelo_inurba_marseille","lat":43.27102,"lon":5.43322,"is_reserved":false,"is_disabled":false,"rental_uris":{"android":"levelo://app?vid=d1f38fcd-be46-4877-a9ac-34b365272c30","ios":"levelo://app?vid=d1f38fcd-be46-4877-a9ac-34b365272c30"},"vehicle_type_id":"4","last_reported":1726409238,"current_range_meters":15200,"station_id":"","pricing_plan_id":"cebpf4jnsgd1na2vs0mg"},{"bike_id":"51553d02-cfa3-422a-9c2d-df382252b3ea","system_id":"levelo_inurba_marseille","lat":43.28262,"lon":5.35065,"is_reserved":false,"is_disabled":false,"rental_uris":{"android":"levelo://app?vid=51553d02-cfa3-422a-9c2d-df382252b3ea","ios":"levelo://app?vid=51553d02-cfa3-422a-9c2d-df382252b3ea"},"vehicle_type_id":"4","last_reported":1726409238,"current_range_meters":14400,"station_id":"ce4bhbp2rcd13ifvqerg","pricing_plan_id":"cebpf4jnsgd1na2vs0mg"},{"bike_id":"2c36f173-7fe7-45a3-b0b4-69fddd6ecd2c","system_id":"levelo_inurba_marseille","lat":43.2762,"lon":5.36105,"is_reserved":false,"is_disabled":false,"rental_uris":{"android":"levelo://app?vid=2c36f173-7fe7-45a3-b0b4-69fddd6ecd2c","ios":"levelo://app?vid=2c36f173-7fe7-45a3-b0b4-69fddd6ecd2c"},"vehicle_type_id":"4","last_reported":1726409238,"current_range_meters":18800,"station_id":"ce4bgj92rcd13ifvqbe0","pricing_plan_id":"cebpf4jnsgd1na2vs0mg"},{"bike_id":"a62f319d-a0b3-4a8f-9809-24b9661da7c1","system_id":"levelo_inurba_marseille","lat":43.28422,"lon":5.34988,"is_reserved":false,"is_disabled":false,"rental_uris":{"android":"levelo://app?vid=a62f319d-a0b3-4a8f-9809-24b9661da7c1","ios":"levelo://app?vid=a62f319d-a0b3-4a8f-9809-24b9661da7c1"},"vehicle_type_id":"4","last_reported":1726409238,"current_range_meters":38800,"station_id":"ce4bhbh2rcd13ifvqepg","pricing_plan_id":"cebpf4jnsgd1na2vs0mg"},{"bike_id":"46492db6-e15b-4d8b-8244-fe4f6cfe1a7f","system_id":"levelo_inurba_marseille","lat":43.28411,"lon":5.34982,"is_reserved":false,"is_disabled":false,"rental_uris":{"android":"levelo://app?vid=46492db6-e15b-4d8b-8244-fe4f6cfe1a7f","ios":"levelo://app?vid=46492db6-e15b-4d8b-8244-fe4f6cfe1a7f"},"vehicle_type_id":"4","last_reported":1726409238,"current_range_meters":38800,"station_id":"ce4bhbh2rcd13ifvqepg","pricing_plan_id":"cebpf4jnsgd1na2vs0mg"},{"bike_id":"f9076aec-56e7-4b2e-a7b1-575337aca9d5","system_id":"levelo_inurba_marseille","lat":43.24173,"lon":5.36395,"is_reserved":false,"is_disabled":false,"rental_uris":{"android":"levelo://app?vid=f9076aec-56e7-4b2e-a7b1-575337aca9d5","ios":"levelo://app?vid=f9076aec-56e7-4b2e-a7b1-575337aca9d5"},"vehicle_type_id":"4","last_reported":1726409238,"current_range_meters":28000,"station_id":"cpo36qri1sfpv3e86is0","pricing_plan_id":"cebpf4jnsgd1na2vs0mg"},{"bike_id":"d6f92d11-5fcc-4395-bd2d-ac45de78b477","system_id":"levelo_inurba_marseille","lat":43.25584,"lon":5.38224,"is_reserved":false,"is_disabled":false,"rental_uris":{"android":"levelo://app?vid=d6f92d11-5fcc-4395-bd2d-ac45de78b477","ios":"levelo://app?vid=d6f92d11-5fcc-4395-bd2d-ac45de78b477"},"vehicle_type_id":"4","last_reported":1726409238,"current_range_meters":6800,"station_id":"ce4bhih2rcd13ifvqfs0","pricing_plan_id":"cebpf4jnsgd1na2vs0mg"},{"bike_id":"91f7e9e5-076e-4e3a-8acf-289dc20e3d9f","system_id":"levelo_inurba_marseille","lat":43.31724,"lon":5.42399,"is_reserved":false,"is_disabled":false,"rental_uris":{"android":"levelo://app?vid=91f7e9e5-076e-4e3a-8acf-289dc20e3d9f","ios":"levelo://app?vid=91f7e9e5-076e-4e3a-8acf-289dc20e3d9f"},"vehicle_type_id":"4","last_reported":1726409238,"current_range_meters":36800,"station_id":"ce4bhp92rcd13ifvqhbg","pricing_plan_id":"cebpf4jnsgd1na2vs0mg"},{"bike_id":"3a83f741-3d2c-4d73-a9d9-a8e0fd306978","system_id":"levelo_inurba_marseille","lat":43.254913,"lon":5.376447,"is_reserved":false,"is_disabled":false,"rental_uris":{"android":"levelo://app?vid=3a83f741-3d2c-4d73-a9d9-a8e0fd306978","ios":"levelo://app?vid=3a83f741-3d2c-4d73-a9d9-a8e0fd306978"},"vehicle_type_id":"4","last_reported":1726409238,"current_range_meters":36800,"station_id":"ce4bhh12rcd13ifvqff0","pricing_plan_id":"cebpf4jnsgd1na2vs0mg"},{"bike_id":"d4dcec5a-b0b6-4319-8584-aaf3103d153c","system_id":"levelo_inurba_marseille","lat":43.29562,"lon":5.42276,"is_reserved":false,"is_disabled":false,"rental_uris":{"android":"levelo://app?vid=d4dcec5a-b0b6-4319-8584-aaf3103d153c","ios":"levelo://app?vid=d4dcec5a-b0b6-4319-8584-aaf3103d153c"},"vehicle_type_id":"4","last_reported":1726409238,"current_range_meters":35600,"station_id":"ce4bhph2rcd13ifvqhdg","pricing_plan_id":"cebpf4jnsgd1na2vs0mg"},{"bike_id":"11e8f606-9ccc-41b2-9c52-d4912588d872","system_id":"levelo_inurba_marseille","lat":43.31491,"lon":5.37308,"is_reserved":false,"is_disabled":false,"rental_uris":{"android":"levelo://app?vid=11e8f606-9ccc-41b2-9c52-d4912588d872","ios":"levelo://app?vid=11e8f606-9ccc-41b2-9c52-d4912588d872"},"vehicle_type_id":"4","last_reported":1726409238,"current_range_meters":9200,"station_id":"ce4bgt12rcd13ifvqcd0","pricing_plan_id":"cebpf4jnsgd1na2vs0mg"},{"bike_id":"f3f74a65-5ee1-4528-b8c4-c9269e3777d3","system_id":"levelo_inurba_marseille","lat":43.27501,"lon":5.42447,"is_reserved":false,"is_disabled":false,"rental_uris":{"android":"levelo://app?vid=f3f74a65-5ee1-4528-b8c4-c9269e3777d3","ios":"levelo://app?vid=f3f74a65-5ee1-4528-b8c4-c9269e3777d3"},"vehicle_type_id":"4","last_reported":1726409238,"current_range_meters":14400,"station_id":"ce4bhn92rcd13ifvqgrg","pricing_plan_id":"cebpf4jnsgd1na2vs0mg"},{"bike_id":"5263c75a-b0ca-4e1c-9976-2df708ba914c","system_id":"levelo_inurba_marseille","lat":43.29561,"lon":5.42287,"is_reserved":false,"is_disabled":false,"rental_uris":{"android":"levelo://app?vid=5263c75a-b0ca-4e1c-9976-2df708ba914c","ios":"levelo://app?vid=5263c75a-b0ca-4e1c-9976-2df708ba914c"},"vehicle_type_id":"4","last_reported":1726409238,"current_range_meters":11200,"station_id":"ce4bhph2rcd13ifvqhdg","pricing_plan_id":"cebpf4jnsgd1na2vs0mg"},{"bike_id":"4caca831-68f0-425a-aa32-3f2a4f7ad96f","system_id":"levelo_inurba_marseille","lat":43.28709,"lon":5.39984,"is_reserved":false,"is_disabled":false,"rental_uris":{"android":"levelo://app?vid=4caca831-68f0-425a-aa32-3f2a4f7ad96f","ios":"levelo://app?vid=4caca831-68f0-425a-aa32-3f2a4f7ad96f"},"vehicle_type_id":"4","last_reported":1726409238,"current_range_meters":38400,"station_id":"ce4bho92rcd13ifvqh3g","pricing_plan_id":"cebpf4jnsgd1na2vs0mg"},{"bike_id":"76ff0847-3ecf-4ddf-aa85-eff8ebe3c56e","system_id":"levelo_inurba_marseille","lat":43.28102,"lon":5.37842,"is_reserved":false,"is_disabled":false,"rental_uris":{"android":"levelo://app?vid=76ff0847-3ecf-4ddf-aa85-eff8ebe3c56e","ios":"levelo://app?vid=76ff0847-3ecf-4ddf-aa85-eff8ebe3c56e"},"vehicle_type_id":"4","last_reported":1726409238,"current_range_meters":14400,"station_id":"ce4bha12rcd13ifvqee0","pricing_plan_id":"cebpf4jnsgd1na2vs0mg"},{"bike_id":"3e76e1e0-f4b1-4633-bdd5-f924aeb6f601","system_id":"levelo_inurba_marseille","lat":43.2408,"lon":5.3775,"is_reserved":false,"is_disabled":false,"rental_uris":{"android":"levelo://app?vid=3e76e1e0-f4b1-4633-bdd5-f924aeb6f601","ios":"levelo://app?vid=3e76e1e0-f4b1-4633-bdd5-f924aeb6f601"},"vehicle_type_id":"4","last_reported":1726409238,"current_range_meters":30000,"station_id":"ce4bhnp2rcd13ifvqgvg","pricing_plan_id":"cebpf4jnsgd1na2vs0mg"},{"bike_id":"322d527e-45c0-4a00-adc7-59648a5fea3e","system_id":"levelo_inurba_marseille","lat":43.231872,"lon":5.355468,"is_reserved":false,"is_disabled":false,"rental_uris":{"android":"levelo://app?vid=322d527e-45c0-4a00-adc7-59648a5fea3e","ios":"levelo://app?vid=322d527e-45c0-4a00-adc7-59648a5fea3e"},"vehicle_type_id":"4","last_reported":1726409238,"current_range_meters":32400,"station_id":"ce4bhu92rcd13ifvqi70","pricing_plan_id":"cebpf4jnsgd1na2vs0mg"},{"bike_id":"93678763-4333-4af4-a349-b34d9f12786d","system_id":"levelo_inurba_marseille","lat":43.2293,"lon":5.35376,"is_reserved":false,"is_disabled":false,"rental_uris":{"android":"levelo://app?vid=93678763-4333-4af4-a349-b34d9f12786d","ios":"levelo://app?vid=93678763-4333-4af4-a349-b34d9f12786d"},"vehicle_type_id":"4","last_reported":1726409238,"current_range_meters":31200,"station_id":"cpo3532slgdg3j2ikp40","pricing_plan_id":"cebpf4jnsgd1na2vs0mg"},{"bike_id":"ad6f2a99-5e7d-421c-91df-6e2b2cbbd548","system_id":"levelo_inurba_marseille","lat":43.29558,"lon":5.42276,"is_reserved":false,"is_disabled":false,"rental_uris":{"android":"levelo://app?vid=ad6f2a99-5e7d-421c-91df-6e2b2cbbd548","ios":"levelo://app?vid=ad6f2a99-5e7d-421c-91df-6e2b2cbbd548"},"vehicle_type_id":"4","last_reported":1726409238,"current_range_meters":26800,"station_id":"ce4bhph2rcd13ifvqhdg","pricing_plan_id":"cebpf4jnsgd1na2vs0mg"},{"bike_id":"e697fa6c-66d7-4881-86f5-3551b834ed7c","system_id":"levelo_inurba_marseille","lat":43.28619,"lon":5.35103,"is_reserved":false,"is_disabled":false,"rental_uris":{"android":"levelo://app?vid=e697fa6c-66d7-4881-86f5-3551b834ed7c","ios":"levelo://app?vid=e697fa6c-66d7-4881-86f5-3551b834ed7c"},"vehicle_type_id":"4","last_reported":1726409238,"current_range_meters":26000,"station_id":"ce4bhch2rcd13ifvqeug","pricing_plan_id":"cebpf4jnsgd1na2vs0mg"},{"bike_id":"cd6a8b25-7579-4518-8405-4dfcfc49b7a1","system_id":"levelo_inurba_marseille","lat":43.317,"lon":5.37744,"is_reserved":false,"is_disabled":false,"rental_uris":{"android":"levelo://app?vid=cd6a8b25-7579-4518-8405-4dfcfc49b7a1","ios":"levelo://app?vid=cd6a8b25-7579-4518-8405-4dfcfc49b7a1"},"vehicle_type_id":"4","last_reported":1726409238,"current_range_meters":27600,"station_id":"ce4bgth2rcd13ifvqch0","pricing_plan_id":"cebpf4jnsgd1na2vs0mg"},{"bike_id":"c840fd26-2b17-45a9-aac9-92d3f1ce47b3","system_id":"levelo_inurba_marseille","lat":43.23212,"lon":5.35551,"is_reserved":false,"is_disabled":false,"rental_uris":{"android":"levelo://app?vid=c840fd26-2b17-45a9-aac9-92d3f1ce47b3","ios":"levelo://app?vid=c840fd26-2b17-45a9-aac9-92d3f1ce47b3"},"vehicle_type_id":"4","last_reported":1726409238,"current_range_meters":22800,"station_id":"ce4bhu92rcd13ifvqi70","pricing_plan_id":"cebpf4jnsgd1na2vs0mg"},{"bike_id":"4db921f2-bc23-49f4-8a24-f619c1eace61","system_id":"levelo_inurba_marseille","lat":43.23196,"lon":5.35542,"is_reserved":false,"is_disabled":false,"rental_uris":{"android":"levelo://app?vid=4db921f2-bc23-49f4-8a24-f619c1eace61","ios":"levelo://app?vid=4db921f2-bc23-49f4-8a24-f619c1eace61"},"vehicle_type_id":"4","last_reported":1726409238,"current_range_meters":22800,"station_id":"ce4bhu92rcd13ifvqi70","pricing_plan_id":"cebpf4jnsgd1na2vs0mg"},{"bike_id":"7185ed72-0f90-4a55-97ce-d4341163a2af","system_id":"levelo_inurba_marseille","lat":43.29555,"lon":5.42288,"is_reserved":false,"is_disabled":false,"rental_uris":{"android":"levelo://app?vid=7185ed72-0f90-4a55-97ce-d4341163a2af","ios":"levelo://app?vid=7185ed72-0f90-4a55-97ce-d4341163a2af"},"vehicle_type_id":"4","last_reported":1726409238,"current_range_meters":13600,"station_id":"ce4bhph2rcd13ifvqhdg","pricing_plan_id":"cebpf4jnsgd1na2vs0mg"},{"bike_id":"328d45f9-980e-4811-97c0-47d761861509","system_id":"levelo_inurba_marseille","lat":43.29847,"lon":5.37836,"is_reserved":false,"is_disabled":false,"rental_uris":{"android":"levelo://app?vid=328d45f9-980e-4811-97c0-47d761861509","ios":"levelo://app?vid=328d45f9-980e-4811-97c0-47d761861509"},"vehicle_type_id":"4","last_reported":1726409238,"current_range_meters":27600,"station_id":"ce4bgkh2rcd13ifvqbl0","pricing_plan_id":"cebpf4jnsgd1na2vs0mg"},{"bike_id":"3b51f764-c75e-47b9-9ce2-0fdae7022f59","system_id":"levelo_inurba_marseille","lat":43.24824,"lon":5.39216,"is_reserved":false,"is_disabled":false,"rental_uris":{"android":"levelo://app?vid=3b51f764-c75e-47b9-9ce2-0fdae7022f59","ios":"levelo://app?vid=3b51f764-c75e-47b9-9ce2-0fdae7022f59"},"vehicle_type_id":"4","last_reported":1726409238,"current_range_meters":3600,"station_id":"","pricing_plan_id":"cebpf4jnsgd1na2vs0mg"},{"bike_id":"e4d7ed5f-898c-4b81-a4b1-273fa3cb1d88","system_id":"levelo_inurba_marseille","lat":43.27569,"lon":5.38406,"is_reserved":false,"is_disabled":false,"rental_uris":{"android":"levelo://app?vid=e4d7ed5f-898c-4b81-a4b1-273fa3cb1d88","ios":"levelo://app?vid=e4d7ed5f-898c-4b81-a4b1-273fa3cb1d88"},"vehicle_type_id":"4","last_reported":1726409238,"current_range_meters":15200,"station_id":"ce4bhh92rcd13ifvqfi0","pricing_plan_id":"cebpf4jnsgd1na2vs0mg"},{"bike_id":"faf816e6-4e87-4e93-88d4-5861eae33b5c","system_id":"levelo_inurba_marseille","lat":43.24078,"lon":5.3775,"is_reserved":false,"is_disabled":false,"rental_uris":{"android":"levelo://app?vid=faf816e6-4e87-4e93-88d4-5861eae33b5c","ios":"levelo://app?vid=faf816e6-4e87-4e93-88d4-5861eae33b5c"},"vehicle_type_id":"4","last_reported":1726409238,"current_range_meters":26000,"station_id":"ce4bhnp2rcd13ifvqgvg","pricing_plan_id":"cebpf4jnsgd1na2vs0mg"},{"bike_id":"9b622166-609b-42e3-a193-9f9652982890","system_id":"levelo_inurba_marseille","lat":43.31715,"lon":5.43698,"is_reserved":false,"is_disabled":false,"rental_uris":{"android":"levelo://app?vid=9b622166-609b-42e3-a193-9f9652982890","ios":"levelo://app?vid=9b622166-609b-42e3-a193-9f9652982890"},"vehicle_type_id":"4","last_reported":1726409238,"current_range_meters":38000,"station_id":"ce4bhp92rcd13ifvqhcg","pricing_plan_id":"cebpf4jnsgd1na2vs0mg"},{"bike_id":"7e512072-6c2f-4e40-a9d3-1a66b836f80e","system_id":"levelo_inurba_marseille","lat":43.28282,"lon":5.35068,"is_reserved":false,"is_disabled":false,"rental_uris":{"android":"levelo://app?vid=7e512072-6c2f-4e40-a9d3-1a66b836f80e","ios":"levelo://app?vid=7e512072-6c2f-4e40-a9d3-1a66b836f80e"},"vehicle_type_id":"4","last_reported":1726409238,"current_range_meters":38800,"station_id":"ce4bhbp2rcd13ifvqerg","pricing_plan_id":"cebpf4jnsgd1na2vs0mg"},{"bike_id":"8f3df919-1ce5-4585-9bba-ccfce7ca3b28","system_id":"levelo_inurba_marseille","lat":43.31755,"lon":5.39008,"is_reserved":false,"is_disabled":false,"rental_uris":{"android":"levelo://app?vid=8f3df919-1ce5-4585-9bba-ccfce7ca3b28","ios":"levelo://app?vid=8f3df919-1ce5-4585-9bba-ccfce7ca3b28"},"vehicle_type_id":"4","last_reported":1726409238,"current_range_meters":34000,"station_id":"ce4bhqp2rcd13ifvqhng","pricing_plan_id":"cebpf4jnsgd1na2vs0mg"},{"bike_id":"8b608b96-fedf-4511-8d4b-09bad2606e1a","system_id":"levelo_inurba_marseille","lat":43.27725,"lon":5.41127,"is_reserved":false,"is_disabled":false,"rental_uris":{"android":"levelo://app?vid=8b608b96-fedf-4511-8d4b-09bad2606e1a","ios":"levelo://app?vid=8b608b96-fedf-4511-8d4b-09bad2606e1a"},"vehicle_type_id":"4","last_reported":1726409238,"current_range_meters":20800,"station_id":"","pricing_plan_id":"cebpf4jnsgd1na2vs0mg"},{"bike_id":"ca7c1f41-bd6a-4c13-949f-4ef0a14fd781","system_id":"levelo_inurba_marseille","lat":43.28157,"lon":5.42638,"is_reserved":false,"is_disabled":false,"rental_uris":{"android":"levelo://app?vid=ca7c1f41-bd6a-4c13-949f-4ef0a14fd781","ios":"levelo://app?vid=ca7c1f41-bd6a-4c13-949f-4ef0a14fd781"},"vehicle_type_id":"4","last_reported":1726409238,"current_range_meters":26000,"station_id":"ce4bhnh2rcd13ifvqgug","pricing_plan_id":"cebpf4jnsgd1na2vs0mg"},{"bike_id":"d6149948-cc69-48c8-b75f-51b423ee5546","system_id":"levelo_inurba_marseille","lat":43.31168,"lon":5.39353,"is_reserved":false,"is_disabled":false,"rental_uris":{"android":"levelo://app?vid=d6149948-cc69-48c8-b75f-51b423ee5546","ios":"levelo://app?vid=d6149948-cc69-48c8-b75f-51b423ee5546"},"vehicle_type_id":"4","last_reported":1726409238,"current_range_meters":27200,"station_id":"","pricing_plan_id":"cebpf4jnsgd1na2vs0mg"},{"bike_id":"fa2b0a9f-66ad-4cd1-b7bb-93b9cffdc904","system_id":"levelo_inurba_marseille","lat":43.25931,"lon":5.40906,"is_reserved":false,"is_disabled":false,"rental_uris":{"android":"levelo://app?vid=fa2b0a9f-66ad-4cd1-b7bb-93b9cffdc904","ios":"levelo://app?vid=fa2b0a9f-66ad-4cd1-b7bb-93b9cffdc904"},"vehicle_type_id":"4","last_reported":1726409238,"current_range_meters":32800,"station_id":"ce4bhm92rcd13ifvqglg","pricing_plan_id":"cebpf4jnsgd1na2vs0mg"},{"bike_id":"649da59b-0d8e-4354-a5ec-a75a5e4320c1","system_id":"levelo_inurba_marseille","lat":43.22932,"lon":5.35375,"is_reserved":false,"is_disabled":false,"rental_uris":{"android":"levelo://app?vid=649da59b-0d8e-4354-a5ec-a75a5e4320c1","ios":"levelo://app?vid=649da59b-0d8e-4354-a5ec-a75a5e4320c1"},"vehicle_type_id":"4","last_reported":1726409238,"current_range_meters":14000,"station_id":"cpo3532slgdg3j2ikp40","pricing_plan_id":"cebpf4jnsgd1na2vs0mg"},{"bike_id":"d2ca61ed-07b0-4f91-990e-b98a38e76d1b","system_id":"levelo_inurba_marseille","lat":43.24069,"lon":5.37748,"is_reserved":false,"is_disabled":false,"rental_uris":{"android":"levelo://app?vid=d2ca61ed-07b0-4f91-990e-b98a38e76d1b","ios":"levelo://app?vid=d2ca61ed-07b0-4f91-990e-b98a38e76d1b"},"vehicle_type_id":"4","last_reported":1726409238,"current_range_meters":12000,"station_id":"ce4bhnp2rcd13ifvqgvg","pricing_plan_id":"cebpf4jnsgd1na2vs0mg"},{"bike_id":"be3580cc-5597-48ff-bbfe-6a25fd4800e2","system_id":"levelo_inurba_marseille","lat":43.31728,"lon":5.4239,"is_reserved":false,"is_disabled":false,"rental_uris":{"android":"levelo://app?vid=be3580cc-5597-48ff-bbfe-6a25fd4800e2","ios":"levelo://app?vid=be3580cc-5597-48ff-bbfe-6a25fd4800e2"},"vehicle_type_id":"4","last_reported":1726409238,"current_range_meters":39200,"station_id":"ce4bhp92rcd13ifvqhbg","pricing_plan_id":"cebpf4jnsgd1na2vs0mg"},{"bike_id":"03dd0fcd-c413-43d9-9706-698be86ebf1a","system_id":"levelo_inurba_marseille","lat":43.23968,"lon":5.36623,"is_reserved":false,"is_disabled":false,"rental_uris":{"android":"levelo://app?vid=03dd0fcd-c413-43d9-9706-698be86ebf1a","ios":"levelo://app?vid=03dd0fcd-c413-43d9-9706-698be86ebf1a"},"vehicle_type_id":"4","last_reported":1726409238,"current_range_meters":14800,"station_id":"ce4bhi12rcd13ifvqfp0","pricing_plan_id":"cebpf4jnsgd1na2vs0mg"},{"bike_id":"821e8890-965b-4bdc-a425-889116206a64","system_id":"levelo_inurba_marseille","lat":43.30887,"lon":5.39647,"is_reserved":false,"is_disabled":false,"rental_uris":{"android":"levelo://app?vid=821e8890-965b-4bdc-a425-889116206a64","ios":"levelo://app?vid=821e8890-965b-4bdc-a425-889116206a64"},"vehicle_type_id":"4","last_reported":1726409238,"current_range_meters":33200,"station_id":"ce4bh012rcd13ifvqcv0","pricing_plan_id":"cebpf4jnsgd1na2vs0mg"},{"bike_id":"4272a16d-cdfc-479f-ba51-8d91a8461f8e","system_id":"levelo_inurba_marseille","lat":43.28417,"lon":5.34996,"is_reserved":false,"is_disabled":false,"rental_uris":{"android":"levelo://app?vid=4272a16d-cdfc-479f-ba51-8d91a8461f8e","ios":"levelo://app?vid=4272a16d-cdfc-479f-ba51-8d91a8461f8e"},"vehicle_type_id":"4","last_reported":1726409238,"current_range_meters":13600,"station_id":"ce4bhbh2rcd13ifvqepg","pricing_plan_id":"cebpf4jnsgd1na2vs0mg"},{"bike_id":"369f4b3c-77ce-4b0c-98e9-a6ca210b2917","system_id":"levelo_inurba_marseille","lat":43.281803,"lon":5.425862,"is_reserved":false,"is_disabled":false,"rental_uris":{"android":"levelo://app?vid=369f4b3c-77ce-4b0c-98e9-a6ca210b2917","ios":"levelo://app?vid=369f4b3c-77ce-4b0c-98e9-a6ca210b2917"},"vehicle_type_id":"4","last_reported":1726409238,"current_range_meters":34800,"station_id":"ce4bhk92rcd13ifvqgb0","pricing_plan_id":"cebpf4jnsgd1na2vs0mg"},{"bike_id":"f1e8ceee-9573-4b77-ab79-482d0d3b70cc","system_id":"levelo_inurba_marseille","lat":43.24175,"lon":5.3639,"is_reserved":false,"is_disabled":false,"rental_uris":{"android":"levelo://app?vid=f1e8ceee-9573-4b77-ab79-482d0d3b70cc","ios":"levelo://app?vid=f1e8ceee-9573-4b77-ab79-482d0d3b70cc"},"vehicle_type_id":"4","last_reported":1726409238,"current_range_meters":35600,"station_id":"cpo36qri1sfpv3e86is0","pricing_plan_id":"cebpf4jnsgd1na2vs0mg"},{"bike_id":"224b120b-b6f0-4dc8-9058-32fbc1b34d02","system_id":"levelo_inurba_marseille","lat":43.28425,"lon":5.37494,"is_reserved":false,"is_disabled":false,"rental_uris":{"android":"levelo://app?vid=224b120b-b6f0-4dc8-9058-32fbc1b34d02","ios":"levelo://app?vid=224b120b-b6f0-4dc8-9058-32fbc1b34d02"},"vehicle_type_id":"4","last_reported":1726409238,"current_range_meters":2800,"station_id":"ce4bh412rcd13ifvqds0","pricing_plan_id":"cebpf4jnsgd1na2vs0mg"},{"bike_id":"198681c2-33e7-4f7e-954a-858b44b8be26","system_id":"levelo_inurba_marseille","lat":43.29269,"lon":5.38448,"is_reserved":false,"is_disabled":false,"rental_uris":{"android":"levelo://app?vid=198681c2-33e7-4f7e-954a-858b44b8be26","ios":"levelo://app?vid=198681c2-33e7-4f7e-954a-858b44b8be26"},"vehicle_type_id":"4","last_reported":1726409238,"current_range_meters":35600,"station_id":"ce4bh692rcd13ifvqea0","pricing_plan_id":"cebpf4jnsgd1na2vs0mg"},{"bike_id":"06b51fdb-e3bd-409e-b72d-8898e2e17bc2","system_id":"levelo_inurba_marseille","lat":43.2827,"lon":5.35064,"is_reserved":false,"is_disabled":false,"rental_uris":{"android":"levelo://app?vid=06b51fdb-e3bd-409e-b72d-8898e2e17bc2","ios":"levelo://app?vid=06b51fdb-e3bd-409e-b72d-8898e2e17bc2"},"vehicle_type_id":"4","last_reported":1726409238,"current_range_meters":33200,"station_id":"ce4bhbp2rcd13ifvqerg","pricing_plan_id":"cebpf4jnsgd1na2vs0mg"},{"bike_id":"3446d9d8-c009-4196-a8d7-cf903e9bff81","system_id":"levelo_inurba_marseille","lat":43.24816,"lon":5.37457,"is_reserved":false,"is_disabled":false,"rental_uris":{"android":"levelo://app?vid=3446d9d8-c009-4196-a8d7-cf903e9bff81","ios":"levelo://app?vid=3446d9d8-c009-4196-a8d7-cf903e9bff81"},"vehicle_type_id":"4","last_reported":1726409238,"current_range_meters":2800,"station_id":"ce4bhgh2rcd13ifvqfb0","pricing_plan_id":"cebpf4jnsgd1na2vs0mg"},{"bike_id":"42697fbd-f736-4094-a7ac-5c78a5478024","system_id":"levelo_inurba_marseille","lat":43.23058,"lon":5.35489,"is_reserved":false,"is_disabled":false,"rental_uris":{"android":"levelo://app?vid=42697fbd-f736-4094-a7ac-5c78a5478024","ios":"levelo://app?vid=42697fbd-f736-4094-a7ac-5c78a5478024"},"vehicle_type_id":"4","last_reported":1726409238,"current_range_meters":30800,"station_id":"cpo3342slgdg3j2ifvpg","pricing_plan_id":"cebpf4jnsgd1na2vs0mg"},{"bike_id":"4baefb96-4480-4c2a-98c4-5150a538e2b0","system_id":"levelo_inurba_marseille","lat":43.24174,"lon":5.39727,"is_reserved":false,"is_disabled":false,"rental_uris":{"android":"levelo://app?vid=4baefb96-4480-4c2a-98c4-5150a538e2b0","ios":"levelo://app?vid=4baefb96-4480-4c2a-98c4-5150a538e2b0"},"vehicle_type_id":"4","last_reported":1726409238,"current_range_meters":3200,"station_id":"ce4bhn12rcd13ifvqgpg","pricing_plan_id":"cebpf4jnsgd1na2vs0mg"},{"bike_id":"4618903b-2621-420e-a388-e402df25caf6","system_id":"levelo_inurba_marseille","lat":43.262101,"lon":5.374401,"is_reserved":false,"is_disabled":false,"rental_uris":{"android":"levelo://app?vid=4618903b-2621-420e-a388-e402df25caf6","ios":"levelo://app?vid=4618903b-2621-420e-a388-e402df25caf6"},"vehicle_type_id":"4","last_reported":1726409238,"current_range_meters":22000,"station_id":"ce4bhgp2rcd13ifvqfc0","pricing_plan_id":"cebpf4jnsgd1na2vs0mg"},{"bike_id":"0e5a3bf8-e7be-4e70-aca4-d97d6e03c7dd","system_id":"levelo_inurba_marseille","lat":43.33023,"lon":5.39046,"is_reserved":false,"is_disabled":false,"rental_uris":{"android":"levelo://app?vid=0e5a3bf8-e7be-4e70-aca4-d97d6e03c7dd","ios":"levelo://app?vid=0e5a3bf8-e7be-4e70-aca4-d97d6e03c7dd"},"vehicle_type_id":"4","last_reported":1726409238,"current_range_meters":22400,"station_id":"ce4bhr92rcd13ifvqhrg","pricing_plan_id":"cebpf4jnsgd1na2vs0mg"},{"bike_id":"d9b6a4ab-cc21-4f3a-b9fb-e76e8bfef99d","system_id":"levelo_inurba_marseille","lat":43.28418,"lon":5.34982,"is_reserved":false,"is_disabled":false,"rental_uris":{"android":"levelo://app?vid=d9b6a4ab-cc21-4f3a-b9fb-e76e8bfef99d","ios":"levelo://app?vid=d9b6a4ab-cc21-4f3a-b9fb-e76e8bfef99d"},"vehicle_type_id":"4","last_reported":1726409238,"current_range_meters":19200,"station_id":"ce4bhbh2rcd13ifvqepg","pricing_plan_id":"cebpf4jnsgd1na2vs0mg"},{"bike_id":"8143b4a0-570b-4bd2-94a9-db1de688dcfa","system_id":"levelo_inurba_marseille","lat":43.26802,"lon":5.40265,"is_reserved":false,"is_disabled":false,"rental_uris":{"android":"levelo://app?vid=8143b4a0-570b-4bd2-94a9-db1de688dcfa","ios":"levelo://app?vid=8143b4a0-570b-4bd2-94a9-db1de688dcfa"},"vehicle_type_id":"4","last_reported":1726409238,"current_range_meters":28800,"station_id":"ce501612rcd8frsf0b60","pricing_plan_id":"cebpf4jnsgd1na2vs0mg"},{"bike_id":"690f5452-89aa-49dd-9761-e9625feda960","system_id":"levelo_inurba_marseille","lat":43.27617,"lon":5.36094,"is_reserved":false,"is_disabled":false,"rental_uris":{"android":"levelo://app?vid=690f5452-89aa-49dd-9761-e9625feda960","ios":"levelo://app?vid=690f5452-89aa-49dd-9761-e9625feda960"},"vehicle_type_id":"4","last_reported":1726409238,"current_range_meters":38800,"station_id":"ce4bgj92rcd13ifvqbe0","pricing_plan_id":"cebpf4jnsgd1na2vs0mg"},{"bike_id":"29ebb04d-440e-4da8-a528-1d37b597e08a","system_id":"levelo_inurba_marseille","lat":43.24801,"lon":5.37451,"is_reserved":false,"is_disabled":false,"rental_uris":{"android":"levelo://app?vid=29ebb04d-440e-4da8-a528-1d37b597e08a","ios":"levelo://app?vid=29ebb04d-440e-4da8-a528-1d37b597e08a"},"vehicle_type_id":"4","last_reported":1726409238,"current_range_meters":38000,"station_id":"ce4bhgh2rcd13ifvqfb0","pricing_plan_id":"cebpf4jnsgd1na2vs0mg"},{"bike_id":"428e34b0-fc43-4dad-bb70-81323d8bd8ba","system_id":"levelo_inurba_marseille","lat":43.23151,"lon":5.4372,"is_reserved":false,"is_disabled":false,"rental_uris":{"android":"levelo://app?vid=428e34b0-fc43-4dad-bb70-81323d8bd8ba","ios":"levelo://app?vid=428e34b0-fc43-4dad-bb70-81323d8bd8ba"},"vehicle_type_id":"4","last_reported":1726409238,"current_range_meters":14000,"station_id":"ce4bhmp2rcd13ifvqgog","pricing_plan_id":"cebpf4jnsgd1na2vs0mg"},{"bike_id":"cf17a031-288f-4384-836a-2bebfc40fbb6","system_id":"levelo_inurba_marseille","lat":43.23981,"lon":5.36611,"is_reserved":false,"is_disabled":false,"rental_uris":{"android":"levelo://app?vid=cf17a031-288f-4384-836a-2bebfc40fbb6","ios":"levelo://app?vid=cf17a031-288f-4384-836a-2bebfc40fbb6"},"vehicle_type_id":"4","last_reported":1726409238,"current_range_meters":40000,"station_id":"ce4bhi12rcd13ifvqfp0","pricing_plan_id":"cebpf4jnsgd1na2vs0mg"},{"bike_id":"012525c8-d863-400b-a802-0ef1a483fc5c","system_id":"levelo_inurba_marseille","lat":43.29554,"lon":5.42272,"is_reserved":false,"is_disabled":false,"rental_uris":{"android":"levelo://app?vid=012525c8-d863-400b-a802-0ef1a483fc5c","ios":"levelo://app?vid=012525c8-d863-400b-a802-0ef1a483fc5c"},"vehicle_type_id":"4","last_reported":1726409238,"current_range_meters":12400,"station_id":"ce4bhph2rcd13ifvqhdg","pricing_plan_id":"cebpf4jnsgd1na2vs0mg"},{"bike_id":"6f387a41-1a28-4619-ac86-26875678b81b","system_id":"levelo_inurba_marseille","lat":43.299,"lon":5.43673,"is_reserved":false,"is_disabled":false,"rental_uris":{"android":"levelo://app?vid=6f387a41-1a28-4619-ac86-26875678b81b","ios":"levelo://app?vid=6f387a41-1a28-4619-ac86-26875678b81b"},"vehicle_type_id":"4","last_reported":1726409238,"current_range_meters":31200,"station_id":"ce4bhpp2rcd13ifvqhfg","pricing_plan_id":"cebpf4jnsgd1na2vs0mg"},{"bike_id":"18989387-4154-4d2e-8cf1-998f2bd3a8b9","system_id":"levelo_inurba_marseille","lat":43.287018,"lon":5.373848,"is_reserved":false,"is_disabled":false,"rental_uris":{"android":"levelo://app?vid=18989387-4154-4d2e-8cf1-998f2bd3a8b9","ios":"levelo://app?vid=18989387-4154-4d2e-8cf1-998f2bd3a8b9"},"vehicle_type_id":"4","last_reported":1726409238,"current_range_meters":16400,"station_id":"ce4bh3p2rcd13ifvqdq0","pricing_plan_id":"cebpf4jnsgd1na2vs0mg"},{"bike_id":"f4fff3c2-18ec-40fe-a4ee-0202ff4eb541","system_id":"levelo_inurba_marseille","lat":43.27377,"lon":5.36239,"is_reserved":false,"is_disabled":false,"rental_uris":{"android":"levelo://app?vid=f4fff3c2-18ec-40fe-a4ee-0202ff4eb541","ios":"levelo://app?vid=f4fff3c2-18ec-40fe-a4ee-0202ff4eb541"},"vehicle_type_id":"4","last_reported":1726409238,"current_range_meters":18800,"station_id":"ce4bhbh2rcd13ifvqeo0","pricing_plan_id":"cebpf4jnsgd1na2vs0mg"},{"bike_id":"a68b5c09-8581-4ab6-8cad-ec40127aba23","system_id":"levelo_inurba_marseille","lat":43.28626,"lon":5.35098,"is_reserved":false,"is_disabled":false,"rental_uris":{"android":"levelo://app?vid=a68b5c09-8581-4ab6-8cad-ec40127aba23","ios":"levelo://app?vid=a68b5c09-8581-4ab6-8cad-ec40127aba23"},"vehicle_type_id":"4","last_reported":1726409238,"current_range_meters":20000,"station_id":"ce4bhch2rcd13ifvqeug","pricing_plan_id":"cebpf4jnsgd1na2vs0mg"},{"bike_id":"ee41233d-7057-4ec4-b3c6-63f582836de8","system_id":"levelo_inurba_marseille","lat":43.22934,"lon":5.35378,"is_reserved":false,"is_disabled":false,"rental_uris":{"android":"levelo://app?vid=ee41233d-7057-4ec4-b3c6-63f582836de8","ios":"levelo://app?vid=ee41233d-7057-4ec4-b3c6-63f582836de8"},"vehicle_type_id":"4","last_reported":1726409238,"current_range_meters":18000,"station_id":"cpo3532slgdg3j2ikp40","pricing_plan_id":"cebpf4jnsgd1na2vs0mg"},{"bike_id":"65b014b3-3891-4d8b-a075-14bbf87e2e16","system_id":"levelo_inurba_marseille","lat":43.24166,"lon":5.36394,"is_reserved":false,"is_disabled":false,"rental_uris":{"android":"levelo://app?vid=65b014b3-3891-4d8b-a075-14bbf87e2e16","ios":"levelo://app?vid=65b014b3-3891-4d8b-a075-14bbf87e2e16"},"vehicle_type_id":"4","last_reported":1726409238,"current_range_meters":16800,"station_id":"cpo36qri1sfpv3e86is0","pricing_plan_id":"cebpf4jnsgd1na2vs0mg"},{"bike_id":"16e6a69c-db52-416c-88a6-7215c136fd14","system_id":"levelo_inurba_marseille","lat":43.2481,"lon":5.37456,"is_reserved":false,"is_disabled":false,"rental_uris":{"android":"levelo://app?vid=16e6a69c-db52-416c-88a6-7215c136fd14","ios":"levelo://app?vid=16e6a69c-db52-416c-88a6-7215c136fd14"},"vehicle_type_id":"4","last_reported":1726409238,"current_range_meters":38800,"station_id":"ce4bhgh2rcd13ifvqfb0","pricing_plan_id":"cebpf4jnsgd1na2vs0mg"},{"bike_id":"aa95c661-1107-4bd0-b9af-c8a4ebe70138","system_id":"levelo_inurba_marseille","lat":43.33024,"lon":5.39024,"is_reserved":false,"is_disabled":false,"rental_uris":{"android":"levelo://app?vid=aa95c661-1107-4bd0-b9af-c8a4ebe70138","ios":"levelo://app?vid=aa95c661-1107-4bd0-b9af-c8a4ebe70138"},"vehicle_type_id":"4","last_reported":1726409238,"current_range_meters":36400,"station_id":"ce4bhr92rcd13ifvqhrg","pricing_plan_id":"cebpf4jnsgd1na2vs0mg"},{"bike_id":"c4148733-d340-4184-9add-27aa76062a46","system_id":"levelo_inurba_marseille","lat":43.25011,"lon":5.38912,"is_reserved":false,"is_disabled":false,"rental_uris":{"android":"levelo://app?vid=c4148733-d340-4184-9add-27aa76062a46","ios":"levelo://app?vid=c4148733-d340-4184-9add-27aa76062a46"},"vehicle_type_id":"4","last_reported":1726409238,"current_range_meters":35600,"station_id":"ce4bhgp2rcd13ifvqfd0","pricing_plan_id":"cebpf4jnsgd1na2vs0mg"},{"bike_id":"8a68135b-10f0-4a18-8450-e7829f00cf0e","system_id":"levelo_inurba_marseille","lat":43.28615,"lon":5.35094,"is_reserved":false,"is_disabled":false,"rental_uris":{"android":"levelo://app?vid=8a68135b-10f0-4a18-8450-e7829f00cf0e","ios":"levelo://app?vid=8a68135b-10f0-4a18-8450-e7829f00cf0e"},"vehicle_type_id":"4","last_reported":1726409238,"current_range_meters":26800,"station_id":"ce4bhch2rcd13ifvqeug","pricing_plan_id":"cebpf4jnsgd1na2vs0mg"},{"bike_id":"ca2f31d8-8896-42ce-92c7-9f0f5f0ac6e8","system_id":"levelo_inurba_marseille","lat":43.24542,"lon":5.39525,"is_reserved":false,"is_disabled":false,"rental_uris":{"android":"levelo://app?vid=ca2f31d8-8896-42ce-92c7-9f0f5f0ac6e8","ios":"levelo://app?vid=ca2f31d8-8896-42ce-92c7-9f0f5f0ac6e8"},"vehicle_type_id":"4","last_reported":1726409238,"current_range_meters":19600,"station_id":"ce4bhlp2rcd13ifvqgjg","pricing_plan_id":"cebpf4jnsgd1na2vs0mg"},{"bike_id":"b481fe65-5210-4ee4-beb6-e2f1b9708782","system_id":"levelo_inurba_marseille","lat":43.25067,"lon":5.3755,"is_reserved":false,"is_disabled":false,"rental_uris":{"android":"levelo://app?vid=b481fe65-5210-4ee4-beb6-e2f1b9708782","ios":"levelo://app?vid=b481fe65-5210-4ee4-beb6-e2f1b9708782"},"vehicle_type_id":"4","last_reported":1726409238,"current_range_meters":23200,"station_id":"ce4bhgh2rcd13ifvqfa0","pricing_plan_id":"cebpf4jnsgd1na2vs0mg"},{"bike_id":"a1d7f7d4-730c-41e9-affb-f713604e1bbd","system_id":"levelo_inurba_marseille","lat":43.31222,"lon":5.36859,"is_reserved":false,"is_disabled":false,"rental_uris":{"android":"levelo://app?vid=a1d7f7d4-730c-41e9-affb-f713604e1bbd","ios":"levelo://app?vid=a1d7f7d4-730c-41e9-affb-f713604e1bbd"},"vehicle_type_id":"4","last_reported":1726409238,"current_range_meters":23200,"station_id":"ce4bgl92rcd13ifvqbq0","pricing_plan_id":"cebpf4jnsgd1na2vs0mg"},{"bike_id":"be4b2a3b-19b7-41c0-bcc6-ac5902d401a1","system_id":"levelo_inurba_marseille","lat":43.23193,"lon":5.39971,"is_reserved":false,"is_disabled":false,"rental_uris":{"android":"levelo://app?vid=be4b2a3b-19b7-41c0-bcc6-ac5902d401a1","ios":"levelo://app?vid=be4b2a3b-19b7-41c0-bcc6-ac5902d401a1"},"vehicle_type_id":"4","last_reported":1726409238,"current_range_meters":6800,"station_id":"ce4bhn12rcd13ifvqgqg","pricing_plan_id":"cebpf4jnsgd1na2vs0mg"},{"bike_id":"5ceca269-ca73-4d6a-9dab-491689fc777a","system_id":"levelo_inurba_marseille","lat":43.260132,"lon":5.375473,"is_reserved":false,"is_disabled":false,"rental_uris":{"android":"levelo://app?vid=5ceca269-ca73-4d6a-9dab-491689fc777a","ios":"levelo://app?vid=5ceca269-ca73-4d6a-9dab-491689fc777a"},"vehicle_type_id":"4","last_reported":1726409238,"current_range_meters":4000,"station_id":"ce4bhih2rcd13ifvqfs0","pricing_plan_id":"cebpf4jnsgd1na2vs0mg"},{"bike_id":"349d9ac4-642a-438f-a490-46173d58584f","system_id":"levelo_inurba_marseille","lat":43.23972,"lon":5.36621,"is_reserved":false,"is_disabled":false,"rental_uris":{"android":"levelo://app?vid=349d9ac4-642a-438f-a490-46173d58584f","ios":"levelo://app?vid=349d9ac4-642a-438f-a490-46173d58584f"},"vehicle_type_id":"4","last_reported":1726409238,"current_range_meters":40000,"station_id":"ce4bhi12rcd13ifvqfp0","pricing_plan_id":"cebpf4jnsgd1na2vs0mg"},{"bike_id":"1d4e335d-2bde-4711-8e64-da4ced3723ea","system_id":"levelo_inurba_marseille","lat":43.22932,"lon":5.3538,"is_reserved":false,"is_disabled":false,"rental_uris":{"android":"levelo://app?vid=1d4e335d-2bde-4711-8e64-da4ced3723ea","ios":"levelo://app?vid=1d4e335d-2bde-4711-8e64-da4ced3723ea"},"vehicle_type_id":"4","last_reported":1726409238,"current_range_meters":26800,"station_id":"cpo3532slgdg3j2ikp40","pricing_plan_id":"cebpf4jnsgd1na2vs0mg"},{"bike_id":"809bb8b2-0eb2-4390-a3ce-3d5d1cf11962","system_id":"levelo_inurba_marseille","lat":43.28271,"lon":5.35068,"is_reserved":false,"is_disabled":false,"rental_uris":{"android":"levelo://app?vid=809bb8b2-0eb2-4390-a3ce-3d5d1cf11962","ios":"levelo://app?vid=809bb8b2-0eb2-4390-a3ce-3d5d1cf11962"},"vehicle_type_id":"4","last_reported":1726409238,"current_range_meters":18800,"station_id":"ce4bhbp2rcd13ifvqerg","pricing_plan_id":"cebpf4jnsgd1na2vs0mg"},{"bike_id":"50ec4add-0a72-4ba4-95a5-c7abf0f4059f","system_id":"levelo_inurba_marseille","lat":43.280212,"lon":5.353495,"is_reserved":false,"is_disabled":false,"rental_uris":{"android":"levelo://app?vid=50ec4add-0a72-4ba4-95a5-c7abf0f4059f","ios":"levelo://app?vid=50ec4add-0a72-4ba4-95a5-c7abf0f4059f"},"vehicle_type_id":"4","last_reported":1726409238,"current_range_meters":4000,"station_id":"ce4bhbh2rcd13ifvqeo0","pricing_plan_id":"cebpf4jnsgd1na2vs0mg"},{"bike_id":"495f1020-a871-44e5-a234-9fe313070570","system_id":"levelo_inurba_marseille","lat":43.28264,"lon":5.35052,"is_reserved":false,"is_disabled":false,"rental_uris":{"android":"levelo://app?vid=495f1020-a871-44e5-a234-9fe313070570","ios":"levelo://app?vid=495f1020-a871-44e5-a234-9fe313070570"},"vehicle_type_id":"4","last_reported":1726409238,"current_range_meters":38800,"station_id":"ce4bhbp2rcd13ifvqerg","pricing_plan_id":"cebpf4jnsgd1na2vs0mg"},{"bike_id":"302d6aa4-03a2-4d05-b58c-116f1e28ec91","system_id":"levelo_inurba_marseille","lat":43.25728,"lon":5.41108,"is_reserved":false,"is_disabled":false,"rental_uris":{"android":"levelo://app?vid=302d6aa4-03a2-4d05-b58c-116f1e28ec91","ios":"levelo://app?vid=302d6aa4-03a2-4d05-b58c-116f1e28ec91"},"vehicle_type_id":"4","last_reported":1726409238,"current_range_meters":6000,"station_id":"ce4bhkp2rcd13ifvqgd0","pricing_plan_id":"cebpf4jnsgd1na2vs0mg"},{"bike_id":"99fdd79b-4cdc-4ade-8cce-fcae611ec5a3","system_id":"levelo_inurba_marseille","lat":43.26209,"lon":5.37438,"is_reserved":false,"is_disabled":false,"rental_uris":{"android":"levelo://app?vid=99fdd79b-4cdc-4ade-8cce-fcae611ec5a3","ios":"levelo://app?vid=99fdd79b-4cdc-4ade-8cce-fcae611ec5a3"},"vehicle_type_id":"4","last_reported":1726409238,"current_range_meters":24000,"station_id":"ce4bhgp2rcd13ifvqfc0","pricing_plan_id":"cebpf4jnsgd1na2vs0mg"},{"bike_id":"c59178dd-d77c-42bd-ba16-4e6f4db0709c","system_id":"levelo_inurba_marseille","lat":43.24811,"lon":5.37451,"is_reserved":false,"is_disabled":false,"rental_uris":{"android":"levelo://app?vid=c59178dd-d77c-42bd-ba16-4e6f4db0709c","ios":"levelo://app?vid=c59178dd-d77c-42bd-ba16-4e6f4db0709c"},"vehicle_type_id":"4","last_reported":1726409238,"current_range_meters":28400,"station_id":"ce4bhgh2rcd13ifvqfb0","pricing_plan_id":"cebpf4jnsgd1na2vs0mg"},{"bike_id":"38555a40-8090-4017-8c13-63cfb0365a46","system_id":"levelo_inurba_marseille","lat":43.26561,"lon":5.37281,"is_reserved":false,"is_disabled":false,"rental_uris":{"android":"levelo://app?vid=38555a40-8090-4017-8c13-63cfb0365a46","ios":"levelo://app?vid=38555a40-8090-4017-8c13-63cfb0365a46"},"vehicle_type_id":"4","last_reported":1726409238,"current_range_meters":30400,"station_id":"ce4bhg12rcd13ifvqf70","pricing_plan_id":"cebpf4jnsgd1na2vs0mg"},{"bike_id":"33c625f5-3498-47dc-bb04-e914e6e3f8a0","system_id":"levelo_inurba_marseille","lat":43.24388,"lon":5.37051,"is_reserved":false,"is_disabled":false,"rental_uris":{"android":"levelo://app?vid=33c625f5-3498-47dc-bb04-e914e6e3f8a0","ios":"levelo://app?vid=33c625f5-3498-47dc-bb04-e914e6e3f8a0"},"vehicle_type_id":"4","last_reported":1726409238,"current_range_meters":28000,"station_id":"ce4bhhh2rcd13ifvqfk0","pricing_plan_id":"cebpf4jnsgd1na2vs0mg"},{"bike_id":"78662587-ecaf-41bc-a517-47896c338f17","system_id":"levelo_inurba_marseille","lat":43.22935,"lon":5.35372,"is_reserved":false,"is_disabled":false,"rental_uris":{"android":"levelo://app?vid=78662587-ecaf-41bc-a517-47896c338f17","ios":"levelo://app?vid=78662587-ecaf-41bc-a517-47896c338f17"},"vehicle_type_id":"4","last_reported":1726409238,"current_range_meters":8000,"station_id":"cpo3532slgdg3j2ikp40","pricing_plan_id":"cebpf4jnsgd1na2vs0mg"},{"bike_id":"0feea89c-dac1-49d6-bc23-d4f8ec81b2f3","system_id":"levelo_inurba_marseille","lat":43.34149,"lon":5.40901,"is_reserved":false,"is_disabled":false,"rental_uris":{"android":"levelo://app?vid=0feea89c-dac1-49d6-bc23-d4f8ec81b2f3","ios":"levelo://app?vid=0feea89c-dac1-49d6-bc23-d4f8ec81b2f3"},"vehicle_type_id":"4","last_reported":1726409238,"current_range_meters":40000,"station_id":"ce4bhqh2rcd13ifvqhlg","pricing_plan_id":"cebpf4jnsgd1na2vs0mg"},{"bike_id":"2c4c86df-a9a5-47ca-9271-66a5f8ac5060","system_id":"levelo_inurba_marseille","lat":43.30355,"lon":5.41882,"is_reserved":false,"is_disabled":false,"rental_uris":{"android":"levelo://app?vid=2c4c86df-a9a5-47ca-9271-66a5f8ac5060","ios":"levelo://app?vid=2c4c86df-a9a5-47ca-9271-66a5f8ac5060"},"vehicle_type_id":"4","last_reported":1726409238,"current_range_meters":36000,"station_id":"ce4bhop2rcd13ifvqh7g","pricing_plan_id":"cebpf4jnsgd1na2vs0mg"},{"bike_id":"7d1d6f33-b7b4-4022-a8eb-ab1b1e1b14ac","system_id":"levelo_inurba_marseille","lat":43.25588,"lon":5.38237,"is_reserved":false,"is_disabled":false,"rental_uris":{"android":"levelo://app?vid=7d1d6f33-b7b4-4022-a8eb-ab1b1e1b14ac","ios":"levelo://app?vid=7d1d6f33-b7b4-4022-a8eb-ab1b1e1b14ac"},"vehicle_type_id":"4","last_reported":1726409238,"current_range_meters":39200,"station_id":"ce4bhih2rcd13ifvqfs0","pricing_plan_id":"cebpf4jnsgd1na2vs0mg"},{"bike_id":"bf8db25e-de16-4bf7-a14a-5fe591699e19","system_id":"levelo_inurba_marseille","lat":43.2827,"lon":5.35062,"is_reserved":false,"is_disabled":false,"rental_uris":{"android":"levelo://app?vid=bf8db25e-de16-4bf7-a14a-5fe591699e19","ios":"levelo://app?vid=bf8db25e-de16-4bf7-a14a-5fe591699e19"},"vehicle_type_id":"4","last_reported":1726409238,"current_range_meters":39200,"station_id":"ce4bhbp2rcd13ifvqerg","pricing_plan_id":"cebpf4jnsgd1na2vs0mg"},{"bike_id":"765e3f8c-4c5d-4343-896d-b249523c16b4","system_id":"levelo_inurba_marseille","lat":43.31762,"lon":5.3901,"is_reserved":false,"is_disabled":false,"rental_uris":{"android":"levelo://app?vid=765e3f8c-4c5d-4343-896d-b249523c16b4","ios":"levelo://app?vid=765e3f8c-4c5d-4343-896d-b249523c16b4"},"vehicle_type_id":"4","last_reported":1726409238,"current_range_meters":39200,"station_id":"ce4bhqp2rcd13ifvqhng","pricing_plan_id":"cebpf4jnsgd1na2vs0mg"},{"bike_id":"4362eac5-f686-4c0c-b1e7-675f8ff6410f","system_id":"levelo_inurba_marseille","lat":43.28412,"lon":5.34965,"is_reserved":false,"is_disabled":false,"rental_uris":{"android":"levelo://app?vid=4362eac5-f686-4c0c-b1e7-675f8ff6410f","ios":"levelo://app?vid=4362eac5-f686-4c0c-b1e7-675f8ff6410f"},"vehicle_type_id":"4","last_reported":1726409238,"current_range_meters":22000,"station_id":"ce4bhbh2rcd13ifvqepg","pricing_plan_id":"cebpf4jnsgd1na2vs0mg"},{"bike_id":"b5976d29-4e9d-4138-af37-b813ab1fb183","system_id":"levelo_inurba_marseille","lat":43.24392,"lon":5.37068,"is_reserved":false,"is_disabled":false,"rental_uris":{"android":"levelo://app?vid=b5976d29-4e9d-4138-af37-b813ab1fb183","ios":"levelo://app?vid=b5976d29-4e9d-4138-af37-b813ab1fb183"},"vehicle_type_id":"4","last_reported":1726409238,"current_range_meters":26000,"station_id":"ce4bhhh2rcd13ifvqfk0","pricing_plan_id":"cebpf4jnsgd1na2vs0mg"},{"bike_id":"ec7a79d1-4e4e-454d-bab1-dae1e214b794","system_id":"levelo_inurba_marseille","lat":43.26938,"lon":5.3892,"is_reserved":false,"is_disabled":false,"rental_uris":{"android":"levelo://app?vid=ec7a79d1-4e4e-454d-bab1-dae1e214b794","ios":"levelo://app?vid=ec7a79d1-4e4e-454d-bab1-dae1e214b794"},"vehicle_type_id":"4","last_reported":1726409238,"current_range_meters":33200,"station_id":"ce4bhhh2rcd13ifvqfl0","pricing_plan_id":"cebpf4jnsgd1na2vs0mg"},{"bike_id":"ae3c946e-1a6d-445d-a0a1-e7baba16f632","system_id":"levelo_inurba_marseille","lat":43.25488,"lon":5.37644,"is_reserved":false,"is_disabled":false,"rental_uris":{"android":"levelo://app?vid=ae3c946e-1a6d-445d-a0a1-e7baba16f632","ios":"levelo://app?vid=ae3c946e-1a6d-445d-a0a1-e7baba16f632"},"vehicle_type_id":"4","last_reported":1726409238,"current_range_meters":3600,"station_id":"ce4bhh12rcd13ifvqff0","pricing_plan_id":"cebpf4jnsgd1na2vs0mg"},{"bike_id":"2375fd05-9186-45a4-90ce-bd234b78635f","system_id":"levelo_inurba_marseille","lat":43.3034,"lon":5.40429,"is_reserved":false,"is_disabled":false,"rental_uris":{"android":"levelo://app?vid=2375fd05-9186-45a4-90ce-bd234b78635f","ios":"levelo://app?vid=2375fd05-9186-45a4-90ce-bd234b78635f"},"vehicle_type_id":"4","last_reported":1726409238,"current_range_meters":38000,"station_id":"ce4bh012rcd13ifvqd10","pricing_plan_id":"cebpf4jnsgd1na2vs0mg"},{"bike_id":"980605ee-6a3e-4702-a32d-29a77cec7941","system_id":"levelo_inurba_marseille","lat":43.28271,"lon":5.35065,"is_reserved":false,"is_disabled":false,"rental_uris":{"android":"levelo://app?vid=980605ee-6a3e-4702-a32d-29a77cec7941","ios":"levelo://app?vid=980605ee-6a3e-4702-a32d-29a77cec7941"},"vehicle_type_id":"4","last_reported":1726409238,"current_range_meters":39200,"station_id":"ce4bhbp2rcd13ifvqerg","pricing_plan_id":"cebpf4jnsgd1na2vs0mg"},{"bike_id":"b97a7743-2e7e-4c69-a003-9cc01c170b29","system_id":"levelo_inurba_marseille","lat":43.26518,"lon":5.40873,"is_reserved":false,"is_disabled":false,"rental_uris":{"android":"levelo://app?vid=b97a7743-2e7e-4c69-a003-9cc01c170b29","ios":"levelo://app?vid=b97a7743-2e7e-4c69-a003-9cc01c170b29"},"vehicle_type_id":"4","last_reported":1726409238,"current_range_meters":8800,"station_id":"","pricing_plan_id":"cebpf4jnsgd1na2vs0mg"},{"bike_id":"a8300858-bc12-4b13-83c8-c8e91c7b4aff","system_id":"levelo_inurba_marseille","lat":43.28267,"lon":5.35072,"is_reserved":false,"is_disabled":false,"rental_uris":{"android":"levelo://app?vid=a8300858-bc12-4b13-83c8-c8e91c7b4aff","ios":"levelo://app?vid=a8300858-bc12-4b13-83c8-c8e91c7b4aff"},"vehicle_type_id":"4","last_reported":1726409238,"current_range_meters":24000,"station_id":"ce4bhbp2rcd13ifvqerg","pricing_plan_id":"cebpf4jnsgd1na2vs0mg"},{"bike_id":"b743a9c7-bff2-4e35-9357-5b891b452147","system_id":"levelo_inurba_marseille","lat":43.29901,"lon":5.43663,"is_reserved":false,"is_disabled":false,"rental_uris":{"android":"levelo://app?vid=b743a9c7-bff2-4e35-9357-5b891b452147","ios":"levelo://app?vid=b743a9c7-bff2-4e35-9357-5b891b452147"},"vehicle_type_id":"4","last_reported":1726409238,"current_range_meters":20000,"station_id":"ce4bhpp2rcd13ifvqhfg","pricing_plan_id":"cebpf4jnsgd1na2vs0mg"},{"bike_id":"a33824a0-a1cc-4147-916d-cc71548eaa38","system_id":"levelo_inurba_marseille","lat":43.2955,"lon":5.42279,"is_reserved":false,"is_disabled":false,"rental_uris":{"android":"levelo://app?vid=a33824a0-a1cc-4147-916d-cc71548eaa38","ios":"levelo://app?vid=a33824a0-a1cc-4147-916d-cc71548eaa38"},"vehicle_type_id":"4","last_reported":1726409238,"current_range_meters":38000,"station_id":"ce4bhph2rcd13ifvqhdg","pricing_plan_id":"cebpf4jnsgd1na2vs0mg"},