{"last_updated":1784715184,"ttl":60,"version":"2.2","data":{"bikes":[{"bike_id":"7ef36254-6bb3-448c-8d77-979d957d54b6","system_id":"levelo_inurba_marseille","lat":43.337444,"lon":5.374475,"is_reserved":false,"is_disabled":false,"rental_uris":{"android":"levelo://app?vid=7ef36254-6bb3-448c-8d77-979d957d54b6","ios":"levelo://app?vid=7ef36254-6bb3-448c-8d77-979d957d54b6"},"vehicle_type_id":"4","last_reported":1784715185,"current_range_meters":0,"station_id":"","pricing_plan_id":"cebpf4jnsgd1na2vs0mg"},{"bike_id":"21fe2e98-0432-4b40-a81f-10dd00b0f57d","system_id":"levelo_inurba_marseille","lat":43.337444,"lon":5.374475,"is_reserved":false,"is_disabled":false,"rental_uris":{"android":"levelo://app?vid=21fe2e98-0432-4b40-a81f-10dd00b0f57d","ios":"levelo://app?vid=21fe2e98-0432-4b40-a81f-10dd00b0f57d"},"vehicle_type_id":"4","last_reported":1784715185,"current_range_meters":0,"station_id":"","pricing_plan_id":"cebpf4jnsgd1na2vs0mg"},{"bike_id":"a005102a-45c6-430f-8cd7-a0a69490bbf0","system_id":"levelo_inurba_marseille","lat":43.33533,"lon":5.37472,"is_reserved":false,"is_disabled":false,"rental_uris":{"android":"levelo://app?vid=a005102a-45c6-430f-8cd7-a0a69490bbf0","ios":"levelo://app?vid=a005102a-45c6-430f-8cd7-a0a69490bbf0"},"vehicle_type_id":"4","last_reported":1784715185,"current_range_meters":35600,"station_id":"st_d46tts09ee8s73dlu43g","pricing_plan_id":"cebpf4jnsgd1na2vs0mg"},{"bike_id":"e35a7b3d-d6be-4e45-8bf8-f140e099eb23","system_id":"levelo_inurba_marseille","lat":43.27056,"lon":5.40264,"is_reserved":false,"is_disabled":false,"rental_uris":{"android":"levelo://app?vid=e35a7b3d-d6be-4e45-8bf8-f140e099eb23","ios":"levelo://app?vid=e35a7b3d-d6be-4e45-8bf8-f140e099eb23"},"vehicle_type_id":"4","last_reported":1784715185,"current_range_meters":40000,"station_id":"ce4bhk92rcd13ifvqgc0","pricing_plan_id":"cebpf4jnsgd1na2vs0mg"},{"bike_id":"910edd9b-3f88-46ff-af53-0deba1c167b6","system_id":"levelo_inurba_marseille","lat":43.23962,"lon":5.36621,"is_reserved":false,"is_disabled":false,"rental_uris":{"android":"levelo://app?vid=910edd9b-3f88-46ff-af53-0deba1c167b6","ios":"levelo://app?vid=910edd9b-3f88-46ff-af53-0deba1c167b6"},"vehicle_type_id":"4","last_reported":1784715185,"current_range_meters":39200,"station_id":"ce4bhi12rcd13ifvqfp0","pricing_plan_id":"cebpf4jnsgd1na2vs0mg"},{"bike_id":"75d6362f-fe0a-4519-b436-357232361612","system_id":"levelo_inurba_marseille","lat":43.26928,"lon":5.40252,"is_reserved":false,"is_disabled":false,"rental_uris":{"android":"levelo://app?vid=75d6362f-fe0a-4519-b436-357232361612","ios":"levelo://app?vid=75d6362f-fe0a-4519-b436-357232361612"},"vehicle_type_id":"4","last_reported":1784715185,"current_range_meters":38000,"station_id":"cjm6bp8fraef2m0cb0m0","pricing_plan_id":"cebpf4jnsgd1na2vs0mg"},{"bike_id":"f2c26268-2002-48c9-a2f8-8f76ed8a8540","system_id":"levelo_inurba_marseille","lat":43.23898,"lon":5.37467,"is_reserved":false,"is_disabled":false,"rental_uris":{"android":"levelo://app?vid=f2c26268-2002-48c9-a2f8-8f76ed8a8540","ios":"levelo://app?vid=f2c26268-2002-48c9-a2f8-8f76ed8a8540"},"vehicle_type_id":"4","last_reported":1784715185,"current_range_meters":39200,"station_id":"st_d6sm7csbq4hs73f8fpjg","pricing_plan_id":"cebpf4jnsgd1na2vs0mg"},{"bike_id":"72706276-fb69-4388-946e-2b4fb06a5929","system_id":"levelo_inurba_marseille","lat":43.33016,"lon":5.39034,"is_reserved":false,"is_disabled":false,"rental_uris":{"android":"levelo://app?vid=72706276-fb69-4388-946e-2b4fb06a5929","ios":"levelo://app?vid=72706276-fb69-4388-946e-2b4fb06a5929"},"vehicle_type_id":"4","last_reported":1784715185,"current_range_meters":7200,"station_id":"ce4bhr92rcd13ifvqhrg","pricing_plan_id":"cebpf4jnsgd1na2vs0mg"},{"bike_id":"02d5b560-d9fd-4517-8d13-aefbc3f751a8","system_id":"levelo_inurba_marseille","lat":43.29184,"lon":5.36013,"is_reserved":false,"is_disabled":false,"rental_uris":{"android":"levelo://app?vid=02d5b560-d9fd-4517-8d13-aefbc3f751a8","ios":"levelo://app?vid=02d5b560-d9fd-4517-8d13-aefbc3f751a8"},"vehicle_type_id":"4","last_reported":1784715185,"current_range_meters":39200,"station_id":"","pricing_plan_id":"cebpf4jnsgd1na2vs0mg"},{"bike_id":"10ad0a9f-3c3b-45c2-8514-d34f29e37fe1","system_id":"levelo_inurba_marseille","lat":43.24452,"lon":5.37068,"is_reserved":false,"is_disabled":false,"rental_uris":{"android":"levelo://app?vid=10ad0a9f-3c3b-45c2-8514-d34f29e37fe1","ios":"levelo://app?vid=10ad0a9f-3c3b-45c2-8514-d34f29e37fe1"},"vehicle_type_id":"4","last_reported":1784715185,"current_range_meters":35600,"station_id":"","pricing_plan_id":"cebpf4jnsgd1na2vs0mg"},{"bike_id":"07785ab1-1203-4d8b-b709-61aefb3e32fc","system_id":"levelo_inurba_marseille","lat":43.29908,"lon":5.38139,"is_reserved":false,"is_disabled":false,"rental_uris":{"android":"levelo://app?vid=07785ab1-1203-4d8b-b709-61aefb3e32fc","ios":"levelo://app?vid=07785ab1-1203-4d8b-b709-61aefb3e32fc"},"vehicle_type_id":"4","last_reported":1784715185,"current_range_meters":39200,"station_id":"ce4bgj12rcd13ifvqbc0","pricing_plan_id":"cebpf4jnsgd1na2vs0mg"},{"bike_id":"e7dcaf7b-9751-4df8-97c8-58c10a250eef","system_id":"levelo_inurba_marseille","lat":43.3073,"lon":5.42445,"is_reserved":false,"is_disabled":false,"rental_uris":{"android":"levelo://app?vid=e7dcaf7b-9751-4df8-97c8-58c10a250eef","ios":"levelo://app?vid=e7dcaf7b-9751-4df8-97c8-58c10a250eef"},"vehicle_type_id":"4","last_reported":1784715185,"current_range_meters":38000,"station_id":"st_cvj6ca6bvosntc0bfgr0","pricing_plan_id":"cebpf4jnsgd1na2vs0mg"},{"bike_id":"7219b5d1-4410-4fc8-9519-1ca61e3e373b","system_id":"levelo_inurba_marseille","lat":43.27066,"lon":5.42279,"is_reserved":false,"is_disabled":false,"rental_uris":{"android":"levelo://app?vid=7219b5d1-4410-4fc8-9519-1ca61e3e373b","ios":"levelo://app?vid=7219b5d1-4410-4fc8-9519-1ca61e3e373b"},"vehicle_type_id":"4","last_reported":1784715185,"current_range_meters":19200,"station_id":"ce4bhk92rcd13ifvqgb0","pricing_plan_id":"cebpf4jnsgd1na2vs0mg"},{"bike_id":"a4433386-739e-4a91-830e-bb12b0eded8b","system_id":"levelo_inurba_marseille","lat":43.28429,"lon":5.3501,"is_reserved":false,"is_disabled":false,"rental_uris":{"android":"levelo://app?vid=a4433386-739e-4a91-830e-bb12b0eded8b","ios":"levelo://app?vid=a4433386-739e-4a91-830e-bb12b0eded8b"},"vehicle_type_id":"4","last_reported":1784715185,"current_range_meters":26800,"station_id":"ce4bhbh2rcd13ifvqepg","pricing_plan_id":"cebpf4jnsgd1na2vs0mg"},{"bike_id":"10131cb1-86ea-4cb7-af98-95094fdd93f6","system_id":"levelo_inurba_marseille","lat":43.31748,"lon":5.38998,"is_reserved":false,"is_disabled":false,"rental_uris":{"android":"levelo://app?vid=10131cb1-86ea-4cb7-af98-95094fdd93f6","ios":"levelo://app?vid=10131cb1-86ea-4cb7-af98-95094fdd93f6"},"vehicle_type_id":"4","last_reported":1784715185,"current_range_meters":8000,"station_id":"ce4bhqp2rcd13ifvqhng","pricing_plan_id":"cebpf4jnsgd1na2vs0mg"},{"bike_id":"8e869e6d-4210-4e9a-a973-db0f06ef867c","system_id":"levelo_inurba_marseille","lat":43.30133,"lon":5.37417,"is_reserved":false,"is_disabled":false,"rental_uris":{"android":"levelo://app?vid=8e869e6d-4210-4e9a-a973-db0f06ef867c","ios":"levelo://app?vid=8e869e6d-4210-4e9a-a973-db0f06ef867c"},"vehicle_type_id":"4","last_reported":1784715185,"current_range_meters":29600,"station_id":"ce4bgs92rcd13ifvqcc0","pricing_plan_id":"cebpf4jnsgd1na2vs0mg"},{"bike_id":"e66234c1-ff79-46db-860f-1f5397bc0405","system_id":"levelo_inurba_marseille","lat":43.28192,"lon":5.38737,"is_reserved":false,"is_disabled":true,"rental_uris":{"android":"levelo://app?vid=e66234c1-ff79-46db-860f-1f5397bc0405","ios":"levelo://app?vid=e66234c1-ff79-46db-860f-1f5397bc0405"},"vehicle_type_id":"4","last_reported":1784715185,"current_range_meters":15200,"station_id":"","pricing_plan_id":"cebpf4jnsgd1na2vs0mg"},{"bike_id":"bc9091fe-3fb6-4421-9530-c833a1f81039","system_id":"levelo_inurba_marseille","lat":43.28083,"lon":5.39647,"is_reserved":false,"is_disabled":false,"rental_uris":{"android":"levelo://app?vid=bc9091fe-3fb6-4421-9530-c833a1f81039","ios":"levelo://app?vid=bc9091fe-3fb6-4421-9530-c833a1f81039"},"vehicle_type_id":"4","last_reported":1784715185,"current_range_meters":38000,"station_id":"ce4bho12rcd13ifvqh2g","pricing_plan_id":"cebpf4jnsgd1na2vs0mg"},{"bike_id":"bf720be3-207c-41aa-bdb2-2d086f76cbcd","system_id":"levelo_inurba_marseille","lat":43.26565,"lon":5.40325,"is_reserved":false,"is_disabled":false,"rental_uris":{"android":"levelo://app?vid=bf720be3-207c-41aa-bdb2-2d086f76cbcd","ios":"levelo://app?vid=bf720be3-207c-41aa-bdb2-2d086f76cbcd"},"vehicle_type_id":"4","last_reported":1784715185,"current_range_meters":8000,"station_id":"ce4bhmp2rcd13ifvqgng","pricing_plan_id":"cebpf4jnsgd1na2vs0mg"},{"bike_id":"7b893c3a-f50d-4ab1-b4e5-684f550fde57","system_id":"levelo_inurba_marseille","lat":43.31497,"lon":5.37305,"is_reserved":false,"is_disabled":true,"rental_uris":{"android":"levelo://app?vid=7b893c3a-f50d-4ab1-b4e5-684f550fde57","ios":"levelo://app?vid=7b893c3a-f50d-4ab1-b4e5-684f550fde57"},"vehicle_type_id":"4","last_reported":1784715185,"current_range_meters":8400,"station_id":"ce4bgt12rcd13ifvqcd0","pricing_plan_id":"cebpf4jnsgd1na2vs0mg"},{"bike_id":"51c9d168-94e4-41e0-90a4-bc83f1a86ce9","system_id":"levelo_inurba_marseille","lat":43.27377,"lon":5.36266,"is_reserved":false,"is_disabled":false,"rental_uris":{"android":"levelo://app?vid=51c9d168-94e4-41e0-90a4-bc83f1a86ce9","ios":"levelo://app?vid=51c9d168-94e4-41e0-90a4-bc83f1a86ce9"},"vehicle_type_id":"4","last_reported":1784715185,"current_range_meters":10800,"station_id":"ce4bhbh2rcd13ifvqeo0","pricing_plan_id":"cebpf4jnsgd1na2vs0mg"},{"bike_id":"0407e939-5161-4ca2-abca-2b876d384dfc","system_id":"levelo_inurba_marseille","lat":43.30885,"lon":5.36831,"is_reserved":false,"is_disabled":false,"rental_uris":{"android":"levelo://app?vid=0407e939-5161-4ca2-abca-2b876d384dfc","ios":"levelo://app?vid=0407e939-5161-4ca2-abca-2b876d384dfc"},"vehicle_type_id":"4","last_reported":1784715185,"current_range_meters":28000,"station_id":"ce4bgn92rcd13ifvqbvg","pricing_plan_id":"cebpf4jnsgd1na2vs0mg"},{"bike_id":"f9c65922-483e-4914-92f4-f7524b9a110d","system_id":"levelo_inurba_marseille","lat":43.32353,"lon":5.36723,"is_reserved":false,"is_disabled":false,"rental_uris":{"android":"levelo://app?vid=f9c65922-483e-4914-92f4-f7524b9a110d","ios":"levelo://app?vid=f9c65922-483e-4914-92f4-f7524b9a110d"},"vehicle_type_id":"4","last_reported":1784715185,"current_range_meters":4000,"station_id":"ce4bhsh2rcd13ifvqi2g","pricing_plan_id":"cebpf4jnsgd1na2vs0mg"},{"bike_id":"7bfe4f0a-3af5-4f84-994e-e8bf45e21908","system_id":"levelo_inurba_marseille","lat":43.31357,"lon":5.36742,"is_reserved":false,"is_disabled":false,"rental_uris":{"android":"levelo://app?vid=7bfe4f0a-3af5-4f84-994e-e8bf45e21908","ios":"levelo://app?vid=7bfe4f0a-3af5-4f84-994e-e8bf45e21908"},"vehicle_type_id":"4","last_reported":1784715185,"current_range_meters":37600,"station_id":"ce4bgr92rcd13ifvqc6g","pricing_plan_id":"cebpf4jnsgd1na2vs0mg"},{"bike_id":"a836366b-0169-4c0b-87d1-f240a32e0575","system_id":"levelo_inurba_marseille","lat":43.28027,"lon":5.36946,"is_reserved":false,"is_disabled":false,"rental_uris":{"android":"levelo://app?vid=a836366b-0169-4c0b-87d1-f240a32e0575","ios":"levelo://app?vid=a836366b-0169-4c0b-87d1-f240a32e0575"},"vehicle_type_id":"4","last_reported":1784715185,"current_range_meters":36800,"station_id":"ce4bha12rcd13ifvqef0","pricing_plan_id":"cebpf4jnsgd1na2vs0mg"},{"bike_id":"4a8c658f-cce5-4ba0-8311-c870c4ba4e12","system_id":"levelo_inurba_marseille","lat":43.2925,"lon":5.36852,"is_reserved":false,"is_disabled":false,"rental_uris":{"android":"levelo://app?vid=4a8c658f-cce5-4ba0-8311-c870c4ba4e12","ios":"levelo://app?vid=4a8c658f-cce5-4ba0-8311-c870c4ba4e12"},"vehicle_type_id":"4","last_reported":1784715185,"current_range_meters":30400,"station_id":"","pricing_plan_id":"cebpf4jnsgd1na2vs0mg"},{"bike_id":"a338cea5-f797-4d31-b718-3121663ee29c","system_id":"levelo_inurba_marseille","lat":43.30414,"lon":5.37893,"is_reserved":false,"is_disabled":false,"rental_uris":{"android":"levelo://app?vid=a338cea5-f797-4d31-b718-3121663ee29c","ios":"levelo://app?vid=a338cea5-f797-4d31-b718-3121663ee29c"},"vehicle_type_id":"4","last_reported":1784715185,"current_range_meters":34800,"station_id":"","pricing_plan_id":"cebpf4jnsgd1na2vs0mg"},{"bike_id":"4f36e699-e321-4385-bebf-a5379c2419da","system_id":"levelo_inurba_marseille","lat":43.29268,"lon":5.36845,"is_reserved":false,"is_disabled":false,"rental_uris":{"android":"levelo://app?vid=4f36e699-e321-4385-bebf-a5379c2419da","ios":"levelo://app?vid=4f36e699-e321-4385-bebf-a5379c2419da"},"vehicle_type_id":"4","last_reported":1784715185,"current_range_meters":38400,"station_id":"","pricing_plan_id":"cebpf4jnsgd1na2vs0mg"},{"bike_id":"b1fec295-9e6d-4acc-863d-a6efd982cf0f","system_id":"levelo_inurba_marseille","lat":43.28977,"lon":5.37843,"is_reserved":false,"is_disabled":false,"rental_uris":{"android":"levelo://app?vid=b1fec295-9e6d-4acc-863d-a6efd982cf0f","ios":"levelo://app?vid=b1fec295-9e6d-4acc-863d-a6efd982cf0f"},"vehicle_type_id":"4","last_reported":1784715185,"current_range_meters":38800,"station_id":"ce4bh9p2rcd13ifvqed0","pricing_plan_id":"cebpf4jnsgd1na2vs0mg"},{"bike_id":"68f9759d-31b0-4c35-bc93-d18e666e6d46","system_id":"levelo_inurba_marseille","lat":43.30914,"lon":5.36859,"is_reserved":false,"is_disabled":false,"rental_uris":{"android":"levelo://app?vid=68f9759d-31b0-4c35-bc93-d18e666e6d46","ios":"levelo://app?vid=68f9759d-31b0-4c35-bc93-d18e666e6d46"},"vehicle_type_id":"4","last_reported":1784715185,"current_range_meters":36800,"station_id":"ce4bgn92rcd13ifvqbvg","pricing_plan_id":"cebpf4jnsgd1na2vs0mg"},{"bike_id":"a7c9489a-3c37-4218-bc38-92c335aa3a8a","system_id":"levelo_inurba_marseille","lat":43.28479,"lon":5.48387,"is_reserved":false,"is_disabled":false,"rental_uris":{"android":"levelo://app?vid=a7c9489a-3c37-4218-bc38-92c335aa3a8a","ios":"levelo://app?vid=a7c9489a-3c37-4218-bc38-92c335aa3a8a"},"vehicle_type_id":"4","last_reported":1784715185,"current_range_meters":6000,"station_id":"st_d3svhcjqgbts73a3dn0g","pricing_plan_id":"cebpf4jnsgd1na2vs0mg"},{"bike_id":"3ec0487d-f740-4a30-922a-3a3602404ac7","system_id":"levelo_inurba_marseille","lat":43.25161,"lon":5.4026,"is_reserved":false,"is_disabled":false,"rental_uris":{"android":"levelo://app?vid=3ec0487d-f740-4a30-922a-3a3602404ac7","ios":"levelo://app?vid=3ec0487d-f740-4a30-922a-3a3602404ac7"},"vehicle_type_id":"4","last_reported":1784715185,"current_range_meters":39200,"station_id":"","pricing_plan_id":"cebpf4jnsgd1na2vs0mg"},{"bike_id":"63e17dc8-4384-484d-b3f7-26b9416ff97c","system_id":"levelo_inurba_marseille","lat":43.31355,"lon":5.38492,"is_reserved":false,"is_disabled":false,"rental_uris":{"android":"levelo://app?vid=63e17dc8-4384-484d-b3f7-26b9416ff97c","ios":"levelo://app?vid=63e17dc8-4384-484d-b3f7-26b9416ff97c"},"vehicle_type_id":"4","last_reported":1784715185,"current_range_meters":12800,"station_id":"ce4bgt92rcd13ifvqcf0","pricing_plan_id":"cebpf4jnsgd1na2vs0mg"},{"bike_id":"fe120c7a-c2fc-47f3-bf78-f2fc858c8d14","system_id":"levelo_inurba_marseille","lat":43.28724,"lon":5.39994,"is_reserved":false,"is_disabled":false,"rental_uris":{"android":"levelo://app?vid=fe120c7a-c2fc-47f3-bf78-f2fc858c8d14","ios":"levelo://app?vid=fe120c7a-c2fc-47f3-bf78-f2fc858c8d14"},"vehicle_type_id":"4","last_reported":1784715185,"current_range_meters":4800,"station_id":"ce4bho92rcd13ifvqh3g","pricing_plan_id":"cebpf4jnsgd1na2vs0mg"},{"bike_id":"8c2b8dd6-969f-486f-b6db-89345624d380","system_id":"levelo_inurba_marseille","lat":43.31378,"lon":5.3669,"is_reserved":false,"is_disabled":false,"rental_uris":{"android":"levelo://app?vid=8c2b8dd6-969f-486f-b6db-89345624d380","ios":"levelo://app?vid=8c2b8dd6-969f-486f-b6db-89345624d380"},"vehicle_type_id":"4","last_reported":1784715185,"current_range_meters":18800,"station_id":"ce4bgr92rcd13ifvqc6g","pricing_plan_id":"cebpf4jnsgd1na2vs0mg"},{"bike_id":"5aa3ca14-34f8-4cf6-bf98-84664ad40ed9","system_id":"levelo_inurba_marseille","lat":43.32371,"lon":5.38882,"is_reserved":false,"is_disabled":false,"rental_uris":{"android":"levelo://app?vid=5aa3ca14-34f8-4cf6-bf98-84664ad40ed9","ios":"levelo://app?vid=5aa3ca14-34f8-4cf6-bf98-84664ad40ed9"},"vehicle_type_id":"4","last_reported":1784715185,"current_range_meters":37600,"station_id":"ce4bhqp2rcd13ifvqhog","pricing_plan_id":"cebpf4jnsgd1na2vs0mg"},{"bike_id":"febaaedf-9b37-469c-af42-9b12d1add498","system_id":"levelo_inurba_marseille","lat":43.25919,"lon":5.40913,"is_reserved":false,"is_disabled":false,"rental_uris":{"android":"levelo://app?vid=febaaedf-9b37-469c-af42-9b12d1add498","ios":"levelo://app?vid=febaaedf-9b37-469c-af42-9b12d1add498"},"vehicle_type_id":"4","last_reported":1784715185,"current_range_meters":14000,"station_id":"ce4bhm92rcd13ifvqglg","pricing_plan_id":"cebpf4jnsgd1na2vs0mg"},{"bike_id":"183c7711-f220-4e72-8568-eaad7eb51afa","system_id":"levelo_inurba_marseille","lat":43.33778,"lon":5.3743,"is_reserved":false,"is_disabled":false,"rental_uris":{"android":"levelo://app?vid=183c7711-f220-4e72-8568-eaad7eb51afa","ios":"levelo://app?vid=183c7711-f220-4e72-8568-eaad7eb51afa"},"vehicle_type_id":"4","last_reported":1784715185,"current_range_meters":38800,"station_id":"","pricing_plan_id":"cebpf4jnsgd1na2vs0mg"},{"bike_id":"0547f557-b090-4345-9140-124bc0c4fa4e","system_id":"levelo_inurba_marseille","lat":43.33162,"lon":5.37703,"is_reserved":false,"is_disabled":false,"rental_uris":{"android":"levelo://app?vid=0547f557-b090-4345-9140-124bc0c4fa4e","ios":"levelo://app?vid=0547f557-b090-4345-9140-124bc0c4fa4e"},"vehicle_type_id":"4","last_reported":1784715185,"current_range_meters":33200,"station_id":"st_d46cu089ee8s73dldbu0","pricing_plan_id":"cebpf4jnsgd1na2vs0mg"},{"bike_id":"8b48f329-937d-4f33-bc8e-cc3992c67190","system_id":"levelo_inurba_marseille","lat":43.29622,"lon":5.37163,"is_reserved":false,"is_disabled":true,"rental_uris":{"android":"levelo://app?vid=8b48f329-937d-4f33-bc8e-cc3992c67190","ios":"levelo://app?vid=8b48f329-937d-4f33-bc8e-cc3992c67190"},"vehicle_type_id":"4","last_reported":1784715185,"current_range_meters":36400,"station_id":"","pricing_plan_id":"cebpf4jnsgd1na2vs0mg"},{"bike_id":"bdb3550d-1615-4b07-aca7-4160c4e39c88","system_id":"levelo_inurba_marseille","lat":43.27045,"lon":5.40276,"is_reserved":false,"is_disabled":false,"rental_uris":{"android":"levelo://app?vid=bdb3550d-1615-4b07-aca7-4160c4e39c88","ios":"levelo://app?vid=bdb3550d-1615-4b07-aca7-4160c4e39c88"},"vehicle_type_id":"4","last_reported":1784715185,"current_range_meters":20800,"station_id":"","pricing_plan_id":"cebpf4jnsgd1na2vs0mg"},{"bike_id":"d5f15b89-300c-48ce-868a-694a93770e8e","system_id":"levelo_inurba_marseille","lat":43.24066,"lon":5.37745,"is_reserved":false,"is_disabled":false,"rental_uris":{"android":"levelo://app?vid=d5f15b89-300c-48ce-868a-694a93770e8e","ios":"levelo://app?vid=d5f15b89-300c-48ce-868a-694a93770e8e"},"vehicle_type_id":"4","last_reported":1784715185,"current_range_meters":16000,"station_id":"ce4bhnp2rcd13ifvqgvg","pricing_plan_id":"cebpf4jnsgd1na2vs0mg"},{"bike_id":"53d0f6b7-260d-4c8a-add4-bafac305600d","system_id":"levelo_inurba_marseille","lat":43.25909,"lon":5.40877,"is_reserved":false,"is_disabled":false,"rental_uris":{"android":"levelo://app?vid=53d0f6b7-260d-4c8a-add4-bafac305600d","ios":"levelo://app?vid=53d0f6b7-260d-4c8a-add4-bafac305600d"},"vehicle_type_id":"4","last_reported":1784715185,"current_range_meters":39200,"station_id":"ce4bhm92rcd13ifvqglg","pricing_plan_id":"cebpf4jnsgd1na2vs0mg"},{"bike_id":"06195112-6882-4fb6-b232-8620d1008b12","system_id":"levelo_inurba_marseille","lat":43.29285,"lon":5.36831,"is_reserved":false,"is_disabled":false,"rental_uris":{"android":"levelo://app?vid=06195112-6882-4fb6-b232-8620d1008b12","ios":"levelo://app?vid=06195112-6882-4fb6-b232-8620d1008b12"},"vehicle_type_id":"4","last_reported":1784715185,"current_range_meters":38000,"station_id":"","pricing_plan_id":"cebpf4jnsgd1na2vs0mg"},{"bike_id":"114a2473-762e-4586-9652-be6c66774a48","system_id":"levelo_inurba_marseille","lat":43.27195,"lon":5.39058,"is_reserved":false,"is_disabled":true,"rental_uris":{"android":"levelo://app?vid=114a2473-762e-4586-9652-be6c66774a48","ios":"levelo://app?vid=114a2473-762e-4586-9652-be6c66774a48"},"vehicle_type_id":"4","last_reported":1784715185,"current_range_meters":0,"station_id":"","pricing_plan_id":"cebpf4jnsgd1na2vs0mg"},{"bike_id":"aa0c2d9b-f4e0-477a-9fa2-18fd1e9e7acb","system_id":"levelo_inurba_marseille","lat":43.28701,"lon":5.46679,"is_reserved":false,"is_disabled":false,"rental_uris":{"android":"levelo://app?vid=aa0c2d9b-f4e0-477a-9fa2-18fd1e9e7acb","ios":"levelo://app?vid=aa0c2d9b-f4e0-477a-9fa2-18fd1e9e7acb"},"vehicle_type_id":"4","last_reported":1784715185,"current_range_meters":28800,"station_id":"st_d6tc3vkotcvc738tfjhg","pricing_plan_id":"cebpf4jnsgd1na2vs0mg"},{"bike_id":"7b1a34a9-9772-429a-ac81-dbcf3805788e","system_id":"levelo_inurba_marseille","lat":43.27882,"lon":5.35553,"is_reserved":false,"is_disabled":false,"rental_uris":{"android":"levelo://app?vid=7b1a34a9-9772-429a-ac81-dbcf3805788e","ios":"levelo://app?vid=7b1a34a9-9772-429a-ac81-dbcf3805788e"},"vehicle_type_id":"4","last_reported":1784715185,"current_range_meters":17600,"station_id":"","pricing_plan_id":"cebpf4jnsgd1na2vs0mg"},{"bike_id":"4c9bb140-7cb8-4874-bcbb-4e20437e7ab5","system_id":"levelo_inurba_marseille","lat":43.28837,"lon":5.42512,"is_reserved":false,"is_disabled":false,"rental_uris":{"android":"levelo://app?vid=4c9bb140-7cb8-4874-bcbb-4e20437e7ab5","ios":"levelo://app?vid=4c9bb140-7cb8-4874-bcbb-4e20437e7ab5"},"vehicle_type_id":"4","last_reported":1784715185,"current_range_meters":28400,"station_id":"st_d3b462108ojc7389ooeg","pricing_plan_id":"cebpf4jnsgd1na2vs0mg"},{"bike_id":"83c9bc06-9a41-4545-aa9d-d999970e36bd","system_id":"levelo_inurba_marseille","lat":43.27615,"lon":5.36104,"is_reserved":false,"is_disabled":true,"rental_uris":{"android":"levelo://app?vid=83c9bc06-9a41-4545-aa9d-d999970e36bd","ios":"levelo://app?vid=83c9bc06-9a41-4545-aa9d-d999970e36bd"},"vehicle_type_id":"4","last_reported":1784715185,"current_range_meters":39200,"station_id":"ce4bgj92rcd13ifvqbe0","pricing_plan_id":"cebpf4jnsgd1na2vs0mg"},{"bike_id":"b3615f38-9ae4-47b3-be0f-27da959fb130","system_id":"levelo_inurba_marseille","lat":43.26541,"lon":5.39609,"is_reserved":false,"is_disabled":false,"rental_uris":{"android":"levelo://app?vid=b3615f38-9ae4-47b3-be0f-27da959fb130","ios":"levelo://app?vid=b3615f38-9ae4-47b3-be0f-27da959fb130"},"vehicle_type_id":"4","last_reported":1784715185,"current_range_meters":16000,"station_id":"","pricing_plan_id":"cebpf4jnsgd1na2vs0mg"},{"bike_id":"58dc365e-57ad-4619-9121-e2ad08afeca6","system_id":"levelo_inurba_marseille","lat":43.27986,"lon":5.38696,"is_reserved":false,"is_disabled":false,"rental_uris":{"android":"levelo://app?vid=58dc365e-57ad-4619-9121-e2ad08afeca6","ios":"levelo://app?vid=58dc365e-57ad-4619-9121-e2ad08afeca6"},"vehicle_type_id":"4","last_reported":1784715185,"current_range_meters":39200,"station_id":"ce4bhg12rcd13ifvqf80","pricing_plan_id":"cebpf4jnsgd1na2vs0mg"},{"bike_id":"01d9a676-01f3-4b98-beb9-e0a1a490c722","system_id":"levelo_inurba_marseille","lat":43.2814,"lon":5.42638,"is_reserved":false,"is_disabled":false,"rental_uris":{"android":"levelo://app?vid=01d9a676-01f3-4b98-beb9-e0a1a490c722","ios":"levelo://app?vid=01d9a676-01f3-4b98-beb9-e0a1a490c722"},"vehicle_type_id":"4","last_reported":1784715185,"current_range_meters":28800,"station_id":"ce4bhnh2rcd13ifvqgug","pricing_plan_id":"cebpf4jnsgd1na2vs0mg"},{"bike_id":"f765bc46-853b-4f5f-a0cf-13f9a2c85881","system_id":"levelo_inurba_marseille","lat":43.32094,"lon":5.36754,"is_reserved":false,"is_disabled":false,"rental_uris":{"android":"levelo://app?vid=f765bc46-853b-4f5f-a0cf-13f9a2c85881","ios":"levelo://app?vid=f765bc46-853b-4f5f-a0cf-13f9a2c85881"},"vehicle_type_id":"4","last_reported":1784715185,"current_range_meters":34000,"station_id":"ce4bhrh2rcd13ifvqhug","pricing_plan_id":"cebpf4jnsgd1na2vs0mg"},{"bike_id":"04721d6d-f2e1-428f-ba6e-71ff1286f01b","system_id":"levelo_inurba_marseille","lat":43.24072,"lon":5.37719,"is_reserved":false,"is_disabled":false,"rental_uris":{"android":"levelo://app?vid=04721d6d-f2e1-428f-ba6e-71ff1286f01b","ios":"levelo://app?vid=04721d6d-f2e1-428f-ba6e-71ff1286f01b"},"vehicle_type_id":"4","last_reported":1784715185,"current_range_meters":38400,"station_id":"ce4bhnp2rcd13ifvqgvg","pricing_plan_id":"cebpf4jnsgd1na2vs0mg"},{"bike_id":"3ab46e4a-b9d6-458c-8f1a-3060296f87a3","system_id":"levelo_inurba_marseille","lat":43.25841,"lon":5.39905,"is_reserved":false,"is_disabled":false,"rental_uris":{"android":"levelo://app?vid=3ab46e4a-b9d6-458c-8f1a-3060296f87a3","ios":"levelo://app?vid=3ab46e4a-b9d6-458c-8f1a-3060296f87a3"},"vehicle_type_id":"4","last_reported":1784715185,"current_range_meters":27200,"station_id":"ce4bhl92rcd13ifvqghg","pricing_plan_id":"cebpf4jnsgd1na2vs0mg"},{"bike_id":"ba93309a-7b94-4ff9-87bd-2b00d2fbd9d0","system_id":"levelo_inurba_marseille","lat":43.31194,"lon":5.36819,"is_reserved":false,"is_disabled":false,"rental_uris":{"android":"levelo://app?vid=ba93309a-7b94-4ff9-87bd-2b00d2fbd9d0","ios":"levelo://app?vid=ba93309a-7b94-4ff9-87bd-2b00d2fbd9d0"},"vehicle_type_id":"4","last_reported":1784715185,"current_range_meters":32000,"station_id":"ce4bgl92rcd13ifvqbq0","pricing_plan_id":"cebpf4jnsgd1na2vs0mg"},{"bike_id":"a13e16e4-e177-431d-8bef-33b38f696e96","system_id":"levelo_inurba_marseille","lat":43.26769,"lon":5.39981,"is_reserved":false,"is_disabled":false,"rental_uris":{"android":"levelo://app?vid=a13e16e4-e177-431d-8bef-33b38f696e96","ios":"levelo://app?vid=a13e16e4-e177-431d-8bef-33b38f696e96"},"vehicle_type_id":"4","last_reported":1784715185,"current_range_meters":26000,"station_id":"","pricing_plan_id":"cebpf4jnsgd1na2vs0mg"},{"bike_id":"3f8eb4c8-ab35-49d3-b3bb-b8a835ece419","system_id":"levelo_inurba_marseille","lat":43.31366,"lon":5.38494,"is_reserved":false,"is_disabled":false,"rental_uris":{"android":"levelo://app?vid=3f8eb4c8-ab35-49d3-b3bb-b8a835ece419","ios":"levelo://app?vid=3f8eb4c8-ab35-49d3-b3bb-b8a835ece419"},"vehicle_type_id":"4","last_reported":1784715185,"current_range_meters":32000,"station_id":"ce4bgt92rcd13ifvqcf0","pricing_plan_id":"cebpf4jnsgd1na2vs0mg"},{"bike_id":"d923fd64-c32b-4ff8-9ab6-7ad87f400b45","system_id":"levelo_inurba_marseille","lat":43.21752,"lon":5.34613,"is_reserved":false,"is_disabled":false,"rental_uris":{"android":"levelo://app?vid=d923fd64-c32b-4ff8-9ab6-7ad87f400b45","ios":"levelo://app?vid=d923fd64-c32b-4ff8-9ab6-7ad87f400b45"},"vehicle_type_id":"4","last_reported":1784715185,"current_range_meters":30400,"station_id":"st_cvj6r9ubvosntc0bgbag","pricing_plan_id":"cebpf4jnsgd1na2vs0mg"},{"bike_id":"e96c897b-fadd-4b9a-85e6-43f6c1de6238","system_id":"levelo_inurba_marseille","lat":43.24638,"lon":5.38889,"is_reserved":false,"is_disabled":true,"rental_uris":{"android":"levelo://app?vid=e96c897b-fadd-4b9a-85e6-43f6c1de6238","ios":"levelo://app?vid=e96c897b-fadd-4b9a-85e6-43f6c1de6238"},"vehicle_type_id":"4","last_reported":1784715185,"current_range_meters":0,"station_id":"ce4bhg12rcd13ifvqf60","pricing_plan_id":"cebpf4jnsgd1na2vs0mg"},{"bike_id":"e3050c7c-ee0d-45a7-83f4-e56d564a4317","system_id":"levelo_inurba_marseille","lat":43.26566,"lon":5.38997,"is_reserved":false,"is_disabled":false,"rental_uris":{"android":"levelo://app?vid=e3050c7c-ee0d-45a7-83f4-e56d564a4317","ios":"levelo://app?vid=e3050c7c-ee0d-45a7-83f4-e56d564a4317"},"vehicle_type_id":"4","last_reported":1784715185,"current_range_meters":25600,"station_id":"ce4bhe12rcd13ifvqf30","pricing_plan_id":"cebpf4jnsgd1na2vs0mg"},{"bike_id":"1d9d1c87-69ec-4a29-95b6-c52937f6faa8","system_id":"levelo_inurba_marseille","lat":43.26495,"lon":5.39539,"is_reserved":false,"is_disabled":false,"rental_uris":{"android":"levelo://app?vid=1d9d1c87-69ec-4a29-95b6-c52937f6faa8","ios":"levelo://app?vid=1d9d1c87-69ec-4a29-95b6-c52937f6faa8"},"vehicle_type_id":"4","last_reported":1784715185,"current_range_meters":19200,"station_id":"ce4bhi12rcd13ifvqfq0","pricing_plan_id":"cebpf4jnsgd1na2vs0mg"},{"bike_id":"18c11ec0-362c-4026-b108-3a02844d6b5c","system_id":"levelo_inurba_marseille","lat":43.24156,"lon":5.38748,"is_reserved":false,"is_disabled":false,"rental_uris":{"android":"levelo://app?vid=18c11ec0-362c-4026-b108-3a02844d6b5c","ios":"levelo://app?vid=18c11ec0-362c-4026-b108-3a02844d6b5c"},"vehicle_type_id":"4","last_reported":1784715185,"current_range_meters":26800,"station_id":"","pricing_plan_id":"cebpf4jnsgd1na2vs0mg"},{"bike_id":"63ac71b9-4e91-4156-b2f4-760c36b35208","system_id":"levelo_inurba_marseille","lat":43.29053,"lon":5.35921,"is_reserved":false,"is_disabled":false,"rental_uris":{"android":"levelo://app?vid=63ac71b9-4e91-4156-b2f4-760c36b35208","ios":"levelo://app?vid=63ac71b9-4e91-4156-b2f4-760c36b35208"},"vehicle_type_id":"4","last_reported":1784715185,"current_range_meters":26000,"station_id":"ce4bha92rcd13ifvqeg0","pricing_plan_id":"cebpf4jnsgd1na2vs0mg"},{"bike_id":"9b283179-210a-4336-a14d-ac3412104c48","system_id":"levelo_inurba_marseille","lat":43.32477,"lon":5.36553,"is_reserved":false,"is_disabled":false,"rental_uris":{"android":"levelo://app?vid=9b283179-210a-4336-a14d-ac3412104c48","ios":"levelo://app?vid=9b283179-210a-4336-a14d-ac3412104c48"},"vehicle_type_id":"4","last_reported":1784715185,"current_range_meters":33200,"station_id":"ce4bhs12rcd13ifvqhvg","pricing_plan_id":"cebpf4jnsgd1na2vs0mg"},{"bike_id":"5152db48-a5d5-49bc-9762-0d43781a248a","system_id":"levelo_inurba_marseille","lat":43.2957,"lon":5.37534,"is_reserved":false,"is_disabled":false,"rental_uris":{"android":"levelo://app?vid=5152db48-a5d5-49bc-9762-0d43781a248a","ios":"levelo://app?vid=5152db48-a5d5-49bc-9762-0d43781a248a"},"vehicle_type_id":"4","last_reported":1784715185,"current_range_meters":30400,"station_id":"ce4bgh92rcd13ifvqb50","pricing_plan_id":"cebpf4jnsgd1na2vs0mg"},{"bike_id":"06a47a70-c4aa-4b09-8775-c059e958d2f4","system_id":"levelo_inurba_marseille","lat":43.28415,"lon":5.37531,"is_reserved":false,"is_disabled":false,"rental_uris":{"android":"levelo://app?vid=06a47a70-c4aa-4b09-8775-c059e958d2f4","ios":"levelo://app?vid=06a47a70-c4aa-4b09-8775-c059e958d2f4"},"vehicle_type_id":"4","last_reported":1784715185,"current_range_meters":25600,"station_id":"ce4bh412rcd13ifvqds0","pricing_plan_id":"cebpf4jnsgd1na2vs0mg"},{"bike_id":"134ed701-9182-4c12-bab7-2fd9709954d7","system_id":"levelo_inurba_marseille","lat":43.2655,"lon":5.39391,"is_reserved":false,"is_disabled":true,"rental_uris":{"android":"levelo://app?vid=134ed701-9182-4c12-bab7-2fd9709954d7","ios":"levelo://app?vid=134ed701-9182-4c12-bab7-2fd9709954d7"},"vehicle_type_id":"4","last_reported":1784715185,"current_range_meters":0,"station_id":"","pricing_plan_id":"cebpf4jnsgd1na2vs0mg"},{"bike_id":"8b980fe2-831a-474f-9257-aac80a862f21","system_id":"levelo_inurba_marseille","lat":43.32359,"lon":5.36732,"is_reserved":false,"is_disabled":false,"rental_uris":{"android":"levelo://app?vid=8b980fe2-831a-474f-9257-aac80a862f21","ios":"levelo://app?vid=8b980fe2-831a-474f-9257-aac80a862f21"},"vehicle_type_id":"4","last_reported":1784715185,"current_range_meters":39200,"station_id":"ce4bhsh2rcd13ifvqi2g","pricing_plan_id":"cebpf4jnsgd1na2vs0mg"},{"bike_id":"9c24dfc9-a9f6-48fe-9987-84002be90209","system_id":"levelo_inurba_marseille","lat":43.2768,"lon":5.38942,"is_reserved":false,"is_disabled":false,"rental_uris":{"android":"levelo://app?vid=9c24dfc9-a9f6-48fe-9987-84002be90209","ios":"levelo://app?vid=9c24dfc9-a9f6-48fe-9987-84002be90209"},"vehicle_type_id":"4","last_reported":1784715185,"current_range_meters":37600,"station_id":"","pricing_plan_id":"cebpf4jnsgd1na2vs0mg"},{"bike_id":"602348b5-0ec3-410d-8b93-57596fc7f6ae","system_id":"levelo_inurba_marseille","lat":43.29727,"lon":5.37673,"is_reserved":false,"is_disabled":false,"rental_uris":{"android":"levelo://app?vid=602348b5-0ec3-410d-8b93-57596fc7f6ae","ios":"levelo://app?vid=602348b5-0ec3-410d-8b93-57596fc7f6ae"},"vehicle_type_id":"4","last_reported":1784715185,"current_range_meters":24000,"station_id":"ce4bgkh2rcd13ifvqbl0","pricing_plan_id":"cebpf4jnsgd1na2vs0mg"},{"bike_id":"3cff31ea-c3fd-4a9e-aa7d-f699c19fe715","system_id":"levelo_inurba_marseille","lat":43.28528,"lon":5.441,"is_reserved":false,"is_disabled":false,"rental_uris":{"android":"levelo://app?vid=3cff31ea-c3fd-4a9e-aa7d-f699c19fe715","ios":"levelo://app?vid=3cff31ea-c3fd-4a9e-aa7d-f699c19fe715"},"vehicle_type_id":"4","last_reported":1784715185,"current_range_meters":30800,"station_id":"st_d3j3df2ikq2c7380ej80","pricing_plan_id":"cebpf4jnsgd1na2vs0mg"},{"bike_id":"1ffd6e8d-c4af-44c4-b5ee-8153d663260f","system_id":"levelo_inurba_marseille","lat":43.291987,"lon":5.393275,"is_reserved":false,"is_disabled":true,"rental_uris":{"android":"levelo://app?vid=1ffd6e8d-c4af-44c4-b5ee-8153d663260f","ios":"levelo://app?vid=1ffd6e8d-c4af-44c4-b5ee-8153d663260f"},"vehicle_type_id":"4","last_reported":1784715185,"current_range_meters":24000,"station_id":"ce4bh192rcd13ifvqdd0","pricing_plan_id":"cebpf4jnsgd1na2vs0mg"},{"bike_id":"191a5bd8-c1dd-4f7a-a257-eb663afa552d","system_id":"levelo_inurba_marseille","lat":43.29717,"lon":5.37709,"is_reserved":false,"is_disabled":false,"rental_uris":{"android":"levelo://app?vid=191a5bd8-c1dd-4f7a-a257-eb663afa552d","ios":"levelo://app?vid=191a5bd8-c1dd-4f7a-a257-eb663afa552d"},"vehicle_type_id":"4","last_reported":1784715185,"current_range_meters":36000,"station_id":"ce4bgkh2rcd13ifvqbl0","pricing_plan_id":"cebpf4jnsgd1na2vs0mg"},{"bike_id":"1e99efe8-5a96-48dd-977a-856215117710","system_id":"levelo_inurba_marseille","lat":43.30466,"lon":5.37905,"is_reserved":false,"is_disabled":false,"rental_uris":{"android":"levelo://app?vid=1e99efe8-5a96-48dd-977a-856215117710","ios":"levelo://app?vid=1e99efe8-5a96-48dd-977a-856215117710"},"vehicle_type_id":"4","last_reported":1784715185,"current_range_meters":14800,"station_id":"ce4bgup2rcd13ifvqcn0","pricing_plan_id":"cebpf4jnsgd1na2vs0mg"},{"bike_id":"ea65f945-5804-4f4c-a343-1c5b9664c0e2","system_id":"levelo_inurba_marseille","lat":43.30954,"lon":5.39018,"is_reserved":false,"is_disabled":false,"rental_uris":{"android":"levelo://app?vid=ea65f945-5804-4f4c-a343-1c5b9664c0e2","ios":"levelo://app?vid=ea65f945-5804-4f4c-a343-1c5b9664c0e2"},"vehicle_type_id":"4","last_reported":1784715185,"current_range_meters":37600,"station_id":"ce4bgup2rcd13ifvqco0","pricing_plan_id":"cebpf4jnsgd1na2vs0mg"},{"bike_id":"78778edd-7b64-45f0-905c-7190581e370d","system_id":"levelo_inurba_marseille","lat":43.26187,"lon":5.37452,"is_reserved":false,"is_disabled":false,"rental_uris":{"android":"levelo://app?vid=78778edd-7b64-45f0-905c-7190581e370d","ios":"levelo://app?vid=78778edd-7b64-45f0-905c-7190581e370d"},"vehicle_type_id":"4","last_reported":1784715185,"current_range_meters":10000,"station_id":"ce4bhgp2rcd13ifvqfc0","pricing_plan_id":"cebpf4jnsgd1na2vs0mg"},{"bike_id":"238398fc-83d7-4dbe-918b-1e8e7bd4a603","system_id":"levelo_inurba_marseille","lat":43.31225,"lon":5.39028,"is_reserved":false,"is_disabled":false,"rental_uris":{"android":"levelo://app?vid=238398fc-83d7-4dbe-918b-1e8e7bd4a603","ios":"levelo://app?vid=238398fc-83d7-4dbe-918b-1e8e7bd4a603"},"vehicle_type_id":"4","last_reported":1784715185,"current_range_meters":24000,"station_id":"","pricing_plan_id":"cebpf4jnsgd1na2vs0mg"},{"bike_id":"224e3314-54bb-4702-ad0b-cd07bad976e7","system_id":"levelo_inurba_marseille","lat":43.290335,"lon":5.386526,"is_reserved":false,"is_disabled":false,"rental_uris":{"android":"levelo://app?vid=224e3314-54bb-4702-ad0b-cd07bad976e7","ios":"levelo://app?vid=224e3314-54bb-4702-ad0b-cd07bad976e7"},"vehicle_type_id":"4","last_reported":1784715185,"current_range_meters":38400,"station_id":"ce4bh4p2rcd13ifvqe0g","pricing_plan_id":"cebpf4jnsgd1na2vs0mg"},{"bike_id":"78e7e967-a8d7-4345-8d31-93c9d317e74b","system_id":"levelo_inurba_marseille","lat":43.30445,"lon":5.40899,"is_reserved":false,"is_disabled":false,"rental_uris":{"android":"levelo://app?vid=78e7e967-a8d7-4345-8d31-93c9d317e74b","ios":"levelo://app?vid=78e7e967-a8d7-4345-8d31-93c9d317e74b"},"vehicle_type_id":"4","last_reported":1784715185,"current_range_meters":25600,"station_id":"","pricing_plan_id":"cebpf4jnsgd1na2vs0mg"},{"bike_id":"f1288106-a8c3-4624-ad2a-44299213b3e2","system_id":"levelo_inurba_marseille","lat":43.29596,"lon":5.36743,"is_reserved":false,"is_disabled":true,"rental_uris":{"android":"levelo://app?vid=f1288106-a8c3-4624-ad2a-44299213b3e2","ios":"levelo://app?vid=f1288106-a8c3-4624-ad2a-44299213b3e2"},"vehicle_type_id":"4","last_reported":1784715185,"current_range_meters":4000,"station_id":"","pricing_plan_id":"cebpf4jnsgd1na2vs0mg"},{"bike_id":"ab52afa5-a3f8-4d43-abb5-6d3bdce56e41","system_id":"levelo_inurba_marseille","lat":43.29847,"lon":5.376757,"is_reserved":false,"is_disabled":false,"rental_uris":{"android":"levelo://app?vid=ab52afa5-a3f8-4d43-abb5-6d3bdce56e41","ios":"levelo://app?vid=ab52afa5-a3f8-4d43-abb5-6d3bdce56e41"},"vehicle_type_id":"4","last_reported":1784715185,"current_range_meters":25600,"station_id":"ce4bgjh2rcd13ifvqbg0","pricing_plan_id":"cebpf4jnsgd1na2vs0mg"},{"bike_id":"ab907c16-2123-44c2-912f-95e0f2737c03","system_id":"levelo_inurba_marseille","lat":43.3039,"lon":5.42747,"is_reserved":false,"is_disabled":true,"rental_uris":{"android":"levelo://app?vid=ab907c16-2123-44c2-912f-95e0f2737c03","ios":"levelo://app?vid=ab907c16-2123-44c2-912f-95e0f2737c03"},"vehicle_type_id":"4","last_reported":1784715185,"current_range_meters":24000,"station_id":"","pricing_plan_id":"cebpf4jnsgd1na2vs0mg"},{"bike_id":"9958bf3e-9f9b-4b76-97c7-d14660691215","system_id":"levelo_inurba_marseille","lat":43.27994,"lon":5.38696,"is_reserved":false,"is_disabled":false,"rental_uris":{"android":"levelo://app?vid=9958bf3e-9f9b-4b76-97c7-d14660691215","ios":"levelo://app?vid=9958bf3e-9f9b-4b76-97c7-d14660691215"},"vehicle_type_id":"4","last_reported":1784715185,"current_range_meters":20400,"station_id":"ce4bhg12rcd13ifvqf80","pricing_plan_id":"cebpf4jnsgd1na2vs0mg"},{"bike_id":"dfee7efb-895a-48ea-b82d-10465457f9f7","system_id":"levelo_inurba_marseille","lat":43.29853,"lon":5.36274,"is_reserved":false,"is_disabled":false,"rental_uris":{"android":"levelo://app?vid=dfee7efb-895a-48ea-b82d-10465457f9f7","ios":"levelo://app?vid=dfee7efb-895a-48ea-b82d-10465457f9f7"},"vehicle_type_id":"4","last_reported":1784715185,"current_range_meters":32000,"station_id":"ce4bgpp2rcd13ifvqc3g","pricing_plan_id":"cebpf4jnsgd1na2vs0mg"},{"bike_id":"def8c373-7641-42dd-9974-e44012237799","system_id":"levelo_inurba_marseille","lat":43.31664,"lon":5.38778,"is_reserved":false,"is_disabled":false,"rental_uris":{"android":"levelo://app?vid=def8c373-7641-42dd-9974-e44012237799","ios":"levelo://app?vid=def8c373-7641-42dd-9974-e44012237799"},"vehicle_type_id":"4","last_reported":1784715185,"current_range_meters":37600,"station_id":"","pricing_plan_id":"cebpf4jnsgd1na2vs0mg"},{"bike_id":"3974ce33-e026-4d6e-8d56-19641ff6fefc","system_id":"levelo_inurba_marseille","lat":43.31874,"lon":5.39988,"is_reserved":false,"is_disabled":false,"rental_uris":{"android":"levelo://app?vid=3974ce33-e026-4d6e-8d56-19641ff6fefc","ios":"levelo://app?vid=3974ce33-e026-4d6e-8d56-19641ff6fefc"},"vehicle_type_id":"4","last_reported":1784715185,"current_range_meters":16400,"station_id":"","pricing_plan_id":"cebpf4jnsgd1na2vs0mg"},{"bike_id":"c520161e-c250-4161-a55a-6b287776d8da","system_id":"levelo_inurba_marseille","lat":43.28472,"lon":5.48392,"is_reserved":false,"is_disabled":false,"rental_uris":{"android":"levelo://app?vid=c520161e-c250-4161-a55a-6b287776d8da","ios":"levelo://app?vid=c520161e-c250-4161-a55a-6b287776d8da"},"vehicle_type_id":"4","last_reported":1784715185,"current_range_meters":28000,"station_id":"st_d3svhcjqgbts73a3dn0g","pricing_plan_id":"cebpf4jnsgd1na2vs0mg"},{"bike_id":"5326a61d-4052-4baf-bbd3-97dda62fe6d7","system_id":"levelo_inurba_marseille","lat":43.28528,"lon":5.44094,"is_reserved":false,"is_disabled":false,"rental_uris":{"android":"levelo://app?vid=5326a61d-4052-4baf-bbd3-97dda62fe6d7","ios":"levelo://app?vid=5326a61d-4052-4baf-bbd3-97dda62fe6d7"},"vehicle_type_id":"4","last_reported":1784715185,"current_range_meters":26000,"station_id":"st_d3j3df2ikq2c7380ej80","pricing_plan_id":"cebpf4jnsgd1na2vs0mg"},{"bike_id":"9dd62f13-e7e5-487d-80bd-6e353adc7a88","system_id":"levelo_inurba_marseille","lat":43.30865,"lon":5.39622,"is_reserved":false,"is_disabled":false,"rental_uris":{"android":"levelo://app?vid=9dd62f13-e7e5-487d-80bd-6e353adc7a88","ios":"levelo://app?vid=9dd62f13-e7e5-487d-80bd-6e353adc7a88"},"vehicle_type_id":"4","last_reported":1784715185,"current_range_meters":27200,"station_id":"ce4bh012rcd13ifvqcv0","pricing_plan_id":"cebpf4jnsgd1na2vs0mg"},{"bike_id":"01c17297-4b3a-4b4d-8254-ec6637b25733","system_id":"levelo_inurba_marseille","lat":43.29574,"lon":5.37526,"is_reserved":false,"is_disabled":false,"rental_uris":{"android":"levelo://app?vid=01c17297-4b3a-4b4d-8254-ec6637b25733","ios":"levelo://app?vid=01c17297-4b3a-4b4d-8254-ec6637b25733"},"vehicle_type_id":"4","last_reported":1784715185,"current_range_meters":37600,"station_id":"ce4bgh92rcd13ifvqb50","pricing_plan_id":"cebpf4jnsgd1na2vs0mg"},{"bike_id":"d49ddb09-8c89-468f-b37c-b7c0c3ff11dc","system_id":"levelo_inurba_marseille","lat":43.31525,"lon":5.37302,"is_reserved":false,"is_disabled":false,"rental_uris":{"android":"levelo://app?vid=d49ddb09-8c89-468f-b37c-b7c0c3ff11dc","ios":"levelo://app?vid=d49ddb09-8c89-468f-b37c-b7c0c3ff11dc"},"vehicle_type_id":"4","last_reported":1784715185,"current_range_meters":38400,"station_id":"ce4bgt12rcd13ifvqcd0","pricing_plan_id":"cebpf4jnsgd1na2vs0mg"},{"bike_id":"3c152ce7-b1e3-46b6-9481-1d5804cf459e","system_id":"levelo_inurba_marseille","lat":43.262,"lon":5.37446,"is_reserved":false,"is_disabled":false,"rental_uris":{"android":"levelo://app?vid=3c152ce7-b1e3-46b6-9481-1d5804cf459e","ios":"levelo://app?vid=3c152ce7-b1e3-46b6-9481-1d5804cf459e"},"vehicle_type_id":"4","last_reported":1784715185,"current_range_meters":36000,"station_id":"ce4bhgp2rcd13ifvqfc0","pricing_plan_id":"cebpf4jnsgd1na2vs0mg"},{"bike_id":"0a2c2a8e-f477-40f4-b43e-7f6280e73440","system_id":"levelo_inurba_marseille","lat":43.2795,"lon":5.4105,"is_reserved":false,"is_disabled":false,"rental_uris":{"android":"levelo://app?vid=0a2c2a8e-f477-40f4-b43e-7f6280e73440","ios":"levelo://app?vid=0a2c2a8e-f477-40f4-b43e-7f6280e73440"},"vehicle_type_id":"4","last_reported":1784715185,"current_range_meters":34800,"station_id":"ce4bhnp2rcd13ifvqh0g","pricing_plan_id":"cebpf4jnsgd1na2vs0mg"},{"bike_id":"08b86f9d-3a67-42e7-a41b-1723e770b453","system_id":"levelo_inurba_marseille","lat":43.26699,"lon":5.38268,"is_reserved":false,"is_disabled":false,"rental_uris":{"android":"levelo://app?vid=08b86f9d-3a67-42e7-a41b-1723e770b453","ios":"levelo://app?vid=08b86f9d-3a67-42e7-a41b-1723e770b453"},"vehicle_type_id":"4","last_reported":1784715185,"current_range_meters":19600,"station_id":"ce4bhg92rcd13ifvqf90","pricing_plan_id":"cebpf4jnsgd1na2vs0mg"},{"bike_id":"53a3744c-e7f3-4e70-811f-c5ac1bb56b9f","system_id":"levelo_inurba_marseille","lat":43.26497,"lon":5.39543,"is_reserved":false,"is_disabled":false,"rental_uris":{"android":"levelo://app?vid=53a3744c-e7f3-4e70-811f-c5ac1bb56b9f","ios":"levelo://app?vid=53a3744c-e7f3-4e70-811f-c5ac1bb56b9f"},"vehicle_type_id":"4","last_reported":1784715185,"current_range_meters":9600,"station_id":"ce4bhi12rcd13ifvqfq0","pricing_plan_id":"cebpf4jnsgd1na2vs0mg"},{"bike_id":"c9517488-1214-41f7-8c87-36f0f8598c38","system_id":"levelo_inurba_marseille","lat":43.29633,"lon":5.40593,"is_reserved":false,"is_disabled":false,"rental_uris":{"android":"levelo://app?vid=c9517488-1214-41f7-8c87-36f0f8598c38","ios":"levelo://app?vid=c9517488-1214-41f7-8c87-36f0f8598c38"},"vehicle_type_id":"4","last_reported":1784715185,"current_range_meters":22800,"station_id":"ce4bh0h2rcd13ifvqd60","pricing_plan_id":"cebpf4jnsgd1na2vs0mg"},{"bike_id":"0ddf1b55-087c-49ca-9aca-eeb8adf8b227","system_id":"levelo_inurba_marseille","lat":43.293,"lon":5.37197,"is_reserved":false,"is_disabled":false,"rental_uris":{"android":"levelo://app?vid=0ddf1b55-087c-49ca-9aca-eeb8adf8b227","ios":"levelo://app?vid=0ddf1b55-087c-49ca-9aca-eeb8adf8b227"},"vehicle_type_id":"4","last_reported":1784715185,"current_range_meters":39200,"station_id":"ce4bgh92rcd13ifvqb40","pricing_plan_id":"cebpf4jnsgd1na2vs0mg"},{"bike_id":"3a34f52e-1e5b-45cf-b1c8-7a76d3f0220c","system_id":"levelo_inurba_marseille","lat":43.29233,"lon":5.41749,"is_reserved":false,"is_disabled":false,"rental_uris":{"android":"levelo://app?vid=3a34f52e-1e5b-45cf-b1c8-7a76d3f0220c","ios":"levelo://app?vid=3a34f52e-1e5b-45cf-b1c8-7a76d3f0220c"},"vehicle_type_id":"4","last_reported":1784715185,"current_range_meters":31200,"station_id":"","pricing_plan_id":"cebpf4jnsgd1na2vs0mg"},{"bike_id":"084515e2-0152-4b76-85fc-a782086915cd","system_id":"levelo_inurba_marseille","lat":43.28075,"lon":5.39654,"is_reserved":false,"is_disabled":false,"rental_uris":{"android":"levelo://app?vid=084515e2-0152-4b76-85fc-a782086915cd","ios":"levelo://app?vid=084515e2-0152-4b76-85fc-a782086915cd"},"vehicle_type_id":"4","last_reported":1784715185,"current_range_meters":40000,"station_id":"ce4bho12rcd13ifvqh2g","pricing_plan_id":"cebpf4jnsgd1na2vs0mg"},{"bike_id":"b8e43a89-3bb1-4279-9cee-f7b093c9b703","system_id":"levelo_inurba_marseille","lat":43.33718,"lon":5.37415,"is_reserved":false,"is_disabled":false,"rental_uris":{"android":"levelo://app?vid=b8e43a89-3bb1-4279-9cee-f7b093c9b703","ios":"levelo://app?vid=b8e43a89-3bb1-4279-9cee-f7b093c9b703"},"vehicle_type_id":"4","last_reported":1784715185,"current_range_meters":15200,"station_id":"","pricing_plan_id":"cebpf4jnsgd1na2vs0mg"},{"bike_id":"41eca03f-63f8-4f3b-bdbb-6c1adc53c24e","system_id":"levelo_inurba_marseille","lat":43.26562,"lon":5.4032,"is_reserved":false,"is_disabled":false,"rental_uris":{"android":"levelo://app?vid=41eca03f-63f8-4f3b-bdbb-6c1adc53c24e","ios":"levelo://app?vid=41eca03f-63f8-4f3b-bdbb-6c1adc53c24e"},"vehicle_type_id":"4","last_reported":1784715185,"current_range_meters":32800,"station_id":"ce4bhmp2rcd13ifvqgng","pricing_plan_id":"cebpf4jnsgd1na2vs0mg"},{"bike_id":"17ec69e9-f82e-42b7-8fd3-de92d2bea59d","system_id":"levelo_inurba_marseille","lat":43.25334,"lon":5.42157,"is_reserved":false,"is_disabled":false,"rental_uris":{"android":"levelo://app?vid=17ec69e9-f82e-42b7-8fd3-de92d2bea59d","ios":"levelo://app?vid=17ec69e9-f82e-42b7-8fd3-de92d2bea59d"},"vehicle_type_id":"4","last_reported":1784715185,"current_range_meters":24400,"station_id":"st_d2m65c5bi1j21697t3ng","pricing_plan_id":"cebpf4jnsgd1na2vs0mg"},{"bike_id":"02392a76-7963-41b1-8c55-0486b506f8fc","system_id":"levelo_inurba_marseille","lat":43.25861,"lon":5.39901,"is_reserved":false,"is_disabled":false,"rental_uris":{"android":"levelo://app?vid=02392a76-7963-41b1-8c55-0486b506f8fc","ios":"levelo://app?vid=02392a76-7963-41b1-8c55-0486b506f8fc"},"vehicle_type_id":"4","last_reported":1784715185,"current_range_meters":39200,"station_id":"ce4bhl92rcd13ifvqghg","pricing_plan_id":"cebpf4jnsgd1na2vs0mg"},{"bike_id":"ee5f6ab8-1a2d-4287-80ce-57c0b6b23df9","system_id":"levelo_inurba_marseille","lat":43.27206,"lon":5.39186,"is_reserved":false,"is_disabled":false,"rental_uris":{"android":"levelo://app?vid=ee5f6ab8-1a2d-4287-80ce-57c0b6b23df9","ios":"levelo://app?vid=ee5f6ab8-1a2d-4287-80ce-57c0b6b23df9"},"vehicle_type_id":"4","last_reported":1784715185,"current_range_meters":38000,"station_id":"ce4bhhp2rcd13ifvqfm0","pricing_plan_id":"cebpf4jnsgd1na2vs0mg"},{"bike_id":"5783761d-f3a8-46b4-8c26-9812d8d66703","system_id":"levelo_inurba_marseille","lat":43.22535,"lon":5.34838,"is_reserved":false,"is_disabled":false,"rental_uris":{"android":"levelo://app?vid=5783761d-f3a8-46b4-8c26-9812d8d66703","ios":"levelo://app?vid=5783761d-f3a8-46b4-8c26-9812d8d66703"},"vehicle_type_id":"4","last_reported":1784715185,"current_range_meters":20800,"station_id":"st_cvj5dfep6f1abm77gieg","pricing_plan_id":"cebpf4jnsgd1na2vs0mg"},{"bike_id":"ed561fd9-a97f-4b5d-a877-fb337381b6be","system_id":"levelo_inurba_marseille","lat":43.31351,"lon":5.36701,"is_reserved":false,"is_disabled":false,"rental_uris":{"android":"levelo://app?vid=ed561fd9-a97f-4b5d-a877-fb337381b6be","ios":"levelo://app?vid=ed561fd9-a97f-4b5d-a877-fb337381b6be"},"vehicle_type_id":"4","last_reported":1784715185,"current_range_meters":22000,"station_id":"ce4bgr92rcd13ifvqc6g","pricing_plan_id":"cebpf4jnsgd1na2vs0mg"},{"bike_id":"13bbfe3b-874b-44d7-9abb-922c8de23c11","system_id":"levelo_inurba_marseille","lat":43.23207,"lon":5.35338,"is_reserved":false,"is_disabled":false,"rental_uris":{"android":"levelo://app?vid=13bbfe3b-874b-44d7-9abb-922c8de23c11","ios":"levelo://app?vid=13bbfe3b-874b-44d7-9abb-922c8de23c11"},"vehicle_type_id":"4","last_reported":1784715185,"current_range_meters":22800,"station_id":"","pricing_plan_id":"cebpf4jnsgd1na2vs0mg"},{"bike_id":"ee3556db-2a78-4565-9a09-e726246dd1c1","system_id":"levelo_inurba_marseille","lat":43.29709,"lon":5.37699,"is_reserved":false,"is_disabled":false,"rental_uris":{"android":"levelo://app?vid=ee3556db-2a78-4565-9a09-e726246dd1c1","ios":"levelo://app?vid=ee3556db-2a78-4565-9a09-e726246dd1c1"},"vehicle_type_id":"4","last_reported":1784715185,"current_range_meters":27600,"station_id":"ce4bgkh2rcd13ifvqbl0","pricing_plan_id":"cebpf4jnsgd1na2vs0mg"},{"bike_id":"fce27f18-8500-4a5d-a4a6-107a599c9591","system_id":"levelo_inurba_marseille","lat":43.23194,"lon":5.3555,"is_reserved":false,"is_disabled":false,"rental_uris":{"android":"levelo://app?vid=fce27f18-8500-4a5d-a4a6-107a599c9591","ios":"levelo://app?vid=fce27f18-8500-4a5d-a4a6-107a599c9591"},"vehicle_type_id":"4","last_reported":1784715185,"current_range_meters":29600,"station_id":"ce4bhu92rcd13ifvqi70","pricing_plan_id":"cebpf4jnsgd1na2vs0mg"},{"bike_id":"6ed5f8c3-6da8-4cec-bfad-13253a432d70","system_id":"levelo_inurba_marseille","lat":43.29407,"lon":5.38571,"is_reserved":false,"is_disabled":true,"rental_uris":{"android":"levelo://app?vid=6ed5f8c3-6da8-4cec-bfad-13253a432d70","ios":"levelo://app?vid=6ed5f8c3-6da8-4cec-bfad-13253a432d70"},"vehicle_type_id":"4","last_reported":1784715185,"current_range_meters":32800,"station_id":"","pricing_plan_id":"cebpf4jnsgd1na2vs0mg"},{"bike_id":"4674463f-7189-45e7-9644-099b2d5a4c26","system_id":"levelo_inurba_marseille","lat":43.30885,"lon":5.37205,"is_reserved":false,"is_disabled":false,"rental_uris":{"android":"levelo://app?vid=4674463f-7189-45e7-9644-099b2d5a4c26","ios":"levelo://app?vid=4674463f-7189-45e7-9644-099b2d5a4c26"},"vehicle_type_id":"4","last_reported":1784715185,"current_range_meters":4800,"station_id":"ce4bguh2rcd13ifvqckg","pricing_plan_id":"cebpf4jnsgd1na2vs0mg"},{"bike_id":"0dee0085-d5a5-4c48-b3f1-a323bb744f3d","system_id":"levelo_inurba_marseille","lat":43.22549,"lon":5.41625,"is_reserved":false,"is_disabled":false,"rental_uris":{"android":"levelo://app?vid=0dee0085-d5a5-4c48-b3f1-a323bb744f3d","ios":"levelo://app?vid=0dee0085-d5a5-4c48-b3f1-a323bb744f3d"},"vehicle_type_id":"4","last_reported":1784715185,"current_range_meters":32000,"station_id":"st_d2o4gvlbi1j2169b742g","pricing_plan_id":"cebpf4jnsgd1na2vs0mg"},{"bike_id":"ffcd6904-516d-4e53-b71f-c874a1d1276d","system_id":"levelo_inurba_marseille","lat":43.30155,"lon":5.37438,"is_reserved":false,"is_disabled":false,"rental_uris":{"android":"levelo://app?vid=ffcd6904-516d-4e53-b71f-c874a1d1276d","ios":"levelo://app?vid=ffcd6904-516d-4e53-b71f-c874a1d1276d"},"vehicle_type_id":"4","last_reported":1784715185,"current_range_meters":25600,"station_id":"ce4bgs92rcd13ifvqcc0","pricing_plan_id":"cebpf4jnsgd1na2vs0mg"},{"bike_id":"0b2c45f2-fdaa-45fe-9511-e6426cab85f6","system_id":"levelo_inurba_marseille","lat":43.27486,"lon":5.42454,"is_reserved":false,"is_disabled":false,"rental_uris":{"android":"levelo://app?vid=0b2c45f2-fdaa-45fe-9511-e6426cab85f6","ios":"levelo://app?vid=0b2c45f2-fdaa-45fe-9511-e6426cab85f6"},"vehicle_type_id":"4","last_reported":1784715185,"current_range_meters":19600,"station_id":"ce4bhn92rcd13ifvqgrg","pricing_plan_id":"cebpf4jnsgd1na2vs0mg"},{"bike_id":"30860ffd-ec21-4a88-a40f-00c5476d440a","system_id":"levelo_inurba_marseille","lat":43.26681,"lon":5.38261,"is_reserved":false,"is_disabled":false,"rental_uris":{"android":"levelo://app?vid=30860ffd-ec21-4a88-a40f-00c5476d440a","ios":"levelo://app?vid=30860ffd-ec21-4a88-a40f-00c5476d440a"},"vehicle_type_id":"4","last_reported":1784715185,"current_range_meters":24000,"station_id":"ce4bhg92rcd13ifvqf90","pricing_plan_id":"cebpf4jnsgd1na2vs0mg"},{"bike_id":"5e001310-485f-437c-bff2-2bcd03b008c6","system_id":"levelo_inurba_marseille","lat":43.27215,"lon":5.39165,"is_reserved":false,"is_disabled":false,"rental_uris":{"android":"levelo://app?vid=5e001310-485f-437c-bff2-2bcd03b008c6","ios":"levelo://app?vid=5e001310-485f-437c-bff2-2bcd03b008c6"},"vehicle_type_id":"4","last_reported":1784715185,"current_range_meters":31200,"station_id":"ce4bhhp2rcd13ifvqfm0","pricing_plan_id":"cebpf4jnsgd1na2vs0mg"},{"bike_id":"dad5eff3-cb3a-4459-ba39-741abe4a6c6c","system_id":"levelo_inurba_marseille","lat":43.32086,"lon":5.36774,"is_reserved":false,"is_disabled":false,"rental_uris":{"android":"levelo://app?vid=dad5eff3-cb3a-4459-ba39-741abe4a6c6c","ios":"levelo://app?vid=dad5eff3-cb3a-4459-ba39-741abe4a6c6c"},"vehicle_type_id":"4","last_reported":1784715185,"current_range_meters":8800,"station_id":"ce4bhrh2rcd13ifvqhug","pricing_plan_id":"cebpf4jnsgd1na2vs0mg"},{"bike_id":"39c8f94e-10d8-484e-94e2-aca6feb826f6","system_id":"levelo_inurba_marseille","lat":43.28135,"lon":5.42652,"is_reserved":false,"is_disabled":false,"rental_uris":{"android":"levelo://app?vid=39c8f94e-10d8-484e-94e2-aca6feb826f6","ios":"levelo://app?vid=39c8f94e-10d8-484e-94e2-aca6feb826f6"},"vehicle_type_id":"4","last_reported":1784715185,"current_range_meters":32800,"station_id":"ce4bhnh2rcd13ifvqgug","pricing_plan_id":"cebpf4jnsgd1na2vs0mg"},{"bike_id":"ba57db37-e11d-45a9-9693-eb12606aa600","system_id":"levelo_inurba_marseille","lat":43.27985,"lon":5.39996,"is_reserved":false,"is_disabled":false,"rental_uris":{"android":"levelo://app?vid=ba57db37-e11d-45a9-9693-eb12606aa600","ios":"levelo://app?vid=ba57db37-e11d-45a9-9693-eb12606aa600"},"vehicle_type_id":"4","last_reported":1784715185,"current_range_meters":39200,"station_id":"ce4bho92rcd13ifvqh4g","pricing_plan_id":"cebpf4jnsgd1na2vs0mg"},{"bike_id":"a5551c5d-bed7-49e5-a83a-8da2b64da0c4","system_id":"levelo_inurba_marseille","lat":43.30904,"lon":5.36849,"is_reserved":false,"is_disabled":false,"rental_uris":{"android":"levelo://app?vid=a5551c5d-bed7-49e5-a83a-8da2b64da0c4","ios":"levelo://app?vid=a5551c5d-bed7-49e5-a83a-8da2b64da0c4"},"vehicle_type_id":"4","last_reported":1784715185,"current_range_meters":40000,"station_id":"ce4bgn92rcd13ifvqbvg","pricing_plan_id":"cebpf4jnsgd1na2vs0mg"},{"bike_id":"e2a7024c-7996-4d5b-8595-fc0df99c43db","system_id":"levelo_inurba_marseille","lat":43.27062,"lon":5.42269,"is_reserved":false,"is_disabled":false,"rental_uris":{"android":"levelo://app?vid=e2a7024c-7996-4d5b-8595-fc0df99c43db","ios":"levelo://app?vid=e2a7024c-7996-4d5b-8595-fc0df99c43db"},"vehicle_type_id":"4","last_reported":1784715185,"current_range_meters":33600,"station_id":"ce4bhk92rcd13ifvqgb0","pricing_plan_id":"cebpf4jnsgd1na2vs0mg"},{"bike_id":"8d8673aa-a69c-4d74-931d-06b8f35221f4","system_id":"levelo_inurba_marseille","lat":43.26696,"lon":5.41989,"is_reserved":false,"is_disabled":false,"rental_uris":{"android":"levelo://app?vid=8d8673aa-a69c-4d74-931d-06b8f35221f4","ios":"levelo://app?vid=8d8673aa-a69c-4d74-931d-06b8f35221f4"},"vehicle_type_id":"4","last_reported":1784715185,"current_range_meters":27200,"station_id":"","pricing_plan_id":"cebpf4jnsgd1na2vs0mg"},{"bike_id":"bb6c1d94-b8a1-4d7e-8e26-2628675f7e1d","system_id":"levelo_inurba_marseille","lat":43.29594,"lon":5.37734,"is_reserved":false,"is_disabled":true,"rental_uris":{"android":"levelo://app?vid=bb6c1d94-b8a1-4d7e-8e26-2628675f7e1d","ios":"levelo://app?vid=bb6c1d94-b8a1-4d7e-8e26-2628675f7e1d"},"vehicle_type_id":"4","last_reported":1784715185,"current_range_meters":22000,"station_id":"ce4bgi92rcd13ifvqb90","pricing_plan_id":"cebpf4jnsgd1na2vs0mg"},{"bike_id":"a8d558f7-f6c9-460e-8c57-eb92c7ff4ad2","system_id":"levelo_inurba_marseille","lat":43.31232,"lon":5.36873,"is_reserved":false,"is_disabled":false,"rental_uris":{"android":"levelo://app?vid=a8d558f7-f6c9-460e-8c57-eb92c7ff4ad2","ios":"levelo://app?vid=a8d558f7-f6c9-460e-8c57-eb92c7ff4ad2"},"vehicle_type_id":"4","last_reported":1784715185,"current_range_meters":32800,"station_id":"ce4bgl92rcd13ifvqbq0","pricing_plan_id":"cebpf4jnsgd1na2vs0mg"},{"bike_id":"1f5d690e-ec61-49f6-987c-1b19bb5fd774","system_id":"levelo_inurba_marseille","lat":43.32344,"lon":5.38885,"is_reserved":false,"is_disabled":false,"rental_uris":{"android":"levelo://app?vid=1f5d690e-ec61-49f6-987c-1b19bb5fd774","ios":"levelo://app?vid=1f5d690e-ec61-49f6-987c-1b19bb5fd774"},"vehicle_type_id":"4","last_reported":1784715185,"current_range_meters":32400,"station_id":"ce4bhqp2rcd13ifvqhog","pricing_plan_id":"cebpf4jnsgd1na2vs0mg"},{"bike_id":"1fade11d-8e73-4748-8586-d9741ca55ced","system_id":"levelo_inurba_marseille","lat":43.317152,"lon":5.437034,"is_reserved":false,"is_disabled":false,"rental_uris":{"android":"levelo://app?vid=1fade11d-8e73-4748-8586-d9741ca55ced","ios":"levelo://app?vid=1fade11d-8e73-4748-8586-d9741ca55ced"},"vehicle_type_id":"4","last_reported":1784715185,"current_range_meters":32000,"station_id":"ce4bhp92rcd13ifvqhcg","pricing_plan_id":"cebpf4jnsgd1na2vs0mg"},{"bike_id":"f9a2ea16-edbf-40ae-81aa-9ff1de70ef02","system_id":"levelo_inurba_marseille","lat":43.33747,"lon":5.37475,"is_reserved":false,"is_disabled":false,"rental_uris":{"android":"levelo://app?vid=f9a2ea16-edbf-40ae-81aa-9ff1de70ef02","ios":"levelo://app?vid=f9a2ea16-edbf-40ae-81aa-9ff1de70ef02"},"vehicle_type_id":"4","last_reported":1784715185,"current_range_meters":14000,"station_id":"","pricing_plan_id":"cebpf4jnsgd1na2vs0mg"},{"bike_id":"7a2babf3-c1db-454b-9d39-2983535a82a0","system_id":"levelo_inurba_marseille","lat":43.30725,"lon":5.42452,"is_reserved":false,"is_disabled":false,"rental_uris":{"android":"levelo://app?vid=7a2babf3-c1db-454b-9d39-2983535a82a0","ios":"levelo://app?vid=7a2babf3-c1db-454b-9d39-2983535a82a0"},"vehicle_type_id":"4","last_reported":1784715185,"current_range_meters":39200,"station_id":"st_cvj6ca6bvosntc0bfgr0","pricing_plan_id":"cebpf4jnsgd1na2vs0mg"},{"bike_id":"1c2352d3-3810-4529-b252-583943f31c2a","system_id":"levelo_inurba_marseille","lat":43.24169,"lon":5.36396,"is_reserved":false,"is_disabled":false,"rental_uris":{"android":"levelo://app?vid=1c2352d3-3810-4529-b252-583943f31c2a","ios":"levelo://app?vid=1c2352d3-3810-4529-b252-583943f31c2a"},"vehicle_type_id":"4","last_reported":1784715185,"current_range_meters":3600,"station_id":"cpo36qri1sfpv3e86is0","pricing_plan_id":"cebpf4jnsgd1na2vs0mg"},{"bike_id":"63a56c07-5d6f-412d-84a7-24ea5e8b27d1","system_id":"levelo_inurba_marseille","lat":43.24991,"lon":5.38939,"is_reserved":false,"is_disabled":false,"rental_uris":{"android":"levelo://app?vid=63a56c07-5d6f-412d-84a7-24ea5e8b27d1","ios":"levelo://app?vid=63a56c07-5d6f-412d-84a7-24ea5e8b27d1"},"vehicle_type_id":"4","last_reported":1784715185,"current_range_meters":28000,"station_id":"ce4bhgp2rcd13ifvqfd0","pricing_plan_id":"cebpf4jnsgd1na2vs0mg"},{"bike_id":"36f797d9-5b95-4843-b50e-7f80ed979ebf","system_id":"levelo_inurba_marseille","lat":43.25564,"lon":5.38237,"is_reserved":false,"is_disabled":false,"rental_uris":{"android":"levelo://app?vid=36f797d9-5b95-4843-b50e-7f80ed979ebf","ios":"levelo://app?vid=36f797d9-5b95-4843-b50e-7f80ed979ebf"},"vehicle_type_id":"4","last_reported":1784715185,"current_range_meters":26800,"station_id":"ce4bhih2rcd13ifvqfs0","pricing_plan_id":"cebpf4jnsgd1na2vs0mg"},{"bike_id":"a31cea0c-4cff-4f6d-8f93-36842670158b","system_id":"levelo_inurba_marseille","lat":43.29708,"lon":5.36625,"is_reserved":false,"is_disabled":true,"rental_uris":{"android":"levelo://app?vid=a31cea0c-4cff-4f6d-8f93-36842670158b","ios":"levelo://app?vid=a31cea0c-4cff-4f6d-8f93-36842670158b"},"vehicle_type_id":"4","last_reported":1784715185,"current_range_meters":39200,"station_id":"ce4bgn12rcd13ifvqbt0","pricing_plan_id":"cebpf4jnsgd1na2vs0mg"},{"bike_id":"e8e76fdb-2435-48b2-aa84-a6718b0c1249","system_id":"levelo_inurba_marseille","lat":43.26559,"lon":5.37335,"is_reserved":false,"is_disabled":false,"rental_uris":{"android":"levelo://app?vid=e8e76fdb-2435-48b2-aa84-a6718b0c1249","ios":"levelo://app?vid=e8e76fdb-2435-48b2-aa84-a6718b0c1249"},"vehicle_type_id":"4","last_reported":1784715185,"current_range_meters":38800,"station_id":"ce4bhg12rcd13ifvqf70","pricing_plan_id":"cebpf4jnsgd1na2vs0mg"},{"bike_id":"6d609200-2c64-463b-bd0e-70a61a4731c2","system_id":"levelo_inurba_marseille","lat":43.24065,"lon":5.37745,"is_reserved":false,"is_disabled":false,"rental_uris":{"android":"levelo://app?vid=6d609200-2c64-463b-bd0e-70a61a4731c2","ios":"levelo://app?vid=6d609200-2c64-463b-bd0e-70a61a4731c2"},"vehicle_type_id":"4","last_reported":1784715185,"current_range_meters":37600,"station_id":"ce4bhnp2rcd13ifvqgvg","pricing_plan_id":"cebpf4jnsgd1na2vs0mg"},{"bike_id":"747d888c-b833-4d91-8098-768070d4079e","system_id":"levelo_inurba_marseille","lat":43.30561,"lon":5.38197,"is_reserved":false,"is_disabled":false,"rental_uris":{"android":"levelo://app?vid=747d888c-b833-4d91-8098-768070d4079e","ios":"levelo://app?vid=747d888c-b833-4d91-8098-768070d4079e"},"vehicle_type_id":"4","last_reported":1784715185,"current_range_meters":37600,"station_id":"","pricing_plan_id":"cebpf4jnsgd1na2vs0mg"},{"bike_id":"425cee52-7ff4-408d-b63f-f1bb20a33257","system_id":"levelo_inurba_marseille","lat":43.27479,"lon":5.42551,"is_reserved":false,"is_disabled":false,"rental_uris":{"android":"levelo://app?vid=425cee52-7ff4-408d-b63f-f1bb20a33257","ios":"levelo://app?vid=425cee52-7ff4-408d-b63f-f1bb20a33257"},"vehicle_type_id":"4","last_reported":1784715185,"current_range_meters":38400,"station_id":"st_d8t4bh7nbrqs73arha60","pricing_plan_id":"cebpf4jnsgd1na2vs0mg"},{"bike_id":"acb6c310-64e8-4ffb-9d0e-3645b38213aa","system_id":"levelo_inurba_marseille","lat":43.22556,"lon":5.41624,"is_reserved":false,"is_disabled":false,"rental_uris":{"android":"levelo://app?vid=acb6c310-64e8-4ffb-9d0e-3645b38213aa","ios":"levelo://app?vid=acb6c310-64e8-4ffb-9d0e-3645b38213aa"},"vehicle_type_id":"4","last_reported":1784715185,"current_range_meters":9600,"station_id":"st_d2o4gvlbi1j2169b742g","pricing_plan_id":"cebpf4jnsgd1na2vs0mg"},{"bike_id":"cd326ee3-00ed-4c8a-8f32-ac6016444131","system_id":"levelo_inurba_marseille","lat":43.29534,"lon":5.38541,"is_reserved":false,"is_disabled":true,"rental_uris":{"android":"levelo://app?vid=cd326ee3-00ed-4c8a-8f32-ac6016444131","ios":"levelo://app?vid=cd326ee3-00ed-4c8a-8f32-ac6016444131"},"vehicle_type_id":"4","last_reported":1784715185,"current_range_meters":400,"station_id":"ce4bgih2rcd13ifvqba0","pricing_plan_id":"cebpf4jnsgd1na2vs0mg"},{"bike_id":"f25146f3-8ff6-4d67-9a95-c279a86e6f46","system_id":"levelo_inurba_marseille","lat":43.2669,"lon":5.38272,"is_reserved":false,"is_disabled":false,"rental_uris":{"android":"levelo://app?vid=f25146f3-8ff6-4d67-9a95-c279a86e6f46","ios":"levelo://app?vid=f25146f3-8ff6-4d67-9a95-c279a86e6f46"},"vehicle_type_id":"4","last_reported":1784715185,"current_range_meters":24400,"station_id":"ce4bhg92rcd13ifvqf90","pricing_plan_id":"cebpf4jnsgd1na2vs0mg"},{"bike_id":"2b2d5806-a98a-4b6d-8666-219c96826a65","system_id":"levelo_inurba_marseille","lat":43.33023,"lon":5.39031,"is_reserved":false,"is_disabled":false,"rental_uris":{"android":"levelo://app?vid=2b2d5806-a98a-4b6d-8666-219c96826a65","ios":"levelo://app?vid=2b2d5806-a98a-4b6d-8666-219c96826a65"},"vehicle_type_id":"4","last_reported":1784715185,"current_range_meters":9600,"station_id":"ce4bhr92rcd13ifvqhrg","pricing_plan_id":"cebpf4jnsgd1na2vs0mg"},{"bike_id":"32e367b4-e04d-44c6-a02f-0da369d87a8b","system_id":"levelo_inurba_marseille","lat":43.23179,"lon":5.39993,"is_reserved":false,"is_disabled":false,"rental_uris":{"android":"levelo://app?vid=32e367b4-e04d-44c6-a02f-0da369d87a8b","ios":"levelo://app?vid=32e367b4-e04d-44c6-a02f-0da369d87a8b"},"vehicle_type_id":"4","last_reported":1784715185,"current_range_meters":16000,"station_id":"ce4bhn12rcd13ifvqgqg","pricing_plan_id":"cebpf4jnsgd1na2vs0mg"},{"bike_id":"b2844a55-25be-4862-94a3-e1408ff80564","system_id":"levelo_inurba_marseille","lat":43.23702,"lon":5.37333,"is_reserved":false,"is_disabled":false,"rental_uris":{"android":"levelo://app?vid=b2844a55-25be-4862-94a3-e1408ff80564","ios":"levelo://app?vid=b2844a55-25be-4862-94a3-e1408ff80564"},"vehicle_type_id":"4","last_reported":1784715185,"current_range_meters":35600,"station_id":"","pricing_plan_id":"cebpf4jnsgd1na2vs0mg"},{"bike_id":"550d52cf-f2da-49d7-9241-7e04a849abf7","system_id":"levelo_inurba_marseille","lat":43.26563,"lon":5.40324,"is_reserved":false,"is_disabled":false,"rental_uris":{"android":"levelo://app?vid=550d52cf-f2da-49d7-9241-7e04a849abf7","ios":"levelo://app?vid=550d52cf-f2da-49d7-9241-7e04a849abf7"},"vehicle_type_id":"4","last_reported":1784715185,"current_range_meters":40000,"station_id":"ce4bhmp2rcd13ifvqgng","pricing_plan_id":"cebpf4jnsgd1na2vs0mg"},{"bike_id":"d51b899f-0167-4a78-b368-b89c3cd81980","system_id":"levelo_inurba_marseille","lat":43.30885,"lon":5.39655,"is_reserved":false,"is_disabled":false,"rental_uris":{"android":"levelo://app?vid=d51b899f-0167-4a78-b368-b89c3cd81980","ios":"levelo://app?vid=d51b899f-0167-4a78-b368-b89c3cd81980"},"vehicle_type_id":"4","last_reported":1784715185,"current_range_meters":33600,"station_id":"ce4bh012rcd13ifvqcv0","pricing_plan_id":"cebpf4jnsgd1na2vs0mg"},{"bike_id":"cac78be8-9524-43dd-920d-4e85aa2896b7","system_id":"levelo_inurba_marseille","lat":43.24188,"lon":5.39725,"is_reserved":false,"is_disabled":false,"rental_uris":{"android":"levelo://app?vid=cac78be8-9524-43dd-920d-4e85aa2896b7","ios":"levelo://app?vid=cac78be8-9524-43dd-920d-4e85aa2896b7"},"vehicle_type_id":"4","last_reported":1784715185,"current_range_meters":40000,"station_id":"ce4bhn12rcd13ifvqgpg","pricing_plan_id":"cebpf4jnsgd1na2vs0mg"},{"bike_id":"aee2475a-fb2d-4bb0-a551-1145de4b2b3a","system_id":"levelo_inurba_marseille","lat":43.23218,"lon":5.35548,"is_reserved":false,"is_disabled":false,"rental_uris":{"android":"levelo://app?vid=aee2475a-fb2d-4bb0-a551-1145de4b2b3a","ios":"levelo://app?vid=aee2475a-fb2d-4bb0-a551-1145de4b2b3a"},"vehicle_type_id":"4","last_reported":1784715185,"current_range_meters":38000,"station_id":"ce4bhu92rcd13ifvqi70","pricing_plan_id":"cebpf4jnsgd1na2vs0mg"},{"bike_id":"39bbaaad-b745-4286-8114-27ebd2023511","system_id":"levelo_inurba_marseille","lat":43.28685,"lon":5.38657,"is_reserved":false,"is_disabled":false,"rental_uris":{"android":"levelo://app?vid=39bbaaad-b745-4286-8114-27ebd2023511","ios":"levelo://app?vid=39bbaaad-b745-4286-8114-27ebd2023511"},"vehicle_type_id":"4","last_reported":1784715185,"current_range_meters":30400,"station_id":"ce4bh492rcd13ifvqdug","pricing_plan_id":"cebpf4jnsgd1na2vs0mg"},{"bike_id":"852376dd-f04f-4afc-82a9-1351bd20ef1f","system_id":"levelo_inurba_marseille","lat":43.23056,"lon":5.35499,"is_reserved":false,"is_disabled":false,"rental_uris":{"android":"levelo://app?vid=852376dd-f04f-4afc-82a9-1351bd20ef1f","ios":"levelo://app?vid=852376dd-f04f-4afc-82a9-1351bd20ef1f"},"vehicle_type_id":"4","last_reported":1784715185,"current_range_meters":39200,"station_id":"cpo3342slgdg3j2ifvpg","pricing_plan_id":"cebpf4jnsgd1na2vs0mg"},{"bike_id":"47ff0f9f-308b-4144-bd8b-574e9767fcd6","system_id":"levelo_inurba_marseille","lat":43.23045,"lon":5.35503,"is_reserved":false,"is_disabled":false,"rental_uris":{"android":"levelo://app?vid=47ff0f9f-308b-4144-bd8b-574e9767fcd6","ios":"levelo://app?vid=47ff0f9f-308b-4144-bd8b-574e9767fcd6"},"vehicle_type_id":"4","last_reported":1784715185,"current_range_meters":32400,"station_id":"cpo3342slgdg3j2ifvpg","pricing_plan_id":"cebpf4jnsgd1na2vs0mg"},{"bike_id":"bace381c-6258-4d80-80f1-070c343af026","system_id":"levelo_inurba_marseille","lat":43.33163,"lon":5.37687,"is_reserved":false,"is_disabled":false,"rental_uris":{"android":"levelo://app?vid=bace381c-6258-4d80-80f1-070c343af026","ios":"levelo://app?vid=bace381c-6258-4d80-80f1-070c343af026"},"vehicle_type_id":"4","last_reported":1784715185,"current_range_meters":10000,"station_id":"st_d46cu089ee8s73dldbu0","pricing_plan_id":"cebpf4jnsgd1na2vs0mg"},{"bike_id":"30c4ac33-0ab1-4d38-9ba3-d2fd3f9488d1","system_id":"levelo_inurba_marseille","lat":43.24161,"lon":5.39723,"is_reserved":false,"is_disabled":false,"rental_uris":{"android":"levelo://app?vid=30c4ac33-0ab1-4d38-9ba3-d2fd3f9488d1","ios":"levelo://app?vid=30c4ac33-0ab1-4d38-9ba3-d2fd3f9488d1"},"vehicle_type_id":"4","last_reported":1784715185,"current_range_meters":39200,"station_id":"ce4bhn12rcd13ifvqgpg","pricing_plan_id":"cebpf4jnsgd1na2vs0mg"},{"bike_id":"78fe8861-1675-43d6-a7e3-b96619cd5ecb","system_id":"levelo_inurba_marseille","lat":43.29291,"lon":5.37153,"is_reserved":false,"is_disabled":false,"rental_uris":{"android":"levelo://app?vid=78fe8861-1675-43d6-a7e3-b96619cd5ecb","ios":"levelo://app?vid=78fe8861-1675-43d6-a7e3-b96619cd5ecb"},"vehicle_type_id":"4","last_reported":1784715185,"current_range_meters":28400,"station_id":"ce4bgh92rcd13ifvqb40","pricing_plan_id":"cebpf4jnsgd1na2vs0mg"},{"bike_id":"3bd23bf9-e7c4-48ea-9a19-dc3245545753","system_id":"levelo_inurba_marseille","lat":43.28271,"lon":5.40504,"is_reserved":false,"is_disabled":false,"rental_uris":{"android":"levelo://app?vid=3bd23bf9-e7c4-48ea-9a19-dc3245545753","ios":"levelo://app?vid=3bd23bf9-e7c4-48ea-9a19-dc3245545753"},"vehicle_type_id":"4","last_reported":1784715185,"current_range_meters":8400,"station_id":"","pricing_plan_id":"cebpf4jnsgd1na2vs0mg"},{"bike_id":"e9e543b0-8ca5-47a6-998c-4902ea53cdd4","system_id":"levelo_inurba_marseille","lat":43.2519,"lon":5.3737,"is_reserved":false,"is_disabled":true,"rental_uris":{"android":"levelo://app?vid=e9e543b0-8ca5-47a6-998c-4902ea53cdd4","ios":"levelo://app?vid=e9e543b0-8ca5-47a6-998c-4902ea53cdd4"},"vehicle_type_id":"4","last_reported":1784715185,"current_range_meters":11600,"station_id":"","pricing_plan_id":"cebpf4jnsgd1na2vs0mg"},{"bike_id":"7b994b50-d1d9-4795-96d3-24bdfc1e5a92","system_id":"levelo_inurba_marseille","lat":43.231533,"lon":5.437008,"is_reserved":false,"is_disabled":false,"rental_uris":{"android":"levelo://app?vid=7b994b50-d1d9-4795-96d3-24bdfc1e5a92","ios":"levelo://app?vid=7b994b50-d1d9-4795-96d3-24bdfc1e5a92"},"vehicle_type_id":"4","last_reported":1784715185,"current_range_meters":22000,"station_id":"ce4bhmp2rcd13ifvqgog","pricing_plan_id":"cebpf4jnsgd1na2vs0mg"},{"bike_id":"7bb6d49d-d134-4596-9672-75dc41be671b","system_id":"levelo_inurba_marseille","lat":43.29276,"lon":5.36843,"is_reserved":false,"is_disabled":false,"rental_uris":{"android":"levelo://app?vid=7bb6d49d-d134-4596-9672-75dc41be671b","ios":"levelo://app?vid=7bb6d49d-d134-4596-9672-75dc41be671b"},"vehicle_type_id":"4","last_reported":1784715185,"current_range_meters":22800,"station_id":"","pricing_plan_id":"cebpf4jnsgd1na2vs0mg"},{"bike_id":"884107ee-73de-4e40-b23c-8e2f8e217094","system_id":"levelo_inurba_marseille","lat":43.2937,"lon":5.3783,"is_reserved":false,"is_disabled":false,"rental_uris":{"android":"levelo://app?vid=884107ee-73de-4e40-b23c-8e2f8e217094","ios":"levelo://app?vid=884107ee-73de-4e40-b23c-8e2f8e217094"},"vehicle_type_id":"4","last_reported":1784715185,"current_range_meters":4000,"station_id":"ce4bgjh2rcd13ifvqbf0","pricing_plan_id":"cebpf4jnsgd1na2vs0mg"},{"bike_id":"8f31f3af-0aa6-4421-8e2c-a77a880bef79","system_id":"levelo_inurba_marseille","lat":43.273726,"lon":5.398294,"is_reserved":false,"is_disabled":true,"rental_uris":{"android":"levelo://app?vid=8f31f3af-0aa6-4421-8e2c-a77a880bef79","ios":"levelo://app?vid=8f31f3af-0aa6-4421-8e2c-a77a880bef79"},"vehicle_type_id":"4","last_reported":1784715185,"current_range_meters":8000,"station_id":"","pricing_plan_id":"cebpf4jnsgd1na2vs0mg"},{"bike_id":"285820f9-9811-40a5-87b0-0491a6035481","system_id":"levelo_inurba_marseille","lat":43.27177,"lon":5.40991,"is_reserved":false,"is_disabled":false,"rental_uris":{"android":"levelo://app?vid=285820f9-9811-40a5-87b0-0491a6035481","ios":"levelo://app?vid=285820f9-9811-40a5-87b0-0491a6035481"},"vehicle_type_id":"4","last_reported":1784715185,"current_range_meters":33200,"station_id":"ce4bhl12rcd13ifvqgf0","pricing_plan_id":"cebpf4jnsgd1na2vs0mg"},{"bike_id":"83925a5d-2fdb-4961-87af-9524cc4451ad","system_id":"levelo_inurba_marseille","lat":43.30949,"lon":5.39026,"is_reserved":false,"is_disabled":false,"rental_uris":{"android":"levelo://app?vid=83925a5d-2fdb-4961-87af-9524cc4451ad","ios":"levelo://app?vid=83925a5d-2fdb-4961-87af-9524cc4451ad"},"vehicle_type_id":"4","last_reported":1784715185,"current_range_meters":39200,"station_id":"ce4bgup2rcd13ifvqco0","pricing_plan_id":"cebpf4jnsgd1na2vs0mg"},{"bike_id":"dfd808b2-eb0f-42c3-bea8-e719e619a590","system_id":"levelo_inurba_marseille","lat":43.26775,"lon":5.39441,"is_reserved":false,"is_disabled":true,"rental_uris":{"android":"levelo://app?vid=dfd808b2-eb0f-42c3-bea8-e719e619a590","ios":"levelo://app?vid=dfd808b2-eb0f-42c3-bea8-e719e619a590"},"vehicle_type_id":"4","last_reported":1784715185,"current_range_meters":36800,"station_id":"ce4bhh12rcd13ifvqfg0","pricing_plan_id":"cebpf4jnsgd1na2vs0mg"},{"bike_id":"1a8f7e32-5d47-4694-89a5-a9089b244299","system_id":"levelo_inurba_marseille","lat":43.28078,"lon":5.38496,"is_reserved":false,"is_disabled":false,"rental_uris":{"android":"levelo://app?vid=1a8f7e32-5d47-4694-89a5-a9089b244299","ios":"levelo://app?vid=1a8f7e32-5d47-4694-89a5-a9089b244299"},"vehicle_type_id":"4","last_reported":1784715185,"current_range_meters":6000,"station_id":"","pricing_plan_id":"cebpf4jnsgd1na2vs0mg"},{"bike_id":"bb96650a-3021-4a12-aa1c-45954489ce0e","system_id":"levelo_inurba_marseille","lat":43.34149,"lon":5.4091,"is_reserved":false,"is_disabled":false,"rental_uris":{"android":"levelo://app?vid=bb96650a-3021-4a12-aa1c-45954489ce0e","ios":"levelo://app?vid=bb96650a-3021-4a12-aa1c-45954489ce0e"},"vehicle_type_id":"4","last_reported":1784715185,"current_range_meters":37600,"station_id":"ce4bhqh2rcd13ifvqhlg","pricing_plan_id":"cebpf4jnsgd1na2vs0mg"},{"bike_id":"a2c9fd6e-925c-4795-ba3f-b9c641931695","system_id":"levelo_inurba_marseille","lat":43.29601,"lon":5.37726,"is_reserved":false,"is_disabled":true,"rental_uris":{"android":"levelo://app?vid=a2c9fd6e-925c-4795-ba3f-b9c641931695","ios":"levelo://app?vid=a2c9fd6e-925c-4795-ba3f-b9c641931695"},"vehicle_type_id":"4","last_reported":1784715185,"current_range_meters":25600,"station_id":"ce4bgi92rcd13ifvqb90","pricing_plan_id":"cebpf4jnsgd1na2vs0mg"},{"bike_id":"55905200-eaa2-4ede-b0e7-e8e4672cccac","system_id":"levelo_inurba_marseille","lat":43.30127,"lon":5.43121,"is_reserved":false,"is_disabled":false,"rental_uris":{"android":"levelo://app?vid=55905200-eaa2-4ede-b0e7-e8e4672cccac","ios":"levelo://app?vid=55905200-eaa2-4ede-b0e7-e8e4672cccac"},"vehicle_type_id":"4","last_reported":1784715185,"current_range_meters":18000,"station_id":"st_d3js3co5814s73ftftug","pricing_plan_id":"cebpf4jnsgd1na2vs0mg"},{"bike_id":"bef127d2-f52e-4948-bdc1-d0efdc383b1d","system_id":"levelo_inurba_marseille","lat":43.29849,"lon":5.36298,"is_reserved":false,"is_disabled":false,"rental_uris":{"android":"levelo://app?vid=bef127d2-f52e-4948-bdc1-d0efdc383b1d","ios":"levelo://app?vid=bef127d2-f52e-4948-bdc1-d0efdc383b1d"},"vehicle_type_id":"4","last_reported":1784715185,"current_range_meters":30800,"station_id":"ce4bgpp2rcd13ifvqc3g","pricing_plan_id":"cebpf4jnsgd1na2vs0mg"},{"bike_id":"7b7c350c-7fa0-4260-b6c2-812c00fe7727","system_id":"levelo_inurba_marseille","lat":43.32104,"lon":5.36774,"is_reserved":false,"is_disabled":false,"rental_uris":{"android":"levelo://app?vid=7b7c350c-7fa0-4260-b6c2-812c00fe7727","ios":"levelo://app?vid=7b7c350c-7fa0-4260-b6c2-812c00fe7727"},"vehicle_type_id":"4","last_reported":1784715185,"current_range_meters":28000,"station_id":"ce4bhrh2rcd13ifvqhug","pricing_plan_id":"cebpf4jnsgd1na2vs0mg"},{"bike_id":"002b6de9-4906-4900-bd53-a26437451aab","system_id":"levelo_inurba_marseille","lat":43.33245,"lon":5.35885,"is_reserved":false,"is_disabled":false,"rental_uris":{"android":"levelo://app?vid=002b6de9-4906-4900-bd53-a26437451aab","ios":"levelo://app?vid=002b6de9-4906-4900-bd53-a26437451aab"},"vehicle_type_id":"4","last_reported":1784715185,"current_range_meters":13600,"station_id":"","pricing_plan_id":"cebpf4jnsgd1na2vs0mg"},{"bike_id":"ae4d8230-91d6-494c-8f79-2d710589d93c","system_id":"levelo_inurba_marseille","lat":43.29911,"lon":5.3747,"is_reserved":false,"is_disabled":false,"rental_uris":{"android":"levelo://app?vid=ae4d8230-91d6-494c-8f79-2d710589d93c","ios":"levelo://app?vid=ae4d8230-91d6-494c-8f79-2d710589d93c"},"vehicle_type_id":"4","last_reported":1784715185,"current_range_meters":32400,"station_id":"ce4bgjh2rcd13ifvqbg0","pricing_plan_id":"cebpf4jnsgd1na2vs0mg"},{"bike_id":"94f1b0ad-aaa9-4b51-806c-9eae39355e9b","system_id":"levelo_inurba_marseille","lat":43.27373,"lon":5.36264,"is_reserved":false,"is_disabled":true,"rental_uris":{"android":"levelo://app?vid=94f1b0ad-aaa9-4b51-806c-9eae39355e9b","ios":"levelo://app?vid=94f1b0ad-aaa9-4b51-806c-9eae39355e9b"},"vehicle_type_id":"4","last_reported":1784715185,"current_range_meters":30000,"station_id":"ce4bhbh2rcd13ifvqeo0","pricing_plan_id":"cebpf4jnsgd1na2vs0mg"},{"bike_id":"01eb238c-e3e6-4d22-bd10-686d896b8aba","system_id":"levelo_inurba_marseille","lat":43.26934,"lon":5.40251,"is_reserved":false,"is_disabled":false,"rental_uris":{"android":"levelo://app?vid=01eb238c-e3e6-4d22-bd10-686d896b8aba","ios":"levelo://app?vid=01eb238c-e3e6-4d22-bd10-686d896b8aba"},"vehicle_type_id":"4","last_reported":1784715185,"current_range_meters":37600,"station_id":"cjm6bp8fraef2m0cb0m0","pricing_plan_id":"cebpf4jnsgd1na2vs0mg"},{"bike_id":"3d185dea-3134-4b35-9cee-49aed1f0c978","system_id":"levelo_inurba_marseille","lat":43.24663,"lon":5.38173,"is_reserved":false,"is_disabled":true,"rental_uris":{"android":"levelo://app?vid=3d185dea-3134-4b35-9cee-49aed1f0c978","ios":"levelo://app?vid=3d185dea-3134-4b35-9cee-49aed1f0c978"},"vehicle_type_id":"4","last_reported":1784715185,"current_range_meters":37600,"station_id":"ce4bhih2rcd13ifvqfr0","pricing_plan_id":"cebpf4jnsgd1na2vs0mg"},{"bike_id":"ba8332a1-4488-4cf4-9483-e0497d9712ec","system_id":"levelo_inurba_marseille","lat":43.28927,"lon":5.36402,"is_reserved":false,"is_disabled":true,"rental_uris":{"android":"levelo://app?vid=ba8332a1-4488-4cf4-9483-e0497d9712ec","ios":"levelo://app?vid=ba8332a1-4488-4cf4-9483-e0497d9712ec"},"vehicle_type_id":"4","last_reported":1784715185,"current_range_meters":39200,"station_id":"ce4bhc92rcd13ifvqetg","pricing_plan_id":"cebpf4jnsgd1na2vs0mg"},{"bike_id":"1981d3ef-d7ae-460e-a247-e2f1120f8322","system_id":"levelo_inurba_marseille","lat":43.24574,"lon":5.41942,"is_reserved":false,"is_disabled":false,"rental_uris":{"android":"levelo://app?vid=1981d3ef-d7ae-460e-a247-e2f1120f8322","ios":"levelo://app?vid=1981d3ef-d7ae-460e-a247-e2f1120f8322"},"vehicle_type_id":"4","last_reported":1784715185,"current_range_meters":18000,"station_id":"","pricing_plan_id":"cebpf4jnsgd1na2vs0mg"},{"bike_id":"765bb8ac-324f-4630-ac9a-8d0c0df64292","system_id":"levelo_inurba_marseille","lat":43.28149,"lon":5.38356,"is_reserved":false,"is_disabled":false,"rental_uris":{"android":"levelo://app?vid=765bb8ac-324f-4630-ac9a-8d0c0df64292","ios":"levelo://app?vid=765bb8ac-324f-4630-ac9a-8d0c0df64292"},"vehicle_type_id":"4","last_reported":1784715185,"current_range_meters":14000,"station_id":"","pricing_plan_id":"cebpf4jnsgd1na2vs0mg"},{"bike_id":"bbb6d84d-52b2-4523-b78b-60cb354411ef","system_id":"levelo_inurba_marseille","lat":43.32113,"lon":5.3676,"is_reserved":false,"is_disabled":false,"rental_uris":{"android":"levelo://app?vid=bbb6d84d-52b2-4523-b78b-60cb354411ef","ios":"levelo://app?vid=bbb6d84d-52b2-4523-b78b-60cb354411ef"},"vehicle_type_id":"4","last_reported":1784715185,"current_range_meters":36800,"station_id":"ce4bhrh2rcd13ifvqhug","pricing_plan_id":"cebpf4jnsgd1na2vs0mg"},{"bike_id":"90ea02a9-5a25-44ca-86d4-2a29b49bf101","system_id":"levelo_inurba_marseille","lat":43.27675,"lon":5.38873,"is_reserved":false,"is_disabled":false,"rental_uris":{"android":"levelo://app?vid=90ea02a9-5a25-44ca-86d4-2a29b49bf101","ios":"levelo://app?vid=90ea02a9-5a25-44ca-86d4-2a29b49bf101"},"vehicle_type_id":"4","last_reported":1784715185,"current_range_meters":13600,"station_id":"ce4bhi12rcd13ifvqfo0","pricing_plan_id":"cebpf4jnsgd1na2vs0mg"},{"bike_id":"4eb7c6a6-2884-4236-ba7e-58178288e867","system_id":"levelo_inurba_marseille","lat":43.27817,"lon":5.40718,"is_reserved":false,"is_disabled":false,"rental_uris":{"android":"levelo://app?vid=4eb7c6a6-2884-4236-ba7e-58178288e867","ios":"levelo://app?vid=4eb7c6a6-2884-4236-ba7e-58178288e867"},"vehicle_type_id":"4","last_reported":1784715185,"current_range_meters":39200,"station_id":"ce4bhnh2rcd13ifvqgtg","pricing_plan_id":"cebpf4jnsgd1na2vs0mg"},{"bike_id":"a9863fcb-8ca0-4220-b083-cb27e96475fe","system_id":"levelo_inurba_marseille","lat":43.23194,"lon":5.35546,"is_reserved":false,"is_disabled":false,"rental_uris":{"android":"levelo://app?vid=a9863fcb-8ca0-4220-b083-cb27e96475fe","ios":"levelo://app?vid=a9863fcb-8ca0-4220-b083-cb27e96475fe"},"vehicle_type_id":"4","last_reported":1784715185,"current_range_meters":9200,"station_id":"ce4bhu92rcd13ifvqi70","pricing_plan_id":"cebpf4jnsgd1na2vs0mg"},{"bike_id":"497040b1-a999-4fce-aba0-7e94bbf2a204","system_id":"levelo_inurba_marseille","lat":43.24381,"lon":5.37054,"is_reserved":false,"is_disabled":false,"rental_uris":{"android":"levelo://app?vid=497040b1-a999-4fce-aba0-7e94bbf2a204","ios":"levelo://app?vid=497040b1-a999-4fce-aba0-7e94bbf2a204"},"vehicle_type_id":"4","last_reported":1784715185,"current_range_meters":24000,"station_id":"ce4bhhh2rcd13ifvqfk0","pricing_plan_id":"cebpf4jnsgd1na2vs0mg"},{"bike_id":"38ddc388-e49a-4663-ba1e-3314cf8be4f9","system_id":"levelo_inurba_marseille","lat":43.29081,"lon":5.38157,"is_reserved":false,"is_disabled":false,"rental_uris":{"android":"levelo://app?vid=38ddc388-e49a-4663-ba1e-3314cf8be4f9","ios":"levelo://app?vid=38ddc388-e49a-4663-ba1e-3314cf8be4f9"},"vehicle_type_id":"4","last_reported":1784715185,"current_range_meters":38000,"station_id":"ce4bh512rcd13ifvqe2g","pricing_plan_id":"cebpf4jnsgd1na2vs0mg"},{"bike_id":"a8da38aa-f94e-4c2e-80f0-e41e78a1c855","system_id":"levelo_inurba_marseille","lat":43.29781,"lon":5.38107,"is_reserved":false,"is_disabled":true,"rental_uris":{"android":"levelo://app?vid=a8da38aa-f94e-4c2e-80f0-e41e78a1c855","ios":"levelo://app?vid=a8da38aa-f94e-4c2e-80f0-e41e78a1c855"},"vehicle_type_id":"4","last_reported":1784715185,"current_range_meters":38400,"station_id":"ce4bgip2rcd13ifvqbb0","pricing_plan_id":"cebpf4jnsgd1na2vs0mg"},{"bike_id":"e194fbb0-bc81-4444-b407-bf005b5be095","system_id":"levelo_inurba_marseille","lat":43.31181,"lon":5.36805,"is_reserved":false,"is_disabled":false,"rental_uris":{"android":"levelo://app?vid=e194fbb0-bc81-4444-b407-bf005b5be095","ios":"levelo://app?vid=e194fbb0-bc81-4444-b407-bf005b5be095"},"vehicle_type_id":"4","last_reported":1784715185,"current_range_meters":28000,"station_id":"","pricing_plan_id":"cebpf4jnsgd1na2vs0mg"},{"bike_id":"98a36529-34c8-4700-875e-0444dc97e21f","system_id":"levelo_inurba_marseille","lat":43.27434,"lon":5.39391,"is_reserved":false,"is_disabled":false,"rental_uris":{"android":"levelo://app?vid=98a36529-34c8-4700-875e-0444dc97e21f","ios":"levelo://app?vid=98a36529-34c8-4700-875e-0444dc97e21f"},"vehicle_type_id":"4","last_reported":1784715185,"current_range_meters":35600,"station_id":"ce4bhdp2rcd13ifvqf20","pricing_plan_id":"cebpf4jnsgd1na2vs0mg"},{"bike_id":"354a079f-ed28-41a7-a06b-85ab194fda38","system_id":"levelo_inurba_marseille","lat":43.294452,"lon":5.397586,"is_reserved":false,"is_disabled":true,"rental_uris":{"android":"levelo://app?vid=354a079f-ed28-41a7-a06b-85ab194fda38","ios":"levelo://app?vid=354a079f-ed28-41a7-a06b-85ab194fda38"},"vehicle_type_id":"4","last_reported":1784715185,"current_range_meters":4800,"station_id":"ce4bh3h2rcd13ifvqdo0","pricing_plan_id":"cebpf4jnsgd1na2vs0mg"},{"bike_id":"c32e2869-9fc6-44ad-8f99-c13e6eac9be4","system_id":"levelo_inurba_marseille","lat":43.33161,"lon":5.37683,"is_reserved":false,"is_disabled":true,"rental_uris":{"android":"levelo://app?vid=c32e2869-9fc6-44ad-8f99-c13e6eac9be4","ios":"levelo://app?vid=c32e2869-9fc6-44ad-8f99-c13e6eac9be4"},"vehicle_type_id":"4","last_reported":1784715185,"current_range_meters":0,"station_id":"st_d46cu089ee8s73dldbu0","pricing_plan_id":"cebpf4jnsgd1na2vs0mg"},{"bike_id":"7a6e1d04-a8e0-4604-bf6c-cddfc0c7f6a9","system_id":"levelo_inurba_marseille","lat":43.29689,"lon":5.37281,"is_reserved":false,"is_disabled":false,"rental_uris":{"android":"levelo://app?vid=7a6e1d04-a8e0-4604-bf6c-cddfc0c7f6a9","ios":"levelo://app?vid=7a6e1d04-a8e0-4604-bf6c-cddfc0c7f6a9"},"vehicle_type_id":"4","last_reported":1784715185,"current_range_meters":38000,"station_id":"ce4bgk12rcd13ifvqbj0","pricing_plan_id":"cebpf4jnsgd1na2vs0mg"},{"bike_id":"490c5d9c-d53d-4ba9-aad9-6533bccec48f","system_id":"levelo_inurba_marseille","lat":43.30281,"lon":5.37684,"is_reserved":false,"is_disabled":false,"rental_uris":{"android":"levelo://app?vid=490c5d9c-d53d-4ba9-aad9-6533bccec48f","ios":"levelo://app?vid=490c5d9c-d53d-4ba9-aad9-6533bccec48f"},"vehicle_type_id":"4","last_reported":1784715185,"current_range_meters":9600,"station_id":"ce4bguh2rcd13ifvqcj0","pricing_plan_id":"cebpf4jnsgd1na2vs0mg"},{"bike_id":"fa1e86bf-1110-4640-a0b5-4c444df6ac60","system_id":"levelo_inurba_marseille","lat":43.29037,"lon":5.43958,"is_reserved":false,"is_disabled":false,"rental_uris":{"android":"levelo://app?vid=fa1e86bf-1110-4640-a0b5-4c444df6ac60","ios":"levelo://app?vid=fa1e86bf-1110-4640-a0b5-4c444df6ac60"},"vehicle_type_id":"4","last_reported":1784715185,"current_range_meters":31200,"station_id":"","pricing_plan_id":"cebpf4jnsgd1na2vs0mg"},{"bike_id":"5feb6120-99f3-40ac-88a0-a92ec4ec9659","system_id":"levelo_inurba_marseille","lat":43.31695,"lon":5.37598,"is_reserved":false,"is_disabled":true,"rental_uris":{"android":"levelo://app?vid=5feb6120-99f3-40ac-88a0-a92ec4ec9659","ios":"levelo://app?vid=5feb6120-99f3-40ac-88a0-a92ec4ec9659"},"vehicle_type_id":"4","last_reported":1784715185,"current_range_meters":0,"station_id":"","pricing_plan_id":"cebpf4jnsgd1na2vs0mg"},{"bike_id":"27e1e4c5-a07c-4ba9-9e46-007cc925fb39","system_id":"levelo_inurba_marseille","lat":43.2544,"lon":5.41658,"is_reserved":false,"is_disabled":false,"rental_uris":{"android":"levelo://app?vid=27e1e4c5-a07c-4ba9-9e46-007cc925fb39","ios":"levelo://app?vid=27e1e4c5-a07c-4ba9-9e46-007cc925fb39"},"vehicle_type_id":"4","last_reported":1784715185,"current_range_meters":11200,"station_id":"","pricing_plan_id":"cebpf4jnsgd1na2vs0mg"},{"bike_id":"4aed0d2f-4083-4f21-b63f-b9dc9b692a27","system_id":"levelo_inurba_marseille","lat":43.31754,"lon":5.39,"is_reserved":false,"is_disabled":false,"rental_uris":{"android":"levelo://app?vid=4aed0d2f-4083-4f21-b63f-b9dc9b692a27","ios":"levelo://app?vid=4aed0d2f-4083-4f21-b63f-b9dc9b692a27"},"vehicle_type_id":"4","last_reported":1784715185,"current_range_meters":39200,"station_id":"ce4bhqp2rcd13ifvqhng","pricing_plan_id":"cebpf4jnsgd1na2vs0mg"},{"bike_id":"7c05dc92-18c6-4996-8858-a8cd8e15a4b6","system_id":"levelo_inurba_marseille","lat":43.22925,"lon":5.3538,"is_reserved":false,"is_disabled":false,"rental_uris":{"android":"levelo://app?vid=7c05dc92-18c6-4996-8858-a8cd8e15a4b6","ios":"levelo://app?vid=7c05dc92-18c6-4996-8858-a8cd8e15a4b6"},"vehicle_type_id":"4","last_reported":1784715185,"current_range_meters":38800,"station_id":"cpo3532slgdg3j2ikp40","pricing_plan_id":"cebpf4jnsgd1na2vs0mg"},{"bike_id":"5a87d78f-bce0-4026-a623-b63371d564c6","system_id":"levelo_inurba_marseille","lat":43.29179,"lon":5.35797,"is_reserved":false,"is_disabled":true,"rental_uris":{"android":"levelo://app?vid=5a87d78f-bce0-4026-a623-b63371d564c6","ios":"levelo://app?vid=5a87d78f-bce0-4026-a623-b63371d564c6"},"vehicle_type_id":"4","last_reported":1784715185,"current_range_meters":37600,"station_id":"ce4bhb12rcd13ifvqel0","pricing_plan_id":"cebpf4jnsgd1na2vs0mg"},{"bike_id":"081c7c77-de6d-424b-ac53-15a24f512dc4","system_id":"levelo_inurba_marseille","lat":43.30903,"lon":5.36855,"is_reserved":false,"is_disabled":false,"rental_uris":{"android":"levelo://app?vid=081c7c77-de6d-424b-ac53-15a24f512dc4","ios":"levelo://app?vid=081c7c77-de6d-424b-ac53-15a24f512dc4"},"vehicle_type_id":"4","last_reported":1784715185,"current_range_meters":23200,"station_id":"ce4bgn92rcd13ifvqbvg","pricing_plan_id":"cebpf4jnsgd1na2vs0mg"},{"bike_id":"28dafd1e-b352-4536-b972-96ddffcb9c40","system_id":"levelo_inurba_marseille","lat":43.30727,"lon":5.42454,"is_reserved":false,"is_disabled":false,"rental_uris":{"android":"levelo://app?vid=28dafd1e-b352-4536-b972-96ddffcb9c40","ios":"levelo://app?vid=28dafd1e-b352-4536-b972-96ddffcb9c40"},"vehicle_type_id":"4","last_reported":1784715185,"current_range_meters":36800,"station_id":"st_cvj6ca6bvosntc0bfgr0","pricing_plan_id":"cebpf4jnsgd1na2vs0mg"},{"bike_id":"a2787942-f59f-46c0-9967-550de9feda8d","system_id":"levelo_inurba_marseille","lat":43.30139,"lon":5.37426,"is_reserved":false,"is_disabled":false,"rental_uris":{"android":"levelo://app?vid=a2787942-f59f-46c0-9967-550de9feda8d","ios":"levelo://app?vid=a2787942-f59f-46c0-9967-550de9feda8d"},"vehicle_type_id":"4","last_reported":1784715185,"current_range_meters":39200,"station_id":"ce4bgs92rcd13ifvqcc0","pricing_plan_id":"cebpf4jnsgd1na2vs0mg"},{"bike_id":"a7e0a43f-ba6f-47d2-b818-8b0848ae2828","system_id":"levelo_inurba_marseille","lat":43.27442,"lon":5.42486,"is_reserved":false,"is_disabled":true,"rental_uris":{"android":"levelo://app?vid=a7e0a43f-ba6f-47d2-b818-8b0848ae2828","ios":"levelo://app?vid=a7e0a43f-ba6f-47d2-b818-8b0848ae2828"},"vehicle_type_id":"4","last_reported":1784715185,"current_range_meters":0,"station_id":"","pricing_plan_id":"cebpf4jnsgd1na2vs0mg"},{"bike_id":"9100f690-6f00-4cc3-868f-2ddb790bdb54","system_id":"levelo_inurba_marseille","lat":43.30948,"lon":5.39027,"is_reserved":false,"is_disabled":false,"rental_uris":{"android":"levelo://app?vid=9100f690-6f00-4cc3-868f-2ddb790bdb54","ios":"levelo://app?vid=9100f690-6f00-4cc3-868f-2ddb790bdb54"},"vehicle_type_id":"4","last_reported":1784715185,"current_range_meters":38800,"station_id":"ce4bgup2rcd13ifvqco0","pricing_plan_id":"cebpf4jnsgd1na2vs0mg"},{"bike_id":"8a7cd93c-ad25-4e5d-86ac-87a4c41bc9fc","system_id":"levelo_inurba_marseille","lat":43.31425,"lon":5.37394,"is_reserved":false,"is_disabled":true,"rental_uris":{"android":"levelo://app?vid=8a7cd93c-ad25-4e5d-86ac-87a4c41bc9fc","ios":"levelo://app?vid=8a7cd93c-ad25-4e5d-86ac-87a4c41bc9fc"},"vehicle_type_id":"4","last_reported":1784715185,"current_range_meters":23200,"station_id":"","pricing_plan_id":"cebpf4jnsgd1na2vs0mg"},{"bike_id":"1ae20384-5ccd-4145-9a1d-f626b16c7a9e","system_id":"levelo_inurba_marseille","lat":43.31134,"lon":5.46442,"is_reserved":false,"is_disabled":false,"rental_uris":{"android":"levelo://app?vid=1ae20384-5ccd-4145-9a1d-f626b16c7a9e","ios":"levelo://app?vid=1ae20384-5ccd-4145-9a1d-f626b16c7a9e"},"vehicle_type_id":"4","last_reported":1784715185,"current_range_meters":3200,"station_id":"","pricing_plan_id":"cebpf4jnsgd1na2vs0mg"},{"bike_id":"c5032ade-04c2-4ad9-acd6-0c757f219d04","system_id":"levelo_inurba_marseille","lat":43.31912,"lon":5.36793,"is_reserved":false,"is_disabled":false,"rental_uris":{"android":"levelo://app?vid=c5032ade-04c2-4ad9-acd6-0c757f219d04","ios":"levelo://app?vid=c5032ade-04c2-4ad9-acd6-0c757f219d04"},"vehicle_type_id":"4","last_reported":1784715185,"current_range_meters":12000,"station_id":"st_d6o2h0d0559c73evc1b0","pricing_plan_id":"cebpf4jnsgd1na2vs0mg"},{"bike_id":"479a25b1-c1db-4e38-9802-13b8f5b183f0","system_id":"levelo_inurba_marseille","lat":43.28494,"lon":5.48418,"is_reserved":false,"is_disabled":false,"rental_uris":{"android":"levelo://app?vid=479a25b1-c1db-4e38-9802-13b8f5b183f0","ios":"levelo://app?vid=479a25b1-c1db-4e38-9802-13b8f5b183f0"},"vehicle_type_id":"4","last_reported":1784715185,"current_range_meters":30000,"station_id":"st_d3svhcjqgbts73a3dn0g","pricing_plan_id":"cebpf4jnsgd1na2vs0mg"},{"bike_id":"5ba3de10-889b-4152-aef4-4bff1e010d26","system_id":"levelo_inurba_marseille","lat":43.32106,"lon":5.3676,"is_reserved":false,"is_disabled":false,"rental_uris":{"android":"levelo://app?vid=5ba3de10-889b-4152-aef4-4bff1e010d26","ios":"levelo://app?vid=5ba3de10-889b-4152-aef4-4bff1e010d26"},"vehicle_type_id":"4","last_reported":1784715185,"current_range_meters":12000,"station_id":"ce4bhrh2rcd13ifvqhug","pricing_plan_id":"cebpf4jnsgd1na2vs0mg"},{"bike_id":"4a44625a-98e7-4ffe-9d7a-43dbdd22c4d2","system_id":"levelo_inurba_marseille","lat":43.30314,"lon":5.36919,"is_reserved":false,"is_disabled":false,"rental_uris":{"android":"levelo://app?vid=4a44625a-98e7-4ffe-9d7a-43dbdd22c4d2","ios":"levelo://app?vid=4a44625a-98e7-4ffe-9d7a-43dbdd22c4d2"},"vehicle_type_id":"4","last_reported":1784715185,"current_range_meters":28400,"station_id":"ce4bgqh2rcd13ifvqc5g","pricing_plan_id":"cebpf4jnsgd1na2vs0mg"},{"bike_id":"edddb858-b0c3-4be9-9bbb-343edfed0529","system_id":"levelo_inurba_marseille","lat":43.25106,"lon":5.40353,"is_reserved":false,"is_disabled":false,"rental_uris":{"android":"levelo://app?vid=edddb858-b0c3-4be9-9bbb-343edfed0529","ios":"levelo://app?vid=edddb858-b0c3-4be9-9bbb-343edfed0529"},"vehicle_type_id":"4","last_reported":1784715185,"current_range_meters":23200,"station_id":"ce4bhlh2rcd13ifvqgig","pricing_plan_id":"cebpf4jnsgd1na2vs0mg"},{"bike_id":"f9f5af7d-957f-4114-912e-c173de40501c","system_id":"levelo_inurba_marseille","lat":43.30951,"lon":5.3902,"is_reserved":false,"is_disabled":false,"rental_uris":{"android":"levelo://app?vid=f9f5af7d-957f-4114-912e-c173de40501c","ios":"levelo://app?vid=f9f5af7d-957f-4114-912e-c173de40501c"},"vehicle_type_id":"4","last_reported":1784715185,"current_range_meters":10800,"station_id":"ce4bgup2rcd13ifvqco0","pricing_plan_id":"cebpf4jnsgd1na2vs0mg"},{"bike_id":"a13f0111-9938-4362-bd71-0bd1f0788504","system_id":"levelo_inurba_marseille","lat":43.2792,"lon":5.35335,"is_reserved":false,"is_disabled":true,"rental_uris":{"android":"levelo://app?vid=a13f0111-9938-4362-bd71-0bd1f0788504","ios":"levelo://app?vid=a13f0111-9938-4362-bd71-0bd1f0788504"},"vehicle_type_id":"4","last_reported":1784715185,"current_range_meters":0,"station_id":"","pricing_plan_id":"cebpf4jnsgd1na2vs0mg"},{"bike_id":"d78f533f-2ad7-48f1-9a8c-d5a71869e171","system_id":"levelo_inurba_marseille","lat":43.27367,"lon":5.36257,"is_reserved":false,"is_disabled":false,"rental_uris":{"android":"levelo://app?vid=d78f533f-2ad7-48f1-9a8c-d5a71869e171","ios":"levelo://app?vid=d78f533f-2ad7-48f1-9a8c-d5a71869e171"},"vehicle_type_id":"4","last_reported":1784715185,"current_range_meters":5600,"station_id":"ce4bhbh2rcd13ifvqeo0","pricing_plan_id":"cebpf4jnsgd1na2vs0mg"},{"bike_id":"cc8568ab-2679-4305-9add-20ef1e360289","system_id":"levelo_inurba_marseille","lat":43.33784,"lon":5.37518,"is_reserved":false,"is_disabled":false,"rental_uris":{"android":"levelo://app?vid=cc8568ab-2679-4305-9add-20ef1e360289","ios":"levelo://app?vid=cc8568ab-2679-4305-9add-20ef1e360289"},"vehicle_type_id":"4","last_reported":1784715185,"current_range_meters":35600,"station_id":"","pricing_plan_id":"cebpf4jnsgd1na2vs0mg"},{"bike_id":"b42f5f84-1bf4-499b-816a-41651e8207d6","system_id":"levelo_inurba_marseille","lat":43.2407,"lon":5.37761,"is_reserved":false,"is_disabled":false,"rental_uris":{"android":"levelo://app?vid=b42f5f84-1bf4-499b-816a-41651e8207d6","ios":"levelo://app?vid=b42f5f84-1bf4-499b-816a-41651e8207d6"},"vehicle_type_id":"4","last_reported":1784715185,"current_range_meters":39200,"station_id":"ce4bhnp2rcd13ifvqgvg","pricing_plan_id":"cebpf4jnsgd1na2vs0mg"},{"bike_id":"0201feb5-36da-4593-8c59-6eda3e228b08","system_id":"levelo_inurba_marseille","lat":43.25942,"lon":5.40901,"is_reserved":false,"is_disabled":false,"rental_uris":{"android":"levelo://app?vid=0201feb5-36da-4593-8c59-6eda3e228b08","ios":"levelo://app?vid=0201feb5-36da-4593-8c59-6eda3e228b08"},"vehicle_type_id":"4","last_reported":1784715185,"current_range_meters":38800,"station_id":"ce4bhm92rcd13ifvqglg","pricing_plan_id":"cebpf4jnsgd1na2vs0mg"},{"bike_id":"80f2fcef-357e-49cd-aa72-dbf1de6d4695","system_id":"levelo_inurba_marseille","lat":43.31908,"lon":5.36835,"is_reserved":false,"is_disabled":false,"rental_uris":{"android":"levelo://app?vid=80f2fcef-357e-49cd-aa72-dbf1de6d4695","ios":"levelo://app?vid=80f2fcef-357e-49cd-aa72-dbf1de6d4695"},"vehicle_type_id":"4","last_reported":1784715185,"current_range_meters":19200,"station_id":"st_d6o2h0d0559c73evc1b0","pricing_plan_id":"cebpf4jnsgd1na2vs0mg"},{"bike_id":"b3e3edd0-b328-40ce-b733-cdf977b8484a","system_id":"levelo_inurba_marseille","lat":43.33557,"lon":5.37488,"is_reserved":false,"is_disabled":false,"rental_uris":{"android":"levelo://app?vid=b3e3edd0-b328-40ce-b733-cdf977b8484a","ios":"levelo://app?vid=b3e3edd0-b328-40ce-b733-cdf977b8484a"},"vehicle_type_id":"4","last_reported":1784715185,"current_range_meters":29600,"station_id":"st_d46tts09ee8s73dlu43g","pricing_plan_id":"cebpf4jnsgd1na2vs0mg"},{"bike_id":"6677deb2-8e23-476b-8cf3-8a9596b297dd","system_id":"levelo_inurba_marseille","lat":43.29974,"lon":5.41332,"is_reserved":false,"is_disabled":false,"rental_uris":{"android":"levelo://app?vid=6677deb2-8e23-476b-8cf3-8a9596b297dd","ios":"levelo://app?vid=6677deb2-8e23-476b-8cf3-8a9596b297dd"},"vehicle_type_id":"4","last_reported":1784715185,"current_range_meters":38000,"station_id":"ce4bhp12rcd13ifvqh9g","pricing_plan_id":"cebpf4jnsgd1na2vs0mg"},{"bike_id":"d88b45a5-fda5-4824-aaa9-a2ae0cc2364d","system_id":"levelo_inurba_marseille","lat":43.24802,"lon":5.37454,"is_reserved":false,"is_disabled":false,"rental_uris":{"android":"levelo://app?vid=d88b45a5-fda5-4824-aaa9-a2ae0cc2364d","ios":"levelo://app?vid=d88b45a5-fda5-4824-aaa9-a2ae0cc2364d"},"vehicle_type_id":"4","last_reported":1784715185,"current_range_meters":39200,"station_id":"ce4bhgh2rcd13ifvqfb0","pricing_plan_id":"cebpf4jnsgd1na2vs0mg"},{"bike_id":"b47d92e5-f21f-41a4-9f0f-22e84a038b71","system_id":"levelo_inurba_marseille","lat":43.3236,"lon":5.36743,"is_reserved":false,"is_disabled":false,"rental_uris":{"android":"levelo://app?vid=b47d92e5-f21f-41a4-9f0f-22e84a038b71","ios":"levelo://app?vid=b47d92e5-f21f-41a4-9f0f-22e84a038b71"},"vehicle_type_id":"4","last_reported":1784715185,"current_range_meters":38000,"station_id":"ce4bhsh2rcd13ifvqi2g","pricing_plan_id":"cebpf4jnsgd1na2vs0mg"},{"bike_id":"24562537-d892-46b0-8d1f-b9806d00c57d","system_id":"levelo_inurba_marseille","lat":43.29596,"lon":5.37159,"is_reserved":false,"is_disabled":true,"rental_uris":{"android":"levelo://app?vid=24562537-d892-46b0-8d1f-b9806d00c57d","ios":"levelo://app?vid=24562537-d892-46b0-8d1f-b9806d00c57d"},"vehicle_type_id":"4","last_reported":1784715185,"current_range_meters":25200,"station_id":"","pricing_plan_id":"cebpf4jnsgd1na2vs0mg"},{"bike_id":"97c0494c-c7ee-4cb9-a38b-046f44cb3c85","system_id":"levelo_inurba_marseille","lat":43.26219,"lon":5.37434,"is_reserved":false,"is_disabled":true,"rental_uris":{"android":"levelo://app?vid=97c0494c-c7ee-4cb9-a38b-046f44cb3c85","ios":"levelo://app?vid=97c0494c-c7ee-4cb9-a38b-046f44cb3c85"},"vehicle_type_id":"4","last_reported":1784715185,"current_range_meters":31200,"station_id":"ce4bhgp2rcd13ifvqfc0","pricing_plan_id":"cebpf4jnsgd1na2vs0mg"},{"bike_id":"ebbc373c-4b9b-44b8-be99-bc48f0ef8f6f","system_id":"levelo_inurba_marseille","lat":43.3019,"lon":5.36619,"is_reserved":false,"is_disabled":false,"rental_uris":{"android":"levelo://app?vid=ebbc373c-4b9b-44b8-be99-bc48f0ef8f6f","ios":"levelo://app?vid=ebbc373c-4b9b-44b8-be99-bc48f0ef8f6f"},"vehicle_type_id":"4","last_reported":1784715185,"current_range_meters":38800,"station_id":"ce4bgrh2rcd13ifvqc8g","pricing_plan_id":"cebpf4jnsgd1na2vs0mg"},