{"last_updated":1714357175,"ttl":30,"version":"2.2","data":{"bikes":[{"bike_id":"e9cfea51-80b4-4b0b-a0b2-6524e2a13a6f","system_id":"levelo_inurba_marseille","lat":43.312239,"lon":5.368562,"is_reserved":false,"is_disabled":false,"rental_uris":{"android":"levelo://app?vid=e9cfea51-80b4-4b0b-a0b2-6524e2a13a6f","ios":"levelo://app?vid=e9cfea51-80b4-4b0b-a0b2-6524e2a13a6f"},"vehicle_type_id":"4","last_reported":1714357176,"current_range_meters":28400,"station_id":"ce4bgl92rcd13ifvqbq0","pricing_plan_id":"cebpf4jnsgd1na2vs0mg"},{"bike_id":"3fec514e-9217-42b1-8728-815885253b6d","system_id":"levelo_inurba_marseille","lat":43.312239,"lon":5.368562,"is_reserved":false,"is_disabled":false,"rental_uris":{"android":"levelo://app?vid=3fec514e-9217-42b1-8728-815885253b6d","ios":"levelo://app?vid=3fec514e-9217-42b1-8728-815885253b6d"},"vehicle_type_id":"4","last_reported":1714357176,"current_range_meters":31600,"station_id":"ce4bgl92rcd13ifvqbq0","pricing_plan_id":"cebpf4jnsgd1na2vs0mg"},{"bike_id":"5b206fa2-bd1d-45df-aef6-adb61a348c52","system_id":"levelo_inurba_marseille","lat":43.312239,"lon":5.368562,"is_reserved":false,"is_disabled":false,"rental_uris":{"android":"levelo://app?vid=5b206fa2-bd1d-45df-aef6-adb61a348c52","ios":"levelo://app?vid=5b206fa2-bd1d-45df-aef6-adb61a348c52"},"vehicle_type_id":"4","last_reported":1714357176,"current_range_meters":0,"station_id":"ce4bgl92rcd13ifvqbq0","pricing_plan_id":"cebpf4jnsgd1na2vs0mg"},{"bike_id":"e4b7f6b1-9b3f-4c34-9046-c0d5bcbf4621","system_id":"levelo_inurba_marseille","lat":43.314811,"lon":5.373103,"is_reserved":false,"is_disabled":false,"rental_uris":{"android":"levelo://app?vid=e4b7f6b1-9b3f-4c34-9046-c0d5bcbf4621","ios":"levelo://app?vid=e4b7f6b1-9b3f-4c34-9046-c0d5bcbf4621"},"vehicle_type_id":"4","last_reported":1714357176,"current_range_meters":30400,"station_id":"ce4bgt12rcd13ifvqcd0","pricing_plan_id":"cebpf4jnsgd1na2vs0mg"},{"bike_id":"45639643-8034-4170-af73-10c501e3b986","system_id":"levelo_inurba_marseille","lat":43.314811,"lon":5.373103,"is_reserved":false,"is_disabled":false,"rental_uris":{"android":"levelo://app?vid=45639643-8034-4170-af73-10c501e3b986","ios":"levelo://app?vid=45639643-8034-4170-af73-10c501e3b986"},"vehicle_type_id":"4","last_reported":1714357176,"current_range_meters":26400,"station_id":"ce4bgt12rcd13ifvqcd0","pricing_plan_id":"cebpf4jnsgd1na2vs0mg"},{"bike_id":"5100fcb1-9af6-4088-8721-34dc9251ecb5","system_id":"levelo_inurba_marseille","lat":43.305712,"lon":5.365641,"is_reserved":false,"is_disabled":false,"rental_uris":{"android":"levelo://app?vid=5100fcb1-9af6-4088-8721-34dc9251ecb5","ios":"levelo://app?vid=5100fcb1-9af6-4088-8721-34dc9251ecb5"},"vehicle_type_id":"4","last_reported":1714357176,"current_range_meters":24800,"station_id":"ce4bgs12rcd13ifvqcag","pricing_plan_id":"cebpf4jnsgd1na2vs0mg"},{"bike_id":"ec9dd796-dd87-4d73-b928-81973734772a","system_id":"levelo_inurba_marseille","lat":43.30537,"lon":5.367345,"is_reserved":false,"is_disabled":false,"rental_uris":{"android":"levelo://app?vid=ec9dd796-dd87-4d73-b928-81973734772a","ios":"levelo://app?vid=ec9dd796-dd87-4d73-b928-81973734772a"},"vehicle_type_id":"4","last_reported":1714357176,"current_range_meters":23200,"station_id":"ce4bgrp2rcd13ifvqc9g","pricing_plan_id":"cebpf4jnsgd1na2vs0mg"},{"bike_id":"714bbba0-9e43-4d45-82ab-e447dfb0c9ec","system_id":"levelo_inurba_marseille","lat":43.305712,"lon":5.365641,"is_reserved":false,"is_disabled":false,"rental_uris":{"android":"levelo://app?vid=714bbba0-9e43-4d45-82ab-e447dfb0c9ec","ios":"levelo://app?vid=714bbba0-9e43-4d45-82ab-e447dfb0c9ec"},"vehicle_type_id":"4","last_reported":1714357176,"current_range_meters":27200,"station_id":"ce4bgs12rcd13ifvqcag","pricing_plan_id":"cebpf4jnsgd1na2vs0mg"},{"bike_id":"e5bf8563-a9eb-448b-b445-8f1e6f96ed46","system_id":"levelo_inurba_marseille","lat":43.305989,"lon":5.37225,"is_reserved":false,"is_disabled":false,"rental_uris":{"android":"levelo://app?vid=e5bf8563-a9eb-448b-b445-8f1e6f96ed46","ios":"levelo://app?vid=e5bf8563-a9eb-448b-b445-8f1e6f96ed46"},"vehicle_type_id":"4","last_reported":1714357176,"current_range_meters":28000,"station_id":"ce4bgqh2rcd13ifvqc4g","pricing_plan_id":"cebpf4jnsgd1na2vs0mg"},{"bike_id":"20b75a62-8ee9-44af-8752-2cdca7acb7de","system_id":"levelo_inurba_marseille","lat":43.305989,"lon":5.37225,"is_reserved":false,"is_disabled":false,"rental_uris":{"android":"levelo://app?vid=20b75a62-8ee9-44af-8752-2cdca7acb7de","ios":"levelo://app?vid=20b75a62-8ee9-44af-8752-2cdca7acb7de"},"vehicle_type_id":"4","last_reported":1714357176,"current_range_meters":29600,"station_id":"ce4bgqh2rcd13ifvqc4g","pricing_plan_id":"cebpf4jnsgd1na2vs0mg"},{"bike_id":"68ab2611-d310-4906-a4bd-53df120bc259","system_id":"levelo_inurba_marseille","lat":43.305989,"lon":5.37225,"is_reserved":false,"is_disabled":false,"rental_uris":{"android":"levelo://app?vid=68ab2611-d310-4906-a4bd-53df120bc259","ios":"levelo://app?vid=68ab2611-d310-4906-a4bd-53df120bc259"},"vehicle_type_id":"4","last_reported":1714357176,"current_range_meters":6000,"station_id":"ce4bgqh2rcd13ifvqc4g","pricing_plan_id":"cebpf4jnsgd1na2vs0mg"},{"bike_id":"7f59be1b-c98e-4fc7-8e5c-497f32bdfff4","system_id":"levelo_inurba_marseille","lat":43.305989,"lon":5.37225,"is_reserved":false,"is_disabled":false,"rental_uris":{"android":"levelo://app?vid=7f59be1b-c98e-4fc7-8e5c-497f32bdfff4","ios":"levelo://app?vid=7f59be1b-c98e-4fc7-8e5c-497f32bdfff4"},"vehicle_type_id":"4","last_reported":1714357176,"current_range_meters":31600,"station_id":"ce4bgqh2rcd13ifvqc4g","pricing_plan_id":"cebpf4jnsgd1na2vs0mg"},{"bike_id":"a9f9d91e-02cd-40bc-8ff6-4c4ef9b0978f","system_id":"levelo_inurba_marseille","lat":43.305989,"lon":5.37225,"is_reserved":false,"is_disabled":false,"rental_uris":{"android":"levelo://app?vid=a9f9d91e-02cd-40bc-8ff6-4c4ef9b0978f","ios":"levelo://app?vid=a9f9d91e-02cd-40bc-8ff6-4c4ef9b0978f"},"vehicle_type_id":"4","last_reported":1714357176,"current_range_meters":27600,"station_id":"ce4bgqh2rcd13ifvqc4g","pricing_plan_id":"cebpf4jnsgd1na2vs0mg"},{"bike_id":"34c9fe2a-4019-4250-b091-f54b6cf48935","system_id":"levelo_inurba_marseille","lat":43.305989,"lon":5.37225,"is_reserved":false,"is_disabled":false,"rental_uris":{"android":"levelo://app?vid=34c9fe2a-4019-4250-b091-f54b6cf48935","ios":"levelo://app?vid=34c9fe2a-4019-4250-b091-f54b6cf48935"},"vehicle_type_id":"4","last_reported":1714357176,"current_range_meters":31600,"station_id":"ce4bgqh2rcd13ifvqc4g","pricing_plan_id":"cebpf4jnsgd1na2vs0mg"},{"bike_id":"e9478301-7c8a-42de-944a-98a204c4ba86","system_id":"levelo_inurba_marseille","lat":43.305989,"lon":5.37225,"is_reserved":false,"is_disabled":false,"rental_uris":{"android":"levelo://app?vid=e9478301-7c8a-42de-944a-98a204c4ba86","ios":"levelo://app?vid=e9478301-7c8a-42de-944a-98a204c4ba86"},"vehicle_type_id":"4","last_reported":1714357176,"current_range_meters":31600,"station_id":"ce4bgqh2rcd13ifvqc4g","pricing_plan_id":"cebpf4jnsgd1na2vs0mg"},{"bike_id":"fe5fffb8-a7a7-4b5a-90dd-9eaf43cc61b0","system_id":"levelo_inurba_marseille","lat":43.311131,"lon":5.377651,"is_reserved":false,"is_disabled":false,"rental_uris":{"android":"levelo://app?vid=fe5fffb8-a7a7-4b5a-90dd-9eaf43cc61b0","ios":"levelo://app?vid=fe5fffb8-a7a7-4b5a-90dd-9eaf43cc61b0"},"vehicle_type_id":"4","last_reported":1714357176,"current_range_meters":25200,"station_id":"ce4bgt92rcd13ifvqcg0","pricing_plan_id":"cebpf4jnsgd1na2vs0mg"},{"bike_id":"7ae5307a-39ac-4c9d-a1ee-90d7cd400634","system_id":"levelo_inurba_marseille","lat":43.311125,"lon":5.377624,"is_reserved":false,"is_disabled":false,"rental_uris":{"android":"levelo://app?vid=7ae5307a-39ac-4c9d-a1ee-90d7cd400634","ios":"levelo://app?vid=7ae5307a-39ac-4c9d-a1ee-90d7cd400634"},"vehicle_type_id":"4","last_reported":1714357176,"current_range_meters":27200,"station_id":"ce4bgt92rcd13ifvqcg0","pricing_plan_id":"cebpf4jnsgd1na2vs0mg"},{"bike_id":"12d9ebfa-bf32-49fb-be53-d4b9c4b5222b","system_id":"levelo_inurba_marseille","lat":43.311131,"lon":5.377651,"is_reserved":false,"is_disabled":false,"rental_uris":{"android":"levelo://app?vid=12d9ebfa-bf32-49fb-be53-d4b9c4b5222b","ios":"levelo://app?vid=12d9ebfa-bf32-49fb-be53-d4b9c4b5222b"},"vehicle_type_id":"4","last_reported":1714357176,"current_range_meters":7600,"station_id":"ce4bgt92rcd13ifvqcg0","pricing_plan_id":"cebpf4jnsgd1na2vs0mg"},{"bike_id":"a4e8cafc-8e57-44d2-947f-5e2dd1c0050a","system_id":"levelo_inurba_marseille","lat":43.311131,"lon":5.377651,"is_reserved":false,"is_disabled":false,"rental_uris":{"android":"levelo://app?vid=a4e8cafc-8e57-44d2-947f-5e2dd1c0050a","ios":"levelo://app?vid=a4e8cafc-8e57-44d2-947f-5e2dd1c0050a"},"vehicle_type_id":"4","last_reported":1714357176,"current_range_meters":14000,"station_id":"ce4bgt92rcd13ifvqcg0","pricing_plan_id":"cebpf4jnsgd1na2vs0mg"},{"bike_id":"97787dc4-a2f2-4a7a-92f8-e4d9b01d766b","system_id":"levelo_inurba_marseille","lat":43.311227,"lon":5.377617,"is_reserved":false,"is_disabled":false,"rental_uris":{"android":"levelo://app?vid=97787dc4-a2f2-4a7a-92f8-e4d9b01d766b","ios":"levelo://app?vid=97787dc4-a2f2-4a7a-92f8-e4d9b01d766b"},"vehicle_type_id":"4","last_reported":1714357176,"current_range_meters":800,"station_id":"ce4bgt92rcd13ifvqcg0","pricing_plan_id":"cebpf4jnsgd1na2vs0mg"},{"bike_id":"192e2a4a-7973-425b-85b4-6c3019342904","system_id":"levelo_inurba_marseille","lat":43.311131,"lon":5.377651,"is_reserved":false,"is_disabled":false,"rental_uris":{"android":"levelo://app?vid=192e2a4a-7973-425b-85b4-6c3019342904","ios":"levelo://app?vid=192e2a4a-7973-425b-85b4-6c3019342904"},"vehicle_type_id":"4","last_reported":1714357176,"current_range_meters":11600,"station_id":"ce4bgt92rcd13ifvqcg0","pricing_plan_id":"cebpf4jnsgd1na2vs0mg"},{"bike_id":"9f463bea-c88b-4c18-b46f-85a214615421","system_id":"levelo_inurba_marseille","lat":43.311131,"lon":5.377651,"is_reserved":false,"is_disabled":false,"rental_uris":{"android":"levelo://app?vid=9f463bea-c88b-4c18-b46f-85a214615421","ios":"levelo://app?vid=9f463bea-c88b-4c18-b46f-85a214615421"},"vehicle_type_id":"4","last_reported":1714357176,"current_range_meters":4000,"station_id":"ce4bgt92rcd13ifvqcg0","pricing_plan_id":"cebpf4jnsgd1na2vs0mg"},{"bike_id":"f79ff890-30e9-4d32-86a3-2cdd5c66e3c2","system_id":"levelo_inurba_marseille","lat":43.311125,"lon":5.377624,"is_reserved":false,"is_disabled":false,"rental_uris":{"android":"levelo://app?vid=f79ff890-30e9-4d32-86a3-2cdd5c66e3c2","ios":"levelo://app?vid=f79ff890-30e9-4d32-86a3-2cdd5c66e3c2"},"vehicle_type_id":"4","last_reported":1714357176,"current_range_meters":28400,"station_id":"ce4bgt92rcd13ifvqcg0","pricing_plan_id":"cebpf4jnsgd1na2vs0mg"},{"bike_id":"8aee617f-e85b-4f49-9abc-c5db0739c6cb","system_id":"levelo_inurba_marseille","lat":43.311131,"lon":5.377651,"is_reserved":false,"is_disabled":false,"rental_uris":{"android":"levelo://app?vid=8aee617f-e85b-4f49-9abc-c5db0739c6cb","ios":"levelo://app?vid=8aee617f-e85b-4f49-9abc-c5db0739c6cb"},"vehicle_type_id":"4","last_reported":1714357176,"current_range_meters":23200,"station_id":"ce4bgt92rcd13ifvqcg0","pricing_plan_id":"cebpf4jnsgd1na2vs0mg"},{"bike_id":"1948923e-e11f-4611-aab5-9785864c9578","system_id":"levelo_inurba_marseille","lat":43.311206,"lon":5.377677,"is_reserved":false,"is_disabled":false,"rental_uris":{"android":"levelo://app?vid=1948923e-e11f-4611-aab5-9785864c9578","ios":"levelo://app?vid=1948923e-e11f-4611-aab5-9785864c9578"},"vehicle_type_id":"4","last_reported":1714357176,"current_range_meters":2800,"station_id":"ce4bgt92rcd13ifvqcg0","pricing_plan_id":"cebpf4jnsgd1na2vs0mg"},{"bike_id":"b4b21339-3928-4177-848d-3966ae163e5e","system_id":"levelo_inurba_marseille","lat":43.311131,"lon":5.377651,"is_reserved":false,"is_disabled":false,"rental_uris":{"android":"levelo://app?vid=b4b21339-3928-4177-848d-3966ae163e5e","ios":"levelo://app?vid=b4b21339-3928-4177-848d-3966ae163e5e"},"vehicle_type_id":"4","last_reported":1714357176,"current_range_meters":30000,"station_id":"ce4bgt92rcd13ifvqcg0","pricing_plan_id":"cebpf4jnsgd1na2vs0mg"},{"bike_id":"be6561e8-1f09-4748-ae52-8a491eeb5ccb","system_id":"levelo_inurba_marseille","lat":43.31119,"lon":5.377693,"is_reserved":false,"is_disabled":false,"rental_uris":{"android":"levelo://app?vid=be6561e8-1f09-4748-ae52-8a491eeb5ccb","ios":"levelo://app?vid=be6561e8-1f09-4748-ae52-8a491eeb5ccb"},"vehicle_type_id":"4","last_reported":1714357176,"current_range_meters":14000,"station_id":"ce4bgt92rcd13ifvqcg0","pricing_plan_id":"cebpf4jnsgd1na2vs0mg"},{"bike_id":"5ca90295-f585-434c-b2b1-ba311798f934","system_id":"levelo_inurba_marseille","lat":43.311125,"lon":5.377624,"is_reserved":false,"is_disabled":false,"rental_uris":{"android":"levelo://app?vid=5ca90295-f585-434c-b2b1-ba311798f934","ios":"levelo://app?vid=5ca90295-f585-434c-b2b1-ba311798f934"},"vehicle_type_id":"4","last_reported":1714357176,"current_range_meters":24800,"station_id":"ce4bgt92rcd13ifvqcg0","pricing_plan_id":"cebpf4jnsgd1na2vs0mg"},{"bike_id":"f3307fda-9b71-4851-a31b-657ccd3c4469","system_id":"levelo_inurba_marseille","lat":43.311125,"lon":5.377624,"is_reserved":false,"is_disabled":false,"rental_uris":{"android":"levelo://app?vid=f3307fda-9b71-4851-a31b-657ccd3c4469","ios":"levelo://app?vid=f3307fda-9b71-4851-a31b-657ccd3c4469"},"vehicle_type_id":"4","last_reported":1714357176,"current_range_meters":30800,"station_id":"ce4bgt92rcd13ifvqcg0","pricing_plan_id":"cebpf4jnsgd1na2vs0mg"},{"bike_id":"53ed9d89-1a5d-4562-90f6-a283ca3968f1","system_id":"levelo_inurba_marseille","lat":43.311131,"lon":5.377651,"is_reserved":false,"is_disabled":false,"rental_uris":{"android":"levelo://app?vid=53ed9d89-1a5d-4562-90f6-a283ca3968f1","ios":"levelo://app?vid=53ed9d89-1a5d-4562-90f6-a283ca3968f1"},"vehicle_type_id":"4","last_reported":1714357176,"current_range_meters":14400,"station_id":"ce4bgt92rcd13ifvqcg0","pricing_plan_id":"cebpf4jnsgd1na2vs0mg"},{"bike_id":"7f19c82a-4df1-436c-a7a3-fdc87d84df43","system_id":"levelo_inurba_marseille","lat":43.311125,"lon":5.377624,"is_reserved":false,"is_disabled":false,"rental_uris":{"android":"levelo://app?vid=7f19c82a-4df1-436c-a7a3-fdc87d84df43","ios":"levelo://app?vid=7f19c82a-4df1-436c-a7a3-fdc87d84df43"},"vehicle_type_id":"4","last_reported":1714357176,"current_range_meters":24800,"station_id":"ce4bgt92rcd13ifvqcg0","pricing_plan_id":"cebpf4jnsgd1na2vs0mg"},{"bike_id":"93b02b27-e576-4fbc-89ba-3104da9bc585","system_id":"levelo_inurba_marseille","lat":43.3112,"lon":5.377717,"is_reserved":false,"is_disabled":false,"rental_uris":{"android":"levelo://app?vid=93b02b27-e576-4fbc-89ba-3104da9bc585","ios":"levelo://app?vid=93b02b27-e576-4fbc-89ba-3104da9bc585"},"vehicle_type_id":"4","last_reported":1714357176,"current_range_meters":26000,"station_id":"ce4bgt92rcd13ifvqcg0","pricing_plan_id":"cebpf4jnsgd1na2vs0mg"},{"bike_id":"9887d7f2-ce85-4010-aa7e-13063f6214dc","system_id":"levelo_inurba_marseille","lat":43.311125,"lon":5.377624,"is_reserved":false,"is_disabled":false,"rental_uris":{"android":"levelo://app?vid=9887d7f2-ce85-4010-aa7e-13063f6214dc","ios":"levelo://app?vid=9887d7f2-ce85-4010-aa7e-13063f6214dc"},"vehicle_type_id":"4","last_reported":1714357176,"current_range_meters":15600,"station_id":"ce4bgt92rcd13ifvqcg0","pricing_plan_id":"cebpf4jnsgd1na2vs0mg"},{"bike_id":"be49e973-7f76-402c-9828-b922721d628e","system_id":"levelo_inurba_marseille","lat":43.307945,"lon":5.376487,"is_reserved":false,"is_disabled":false,"rental_uris":{"android":"levelo://app?vid=be49e973-7f76-402c-9828-b922721d628e","ios":"levelo://app?vid=be49e973-7f76-402c-9828-b922721d628e"},"vehicle_type_id":"4","last_reported":1714357176,"current_range_meters":28800,"station_id":"ce4bgv92rcd13ifvqcq0","pricing_plan_id":"cebpf4jnsgd1na2vs0mg"},{"bike_id":"1f5adcfa-7994-468c-a991-9858851eb352","system_id":"levelo_inurba_marseille","lat":43.307945,"lon":5.376487,"is_reserved":false,"is_disabled":false,"rental_uris":{"android":"levelo://app?vid=1f5adcfa-7994-468c-a991-9858851eb352","ios":"levelo://app?vid=1f5adcfa-7994-468c-a991-9858851eb352"},"vehicle_type_id":"4","last_reported":1714357176,"current_range_meters":28800,"station_id":"ce4bgv92rcd13ifvqcq0","pricing_plan_id":"cebpf4jnsgd1na2vs0mg"},{"bike_id":"93d49ee5-98c6-4aad-8e35-efdcef8e85df","system_id":"levelo_inurba_marseille","lat":43.317075,"lon":5.377367,"is_reserved":false,"is_disabled":false,"rental_uris":{"android":"levelo://app?vid=93d49ee5-98c6-4aad-8e35-efdcef8e85df","ios":"levelo://app?vid=93d49ee5-98c6-4aad-8e35-efdcef8e85df"},"vehicle_type_id":"4","last_reported":1714357176,"current_range_meters":11200,"station_id":"ce4bgth2rcd13ifvqch0","pricing_plan_id":"cebpf4jnsgd1na2vs0mg"},{"bike_id":"b3315898-80a7-4c47-afaa-1d4393383362","system_id":"levelo_inurba_marseille","lat":43.317075,"lon":5.377367,"is_reserved":false,"is_disabled":false,"rental_uris":{"android":"levelo://app?vid=b3315898-80a7-4c47-afaa-1d4393383362","ios":"levelo://app?vid=b3315898-80a7-4c47-afaa-1d4393383362"},"vehicle_type_id":"4","last_reported":1714357176,"current_range_meters":31600,"station_id":"ce4bgth2rcd13ifvqch0","pricing_plan_id":"cebpf4jnsgd1na2vs0mg"},{"bike_id":"2cf8a2fb-5e81-48ea-835f-436b75d7ddf3","system_id":"levelo_inurba_marseille","lat":43.317075,"lon":5.377367,"is_reserved":false,"is_disabled":false,"rental_uris":{"android":"levelo://app?vid=2cf8a2fb-5e81-48ea-835f-436b75d7ddf3","ios":"levelo://app?vid=2cf8a2fb-5e81-48ea-835f-436b75d7ddf3"},"vehicle_type_id":"4","last_reported":1714357176,"current_range_meters":5600,"station_id":"ce4bgth2rcd13ifvqch0","pricing_plan_id":"cebpf4jnsgd1na2vs0mg"},{"bike_id":"d0fcd7e7-85f9-4009-97b5-799f63eba2d3","system_id":"levelo_inurba_marseille","lat":43.317092,"lon":5.377575,"is_reserved":false,"is_disabled":false,"rental_uris":{"android":"levelo://app?vid=d0fcd7e7-85f9-4009-97b5-799f63eba2d3","ios":"levelo://app?vid=d0fcd7e7-85f9-4009-97b5-799f63eba2d3"},"vehicle_type_id":"4","last_reported":1714357176,"current_range_meters":21600,"station_id":"ce4bgth2rcd13ifvqch0","pricing_plan_id":"cebpf4jnsgd1na2vs0mg"},{"bike_id":"95b9bc0c-d8bc-421d-9fdc-f670de685f8d","system_id":"levelo_inurba_marseille","lat":43.303046,"lon":5.368981,"is_reserved":false,"is_disabled":false,"rental_uris":{"android":"levelo://app?vid=95b9bc0c-d8bc-421d-9fdc-f670de685f8d","ios":"levelo://app?vid=95b9bc0c-d8bc-421d-9fdc-f670de685f8d"},"vehicle_type_id":"4","last_reported":1714357176,"current_range_meters":14800,"station_id":"ce4bgqh2rcd13ifvqc5g","pricing_plan_id":"cebpf4jnsgd1na2vs0mg"},{"bike_id":"b8bbded4-79e2-453f-be2e-19dd9d605c2f","system_id":"levelo_inurba_marseille","lat":43.303046,"lon":5.368981,"is_reserved":false,"is_disabled":false,"rental_uris":{"android":"levelo://app?vid=b8bbded4-79e2-453f-be2e-19dd9d605c2f","ios":"levelo://app?vid=b8bbded4-79e2-453f-be2e-19dd9d605c2f"},"vehicle_type_id":"4","last_reported":1714357176,"current_range_meters":18400,"station_id":"ce4bgqh2rcd13ifvqc5g","pricing_plan_id":"cebpf4jnsgd1na2vs0mg"},{"bike_id":"5027ffc9-4e30-4b8d-8dbe-d5f48b857923","system_id":"levelo_inurba_marseille","lat":43.303046,"lon":5.368981,"is_reserved":false,"is_disabled":false,"rental_uris":{"android":"levelo://app?vid=5027ffc9-4e30-4b8d-8dbe-d5f48b857923","ios":"levelo://app?vid=5027ffc9-4e30-4b8d-8dbe-d5f48b857923"},"vehicle_type_id":"4","last_reported":1714357176,"current_range_meters":20400,"station_id":"ce4bgqh2rcd13ifvqc5g","pricing_plan_id":"cebpf4jnsgd1na2vs0mg"},{"bike_id":"12179c9c-e43f-4114-acb8-f38da80766a4","system_id":"levelo_inurba_marseille","lat":43.303046,"lon":5.368981,"is_reserved":false,"is_disabled":false,"rental_uris":{"android":"levelo://app?vid=12179c9c-e43f-4114-acb8-f38da80766a4","ios":"levelo://app?vid=12179c9c-e43f-4114-acb8-f38da80766a4"},"vehicle_type_id":"4","last_reported":1714357176,"current_range_meters":23200,"station_id":"ce4bgqh2rcd13ifvqc5g","pricing_plan_id":"cebpf4jnsgd1na2vs0mg"},{"bike_id":"441e1386-6328-49af-9999-8a215fb29ace","system_id":"levelo_inurba_marseille","lat":43.315293,"lon":5.380349,"is_reserved":false,"is_disabled":false,"rental_uris":{"android":"levelo://app?vid=441e1386-6328-49af-9999-8a215fb29ace","ios":"levelo://app?vid=441e1386-6328-49af-9999-8a215fb29ace"},"vehicle_type_id":"4","last_reported":1714357176,"current_range_meters":26800,"station_id":"ce4bhsp2rcd13ifvqi50","pricing_plan_id":"cebpf4jnsgd1na2vs0mg"},{"bike_id":"2dd780f1-5b9d-4551-a858-5d908af18de6","system_id":"levelo_inurba_marseille","lat":43.315293,"lon":5.380349,"is_reserved":false,"is_disabled":false,"rental_uris":{"android":"levelo://app?vid=2dd780f1-5b9d-4551-a858-5d908af18de6","ios":"levelo://app?vid=2dd780f1-5b9d-4551-a858-5d908af18de6"},"vehicle_type_id":"4","last_reported":1714357176,"current_range_meters":26800,"station_id":"ce4bhsp2rcd13ifvqi50","pricing_plan_id":"cebpf4jnsgd1na2vs0mg"},{"bike_id":"17f14fe3-9f2e-4de2-b017-1601bed771ca","system_id":"levelo_inurba_marseille","lat":43.315289,"lon":5.380349,"is_reserved":false,"is_disabled":false,"rental_uris":{"android":"levelo://app?vid=17f14fe3-9f2e-4de2-b017-1601bed771ca","ios":"levelo://app?vid=17f14fe3-9f2e-4de2-b017-1601bed771ca"},"vehicle_type_id":"4","last_reported":1714357176,"current_range_meters":29200,"station_id":"ce4bhsp2rcd13ifvqi50","pricing_plan_id":"cebpf4jnsgd1na2vs0mg"},{"bike_id":"af8cb760-4f66-48b5-b438-9c7f0580d47c","system_id":"levelo_inurba_marseille","lat":43.315299,"lon":5.380306,"is_reserved":false,"is_disabled":false,"rental_uris":{"android":"levelo://app?vid=af8cb760-4f66-48b5-b438-9c7f0580d47c","ios":"levelo://app?vid=af8cb760-4f66-48b5-b438-9c7f0580d47c"},"vehicle_type_id":"4","last_reported":1714357176,"current_range_meters":4400,"station_id":"ce4bhsp2rcd13ifvqi50","pricing_plan_id":"cebpf4jnsgd1na2vs0mg"},{"bike_id":"cef44fd6-a5bc-4534-b7ee-e4f062e2789a","system_id":"levelo_inurba_marseille","lat":43.315361,"lon":5.380396,"is_reserved":false,"is_disabled":false,"rental_uris":{"android":"levelo://app?vid=cef44fd6-a5bc-4534-b7ee-e4f062e2789a","ios":"levelo://app?vid=cef44fd6-a5bc-4534-b7ee-e4f062e2789a"},"vehicle_type_id":"4","last_reported":1714357176,"current_range_meters":17200,"station_id":"ce4bhsp2rcd13ifvqi50","pricing_plan_id":"cebpf4jnsgd1na2vs0mg"},{"bike_id":"d4afb31c-6202-4f01-a018-3ebb3a98bdfc","system_id":"levelo_inurba_marseille","lat":43.301939,"lon":5.366286,"is_reserved":false,"is_disabled":false,"rental_uris":{"android":"levelo://app?vid=d4afb31c-6202-4f01-a018-3ebb3a98bdfc","ios":"levelo://app?vid=d4afb31c-6202-4f01-a018-3ebb3a98bdfc"},"vehicle_type_id":"4","last_reported":1714357176,"current_range_meters":24000,"station_id":"ce4bgrh2rcd13ifvqc8g","pricing_plan_id":"cebpf4jnsgd1na2vs0mg"},{"bike_id":"cb9c95a6-dcd8-47d3-83d7-f9a9486241fb","system_id":"levelo_inurba_marseille","lat":43.301939,"lon":5.366286,"is_reserved":false,"is_disabled":false,"rental_uris":{"android":"levelo://app?vid=cb9c95a6-dcd8-47d3-83d7-f9a9486241fb","ios":"levelo://app?vid=cb9c95a6-dcd8-47d3-83d7-f9a9486241fb"},"vehicle_type_id":"4","last_reported":1714357176,"current_range_meters":25600,"station_id":"ce4bgrh2rcd13ifvqc8g","pricing_plan_id":"cebpf4jnsgd1na2vs0mg"},{"bike_id":"34f3ae38-472a-45b9-8215-489436a28279","system_id":"levelo_inurba_marseille","lat":43.301939,"lon":5.366286,"is_reserved":false,"is_disabled":false,"rental_uris":{"android":"levelo://app?vid=34f3ae38-472a-45b9-8215-489436a28279","ios":"levelo://app?vid=34f3ae38-472a-45b9-8215-489436a28279"},"vehicle_type_id":"4","last_reported":1714357176,"current_range_meters":25600,"station_id":"ce4bgrh2rcd13ifvqc8g","pricing_plan_id":"cebpf4jnsgd1na2vs0mg"},{"bike_id":"761b383d-1117-4c45-bb96-953b2a88ceaa","system_id":"levelo_inurba_marseille","lat":43.308012,"lon":5.381511,"is_reserved":false,"is_disabled":false,"rental_uris":{"android":"levelo://app?vid=761b383d-1117-4c45-bb96-953b2a88ceaa","ios":"levelo://app?vid=761b383d-1117-4c45-bb96-953b2a88ceaa"},"vehicle_type_id":"4","last_reported":1714357176,"current_range_meters":24000,"station_id":"ce4bgt12rcd13ifvqce0","pricing_plan_id":"cebpf4jnsgd1na2vs0mg"},{"bike_id":"72ff49e1-d9a9-4c7c-a0ec-23f0b9fb46e0","system_id":"levelo_inurba_marseille","lat":43.308012,"lon":5.381511,"is_reserved":false,"is_disabled":false,"rental_uris":{"android":"levelo://app?vid=72ff49e1-d9a9-4c7c-a0ec-23f0b9fb46e0","ios":"levelo://app?vid=72ff49e1-d9a9-4c7c-a0ec-23f0b9fb46e0"},"vehicle_type_id":"4","last_reported":1714357176,"current_range_meters":21200,"station_id":"ce4bgt12rcd13ifvqce0","pricing_plan_id":"cebpf4jnsgd1na2vs0mg"},{"bike_id":"d7fac6ee-b073-4cc8-88f8-2ef330590006","system_id":"levelo_inurba_marseille","lat":43.308012,"lon":5.381511,"is_reserved":false,"is_disabled":false,"rental_uris":{"android":"levelo://app?vid=d7fac6ee-b073-4cc8-88f8-2ef330590006","ios":"levelo://app?vid=d7fac6ee-b073-4cc8-88f8-2ef330590006"},"vehicle_type_id":"4","last_reported":1714357176,"current_range_meters":4400,"station_id":"ce4bgt12rcd13ifvqce0","pricing_plan_id":"cebpf4jnsgd1na2vs0mg"},{"bike_id":"9ffb72a5-eb76-4461-96de-e0ed9b9d5e86","system_id":"levelo_inurba_marseille","lat":43.308012,"lon":5.381511,"is_reserved":false,"is_disabled":false,"rental_uris":{"android":"levelo://app?vid=9ffb72a5-eb76-4461-96de-e0ed9b9d5e86","ios":"levelo://app?vid=9ffb72a5-eb76-4461-96de-e0ed9b9d5e86"},"vehicle_type_id":"4","last_reported":1714357176,"current_range_meters":29600,"station_id":"ce4bgt12rcd13ifvqce0","pricing_plan_id":"cebpf4jnsgd1na2vs0mg"},{"bike_id":"0d2b253c-af54-4566-b886-22cf0b591639","system_id":"levelo_inurba_marseille","lat":43.308012,"lon":5.381511,"is_reserved":false,"is_disabled":false,"rental_uris":{"android":"levelo://app?vid=0d2b253c-af54-4566-b886-22cf0b591639","ios":"levelo://app?vid=0d2b253c-af54-4566-b886-22cf0b591639"},"vehicle_type_id":"4","last_reported":1714357176,"current_range_meters":14000,"station_id":"ce4bgt12rcd13ifvqce0","pricing_plan_id":"cebpf4jnsgd1na2vs0mg"},{"bike_id":"8c4ab9b3-8d93-4bbd-a2d2-7c3ed63074d8","system_id":"levelo_inurba_marseille","lat":43.316388,"lon":5.382132,"is_reserved":false,"is_disabled":false,"rental_uris":{"android":"levelo://app?vid=8c4ab9b3-8d93-4bbd-a2d2-7c3ed63074d8","ios":"levelo://app?vid=8c4ab9b3-8d93-4bbd-a2d2-7c3ed63074d8"},"vehicle_type_id":"4","last_reported":1714357176,"current_range_meters":1200,"station_id":"","pricing_plan_id":"cebpf4jnsgd1na2vs0mg"},{"bike_id":"45842d2d-4cdc-4539-a0f8-38a3a02e0cf4","system_id":"levelo_inurba_marseille","lat":43.308012,"lon":5.381511,"is_reserved":false,"is_disabled":false,"rental_uris":{"android":"levelo://app?vid=45842d2d-4cdc-4539-a0f8-38a3a02e0cf4","ios":"levelo://app?vid=45842d2d-4cdc-4539-a0f8-38a3a02e0cf4"},"vehicle_type_id":"4","last_reported":1714357176,"current_range_meters":23200,"station_id":"ce4bgt12rcd13ifvqce0","pricing_plan_id":"cebpf4jnsgd1na2vs0mg"},{"bike_id":"01ff0923-1b98-47ba-83cc-3cfaa33d802b","system_id":"levelo_inurba_marseille","lat":43.308012,"lon":5.381511,"is_reserved":false,"is_disabled":false,"rental_uris":{"android":"levelo://app?vid=01ff0923-1b98-47ba-83cc-3cfaa33d802b","ios":"levelo://app?vid=01ff0923-1b98-47ba-83cc-3cfaa33d802b"},"vehicle_type_id":"4","last_reported":1714357176,"current_range_meters":31200,"station_id":"ce4bgt12rcd13ifvqce0","pricing_plan_id":"cebpf4jnsgd1na2vs0mg"},{"bike_id":"b85e2652-9769-4772-be68-6fa143fb987b","system_id":"levelo_inurba_marseille","lat":43.308012,"lon":5.381511,"is_reserved":false,"is_disabled":false,"rental_uris":{"android":"levelo://app?vid=b85e2652-9769-4772-be68-6fa143fb987b","ios":"levelo://app?vid=b85e2652-9769-4772-be68-6fa143fb987b"},"vehicle_type_id":"4","last_reported":1714357176,"current_range_meters":1200,"station_id":"ce4bgt12rcd13ifvqce0","pricing_plan_id":"cebpf4jnsgd1na2vs0mg"},{"bike_id":"41bc618f-dcb6-4c34-847f-5b7bd3fa59e1","system_id":"levelo_inurba_marseille","lat":43.308012,"lon":5.381511,"is_reserved":false,"is_disabled":false,"rental_uris":{"android":"levelo://app?vid=41bc618f-dcb6-4c34-847f-5b7bd3fa59e1","ios":"levelo://app?vid=41bc618f-dcb6-4c34-847f-5b7bd3fa59e1"},"vehicle_type_id":"4","last_reported":1714357176,"current_range_meters":24400,"station_id":"ce4bgt12rcd13ifvqce0","pricing_plan_id":"cebpf4jnsgd1na2vs0mg"},{"bike_id":"5f5799b0-6c33-46fa-918b-dbcb89746502","system_id":"levelo_inurba_marseille","lat":43.308012,"lon":5.381511,"is_reserved":false,"is_disabled":false,"rental_uris":{"android":"levelo://app?vid=5f5799b0-6c33-46fa-918b-dbcb89746502","ios":"levelo://app?vid=5f5799b0-6c33-46fa-918b-dbcb89746502"},"vehicle_type_id":"4","last_reported":1714357176,"current_range_meters":23600,"station_id":"ce4bgt12rcd13ifvqce0","pricing_plan_id":"cebpf4jnsgd1na2vs0mg"},{"bike_id":"9ba7a7cf-b242-4725-9ab5-f6e73b3856b8","system_id":"levelo_inurba_marseille","lat":43.304606,"lon":5.379026,"is_reserved":false,"is_disabled":false,"rental_uris":{"android":"levelo://app?vid=9ba7a7cf-b242-4725-9ab5-f6e73b3856b8","ios":"levelo://app?vid=9ba7a7cf-b242-4725-9ab5-f6e73b3856b8"},"vehicle_type_id":"4","last_reported":1714357176,"current_range_meters":18400,"station_id":"ce4bgup2rcd13ifvqcn0","pricing_plan_id":"cebpf4jnsgd1na2vs0mg"},{"bike_id":"14efbb1a-f230-43b1-85ca-7b5920c82004","system_id":"levelo_inurba_marseille","lat":43.304606,"lon":5.379026,"is_reserved":false,"is_disabled":false,"rental_uris":{"android":"levelo://app?vid=14efbb1a-f230-43b1-85ca-7b5920c82004","ios":"levelo://app?vid=14efbb1a-f230-43b1-85ca-7b5920c82004"},"vehicle_type_id":"4","last_reported":1714357176,"current_range_meters":28000,"station_id":"ce4bgup2rcd13ifvqcn0","pricing_plan_id":"cebpf4jnsgd1na2vs0mg"},{"bike_id":"dbc0a2fe-ccec-45b3-b883-292553bc50af","system_id":"levelo_inurba_marseille","lat":43.304606,"lon":5.379026,"is_reserved":false,"is_disabled":false,"rental_uris":{"android":"levelo://app?vid=dbc0a2fe-ccec-45b3-b883-292553bc50af","ios":"levelo://app?vid=dbc0a2fe-ccec-45b3-b883-292553bc50af"},"vehicle_type_id":"4","last_reported":1714357176,"current_range_meters":21600,"station_id":"ce4bgup2rcd13ifvqcn0","pricing_plan_id":"cebpf4jnsgd1na2vs0mg"},{"bike_id":"e2f0d488-485b-42ce-a5eb-a605ce20dfe8","system_id":"levelo_inurba_marseille","lat":43.324771,"lon":5.36557,"is_reserved":false,"is_disabled":false,"rental_uris":{"android":"levelo://app?vid=e2f0d488-485b-42ce-a5eb-a605ce20dfe8","ios":"levelo://app?vid=e2f0d488-485b-42ce-a5eb-a605ce20dfe8"},"vehicle_type_id":"4","last_reported":1714357176,"current_range_meters":16800,"station_id":"ce4bhs12rcd13ifvqhvg","pricing_plan_id":"cebpf4jnsgd1na2vs0mg"},{"bike_id":"1b4acdb9-b533-4fbe-be14-3d235a47355f","system_id":"levelo_inurba_marseille","lat":43.324771,"lon":5.36557,"is_reserved":false,"is_disabled":false,"rental_uris":{"android":"levelo://app?vid=1b4acdb9-b533-4fbe-be14-3d235a47355f","ios":"levelo://app?vid=1b4acdb9-b533-4fbe-be14-3d235a47355f"},"vehicle_type_id":"4","last_reported":1714357176,"current_range_meters":7200,"station_id":"ce4bhs12rcd13ifvqhvg","pricing_plan_id":"cebpf4jnsgd1na2vs0mg"},{"bike_id":"2bd54964-39ec-4baf-8d62-ee67fc4efecf","system_id":"levelo_inurba_marseille","lat":43.324771,"lon":5.36557,"is_reserved":false,"is_disabled":false,"rental_uris":{"android":"levelo://app?vid=2bd54964-39ec-4baf-8d62-ee67fc4efecf","ios":"levelo://app?vid=2bd54964-39ec-4baf-8d62-ee67fc4efecf"},"vehicle_type_id":"4","last_reported":1714357176,"current_range_meters":4800,"station_id":"ce4bhs12rcd13ifvqhvg","pricing_plan_id":"cebpf4jnsgd1na2vs0mg"},{"bike_id":"0a99ee72-e43a-44c1-9027-262098246010","system_id":"levelo_inurba_marseille","lat":43.324771,"lon":5.36557,"is_reserved":false,"is_disabled":false,"rental_uris":{"android":"levelo://app?vid=0a99ee72-e43a-44c1-9027-262098246010","ios":"levelo://app?vid=0a99ee72-e43a-44c1-9027-262098246010"},"vehicle_type_id":"4","last_reported":1714357176,"current_range_meters":20800,"station_id":"ce4bhs12rcd13ifvqhvg","pricing_plan_id":"cebpf4jnsgd1na2vs0mg"},{"bike_id":"43b64350-638b-4fde-955e-6a2365e245df","system_id":"levelo_inurba_marseille","lat":43.324792,"lon":5.36572,"is_reserved":false,"is_disabled":false,"rental_uris":{"android":"levelo://app?vid=43b64350-638b-4fde-955e-6a2365e245df","ios":"levelo://app?vid=43b64350-638b-4fde-955e-6a2365e245df"},"vehicle_type_id":"4","last_reported":1714357176,"current_range_meters":16400,"station_id":"ce4bhs12rcd13ifvqhvg","pricing_plan_id":"cebpf4jnsgd1na2vs0mg"},{"bike_id":"ea9f8f61-be81-43ec-8055-fdf55dd5c39f","system_id":"levelo_inurba_marseille","lat":43.324771,"lon":5.36557,"is_reserved":false,"is_disabled":false,"rental_uris":{"android":"levelo://app?vid=ea9f8f61-be81-43ec-8055-fdf55dd5c39f","ios":"levelo://app?vid=ea9f8f61-be81-43ec-8055-fdf55dd5c39f"},"vehicle_type_id":"4","last_reported":1714357176,"current_range_meters":8000,"station_id":"ce4bhs12rcd13ifvqhvg","pricing_plan_id":"cebpf4jnsgd1na2vs0mg"},{"bike_id":"543576bd-b295-4580-81b0-e36e0805c360","system_id":"levelo_inurba_marseille","lat":43.324809,"lon":5.365775,"is_reserved":false,"is_disabled":false,"rental_uris":{"android":"levelo://app?vid=543576bd-b295-4580-81b0-e36e0805c360","ios":"levelo://app?vid=543576bd-b295-4580-81b0-e36e0805c360"},"vehicle_type_id":"4","last_reported":1714357176,"current_range_meters":14800,"station_id":"ce4bhs12rcd13ifvqhvg","pricing_plan_id":"cebpf4jnsgd1na2vs0mg"},{"bike_id":"d60a0276-ff39-464f-b013-9688af8be922","system_id":"levelo_inurba_marseille","lat":43.324771,"lon":5.36557,"is_reserved":false,"is_disabled":false,"rental_uris":{"android":"levelo://app?vid=d60a0276-ff39-464f-b013-9688af8be922","ios":"levelo://app?vid=d60a0276-ff39-464f-b013-9688af8be922"},"vehicle_type_id":"4","last_reported":1714357176,"current_range_meters":2800,"station_id":"ce4bhs12rcd13ifvqhvg","pricing_plan_id":"cebpf4jnsgd1na2vs0mg"},{"bike_id":"6ac2bb55-81dd-410c-8098-66e77c491029","system_id":"levelo_inurba_marseille","lat":43.324771,"lon":5.36557,"is_reserved":false,"is_disabled":false,"rental_uris":{"android":"levelo://app?vid=6ac2bb55-81dd-410c-8098-66e77c491029","ios":"levelo://app?vid=6ac2bb55-81dd-410c-8098-66e77c491029"},"vehicle_type_id":"4","last_reported":1714357176,"current_range_meters":10400,"station_id":"ce4bhs12rcd13ifvqhvg","pricing_plan_id":"cebpf4jnsgd1na2vs0mg"},{"bike_id":"0c158e1b-4722-4f12-8396-1c9d9f4a29d5","system_id":"levelo_inurba_marseille","lat":43.324771,"lon":5.36557,"is_reserved":false,"is_disabled":false,"rental_uris":{"android":"levelo://app?vid=0c158e1b-4722-4f12-8396-1c9d9f4a29d5","ios":"levelo://app?vid=0c158e1b-4722-4f12-8396-1c9d9f4a29d5"},"vehicle_type_id":"4","last_reported":1714357176,"current_range_meters":16400,"station_id":"ce4bhs12rcd13ifvqhvg","pricing_plan_id":"cebpf4jnsgd1na2vs0mg"},{"bike_id":"fed24aee-80a4-4b73-a424-9a65cb9ef4bf","system_id":"levelo_inurba_marseille","lat":43.324771,"lon":5.36557,"is_reserved":false,"is_disabled":false,"rental_uris":{"android":"levelo://app?vid=fed24aee-80a4-4b73-a424-9a65cb9ef4bf","ios":"levelo://app?vid=fed24aee-80a4-4b73-a424-9a65cb9ef4bf"},"vehicle_type_id":"4","last_reported":1714357176,"current_range_meters":26400,"station_id":"ce4bhs12rcd13ifvqhvg","pricing_plan_id":"cebpf4jnsgd1na2vs0mg"},{"bike_id":"da7cf71b-c76d-435c-8bcc-78ee9cc66204","system_id":"levelo_inurba_marseille","lat":43.324828,"lon":5.365688,"is_reserved":false,"is_disabled":false,"rental_uris":{"android":"levelo://app?vid=da7cf71b-c76d-435c-8bcc-78ee9cc66204","ios":"levelo://app?vid=da7cf71b-c76d-435c-8bcc-78ee9cc66204"},"vehicle_type_id":"4","last_reported":1714357176,"current_range_meters":18000,"station_id":"ce4bhs12rcd13ifvqhvg","pricing_plan_id":"cebpf4jnsgd1na2vs0mg"},{"bike_id":"77c85d10-2964-4458-b392-f3137819631d","system_id":"levelo_inurba_marseille","lat":43.324828,"lon":5.365674,"is_reserved":false,"is_disabled":false,"rental_uris":{"android":"levelo://app?vid=77c85d10-2964-4458-b392-f3137819631d","ios":"levelo://app?vid=77c85d10-2964-4458-b392-f3137819631d"},"vehicle_type_id":"4","last_reported":1714357176,"current_range_meters":13600,"station_id":"ce4bhs12rcd13ifvqhvg","pricing_plan_id":"cebpf4jnsgd1na2vs0mg"},{"bike_id":"554d93b5-d5c3-4dbc-8419-b8102b353d4e","system_id":"levelo_inurba_marseille","lat":43.324836,"lon":5.365698,"is_reserved":false,"is_disabled":false,"rental_uris":{"android":"levelo://app?vid=554d93b5-d5c3-4dbc-8419-b8102b353d4e","ios":"levelo://app?vid=554d93b5-d5c3-4dbc-8419-b8102b353d4e"},"vehicle_type_id":"4","last_reported":1714357176,"current_range_meters":9200,"station_id":"ce4bhs12rcd13ifvqhvg","pricing_plan_id":"cebpf4jnsgd1na2vs0mg"},{"bike_id":"7d2182b4-dbc2-4a24-a45c-47ca0cb96df7","system_id":"levelo_inurba_marseille","lat":43.324771,"lon":5.36557,"is_reserved":false,"is_disabled":false,"rental_uris":{"android":"levelo://app?vid=7d2182b4-dbc2-4a24-a45c-47ca0cb96df7","ios":"levelo://app?vid=7d2182b4-dbc2-4a24-a45c-47ca0cb96df7"},"vehicle_type_id":"4","last_reported":1714357176,"current_range_meters":12400,"station_id":"ce4bhs12rcd13ifvqhvg","pricing_plan_id":"cebpf4jnsgd1na2vs0mg"},{"bike_id":"d2316c6e-423e-47d2-a602-f73f0910aaf2","system_id":"levelo_inurba_marseille","lat":43.324771,"lon":5.36557,"is_reserved":false,"is_disabled":false,"rental_uris":{"android":"levelo://app?vid=d2316c6e-423e-47d2-a602-f73f0910aaf2","ios":"levelo://app?vid=d2316c6e-423e-47d2-a602-f73f0910aaf2"},"vehicle_type_id":"4","last_reported":1714357176,"current_range_meters":19600,"station_id":"ce4bhs12rcd13ifvqhvg","pricing_plan_id":"cebpf4jnsgd1na2vs0mg"},{"bike_id":"f0566bec-24c0-41d5-a984-22c89f50d58c","system_id":"levelo_inurba_marseille","lat":43.324857,"lon":5.365827,"is_reserved":false,"is_disabled":false,"rental_uris":{"android":"levelo://app?vid=f0566bec-24c0-41d5-a984-22c89f50d58c","ios":"levelo://app?vid=f0566bec-24c0-41d5-a984-22c89f50d58c"},"vehicle_type_id":"4","last_reported":1714357176,"current_range_meters":2000,"station_id":"ce4bhs12rcd13ifvqhvg","pricing_plan_id":"cebpf4jnsgd1na2vs0mg"},{"bike_id":"cf0f8186-3423-4c8b-bbb6-5d421d0e57bf","system_id":"levelo_inurba_marseille","lat":43.324873,"lon":5.365706,"is_reserved":false,"is_disabled":false,"rental_uris":{"android":"levelo://app?vid=cf0f8186-3423-4c8b-bbb6-5d421d0e57bf","ios":"levelo://app?vid=cf0f8186-3423-4c8b-bbb6-5d421d0e57bf"},"vehicle_type_id":"4","last_reported":1714357176,"current_range_meters":13200,"station_id":"ce4bhs12rcd13ifvqhvg","pricing_plan_id":"cebpf4jnsgd1na2vs0mg"},{"bike_id":"367ba24e-ac83-4c83-8908-76ebc60e0a7e","system_id":"levelo_inurba_marseille","lat":43.324872,"lon":5.365613,"is_reserved":false,"is_disabled":false,"rental_uris":{"android":"levelo://app?vid=367ba24e-ac83-4c83-8908-76ebc60e0a7e","ios":"levelo://app?vid=367ba24e-ac83-4c83-8908-76ebc60e0a7e"},"vehicle_type_id":"4","last_reported":1714357176,"current_range_meters":9200,"station_id":"ce4bhs12rcd13ifvqhvg","pricing_plan_id":"cebpf4jnsgd1na2vs0mg"},{"bike_id":"7a95a998-f61f-4d25-b27e-f20f56293a9a","system_id":"levelo_inurba_marseille","lat":43.302784,"lon":5.377158,"is_reserved":false,"is_disabled":false,"rental_uris":{"android":"levelo://app?vid=7a95a998-f61f-4d25-b27e-f20f56293a9a","ios":"levelo://app?vid=7a95a998-f61f-4d25-b27e-f20f56293a9a"},"vehicle_type_id":"4","last_reported":1714357176,"current_range_meters":26400,"station_id":"ce4bguh2rcd13ifvqcj0","pricing_plan_id":"cebpf4jnsgd1na2vs0mg"},{"bike_id":"2508c007-4181-41c1-8f14-afbf27210b5a","system_id":"levelo_inurba_marseille","lat":43.302784,"lon":5.377158,"is_reserved":false,"is_disabled":false,"rental_uris":{"android":"levelo://app?vid=2508c007-4181-41c1-8f14-afbf27210b5a","ios":"levelo://app?vid=2508c007-4181-41c1-8f14-afbf27210b5a"},"vehicle_type_id":"4","last_reported":1714357176,"current_range_meters":26000,"station_id":"ce4bguh2rcd13ifvqcj0","pricing_plan_id":"cebpf4jnsgd1na2vs0mg"},{"bike_id":"5867131c-518d-4bd2-8d5a-1533cb62af6d","system_id":"levelo_inurba_marseille","lat":43.310804,"lon":5.38359,"is_reserved":false,"is_disabled":false,"rental_uris":{"android":"levelo://app?vid=5867131c-518d-4bd2-8d5a-1533cb62af6d","ios":"levelo://app?vid=5867131c-518d-4bd2-8d5a-1533cb62af6d"},"vehicle_type_id":"4","last_reported":1714357176,"current_range_meters":15200,"station_id":"ce4bgv92rcd13ifvqcr0","pricing_plan_id":"cebpf4jnsgd1na2vs0mg"},{"bike_id":"e623fb7b-7c63-49e1-b1f3-7338d0625223","system_id":"levelo_inurba_marseille","lat":43.301429,"lon":5.37413,"is_reserved":false,"is_disabled":false,"rental_uris":{"android":"levelo://app?vid=e623fb7b-7c63-49e1-b1f3-7338d0625223","ios":"levelo://app?vid=e623fb7b-7c63-49e1-b1f3-7338d0625223"},"vehicle_type_id":"4","last_reported":1714357176,"current_range_meters":20800,"station_id":"ce4bgs92rcd13ifvqcc0","pricing_plan_id":"cebpf4jnsgd1na2vs0mg"},{"bike_id":"5adf35d8-eb0e-47bb-bf83-adbe4ff041f4","system_id":"levelo_inurba_marseille","lat":43.30143,"lon":5.37413,"is_reserved":false,"is_disabled":false,"rental_uris":{"android":"levelo://app?vid=5adf35d8-eb0e-47bb-bf83-adbe4ff041f4","ios":"levelo://app?vid=5adf35d8-eb0e-47bb-bf83-adbe4ff041f4"},"vehicle_type_id":"4","last_reported":1714357176,"current_range_meters":28800,"station_id":"ce4bgs92rcd13ifvqcc0","pricing_plan_id":"cebpf4jnsgd1na2vs0mg"},{"bike_id":"e6e10464-8d70-41d6-b50a-6621e243a222","system_id":"levelo_inurba_marseille","lat":43.30143,"lon":5.37413,"is_reserved":false,"is_disabled":false,"rental_uris":{"android":"levelo://app?vid=e6e10464-8d70-41d6-b50a-6621e243a222","ios":"levelo://app?vid=e6e10464-8d70-41d6-b50a-6621e243a222"},"vehicle_type_id":"4","last_reported":1714357176,"current_range_meters":14000,"station_id":"ce4bgs92rcd13ifvqcc0","pricing_plan_id":"cebpf4jnsgd1na2vs0mg"},{"bike_id":"2c49f935-9b43-4086-8639-e6d223d1426d","system_id":"levelo_inurba_marseille","lat":43.30143,"lon":5.37413,"is_reserved":false,"is_disabled":false,"rental_uris":{"android":"levelo://app?vid=2c49f935-9b43-4086-8639-e6d223d1426d","ios":"levelo://app?vid=2c49f935-9b43-4086-8639-e6d223d1426d"},"vehicle_type_id":"4","last_reported":1714357176,"current_range_meters":6000,"station_id":"ce4bgs92rcd13ifvqcc0","pricing_plan_id":"cebpf4jnsgd1na2vs0mg"},{"bike_id":"cc13d7d2-0c87-4069-a9a2-ad9b7a179ee0","system_id":"levelo_inurba_marseille","lat":43.302784,"lon":5.377158,"is_reserved":false,"is_disabled":false,"rental_uris":{"android":"levelo://app?vid=cc13d7d2-0c87-4069-a9a2-ad9b7a179ee0","ios":"levelo://app?vid=cc13d7d2-0c87-4069-a9a2-ad9b7a179ee0"},"vehicle_type_id":"4","last_reported":1714357176,"current_range_meters":29200,"station_id":"ce4bguh2rcd13ifvqcj0","pricing_plan_id":"cebpf4jnsgd1na2vs0mg"},{"bike_id":"754e2aaf-5581-4b52-8a3d-949dca7e47f6","system_id":"levelo_inurba_marseille","lat":43.319935,"lon":5.381699,"is_reserved":false,"is_disabled":false,"rental_uris":{"android":"levelo://app?vid=754e2aaf-5581-4b52-8a3d-949dca7e47f6","ios":"levelo://app?vid=754e2aaf-5581-4b52-8a3d-949dca7e47f6"},"vehicle_type_id":"4","last_reported":1714357176,"current_range_meters":8800,"station_id":"ce4bhr12rcd13ifvqhpg","pricing_plan_id":"cebpf4jnsgd1na2vs0mg"},{"bike_id":"cc5905e0-dc0f-44a0-9ae4-36d5c81c81f9","system_id":"levelo_inurba_marseille","lat":43.319935,"lon":5.381699,"is_reserved":false,"is_disabled":false,"rental_uris":{"android":"levelo://app?vid=cc5905e0-dc0f-44a0-9ae4-36d5c81c81f9","ios":"levelo://app?vid=cc5905e0-dc0f-44a0-9ae4-36d5c81c81f9"},"vehicle_type_id":"4","last_reported":1714357176,"current_range_meters":2400,"station_id":"ce4bhr12rcd13ifvqhpg","pricing_plan_id":"cebpf4jnsgd1na2vs0mg"},{"bike_id":"14fd3996-bdcc-42c8-be97-d8659bac1a95","system_id":"levelo_inurba_marseille","lat":43.319935,"lon":5.381699,"is_reserved":false,"is_disabled":false,"rental_uris":{"android":"levelo://app?vid=14fd3996-bdcc-42c8-be97-d8659bac1a95","ios":"levelo://app?vid=14fd3996-bdcc-42c8-be97-d8659bac1a95"},"vehicle_type_id":"4","last_reported":1714357176,"current_range_meters":12400,"station_id":"ce4bhr12rcd13ifvqhpg","pricing_plan_id":"cebpf4jnsgd1na2vs0mg"},{"bike_id":"b83138d7-552a-4a2a-a8b2-c3821a9a61f0","system_id":"levelo_inurba_marseille","lat":43.319935,"lon":5.381699,"is_reserved":false,"is_disabled":false,"rental_uris":{"android":"levelo://app?vid=b83138d7-552a-4a2a-a8b2-c3821a9a61f0","ios":"levelo://app?vid=b83138d7-552a-4a2a-a8b2-c3821a9a61f0"},"vehicle_type_id":"4","last_reported":1714357176,"current_range_meters":18400,"station_id":"ce4bhr12rcd13ifvqhpg","pricing_plan_id":"cebpf4jnsgd1na2vs0mg"},{"bike_id":"12ce8970-2849-472c-93ce-69b8630b2b8d","system_id":"levelo_inurba_marseille","lat":43.319935,"lon":5.381699,"is_reserved":false,"is_disabled":false,"rental_uris":{"android":"levelo://app?vid=12ce8970-2849-472c-93ce-69b8630b2b8d","ios":"levelo://app?vid=12ce8970-2849-472c-93ce-69b8630b2b8d"},"vehicle_type_id":"4","last_reported":1714357176,"current_range_meters":20400,"station_id":"ce4bhr12rcd13ifvqhpg","pricing_plan_id":"cebpf4jnsgd1na2vs0mg"},{"bike_id":"f179feec-c0cd-49bb-b812-a9ddd58d5de7","system_id":"levelo_inurba_marseille","lat":43.313571,"lon":5.384829,"is_reserved":false,"is_disabled":false,"rental_uris":{"android":"levelo://app?vid=f179feec-c0cd-49bb-b812-a9ddd58d5de7","ios":"levelo://app?vid=f179feec-c0cd-49bb-b812-a9ddd58d5de7"},"vehicle_type_id":"4","last_reported":1714357176,"current_range_meters":10400,"station_id":"ce4bgt92rcd13ifvqcf0","pricing_plan_id":"cebpf4jnsgd1na2vs0mg"},{"bike_id":"93d82e0a-02a1-4899-a968-7fe122293557","system_id":"levelo_inurba_marseille","lat":43.313571,"lon":5.384829,"is_reserved":false,"is_disabled":false,"rental_uris":{"android":"levelo://app?vid=93d82e0a-02a1-4899-a968-7fe122293557","ios":"levelo://app?vid=93d82e0a-02a1-4899-a968-7fe122293557"},"vehicle_type_id":"4","last_reported":1714357176,"current_range_meters":29600,"station_id":"ce4bgt92rcd13ifvqcf0","pricing_plan_id":"cebpf4jnsgd1na2vs0mg"},{"bike_id":"7da66a42-3439-41c5-a13d-fcc27804c4ce","system_id":"levelo_inurba_marseille","lat":43.313571,"lon":5.384829,"is_reserved":false,"is_disabled":false,"rental_uris":{"android":"levelo://app?vid=7da66a42-3439-41c5-a13d-fcc27804c4ce","ios":"levelo://app?vid=7da66a42-3439-41c5-a13d-fcc27804c4ce"},"vehicle_type_id":"4","last_reported":1714357176,"current_range_meters":31600,"station_id":"ce4bgt92rcd13ifvqcf0","pricing_plan_id":"cebpf4jnsgd1na2vs0mg"},{"bike_id":"974b49bc-9877-441f-8d54-2dec20ac4159","system_id":"levelo_inurba_marseille","lat":43.313571,"lon":5.384829,"is_reserved":false,"is_disabled":false,"rental_uris":{"android":"levelo://app?vid=974b49bc-9877-441f-8d54-2dec20ac4159","ios":"levelo://app?vid=974b49bc-9877-441f-8d54-2dec20ac4159"},"vehicle_type_id":"4","last_reported":1714357176,"current_range_meters":7600,"station_id":"ce4bgt92rcd13ifvqcf0","pricing_plan_id":"cebpf4jnsgd1na2vs0mg"},{"bike_id":"0db3e4f2-fc42-4664-b4bf-c0eb679ae6e0","system_id":"levelo_inurba_marseille","lat":43.313615,"lon":5.384996,"is_reserved":false,"is_disabled":false,"rental_uris":{"android":"levelo://app?vid=0db3e4f2-fc42-4664-b4bf-c0eb679ae6e0","ios":"levelo://app?vid=0db3e4f2-fc42-4664-b4bf-c0eb679ae6e0"},"vehicle_type_id":"4","last_reported":1714357176,"current_range_meters":12800,"station_id":"ce4bgt92rcd13ifvqcf0","pricing_plan_id":"cebpf4jnsgd1na2vs0mg"},{"bike_id":"5767629a-28a5-4456-bf73-8be4e43700ef","system_id":"levelo_inurba_marseille","lat":43.299243,"lon":5.374807,"is_reserved":false,"is_disabled":false,"rental_uris":{"android":"levelo://app?vid=5767629a-28a5-4456-bf73-8be4e43700ef","ios":"levelo://app?vid=5767629a-28a5-4456-bf73-8be4e43700ef"},"vehicle_type_id":"4","last_reported":1714357176,"current_range_meters":28800,"station_id":"ce4bgjh2rcd13ifvqbg0","pricing_plan_id":"cebpf4jnsgd1na2vs0mg"},{"bike_id":"370c950a-b036-4cc5-83e5-4b65191744c5","system_id":"levelo_inurba_marseille","lat":43.311722,"lon":5.387247,"is_reserved":false,"is_disabled":false,"rental_uris":{"android":"levelo://app?vid=370c950a-b036-4cc5-83e5-4b65191744c5","ios":"levelo://app?vid=370c950a-b036-4cc5-83e5-4b65191744c5"},"vehicle_type_id":"4","last_reported":1714357176,"current_range_meters":21200,"station_id":"ce4bgv12rcd13ifvqcp0","pricing_plan_id":"cebpf4jnsgd1na2vs0mg"},{"bike_id":"309c1f40-d040-41ee-8223-5980f93babfb","system_id":"levelo_inurba_marseille","lat":43.311722,"lon":5.387247,"is_reserved":false,"is_disabled":false,"rental_uris":{"android":"levelo://app?vid=309c1f40-d040-41ee-8223-5980f93babfb","ios":"levelo://app?vid=309c1f40-d040-41ee-8223-5980f93babfb"},"vehicle_type_id":"4","last_reported":1714357176,"current_range_meters":20000,"station_id":"ce4bgv12rcd13ifvqcp0","pricing_plan_id":"cebpf4jnsgd1na2vs0mg"},{"bike_id":"aa2c60c4-4c54-4daf-bae5-37f25cba8100","system_id":"levelo_inurba_marseille","lat":43.299243,"lon":5.374807,"is_reserved":false,"is_disabled":false,"rental_uris":{"android":"levelo://app?vid=aa2c60c4-4c54-4daf-bae5-37f25cba8100","ios":"levelo://app?vid=aa2c60c4-4c54-4daf-bae5-37f25cba8100"},"vehicle_type_id":"4","last_reported":1714357176,"current_range_meters":31600,"station_id":"ce4bgjh2rcd13ifvqbg0","pricing_plan_id":"cebpf4jnsgd1na2vs0mg"},{"bike_id":"305fc3e6-910f-40b1-ad7e-9d2464327a38","system_id":"levelo_inurba_marseille","lat":43.311722,"lon":5.387247,"is_reserved":false,"is_disabled":false,"rental_uris":{"android":"levelo://app?vid=305fc3e6-910f-40b1-ad7e-9d2464327a38","ios":"levelo://app?vid=305fc3e6-910f-40b1-ad7e-9d2464327a38"},"vehicle_type_id":"4","last_reported":1714357176,"current_range_meters":22000,"station_id":"ce4bgv12rcd13ifvqcp0","pricing_plan_id":"cebpf4jnsgd1na2vs0mg"},{"bike_id":"4ad89ff2-e972-416b-bf9e-bcc3cc535cc5","system_id":"levelo_inurba_marseille","lat":43.311722,"lon":5.387247,"is_reserved":false,"is_disabled":false,"rental_uris":{"android":"levelo://app?vid=4ad89ff2-e972-416b-bf9e-bcc3cc535cc5","ios":"levelo://app?vid=4ad89ff2-e972-416b-bf9e-bcc3cc535cc5"},"vehicle_type_id":"4","last_reported":1714357176,"current_range_meters":5600,"station_id":"ce4bgv12rcd13ifvqcp0","pricing_plan_id":"cebpf4jnsgd1na2vs0mg"},{"bike_id":"63e11b6b-6119-47e1-9545-b505471bd96e","system_id":"levelo_inurba_marseille","lat":43.311722,"lon":5.387247,"is_reserved":false,"is_disabled":false,"rental_uris":{"android":"levelo://app?vid=63e11b6b-6119-47e1-9545-b505471bd96e","ios":"levelo://app?vid=63e11b6b-6119-47e1-9545-b505471bd96e"},"vehicle_type_id":"4","last_reported":1714357176,"current_range_meters":13600,"station_id":"ce4bgv12rcd13ifvqcp0","pricing_plan_id":"cebpf4jnsgd1na2vs0mg"},{"bike_id":"81f435cf-b6b9-4cd6-b6a6-482f3f3b1ca7","system_id":"levelo_inurba_marseille","lat":43.311722,"lon":5.387247,"is_reserved":false,"is_disabled":false,"rental_uris":{"android":"levelo://app?vid=81f435cf-b6b9-4cd6-b6a6-482f3f3b1ca7","ios":"levelo://app?vid=81f435cf-b6b9-4cd6-b6a6-482f3f3b1ca7"},"vehicle_type_id":"4","last_reported":1714357176,"current_range_meters":7200,"station_id":"ce4bgv12rcd13ifvqcp0","pricing_plan_id":"cebpf4jnsgd1na2vs0mg"},{"bike_id":"6abc8ad6-d3e0-4153-b07d-159ee8fadad3","system_id":"levelo_inurba_marseille","lat":43.311722,"lon":5.387247,"is_reserved":false,"is_disabled":false,"rental_uris":{"android":"levelo://app?vid=6abc8ad6-d3e0-4153-b07d-159ee8fadad3","ios":"levelo://app?vid=6abc8ad6-d3e0-4153-b07d-159ee8fadad3"},"vehicle_type_id":"4","last_reported":1714357176,"current_range_meters":8400,"station_id":"ce4bgv12rcd13ifvqcp0","pricing_plan_id":"cebpf4jnsgd1na2vs0mg"},{"bike_id":"69366a2b-4419-44eb-9338-d84e014bd884","system_id":"levelo_inurba_marseille","lat":43.311722,"lon":5.387247,"is_reserved":false,"is_disabled":false,"rental_uris":{"android":"levelo://app?vid=69366a2b-4419-44eb-9338-d84e014bd884","ios":"levelo://app?vid=69366a2b-4419-44eb-9338-d84e014bd884"},"vehicle_type_id":"4","last_reported":1714357176,"current_range_meters":31600,"station_id":"ce4bgv12rcd13ifvqcp0","pricing_plan_id":"cebpf4jnsgd1na2vs0mg"},{"bike_id":"494de69c-07e3-4464-8d52-8b8b228c8e06","system_id":"levelo_inurba_marseille","lat":43.311722,"lon":5.387247,"is_reserved":false,"is_disabled":false,"rental_uris":{"android":"levelo://app?vid=494de69c-07e3-4464-8d52-8b8b228c8e06","ios":"levelo://app?vid=494de69c-07e3-4464-8d52-8b8b228c8e06"},"vehicle_type_id":"4","last_reported":1714357176,"current_range_meters":31200,"station_id":"ce4bgv12rcd13ifvqcp0","pricing_plan_id":"cebpf4jnsgd1na2vs0mg"},{"bike_id":"736f286f-2c32-4bdb-8545-69eef6e9c833","system_id":"levelo_inurba_marseille","lat":43.311722,"lon":5.387247,"is_reserved":false,"is_disabled":false,"rental_uris":{"android":"levelo://app?vid=736f286f-2c32-4bdb-8545-69eef6e9c833","ios":"levelo://app?vid=736f286f-2c32-4bdb-8545-69eef6e9c833"},"vehicle_type_id":"4","last_reported":1714357176,"current_range_meters":16000,"station_id":"ce4bgv12rcd13ifvqcp0","pricing_plan_id":"cebpf4jnsgd1na2vs0mg"},{"bike_id":"e80ad0dc-dedc-41ce-ae14-60f8395fa1dd","system_id":"levelo_inurba_marseille","lat":43.299127,"lon":5.374833,"is_reserved":false,"is_disabled":false,"rental_uris":{"android":"levelo://app?vid=e80ad0dc-dedc-41ce-ae14-60f8395fa1dd","ios":"levelo://app?vid=e80ad0dc-dedc-41ce-ae14-60f8395fa1dd"},"vehicle_type_id":"4","last_reported":1714357176,"current_range_meters":31200,"station_id":"ce4bgjh2rcd13ifvqbg0","pricing_plan_id":"cebpf4jnsgd1na2vs0mg"},{"bike_id":"bb3278d2-ce2e-4c57-ae3e-ef392d2379a2","system_id":"levelo_inurba_marseille","lat":43.299106,"lon":5.374773,"is_reserved":false,"is_disabled":false,"rental_uris":{"android":"levelo://app?vid=bb3278d2-ce2e-4c57-ae3e-ef392d2379a2","ios":"levelo://app?vid=bb3278d2-ce2e-4c57-ae3e-ef392d2379a2"},"vehicle_type_id":"4","last_reported":1714357176,"current_range_meters":23200,"station_id":"ce4bgjh2rcd13ifvqbg0","pricing_plan_id":"cebpf4jnsgd1na2vs0mg"},{"bike_id":"fb3c0b85-3a8b-4857-a4c9-eb00fa13f5c1","system_id":"levelo_inurba_marseille","lat":43.311722,"lon":5.387247,"is_reserved":false,"is_disabled":false,"rental_uris":{"android":"levelo://app?vid=fb3c0b85-3a8b-4857-a4c9-eb00fa13f5c1","ios":"levelo://app?vid=fb3c0b85-3a8b-4857-a4c9-eb00fa13f5c1"},"vehicle_type_id":"4","last_reported":1714357176,"current_range_meters":15200,"station_id":"ce4bgv12rcd13ifvqcp0","pricing_plan_id":"cebpf4jnsgd1na2vs0mg"},{"bike_id":"ee4436bd-4119-4949-a735-4a9f06e80a2b","system_id":"levelo_inurba_marseille","lat":43.299243,"lon":5.374807,"is_reserved":false,"is_disabled":false,"rental_uris":{"android":"levelo://app?vid=ee4436bd-4119-4949-a735-4a9f06e80a2b","ios":"levelo://app?vid=ee4436bd-4119-4949-a735-4a9f06e80a2b"},"vehicle_type_id":"4","last_reported":1714357176,"current_range_meters":30800,"station_id":"ce4bgjh2rcd13ifvqbg0","pricing_plan_id":"cebpf4jnsgd1na2vs0mg"},{"bike_id":"502fafd5-ad4f-4158-9a67-131b35293f93","system_id":"levelo_inurba_marseille","lat":43.311722,"lon":5.387247,"is_reserved":false,"is_disabled":false,"rental_uris":{"android":"levelo://app?vid=502fafd5-ad4f-4158-9a67-131b35293f93","ios":"levelo://app?vid=502fafd5-ad4f-4158-9a67-131b35293f93"},"vehicle_type_id":"4","last_reported":1714357176,"current_range_meters":23600,"station_id":"ce4bgv12rcd13ifvqcp0","pricing_plan_id":"cebpf4jnsgd1na2vs0mg"},{"bike_id":"ad9f535c-761b-4636-a33c-c3db0f06c92b","system_id":"levelo_inurba_marseille","lat":43.299073,"lon":5.374761,"is_reserved":false,"is_disabled":false,"rental_uris":{"android":"levelo://app?vid=ad9f535c-761b-4636-a33c-c3db0f06c92b","ios":"levelo://app?vid=ad9f535c-761b-4636-a33c-c3db0f06c92b"},"vehicle_type_id":"4","last_reported":1714357176,"current_range_meters":25600,"station_id":"ce4bgjh2rcd13ifvqbg0","pricing_plan_id":"cebpf4jnsgd1na2vs0mg"},{"bike_id":"a44756e2-d4af-4ba1-902f-9c0c8f5e7a69","system_id":"levelo_inurba_marseille","lat":43.311722,"lon":5.387247,"is_reserved":false,"is_disabled":false,"rental_uris":{"android":"levelo://app?vid=a44756e2-d4af-4ba1-902f-9c0c8f5e7a69","ios":"levelo://app?vid=a44756e2-d4af-4ba1-902f-9c0c8f5e7a69"},"vehicle_type_id":"4","last_reported":1714357176,"current_range_meters":16800,"station_id":"ce4bgv12rcd13ifvqcp0","pricing_plan_id":"cebpf4jnsgd1na2vs0mg"},{"bike_id":"f770ccce-664a-418b-bd5b-c0fc8a418f41","system_id":"levelo_inurba_marseille","lat":43.297794,"lon":5.370888,"is_reserved":false,"is_disabled":false,"rental_uris":{"android":"levelo://app?vid=f770ccce-664a-418b-bd5b-c0fc8a418f41","ios":"levelo://app?vid=f770ccce-664a-418b-bd5b-c0fc8a418f41"},"vehicle_type_id":"4","last_reported":1714357176,"current_range_meters":26000,"station_id":"ce4bgop2rcd13ifvqc1g","pricing_plan_id":"cebpf4jnsgd1na2vs0mg"},{"bike_id":"464ef78c-4097-46f3-8492-50db689edfed","system_id":"levelo_inurba_marseille","lat":43.297774,"lon":5.370875,"is_reserved":false,"is_disabled":false,"rental_uris":{"android":"levelo://app?vid=464ef78c-4097-46f3-8492-50db689edfed","ios":"levelo://app?vid=464ef78c-4097-46f3-8492-50db689edfed"},"vehicle_type_id":"4","last_reported":1714357176,"current_range_meters":30400,"station_id":"ce4bgop2rcd13ifvqc1g","pricing_plan_id":"cebpf4jnsgd1na2vs0mg"},{"bike_id":"02172038-acd7-411d-865a-77db7cc81476","system_id":"levelo_inurba_marseille","lat":43.322872,"lon":5.382756,"is_reserved":false,"is_disabled":false,"rental_uris":{"android":"levelo://app?vid=02172038-acd7-411d-865a-77db7cc81476","ios":"levelo://app?vid=02172038-acd7-411d-865a-77db7cc81476"},"vehicle_type_id":"4","last_reported":1714357176,"current_range_meters":7200,"station_id":"ce4bhr12rcd13ifvqhqg","pricing_plan_id":"cebpf4jnsgd1na2vs0mg"},{"bike_id":"e86bbfad-b056-4e4c-9e4e-7c300e8a004c","system_id":"levelo_inurba_marseille","lat":43.322872,"lon":5.382756,"is_reserved":false,"is_disabled":false,"rental_uris":{"android":"levelo://app?vid=e86bbfad-b056-4e4c-9e4e-7c300e8a004c","ios":"levelo://app?vid=e86bbfad-b056-4e4c-9e4e-7c300e8a004c"},"vehicle_type_id":"4","last_reported":1714357176,"current_range_meters":0,"station_id":"ce4bhr12rcd13ifvqhqg","pricing_plan_id":"cebpf4jnsgd1na2vs0mg"},{"bike_id":"2b96b437-8dad-4222-8e3c-d0661fcb801c","system_id":"levelo_inurba_marseille","lat":43.322872,"lon":5.382756,"is_reserved":false,"is_disabled":false,"rental_uris":{"android":"levelo://app?vid=2b96b437-8dad-4222-8e3c-d0661fcb801c","ios":"levelo://app?vid=2b96b437-8dad-4222-8e3c-d0661fcb801c"},"vehicle_type_id":"4","last_reported":1714357176,"current_range_meters":23200,"station_id":"ce4bhr12rcd13ifvqhqg","pricing_plan_id":"cebpf4jnsgd1na2vs0mg"},{"bike_id":"034dbf94-32ae-470c-a591-af14e6cbbdff","system_id":"levelo_inurba_marseille","lat":43.322872,"lon":5.382756,"is_reserved":false,"is_disabled":false,"rental_uris":{"android":"levelo://app?vid=034dbf94-32ae-470c-a591-af14e6cbbdff","ios":"levelo://app?vid=034dbf94-32ae-470c-a591-af14e6cbbdff"},"vehicle_type_id":"4","last_reported":1714357176,"current_range_meters":17600,"station_id":"ce4bhr12rcd13ifvqhqg","pricing_plan_id":"cebpf4jnsgd1na2vs0mg"},{"bike_id":"b46b8a58-bd5d-4598-90cd-10c626b528ca","system_id":"levelo_inurba_marseille","lat":43.322872,"lon":5.382756,"is_reserved":false,"is_disabled":false,"rental_uris":{"android":"levelo://app?vid=b46b8a58-bd5d-4598-90cd-10c626b528ca","ios":"levelo://app?vid=b46b8a58-bd5d-4598-90cd-10c626b528ca"},"vehicle_type_id":"4","last_reported":1714357176,"current_range_meters":31600,"station_id":"ce4bhr12rcd13ifvqhqg","pricing_plan_id":"cebpf4jnsgd1na2vs0mg"},{"bike_id":"7d0dc6e4-237d-4e2c-9f6d-5a67d8478718","system_id":"levelo_inurba_marseille","lat":43.322872,"lon":5.382756,"is_reserved":false,"is_disabled":false,"rental_uris":{"android":"levelo://app?vid=7d0dc6e4-237d-4e2c-9f6d-5a67d8478718","ios":"levelo://app?vid=7d0dc6e4-237d-4e2c-9f6d-5a67d8478718"},"vehicle_type_id":"4","last_reported":1714357176,"current_range_meters":26400,"station_id":"ce4bhr12rcd13ifvqhqg","pricing_plan_id":"cebpf4jnsgd1na2vs0mg"},{"bike_id":"37c5427c-2693-4294-b707-8651eed30772","system_id":"levelo_inurba_marseille","lat":43.322872,"lon":5.382756,"is_reserved":false,"is_disabled":false,"rental_uris":{"android":"levelo://app?vid=37c5427c-2693-4294-b707-8651eed30772","ios":"levelo://app?vid=37c5427c-2693-4294-b707-8651eed30772"},"vehicle_type_id":"4","last_reported":1714357176,"current_range_meters":16800,"station_id":"ce4bhr12rcd13ifvqhqg","pricing_plan_id":"cebpf4jnsgd1na2vs0mg"},{"bike_id":"90f46afa-97a4-48f2-84a2-899bcf460e9a","system_id":"levelo_inurba_marseille","lat":43.322872,"lon":5.382756,"is_reserved":false,"is_disabled":false,"rental_uris":{"android":"levelo://app?vid=90f46afa-97a4-48f2-84a2-899bcf460e9a","ios":"levelo://app?vid=90f46afa-97a4-48f2-84a2-899bcf460e9a"},"vehicle_type_id":"4","last_reported":1714357176,"current_range_meters":28400,"station_id":"ce4bhr12rcd13ifvqhqg","pricing_plan_id":"cebpf4jnsgd1na2vs0mg"},{"bike_id":"414beef2-4645-48b7-b051-ba771a736e0f","system_id":"levelo_inurba_marseille","lat":43.322872,"lon":5.382756,"is_reserved":false,"is_disabled":false,"rental_uris":{"android":"levelo://app?vid=414beef2-4645-48b7-b051-ba771a736e0f","ios":"levelo://app?vid=414beef2-4645-48b7-b051-ba771a736e0f"},"vehicle_type_id":"4","last_reported":1714357176,"current_range_meters":11200,"station_id":"ce4bhr12rcd13ifvqhqg","pricing_plan_id":"cebpf4jnsgd1na2vs0mg"},{"bike_id":"e54b9951-a54f-4073-8edc-ed973e7d16aa","system_id":"levelo_inurba_marseille","lat":43.322872,"lon":5.382756,"is_reserved":false,"is_disabled":false,"rental_uris":{"android":"levelo://app?vid=e54b9951-a54f-4073-8edc-ed973e7d16aa","ios":"levelo://app?vid=e54b9951-a54f-4073-8edc-ed973e7d16aa"},"vehicle_type_id":"4","last_reported":1714357176,"current_range_meters":31600,"station_id":"ce4bhr12rcd13ifvqhqg","pricing_plan_id":"cebpf4jnsgd1na2vs0mg"},{"bike_id":"a87f62d2-17ca-4474-bad3-f6bbdb9a5343","system_id":"levelo_inurba_marseille","lat":43.297163,"lon":5.365866,"is_reserved":false,"is_disabled":false,"rental_uris":{"android":"levelo://app?vid=a87f62d2-17ca-4474-bad3-f6bbdb9a5343","ios":"levelo://app?vid=a87f62d2-17ca-4474-bad3-f6bbdb9a5343"},"vehicle_type_id":"4","last_reported":1714357176,"current_range_meters":20000,"station_id":"ce4bgn12rcd13ifvqbt0","pricing_plan_id":"cebpf4jnsgd1na2vs0mg"},{"bike_id":"17a04cfb-c172-495c-a442-34c7331f2d73","system_id":"levelo_inurba_marseille","lat":43.297163,"lon":5.365866,"is_reserved":false,"is_disabled":false,"rental_uris":{"android":"levelo://app?vid=17a04cfb-c172-495c-a442-34c7331f2d73","ios":"levelo://app?vid=17a04cfb-c172-495c-a442-34c7331f2d73"},"vehicle_type_id":"4","last_reported":1714357176,"current_range_meters":31600,"station_id":"ce4bgn12rcd13ifvqbt0","pricing_plan_id":"cebpf4jnsgd1na2vs0mg"},{"bike_id":"e7e966e2-a998-48d1-af3d-42abf9c0657d","system_id":"levelo_inurba_marseille","lat":43.297163,"lon":5.365866,"is_reserved":false,"is_disabled":false,"rental_uris":{"android":"levelo://app?vid=e7e966e2-a998-48d1-af3d-42abf9c0657d","ios":"levelo://app?vid=e7e966e2-a998-48d1-af3d-42abf9c0657d"},"vehicle_type_id":"4","last_reported":1714357176,"current_range_meters":2800,"station_id":"ce4bgn12rcd13ifvqbt0","pricing_plan_id":"cebpf4jnsgd1na2vs0mg"},{"bike_id":"6c4a5383-d74e-40db-b975-f9f78b411a6b","system_id":"levelo_inurba_marseille","lat":43.297163,"lon":5.365866,"is_reserved":false,"is_disabled":false,"rental_uris":{"android":"levelo://app?vid=6c4a5383-d74e-40db-b975-f9f78b411a6b","ios":"levelo://app?vid=6c4a5383-d74e-40db-b975-f9f78b411a6b"},"vehicle_type_id":"4","last_reported":1714357176,"current_range_meters":14000,"station_id":"ce4bgn12rcd13ifvqbt0","pricing_plan_id":"cebpf4jnsgd1na2vs0mg"},{"bike_id":"90495062-260a-4954-bc04-c36609f5cc6e","system_id":"levelo_inurba_marseille","lat":43.297163,"lon":5.365866,"is_reserved":false,"is_disabled":false,"rental_uris":{"android":"levelo://app?vid=90495062-260a-4954-bc04-c36609f5cc6e","ios":"levelo://app?vid=90495062-260a-4954-bc04-c36609f5cc6e"},"vehicle_type_id":"4","last_reported":1714357176,"current_range_meters":31600,"station_id":"ce4bgn12rcd13ifvqbt0","pricing_plan_id":"cebpf4jnsgd1na2vs0mg"},{"bike_id":"2659827c-d2a8-456e-ae48-696ef5364b15","system_id":"levelo_inurba_marseille","lat":43.2968,"lon":5.37291,"is_reserved":false,"is_disabled":false,"rental_uris":{"android":"levelo://app?vid=2659827c-d2a8-456e-ae48-696ef5364b15","ios":"levelo://app?vid=2659827c-d2a8-456e-ae48-696ef5364b15"},"vehicle_type_id":"4","last_reported":1714357176,"current_range_meters":22400,"station_id":"ce4bgk12rcd13ifvqbj0","pricing_plan_id":"cebpf4jnsgd1na2vs0mg"},{"bike_id":"b66b804d-8143-48a2-96b7-20af574f64db","system_id":"levelo_inurba_marseille","lat":43.29593,"lon":5.36747,"is_reserved":false,"is_disabled":false,"rental_uris":{"android":"levelo://app?vid=b66b804d-8143-48a2-96b7-20af574f64db","ios":"levelo://app?vid=b66b804d-8143-48a2-96b7-20af574f64db"},"vehicle_type_id":"4","last_reported":1714357176,"current_range_meters":31200,"station_id":"ce4bgph2rcd13ifvqc2g","pricing_plan_id":"cebpf4jnsgd1na2vs0mg"},{"bike_id":"d754f4a1-d84c-4f9d-8b64-5e03cfbd8848","system_id":"levelo_inurba_marseille","lat":43.29573,"lon":5.367355,"is_reserved":false,"is_disabled":false,"rental_uris":{"android":"levelo://app?vid=d754f4a1-d84c-4f9d-8b64-5e03cfbd8848","ios":"levelo://app?vid=d754f4a1-d84c-4f9d-8b64-5e03cfbd8848"},"vehicle_type_id":"4","last_reported":1714357176,"current_range_meters":28800,"station_id":"ce4bgph2rcd13ifvqc2g","pricing_plan_id":"cebpf4jnsgd1na2vs0mg"},{"bike_id":"b0646052-0fa5-48ea-8c83-a1d5856063dc","system_id":"levelo_inurba_marseille","lat":43.300953,"lon":5.383693,"is_reserved":false,"is_disabled":false,"rental_uris":{"android":"levelo://app?vid=b0646052-0fa5-48ea-8c83-a1d5856063dc","ios":"levelo://app?vid=b0646052-0fa5-48ea-8c83-a1d5856063dc"},"vehicle_type_id":"4","last_reported":1714357176,"current_range_meters":17600,"station_id":"","pricing_plan_id":"cebpf4jnsgd1na2vs0mg"},{"bike_id":"de1b9ffe-956f-4f69-8d15-e8d996ed27ab","system_id":"levelo_inurba_marseille","lat":43.296935,"lon":5.376544,"is_reserved":false,"is_disabled":false,"rental_uris":{"android":"levelo://app?vid=de1b9ffe-956f-4f69-8d15-e8d996ed27ab","ios":"levelo://app?vid=de1b9ffe-956f-4f69-8d15-e8d996ed27ab"},"vehicle_type_id":"4","last_reported":1714357176,"current_range_meters":30000,"station_id":"ce4bgkh2rcd13ifvqbl0","pricing_plan_id":"cebpf4jnsgd1na2vs0mg"},{"bike_id":"01da213f-10b8-4950-a6b3-b7693df10d62","system_id":"levelo_inurba_marseille","lat":43.299028,"lon":5.381509,"is_reserved":false,"is_disabled":false,"rental_uris":{"android":"levelo://app?vid=01da213f-10b8-4950-a6b3-b7693df10d62","ios":"levelo://app?vid=01da213f-10b8-4950-a6b3-b7693df10d62"},"vehicle_type_id":"4","last_reported":1714357176,"current_range_meters":24800,"station_id":"ce4bgj12rcd13ifvqbc0","pricing_plan_id":"cebpf4jnsgd1na2vs0mg"},{"bike_id":"f1f57629-e672-4116-8a47-a8a68f253f44","system_id":"levelo_inurba_marseille","lat":43.3095,"lon":5.39033,"is_reserved":false,"is_disabled":false,"rental_uris":{"android":"levelo://app?vid=f1f57629-e672-4116-8a47-a8a68f253f44","ios":"levelo://app?vid=f1f57629-e672-4116-8a47-a8a68f253f44"},"vehicle_type_id":"4","last_reported":1714357176,"current_range_meters":20400,"station_id":"ce4bgup2rcd13ifvqco0","pricing_plan_id":"cebpf4jnsgd1na2vs0mg"},{"bike_id":"035fced4-af8e-4dbe-baee-21362eb38420","system_id":"levelo_inurba_marseille","lat":43.309589,"lon":5.390258,"is_reserved":false,"is_disabled":false,"rental_uris":{"android":"levelo://app?vid=035fced4-af8e-4dbe-baee-21362eb38420","ios":"levelo://app?vid=035fced4-af8e-4dbe-baee-21362eb38420"},"vehicle_type_id":"4","last_reported":1714357176,"current_range_meters":30400,"station_id":"ce4bgup2rcd13ifvqco0","pricing_plan_id":"cebpf4jnsgd1na2vs0mg"},{"bike_id":"54f620eb-36ba-4e3f-b634-b4589f27822d","system_id":"levelo_inurba_marseille","lat":43.299028,"lon":5.381509,"is_reserved":false,"is_disabled":false,"rental_uris":{"android":"levelo://app?vid=54f620eb-36ba-4e3f-b634-b4589f27822d","ios":"levelo://app?vid=54f620eb-36ba-4e3f-b634-b4589f27822d"},"vehicle_type_id":"4","last_reported":1714357176,"current_range_meters":29600,"station_id":"ce4bgj12rcd13ifvqbc0","pricing_plan_id":"cebpf4jnsgd1na2vs0mg"},{"bike_id":"f10fd388-cdb0-42e1-b2e6-c994c25d75a9","system_id":"levelo_inurba_marseille","lat":43.299028,"lon":5.381509,"is_reserved":false,"is_disabled":false,"rental_uris":{"android":"levelo://app?vid=f10fd388-cdb0-42e1-b2e6-c994c25d75a9","ios":"levelo://app?vid=f10fd388-cdb0-42e1-b2e6-c994c25d75a9"},"vehicle_type_id":"4","last_reported":1714357176,"current_range_meters":26800,"station_id":"ce4bgj12rcd13ifvqbc0","pricing_plan_id":"cebpf4jnsgd1na2vs0mg"},{"bike_id":"444b3991-d805-4a71-93a8-4824d35e4107","system_id":"levelo_inurba_marseille","lat":43.309589,"lon":5.390258,"is_reserved":false,"is_disabled":false,"rental_uris":{"android":"levelo://app?vid=444b3991-d805-4a71-93a8-4824d35e4107","ios":"levelo://app?vid=444b3991-d805-4a71-93a8-4824d35e4107"},"vehicle_type_id":"4","last_reported":1714357176,"current_range_meters":9200,"station_id":"ce4bgup2rcd13ifvqco0","pricing_plan_id":"cebpf4jnsgd1na2vs0mg"},{"bike_id":"aa594fa1-266f-447d-a26a-3fba601a8dc0","system_id":"levelo_inurba_marseille","lat":43.309589,"lon":5.390258,"is_reserved":false,"is_disabled":false,"rental_uris":{"android":"levelo://app?vid=aa594fa1-266f-447d-a26a-3fba601a8dc0","ios":"levelo://app?vid=aa594fa1-266f-447d-a26a-3fba601a8dc0"},"vehicle_type_id":"4","last_reported":1714357176,"current_range_meters":22000,"station_id":"ce4bgup2rcd13ifvqco0","pricing_plan_id":"cebpf4jnsgd1na2vs0mg"},{"bike_id":"c8ee1fe6-0043-48e5-a8cd-2a8c0510c75d","system_id":"levelo_inurba_marseille","lat":43.309563,"lon":5.390415,"is_reserved":false,"is_disabled":false,"rental_uris":{"android":"levelo://app?vid=c8ee1fe6-0043-48e5-a8cd-2a8c0510c75d","ios":"levelo://app?vid=c8ee1fe6-0043-48e5-a8cd-2a8c0510c75d"},"vehicle_type_id":"4","last_reported":1714357176,"current_range_meters":28800,"station_id":"ce4bgup2rcd13ifvqco0","pricing_plan_id":"cebpf4jnsgd1na2vs0mg"},{"bike_id":"05890999-1cb3-455c-b301-6e5d1518a819","system_id":"levelo_inurba_marseille","lat":43.309589,"lon":5.390258,"is_reserved":false,"is_disabled":false,"rental_uris":{"android":"levelo://app?vid=05890999-1cb3-455c-b301-6e5d1518a819","ios":"levelo://app?vid=05890999-1cb3-455c-b301-6e5d1518a819"},"vehicle_type_id":"4","last_reported":1714357176,"current_range_meters":7600,"station_id":"ce4bgup2rcd13ifvqco0","pricing_plan_id":"cebpf4jnsgd1na2vs0mg"},{"bike_id":"5cbf96ca-fa18-462f-ad4d-4b45047d58c1","system_id":"levelo_inurba_marseille","lat":43.309589,"lon":5.390258,"is_reserved":false,"is_disabled":false,"rental_uris":{"android":"levelo://app?vid=5cbf96ca-fa18-462f-ad4d-4b45047d58c1","ios":"levelo://app?vid=5cbf96ca-fa18-462f-ad4d-4b45047d58c1"},"vehicle_type_id":"4","last_reported":1714357176,"current_range_meters":18800,"station_id":"ce4bgup2rcd13ifvqco0","pricing_plan_id":"cebpf4jnsgd1na2vs0mg"},{"bike_id":"cb7a2b8c-5b42-4e03-9de4-170527efa372","system_id":"levelo_inurba_marseille","lat":43.309589,"lon":5.390258,"is_reserved":false,"is_disabled":false,"rental_uris":{"android":"levelo://app?vid=cb7a2b8c-5b42-4e03-9de4-170527efa372","ios":"levelo://app?vid=cb7a2b8c-5b42-4e03-9de4-170527efa372"},"vehicle_type_id":"4","last_reported":1714357176,"current_range_meters":26400,"station_id":"ce4bgup2rcd13ifvqco0","pricing_plan_id":"cebpf4jnsgd1na2vs0mg"},{"bike_id":"4db768e7-b835-4f35-b48d-5f091f6a7526","system_id":"levelo_inurba_marseille","lat":43.309509,"lon":5.390499,"is_reserved":false,"is_disabled":false,"rental_uris":{"android":"levelo://app?vid=4db768e7-b835-4f35-b48d-5f091f6a7526","ios":"levelo://app?vid=4db768e7-b835-4f35-b48d-5f091f6a7526"},"vehicle_type_id":"4","last_reported":1714357176,"current_range_meters":10800,"station_id":"ce4bgup2rcd13ifvqco0","pricing_plan_id":"cebpf4jnsgd1na2vs0mg"},{"bike_id":"89e81513-02df-4192-82f1-d7d8ce18efad","system_id":"levelo_inurba_marseille","lat":43.309487,"lon":5.39052,"is_reserved":false,"is_disabled":false,"rental_uris":{"android":"levelo://app?vid=89e81513-02df-4192-82f1-d7d8ce18efad","ios":"levelo://app?vid=89e81513-02df-4192-82f1-d7d8ce18efad"},"vehicle_type_id":"4","last_reported":1714357176,"current_range_meters":30400,"station_id":"ce4bgup2rcd13ifvqco0","pricing_plan_id":"cebpf4jnsgd1na2vs0mg"},{"bike_id":"bb72a17e-2621-4fc3-a7ac-8891df76178b","system_id":"levelo_inurba_marseille","lat":43.301117,"lon":5.398795,"is_reserved":false,"is_disabled":false,"rental_uris":{"android":"levelo://app?vid=bb72a17e-2621-4fc3-a7ac-8891df76178b","ios":"levelo://app?vid=bb72a17e-2621-4fc3-a7ac-8891df76178b"},"vehicle_type_id":"4","last_reported":1714357176,"current_range_meters":30400,"station_id":"ce4bh0h2rcd13ifvqd40","pricing_plan_id":"cebpf4jnsgd1na2vs0mg"},{"bike_id":"57164327-ac6b-485a-abf7-7d70bf5bc021","system_id":"levelo_inurba_marseille","lat":43.317557,"lon":5.390173,"is_reserved":false,"is_disabled":false,"rental_uris":{"android":"levelo://app?vid=57164327-ac6b-485a-abf7-7d70bf5bc021","ios":"levelo://app?vid=57164327-ac6b-485a-abf7-7d70bf5bc021"},"vehicle_type_id":"4","last_reported":1714357176,"current_range_meters":14800,"station_id":"ce4bhqp2rcd13ifvqhng","pricing_plan_id":"cebpf4jnsgd1na2vs0mg"},{"bike_id":"2de2b7ab-26e4-415a-9733-f0f17371c3d2","system_id":"levelo_inurba_marseille","lat":43.317557,"lon":5.390173,"is_reserved":false,"is_disabled":false,"rental_uris":{"android":"levelo://app?vid=2de2b7ab-26e4-415a-9733-f0f17371c3d2","ios":"levelo://app?vid=2de2b7ab-26e4-415a-9733-f0f17371c3d2"},"vehicle_type_id":"4","last_reported":1714357176,"current_range_meters":27600,"station_id":"ce4bhqp2rcd13ifvqhng","pricing_plan_id":"cebpf4jnsgd1na2vs0mg"},{"bike_id":"7fd2321f-190c-4949-8f07-2f0cd756c140","system_id":"levelo_inurba_marseille","lat":43.317557,"lon":5.390173,"is_reserved":false,"is_disabled":false,"rental_uris":{"android":"levelo://app?vid=7fd2321f-190c-4949-8f07-2f0cd756c140","ios":"levelo://app?vid=7fd2321f-190c-4949-8f07-2f0cd756c140"},"vehicle_type_id":"4","last_reported":1714357176,"current_range_meters":30000,"station_id":"ce4bhqp2rcd13ifvqhng","pricing_plan_id":"cebpf4jnsgd1na2vs0mg"},{"bike_id":"7bf07314-0a85-40c8-863e-96cf41c8285a","system_id":"levelo_inurba_marseille","lat":43.317557,"lon":5.390173,"is_reserved":false,"is_disabled":false,"rental_uris":{"android":"levelo://app?vid=7bf07314-0a85-40c8-863e-96cf41c8285a","ios":"levelo://app?vid=7bf07314-0a85-40c8-863e-96cf41c8285a"},"vehicle_type_id":"4","last_reported":1714357176,"current_range_meters":31600,"station_id":"ce4bhqp2rcd13ifvqhng","pricing_plan_id":"cebpf4jnsgd1na2vs0mg"},{"bike_id":"c9d67b26-6b01-4b74-91fe-6c532e559f70","system_id":"levelo_inurba_marseille","lat":43.317557,"lon":5.390173,"is_reserved":false,"is_disabled":false,"rental_uris":{"android":"levelo://app?vid=c9d67b26-6b01-4b74-91fe-6c532e559f70","ios":"levelo://app?vid=c9d67b26-6b01-4b74-91fe-6c532e559f70"},"vehicle_type_id":"4","last_reported":1714357176,"current_range_meters":27600,"station_id":"ce4bhqp2rcd13ifvqhng","pricing_plan_id":"cebpf4jnsgd1na2vs0mg"},{"bike_id":"d38e480f-9afd-4957-b1e0-afe52e676b51","system_id":"levelo_inurba_marseille","lat":43.299707,"lon":5.383455,"is_reserved":false,"is_disabled":false,"rental_uris":{"android":"levelo://app?vid=d38e480f-9afd-4957-b1e0-afe52e676b51","ios":"levelo://app?vid=d38e480f-9afd-4957-b1e0-afe52e676b51"},"vehicle_type_id":"4","last_reported":1714357176,"current_range_meters":12800,"station_id":"","pricing_plan_id":"cebpf4jnsgd1na2vs0mg"},{"bike_id":"6733f196-c0da-4cc6-bb57-f2d6a1f8fa54","system_id":"levelo_inurba_marseille","lat":43.298037,"lon":5.381066,"is_reserved":false,"is_disabled":false,"rental_uris":{"android":"levelo://app?vid=6733f196-c0da-4cc6-bb57-f2d6a1f8fa54","ios":"levelo://app?vid=6733f196-c0da-4cc6-bb57-f2d6a1f8fa54"},"vehicle_type_id":"4","last_reported":1714357176,"current_range_meters":24000,"station_id":"ce4bgip2rcd13ifvqbb0","pricing_plan_id":"cebpf4jnsgd1na2vs0mg"},{"bike_id":"ed582736-355e-48ca-9585-dbac2a6e55c1","system_id":"levelo_inurba_marseille","lat":43.298037,"lon":5.381066,"is_reserved":false,"is_disabled":false,"rental_uris":{"android":"levelo://app?vid=ed582736-355e-48ca-9585-dbac2a6e55c1","ios":"levelo://app?vid=ed582736-355e-48ca-9585-dbac2a6e55c1"},"vehicle_type_id":"4","last_reported":1714357176,"current_range_meters":19200,"station_id":"ce4bgip2rcd13ifvqbb0","pricing_plan_id":"cebpf4jnsgd1na2vs0mg"},{"bike_id":"04254c72-d24f-4031-a516-6e38c9d8d59f","system_id":"levelo_inurba_marseille","lat":43.298037,"lon":5.381066,"is_reserved":false,"is_disabled":false,"rental_uris":{"android":"levelo://app?vid=04254c72-d24f-4031-a516-6e38c9d8d59f","ios":"levelo://app?vid=04254c72-d24f-4031-a516-6e38c9d8d59f"},"vehicle_type_id":"4","last_reported":1714357176,"current_range_meters":26800,"station_id":"ce4bgip2rcd13ifvqbb0","pricing_plan_id":"cebpf4jnsgd1na2vs0mg"},{"bike_id":"0cf63c75-b265-4e92-b6be-4b0d88882983","system_id":"levelo_inurba_marseille","lat":43.304278,"lon":5.388868,"is_reserved":false,"is_disabled":false,"rental_uris":{"android":"levelo://app?vid=0cf63c75-b265-4e92-b6be-4b0d88882983","ios":"levelo://app?vid=0cf63c75-b265-4e92-b6be-4b0d88882983"},"vehicle_type_id":"4","last_reported":1714357176,"current_range_meters":10000,"station_id":"ce4bgk12rcd13ifvqbi0","pricing_plan_id":"cebpf4jnsgd1na2vs0mg"},{"bike_id":"32d14d4e-5cf3-47ee-9d66-f90c24763eb7","system_id":"levelo_inurba_marseille","lat":43.3043,"lon":5.38876,"is_reserved":false,"is_disabled":false,"rental_uris":{"android":"levelo://app?vid=32d14d4e-5cf3-47ee-9d66-f90c24763eb7","ios":"levelo://app?vid=32d14d4e-5cf3-47ee-9d66-f90c24763eb7"},"vehicle_type_id":"4","last_reported":1714357176,"current_range_meters":11600,"station_id":"ce4bgk12rcd13ifvqbi0","pricing_plan_id":"cebpf4jnsgd1na2vs0mg"},{"bike_id":"7c771de8-7645-47fc-84c2-8ebf9bd47392","system_id":"levelo_inurba_marseille","lat":43.304274,"lon":5.388873,"is_reserved":false,"is_disabled":false,"rental_uris":{"android":"levelo://app?vid=7c771de8-7645-47fc-84c2-8ebf9bd47392","ios":"levelo://app?vid=7c771de8-7645-47fc-84c2-8ebf9bd47392"},"vehicle_type_id":"4","last_reported":1714357176,"current_range_meters":17600,"station_id":"ce4bgk12rcd13ifvqbi0","pricing_plan_id":"cebpf4jnsgd1na2vs0mg"},{"bike_id":"780e9207-dc82-4a5d-a4f3-f2c153659e4b","system_id":"levelo_inurba_marseille","lat":43.304274,"lon":5.388873,"is_reserved":false,"is_disabled":false,"rental_uris":{"android":"levelo://app?vid=780e9207-dc82-4a5d-a4f3-f2c153659e4b","ios":"levelo://app?vid=780e9207-dc82-4a5d-a4f3-f2c153659e4b"},"vehicle_type_id":"4","last_reported":1714357176,"current_range_meters":31200,"station_id":"ce4bgk12rcd13ifvqbi0","pricing_plan_id":"cebpf4jnsgd1na2vs0mg"},{"bike_id":"c3f44c04-62f5-4d56-8ded-c72be92fa164","system_id":"levelo_inurba_marseille","lat":43.304274,"lon":5.388873,"is_reserved":false,"is_disabled":false,"rental_uris":{"android":"levelo://app?vid=c3f44c04-62f5-4d56-8ded-c72be92fa164","ios":"levelo://app?vid=c3f44c04-62f5-4d56-8ded-c72be92fa164"},"vehicle_type_id":"4","last_reported":1714357176,"current_range_meters":22000,"station_id":"ce4bgk12rcd13ifvqbi0","pricing_plan_id":"cebpf4jnsgd1na2vs0mg"},{"bike_id":"709d43dc-0364-457a-bc11-6fd8b38e835e","system_id":"levelo_inurba_marseille","lat":43.304278,"lon":5.388868,"is_reserved":false,"is_disabled":false,"rental_uris":{"android":"levelo://app?vid=709d43dc-0364-457a-bc11-6fd8b38e835e","ios":"levelo://app?vid=709d43dc-0364-457a-bc11-6fd8b38e835e"},"vehicle_type_id":"4","last_reported":1714357176,"current_range_meters":27600,"station_id":"ce4bgk12rcd13ifvqbi0","pricing_plan_id":"cebpf4jnsgd1na2vs0mg"},{"bike_id":"638aee65-6391-4049-a5ae-25ea34d29d6c","system_id":"levelo_inurba_marseille","lat":43.304278,"lon":5.388868,"is_reserved":false,"is_disabled":false,"rental_uris":{"android":"levelo://app?vid=638aee65-6391-4049-a5ae-25ea34d29d6c","ios":"levelo://app?vid=638aee65-6391-4049-a5ae-25ea34d29d6c"},"vehicle_type_id":"4","last_reported":1714357176,"current_range_meters":20000,"station_id":"ce4bgk12rcd13ifvqbi0","pricing_plan_id":"cebpf4jnsgd1na2vs0mg"},{"bike_id":"4fc3df7b-2488-47a1-aca6-ba299a70d7d6","system_id":"levelo_inurba_marseille","lat":43.304278,"lon":5.388868,"is_reserved":false,"is_disabled":false,"rental_uris":{"android":"levelo://app?vid=4fc3df7b-2488-47a1-aca6-ba299a70d7d6","ios":"levelo://app?vid=4fc3df7b-2488-47a1-aca6-ba299a70d7d6"},"vehicle_type_id":"4","last_reported":1714357176,"current_range_meters":31600,"station_id":"ce4bgk12rcd13ifvqbi0","pricing_plan_id":"cebpf4jnsgd1na2vs0mg"},{"bike_id":"ad4987e5-3ca5-4a54-bb04-fa425baf6130","system_id":"levelo_inurba_marseille","lat":43.298037,"lon":5.381066,"is_reserved":false,"is_disabled":false,"rental_uris":{"android":"levelo://app?vid=ad4987e5-3ca5-4a54-bb04-fa425baf6130","ios":"levelo://app?vid=ad4987e5-3ca5-4a54-bb04-fa425baf6130"},"vehicle_type_id":"4","last_reported":1714357176,"current_range_meters":30400,"station_id":"ce4bgip2rcd13ifvqbb0","pricing_plan_id":"cebpf4jnsgd1na2vs0mg"},{"bike_id":"a3f4675a-594b-400d-9d5c-8a04197bbdd5","system_id":"levelo_inurba_marseille","lat":43.304274,"lon":5.388873,"is_reserved":false,"is_disabled":false,"rental_uris":{"android":"levelo://app?vid=a3f4675a-594b-400d-9d5c-8a04197bbdd5","ios":"levelo://app?vid=a3f4675a-594b-400d-9d5c-8a04197bbdd5"},"vehicle_type_id":"4","last_reported":1714357176,"current_range_meters":0,"station_id":"ce4bgk12rcd13ifvqbi0","pricing_plan_id":"cebpf4jnsgd1na2vs0mg"},{"bike_id":"24c2dbf3-4abe-47c6-b37f-78b177d815d0","system_id":"levelo_inurba_marseille","lat":43.296277,"lon":5.377108,"is_reserved":false,"is_disabled":false,"rental_uris":{"android":"levelo://app?vid=24c2dbf3-4abe-47c6-b37f-78b177d815d0","ios":"levelo://app?vid=24c2dbf3-4abe-47c6-b37f-78b177d815d0"},"vehicle_type_id":"4","last_reported":1714357176,"current_range_meters":16800,"station_id":"ce4bgi92rcd13ifvqb90","pricing_plan_id":"cebpf4jnsgd1na2vs0mg"},{"bike_id":"58e173fa-b82c-46fc-9ff5-a06885a4cce8","system_id":"levelo_inurba_marseille","lat":43.304278,"lon":5.388868,"is_reserved":false,"is_disabled":false,"rental_uris":{"android":"levelo://app?vid=58e173fa-b82c-46fc-9ff5-a06885a4cce8","ios":"levelo://app?vid=58e173fa-b82c-46fc-9ff5-a06885a4cce8"},"vehicle_type_id":"4","last_reported":1714357176,"current_range_meters":31600,"station_id":"ce4bgk12rcd13ifvqbi0","pricing_plan_id":"cebpf4jnsgd1na2vs0mg"},{"bike_id":"fe1f4fa0-a9de-4239-a2e0-dd5527dad03a","system_id":"levelo_inurba_marseille","lat":43.304278,"lon":5.388868,"is_reserved":false,"is_disabled":false,"rental_uris":{"android":"levelo://app?vid=fe1f4fa0-a9de-4239-a2e0-dd5527dad03a","ios":"levelo://app?vid=fe1f4fa0-a9de-4239-a2e0-dd5527dad03a"},"vehicle_type_id":"4","last_reported":1714357176,"current_range_meters":4800,"station_id":"ce4bgk12rcd13ifvqbi0","pricing_plan_id":"cebpf4jnsgd1na2vs0mg"},{"bike_id":"b1ba57f4-72c3-4cd7-9b2e-750379b60739","system_id":"levelo_inurba_marseille","lat":43.29979,"lon":5.3849,"is_reserved":false,"is_disabled":false,"rental_uris":{"android":"levelo://app?vid=b1ba57f4-72c3-4cd7-9b2e-750379b60739","ios":"levelo://app?vid=b1ba57f4-72c3-4cd7-9b2e-750379b60739"},"vehicle_type_id":"4","last_reported":1714357176,"current_range_meters":800,"station_id":"ce4bgj92rcd13ifvqbd0","pricing_plan_id":"cebpf4jnsgd1na2vs0mg"},{"bike_id":"cc855095-8e74-43e9-8d3a-9e46c7cb7ffc","system_id":"levelo_inurba_marseille","lat":43.299707,"lon":5.384859,"is_reserved":false,"is_disabled":false,"rental_uris":{"android":"levelo://app?vid=cc855095-8e74-43e9-8d3a-9e46c7cb7ffc","ios":"levelo://app?vid=cc855095-8e74-43e9-8d3a-9e46c7cb7ffc"},"vehicle_type_id":"4","last_reported":1714357176,"current_range_meters":22400,"station_id":"ce4bgj92rcd13ifvqbd0","pricing_plan_id":"cebpf4jnsgd1na2vs0mg"},{"bike_id":"4cb8935f-479e-4f81-b6b8-434708da143b","system_id":"levelo_inurba_marseille","lat":43.299654,"lon":5.384788,"is_reserved":false,"is_disabled":false,"rental_uris":{"android":"levelo://app?vid=4cb8935f-479e-4f81-b6b8-434708da143b","ios":"levelo://app?vid=4cb8935f-479e-4f81-b6b8-434708da143b"},"vehicle_type_id":"4","last_reported":1714357176,"current_range_meters":10000,"station_id":"","pricing_plan_id":"cebpf4jnsgd1na2vs0mg"},{"bike_id":"b8974813-7fbe-4337-9035-ba962069d3db","system_id":"levelo_inurba_marseille","lat":43.29969,"lon":5.38497,"is_reserved":false,"is_disabled":false,"rental_uris":{"android":"levelo://app?vid=b8974813-7fbe-4337-9035-ba962069d3db","ios":"levelo://app?vid=b8974813-7fbe-4337-9035-ba962069d3db"},"vehicle_type_id":"4","last_reported":1714357176,"current_range_meters":25600,"station_id":"ce4bgj92rcd13ifvqbd0","pricing_plan_id":"cebpf4jnsgd1na2vs0mg"},{"bike_id":"73b37800-277b-4d68-afd4-4b2ddd3b798e","system_id":"levelo_inurba_marseille","lat":43.29616,"lon":5.37975,"is_reserved":false,"is_disabled":false,"rental_uris":{"android":"levelo://app?vid=73b37800-277b-4d68-afd4-4b2ddd3b798e","ios":"levelo://app?vid=73b37800-277b-4d68-afd4-4b2ddd3b798e"},"vehicle_type_id":"4","last_reported":1714357176,"current_range_meters":10000,"station_id":"","pricing_plan_id":"cebpf4jnsgd1na2vs0mg"},{"bike_id":"7b38a558-a0be-4a3d-ba79-f800f2947a17","system_id":"levelo_inurba_marseille","lat":43.32366,"lon":5.38882,"is_reserved":false,"is_disabled":false,"rental_uris":{"android":"levelo://app?vid=7b38a558-a0be-4a3d-ba79-f800f2947a17","ios":"levelo://app?vid=7b38a558-a0be-4a3d-ba79-f800f2947a17"},"vehicle_type_id":"4","last_reported":1714357176,"current_range_meters":2000,"station_id":"ce4bhqp2rcd13ifvqhog","pricing_plan_id":"cebpf4jnsgd1na2vs0mg"},{"bike_id":"3ec795ec-f9c5-4375-9df6-874dd08ee37e","system_id":"levelo_inurba_marseille","lat":43.32367,"lon":5.388836,"is_reserved":false,"is_disabled":false,"rental_uris":{"android":"levelo://app?vid=3ec795ec-f9c5-4375-9df6-874dd08ee37e","ios":"levelo://app?vid=3ec795ec-f9c5-4375-9df6-874dd08ee37e"},"vehicle_type_id":"4","last_reported":1714357176,"current_range_meters":2400,"station_id":"ce4bhqp2rcd13ifvqhog","pricing_plan_id":"cebpf4jnsgd1na2vs0mg"},{"bike_id":"3c784465-37e5-4caf-bfb8-242ab0933ada","system_id":"levelo_inurba_marseille","lat":43.32367,"lon":5.388836,"is_reserved":false,"is_disabled":false,"rental_uris":{"android":"levelo://app?vid=3c784465-37e5-4caf-bfb8-242ab0933ada","ios":"levelo://app?vid=3c784465-37e5-4caf-bfb8-242ab0933ada"},"vehicle_type_id":"4","last_reported":1714357176,"current_range_meters":13200,"station_id":"ce4bhqp2rcd13ifvqhog","pricing_plan_id":"cebpf4jnsgd1na2vs0mg"},{"bike_id":"c3e81e52-b3d7-4be8-b92d-e532e05545f6","system_id":"levelo_inurba_marseille","lat":43.32368,"lon":5.38883,"is_reserved":false,"is_disabled":false,"rental_uris":{"android":"levelo://app?vid=c3e81e52-b3d7-4be8-b92d-e532e05545f6","ios":"levelo://app?vid=c3e81e52-b3d7-4be8-b92d-e532e05545f6"},"vehicle_type_id":"4","last_reported":1714357176,"current_range_meters":8800,"station_id":"ce4bhqp2rcd13ifvqhog","pricing_plan_id":"cebpf4jnsgd1na2vs0mg"},{"bike_id":"b3fd720e-1e0d-4fac-af81-a3a303fee638","system_id":"levelo_inurba_marseille","lat":43.32367,"lon":5.388836,"is_reserved":false,"is_disabled":false,"rental_uris":{"android":"levelo://app?vid=b3fd720e-1e0d-4fac-af81-a3a303fee638","ios":"levelo://app?vid=b3fd720e-1e0d-4fac-af81-a3a303fee638"},"vehicle_type_id":"4","last_reported":1714357176,"current_range_meters":21600,"station_id":"ce4bhqp2rcd13ifvqhog","pricing_plan_id":"cebpf4jnsgd1na2vs0mg"},{"bike_id":"98e0235b-ddd2-4cdf-82ca-2507d9297b3e","system_id":"levelo_inurba_marseille","lat":43.32367,"lon":5.388836,"is_reserved":false,"is_disabled":false,"rental_uris":{"android":"levelo://app?vid=98e0235b-ddd2-4cdf-82ca-2507d9297b3e","ios":"levelo://app?vid=98e0235b-ddd2-4cdf-82ca-2507d9297b3e"},"vehicle_type_id":"4","last_reported":1714357176,"current_range_meters":9200,"station_id":"ce4bhqp2rcd13ifvqhog","pricing_plan_id":"cebpf4jnsgd1na2vs0mg"},{"bike_id":"cae76f54-66a6-4adf-9474-bf0fedb68ec7","system_id":"levelo_inurba_marseille","lat":43.32371,"lon":5.388828,"is_reserved":false,"is_disabled":false,"rental_uris":{"android":"levelo://app?vid=cae76f54-66a6-4adf-9474-bf0fedb68ec7","ios":"levelo://app?vid=cae76f54-66a6-4adf-9474-bf0fedb68ec7"},"vehicle_type_id":"4","last_reported":1714357176,"current_range_meters":1200,"station_id":"ce4bhqp2rcd13ifvqhog","pricing_plan_id":"cebpf4jnsgd1na2vs0mg"},{"bike_id":"87cc541b-e8a5-4b0a-ba91-b49010f9bf65","system_id":"levelo_inurba_marseille","lat":43.32367,"lon":5.388836,"is_reserved":false,"is_disabled":false,"rental_uris":{"android":"levelo://app?vid=87cc541b-e8a5-4b0a-ba91-b49010f9bf65","ios":"levelo://app?vid=87cc541b-e8a5-4b0a-ba91-b49010f9bf65"},"vehicle_type_id":"4","last_reported":1714357176,"current_range_meters":0,"station_id":"ce4bhqp2rcd13ifvqhog","pricing_plan_id":"cebpf4jnsgd1na2vs0mg"},{"bike_id":"bca5955c-a06d-4cea-bdac-fdff31536020","system_id":"levelo_inurba_marseille","lat":43.32367,"lon":5.388836,"is_reserved":false,"is_disabled":false,"rental_uris":{"android":"levelo://app?vid=bca5955c-a06d-4cea-bdac-fdff31536020","ios":"levelo://app?vid=bca5955c-a06d-4cea-bdac-fdff31536020"},"vehicle_type_id":"4","last_reported":1714357176,"current_range_meters":18800,"station_id":"ce4bhqp2rcd13ifvqhog","pricing_plan_id":"cebpf4jnsgd1na2vs0mg"},{"bike_id":"3190e011-9d54-48c3-8df4-24c375041388","system_id":"levelo_inurba_marseille","lat":43.292749,"lon":5.368402,"is_reserved":false,"is_disabled":false,"rental_uris":{"android":"levelo://app?vid=3190e011-9d54-48c3-8df4-24c375041388","ios":"levelo://app?vid=3190e011-9d54-48c3-8df4-24c375041388"},"vehicle_type_id":"4","last_reported":1714357176,"current_range_meters":28800,"station_id":"ce4bhbp2rcd13ifvqesg","pricing_plan_id":"cebpf4jnsgd1na2vs0mg"},{"bike_id":"d6d477dd-e864-4570-99c0-f0e4dc42b492","system_id":"levelo_inurba_marseille","lat":43.292749,"lon":5.368402,"is_reserved":false,"is_disabled":false,"rental_uris":{"android":"levelo://app?vid=d6d477dd-e864-4570-99c0-f0e4dc42b492","ios":"levelo://app?vid=d6d477dd-e864-4570-99c0-f0e4dc42b492"},"vehicle_type_id":"4","last_reported":1714357176,"current_range_meters":31200,"station_id":"ce4bhbp2rcd13ifvqesg","pricing_plan_id":"cebpf4jnsgd1na2vs0mg"},{"bike_id":"552f1111-e450-489d-8640-7438364fa86f","system_id":"levelo_inurba_marseille","lat":43.294829,"lon":5.379608,"is_reserved":false,"is_disabled":false,"rental_uris":{"android":"levelo://app?vid=552f1111-e450-489d-8640-7438364fa86f","ios":"levelo://app?vid=552f1111-e450-489d-8640-7438364fa86f"},"vehicle_type_id":"4","last_reported":1714357176,"current_range_meters":24000,"station_id":"","pricing_plan_id":"cebpf4jnsgd1na2vs0mg"},{"bike_id":"588c7d72-b933-4ea9-9c86-5725b387c4c7","system_id":"levelo_inurba_marseille","lat":43.293009,"lon":5.374584,"is_reserved":false,"is_disabled":false,"rental_uris":{"android":"levelo://app?vid=588c7d72-b933-4ea9-9c86-5725b387c4c7","ios":"levelo://app?vid=588c7d72-b933-4ea9-9c86-5725b387c4c7"},"vehicle_type_id":"4","last_reported":1714357176,"current_range_meters":28800,"station_id":"ce4bgi12rcd13ifvqb70","pricing_plan_id":"cebpf4jnsgd1na2vs0mg"},{"bike_id":"cd3a6e99-f31b-4db0-9794-0fd190da6672","system_id":"levelo_inurba_marseille","lat":43.305994,"lon":5.393687,"is_reserved":false,"is_disabled":false,"rental_uris":{"android":"levelo://app?vid=cd3a6e99-f31b-4db0-9794-0fd190da6672","ios":"levelo://app?vid=cd3a6e99-f31b-4db0-9794-0fd190da6672"},"vehicle_type_id":"4","last_reported":1714357176,"current_range_meters":31600,"station_id":"ce4bh0p2rcd13ifvqd80","pricing_plan_id":"cebpf4jnsgd1na2vs0mg"},{"bike_id":"f73a0d99-de86-495b-8f48-d14d64ba943c","system_id":"levelo_inurba_marseille","lat":43.293009,"lon":5.374584,"is_reserved":false,"is_disabled":false,"rental_uris":{"android":"levelo://app?vid=f73a0d99-de86-495b-8f48-d14d64ba943c","ios":"levelo://app?vid=f73a0d99-de86-495b-8f48-d14d64ba943c"},"vehicle_type_id":"4","last_reported":1714357176,"current_range_meters":26000,"station_id":"ce4bgi12rcd13ifvqb70","pricing_plan_id":"cebpf4jnsgd1na2vs0mg"},{"bike_id":"5fff79c2-b131-4751-8016-80e975c39426","system_id":"levelo_inurba_marseille","lat":43.305994,"lon":5.393687,"is_reserved":false,"is_disabled":false,"rental_uris":{"android":"levelo://app?vid=5fff79c2-b131-4751-8016-80e975c39426","ios":"levelo://app?vid=5fff79c2-b131-4751-8016-80e975c39426"},"vehicle_type_id":"4","last_reported":1714357176,"current_range_meters":20000,"station_id":"ce4bh0p2rcd13ifvqd80","pricing_plan_id":"cebpf4jnsgd1na2vs0mg"},{"bike_id":"830011a4-4eb7-4fcc-9333-43a6709b938e","system_id":"levelo_inurba_marseille","lat":43.305994,"lon":5.393687,"is_reserved":false,"is_disabled":false,"rental_uris":{"android":"levelo://app?vid=830011a4-4eb7-4fcc-9333-43a6709b938e","ios":"levelo://app?vid=830011a4-4eb7-4fcc-9333-43a6709b938e"},"vehicle_type_id":"4","last_reported":1714357176,"current_range_meters":12800,"station_id":"ce4bh0p2rcd13ifvqd80","pricing_plan_id":"cebpf4jnsgd1na2vs0mg"},{"bike_id":"6a4267c9-4f12-48a9-a6bd-0929c75db52c","system_id":"levelo_inurba_marseille","lat":43.305994,"lon":5.393687,"is_reserved":false,"is_disabled":false,"rental_uris":{"android":"levelo://app?vid=6a4267c9-4f12-48a9-a6bd-0929c75db52c","ios":"levelo://app?vid=6a4267c9-4f12-48a9-a6bd-0929c75db52c"},"vehicle_type_id":"4","last_reported":1714357176,"current_range_meters":31600,"station_id":"ce4bh0p2rcd13ifvqd80","pricing_plan_id":"cebpf4jnsgd1na2vs0mg"},{"bike_id":"2a3d2797-1e58-4224-ad35-ac4fc5954174","system_id":"levelo_inurba_marseille","lat":43.305994,"lon":5.393687,"is_reserved":false,"is_disabled":false,"rental_uris":{"android":"levelo://app?vid=2a3d2797-1e58-4224-ad35-ac4fc5954174","ios":"levelo://app?vid=2a3d2797-1e58-4224-ad35-ac4fc5954174"},"vehicle_type_id":"4","last_reported":1714357176,"current_range_meters":31200,"station_id":"ce4bh0p2rcd13ifvqd80","pricing_plan_id":"cebpf4jnsgd1na2vs0mg"},{"bike_id":"d50a5ebe-3f75-458f-9b2a-8c20bde421da","system_id":"levelo_inurba_marseille","lat":43.305994,"lon":5.393687,"is_reserved":false,"is_disabled":false,"rental_uris":{"android":"levelo://app?vid=d50a5ebe-3f75-458f-9b2a-8c20bde421da","ios":"levelo://app?vid=d50a5ebe-3f75-458f-9b2a-8c20bde421da"},"vehicle_type_id":"4","last_reported":1714357176,"current_range_meters":31600,"station_id":"ce4bh0p2rcd13ifvqd80","pricing_plan_id":"cebpf4jnsgd1na2vs0mg"},{"bike_id":"4e9b8490-270b-48ca-9942-ab27077e8018","system_id":"levelo_inurba_marseille","lat":43.2936,"lon":5.37835,"is_reserved":false,"is_disabled":false,"rental_uris":{"android":"levelo://app?vid=4e9b8490-270b-48ca-9942-ab27077e8018","ios":"levelo://app?vid=4e9b8490-270b-48ca-9942-ab27077e8018"},"vehicle_type_id":"4","last_reported":1714357176,"current_range_meters":31600,"station_id":"ce4bgjh2rcd13ifvqbf0","pricing_plan_id":"cebpf4jnsgd1na2vs0mg"},{"bike_id":"16d3e47a-4f91-4133-a0b0-3a83c514f1fc","system_id":"levelo_inurba_marseille","lat":43.2936,"lon":5.37835,"is_reserved":false,"is_disabled":false,"rental_uris":{"android":"levelo://app?vid=16d3e47a-4f91-4133-a0b0-3a83c514f1fc","ios":"levelo://app?vid=16d3e47a-4f91-4133-a0b0-3a83c514f1fc"},"vehicle_type_id":"4","last_reported":1714357176,"current_range_meters":26800,"station_id":"ce4bgjh2rcd13ifvqbf0","pricing_plan_id":"cebpf4jnsgd1na2vs0mg"},{"bike_id":"28abf238-56b6-466d-bd01-ebd43cef62b6","system_id":"levelo_inurba_marseille","lat":43.292147,"lon":5.360633,"is_reserved":false,"is_disabled":false,"rental_uris":{"android":"levelo://app?vid=28abf238-56b6-466d-bd01-ebd43cef62b6","ios":"levelo://app?vid=28abf238-56b6-466d-bd01-ebd43cef62b6"},"vehicle_type_id":"4","last_reported":1714357176,"current_range_meters":29600,"station_id":"ce4bhbh2rcd13ifvqeqg","pricing_plan_id":"cebpf4jnsgd1na2vs0mg"},{"bike_id":"997fe21f-53d3-4530-b053-db2774c43708","system_id":"levelo_inurba_marseille","lat":43.30085,"lon":5.390856,"is_reserved":false,"is_disabled":false,"rental_uris":{"android":"levelo://app?vid=997fe21f-53d3-4530-b053-db2774c43708","ios":"levelo://app?vid=997fe21f-53d3-4530-b053-db2774c43708"},"vehicle_type_id":"4","last_reported":1714357176,"current_range_meters":17200,"station_id":"ce4bh192rcd13ifvqdb0","pricing_plan_id":"cebpf4jnsgd1na2vs0mg"},{"bike_id":"231f2976-2bc1-45dc-a588-377a06780b6b","system_id":"levelo_inurba_marseille","lat":43.291671,"lon":5.371575,"is_reserved":false,"is_disabled":false,"rental_uris":{"android":"levelo://app?vid=231f2976-2bc1-45dc-a588-377a06780b6b","ios":"levelo://app?vid=231f2976-2bc1-45dc-a588-377a06780b6b"},"vehicle_type_id":"4","last_reported":1714357176,"current_range_meters":29200,"station_id":"ce4bha92rcd13ifvqeh0","pricing_plan_id":"cebpf4jnsgd1na2vs0mg"},{"bike_id":"2d635a89-6b31-4be8-aae9-b40f9172157b","system_id":"levelo_inurba_marseille","lat":43.298764,"lon":5.388973,"is_reserved":false,"is_disabled":false,"rental_uris":{"android":"levelo://app?vid=2d635a89-6b31-4be8-aae9-b40f9172157b","ios":"levelo://app?vid=2d635a89-6b31-4be8-aae9-b40f9172157b"},"vehicle_type_id":"4","last_reported":1714357176,"current_range_meters":14400,"station_id":"ce4bh392rcd13ifvqdl0","pricing_plan_id":"cebpf4jnsgd1na2vs0mg"},{"bike_id":"0a9a5683-964c-4732-a497-f1b8747f7cbc","system_id":"levelo_inurba_marseille","lat":43.298764,"lon":5.388973,"is_reserved":false,"is_disabled":false,"rental_uris":{"android":"levelo://app?vid=0a9a5683-964c-4732-a497-f1b8747f7cbc","ios":"levelo://app?vid=0a9a5683-964c-4732-a497-f1b8747f7cbc"},"vehicle_type_id":"4","last_reported":1714357176,"current_range_meters":22400,"station_id":"ce4bh392rcd13ifvqdl0","pricing_plan_id":"cebpf4jnsgd1na2vs0mg"},{"bike_id":"a729fb53-5ee2-4c18-81a5-f83b8f22489f","system_id":"levelo_inurba_marseille","lat":43.291707,"lon":5.371608,"is_reserved":false,"is_disabled":false,"rental_uris":{"android":"levelo://app?vid=a729fb53-5ee2-4c18-81a5-f83b8f22489f","ios":"levelo://app?vid=a729fb53-5ee2-4c18-81a5-f83b8f22489f"},"vehicle_type_id":"4","last_reported":1714357176,"current_range_meters":22400,"station_id":"ce4bha92rcd13ifvqeh0","pricing_plan_id":"cebpf4jnsgd1na2vs0mg"},{"bike_id":"4a90189b-b993-47dd-9b45-ca6ee6cd1396","system_id":"levelo_inurba_marseille","lat":43.298764,"lon":5.388973,"is_reserved":false,"is_disabled":false,"rental_uris":{"android":"levelo://app?vid=4a90189b-b993-47dd-9b45-ca6ee6cd1396","ios":"levelo://app?vid=4a90189b-b993-47dd-9b45-ca6ee6cd1396"},"vehicle_type_id":"4","last_reported":1714357176,"current_range_meters":14400,"station_id":"ce4bh392rcd13ifvqdl0","pricing_plan_id":"cebpf4jnsgd1na2vs0mg"},{"bike_id":"933567a7-de47-4aa1-93e4-021720a83dc1","system_id":"levelo_inurba_marseille","lat":43.298764,"lon":5.388973,"is_reserved":false,"is_disabled":false,"rental_uris":{"android":"levelo://app?vid=933567a7-de47-4aa1-93e4-021720a83dc1","ios":"levelo://app?vid=933567a7-de47-4aa1-93e4-021720a83dc1"},"vehicle_type_id":"4","last_reported":1714357176,"current_range_meters":16400,"station_id":"ce4bh392rcd13ifvqdl0","pricing_plan_id":"cebpf4jnsgd1na2vs0mg"},{"bike_id":"7d735b65-f227-4d3a-8e96-4a100bd9660d","system_id":"levelo_inurba_marseille","lat":43.298764,"lon":5.388973,"is_reserved":false,"is_disabled":false,"rental_uris":{"android":"levelo://app?vid=7d735b65-f227-4d3a-8e96-4a100bd9660d","ios":"levelo://app?vid=7d735b65-f227-4d3a-8e96-4a100bd9660d"},"vehicle_type_id":"4","last_reported":1714357176,"current_range_meters":32000,"station_id":"ce4bh392rcd13ifvqdl0","pricing_plan_id":"cebpf4jnsgd1na2vs0mg"},{"bike_id":"3fcbbf20-3393-418d-b61a-f3aa5a95ffb0","system_id":"levelo_inurba_marseille","lat":43.298764,"lon":5.388973,"is_reserved":false,"is_disabled":false,"rental_uris":{"android":"levelo://app?vid=3fcbbf20-3393-418d-b61a-f3aa5a95ffb0","ios":"levelo://app?vid=3fcbbf20-3393-418d-b61a-f3aa5a95ffb0"},"vehicle_type_id":"4","last_reported":1714357176,"current_range_meters":1600,"station_id":"ce4bh392rcd13ifvqdl0","pricing_plan_id":"cebpf4jnsgd1na2vs0mg"},{"bike_id":"847d84cb-c653-42ba-80af-d53da49a8a8a","system_id":"levelo_inurba_marseille","lat":43.298764,"lon":5.388973,"is_reserved":false,"is_disabled":false,"rental_uris":{"android":"levelo://app?vid=847d84cb-c653-42ba-80af-d53da49a8a8a","ios":"levelo://app?vid=847d84cb-c653-42ba-80af-d53da49a8a8a"},"vehicle_type_id":"4","last_reported":1714357176,"current_range_meters":28400,"station_id":"ce4bh392rcd13ifvqdl0","pricing_plan_id":"cebpf4jnsgd1na2vs0mg"},{"bike_id":"8cb37fbb-dab9-4d71-8096-2410ea232060","system_id":"levelo_inurba_marseille","lat":43.298764,"lon":5.388973,"is_reserved":false,"is_disabled":false,"rental_uris":{"android":"levelo://app?vid=8cb37fbb-dab9-4d71-8096-2410ea232060","ios":"levelo://app?vid=8cb37fbb-dab9-4d71-8096-2410ea232060"},"vehicle_type_id":"4","last_reported":1714357176,"current_range_meters":12400,"station_id":"ce4bh392rcd13ifvqdl0","pricing_plan_id":"cebpf4jnsgd1na2vs0mg"},