{"last_updated":1759259266,"ttl":60,"version":"2.2","data":{"bikes":[{"bike_id":"02f9a596-a108-4f31-b8e9-a777ef8cc5eb","system_id":"levelo_inurba_marseille","lat":43.27171,"lon":5.40991,"is_reserved":false,"is_disabled":false,"rental_uris":{"android":"levelo://app?vid=02f9a596-a108-4f31-b8e9-a777ef8cc5eb","ios":"levelo://app?vid=02f9a596-a108-4f31-b8e9-a777ef8cc5eb"},"vehicle_type_id":"4","last_reported":1759259266,"current_range_meters":2000,"station_id":"ce4bhl12rcd13ifvqgf0","pricing_plan_id":"cebpf4jnsgd1na2vs0mg"},{"bike_id":"001adaf2-b037-48d6-88ee-d80778f26496","system_id":"levelo_inurba_marseille","lat":43.29526,"lon":5.38544,"is_reserved":false,"is_disabled":false,"rental_uris":{"android":"levelo://app?vid=001adaf2-b037-48d6-88ee-d80778f26496","ios":"levelo://app?vid=001adaf2-b037-48d6-88ee-d80778f26496"},"vehicle_type_id":"4","last_reported":1759259266,"current_range_meters":2800,"station_id":"ce4bgih2rcd13ifvqba0","pricing_plan_id":"cebpf4jnsgd1na2vs0mg"},{"bike_id":"7a875f31-ff65-4b66-8586-4fa99ca08123","system_id":"levelo_inurba_marseille","lat":43.26212,"lon":5.37442,"is_reserved":false,"is_disabled":false,"rental_uris":{"android":"levelo://app?vid=7a875f31-ff65-4b66-8586-4fa99ca08123","ios":"levelo://app?vid=7a875f31-ff65-4b66-8586-4fa99ca08123"},"vehicle_type_id":"4","last_reported":1759259266,"current_range_meters":2000,"station_id":"ce4bhgp2rcd13ifvqfc0","pricing_plan_id":"cebpf4jnsgd1na2vs0mg"},{"bike_id":"a8c98fc0-e4b2-4434-bbb2-41d6d3af8a9f","system_id":"levelo_inurba_marseille","lat":43.31089,"lon":5.42433,"is_reserved":false,"is_disabled":false,"rental_uris":{"android":"levelo://app?vid=a8c98fc0-e4b2-4434-bbb2-41d6d3af8a9f","ios":"levelo://app?vid=a8c98fc0-e4b2-4434-bbb2-41d6d3af8a9f"},"vehicle_type_id":"4","last_reported":1759259266,"current_range_meters":2800,"station_id":"ce4bhp92rcd13ifvqhag","pricing_plan_id":"cebpf4jnsgd1na2vs0mg"},{"bike_id":"42d9bdd8-dac0-43f8-95d0-323dc1dc3005","system_id":"levelo_inurba_marseille","lat":43.272074,"lon":5.391832,"is_reserved":false,"is_disabled":false,"rental_uris":{"android":"levelo://app?vid=42d9bdd8-dac0-43f8-95d0-323dc1dc3005","ios":"levelo://app?vid=42d9bdd8-dac0-43f8-95d0-323dc1dc3005"},"vehicle_type_id":"4","last_reported":1759259266,"current_range_meters":2800,"station_id":"ce4bhhp2rcd13ifvqfm0","pricing_plan_id":"cebpf4jnsgd1na2vs0mg"},{"bike_id":"c03f383f-2553-4123-9de6-5b0062e9eaf7","system_id":"levelo_inurba_marseille","lat":43.26937,"lon":5.40247,"is_reserved":false,"is_disabled":false,"rental_uris":{"android":"levelo://app?vid=c03f383f-2553-4123-9de6-5b0062e9eaf7","ios":"levelo://app?vid=c03f383f-2553-4123-9de6-5b0062e9eaf7"},"vehicle_type_id":"4","last_reported":1759259266,"current_range_meters":2800,"station_id":"cjm6bp8fraef2m0cb0m0","pricing_plan_id":"cebpf4jnsgd1na2vs0mg"},{"bike_id":"8b353c9e-13c5-42ee-a76f-ccbd6269a3dc","system_id":"levelo_inurba_marseille","lat":43.30444,"lon":5.36689,"is_reserved":false,"is_disabled":false,"rental_uris":{"android":"levelo://app?vid=8b353c9e-13c5-42ee-a76f-ccbd6269a3dc","ios":"levelo://app?vid=8b353c9e-13c5-42ee-a76f-ccbd6269a3dc"},"vehicle_type_id":"4","last_reported":1759259266,"current_range_meters":3200,"station_id":"","pricing_plan_id":"cebpf4jnsgd1na2vs0mg"},{"bike_id":"406a7316-4da3-4a2b-8593-47fdda27f61e","system_id":"levelo_inurba_marseille","lat":43.27421,"lon":5.39407,"is_reserved":false,"is_disabled":false,"rental_uris":{"android":"levelo://app?vid=406a7316-4da3-4a2b-8593-47fdda27f61e","ios":"levelo://app?vid=406a7316-4da3-4a2b-8593-47fdda27f61e"},"vehicle_type_id":"4","last_reported":1759259266,"current_range_meters":3200,"station_id":"ce4bhdp2rcd13ifvqf20","pricing_plan_id":"cebpf4jnsgd1na2vs0mg"},{"bike_id":"c86935d6-cb23-49c0-9e43-fc8a3ea59fda","system_id":"levelo_inurba_marseille","lat":43.31108,"lon":5.38587,"is_reserved":false,"is_disabled":false,"rental_uris":{"android":"levelo://app?vid=c86935d6-cb23-49c0-9e43-fc8a3ea59fda","ios":"levelo://app?vid=c86935d6-cb23-49c0-9e43-fc8a3ea59fda"},"vehicle_type_id":"4","last_reported":1759259266,"current_range_meters":3200,"station_id":"","pricing_plan_id":"cebpf4jnsgd1na2vs0mg"},{"bike_id":"0ebaf379-55b9-403f-bdcd-b229adc9d90c","system_id":"levelo_inurba_marseille","lat":43.25497,"lon":5.37668,"is_reserved":false,"is_disabled":false,"rental_uris":{"android":"levelo://app?vid=0ebaf379-55b9-403f-bdcd-b229adc9d90c","ios":"levelo://app?vid=0ebaf379-55b9-403f-bdcd-b229adc9d90c"},"vehicle_type_id":"4","last_reported":1759259266,"current_range_meters":3200,"station_id":"ce4bhh12rcd13ifvqff0","pricing_plan_id":"cebpf4jnsgd1na2vs0mg"},{"bike_id":"383fe927-50f7-4aed-bb3c-b2f4b53c2c1d","system_id":"levelo_inurba_marseille","lat":43.27281,"lon":5.39134,"is_reserved":false,"is_disabled":false,"rental_uris":{"android":"levelo://app?vid=383fe927-50f7-4aed-bb3c-b2f4b53c2c1d","ios":"levelo://app?vid=383fe927-50f7-4aed-bb3c-b2f4b53c2c1d"},"vehicle_type_id":"4","last_reported":1759259266,"current_range_meters":3200,"station_id":"","pricing_plan_id":"cebpf4jnsgd1na2vs0mg"},{"bike_id":"5a5f0890-1d3b-4da9-8863-5a0f4e6253ef","system_id":"levelo_inurba_marseille","lat":43.33017,"lon":5.39038,"is_reserved":false,"is_disabled":false,"rental_uris":{"android":"levelo://app?vid=5a5f0890-1d3b-4da9-8863-5a0f4e6253ef","ios":"levelo://app?vid=5a5f0890-1d3b-4da9-8863-5a0f4e6253ef"},"vehicle_type_id":"4","last_reported":1759259266,"current_range_meters":3200,"station_id":"ce4bhr92rcd13ifvqhrg","pricing_plan_id":"cebpf4jnsgd1na2vs0mg"},{"bike_id":"a599d1b2-b269-4a47-a41b-8fef4d790dea","system_id":"levelo_inurba_marseille","lat":43.294237,"lon":5.432293,"is_reserved":false,"is_disabled":false,"rental_uris":{"android":"levelo://app?vid=a599d1b2-b269-4a47-a41b-8fef4d790dea","ios":"levelo://app?vid=a599d1b2-b269-4a47-a41b-8fef4d790dea"},"vehicle_type_id":"4","last_reported":1759259266,"current_range_meters":3200,"station_id":"","pricing_plan_id":"cebpf4jnsgd1na2vs0mg"},{"bike_id":"2c6518be-b3f0-42d2-93c9-c1de9e54885f","system_id":"levelo_inurba_marseille","lat":43.29227,"lon":5.38219,"is_reserved":false,"is_disabled":false,"rental_uris":{"android":"levelo://app?vid=2c6518be-b3f0-42d2-93c9-c1de9e54885f","ios":"levelo://app?vid=2c6518be-b3f0-42d2-93c9-c1de9e54885f"},"vehicle_type_id":"4","last_reported":1759259266,"current_range_meters":3600,"station_id":"","pricing_plan_id":"cebpf4jnsgd1na2vs0mg"},{"bike_id":"ca660db5-13a2-4b17-89f6-c4a43f402701","system_id":"levelo_inurba_marseille","lat":43.31838,"lon":5.37076,"is_reserved":false,"is_disabled":false,"rental_uris":{"android":"levelo://app?vid=ca660db5-13a2-4b17-89f6-c4a43f402701","ios":"levelo://app?vid=ca660db5-13a2-4b17-89f6-c4a43f402701"},"vehicle_type_id":"4","last_reported":1759259266,"current_range_meters":3600,"station_id":"","pricing_plan_id":"cebpf4jnsgd1na2vs0mg"},{"bike_id":"35eb67b7-a617-4ccc-950b-7f02a8b95a82","system_id":"levelo_inurba_marseille","lat":43.25122,"lon":5.40313,"is_reserved":false,"is_disabled":false,"rental_uris":{"android":"levelo://app?vid=35eb67b7-a617-4ccc-950b-7f02a8b95a82","ios":"levelo://app?vid=35eb67b7-a617-4ccc-950b-7f02a8b95a82"},"vehicle_type_id":"4","last_reported":1759259266,"current_range_meters":3600,"station_id":"ce4bhlh2rcd13ifvqgig","pricing_plan_id":"cebpf4jnsgd1na2vs0mg"},{"bike_id":"8c3aae76-a36c-4487-9561-b62393849255","system_id":"levelo_inurba_marseille","lat":43.24076,"lon":5.3776,"is_reserved":false,"is_disabled":false,"rental_uris":{"android":"levelo://app?vid=8c3aae76-a36c-4487-9561-b62393849255","ios":"levelo://app?vid=8c3aae76-a36c-4487-9561-b62393849255"},"vehicle_type_id":"4","last_reported":1759259266,"current_range_meters":3600,"station_id":"ce4bhnp2rcd13ifvqgvg","pricing_plan_id":"cebpf4jnsgd1na2vs0mg"},{"bike_id":"ebae34f3-ce35-4d51-8610-5092e93b81f5","system_id":"levelo_inurba_marseille","lat":43.32055,"lon":5.41604,"is_reserved":false,"is_disabled":false,"rental_uris":{"android":"levelo://app?vid=ebae34f3-ce35-4d51-8610-5092e93b81f5","ios":"levelo://app?vid=ebae34f3-ce35-4d51-8610-5092e93b81f5"},"vehicle_type_id":"4","last_reported":1759259266,"current_range_meters":3600,"station_id":"ce4bhq92rcd13ifvqhkg","pricing_plan_id":"cebpf4jnsgd1na2vs0mg"},{"bike_id":"e434ebbc-e0dc-42ce-8050-4124a7419e3a","system_id":"levelo_inurba_marseille","lat":43.26937,"lon":5.38923,"is_reserved":false,"is_disabled":false,"rental_uris":{"android":"levelo://app?vid=e434ebbc-e0dc-42ce-8050-4124a7419e3a","ios":"levelo://app?vid=e434ebbc-e0dc-42ce-8050-4124a7419e3a"},"vehicle_type_id":"4","last_reported":1759259266,"current_range_meters":3600,"station_id":"ce4bhhh2rcd13ifvqfl0","pricing_plan_id":"cebpf4jnsgd1na2vs0mg"},{"bike_id":"1dad2113-89e2-44fc-a0b6-ddd6a09baff1","system_id":"levelo_inurba_marseille","lat":43.337444,"lon":5.374475,"is_reserved":false,"is_disabled":false,"rental_uris":{"android":"levelo://app?vid=1dad2113-89e2-44fc-a0b6-ddd6a09baff1","ios":"levelo://app?vid=1dad2113-89e2-44fc-a0b6-ddd6a09baff1"},"vehicle_type_id":"4","last_reported":1759259266,"current_range_meters":3600,"station_id":"","pricing_plan_id":"cebpf4jnsgd1na2vs0mg"},{"bike_id":"6189156a-5014-4687-96e5-46c93111b2b0","system_id":"levelo_inurba_marseille","lat":43.30884,"lon":5.39641,"is_reserved":false,"is_disabled":false,"rental_uris":{"android":"levelo://app?vid=6189156a-5014-4687-96e5-46c93111b2b0","ios":"levelo://app?vid=6189156a-5014-4687-96e5-46c93111b2b0"},"vehicle_type_id":"4","last_reported":1759259266,"current_range_meters":4000,"station_id":"ce4bh012rcd13ifvqcv0","pricing_plan_id":"cebpf4jnsgd1na2vs0mg"},{"bike_id":"8babdb40-7f22-4171-9442-655e98266403","system_id":"levelo_inurba_marseille","lat":43.26793,"lon":5.39413,"is_reserved":false,"is_disabled":false,"rental_uris":{"android":"levelo://app?vid=8babdb40-7f22-4171-9442-655e98266403","ios":"levelo://app?vid=8babdb40-7f22-4171-9442-655e98266403"},"vehicle_type_id":"4","last_reported":1759259266,"current_range_meters":4000,"station_id":"ce4bhh12rcd13ifvqfg0","pricing_plan_id":"cebpf4jnsgd1na2vs0mg"},{"bike_id":"03dbce53-a0c5-4b5f-b0c9-1aa55fbc2708","system_id":"levelo_inurba_marseille","lat":43.2455,"lon":5.39537,"is_reserved":false,"is_disabled":true,"rental_uris":{"android":"levelo://app?vid=03dbce53-a0c5-4b5f-b0c9-1aa55fbc2708","ios":"levelo://app?vid=03dbce53-a0c5-4b5f-b0c9-1aa55fbc2708"},"vehicle_type_id":"4","last_reported":1759259266,"current_range_meters":4000,"station_id":"ce4bhlp2rcd13ifvqgjg","pricing_plan_id":"cebpf4jnsgd1na2vs0mg"},{"bike_id":"19dffac5-8a1f-4383-9690-5bb19eb32640","system_id":"levelo_inurba_marseille","lat":43.310794,"lon":5.383413,"is_reserved":false,"is_disabled":true,"rental_uris":{"android":"levelo://app?vid=19dffac5-8a1f-4383-9690-5bb19eb32640","ios":"levelo://app?vid=19dffac5-8a1f-4383-9690-5bb19eb32640"},"vehicle_type_id":"4","last_reported":1759259266,"current_range_meters":4000,"station_id":"ce4bgih2rcd13ifvqba0","pricing_plan_id":"cebpf4jnsgd1na2vs0mg"},{"bike_id":"bf6ca9c5-46cc-4860-89d5-697fbe4a9d09","system_id":"levelo_inurba_marseille","lat":43.28931,"lon":5.3963,"is_reserved":false,"is_disabled":false,"rental_uris":{"android":"levelo://app?vid=bf6ca9c5-46cc-4860-89d5-697fbe4a9d09","ios":"levelo://app?vid=bf6ca9c5-46cc-4860-89d5-697fbe4a9d09"},"vehicle_type_id":"4","last_reported":1759259266,"current_range_meters":4000,"station_id":"ce4bh3h2rcd13ifvqdn0","pricing_plan_id":"cebpf4jnsgd1na2vs0mg"},{"bike_id":"3e53b264-cefb-494a-bcdc-6e90a1bd69a7","system_id":"levelo_inurba_marseille","lat":43.25086,"lon":5.3953,"is_reserved":false,"is_disabled":false,"rental_uris":{"android":"levelo://app?vid=3e53b264-cefb-494a-bcdc-6e90a1bd69a7","ios":"levelo://app?vid=3e53b264-cefb-494a-bcdc-6e90a1bd69a7"},"vehicle_type_id":"4","last_reported":1759259266,"current_range_meters":4400,"station_id":"ce4bhm12rcd13ifvqgkg","pricing_plan_id":"cebpf4jnsgd1na2vs0mg"},{"bike_id":"322e3c8a-26eb-4da6-939f-0592c109e00c","system_id":"levelo_inurba_marseille","lat":43.28571,"lon":5.39495,"is_reserved":false,"is_disabled":false,"rental_uris":{"android":"levelo://app?vid=322e3c8a-26eb-4da6-939f-0592c109e00c","ios":"levelo://app?vid=322e3c8a-26eb-4da6-939f-0592c109e00c"},"vehicle_type_id":"4","last_reported":1759259266,"current_range_meters":4400,"station_id":"ce4bh292rcd13ifvqdg0","pricing_plan_id":"cebpf4jnsgd1na2vs0mg"},{"bike_id":"7a40331c-2f35-4033-9334-a9ed66868428","system_id":"levelo_inurba_marseille","lat":43.30636,"lon":5.40098,"is_reserved":false,"is_disabled":false,"rental_uris":{"android":"levelo://app?vid=7a40331c-2f35-4033-9334-a9ed66868428","ios":"levelo://app?vid=7a40331c-2f35-4033-9334-a9ed66868428"},"vehicle_type_id":"4","last_reported":1759259266,"current_range_meters":4400,"station_id":"ce4bh112rcd13ifvqda0","pricing_plan_id":"cebpf4jnsgd1na2vs0mg"},{"bike_id":"87a71c1d-1e04-4883-baef-2a6203b67be7","system_id":"levelo_inurba_marseille","lat":43.28938,"lon":5.39633,"is_reserved":false,"is_disabled":false,"rental_uris":{"android":"levelo://app?vid=87a71c1d-1e04-4883-baef-2a6203b67be7","ios":"levelo://app?vid=87a71c1d-1e04-4883-baef-2a6203b67be7"},"vehicle_type_id":"4","last_reported":1759259266,"current_range_meters":4400,"station_id":"ce4bh3h2rcd13ifvqdn0","pricing_plan_id":"cebpf4jnsgd1na2vs0mg"},{"bike_id":"c1a0e476-e649-488f-93cb-35d36714ed51","system_id":"levelo_inurba_marseille","lat":43.28459,"lon":5.35893,"is_reserved":false,"is_disabled":false,"rental_uris":{"android":"levelo://app?vid=c1a0e476-e649-488f-93cb-35d36714ed51","ios":"levelo://app?vid=c1a0e476-e649-488f-93cb-35d36714ed51"},"vehicle_type_id":"4","last_reported":1759259266,"current_range_meters":4400,"station_id":"ce4bhah2rcd13ifvqei0","pricing_plan_id":"cebpf4jnsgd1na2vs0mg"},{"bike_id":"35e8f722-b82a-4247-beb8-7e2827829ce6","system_id":"levelo_inurba_marseille","lat":43.32405,"lon":5.3911,"is_reserved":false,"is_disabled":false,"rental_uris":{"android":"levelo://app?vid=35e8f722-b82a-4247-beb8-7e2827829ce6","ios":"levelo://app?vid=35e8f722-b82a-4247-beb8-7e2827829ce6"},"vehicle_type_id":"4","last_reported":1759259266,"current_range_meters":4400,"station_id":"","pricing_plan_id":"cebpf4jnsgd1na2vs0mg"},{"bike_id":"407900af-f6e2-4546-a271-aca942609b47","system_id":"levelo_inurba_marseille","lat":43.28712,"lon":5.37385,"is_reserved":false,"is_disabled":false,"rental_uris":{"android":"levelo://app?vid=407900af-f6e2-4546-a271-aca942609b47","ios":"levelo://app?vid=407900af-f6e2-4546-a271-aca942609b47"},"vehicle_type_id":"4","last_reported":1759259266,"current_range_meters":4400,"station_id":"ce4bh3p2rcd13ifvqdq0","pricing_plan_id":"cebpf4jnsgd1na2vs0mg"},{"bike_id":"be025447-c10d-4eba-a5cd-cc0ac59a16f8","system_id":"levelo_inurba_marseille","lat":43.2762,"lon":5.36108,"is_reserved":false,"is_disabled":false,"rental_uris":{"android":"levelo://app?vid=be025447-c10d-4eba-a5cd-cc0ac59a16f8","ios":"levelo://app?vid=be025447-c10d-4eba-a5cd-cc0ac59a16f8"},"vehicle_type_id":"4","last_reported":1759259266,"current_range_meters":4400,"station_id":"ce4bgj92rcd13ifvqbe0","pricing_plan_id":"cebpf4jnsgd1na2vs0mg"},{"bike_id":"e5378695-fba9-432a-9cfb-3b5b05e40fec","system_id":"levelo_inurba_marseille","lat":43.337986,"lon":5.374304,"is_reserved":false,"is_disabled":false,"rental_uris":{"android":"levelo://app?vid=e5378695-fba9-432a-9cfb-3b5b05e40fec","ios":"levelo://app?vid=e5378695-fba9-432a-9cfb-3b5b05e40fec"},"vehicle_type_id":"4","last_reported":1759259266,"current_range_meters":4400,"station_id":"","pricing_plan_id":"cebpf4jnsgd1na2vs0mg"},{"bike_id":"f7522588-035f-4c45-b342-6f371feb8399","system_id":"levelo_inurba_marseille","lat":43.25338,"lon":5.4218,"is_reserved":false,"is_disabled":true,"rental_uris":{"android":"levelo://app?vid=f7522588-035f-4c45-b342-6f371feb8399","ios":"levelo://app?vid=f7522588-035f-4c45-b342-6f371feb8399"},"vehicle_type_id":"4","last_reported":1759259266,"current_range_meters":4800,"station_id":"st_d2m65c5bi1j21697t3ng","pricing_plan_id":"cebpf4jnsgd1na2vs0mg"},{"bike_id":"ef294fd6-d499-4a9f-b4ba-5bf97a822ef8","system_id":"levelo_inurba_marseille","lat":43.27039,"lon":5.40268,"is_reserved":false,"is_disabled":false,"rental_uris":{"android":"levelo://app?vid=ef294fd6-d499-4a9f-b4ba-5bf97a822ef8","ios":"levelo://app?vid=ef294fd6-d499-4a9f-b4ba-5bf97a822ef8"},"vehicle_type_id":"4","last_reported":1759259266,"current_range_meters":4800,"station_id":"ce4bhk92rcd13ifvqgc0","pricing_plan_id":"cebpf4jnsgd1na2vs0mg"},{"bike_id":"70789d4e-ee48-4838-a413-66ddb32e1d78","system_id":"levelo_inurba_marseille","lat":43.29003,"lon":5.38155,"is_reserved":false,"is_disabled":false,"rental_uris":{"android":"levelo://app?vid=70789d4e-ee48-4838-a413-66ddb32e1d78","ios":"levelo://app?vid=70789d4e-ee48-4838-a413-66ddb32e1d78"},"vehicle_type_id":"4","last_reported":1759259266,"current_range_meters":4800,"station_id":"ce4bh4p2rcd13ifvqe1g","pricing_plan_id":"cebpf4jnsgd1na2vs0mg"},{"bike_id":"09483c40-6cf0-4abc-842a-1329676c2e4d","system_id":"levelo_inurba_marseille","lat":43.296166,"lon":5.381093,"is_reserved":false,"is_disabled":false,"rental_uris":{"android":"levelo://app?vid=09483c40-6cf0-4abc-842a-1329676c2e4d","ios":"levelo://app?vid=09483c40-6cf0-4abc-842a-1329676c2e4d"},"vehicle_type_id":"4","last_reported":1759259266,"current_range_meters":4800,"station_id":"ce4bgl12rcd13ifvqbo0","pricing_plan_id":"cebpf4jnsgd1na2vs0mg"},{"bike_id":"aae0fff4-79c4-4eff-a901-ce6dfad9d0e7","system_id":"levelo_inurba_marseille","lat":43.28073,"lon":5.38671,"is_reserved":false,"is_disabled":true,"rental_uris":{"android":"levelo://app?vid=aae0fff4-79c4-4eff-a901-ce6dfad9d0e7","ios":"levelo://app?vid=aae0fff4-79c4-4eff-a901-ce6dfad9d0e7"},"vehicle_type_id":"4","last_reported":1759259266,"current_range_meters":4800,"station_id":"","pricing_plan_id":"cebpf4jnsgd1na2vs0mg"},{"bike_id":"4fb34769-9a7a-4615-8a6c-1d4167b06ade","system_id":"levelo_inurba_marseille","lat":43.3265,"lon":5.40996,"is_reserved":false,"is_disabled":false,"rental_uris":{"android":"levelo://app?vid=4fb34769-9a7a-4615-8a6c-1d4167b06ade","ios":"levelo://app?vid=4fb34769-9a7a-4615-8a6c-1d4167b06ade"},"vehicle_type_id":"4","last_reported":1759259266,"current_range_meters":4800,"station_id":"ce4bhpp2rcd13ifvqhgg","pricing_plan_id":"cebpf4jnsgd1na2vs0mg"},{"bike_id":"17a6cf3a-ebdc-4fdf-a974-24be6eca1b07","system_id":"levelo_inurba_marseille","lat":43.27294,"lon":5.39106,"is_reserved":false,"is_disabled":false,"rental_uris":{"android":"levelo://app?vid=17a6cf3a-ebdc-4fdf-a974-24be6eca1b07","ios":"levelo://app?vid=17a6cf3a-ebdc-4fdf-a974-24be6eca1b07"},"vehicle_type_id":"4","last_reported":1759259266,"current_range_meters":4800,"station_id":"ce4bhgp2rcd13ifvqfe0","pricing_plan_id":"cebpf4jnsgd1na2vs0mg"},{"bike_id":"72295599-32a8-4b46-9ccb-017e609573b6","system_id":"levelo_inurba_marseille","lat":43.29278,"lon":5.40114,"is_reserved":false,"is_disabled":false,"rental_uris":{"android":"levelo://app?vid=72295599-32a8-4b46-9ccb-017e609573b6","ios":"levelo://app?vid=72295599-32a8-4b46-9ccb-017e609573b6"},"vehicle_type_id":"4","last_reported":1759259266,"current_range_meters":4800,"station_id":"ce4bh312rcd13ifvqdk0","pricing_plan_id":"cebpf4jnsgd1na2vs0mg"},{"bike_id":"82d6771b-5f11-4278-ac4d-96be2c17b0fb","system_id":"levelo_inurba_marseille","lat":43.29708,"lon":5.37694,"is_reserved":false,"is_disabled":false,"rental_uris":{"android":"levelo://app?vid=82d6771b-5f11-4278-ac4d-96be2c17b0fb","ios":"levelo://app?vid=82d6771b-5f11-4278-ac4d-96be2c17b0fb"},"vehicle_type_id":"4","last_reported":1759259266,"current_range_meters":4800,"station_id":"ce4bgkh2rcd13ifvqbl0","pricing_plan_id":"cebpf4jnsgd1na2vs0mg"},{"bike_id":"674a0aa8-7fb6-48cd-8051-0ddb4143903d","system_id":"levelo_inurba_marseille","lat":43.28262,"lon":5.35066,"is_reserved":false,"is_disabled":false,"rental_uris":{"android":"levelo://app?vid=674a0aa8-7fb6-48cd-8051-0ddb4143903d","ios":"levelo://app?vid=674a0aa8-7fb6-48cd-8051-0ddb4143903d"},"vehicle_type_id":"4","last_reported":1759259266,"current_range_meters":4400,"station_id":"ce4bhbp2rcd13ifvqerg","pricing_plan_id":"cebpf4jnsgd1na2vs0mg"},{"bike_id":"6afe2be9-4760-4169-9b78-34f74e631704","system_id":"levelo_inurba_marseille","lat":43.29521,"lon":5.37512,"is_reserved":false,"is_disabled":false,"rental_uris":{"android":"levelo://app?vid=6afe2be9-4760-4169-9b78-34f74e631704","ios":"levelo://app?vid=6afe2be9-4760-4169-9b78-34f74e631704"},"vehicle_type_id":"4","last_reported":1759259266,"current_range_meters":4400,"station_id":"ce4bgkp2rcd13ifvqbmg","pricing_plan_id":"cebpf4jnsgd1na2vs0mg"},{"bike_id":"d8cdd624-6d1d-4034-89b3-284a58cec974","system_id":"levelo_inurba_marseille","lat":43.31113,"lon":5.37771,"is_reserved":false,"is_disabled":false,"rental_uris":{"android":"levelo://app?vid=d8cdd624-6d1d-4034-89b3-284a58cec974","ios":"levelo://app?vid=d8cdd624-6d1d-4034-89b3-284a58cec974"},"vehicle_type_id":"4","last_reported":1759259266,"current_range_meters":5600,"station_id":"ce4bgt92rcd13ifvqcg0","pricing_plan_id":"cebpf4jnsgd1na2vs0mg"},{"bike_id":"50e95f5c-823b-4924-bb57-c52fab8313f8","system_id":"levelo_inurba_marseille","lat":43.25497,"lon":5.37649,"is_reserved":false,"is_disabled":false,"rental_uris":{"android":"levelo://app?vid=50e95f5c-823b-4924-bb57-c52fab8313f8","ios":"levelo://app?vid=50e95f5c-823b-4924-bb57-c52fab8313f8"},"vehicle_type_id":"4","last_reported":1759259266,"current_range_meters":5600,"station_id":"ce4bhh12rcd13ifvqff0","pricing_plan_id":"cebpf4jnsgd1na2vs0mg"},{"bike_id":"6c2a9879-26fd-472a-9819-e970d2989239","system_id":"levelo_inurba_marseille","lat":43.29532,"lon":5.39052,"is_reserved":false,"is_disabled":false,"rental_uris":{"android":"levelo://app?vid=6c2a9879-26fd-472a-9819-e970d2989239","ios":"levelo://app?vid=6c2a9879-26fd-472a-9819-e970d2989239"},"vehicle_type_id":"4","last_reported":1759259266,"current_range_meters":5600,"station_id":"ce4bh3p2rcd13ifvqdp0","pricing_plan_id":"cebpf4jnsgd1na2vs0mg"},{"bike_id":"1a72cb3a-ce53-4514-8990-38173cc19dab","system_id":"levelo_inurba_marseille","lat":43.30648,"lon":5.40083,"is_reserved":false,"is_disabled":false,"rental_uris":{"android":"levelo://app?vid=1a72cb3a-ce53-4514-8990-38173cc19dab","ios":"levelo://app?vid=1a72cb3a-ce53-4514-8990-38173cc19dab"},"vehicle_type_id":"4","last_reported":1759259266,"current_range_meters":5600,"station_id":"ce4bh112rcd13ifvqda0","pricing_plan_id":"cebpf4jnsgd1na2vs0mg"},{"bike_id":"a69366a2-a15a-4127-8b88-63191916ccb7","system_id":"levelo_inurba_marseille","lat":43.29923,"lon":5.36546,"is_reserved":false,"is_disabled":false,"rental_uris":{"android":"levelo://app?vid=a69366a2-a15a-4127-8b88-63191916ccb7","ios":"levelo://app?vid=a69366a2-a15a-4127-8b88-63191916ccb7"},"vehicle_type_id":"4","last_reported":1759259266,"current_range_meters":5600,"station_id":"ce4bgm92rcd13ifvqbr0","pricing_plan_id":"cebpf4jnsgd1na2vs0mg"},{"bike_id":"391eb0f2-e5a9-4651-81a4-561989230dd3","system_id":"levelo_inurba_marseille","lat":43.2706,"lon":5.40258,"is_reserved":false,"is_disabled":false,"rental_uris":{"android":"levelo://app?vid=391eb0f2-e5a9-4651-81a4-561989230dd3","ios":"levelo://app?vid=391eb0f2-e5a9-4651-81a4-561989230dd3"},"vehicle_type_id":"4","last_reported":1759259266,"current_range_meters":5600,"station_id":"ce4bhk92rcd13ifvqgc0","pricing_plan_id":"cebpf4jnsgd1na2vs0mg"},{"bike_id":"29fb0313-96d0-4699-a2b9-d9bfae768dba","system_id":"levelo_inurba_marseille","lat":43.28152,"lon":5.42648,"is_reserved":false,"is_disabled":true,"rental_uris":{"android":"levelo://app?vid=29fb0313-96d0-4699-a2b9-d9bfae768dba","ios":"levelo://app?vid=29fb0313-96d0-4699-a2b9-d9bfae768dba"},"vehicle_type_id":"4","last_reported":1759259266,"current_range_meters":6000,"station_id":"ce4bhnh2rcd13ifvqgug","pricing_plan_id":"cebpf4jnsgd1na2vs0mg"},{"bike_id":"aa123961-c527-4db0-9350-7d548f67905a","system_id":"levelo_inurba_marseille","lat":43.263895,"lon":5.396925,"is_reserved":false,"is_disabled":false,"rental_uris":{"android":"levelo://app?vid=aa123961-c527-4db0-9350-7d548f67905a","ios":"levelo://app?vid=aa123961-c527-4db0-9350-7d548f67905a"},"vehicle_type_id":"4","last_reported":1759259266,"current_range_meters":6000,"station_id":"","pricing_plan_id":"cebpf4jnsgd1na2vs0mg"},{"bike_id":"5282766d-86ca-40ff-b0ec-45c3190b97df","system_id":"levelo_inurba_marseille","lat":43.23151,"lon":5.43722,"is_reserved":false,"is_disabled":false,"rental_uris":{"android":"levelo://app?vid=5282766d-86ca-40ff-b0ec-45c3190b97df","ios":"levelo://app?vid=5282766d-86ca-40ff-b0ec-45c3190b97df"},"vehicle_type_id":"4","last_reported":1759259266,"current_range_meters":6000,"station_id":"ce4bhmp2rcd13ifvqgog","pricing_plan_id":"cebpf4jnsgd1na2vs0mg"},{"bike_id":"aa451cab-bbc6-4f69-b394-ae13712b470d","system_id":"levelo_inurba_marseille","lat":43.26933,"lon":5.4026,"is_reserved":false,"is_disabled":false,"rental_uris":{"android":"levelo://app?vid=aa451cab-bbc6-4f69-b394-ae13712b470d","ios":"levelo://app?vid=aa451cab-bbc6-4f69-b394-ae13712b470d"},"vehicle_type_id":"4","last_reported":1759259266,"current_range_meters":6000,"station_id":"cjm6bp8fraef2m0cb0m0","pricing_plan_id":"cebpf4jnsgd1na2vs0mg"},{"bike_id":"8debadf9-eaaf-472b-ac3c-4cf1d484cba8","system_id":"levelo_inurba_marseille","lat":43.31076,"lon":5.38353,"is_reserved":false,"is_disabled":false,"rental_uris":{"android":"levelo://app?vid=8debadf9-eaaf-472b-ac3c-4cf1d484cba8","ios":"levelo://app?vid=8debadf9-eaaf-472b-ac3c-4cf1d484cba8"},"vehicle_type_id":"4","last_reported":1759259266,"current_range_meters":6000,"station_id":"ce4bgv92rcd13ifvqcr0","pricing_plan_id":"cebpf4jnsgd1na2vs0mg"},{"bike_id":"5c3d9883-4e8b-485e-8e85-39218b9a6904","system_id":"levelo_inurba_marseille","lat":43.28725,"lon":5.3609,"is_reserved":false,"is_disabled":false,"rental_uris":{"android":"levelo://app?vid=5c3d9883-4e8b-485e-8e85-39218b9a6904","ios":"levelo://app?vid=5c3d9883-4e8b-485e-8e85-39218b9a6904"},"vehicle_type_id":"4","last_reported":1759259266,"current_range_meters":5600,"station_id":"cki0cbj6b192h4jlfktg","pricing_plan_id":"cebpf4jnsgd1na2vs0mg"},{"bike_id":"d28c25db-dc89-4e29-b314-fe665e7f908a","system_id":"levelo_inurba_marseille","lat":43.2587,"lon":5.39901,"is_reserved":false,"is_disabled":false,"rental_uris":{"android":"levelo://app?vid=d28c25db-dc89-4e29-b314-fe665e7f908a","ios":"levelo://app?vid=d28c25db-dc89-4e29-b314-fe665e7f908a"},"vehicle_type_id":"4","last_reported":1759259266,"current_range_meters":6000,"station_id":"ce4bhl92rcd13ifvqghg","pricing_plan_id":"cebpf4jnsgd1na2vs0mg"},{"bike_id":"852ded8a-7b54-4e81-b496-3ad97d3c3195","system_id":"levelo_inurba_marseille","lat":43.26786,"lon":5.39414,"is_reserved":false,"is_disabled":false,"rental_uris":{"android":"levelo://app?vid=852ded8a-7b54-4e81-b496-3ad97d3c3195","ios":"levelo://app?vid=852ded8a-7b54-4e81-b496-3ad97d3c3195"},"vehicle_type_id":"4","last_reported":1759259266,"current_range_meters":1600,"station_id":"ce4bhh12rcd13ifvqfg0","pricing_plan_id":"cebpf4jnsgd1na2vs0mg"},{"bike_id":"5e51dd5a-94eb-4255-ace2-d71787614f6c","system_id":"levelo_inurba_marseille","lat":43.27074,"lon":5.40269,"is_reserved":false,"is_disabled":false,"rental_uris":{"android":"levelo://app?vid=5e51dd5a-94eb-4255-ace2-d71787614f6c","ios":"levelo://app?vid=5e51dd5a-94eb-4255-ace2-d71787614f6c"},"vehicle_type_id":"4","last_reported":1759259266,"current_range_meters":6400,"station_id":"ce4bhk92rcd13ifvqgc0","pricing_plan_id":"cebpf4jnsgd1na2vs0mg"},{"bike_id":"4185afe4-2611-48ff-b646-a5acff45ba51","system_id":"levelo_inurba_marseille","lat":43.2815,"lon":5.4268,"is_reserved":false,"is_disabled":true,"rental_uris":{"android":"levelo://app?vid=4185afe4-2611-48ff-b646-a5acff45ba51","ios":"levelo://app?vid=4185afe4-2611-48ff-b646-a5acff45ba51"},"vehicle_type_id":"4","last_reported":1759259266,"current_range_meters":6400,"station_id":"ce4bhnh2rcd13ifvqgug","pricing_plan_id":"cebpf4jnsgd1na2vs0mg"},{"bike_id":"66d804a5-1cf7-4072-906e-3b4d4b298fab","system_id":"levelo_inurba_marseille","lat":43.29112,"lon":5.37551,"is_reserved":false,"is_disabled":false,"rental_uris":{"android":"levelo://app?vid=66d804a5-1cf7-4072-906e-3b4d4b298fab","ios":"levelo://app?vid=66d804a5-1cf7-4072-906e-3b4d4b298fab"},"vehicle_type_id":"4","last_reported":1759259266,"current_range_meters":6400,"station_id":"","pricing_plan_id":"cebpf4jnsgd1na2vs0mg"},{"bike_id":"ea59b303-6900-42ad-9e79-5b0f95bedd6c","system_id":"levelo_inurba_marseille","lat":43.30428,"lon":5.36867,"is_reserved":false,"is_disabled":false,"rental_uris":{"android":"levelo://app?vid=ea59b303-6900-42ad-9e79-5b0f95bedd6c","ios":"levelo://app?vid=ea59b303-6900-42ad-9e79-5b0f95bedd6c"},"vehicle_type_id":"4","last_reported":1759259266,"current_range_meters":6400,"station_id":"","pricing_plan_id":"cebpf4jnsgd1na2vs0mg"},{"bike_id":"9eb1667e-2aa0-4214-84fe-b0042da0e60f","system_id":"levelo_inurba_marseille","lat":43.270544,"lon":5.402576,"is_reserved":false,"is_disabled":false,"rental_uris":{"android":"levelo://app?vid=9eb1667e-2aa0-4214-84fe-b0042da0e60f","ios":"levelo://app?vid=9eb1667e-2aa0-4214-84fe-b0042da0e60f"},"vehicle_type_id":"4","last_reported":1759259266,"current_range_meters":6400,"station_id":"ce4bhk92rcd13ifvqgc0","pricing_plan_id":"cebpf4jnsgd1na2vs0mg"},{"bike_id":"fe5c6b0f-8a08-4625-bb20-66ccbe64ddc7","system_id":"levelo_inurba_marseille","lat":43.264832,"lon":5.395492,"is_reserved":false,"is_disabled":false,"rental_uris":{"android":"levelo://app?vid=fe5c6b0f-8a08-4625-bb20-66ccbe64ddc7","ios":"levelo://app?vid=fe5c6b0f-8a08-4625-bb20-66ccbe64ddc7"},"vehicle_type_id":"4","last_reported":1759259266,"current_range_meters":6400,"station_id":"ce4bhi12rcd13ifvqfq0","pricing_plan_id":"cebpf4jnsgd1na2vs0mg"},{"bike_id":"13a7417e-df48-4ba9-9f0c-f79c7e7f6287","system_id":"levelo_inurba_marseille","lat":43.25714,"lon":5.41118,"is_reserved":false,"is_disabled":false,"rental_uris":{"android":"levelo://app?vid=13a7417e-df48-4ba9-9f0c-f79c7e7f6287","ios":"levelo://app?vid=13a7417e-df48-4ba9-9f0c-f79c7e7f6287"},"vehicle_type_id":"4","last_reported":1759259266,"current_range_meters":6400,"station_id":"ce4bhkp2rcd13ifvqgd0","pricing_plan_id":"cebpf4jnsgd1na2vs0mg"},{"bike_id":"d8b5823c-6fc3-4e72-bfee-391ff20c5250","system_id":"levelo_inurba_marseille","lat":43.29256,"lon":5.37628,"is_reserved":false,"is_disabled":false,"rental_uris":{"android":"levelo://app?vid=d8b5823c-6fc3-4e72-bfee-391ff20c5250","ios":"levelo://app?vid=d8b5823c-6fc3-4e72-bfee-391ff20c5250"},"vehicle_type_id":"4","last_reported":1759259266,"current_range_meters":6400,"station_id":"ce4bgi12rcd13ifvqb80","pricing_plan_id":"cebpf4jnsgd1na2vs0mg"},{"bike_id":"ce5e157e-4ef2-4c41-9b3b-54d3eecbfa45","system_id":"levelo_inurba_marseille","lat":43.2251,"lon":5.34839,"is_reserved":false,"is_disabled":false,"rental_uris":{"android":"levelo://app?vid=ce5e157e-4ef2-4c41-9b3b-54d3eecbfa45","ios":"levelo://app?vid=ce5e157e-4ef2-4c41-9b3b-54d3eecbfa45"},"vehicle_type_id":"4","last_reported":1759259266,"current_range_meters":6400,"station_id":"","pricing_plan_id":"cebpf4jnsgd1na2vs0mg"},{"bike_id":"b2cd5dcb-ad30-47a8-8292-f5650f4baad0","system_id":"levelo_inurba_marseille","lat":43.285726,"lon":5.39499,"is_reserved":false,"is_disabled":false,"rental_uris":{"android":"levelo://app?vid=b2cd5dcb-ad30-47a8-8292-f5650f4baad0","ios":"levelo://app?vid=b2cd5dcb-ad30-47a8-8292-f5650f4baad0"},"vehicle_type_id":"4","last_reported":1759259266,"current_range_meters":6800,"station_id":"ce4bh292rcd13ifvqdg0","pricing_plan_id":"cebpf4jnsgd1na2vs0mg"},{"bike_id":"0b4ea7a0-e32c-4e17-bc4d-fea95a83720b","system_id":"levelo_inurba_marseille","lat":43.25121,"lon":5.40318,"is_reserved":false,"is_disabled":false,"rental_uris":{"android":"levelo://app?vid=0b4ea7a0-e32c-4e17-bc4d-fea95a83720b","ios":"levelo://app?vid=0b4ea7a0-e32c-4e17-bc4d-fea95a83720b"},"vehicle_type_id":"4","last_reported":1759259266,"current_range_meters":6800,"station_id":"ce4bhlh2rcd13ifvqgig","pricing_plan_id":"cebpf4jnsgd1na2vs0mg"},{"bike_id":"e70657c2-180e-4d68-abc8-edcd3843d52f","system_id":"levelo_inurba_marseille","lat":43.28486,"lon":5.38425,"is_reserved":false,"is_disabled":false,"rental_uris":{"android":"levelo://app?vid=e70657c2-180e-4d68-abc8-edcd3843d52f","ios":"levelo://app?vid=e70657c2-180e-4d68-abc8-edcd3843d52f"},"vehicle_type_id":"4","last_reported":1759259266,"current_range_meters":6800,"station_id":"ce4bh512rcd13ifvqe3g","pricing_plan_id":"cebpf4jnsgd1na2vs0mg"},{"bike_id":"ee96a502-9b76-492e-840a-498b02aefe72","system_id":"levelo_inurba_marseille","lat":43.32358,"lon":5.39224,"is_reserved":false,"is_disabled":false,"rental_uris":{"android":"levelo://app?vid=ee96a502-9b76-492e-840a-498b02aefe72","ios":"levelo://app?vid=ee96a502-9b76-492e-840a-498b02aefe72"},"vehicle_type_id":"4","last_reported":1759259266,"current_range_meters":6800,"station_id":"","pricing_plan_id":"cebpf4jnsgd1na2vs0mg"},{"bike_id":"86427ead-eebb-487b-a6a4-804a5def45e6","system_id":"levelo_inurba_marseille","lat":43.29528,"lon":5.38549,"is_reserved":false,"is_disabled":false,"rental_uris":{"android":"levelo://app?vid=86427ead-eebb-487b-a6a4-804a5def45e6","ios":"levelo://app?vid=86427ead-eebb-487b-a6a4-804a5def45e6"},"vehicle_type_id":"4","last_reported":1759259266,"current_range_meters":6800,"station_id":"ce4bgih2rcd13ifvqba0","pricing_plan_id":"cebpf4jnsgd1na2vs0mg"},{"bike_id":"df38c139-6f3c-499a-98cf-d726df70fe6a","system_id":"levelo_inurba_marseille","lat":43.27897,"lon":5.3803,"is_reserved":false,"is_disabled":false,"rental_uris":{"android":"levelo://app?vid=df38c139-6f3c-499a-98cf-d726df70fe6a","ios":"levelo://app?vid=df38c139-6f3c-499a-98cf-d726df70fe6a"},"vehicle_type_id":"4","last_reported":1759259266,"current_range_meters":11600,"station_id":"ce4bhf92rcd13ifvqf50","pricing_plan_id":"cebpf4jnsgd1na2vs0mg"},{"bike_id":"74b8a326-2c7b-4e6e-83d5-fffdaf8de50e","system_id":"levelo_inurba_marseille","lat":43.258653,"lon":5.398961,"is_reserved":false,"is_disabled":false,"rental_uris":{"android":"levelo://app?vid=74b8a326-2c7b-4e6e-83d5-fffdaf8de50e","ios":"levelo://app?vid=74b8a326-2c7b-4e6e-83d5-fffdaf8de50e"},"vehicle_type_id":"4","last_reported":1759259266,"current_range_meters":6800,"station_id":"ce4bhl92rcd13ifvqghg","pricing_plan_id":"cebpf4jnsgd1na2vs0mg"},{"bike_id":"7c6d2bf7-e8f7-46ad-9520-5a2fbe8afebd","system_id":"levelo_inurba_marseille","lat":43.33612,"lon":5.41033,"is_reserved":false,"is_disabled":false,"rental_uris":{"android":"levelo://app?vid=7c6d2bf7-e8f7-46ad-9520-5a2fbe8afebd","ios":"levelo://app?vid=7c6d2bf7-e8f7-46ad-9520-5a2fbe8afebd"},"vehicle_type_id":"4","last_reported":1759259266,"current_range_meters":6400,"station_id":"ce4bhqh2rcd13ifvqhmg","pricing_plan_id":"cebpf4jnsgd1na2vs0mg"},{"bike_id":"561ba216-1830-4355-aa47-17ecf6f68376","system_id":"levelo_inurba_marseille","lat":43.27825,"lon":5.39203,"is_reserved":false,"is_disabled":false,"rental_uris":{"android":"levelo://app?vid=561ba216-1830-4355-aa47-17ecf6f68376","ios":"levelo://app?vid=561ba216-1830-4355-aa47-17ecf6f68376"},"vehicle_type_id":"4","last_reported":1759259266,"current_range_meters":6400,"station_id":"ce4bhjp2rcd13ifvqga0","pricing_plan_id":"cebpf4jnsgd1na2vs0mg"},{"bike_id":"da9a94f9-08c9-4860-92b2-920e08001d67","system_id":"levelo_inurba_marseille","lat":43.2728,"lon":5.39117,"is_reserved":false,"is_disabled":false,"rental_uris":{"android":"levelo://app?vid=da9a94f9-08c9-4860-92b2-920e08001d67","ios":"levelo://app?vid=da9a94f9-08c9-4860-92b2-920e08001d67"},"vehicle_type_id":"4","last_reported":1759259266,"current_range_meters":6800,"station_id":"","pricing_plan_id":"cebpf4jnsgd1na2vs0mg"},{"bike_id":"a1eae1c7-b025-47b0-9fad-6db168d4138f","system_id":"levelo_inurba_marseille","lat":43.29533,"lon":5.38544,"is_reserved":false,"is_disabled":false,"rental_uris":{"android":"levelo://app?vid=a1eae1c7-b025-47b0-9fad-6db168d4138f","ios":"levelo://app?vid=a1eae1c7-b025-47b0-9fad-6db168d4138f"},"vehicle_type_id":"4","last_reported":1759259266,"current_range_meters":7200,"station_id":"ce4bgih2rcd13ifvqba0","pricing_plan_id":"cebpf4jnsgd1na2vs0mg"},{"bike_id":"7e0bc3ae-d0b8-44a2-aa98-c5acb4befd60","system_id":"levelo_inurba_marseille","lat":43.25718,"lon":5.41111,"is_reserved":false,"is_disabled":false,"rental_uris":{"android":"levelo://app?vid=7e0bc3ae-d0b8-44a2-aa98-c5acb4befd60","ios":"levelo://app?vid=7e0bc3ae-d0b8-44a2-aa98-c5acb4befd60"},"vehicle_type_id":"4","last_reported":1759259266,"current_range_meters":7200,"station_id":"ce4bhkp2rcd13ifvqgd0","pricing_plan_id":"cebpf4jnsgd1na2vs0mg"},{"bike_id":"c9f7c894-4df2-4643-ac68-955fcc67beeb","system_id":"levelo_inurba_marseille","lat":43.279934,"lon":5.416628,"is_reserved":false,"is_disabled":true,"rental_uris":{"android":"levelo://app?vid=c9f7c894-4df2-4643-ac68-955fcc67beeb","ios":"levelo://app?vid=c9f7c894-4df2-4643-ac68-955fcc67beeb"},"vehicle_type_id":"4","last_reported":1759259266,"current_range_meters":7200,"station_id":"ce4bho12rcd13ifvqh1g","pricing_plan_id":"cebpf4jnsgd1na2vs0mg"},{"bike_id":"66abdaf1-5600-474a-bc24-2e74d9709195","system_id":"levelo_inurba_marseille","lat":43.267843,"lon":5.394222,"is_reserved":false,"is_disabled":false,"rental_uris":{"android":"levelo://app?vid=66abdaf1-5600-474a-bc24-2e74d9709195","ios":"levelo://app?vid=66abdaf1-5600-474a-bc24-2e74d9709195"},"vehicle_type_id":"4","last_reported":1759259266,"current_range_meters":7200,"station_id":"ce4bhh12rcd13ifvqfg0","pricing_plan_id":"cebpf4jnsgd1na2vs0mg"},{"bike_id":"8d4fb68b-56b8-4219-9837-0eb2637666a3","system_id":"levelo_inurba_marseille","lat":43.32101,"lon":5.36781,"is_reserved":false,"is_disabled":false,"rental_uris":{"android":"levelo://app?vid=8d4fb68b-56b8-4219-9837-0eb2637666a3","ios":"levelo://app?vid=8d4fb68b-56b8-4219-9837-0eb2637666a3"},"vehicle_type_id":"4","last_reported":1759259266,"current_range_meters":7200,"station_id":"ce4bhrh2rcd13ifvqhug","pricing_plan_id":"cebpf4jnsgd1na2vs0mg"},{"bike_id":"ab5dd55c-4421-41d3-a121-56ccf577134f","system_id":"levelo_inurba_marseille","lat":43.2808,"lon":5.39661,"is_reserved":false,"is_disabled":false,"rental_uris":{"android":"levelo://app?vid=ab5dd55c-4421-41d3-a121-56ccf577134f","ios":"levelo://app?vid=ab5dd55c-4421-41d3-a121-56ccf577134f"},"vehicle_type_id":"4","last_reported":1759259266,"current_range_meters":4000,"station_id":"ce4bho12rcd13ifvqh2g","pricing_plan_id":"cebpf4jnsgd1na2vs0mg"},{"bike_id":"9c4235da-d3d0-4056-aa6b-c6aa6e8e7367","system_id":"levelo_inurba_marseille","lat":43.30677,"lon":5.37494,"is_reserved":false,"is_disabled":false,"rental_uris":{"android":"levelo://app?vid=9c4235da-d3d0-4056-aa6b-c6aa6e8e7367","ios":"levelo://app?vid=9c4235da-d3d0-4056-aa6b-c6aa6e8e7367"},"vehicle_type_id":"4","last_reported":1759259266,"current_range_meters":7200,"station_id":"","pricing_plan_id":"cebpf4jnsgd1na2vs0mg"},{"bike_id":"ccc07bd2-3fc1-4017-b977-cb3f01b9b1ec","system_id":"levelo_inurba_marseille","lat":43.33607,"lon":5.41038,"is_reserved":false,"is_disabled":false,"rental_uris":{"android":"levelo://app?vid=ccc07bd2-3fc1-4017-b977-cb3f01b9b1ec","ios":"levelo://app?vid=ccc07bd2-3fc1-4017-b977-cb3f01b9b1ec"},"vehicle_type_id":"4","last_reported":1759259266,"current_range_meters":7200,"station_id":"ce4bhqh2rcd13ifvqhmg","pricing_plan_id":"cebpf4jnsgd1na2vs0mg"},{"bike_id":"a07a513e-e5a9-4481-8592-d991379bc662","system_id":"levelo_inurba_marseille","lat":43.33735,"lon":5.37481,"is_reserved":false,"is_disabled":false,"rental_uris":{"android":"levelo://app?vid=a07a513e-e5a9-4481-8592-d991379bc662","ios":"levelo://app?vid=a07a513e-e5a9-4481-8592-d991379bc662"},"vehicle_type_id":"4","last_reported":1759259266,"current_range_meters":7200,"station_id":"","pricing_plan_id":"cebpf4jnsgd1na2vs0mg"},{"bike_id":"b005e635-a354-4c15-a299-c66768bb47a3","system_id":"levelo_inurba_marseille","lat":43.231883,"lon":5.399809,"is_reserved":false,"is_disabled":false,"rental_uris":{"android":"levelo://app?vid=b005e635-a354-4c15-a299-c66768bb47a3","ios":"levelo://app?vid=b005e635-a354-4c15-a299-c66768bb47a3"},"vehicle_type_id":"4","last_reported":1759259266,"current_range_meters":8000,"station_id":"ce4bhn12rcd13ifvqgqg","pricing_plan_id":"cebpf4jnsgd1na2vs0mg"},{"bike_id":"99e6f982-d16b-45ac-9a39-5806d47bebbb","system_id":"levelo_inurba_marseille","lat":43.30322,"lon":5.36905,"is_reserved":false,"is_disabled":false,"rental_uris":{"android":"levelo://app?vid=99e6f982-d16b-45ac-9a39-5806d47bebbb","ios":"levelo://app?vid=99e6f982-d16b-45ac-9a39-5806d47bebbb"},"vehicle_type_id":"4","last_reported":1759259266,"current_range_meters":8000,"station_id":"ce4bgqh2rcd13ifvqc5g","pricing_plan_id":"cebpf4jnsgd1na2vs0mg"},{"bike_id":"1080f232-cfe6-45fd-8cc3-307c1c10dadd","system_id":"levelo_inurba_marseille","lat":43.27314,"lon":5.390771,"is_reserved":false,"is_disabled":true,"rental_uris":{"android":"levelo://app?vid=1080f232-cfe6-45fd-8cc3-307c1c10dadd","ios":"levelo://app?vid=1080f232-cfe6-45fd-8cc3-307c1c10dadd"},"vehicle_type_id":"4","last_reported":1759259266,"current_range_meters":8000,"station_id":"","pricing_plan_id":"cebpf4jnsgd1na2vs0mg"},{"bike_id":"dd5e8987-9f51-4f50-bdd1-4945b8c8a574","system_id":"levelo_inurba_marseille","lat":43.25572,"lon":5.38239,"is_reserved":false,"is_disabled":true,"rental_uris":{"android":"levelo://app?vid=dd5e8987-9f51-4f50-bdd1-4945b8c8a574","ios":"levelo://app?vid=dd5e8987-9f51-4f50-bdd1-4945b8c8a574"},"vehicle_type_id":"4","last_reported":1759259266,"current_range_meters":8000,"station_id":"ce4bhih2rcd13ifvqfs0","pricing_plan_id":"cebpf4jnsgd1na2vs0mg"},{"bike_id":"12d4dcdf-fc4c-4345-8953-6b0aed27bb63","system_id":"levelo_inurba_marseille","lat":43.291799,"lon":5.388421,"is_reserved":false,"is_disabled":false,"rental_uris":{"android":"levelo://app?vid=12d4dcdf-fc4c-4345-8953-6b0aed27bb63","ios":"levelo://app?vid=12d4dcdf-fc4c-4345-8953-6b0aed27bb63"},"vehicle_type_id":"4","last_reported":1759259266,"current_range_meters":8000,"station_id":"","pricing_plan_id":"cebpf4jnsgd1na2vs0mg"},{"bike_id":"03273f8e-8506-4e67-ad0a-92ab793f3f83","system_id":"levelo_inurba_marseille","lat":43.2894,"lon":5.39627,"is_reserved":false,"is_disabled":false,"rental_uris":{"android":"levelo://app?vid=03273f8e-8506-4e67-ad0a-92ab793f3f83","ios":"levelo://app?vid=03273f8e-8506-4e67-ad0a-92ab793f3f83"},"vehicle_type_id":"4","last_reported":1759259266,"current_range_meters":7200,"station_id":"ce4bh3h2rcd13ifvqdn0","pricing_plan_id":"cebpf4jnsgd1na2vs0mg"},{"bike_id":"48a38591-5e60-41ec-9cf7-83ae1bbd2e8f","system_id":"levelo_inurba_marseille","lat":43.28718,"lon":5.361,"is_reserved":false,"is_disabled":false,"rental_uris":{"android":"levelo://app?vid=48a38591-5e60-41ec-9cf7-83ae1bbd2e8f","ios":"levelo://app?vid=48a38591-5e60-41ec-9cf7-83ae1bbd2e8f"},"vehicle_type_id":"4","last_reported":1759259266,"current_range_meters":8000,"station_id":"cki0cbj6b192h4jlfktg","pricing_plan_id":"cebpf4jnsgd1na2vs0mg"},{"bike_id":"6e6fcd10-3b94-43c9-af49-3a6a254e129a","system_id":"levelo_inurba_marseille","lat":43.29597,"lon":5.38138,"is_reserved":false,"is_disabled":false,"rental_uris":{"android":"levelo://app?vid=6e6fcd10-3b94-43c9-af49-3a6a254e129a","ios":"levelo://app?vid=6e6fcd10-3b94-43c9-af49-3a6a254e129a"},"vehicle_type_id":"4","last_reported":1759259266,"current_range_meters":8000,"station_id":"ce4bgl12rcd13ifvqbo0","pricing_plan_id":"cebpf4jnsgd1na2vs0mg"},{"bike_id":"14c43ad0-bcaa-4cf5-907c-36bb3010dde2","system_id":"levelo_inurba_marseille","lat":43.2407,"lon":5.37764,"is_reserved":false,"is_disabled":false,"rental_uris":{"android":"levelo://app?vid=14c43ad0-bcaa-4cf5-907c-36bb3010dde2","ios":"levelo://app?vid=14c43ad0-bcaa-4cf5-907c-36bb3010dde2"},"vehicle_type_id":"4","last_reported":1759259266,"current_range_meters":8000,"station_id":"ce4bhnp2rcd13ifvqgvg","pricing_plan_id":"cebpf4jnsgd1na2vs0mg"},{"bike_id":"a2b889f9-ffe3-4f56-ba50-e39614151ce6","system_id":"levelo_inurba_marseille","lat":43.29854,"lon":5.363,"is_reserved":false,"is_disabled":true,"rental_uris":{"android":"levelo://app?vid=a2b889f9-ffe3-4f56-ba50-e39614151ce6","ios":"levelo://app?vid=a2b889f9-ffe3-4f56-ba50-e39614151ce6"},"vehicle_type_id":"4","last_reported":1759259266,"current_range_meters":8000,"station_id":"ce4bgpp2rcd13ifvqc3g","pricing_plan_id":"cebpf4jnsgd1na2vs0mg"},{"bike_id":"fe1fdbb6-2545-46fd-ad68-74140ad8ded1","system_id":"levelo_inurba_marseille","lat":43.26938,"lon":5.40255,"is_reserved":false,"is_disabled":false,"rental_uris":{"android":"levelo://app?vid=fe1fdbb6-2545-46fd-ad68-74140ad8ded1","ios":"levelo://app?vid=fe1fdbb6-2545-46fd-ad68-74140ad8ded1"},"vehicle_type_id":"4","last_reported":1759259266,"current_range_meters":8000,"station_id":"cjm6bp8fraef2m0cb0m0","pricing_plan_id":"cebpf4jnsgd1na2vs0mg"},{"bike_id":"09fa9f6b-c6c6-488c-8d1b-457a763311e1","system_id":"levelo_inurba_marseille","lat":43.268,"lon":5.39466,"is_reserved":false,"is_disabled":false,"rental_uris":{"android":"levelo://app?vid=09fa9f6b-c6c6-488c-8d1b-457a763311e1","ios":"levelo://app?vid=09fa9f6b-c6c6-488c-8d1b-457a763311e1"},"vehicle_type_id":"4","last_reported":1759259266,"current_range_meters":8400,"station_id":"","pricing_plan_id":"cebpf4jnsgd1na2vs0mg"},{"bike_id":"b4aa5d4b-058b-44b1-9949-d0ead18d4e4c","system_id":"levelo_inurba_marseille","lat":43.23955,"lon":5.36647,"is_reserved":false,"is_disabled":false,"rental_uris":{"android":"levelo://app?vid=b4aa5d4b-058b-44b1-9949-d0ead18d4e4c","ios":"levelo://app?vid=b4aa5d4b-058b-44b1-9949-d0ead18d4e4c"},"vehicle_type_id":"4","last_reported":1759259266,"current_range_meters":8400,"station_id":"ce4bhi12rcd13ifvqfp0","pricing_plan_id":"cebpf4jnsgd1na2vs0mg"},{"bike_id":"2ecd73a0-ac18-4d30-9acc-6dc8479911c2","system_id":"levelo_inurba_marseille","lat":43.25104,"lon":5.40315,"is_reserved":false,"is_disabled":false,"rental_uris":{"android":"levelo://app?vid=2ecd73a0-ac18-4d30-9acc-6dc8479911c2","ios":"levelo://app?vid=2ecd73a0-ac18-4d30-9acc-6dc8479911c2"},"vehicle_type_id":"4","last_reported":1759259266,"current_range_meters":8000,"station_id":"ce4bhlh2rcd13ifvqgig","pricing_plan_id":"cebpf4jnsgd1na2vs0mg"},{"bike_id":"8741ee72-5f1e-41e2-9023-cb2450677a17","system_id":"levelo_inurba_marseille","lat":43.26827,"lon":5.40242,"is_reserved":false,"is_disabled":false,"rental_uris":{"android":"levelo://app?vid=8741ee72-5f1e-41e2-9023-cb2450677a17","ios":"levelo://app?vid=8741ee72-5f1e-41e2-9023-cb2450677a17"},"vehicle_type_id":"4","last_reported":1759259266,"current_range_meters":8400,"station_id":"ce501612rcd8frsf0b60","pricing_plan_id":"cebpf4jnsgd1na2vs0mg"},{"bike_id":"fa7b8d5d-cda7-4720-9ca3-21b0406e462a","system_id":"levelo_inurba_marseille","lat":43.295248,"lon":5.37505,"is_reserved":false,"is_disabled":false,"rental_uris":{"android":"levelo://app?vid=fa7b8d5d-cda7-4720-9ca3-21b0406e462a","ios":"levelo://app?vid=fa7b8d5d-cda7-4720-9ca3-21b0406e462a"},"vehicle_type_id":"4","last_reported":1759259266,"current_range_meters":8400,"station_id":"","pricing_plan_id":"cebpf4jnsgd1na2vs0mg"},{"bike_id":"bb95ae41-7836-4bab-96e7-9d4d4783547f","system_id":"levelo_inurba_marseille","lat":43.31302,"lon":5.38524,"is_reserved":false,"is_disabled":false,"rental_uris":{"android":"levelo://app?vid=bb95ae41-7836-4bab-96e7-9d4d4783547f","ios":"levelo://app?vid=bb95ae41-7836-4bab-96e7-9d4d4783547f"},"vehicle_type_id":"4","last_reported":1759259266,"current_range_meters":8000,"station_id":"ce4bgt92rcd13ifvqcf0","pricing_plan_id":"cebpf4jnsgd1na2vs0mg"},{"bike_id":"1824d1a5-6abf-47b2-ac81-0e442779e954","system_id":"levelo_inurba_marseille","lat":43.28041,"lon":5.36956,"is_reserved":false,"is_disabled":true,"rental_uris":{"android":"levelo://app?vid=1824d1a5-6abf-47b2-ac81-0e442779e954","ios":"levelo://app?vid=1824d1a5-6abf-47b2-ac81-0e442779e954"},"vehicle_type_id":"4","last_reported":1759259266,"current_range_meters":8400,"station_id":"ce4bha12rcd13ifvqef0","pricing_plan_id":"cebpf4jnsgd1na2vs0mg"},{"bike_id":"06b132f1-bd40-4c4d-8adc-c70fbb4f77a7","system_id":"levelo_inurba_marseille","lat":43.2978,"lon":5.38109,"is_reserved":false,"is_disabled":false,"rental_uris":{"android":"levelo://app?vid=06b132f1-bd40-4c4d-8adc-c70fbb4f77a7","ios":"levelo://app?vid=06b132f1-bd40-4c4d-8adc-c70fbb4f77a7"},"vehicle_type_id":"4","last_reported":1759259266,"current_range_meters":8400,"station_id":"ce4bgip2rcd13ifvqbb0","pricing_plan_id":"cebpf4jnsgd1na2vs0mg"},{"bike_id":"c627b34a-8e81-4438-af3b-4fd0aab1c160","system_id":"levelo_inurba_marseille","lat":43.2967,"lon":5.36008,"is_reserved":false,"is_disabled":false,"rental_uris":{"android":"levelo://app?vid=c627b34a-8e81-4438-af3b-4fd0aab1c160","ios":"levelo://app?vid=c627b34a-8e81-4438-af3b-4fd0aab1c160"},"vehicle_type_id":"4","last_reported":1759259266,"current_range_meters":8400,"station_id":"","pricing_plan_id":"cebpf4jnsgd1na2vs0mg"},{"bike_id":"b3aac7b4-0ed6-4ddc-9d19-ef755d070cd4","system_id":"levelo_inurba_marseille","lat":43.308026,"lon":5.435257,"is_reserved":false,"is_disabled":false,"rental_uris":{"android":"levelo://app?vid=b3aac7b4-0ed6-4ddc-9d19-ef755d070cd4","ios":"levelo://app?vid=b3aac7b4-0ed6-4ddc-9d19-ef755d070cd4"},"vehicle_type_id":"4","last_reported":1759259266,"current_range_meters":8400,"station_id":"ce4bhph2rcd13ifvqheg","pricing_plan_id":"cebpf4jnsgd1na2vs0mg"},{"bike_id":"ee5c290f-a7bd-4d90-9d69-d73a32b59c81","system_id":"levelo_inurba_marseille","lat":43.27063,"lon":5.40262,"is_reserved":false,"is_disabled":false,"rental_uris":{"android":"levelo://app?vid=ee5c290f-a7bd-4d90-9d69-d73a32b59c81","ios":"levelo://app?vid=ee5c290f-a7bd-4d90-9d69-d73a32b59c81"},"vehicle_type_id":"4","last_reported":1759259266,"current_range_meters":8800,"station_id":"ce4bhk92rcd13ifvqgc0","pricing_plan_id":"cebpf4jnsgd1na2vs0mg"},{"bike_id":"5f8245c1-d6d3-4e20-af8e-6d792fdc04ce","system_id":"levelo_inurba_marseille","lat":43.29858,"lon":5.4561,"is_reserved":false,"is_disabled":false,"rental_uris":{"android":"levelo://app?vid=5f8245c1-d6d3-4e20-af8e-6d792fdc04ce","ios":"levelo://app?vid=5f8245c1-d6d3-4e20-af8e-6d792fdc04ce"},"vehicle_type_id":"4","last_reported":1759259266,"current_range_meters":8800,"station_id":"","pricing_plan_id":"cebpf4jnsgd1na2vs0mg"},{"bike_id":"ab31d2bf-fbb0-46fd-8cb9-28b70accdea8","system_id":"levelo_inurba_marseille","lat":43.28038,"lon":5.36946,"is_reserved":false,"is_disabled":false,"rental_uris":{"android":"levelo://app?vid=ab31d2bf-fbb0-46fd-8cb9-28b70accdea8","ios":"levelo://app?vid=ab31d2bf-fbb0-46fd-8cb9-28b70accdea8"},"vehicle_type_id":"4","last_reported":1759259266,"current_range_meters":8800,"station_id":"ce4bha12rcd13ifvqef0","pricing_plan_id":"cebpf4jnsgd1na2vs0mg"},{"bike_id":"0662e5ec-17b3-4da7-8ffc-903097426f9d","system_id":"levelo_inurba_marseille","lat":43.317101,"lon":5.437129,"is_reserved":false,"is_disabled":false,"rental_uris":{"android":"levelo://app?vid=0662e5ec-17b3-4da7-8ffc-903097426f9d","ios":"levelo://app?vid=0662e5ec-17b3-4da7-8ffc-903097426f9d"},"vehicle_type_id":"4","last_reported":1759259266,"current_range_meters":8800,"station_id":"ce4bhp92rcd13ifvqhcg","pricing_plan_id":"cebpf4jnsgd1na2vs0mg"},{"bike_id":"d70d7700-77ea-4a05-bea8-762b940361d0","system_id":"levelo_inurba_marseille","lat":43.27442,"lon":5.39396,"is_reserved":false,"is_disabled":false,"rental_uris":{"android":"levelo://app?vid=d70d7700-77ea-4a05-bea8-762b940361d0","ios":"levelo://app?vid=d70d7700-77ea-4a05-bea8-762b940361d0"},"vehicle_type_id":"4","last_reported":1759259266,"current_range_meters":8800,"station_id":"ce4bhdp2rcd13ifvqf20","pricing_plan_id":"cebpf4jnsgd1na2vs0mg"},{"bike_id":"1107dd58-8f76-4e49-8038-c5cb0c7d06f4","system_id":"levelo_inurba_marseille","lat":43.29521,"lon":5.38543,"is_reserved":false,"is_disabled":false,"rental_uris":{"android":"levelo://app?vid=1107dd58-8f76-4e49-8038-c5cb0c7d06f4","ios":"levelo://app?vid=1107dd58-8f76-4e49-8038-c5cb0c7d06f4"},"vehicle_type_id":"4","last_reported":1759259266,"current_range_meters":8800,"station_id":"ce4bgih2rcd13ifvqba0","pricing_plan_id":"cebpf4jnsgd1na2vs0mg"},{"bike_id":"b0a55dbd-00cb-4e32-9f67-80da0149ce79","system_id":"levelo_inurba_marseille","lat":43.29261,"lon":5.38445,"is_reserved":false,"is_disabled":false,"rental_uris":{"android":"levelo://app?vid=b0a55dbd-00cb-4e32-9f67-80da0149ce79","ios":"levelo://app?vid=b0a55dbd-00cb-4e32-9f67-80da0149ce79"},"vehicle_type_id":"4","last_reported":1759259266,"current_range_meters":8800,"station_id":"ce4bh692rcd13ifvqea0","pricing_plan_id":"cebpf4jnsgd1na2vs0mg"},{"bike_id":"498de633-1978-409b-aa35-b617d56ba506","system_id":"levelo_inurba_marseille","lat":43.289401,"lon":5.366452,"is_reserved":false,"is_disabled":false,"rental_uris":{"android":"levelo://app?vid=498de633-1978-409b-aa35-b617d56ba506","ios":"levelo://app?vid=498de633-1978-409b-aa35-b617d56ba506"},"vehicle_type_id":"4","last_reported":1759259266,"current_range_meters":8800,"station_id":"ce4bhap2rcd13ifvqek0","pricing_plan_id":"cebpf4jnsgd1na2vs0mg"},{"bike_id":"ceb5cc44-3047-48f4-a33f-03e19208b97d","system_id":"levelo_inurba_marseille","lat":43.30635,"lon":5.40078,"is_reserved":false,"is_disabled":false,"rental_uris":{"android":"levelo://app?vid=ceb5cc44-3047-48f4-a33f-03e19208b97d","ios":"levelo://app?vid=ceb5cc44-3047-48f4-a33f-03e19208b97d"},"vehicle_type_id":"4","last_reported":1759259266,"current_range_meters":8400,"station_id":"ce4bh112rcd13ifvqda0","pricing_plan_id":"cebpf4jnsgd1na2vs0mg"},{"bike_id":"8367de2b-79fa-4ebe-84a2-157e37b17ea0","system_id":"levelo_inurba_marseille","lat":43.281106,"lon":5.378398,"is_reserved":false,"is_disabled":false,"rental_uris":{"android":"levelo://app?vid=8367de2b-79fa-4ebe-84a2-157e37b17ea0","ios":"levelo://app?vid=8367de2b-79fa-4ebe-84a2-157e37b17ea0"},"vehicle_type_id":"4","last_reported":1759259266,"current_range_meters":8800,"station_id":"ce4bha12rcd13ifvqee0","pricing_plan_id":"cebpf4jnsgd1na2vs0mg"},{"bike_id":"9b7e8760-05ee-4454-bdc4-885b497171b3","system_id":"levelo_inurba_marseille","lat":43.28467,"lon":5.35897,"is_reserved":false,"is_disabled":false,"rental_uris":{"android":"levelo://app?vid=9b7e8760-05ee-4454-bdc4-885b497171b3","ios":"levelo://app?vid=9b7e8760-05ee-4454-bdc4-885b497171b3"},"vehicle_type_id":"4","last_reported":1759259266,"current_range_meters":8800,"station_id":"ce4bhah2rcd13ifvqei0","pricing_plan_id":"cebpf4jnsgd1na2vs0mg"},{"bike_id":"aebf0e68-ba27-412a-9ce2-11cc42127dee","system_id":"levelo_inurba_marseille","lat":43.337444,"lon":5.374475,"is_reserved":false,"is_disabled":false,"rental_uris":{"android":"levelo://app?vid=aebf0e68-ba27-412a-9ce2-11cc42127dee","ios":"levelo://app?vid=aebf0e68-ba27-412a-9ce2-11cc42127dee"},"vehicle_type_id":"4","last_reported":1759259266,"current_range_meters":8800,"station_id":"","pricing_plan_id":"cebpf4jnsgd1na2vs0mg"},{"bike_id":"fd27cbda-c482-4a91-bf05-14fb1bc2b211","system_id":"levelo_inurba_marseille","lat":43.31756,"lon":5.39014,"is_reserved":false,"is_disabled":false,"rental_uris":{"android":"levelo://app?vid=fd27cbda-c482-4a91-bf05-14fb1bc2b211","ios":"levelo://app?vid=fd27cbda-c482-4a91-bf05-14fb1bc2b211"},"vehicle_type_id":"4","last_reported":1759259266,"current_range_meters":9200,"station_id":"ce4bhqp2rcd13ifvqhng","pricing_plan_id":"cebpf4jnsgd1na2vs0mg"},{"bike_id":"88286150-8232-4f59-87fb-cbed74d46ee0","system_id":"levelo_inurba_marseille","lat":43.29538,"lon":5.38543,"is_reserved":false,"is_disabled":false,"rental_uris":{"android":"levelo://app?vid=88286150-8232-4f59-87fb-cbed74d46ee0","ios":"levelo://app?vid=88286150-8232-4f59-87fb-cbed74d46ee0"},"vehicle_type_id":"4","last_reported":1759259266,"current_range_meters":9200,"station_id":"ce4bgih2rcd13ifvqba0","pricing_plan_id":"cebpf4jnsgd1na2vs0mg"},{"bike_id":"24d7b9c3-c191-48ff-9797-7d7120ea360c","system_id":"levelo_inurba_marseille","lat":43.26567,"lon":5.40323,"is_reserved":false,"is_disabled":false,"rental_uris":{"android":"levelo://app?vid=24d7b9c3-c191-48ff-9797-7d7120ea360c","ios":"levelo://app?vid=24d7b9c3-c191-48ff-9797-7d7120ea360c"},"vehicle_type_id":"4","last_reported":1759259266,"current_range_meters":9200,"station_id":"ce4bhmp2rcd13ifvqgng","pricing_plan_id":"cebpf4jnsgd1na2vs0mg"},{"bike_id":"b6b21c1d-ffd4-41eb-9ef5-5df84936a5f1","system_id":"levelo_inurba_marseille","lat":43.28418,"lon":5.37509,"is_reserved":false,"is_disabled":false,"rental_uris":{"android":"levelo://app?vid=b6b21c1d-ffd4-41eb-9ef5-5df84936a5f1","ios":"levelo://app?vid=b6b21c1d-ffd4-41eb-9ef5-5df84936a5f1"},"vehicle_type_id":"4","last_reported":1759259266,"current_range_meters":9200,"station_id":"ce4bh412rcd13ifvqds0","pricing_plan_id":"cebpf4jnsgd1na2vs0mg"},{"bike_id":"8c5220de-0485-4b73-bb43-c689a4dae3a5","system_id":"levelo_inurba_marseille","lat":43.25086,"lon":5.39507,"is_reserved":false,"is_disabled":false,"rental_uris":{"android":"levelo://app?vid=8c5220de-0485-4b73-bb43-c689a4dae3a5","ios":"levelo://app?vid=8c5220de-0485-4b73-bb43-c689a4dae3a5"},"vehicle_type_id":"4","last_reported":1759259266,"current_range_meters":9200,"station_id":"ce4bhm12rcd13ifvqgkg","pricing_plan_id":"cebpf4jnsgd1na2vs0mg"},{"bike_id":"c96ff4bf-2640-4930-87c9-d80a1fbc399f","system_id":"levelo_inurba_marseille","lat":43.29197,"lon":5.39323,"is_reserved":false,"is_disabled":false,"rental_uris":{"android":"levelo://app?vid=c96ff4bf-2640-4930-87c9-d80a1fbc399f","ios":"levelo://app?vid=c96ff4bf-2640-4930-87c9-d80a1fbc399f"},"vehicle_type_id":"4","last_reported":1759259266,"current_range_meters":9200,"station_id":"ce4bh192rcd13ifvqdd0","pricing_plan_id":"cebpf4jnsgd1na2vs0mg"},{"bike_id":"56d6a008-a903-4bd5-8ee3-1cec5d05c634","system_id":"levelo_inurba_marseille","lat":43.31749,"lon":5.39024,"is_reserved":false,"is_disabled":true,"rental_uris":{"android":"levelo://app?vid=56d6a008-a903-4bd5-8ee3-1cec5d05c634","ios":"levelo://app?vid=56d6a008-a903-4bd5-8ee3-1cec5d05c634"},"vehicle_type_id":"4","last_reported":1759259266,"current_range_meters":9200,"station_id":"ce4bhqp2rcd13ifvqhng","pricing_plan_id":"cebpf4jnsgd1na2vs0mg"},{"bike_id":"64bd8f85-d2ec-4a2c-9683-ed3dded7f90c","system_id":"levelo_inurba_marseille","lat":43.27431,"lon":5.39405,"is_reserved":false,"is_disabled":false,"rental_uris":{"android":"levelo://app?vid=64bd8f85-d2ec-4a2c-9683-ed3dded7f90c","ios":"levelo://app?vid=64bd8f85-d2ec-4a2c-9683-ed3dded7f90c"},"vehicle_type_id":"4","last_reported":1759259266,"current_range_meters":9200,"station_id":"ce4bhdp2rcd13ifvqf20","pricing_plan_id":"cebpf4jnsgd1na2vs0mg"},{"bike_id":"d4e3efe4-ac34-46e7-864d-7cbb5b668a20","system_id":"levelo_inurba_marseille","lat":43.23963,"lon":5.3663,"is_reserved":false,"is_disabled":false,"rental_uris":{"android":"levelo://app?vid=d4e3efe4-ac34-46e7-864d-7cbb5b668a20","ios":"levelo://app?vid=d4e3efe4-ac34-46e7-864d-7cbb5b668a20"},"vehicle_type_id":"4","last_reported":1759259266,"current_range_meters":9200,"station_id":"ce4bhi12rcd13ifvqfp0","pricing_plan_id":"cebpf4jnsgd1na2vs0mg"},{"bike_id":"b2830d42-5bda-4dc5-8bb4-84d6bd2f095a","system_id":"levelo_inurba_marseille","lat":43.26919,"lon":5.40309,"is_reserved":false,"is_disabled":false,"rental_uris":{"android":"levelo://app?vid=b2830d42-5bda-4dc5-8bb4-84d6bd2f095a","ios":"levelo://app?vid=b2830d42-5bda-4dc5-8bb4-84d6bd2f095a"},"vehicle_type_id":"4","last_reported":1759259266,"current_range_meters":9200,"station_id":"","pricing_plan_id":"cebpf4jnsgd1na2vs0mg"},{"bike_id":"ade3de2c-9f67-4251-9159-fc657f5f400b","system_id":"levelo_inurba_marseille","lat":43.28081,"lon":5.39658,"is_reserved":false,"is_disabled":false,"rental_uris":{"android":"levelo://app?vid=ade3de2c-9f67-4251-9159-fc657f5f400b","ios":"levelo://app?vid=ade3de2c-9f67-4251-9159-fc657f5f400b"},"vehicle_type_id":"4","last_reported":1759259266,"current_range_meters":10000,"station_id":"ce4bho12rcd13ifvqh2g","pricing_plan_id":"cebpf4jnsgd1na2vs0mg"},{"bike_id":"400a13d3-2dcc-4b4f-91a1-3b839b24ea7d","system_id":"levelo_inurba_marseille","lat":43.28608,"lon":5.39175,"is_reserved":false,"is_disabled":false,"rental_uris":{"android":"levelo://app?vid=400a13d3-2dcc-4b4f-91a1-3b839b24ea7d","ios":"levelo://app?vid=400a13d3-2dcc-4b4f-91a1-3b839b24ea7d"},"vehicle_type_id":"4","last_reported":1759259266,"current_range_meters":9600,"station_id":"","pricing_plan_id":"cebpf4jnsgd1na2vs0mg"},{"bike_id":"2507448b-8711-4841-8632-a4219f2c5de0","system_id":"levelo_inurba_marseille","lat":43.292254,"lon":5.360508,"is_reserved":false,"is_disabled":true,"rental_uris":{"android":"levelo://app?vid=2507448b-8711-4841-8632-a4219f2c5de0","ios":"levelo://app?vid=2507448b-8711-4841-8632-a4219f2c5de0"},"vehicle_type_id":"4","last_reported":1759259266,"current_range_meters":9600,"station_id":"","pricing_plan_id":"cebpf4jnsgd1na2vs0mg"},{"bike_id":"5b08f86b-9869-43b2-9d8b-c8284723bdd4","system_id":"levelo_inurba_marseille","lat":43.26921,"lon":5.40245,"is_reserved":false,"is_disabled":false,"rental_uris":{"android":"levelo://app?vid=5b08f86b-9869-43b2-9d8b-c8284723bdd4","ios":"levelo://app?vid=5b08f86b-9869-43b2-9d8b-c8284723bdd4"},"vehicle_type_id":"4","last_reported":1759259266,"current_range_meters":9600,"station_id":"cjm6bp8fraef2m0cb0m0","pricing_plan_id":"cebpf4jnsgd1na2vs0mg"},{"bike_id":"fbb689ac-9b94-4be9-b74f-8150b861a33b","system_id":"levelo_inurba_marseille","lat":43.30137,"lon":5.39869,"is_reserved":false,"is_disabled":false,"rental_uris":{"android":"levelo://app?vid=fbb689ac-9b94-4be9-b74f-8150b861a33b","ios":"levelo://app?vid=fbb689ac-9b94-4be9-b74f-8150b861a33b"},"vehicle_type_id":"4","last_reported":1759259266,"current_range_meters":9200,"station_id":"ce4bh0h2rcd13ifvqd40","pricing_plan_id":"cebpf4jnsgd1na2vs0mg"},{"bike_id":"8cbcf5e7-b804-4925-bbed-5f57e8580ccf","system_id":"levelo_inurba_marseille","lat":43.31519,"lon":5.36803,"is_reserved":false,"is_disabled":false,"rental_uris":{"android":"levelo://app?vid=8cbcf5e7-b804-4925-bbed-5f57e8580ccf","ios":"levelo://app?vid=8cbcf5e7-b804-4925-bbed-5f57e8580ccf"},"vehicle_type_id":"4","last_reported":1759259266,"current_range_meters":9600,"station_id":"","pricing_plan_id":"cebpf4jnsgd1na2vs0mg"},{"bike_id":"41b00229-bd0b-4e24-a7ea-8339453a455d","system_id":"levelo_inurba_marseille","lat":43.25,"lon":5.38929,"is_reserved":false,"is_disabled":false,"rental_uris":{"android":"levelo://app?vid=41b00229-bd0b-4e24-a7ea-8339453a455d","ios":"levelo://app?vid=41b00229-bd0b-4e24-a7ea-8339453a455d"},"vehicle_type_id":"4","last_reported":1759259266,"current_range_meters":9600,"station_id":"ce4bhgp2rcd13ifvqfd0","pricing_plan_id":"cebpf4jnsgd1na2vs0mg"},{"bike_id":"326a851e-c787-4e4f-8507-157de577ba31","system_id":"levelo_inurba_marseille","lat":43.26768,"lon":5.39435,"is_reserved":false,"is_disabled":false,"rental_uris":{"android":"levelo://app?vid=326a851e-c787-4e4f-8507-157de577ba31","ios":"levelo://app?vid=326a851e-c787-4e4f-8507-157de577ba31"},"vehicle_type_id":"4","last_reported":1759259266,"current_range_meters":9600,"station_id":"ce4bhh12rcd13ifvqfg0","pricing_plan_id":"cebpf4jnsgd1na2vs0mg"},{"bike_id":"b49629d5-8075-4127-b438-07d84b875728","system_id":"levelo_inurba_marseille","lat":43.26953,"lon":5.38653,"is_reserved":false,"is_disabled":false,"rental_uris":{"android":"levelo://app?vid=b49629d5-8075-4127-b438-07d84b875728","ios":"levelo://app?vid=b49629d5-8075-4127-b438-07d84b875728"},"vehicle_type_id":"4","last_reported":1759259266,"current_range_meters":9600,"station_id":"ce4bhh92rcd13ifvqfh0","pricing_plan_id":"cebpf4jnsgd1na2vs0mg"},{"bike_id":"fee8c941-c147-49ae-adcc-2308a36128f1","system_id":"levelo_inurba_marseille","lat":43.31272,"lon":5.40169,"is_reserved":false,"is_disabled":false,"rental_uris":{"android":"levelo://app?vid=fee8c941-c147-49ae-adcc-2308a36128f1","ios":"levelo://app?vid=fee8c941-c147-49ae-adcc-2308a36128f1"},"vehicle_type_id":"4","last_reported":1759259266,"current_range_meters":9600,"station_id":"ce4bh092rcd13ifvqd30","pricing_plan_id":"cebpf4jnsgd1na2vs0mg"},{"bike_id":"9e7d0f94-1bc5-4ae8-b2d6-79c7c8b3ea14","system_id":"levelo_inurba_marseille","lat":43.27051,"lon":5.40277,"is_reserved":false,"is_disabled":false,"rental_uris":{"android":"levelo://app?vid=9e7d0f94-1bc5-4ae8-b2d6-79c7c8b3ea14","ios":"levelo://app?vid=9e7d0f94-1bc5-4ae8-b2d6-79c7c8b3ea14"},"vehicle_type_id":"4","last_reported":1759259266,"current_range_meters":9600,"station_id":"ce4bhk92rcd13ifvqgc0","pricing_plan_id":"cebpf4jnsgd1na2vs0mg"},{"bike_id":"3b5c329f-a551-4466-9838-3a636fb24d93","system_id":"levelo_inurba_marseille","lat":43.25391,"lon":5.41856,"is_reserved":false,"is_disabled":false,"rental_uris":{"android":"levelo://app?vid=3b5c329f-a551-4466-9838-3a636fb24d93","ios":"levelo://app?vid=3b5c329f-a551-4466-9838-3a636fb24d93"},"vehicle_type_id":"4","last_reported":1759259266,"current_range_meters":9600,"station_id":"","pricing_plan_id":"cebpf4jnsgd1na2vs0mg"},{"bike_id":"c4a88f00-d813-4ef4-90b9-7f92a7f1a687","system_id":"levelo_inurba_marseille","lat":43.27293,"lon":5.39105,"is_reserved":false,"is_disabled":false,"rental_uris":{"android":"levelo://app?vid=c4a88f00-d813-4ef4-90b9-7f92a7f1a687","ios":"levelo://app?vid=c4a88f00-d813-4ef4-90b9-7f92a7f1a687"},"vehicle_type_id":"4","last_reported":1759259266,"current_range_meters":9600,"station_id":"ce4bhgp2rcd13ifvqfe0","pricing_plan_id":"cebpf4jnsgd1na2vs0mg"},{"bike_id":"99ce2063-5dfb-4ed3-a4a6-8fc3a54c4890","system_id":"levelo_inurba_marseille","lat":43.337444,"lon":5.374475,"is_reserved":false,"is_disabled":false,"rental_uris":{"android":"levelo://app?vid=99ce2063-5dfb-4ed3-a4a6-8fc3a54c4890","ios":"levelo://app?vid=99ce2063-5dfb-4ed3-a4a6-8fc3a54c4890"},"vehicle_type_id":"4","last_reported":1759259266,"current_range_meters":10000,"station_id":"","pricing_plan_id":"cebpf4jnsgd1na2vs0mg"},{"bike_id":"ff43d868-8b81-4111-9f10-8ea7a0551e8b","system_id":"levelo_inurba_marseille","lat":43.29527,"lon":5.38554,"is_reserved":false,"is_disabled":false,"rental_uris":{"android":"levelo://app?vid=ff43d868-8b81-4111-9f10-8ea7a0551e8b","ios":"levelo://app?vid=ff43d868-8b81-4111-9f10-8ea7a0551e8b"},"vehicle_type_id":"4","last_reported":1759259266,"current_range_meters":10000,"station_id":"ce4bgih2rcd13ifvqba0","pricing_plan_id":"cebpf4jnsgd1na2vs0mg"},{"bike_id":"3a2db986-3f57-4716-92dd-75d31b1866ed","system_id":"levelo_inurba_marseille","lat":43.28872,"lon":5.42515,"is_reserved":false,"is_disabled":false,"rental_uris":{"android":"levelo://app?vid=3a2db986-3f57-4716-92dd-75d31b1866ed","ios":"levelo://app?vid=3a2db986-3f57-4716-92dd-75d31b1866ed"},"vehicle_type_id":"4","last_reported":1759259266,"current_range_meters":10000,"station_id":"st_d3b462108ojc7389ooeg","pricing_plan_id":"cebpf4jnsgd1na2vs0mg"},{"bike_id":"b1c07219-085e-436d-bc0c-631958a216a7","system_id":"levelo_inurba_marseille","lat":43.26942,"lon":5.40261,"is_reserved":false,"is_disabled":false,"rental_uris":{"android":"levelo://app?vid=b1c07219-085e-436d-bc0c-631958a216a7","ios":"levelo://app?vid=b1c07219-085e-436d-bc0c-631958a216a7"},"vehicle_type_id":"4","last_reported":1759259266,"current_range_meters":10000,"station_id":"cjm6bp8fraef2m0cb0m0","pricing_plan_id":"cebpf4jnsgd1na2vs0mg"},{"bike_id":"ecf234f8-cc23-4e88-96e2-6fdf9ded97cb","system_id":"levelo_inurba_marseille","lat":43.2953,"lon":5.39038,"is_reserved":false,"is_disabled":false,"rental_uris":{"android":"levelo://app?vid=ecf234f8-cc23-4e88-96e2-6fdf9ded97cb","ios":"levelo://app?vid=ecf234f8-cc23-4e88-96e2-6fdf9ded97cb"},"vehicle_type_id":"4","last_reported":1759259266,"current_range_meters":10000,"station_id":"ce4bh3p2rcd13ifvqdp0","pricing_plan_id":"cebpf4jnsgd1na2vs0mg"},{"bike_id":"02488992-5df8-4162-b39c-67b317b33632","system_id":"levelo_inurba_marseille","lat":43.29629,"lon":5.40596,"is_reserved":false,"is_disabled":false,"rental_uris":{"android":"levelo://app?vid=02488992-5df8-4162-b39c-67b317b33632","ios":"levelo://app?vid=02488992-5df8-4162-b39c-67b317b33632"},"vehicle_type_id":"4","last_reported":1759259266,"current_range_meters":10000,"station_id":"ce4bh0h2rcd13ifvqd60","pricing_plan_id":"cebpf4jnsgd1na2vs0mg"},{"bike_id":"aa28cbff-b0b1-4b5c-91a6-6bc711d8f726","system_id":"levelo_inurba_marseille","lat":43.28453,"lon":5.35889,"is_reserved":false,"is_disabled":false,"rental_uris":{"android":"levelo://app?vid=aa28cbff-b0b1-4b5c-91a6-6bc711d8f726","ios":"levelo://app?vid=aa28cbff-b0b1-4b5c-91a6-6bc711d8f726"},"vehicle_type_id":"4","last_reported":1759259266,"current_range_meters":12400,"station_id":"ce4bhah2rcd13ifvqei0","pricing_plan_id":"cebpf4jnsgd1na2vs0mg"},{"bike_id":"92662833-c6ac-4b02-b7df-1638b54b1972","system_id":"levelo_inurba_marseille","lat":43.33742,"lon":5.37449,"is_reserved":false,"is_disabled":false,"rental_uris":{"android":"levelo://app?vid=92662833-c6ac-4b02-b7df-1638b54b1972","ios":"levelo://app?vid=92662833-c6ac-4b02-b7df-1638b54b1972"},"vehicle_type_id":"4","last_reported":1759259266,"current_range_meters":10000,"station_id":"","pricing_plan_id":"cebpf4jnsgd1na2vs0mg"},{"bike_id":"f8d78e5f-60e1-4623-939f-49e76ff16505","system_id":"levelo_inurba_marseille","lat":43.33742,"lon":5.37448,"is_reserved":false,"is_disabled":false,"rental_uris":{"android":"levelo://app?vid=f8d78e5f-60e1-4623-939f-49e76ff16505","ios":"levelo://app?vid=f8d78e5f-60e1-4623-939f-49e76ff16505"},"vehicle_type_id":"4","last_reported":1759259266,"current_range_meters":10000,"station_id":"","pricing_plan_id":"cebpf4jnsgd1na2vs0mg"},{"bike_id":"b00566d1-c4b7-4e38-9f39-c679d2ddece2","system_id":"levelo_inurba_marseille","lat":43.24084,"lon":5.3775,"is_reserved":false,"is_disabled":false,"rental_uris":{"android":"levelo://app?vid=b00566d1-c4b7-4e38-9f39-c679d2ddece2","ios":"levelo://app?vid=b00566d1-c4b7-4e38-9f39-c679d2ddece2"},"vehicle_type_id":"4","last_reported":1759259266,"current_range_meters":10000,"station_id":"ce4bhnp2rcd13ifvqgvg","pricing_plan_id":"cebpf4jnsgd1na2vs0mg"},{"bike_id":"8f8e7e3d-1cfe-4396-a080-ccc58c4bc52b","system_id":"levelo_inurba_marseille","lat":43.28853,"lon":5.39319,"is_reserved":false,"is_disabled":false,"rental_uris":{"android":"levelo://app?vid=8f8e7e3d-1cfe-4396-a080-ccc58c4bc52b","ios":"levelo://app?vid=8f8e7e3d-1cfe-4396-a080-ccc58c4bc52b"},"vehicle_type_id":"4","last_reported":1759259266,"current_range_meters":10800,"station_id":"ce4bh2p2rcd13ifvqdi0","pricing_plan_id":"cebpf4jnsgd1na2vs0mg"},{"bike_id":"de5078e7-9e6f-4980-ad87-459e322f4cf1","system_id":"levelo_inurba_marseille","lat":43.31898,"lon":5.4073,"is_reserved":false,"is_disabled":false,"rental_uris":{"android":"levelo://app?vid=de5078e7-9e6f-4980-ad87-459e322f4cf1","ios":"levelo://app?vid=de5078e7-9e6f-4980-ad87-459e322f4cf1"},"vehicle_type_id":"4","last_reported":1759259266,"current_range_meters":10800,"station_id":"ce4bhq12rcd13ifvqhig","pricing_plan_id":"cebpf4jnsgd1na2vs0mg"},{"bike_id":"75f6fb98-8c52-4719-8c21-226bc7df000e","system_id":"levelo_inurba_marseille","lat":43.26491,"lon":5.39543,"is_reserved":false,"is_disabled":false,"rental_uris":{"android":"levelo://app?vid=75f6fb98-8c52-4719-8c21-226bc7df000e","ios":"levelo://app?vid=75f6fb98-8c52-4719-8c21-226bc7df000e"},"vehicle_type_id":"4","last_reported":1759259266,"current_range_meters":10000,"station_id":"ce4bhi12rcd13ifvqfq0","pricing_plan_id":"cebpf4jnsgd1na2vs0mg"},{"bike_id":"6036e39a-3830-4d0e-b3a1-02258d7d33e5","system_id":"levelo_inurba_marseille","lat":43.26797,"lon":5.39426,"is_reserved":false,"is_disabled":false,"rental_uris":{"android":"levelo://app?vid=6036e39a-3830-4d0e-b3a1-02258d7d33e5","ios":"levelo://app?vid=6036e39a-3830-4d0e-b3a1-02258d7d33e5"},"vehicle_type_id":"4","last_reported":1759259266,"current_range_meters":10800,"station_id":"ce4bhh12rcd13ifvqfg0","pricing_plan_id":"cebpf4jnsgd1na2vs0mg"},{"bike_id":"56ca0258-bee9-4eb2-b3c5-63b5cd0b9e67","system_id":"levelo_inurba_marseille","lat":43.33737,"lon":5.37445,"is_reserved":false,"is_disabled":false,"rental_uris":{"android":"levelo://app?vid=56ca0258-bee9-4eb2-b3c5-63b5cd0b9e67","ios":"levelo://app?vid=56ca0258-bee9-4eb2-b3c5-63b5cd0b9e67"},"vehicle_type_id":"4","last_reported":1759259266,"current_range_meters":10800,"station_id":"","pricing_plan_id":"cebpf4jnsgd1na2vs0mg"},{"bike_id":"9be45c32-5da8-4f65-8650-28b2ece19e6e","system_id":"levelo_inurba_marseille","lat":43.3018,"lon":5.36634,"is_reserved":false,"is_disabled":false,"rental_uris":{"android":"levelo://app?vid=9be45c32-5da8-4f65-8650-28b2ece19e6e","ios":"levelo://app?vid=9be45c32-5da8-4f65-8650-28b2ece19e6e"},"vehicle_type_id":"4","last_reported":1759259266,"current_range_meters":11200,"station_id":"ce4bgrh2rcd13ifvqc8g","pricing_plan_id":"cebpf4jnsgd1na2vs0mg"},{"bike_id":"a5495814-8e91-4930-9d50-e701be75ed52","system_id":"levelo_inurba_marseille","lat":43.29536,"lon":5.38548,"is_reserved":false,"is_disabled":false,"rental_uris":{"android":"levelo://app?vid=a5495814-8e91-4930-9d50-e701be75ed52","ios":"levelo://app?vid=a5495814-8e91-4930-9d50-e701be75ed52"},"vehicle_type_id":"4","last_reported":1759259266,"current_range_meters":11200,"station_id":"ce4bgih2rcd13ifvqba0","pricing_plan_id":"cebpf4jnsgd1na2vs0mg"},{"bike_id":"fefa05b9-a86f-4c17-96ac-226b3c8621e4","system_id":"levelo_inurba_marseille","lat":43.22933,"lon":5.3537,"is_reserved":false,"is_disabled":false,"rental_uris":{"android":"levelo://app?vid=fefa05b9-a86f-4c17-96ac-226b3c8621e4","ios":"levelo://app?vid=fefa05b9-a86f-4c17-96ac-226b3c8621e4"},"vehicle_type_id":"4","last_reported":1759259266,"current_range_meters":11200,"station_id":"cpo3532slgdg3j2ikp40","pricing_plan_id":"cebpf4jnsgd1na2vs0mg"},{"bike_id":"9d20c655-43eb-44c0-bc30-5d1f9ef7d0a7","system_id":"levelo_inurba_marseille","lat":43.29521,"lon":5.38544,"is_reserved":false,"is_disabled":false,"rental_uris":{"android":"levelo://app?vid=9d20c655-43eb-44c0-bc30-5d1f9ef7d0a7","ios":"levelo://app?vid=9d20c655-43eb-44c0-bc30-5d1f9ef7d0a7"},"vehicle_type_id":"4","last_reported":1759259266,"current_range_meters":11200,"station_id":"ce4bgih2rcd13ifvqba0","pricing_plan_id":"cebpf4jnsgd1na2vs0mg"},{"bike_id":"9544086b-3f2c-4d72-8a10-681d782fbfb2","system_id":"levelo_inurba_marseille","lat":43.31075,"lon":5.38347,"is_reserved":false,"is_disabled":false,"rental_uris":{"android":"levelo://app?vid=9544086b-3f2c-4d72-8a10-681d782fbfb2","ios":"levelo://app?vid=9544086b-3f2c-4d72-8a10-681d782fbfb2"},"vehicle_type_id":"4","last_reported":1759259266,"current_range_meters":11200,"station_id":"ce4bgv92rcd13ifvqcr0","pricing_plan_id":"cebpf4jnsgd1na2vs0mg"},{"bike_id":"05168e0c-6364-496f-8882-62283c1d7045","system_id":"levelo_inurba_marseille","lat":43.2706,"lon":5.40281,"is_reserved":false,"is_disabled":false,"rental_uris":{"android":"levelo://app?vid=05168e0c-6364-496f-8882-62283c1d7045","ios":"levelo://app?vid=05168e0c-6364-496f-8882-62283c1d7045"},"vehicle_type_id":"4","last_reported":1759259266,"current_range_meters":11600,"station_id":"ce4bhk92rcd13ifvqgc0","pricing_plan_id":"cebpf4jnsgd1na2vs0mg"},{"bike_id":"f75ec2c7-65d1-4cd9-8bd9-aa57e970f7d7","system_id":"levelo_inurba_marseille","lat":43.21752,"lon":5.34603,"is_reserved":false,"is_disabled":false,"rental_uris":{"android":"levelo://app?vid=f75ec2c7-65d1-4cd9-8bd9-aa57e970f7d7","ios":"levelo://app?vid=f75ec2c7-65d1-4cd9-8bd9-aa57e970f7d7"},"vehicle_type_id":"4","last_reported":1759259266,"current_range_meters":11600,"station_id":"st_cvj6r9ubvosntc0bgbag","pricing_plan_id":"cebpf4jnsgd1na2vs0mg"},{"bike_id":"8c889c5e-dbff-42f9-9e9a-56a3d0500fe9","system_id":"levelo_inurba_marseille","lat":43.30301,"lon":5.36977,"is_reserved":false,"is_disabled":false,"rental_uris":{"android":"levelo://app?vid=8c889c5e-dbff-42f9-9e9a-56a3d0500fe9","ios":"levelo://app?vid=8c889c5e-dbff-42f9-9e9a-56a3d0500fe9"},"vehicle_type_id":"4","last_reported":1759259266,"current_range_meters":11600,"station_id":"","pricing_plan_id":"cebpf4jnsgd1na2vs0mg"},{"bike_id":"74d62a67-a470-4bfe-8011-7ef3da281e5c","system_id":"levelo_inurba_marseille","lat":43.31689,"lon":5.40469,"is_reserved":false,"is_disabled":false,"rental_uris":{"android":"levelo://app?vid=74d62a67-a470-4bfe-8011-7ef3da281e5c","ios":"levelo://app?vid=74d62a67-a470-4bfe-8011-7ef3da281e5c"},"vehicle_type_id":"4","last_reported":1759259266,"current_range_meters":11600,"station_id":"ce4bh012rcd13ifvqd00","pricing_plan_id":"cebpf4jnsgd1na2vs0mg"},{"bike_id":"03ee2987-b056-4ed5-9aa3-7cb94fcc94f6","system_id":"levelo_inurba_marseille","lat":43.29535,"lon":5.38548,"is_reserved":false,"is_disabled":false,"rental_uris":{"android":"levelo://app?vid=03ee2987-b056-4ed5-9aa3-7cb94fcc94f6","ios":"levelo://app?vid=03ee2987-b056-4ed5-9aa3-7cb94fcc94f6"},"vehicle_type_id":"4","last_reported":1759259266,"current_range_meters":11600,"station_id":"ce4bgih2rcd13ifvqba0","pricing_plan_id":"cebpf4jnsgd1na2vs0mg"},{"bike_id":"9c10a6f3-8c9e-4c25-9a29-9f53372018c1","system_id":"levelo_inurba_marseille","lat":43.31368,"lon":5.38501,"is_reserved":false,"is_disabled":false,"rental_uris":{"android":"levelo://app?vid=9c10a6f3-8c9e-4c25-9a29-9f53372018c1","ios":"levelo://app?vid=9c10a6f3-8c9e-4c25-9a29-9f53372018c1"},"vehicle_type_id":"4","last_reported":1759259266,"current_range_meters":11200,"station_id":"ce4bgt92rcd13ifvqcf0","pricing_plan_id":"cebpf4jnsgd1na2vs0mg"},{"bike_id":"f03a8e17-aeeb-4d53-8e91-eac8189c2310","system_id":"levelo_inurba_marseille","lat":43.26061,"lon":5.39396,"is_reserved":false,"is_disabled":false,"rental_uris":{"android":"levelo://app?vid=f03a8e17-aeeb-4d53-8e91-eac8189c2310","ios":"levelo://app?vid=f03a8e17-aeeb-4d53-8e91-eac8189c2310"},"vehicle_type_id":"4","last_reported":1759259266,"current_range_meters":11200,"station_id":"ce4bhh92rcd13ifvqfj0","pricing_plan_id":"cebpf4jnsgd1na2vs0mg"},{"bike_id":"cf1a6604-1cfd-4626-a9db-64b05586cd01","system_id":"levelo_inurba_marseille","lat":43.231827,"lon":5.399916,"is_reserved":false,"is_disabled":false,"rental_uris":{"android":"levelo://app?vid=cf1a6604-1cfd-4626-a9db-64b05586cd01","ios":"levelo://app?vid=cf1a6604-1cfd-4626-a9db-64b05586cd01"},"vehicle_type_id":"4","last_reported":1759259266,"current_range_meters":12400,"station_id":"ce4bhn12rcd13ifvqgqg","pricing_plan_id":"cebpf4jnsgd1na2vs0mg"},{"bike_id":"622567b7-00d2-445b-9429-7d0961cc0cc8","system_id":"levelo_inurba_marseille","lat":43.31223,"lon":5.36853,"is_reserved":false,"is_disabled":false,"rental_uris":{"android":"levelo://app?vid=622567b7-00d2-445b-9429-7d0961cc0cc8","ios":"levelo://app?vid=622567b7-00d2-445b-9429-7d0961cc0cc8"},"vehicle_type_id":"4","last_reported":1759259266,"current_range_meters":12000,"station_id":"ce4bgl92rcd13ifvqbq0","pricing_plan_id":"cebpf4jnsgd1na2vs0mg"},{"bike_id":"2009811b-f301-41bb-ad88-70a6b0454eb7","system_id":"levelo_inurba_marseille","lat":43.29027,"lon":5.38131,"is_reserved":false,"is_disabled":false,"rental_uris":{"android":"levelo://app?vid=2009811b-f301-41bb-ad88-70a6b0454eb7","ios":"levelo://app?vid=2009811b-f301-41bb-ad88-70a6b0454eb7"},"vehicle_type_id":"4","last_reported":1759259266,"current_range_meters":12000,"station_id":"ce4bh4p2rcd13ifvqe1g","pricing_plan_id":"cebpf4jnsgd1na2vs0mg"},{"bike_id":"c1476236-c8f0-4812-94e5-3f00d488ab7e","system_id":"levelo_inurba_marseille","lat":43.280011,"lon":5.416649,"is_reserved":false,"is_disabled":false,"rental_uris":{"android":"levelo://app?vid=c1476236-c8f0-4812-94e5-3f00d488ab7e","ios":"levelo://app?vid=c1476236-c8f0-4812-94e5-3f00d488ab7e"},"vehicle_type_id":"4","last_reported":1759259266,"current_range_meters":12000,"station_id":"","pricing_plan_id":"cebpf4jnsgd1na2vs0mg"},{"bike_id":"d2d7488e-474c-40f3-8dc3-7426ca62ae61","system_id":"levelo_inurba_marseille","lat":43.29372,"lon":5.3786,"is_reserved":false,"is_disabled":false,"rental_uris":{"android":"levelo://app?vid=d2d7488e-474c-40f3-8dc3-7426ca62ae61","ios":"levelo://app?vid=d2d7488e-474c-40f3-8dc3-7426ca62ae61"},"vehicle_type_id":"4","last_reported":1759259266,"current_range_meters":14000,"station_id":"ce4bgjh2rcd13ifvqbf0","pricing_plan_id":"cebpf4jnsgd1na2vs0mg"},{"bike_id":"1adf72d4-f2e2-443a-bd81-e3e77d2b1f3e","system_id":"levelo_inurba_marseille","lat":43.266949,"lon":5.402263,"is_reserved":false,"is_disabled":false,"rental_uris":{"android":"levelo://app?vid=1adf72d4-f2e2-443a-bd81-e3e77d2b1f3e","ios":"levelo://app?vid=1adf72d4-f2e2-443a-bd81-e3e77d2b1f3e"},"vehicle_type_id":"4","last_reported":1759259266,"current_range_meters":12000,"station_id":"","pricing_plan_id":"cebpf4jnsgd1na2vs0mg"},{"bike_id":"37699dad-1736-48a6-8862-584db5a24524","system_id":"levelo_inurba_marseille","lat":43.26786,"lon":5.40253,"is_reserved":false,"is_disabled":false,"rental_uris":{"android":"levelo://app?vid=37699dad-1736-48a6-8862-584db5a24524","ios":"levelo://app?vid=37699dad-1736-48a6-8862-584db5a24524"},"vehicle_type_id":"4","last_reported":1759259266,"current_range_meters":12000,"station_id":"ce501612rcd8frsf0b60","pricing_plan_id":"cebpf4jnsgd1na2vs0mg"},{"bike_id":"88334a05-efc4-44ef-9bd4-df3387d8df21","system_id":"levelo_inurba_marseille","lat":43.29256,"lon":5.38443,"is_reserved":false,"is_disabled":false,"rental_uris":{"android":"levelo://app?vid=88334a05-efc4-44ef-9bd4-df3387d8df21","ios":"levelo://app?vid=88334a05-efc4-44ef-9bd4-df3387d8df21"},"vehicle_type_id":"4","last_reported":1759259266,"current_range_meters":12000,"station_id":"ce4bh692rcd13ifvqea0","pricing_plan_id":"cebpf4jnsgd1na2vs0mg"},{"bike_id":"30d3f029-d5dd-44e3-94fc-b8e8931a0d0c","system_id":"levelo_inurba_marseille","lat":43.25589,"lon":5.38227,"is_reserved":false,"is_disabled":false,"rental_uris":{"android":"levelo://app?vid=30d3f029-d5dd-44e3-94fc-b8e8931a0d0c","ios":"levelo://app?vid=30d3f029-d5dd-44e3-94fc-b8e8931a0d0c"},"vehicle_type_id":"4","last_reported":1759259266,"current_range_meters":12000,"station_id":"ce4bhih2rcd13ifvqfs0","pricing_plan_id":"cebpf4jnsgd1na2vs0mg"},{"bike_id":"93adb4bc-7ef8-41ff-90b5-7695d8e5daca","system_id":"levelo_inurba_marseille","lat":43.27377,"lon":5.36256,"is_reserved":false,"is_disabled":false,"rental_uris":{"android":"levelo://app?vid=93adb4bc-7ef8-41ff-90b5-7695d8e5daca","ios":"levelo://app?vid=93adb4bc-7ef8-41ff-90b5-7695d8e5daca"},"vehicle_type_id":"4","last_reported":1759259266,"current_range_meters":11600,"station_id":"ce4bhbh2rcd13ifvqeo0","pricing_plan_id":"cebpf4jnsgd1na2vs0mg"},{"bike_id":"d2f46c9e-a53c-42a7-ad54-fd7c896f4565","system_id":"levelo_inurba_marseille","lat":43.33797,"lon":5.37428,"is_reserved":false,"is_disabled":false,"rental_uris":{"android":"levelo://app?vid=d2f46c9e-a53c-42a7-ad54-fd7c896f4565","ios":"levelo://app?vid=d2f46c9e-a53c-42a7-ad54-fd7c896f4565"},"vehicle_type_id":"4","last_reported":1759259266,"current_range_meters":12000,"station_id":"","pricing_plan_id":"cebpf4jnsgd1na2vs0mg"},{"bike_id":"adfbe18b-7ca7-424a-9090-23d85cce22c6","system_id":"levelo_inurba_marseille","lat":43.30038,"lon":5.40936,"is_reserved":false,"is_disabled":false,"rental_uris":{"android":"levelo://app?vid=adfbe18b-7ca7-424a-9090-23d85cce22c6","ios":"levelo://app?vid=adfbe18b-7ca7-424a-9090-23d85cce22c6"},"vehicle_type_id":"4","last_reported":1759259266,"current_range_meters":12400,"station_id":"","pricing_plan_id":"cebpf4jnsgd1na2vs0mg"},{"bike_id":"3e7f2125-57ce-47bc-b860-426e3104b28d","system_id":"levelo_inurba_marseille","lat":43.29195,"lon":5.39315,"is_reserved":false,"is_disabled":true,"rental_uris":{"android":"levelo://app?vid=3e7f2125-57ce-47bc-b860-426e3104b28d","ios":"levelo://app?vid=3e7f2125-57ce-47bc-b860-426e3104b28d"},"vehicle_type_id":"4","last_reported":1759259266,"current_range_meters":12400,"station_id":"ce4bh192rcd13ifvqdd0","pricing_plan_id":"cebpf4jnsgd1na2vs0mg"},{"bike_id":"259eb790-7c9f-4508-b0a8-75180661d85f","system_id":"levelo_inurba_marseille","lat":43.24068,"lon":5.37756,"is_reserved":false,"is_disabled":false,"rental_uris":{"android":"levelo://app?vid=259eb790-7c9f-4508-b0a8-75180661d85f","ios":"levelo://app?vid=259eb790-7c9f-4508-b0a8-75180661d85f"},"vehicle_type_id":"4","last_reported":1759259266,"current_range_meters":12400,"station_id":"","pricing_plan_id":"cebpf4jnsgd1na2vs0mg"},{"bike_id":"1a79c57b-1dfc-45dd-bcd5-1c9721d71860","system_id":"levelo_inurba_marseille","lat":43.2512,"lon":5.40316,"is_reserved":false,"is_disabled":false,"rental_uris":{"android":"levelo://app?vid=1a79c57b-1dfc-45dd-bcd5-1c9721d71860","ios":"levelo://app?vid=1a79c57b-1dfc-45dd-bcd5-1c9721d71860"},"vehicle_type_id":"4","last_reported":1759259266,"current_range_meters":12400,"station_id":"ce4bhlh2rcd13ifvqgig","pricing_plan_id":"cebpf4jnsgd1na2vs0mg"},{"bike_id":"a0dda3ea-4dee-4a9f-9c09-42313c5a5c57","system_id":"levelo_inurba_marseille","lat":43.27687,"lon":5.38872,"is_reserved":false,"is_disabled":false,"rental_uris":{"android":"levelo://app?vid=a0dda3ea-4dee-4a9f-9c09-42313c5a5c57","ios":"levelo://app?vid=a0dda3ea-4dee-4a9f-9c09-42313c5a5c57"},"vehicle_type_id":"4","last_reported":1759259266,"current_range_meters":12400,"station_id":"ce4bhi12rcd13ifvqfo0","pricing_plan_id":"cebpf4jnsgd1na2vs0mg"},{"bike_id":"8e695b64-e6f2-4b88-bdb3-196b3e1fab8e","system_id":"levelo_inurba_marseille","lat":43.26958,"lon":5.38635,"is_reserved":false,"is_disabled":false,"rental_uris":{"android":"levelo://app?vid=8e695b64-e6f2-4b88-bdb3-196b3e1fab8e","ios":"levelo://app?vid=8e695b64-e6f2-4b88-bdb3-196b3e1fab8e"},"vehicle_type_id":"4","last_reported":1759259266,"current_range_meters":12400,"station_id":"ce4bhh92rcd13ifvqfh0","pricing_plan_id":"cebpf4jnsgd1na2vs0mg"},{"bike_id":"ee2cdab0-fda8-4bab-ba6b-23c1e9b0a5d2","system_id":"levelo_inurba_marseille","lat":43.23183,"lon":5.39983,"is_reserved":false,"is_disabled":false,"rental_uris":{"android":"levelo://app?vid=ee2cdab0-fda8-4bab-ba6b-23c1e9b0a5d2","ios":"levelo://app?vid=ee2cdab0-fda8-4bab-ba6b-23c1e9b0a5d2"},"vehicle_type_id":"4","last_reported":1759259266,"current_range_meters":12400,"station_id":"ce4bhn12rcd13ifvqgqg","pricing_plan_id":"cebpf4jnsgd1na2vs0mg"},{"bike_id":"30cbf9c0-d8c9-49e3-afe2-ea0d70b63a10","system_id":"levelo_inurba_marseille","lat":43.28354,"lon":5.38637,"is_reserved":false,"is_disabled":true,"rental_uris":{"android":"levelo://app?vid=30cbf9c0-d8c9-49e3-afe2-ea0d70b63a10","ios":"levelo://app?vid=30cbf9c0-d8c9-49e3-afe2-ea0d70b63a10"},"vehicle_type_id":"4","last_reported":1759259266,"current_range_meters":12400,"station_id":"ce4bh492rcd13ifvqdvg","pricing_plan_id":"cebpf4jnsgd1na2vs0mg"},{"bike_id":"d27594a7-3293-4cd0-8d10-e66bdd5a4c20","system_id":"levelo_inurba_marseille","lat":43.23965,"lon":5.36624,"is_reserved":false,"is_disabled":false,"rental_uris":{"android":"levelo://app?vid=d27594a7-3293-4cd0-8d10-e66bdd5a4c20","ios":"levelo://app?vid=d27594a7-3293-4cd0-8d10-e66bdd5a4c20"},"vehicle_type_id":"4","last_reported":1759259266,"current_range_meters":12400,"station_id":"ce4bhi12rcd13ifvqfp0","pricing_plan_id":"cebpf4jnsgd1na2vs0mg"},{"bike_id":"364f0170-a95d-479a-adef-9be37190191b","system_id":"levelo_inurba_marseille","lat":43.27297,"lon":5.39102,"is_reserved":false,"is_disabled":false,"rental_uris":{"android":"levelo://app?vid=364f0170-a95d-479a-adef-9be37190191b","ios":"levelo://app?vid=364f0170-a95d-479a-adef-9be37190191b"},"vehicle_type_id":"4","last_reported":1759259266,"current_range_meters":12400,"station_id":"ce4bhgp2rcd13ifvqfe0","pricing_plan_id":"cebpf4jnsgd1na2vs0mg"},{"bike_id":"5acb7443-82c7-4c78-8645-f3964bb577c3","system_id":"levelo_inurba_marseille","lat":43.29063,"lon":5.37151,"is_reserved":false,"is_disabled":false,"rental_uris":{"android":"levelo://app?vid=5acb7443-82c7-4c78-8645-f3964bb577c3","ios":"levelo://app?vid=5acb7443-82c7-4c78-8645-f3964bb577c3"},"vehicle_type_id":"4","last_reported":1759259266,"current_range_meters":12800,"station_id":"ce4bh5p2rcd13ifvqe4g","pricing_plan_id":"cebpf4jnsgd1na2vs0mg"},{"bike_id":"53227728-02f9-459b-85cf-d2d78643fa8b","system_id":"levelo_inurba_marseille","lat":43.27299,"lon":5.3909,"is_reserved":false,"is_disabled":false,"rental_uris":{"android":"levelo://app?vid=53227728-02f9-459b-85cf-d2d78643fa8b","ios":"levelo://app?vid=53227728-02f9-459b-85cf-d2d78643fa8b"},"vehicle_type_id":"4","last_reported":1759259266,"current_range_meters":12800,"station_id":"ce4bhgp2rcd13ifvqfe0","pricing_plan_id":"cebpf4jnsgd1na2vs0mg"},{"bike_id":"14cd1ac0-7ad3-4870-8a70-bde5f608da7a","system_id":"levelo_inurba_marseille","lat":43.28356,"lon":5.38097,"is_reserved":false,"is_disabled":false,"rental_uris":{"android":"levelo://app?vid=14cd1ac0-7ad3-4870-8a70-bde5f608da7a","ios":"levelo://app?vid=14cd1ac0-7ad3-4870-8a70-bde5f608da7a"},"vehicle_type_id":"4","last_reported":1759259266,"current_range_meters":12800,"station_id":"ce4bh412rcd13ifvqdr0","pricing_plan_id":"cebpf4jnsgd1na2vs0mg"},{"bike_id":"694c80a2-f142-4916-ae9b-e04333a45ef2","system_id":"levelo_inurba_marseille","lat":43.29278,"lon":5.36847,"is_reserved":false,"is_disabled":false,"rental_uris":{"android":"levelo://app?vid=694c80a2-f142-4916-ae9b-e04333a45ef2","ios":"levelo://app?vid=694c80a2-f142-4916-ae9b-e04333a45ef2"},"vehicle_type_id":"4","last_reported":1759259266,"current_range_meters":12800,"station_id":"ce4bhbp2rcd13ifvqesg","pricing_plan_id":"cebpf4jnsgd1na2vs0mg"},{"bike_id":"ef2a68df-51b4-4dc2-b27d-2309e9aedd48","system_id":"levelo_inurba_marseille","lat":43.31752,"lon":5.39019,"is_reserved":false,"is_disabled":false,"rental_uris":{"android":"levelo://app?vid=ef2a68df-51b4-4dc2-b27d-2309e9aedd48","ios":"levelo://app?vid=ef2a68df-51b4-4dc2-b27d-2309e9aedd48"},"vehicle_type_id":"4","last_reported":1759259266,"current_range_meters":12400,"station_id":"ce4bhqp2rcd13ifvqhng","pricing_plan_id":"cebpf4jnsgd1na2vs0mg"},{"bike_id":"a21528be-8f4c-4486-9233-8b7689c1dad0","system_id":"levelo_inurba_marseille","lat":43.30894,"lon":5.37205,"is_reserved":false,"is_disabled":false,"rental_uris":{"android":"levelo://app?vid=a21528be-8f4c-4486-9233-8b7689c1dad0","ios":"levelo://app?vid=a21528be-8f4c-4486-9233-8b7689c1dad0"},"vehicle_type_id":"4","last_reported":1759259266,"current_range_meters":12400,"station_id":"ce4bguh2rcd13ifvqckg","pricing_plan_id":"cebpf4jnsgd1na2vs0mg"},{"bike_id":"6c78514c-60c4-4968-a777-e65641568c5e","system_id":"levelo_inurba_marseille","lat":43.26934,"lon":5.4026,"is_reserved":false,"is_disabled":false,"rental_uris":{"android":"levelo://app?vid=6c78514c-60c4-4968-a777-e65641568c5e","ios":"levelo://app?vid=6c78514c-60c4-4968-a777-e65641568c5e"},"vehicle_type_id":"4","last_reported":1759259266,"current_range_meters":13600,"station_id":"cjm6bp8fraef2m0cb0m0","pricing_plan_id":"cebpf4jnsgd1na2vs0mg"},{"bike_id":"dec9446c-a40f-4d64-8476-2f4372230baf","system_id":"levelo_inurba_marseille","lat":43.30252,"lon":5.38139,"is_reserved":false,"is_disabled":false,"rental_uris":{"android":"levelo://app?vid=dec9446c-a40f-4d64-8476-2f4372230baf","ios":"levelo://app?vid=dec9446c-a40f-4d64-8476-2f4372230baf"},"vehicle_type_id":"4","last_reported":1759259266,"current_range_meters":13600,"station_id":"","pricing_plan_id":"cebpf4jnsgd1na2vs0mg"},{"bike_id":"83db35d5-14d1-4b1b-af37-d4407c1f7871","system_id":"levelo_inurba_marseille","lat":43.27291,"lon":5.39092,"is_reserved":false,"is_disabled":false,"rental_uris":{"android":"levelo://app?vid=83db35d5-14d1-4b1b-af37-d4407c1f7871","ios":"levelo://app?vid=83db35d5-14d1-4b1b-af37-d4407c1f7871"},"vehicle_type_id":"4","last_reported":1759259266,"current_range_meters":12000,"station_id":"ce4bhgp2rcd13ifvqfe0","pricing_plan_id":"cebpf4jnsgd1na2vs0mg"},{"bike_id":"44893b72-56a7-438d-a4d7-afd018e5af4f","system_id":"levelo_inurba_marseille","lat":43.26803,"lon":5.4027,"is_reserved":false,"is_disabled":false,"rental_uris":{"android":"levelo://app?vid=44893b72-56a7-438d-a4d7-afd018e5af4f","ios":"levelo://app?vid=44893b72-56a7-438d-a4d7-afd018e5af4f"},"vehicle_type_id":"4","last_reported":1759259266,"current_range_meters":13600,"station_id":"ce501612rcd8frsf0b60","pricing_plan_id":"cebpf4jnsgd1na2vs0mg"},{"bike_id":"cae60eb4-7906-4aec-b194-4df2a8533412","system_id":"levelo_inurba_marseille","lat":43.28658,"lon":5.38664,"is_reserved":false,"is_disabled":false,"rental_uris":{"android":"levelo://app?vid=cae60eb4-7906-4aec-b194-4df2a8533412","ios":"levelo://app?vid=cae60eb4-7906-4aec-b194-4df2a8533412"},"vehicle_type_id":"4","last_reported":1759259266,"current_range_meters":15200,"station_id":"ce4bh492rcd13ifvqdug","pricing_plan_id":"cebpf4jnsgd1na2vs0mg"},{"bike_id":"eb5187d4-06a7-40e5-908c-9583ee627f7c","system_id":"levelo_inurba_marseille","lat":43.2797,"lon":5.38729,"is_reserved":false,"is_disabled":false,"rental_uris":{"android":"levelo://app?vid=eb5187d4-06a7-40e5-908c-9583ee627f7c","ios":"levelo://app?vid=eb5187d4-06a7-40e5-908c-9583ee627f7c"},"vehicle_type_id":"4","last_reported":1759259266,"current_range_meters":13600,"station_id":"ce4bhg12rcd13ifvqf80","pricing_plan_id":"cebpf4jnsgd1na2vs0mg"},{"bike_id":"de5a18e4-59be-4651-8d40-688890dcaba8","system_id":"levelo_inurba_marseille","lat":43.31713,"lon":5.43705,"is_reserved":false,"is_disabled":false,"rental_uris":{"android":"levelo://app?vid=de5a18e4-59be-4651-8d40-688890dcaba8","ios":"levelo://app?vid=de5a18e4-59be-4651-8d40-688890dcaba8"},"vehicle_type_id":"4","last_reported":1759259266,"current_range_meters":12800,"station_id":"ce4bhp92rcd13ifvqhcg","pricing_plan_id":"cebpf4jnsgd1na2vs0mg"},{"bike_id":"5427b314-055e-4d18-8500-19ecea4e1f72","system_id":"levelo_inurba_marseille","lat":43.27299,"lon":5.39112,"is_reserved":false,"is_disabled":false,"rental_uris":{"android":"levelo://app?vid=5427b314-055e-4d18-8500-19ecea4e1f72","ios":"levelo://app?vid=5427b314-055e-4d18-8500-19ecea4e1f72"},"vehicle_type_id":"4","last_reported":1759259266,"current_range_meters":14000,"station_id":"ce4bhgp2rcd13ifvqfe0","pricing_plan_id":"cebpf4jnsgd1na2vs0mg"},{"bike_id":"458e1472-d163-4b50-a903-dc3b64ae21c0","system_id":"levelo_inurba_marseille","lat":43.28643,"lon":5.36373,"is_reserved":false,"is_disabled":false,"rental_uris":{"android":"levelo://app?vid=458e1472-d163-4b50-a903-dc3b64ae21c0","ios":"levelo://app?vid=458e1472-d163-4b50-a903-dc3b64ae21c0"},"vehicle_type_id":"4","last_reported":1759259266,"current_range_meters":13600,"station_id":"ce4bhah2rcd13ifvqej0","pricing_plan_id":"cebpf4jnsgd1na2vs0mg"},{"bike_id":"9dcbe79a-3457-4612-ba38-e3ad3a43d1b0","system_id":"levelo_inurba_marseille","lat":43.27399,"lon":5.39411,"is_reserved":false,"is_disabled":false,"rental_uris":{"android":"levelo://app?vid=9dcbe79a-3457-4612-ba38-e3ad3a43d1b0","ios":"levelo://app?vid=9dcbe79a-3457-4612-ba38-e3ad3a43d1b0"},"vehicle_type_id":"4","last_reported":1759259266,"current_range_meters":14000,"station_id":"ce4bhdp2rcd13ifvqf20","pricing_plan_id":"cebpf4jnsgd1na2vs0mg"},{"bike_id":"b72d482c-6b52-415a-b5dc-5df31cc89432","system_id":"levelo_inurba_marseille","lat":43.29538,"lon":5.39029,"is_reserved":false,"is_disabled":false,"rental_uris":{"android":"levelo://app?vid=b72d482c-6b52-415a-b5dc-5df31cc89432","ios":"levelo://app?vid=b72d482c-6b52-415a-b5dc-5df31cc89432"},"vehicle_type_id":"4","last_reported":1759259266,"current_range_meters":14000,"station_id":"ce4bh3p2rcd13ifvqdp0","pricing_plan_id":"cebpf4jnsgd1na2vs0mg"},{"bike_id":"97bbd611-7131-4c7d-8a9e-3f7c877bbd79","system_id":"levelo_inurba_marseille","lat":43.28926,"lon":5.38378,"is_reserved":false,"is_disabled":false,"rental_uris":{"android":"levelo://app?vid=97bbd611-7131-4c7d-8a9e-3f7c877bbd79","ios":"levelo://app?vid=97bbd611-7131-4c7d-8a9e-3f7c877bbd79"},"vehicle_type_id":"4","last_reported":1759259266,"current_range_meters":14000,"station_id":"ce4bh612rcd13ifvqe6g","pricing_plan_id":"cebpf4jnsgd1na2vs0mg"},{"bike_id":"a850760d-f890-4818-860e-321d70e97b11","system_id":"levelo_inurba_marseille","lat":43.32357,"lon":5.36727,"is_reserved":false,"is_disabled":false,"rental_uris":{"android":"levelo://app?vid=a850760d-f890-4818-860e-321d70e97b11","ios":"levelo://app?vid=a850760d-f890-4818-860e-321d70e97b11"},"vehicle_type_id":"4","last_reported":1759259266,"current_range_meters":14400,"station_id":"ce4bhsh2rcd13ifvqi2g","pricing_plan_id":"cebpf4jnsgd1na2vs0mg"},{"bike_id":"c14e105f-aced-4c9d-aadd-34aaef436613","system_id":"levelo_inurba_marseille","lat":43.31535,"lon":5.38039,"is_reserved":false,"is_disabled":false,"rental_uris":{"android":"levelo://app?vid=c14e105f-aced-4c9d-aadd-34aaef436613","ios":"levelo://app?vid=c14e105f-aced-4c9d-aadd-34aaef436613"},"vehicle_type_id":"4","last_reported":1759259266,"current_range_meters":13600,"station_id":"ce4bhsp2rcd13ifvqi50","pricing_plan_id":"cebpf4jnsgd1na2vs0mg"},{"bike_id":"4dc010d5-14ff-47a7-a396-979649193dca","system_id":"levelo_inurba_marseille","lat":43.24964,"lon":5.40502,"is_reserved":false,"is_disabled":false,"rental_uris":{"android":"levelo://app?vid=4dc010d5-14ff-47a7-a396-979649193dca","ios":"levelo://app?vid=4dc010d5-14ff-47a7-a396-979649193dca"},"vehicle_type_id":"4","last_reported":1759259266,"current_range_meters":14400,"station_id":"st_d2ngiaodas8pm72gd1h0","pricing_plan_id":"cebpf4jnsgd1na2vs0mg"},{"bike_id":"f752559e-e357-41d0-b0e1-06afd32411be","system_id":"levelo_inurba_marseille","lat":43.27479,"lon":5.40784,"is_reserved":false,"is_disabled":false,"rental_uris":{"android":"levelo://app?vid=f752559e-e357-41d0-b0e1-06afd32411be","ios":"levelo://app?vid=f752559e-e357-41d0-b0e1-06afd32411be"},"vehicle_type_id":"4","last_reported":1759259266,"current_range_meters":14400,"station_id":"","pricing_plan_id":"cebpf4jnsgd1na2vs0mg"},{"bike_id":"8f746f29-7fcd-4493-813f-77277ff30553","system_id":"levelo_inurba_marseille","lat":43.29263,"lon":5.38431,"is_reserved":false,"is_disabled":false,"rental_uris":{"android":"levelo://app?vid=8f746f29-7fcd-4493-813f-77277ff30553","ios":"levelo://app?vid=8f746f29-7fcd-4493-813f-77277ff30553"},"vehicle_type_id":"4","last_reported":1759259266,"current_range_meters":14400,"station_id":"ce4bh692rcd13ifvqea0","pricing_plan_id":"cebpf4jnsgd1na2vs0mg"},{"bike_id":"44050f58-45ea-495d-99e2-32cde845c8fb","system_id":"levelo_inurba_marseille","lat":43.246463,"lon":5.389003,"is_reserved":false,"is_disabled":false,"rental_uris":{"android":"levelo://app?vid=44050f58-45ea-495d-99e2-32cde845c8fb","ios":"levelo://app?vid=44050f58-45ea-495d-99e2-32cde845c8fb"},"vehicle_type_id":"4","last_reported":1759259266,"current_range_meters":14400,"station_id":"ce4bhg12rcd13ifvqf60","pricing_plan_id":"cebpf4jnsgd1na2vs0mg"},{"bike_id":"0e39ba31-93d4-4574-a5b9-c64786bcebce","system_id":"levelo_inurba_marseille","lat":43.278017,"lon":5.377237,"is_reserved":false,"is_disabled":false,"rental_uris":{"android":"levelo://app?vid=0e39ba31-93d4-4574-a5b9-c64786bcebce","ios":"levelo://app?vid=0e39ba31-93d4-4574-a5b9-c64786bcebce"},"vehicle_type_id":"4","last_reported":1759259266,"current_range_meters":14400,"station_id":"","pricing_plan_id":"cebpf4jnsgd1na2vs0mg"},{"bike_id":"ed7d28f4-4737-4c42-ad0a-4764073c54bd","system_id":"levelo_inurba_marseille","lat":43.27937,"lon":5.41053,"is_reserved":false,"is_disabled":false,"rental_uris":{"android":"levelo://app?vid=ed7d28f4-4737-4c42-ad0a-4764073c54bd","ios":"levelo://app?vid=ed7d28f4-4737-4c42-ad0a-4764073c54bd"},"vehicle_type_id":"4","last_reported":1759259266,"current_range_meters":14400,"station_id":"ce4bhnp2rcd13ifvqh0g","pricing_plan_id":"cebpf4jnsgd1na2vs0mg"},{"bike_id":"627f0009-c086-4f8a-8406-c08f3975bb85","system_id":"levelo_inurba_marseille","lat":43.337914,"lon":5.374267,"is_reserved":false,"is_disabled":false,"rental_uris":{"android":"levelo://app?vid=627f0009-c086-4f8a-8406-c08f3975bb85","ios":"levelo://app?vid=627f0009-c086-4f8a-8406-c08f3975bb85"},"vehicle_type_id":"4","last_reported":1759259266,"current_range_meters":14400,"station_id":"","pricing_plan_id":"cebpf4jnsgd1na2vs0mg"},{"bike_id":"8ff6968e-fa2d-4c44-a8ad-077296c1aba1","system_id":"levelo_inurba_marseille","lat":43.26561,"lon":5.39022,"is_reserved":false,"is_disabled":false,"rental_uris":{"android":"levelo://app?vid=8ff6968e-fa2d-4c44-a8ad-077296c1aba1","ios":"levelo://app?vid=8ff6968e-fa2d-4c44-a8ad-077296c1aba1"},"vehicle_type_id":"4","last_reported":1759259266,"current_range_meters":14800,"station_id":"ce4bhe12rcd13ifvqf30","pricing_plan_id":"cebpf4jnsgd1na2vs0mg"},{"bike_id":"fa3e6782-c198-4993-bfc8-ba4949faaf19","system_id":"levelo_inurba_marseille","lat":43.21202,"lon":5.35072,"is_reserved":false,"is_disabled":true,"rental_uris":{"android":"levelo://app?vid=fa3e6782-c198-4993-bfc8-ba4949faaf19","ios":"levelo://app?vid=fa3e6782-c198-4993-bfc8-ba4949faaf19"},"vehicle_type_id":"4","last_reported":1759259266,"current_range_meters":14800,"station_id":"","pricing_plan_id":"cebpf4jnsgd1na2vs0mg"},{"bike_id":"03740605-99b4-496f-9b9a-6ff2f6784f0d","system_id":"levelo_inurba_marseille","lat":43.28905,"lon":5.36649,"is_reserved":false,"is_disabled":false,"rental_uris":{"android":"levelo://app?vid=03740605-99b4-496f-9b9a-6ff2f6784f0d","ios":"levelo://app?vid=03740605-99b4-496f-9b9a-6ff2f6784f0d"},