{"last_updated":1729951641,"ttl":60,"version":"2.2","data":{"bikes":[{"bike_id":"c894f70f-2a6f-425b-ba00-c08216f3e7e3","system_id":"levelo_inurba_marseille","lat":43.29627,"lon":5.37164,"is_reserved":false,"is_disabled":false,"rental_uris":{"android":"levelo://app?vid=c894f70f-2a6f-425b-ba00-c08216f3e7e3","ios":"levelo://app?vid=c894f70f-2a6f-425b-ba00-c08216f3e7e3"},"vehicle_type_id":"4","last_reported":1729951641,"current_range_meters":38800,"station_id":"ce4bgnh2rcd13ifvqc0g","pricing_plan_id":"cebpf4jnsgd1na2vs0mg"},{"bike_id":"bfbee877-bc72-4bf6-b414-83080bae6a72","system_id":"levelo_inurba_marseille","lat":43.30295,"lon":5.392,"is_reserved":false,"is_disabled":false,"rental_uris":{"android":"levelo://app?vid=bfbee877-bc72-4bf6-b414-83080bae6a72","ios":"levelo://app?vid=bfbee877-bc72-4bf6-b414-83080bae6a72"},"vehicle_type_id":"4","last_reported":1729951641,"current_range_meters":36800,"station_id":"ce4bgkh2rcd13ifvqbk0","pricing_plan_id":"cebpf4jnsgd1na2vs0mg"},{"bike_id":"163eddd4-107c-441d-b897-daa82cca5a31","system_id":"levelo_inurba_marseille","lat":43.28079,"lon":5.39654,"is_reserved":false,"is_disabled":false,"rental_uris":{"android":"levelo://app?vid=163eddd4-107c-441d-b897-daa82cca5a31","ios":"levelo://app?vid=163eddd4-107c-441d-b897-daa82cca5a31"},"vehicle_type_id":"4","last_reported":1729951641,"current_range_meters":38800,"station_id":"ce4bho12rcd13ifvqh2g","pricing_plan_id":"cebpf4jnsgd1na2vs0mg"},{"bike_id":"4a250e5d-7f25-4c05-a9a4-f778d670880f","system_id":"levelo_inurba_marseille","lat":43.28485,"lon":5.38556,"is_reserved":false,"is_disabled":false,"rental_uris":{"android":"levelo://app?vid=4a250e5d-7f25-4c05-a9a4-f778d670880f","ios":"levelo://app?vid=4a250e5d-7f25-4c05-a9a4-f778d670880f"},"vehicle_type_id":"4","last_reported":1729951641,"current_range_meters":31200,"station_id":"ce4bh8p2rcd13ifvqeb0","pricing_plan_id":"cebpf4jnsgd1na2vs0mg"},{"bike_id":"26d518f2-e761-46eb-bc7c-d62463112389","system_id":"levelo_inurba_marseille","lat":43.29676,"lon":5.37283,"is_reserved":false,"is_disabled":false,"rental_uris":{"android":"levelo://app?vid=26d518f2-e761-46eb-bc7c-d62463112389","ios":"levelo://app?vid=26d518f2-e761-46eb-bc7c-d62463112389"},"vehicle_type_id":"4","last_reported":1729951641,"current_range_meters":38800,"station_id":"ce4bgk12rcd13ifvqbj0","pricing_plan_id":"cebpf4jnsgd1na2vs0mg"},{"bike_id":"48660d12-eacc-4f93-a06c-04c2aa9e37e4","system_id":"levelo_inurba_marseille","lat":43.268,"lon":5.40263,"is_reserved":false,"is_disabled":false,"rental_uris":{"android":"levelo://app?vid=48660d12-eacc-4f93-a06c-04c2aa9e37e4","ios":"levelo://app?vid=48660d12-eacc-4f93-a06c-04c2aa9e37e4"},"vehicle_type_id":"4","last_reported":1729951641,"current_range_meters":23200,"station_id":"ce501612rcd8frsf0b60","pricing_plan_id":"cebpf4jnsgd1na2vs0mg"},{"bike_id":"776ed003-ae0a-4f09-9717-cfd411739d60","system_id":"levelo_inurba_marseille","lat":43.29258,"lon":5.3844,"is_reserved":false,"is_disabled":false,"rental_uris":{"android":"levelo://app?vid=776ed003-ae0a-4f09-9717-cfd411739d60","ios":"levelo://app?vid=776ed003-ae0a-4f09-9717-cfd411739d60"},"vehicle_type_id":"4","last_reported":1729951641,"current_range_meters":8800,"station_id":"ce4bh692rcd13ifvqea0","pricing_plan_id":"cebpf4jnsgd1na2vs0mg"},{"bike_id":"70c7e2a0-aae9-4f06-b379-488fa885b01c","system_id":"levelo_inurba_marseille","lat":43.29789,"lon":5.38098,"is_reserved":false,"is_disabled":false,"rental_uris":{"android":"levelo://app?vid=70c7e2a0-aae9-4f06-b379-488fa885b01c","ios":"levelo://app?vid=70c7e2a0-aae9-4f06-b379-488fa885b01c"},"vehicle_type_id":"4","last_reported":1729951641,"current_range_meters":38000,"station_id":"ce4bgip2rcd13ifvqbb0","pricing_plan_id":"cebpf4jnsgd1na2vs0mg"},{"bike_id":"3381cd79-1316-4c50-ad86-ee5056cd0e14","system_id":"levelo_inurba_marseille","lat":43.26067,"lon":5.39398,"is_reserved":false,"is_disabled":false,"rental_uris":{"android":"levelo://app?vid=3381cd79-1316-4c50-ad86-ee5056cd0e14","ios":"levelo://app?vid=3381cd79-1316-4c50-ad86-ee5056cd0e14"},"vehicle_type_id":"4","last_reported":1729951641,"current_range_meters":36000,"station_id":"ce4bhh92rcd13ifvqfj0","pricing_plan_id":"cebpf4jnsgd1na2vs0mg"},{"bike_id":"3d3795db-b939-4e00-8d3f-297d5c313d81","system_id":"levelo_inurba_marseille","lat":43.30788,"lon":5.38158,"is_reserved":false,"is_disabled":false,"rental_uris":{"android":"levelo://app?vid=3d3795db-b939-4e00-8d3f-297d5c313d81","ios":"levelo://app?vid=3d3795db-b939-4e00-8d3f-297d5c313d81"},"vehicle_type_id":"4","last_reported":1729951641,"current_range_meters":33200,"station_id":"ce4bgt12rcd13ifvqce0","pricing_plan_id":"cebpf4jnsgd1na2vs0mg"},{"bike_id":"123f9339-b4ef-46cd-9a9a-cd9661aa78ef","system_id":"levelo_inurba_marseille","lat":43.27422,"lon":5.39416,"is_reserved":false,"is_disabled":false,"rental_uris":{"android":"levelo://app?vid=123f9339-b4ef-46cd-9a9a-cd9661aa78ef","ios":"levelo://app?vid=123f9339-b4ef-46cd-9a9a-cd9661aa78ef"},"vehicle_type_id":"4","last_reported":1729951641,"current_range_meters":16000,"station_id":"ce4bhdp2rcd13ifvqf20","pricing_plan_id":"cebpf4jnsgd1na2vs0mg"},{"bike_id":"6ba22111-850a-4da4-8d64-4d9b25c0762f","system_id":"levelo_inurba_marseille","lat":43.2408,"lon":5.37752,"is_reserved":false,"is_disabled":false,"rental_uris":{"android":"levelo://app?vid=6ba22111-850a-4da4-8d64-4d9b25c0762f","ios":"levelo://app?vid=6ba22111-850a-4da4-8d64-4d9b25c0762f"},"vehicle_type_id":"4","last_reported":1729951641,"current_range_meters":19200,"station_id":"ce4bhnp2rcd13ifvqgvg","pricing_plan_id":"cebpf4jnsgd1na2vs0mg"},{"bike_id":"8407034c-547e-4e26-bcdd-49baac3ee995","system_id":"levelo_inurba_marseille","lat":43.29711,"lon":5.37694,"is_reserved":false,"is_disabled":false,"rental_uris":{"android":"levelo://app?vid=8407034c-547e-4e26-bcdd-49baac3ee995","ios":"levelo://app?vid=8407034c-547e-4e26-bcdd-49baac3ee995"},"vehicle_type_id":"4","last_reported":1729951641,"current_range_meters":5600,"station_id":"ce4bha92rcd13ifvqeg0","pricing_plan_id":"cebpf4jnsgd1na2vs0mg"},{"bike_id":"e467597c-1c0a-4bcc-8298-d6da5df646ad","system_id":"levelo_inurba_marseille","lat":43.30557,"lon":5.3655,"is_reserved":false,"is_disabled":false,"rental_uris":{"android":"levelo://app?vid=e467597c-1c0a-4bcc-8298-d6da5df646ad","ios":"levelo://app?vid=e467597c-1c0a-4bcc-8298-d6da5df646ad"},"vehicle_type_id":"4","last_reported":1729951641,"current_range_meters":38000,"station_id":"ce4bgs12rcd13ifvqcag","pricing_plan_id":"cebpf4jnsgd1na2vs0mg"},{"bike_id":"7367f15d-f31d-4fc6-8020-482a9d5572b1","system_id":"levelo_inurba_marseille","lat":43.3168,"lon":5.40477,"is_reserved":false,"is_disabled":false,"rental_uris":{"android":"levelo://app?vid=7367f15d-f31d-4fc6-8020-482a9d5572b1","ios":"levelo://app?vid=7367f15d-f31d-4fc6-8020-482a9d5572b1"},"vehicle_type_id":"4","last_reported":1729951641,"current_range_meters":28000,"station_id":"ce4bh012rcd13ifvqd00","pricing_plan_id":"cebpf4jnsgd1na2vs0mg"},{"bike_id":"5de3cc0e-0363-46f9-9271-9ace2c22d289","system_id":"levelo_inurba_marseille","lat":43.30297,"lon":5.39203,"is_reserved":false,"is_disabled":false,"rental_uris":{"android":"levelo://app?vid=5de3cc0e-0363-46f9-9271-9ace2c22d289","ios":"levelo://app?vid=5de3cc0e-0363-46f9-9271-9ace2c22d289"},"vehicle_type_id":"4","last_reported":1729951641,"current_range_meters":21600,"station_id":"ce4bgkh2rcd13ifvqbk0","pricing_plan_id":"cebpf4jnsgd1na2vs0mg"},{"bike_id":"67384c89-6a90-4b79-a3c0-4b73568984ce","system_id":"levelo_inurba_marseille","lat":43.31235,"lon":5.36862,"is_reserved":false,"is_disabled":false,"rental_uris":{"android":"levelo://app?vid=67384c89-6a90-4b79-a3c0-4b73568984ce","ios":"levelo://app?vid=67384c89-6a90-4b79-a3c0-4b73568984ce"},"vehicle_type_id":"4","last_reported":1729951641,"current_range_meters":39200,"station_id":"ce4bgl92rcd13ifvqbq0","pricing_plan_id":"cebpf4jnsgd1na2vs0mg"},{"bike_id":"633bdd84-8a27-486c-8d5a-62bd9dd56f9f","system_id":"levelo_inurba_marseille","lat":43.26934,"lon":5.40256,"is_reserved":false,"is_disabled":false,"rental_uris":{"android":"levelo://app?vid=633bdd84-8a27-486c-8d5a-62bd9dd56f9f","ios":"levelo://app?vid=633bdd84-8a27-486c-8d5a-62bd9dd56f9f"},"vehicle_type_id":"4","last_reported":1729951641,"current_range_meters":39200,"station_id":"cjm6bp8fraef2m0cb0m0","pricing_plan_id":"cebpf4jnsgd1na2vs0mg"},{"bike_id":"365042da-fe2f-49c8-bdd1-2a0373063ba3","system_id":"levelo_inurba_marseille","lat":43.29624,"lon":5.37172,"is_reserved":false,"is_disabled":false,"rental_uris":{"android":"levelo://app?vid=365042da-fe2f-49c8-bdd1-2a0373063ba3","ios":"levelo://app?vid=365042da-fe2f-49c8-bdd1-2a0373063ba3"},"vehicle_type_id":"4","last_reported":1729951641,"current_range_meters":30800,"station_id":"ce4bgnh2rcd13ifvqc0g","pricing_plan_id":"cebpf4jnsgd1na2vs0mg"},{"bike_id":"7ad5cee9-1700-4df5-9506-106d58079bca","system_id":"levelo_inurba_marseille","lat":43.2962,"lon":5.37149,"is_reserved":false,"is_disabled":false,"rental_uris":{"android":"levelo://app?vid=7ad5cee9-1700-4df5-9506-106d58079bca","ios":"levelo://app?vid=7ad5cee9-1700-4df5-9506-106d58079bca"},"vehicle_type_id":"4","last_reported":1729951641,"current_range_meters":35600,"station_id":"ce4bgnh2rcd13ifvqc0g","pricing_plan_id":"cebpf4jnsgd1na2vs0mg"},{"bike_id":"090d6208-0a1b-4739-846f-ee75a9ed97d4","system_id":"levelo_inurba_marseille","lat":43.27829,"lon":5.39211,"is_reserved":false,"is_disabled":false,"rental_uris":{"android":"levelo://app?vid=090d6208-0a1b-4739-846f-ee75a9ed97d4","ios":"levelo://app?vid=090d6208-0a1b-4739-846f-ee75a9ed97d4"},"vehicle_type_id":"4","last_reported":1729951641,"current_range_meters":38800,"station_id":"ce4bhjp2rcd13ifvqga0","pricing_plan_id":"cebpf4jnsgd1na2vs0mg"},{"bike_id":"11e2eca3-8b21-422d-b4c7-b924184c7634","system_id":"levelo_inurba_marseille","lat":43.29768,"lon":5.37096,"is_reserved":false,"is_disabled":false,"rental_uris":{"android":"levelo://app?vid=11e2eca3-8b21-422d-b4c7-b924184c7634","ios":"levelo://app?vid=11e2eca3-8b21-422d-b4c7-b924184c7634"},"vehicle_type_id":"4","last_reported":1729951641,"current_range_meters":37600,"station_id":"ce4bgop2rcd13ifvqc1g","pricing_plan_id":"cebpf4jnsgd1na2vs0mg"},{"bike_id":"b89b25d5-4928-4bcc-968d-8967b3c0aff9","system_id":"levelo_inurba_marseille","lat":43.2908,"lon":5.37184,"is_reserved":false,"is_disabled":false,"rental_uris":{"android":"levelo://app?vid=b89b25d5-4928-4bcc-968d-8967b3c0aff9","ios":"levelo://app?vid=b89b25d5-4928-4bcc-968d-8967b3c0aff9"},"vehicle_type_id":"4","last_reported":1729951641,"current_range_meters":33600,"station_id":"ce4bh5p2rcd13ifvqe4g","pricing_plan_id":"cebpf4jnsgd1na2vs0mg"},{"bike_id":"40361128-084f-40bd-b8a5-91fd057f7d48","system_id":"levelo_inurba_marseille","lat":43.30806,"lon":5.43532,"is_reserved":false,"is_disabled":false,"rental_uris":{"android":"levelo://app?vid=40361128-084f-40bd-b8a5-91fd057f7d48","ios":"levelo://app?vid=40361128-084f-40bd-b8a5-91fd057f7d48"},"vehicle_type_id":"4","last_reported":1729951641,"current_range_meters":11600,"station_id":"ce4bhph2rcd13ifvqheg","pricing_plan_id":"cebpf4jnsgd1na2vs0mg"},{"bike_id":"eb546d5a-3c55-44c5-88a2-f5b3aff69b62","system_id":"levelo_inurba_marseille","lat":43.254926,"lon":5.376486,"is_reserved":false,"is_disabled":false,"rental_uris":{"android":"levelo://app?vid=eb546d5a-3c55-44c5-88a2-f5b3aff69b62","ios":"levelo://app?vid=eb546d5a-3c55-44c5-88a2-f5b3aff69b62"},"vehicle_type_id":"4","last_reported":1729951641,"current_range_meters":5600,"station_id":"ce4bhh12rcd13ifvqff0","pricing_plan_id":"cebpf4jnsgd1na2vs0mg"},{"bike_id":"c8f33dbe-8d46-4679-b0bd-686b38e43e1d","system_id":"levelo_inurba_marseille","lat":43.24545,"lon":5.39525,"is_reserved":false,"is_disabled":false,"rental_uris":{"android":"levelo://app?vid=c8f33dbe-8d46-4679-b0bd-686b38e43e1d","ios":"levelo://app?vid=c8f33dbe-8d46-4679-b0bd-686b38e43e1d"},"vehicle_type_id":"4","last_reported":1729951641,"current_range_meters":34000,"station_id":"ce4bhlp2rcd13ifvqgjg","pricing_plan_id":"cebpf4jnsgd1na2vs0mg"},{"bike_id":"a589bf84-5e5c-4ff0-819d-b09734427918","system_id":"levelo_inurba_marseille","lat":43.28717,"lon":5.37942,"is_reserved":false,"is_disabled":false,"rental_uris":{"android":"levelo://app?vid=a589bf84-5e5c-4ff0-819d-b09734427918","ios":"levelo://app?vid=a589bf84-5e5c-4ff0-819d-b09734427918"},"vehicle_type_id":"4","last_reported":1729951641,"current_range_meters":20800,"station_id":"ce4bh9p2rcd13ifvqec0","pricing_plan_id":"cebpf4jnsgd1na2vs0mg"},{"bike_id":"1ecf2373-c581-4ae8-8cd4-c6f5b845d2cb","system_id":"levelo_inurba_marseille","lat":43.30907,"lon":5.36848,"is_reserved":false,"is_disabled":false,"rental_uris":{"android":"levelo://app?vid=1ecf2373-c581-4ae8-8cd4-c6f5b845d2cb","ios":"levelo://app?vid=1ecf2373-c581-4ae8-8cd4-c6f5b845d2cb"},"vehicle_type_id":"4","last_reported":1729951641,"current_range_meters":35200,"station_id":"ce4bgn92rcd13ifvqbvg","pricing_plan_id":"cebpf4jnsgd1na2vs0mg"},{"bike_id":"408583ad-bed8-45b8-87b1-c4eda1ac1c7d","system_id":"levelo_inurba_marseille","lat":43.28721,"lon":5.37939,"is_reserved":false,"is_disabled":false,"rental_uris":{"android":"levelo://app?vid=408583ad-bed8-45b8-87b1-c4eda1ac1c7d","ios":"levelo://app?vid=408583ad-bed8-45b8-87b1-c4eda1ac1c7d"},"vehicle_type_id":"4","last_reported":1729951641,"current_range_meters":39200,"station_id":"ce4bh9p2rcd13ifvqec0","pricing_plan_id":"cebpf4jnsgd1na2vs0mg"},{"bike_id":"8c0c2fa1-37f9-48f1-b246-0c1a1c47fbb2","system_id":"levelo_inurba_marseille","lat":43.26579,"lon":5.38999,"is_reserved":false,"is_disabled":false,"rental_uris":{"android":"levelo://app?vid=8c0c2fa1-37f9-48f1-b246-0c1a1c47fbb2","ios":"levelo://app?vid=8c0c2fa1-37f9-48f1-b246-0c1a1c47fbb2"},"vehicle_type_id":"4","last_reported":1729951641,"current_range_meters":10000,"station_id":"ce4bhe12rcd13ifvqf30","pricing_plan_id":"cebpf4jnsgd1na2vs0mg"},{"bike_id":"b4c1c861-a75e-46c9-86c7-2e2349bb876d","system_id":"levelo_inurba_marseille","lat":43.25574,"lon":5.38233,"is_reserved":false,"is_disabled":false,"rental_uris":{"android":"levelo://app?vid=b4c1c861-a75e-46c9-86c7-2e2349bb876d","ios":"levelo://app?vid=b4c1c861-a75e-46c9-86c7-2e2349bb876d"},"vehicle_type_id":"4","last_reported":1729951641,"current_range_meters":28400,"station_id":"ce4bhih2rcd13ifvqfs0","pricing_plan_id":"cebpf4jnsgd1na2vs0mg"},{"bike_id":"0197a995-14d6-405e-84ea-a3fa0187e008","system_id":"levelo_inurba_marseille","lat":43.26948,"lon":5.40252,"is_reserved":false,"is_disabled":false,"rental_uris":{"android":"levelo://app?vid=0197a995-14d6-405e-84ea-a3fa0187e008","ios":"levelo://app?vid=0197a995-14d6-405e-84ea-a3fa0187e008"},"vehicle_type_id":"4","last_reported":1729951641,"current_range_meters":38800,"station_id":"cjm6bp8fraef2m0cb0m0","pricing_plan_id":"cebpf4jnsgd1na2vs0mg"},{"bike_id":"2b3a1a40-5bc8-49b5-bb1f-55664b956d38","system_id":"levelo_inurba_marseille","lat":43.29509,"lon":5.37502,"is_reserved":false,"is_disabled":false,"rental_uris":{"android":"levelo://app?vid=2b3a1a40-5bc8-49b5-bb1f-55664b956d38","ios":"levelo://app?vid=2b3a1a40-5bc8-49b5-bb1f-55664b956d38"},"vehicle_type_id":"4","last_reported":1729951641,"current_range_meters":18000,"station_id":"ce4bgkp2rcd13ifvqbmg","pricing_plan_id":"cebpf4jnsgd1na2vs0mg"},{"bike_id":"7ba88f61-9448-4000-8a5c-e1bf783a7bca","system_id":"levelo_inurba_marseille","lat":43.29084,"lon":5.3816,"is_reserved":false,"is_disabled":false,"rental_uris":{"android":"levelo://app?vid=7ba88f61-9448-4000-8a5c-e1bf783a7bca","ios":"levelo://app?vid=7ba88f61-9448-4000-8a5c-e1bf783a7bca"},"vehicle_type_id":"4","last_reported":1729951641,"current_range_meters":34000,"station_id":"ce4bh512rcd13ifvqe2g","pricing_plan_id":"cebpf4jnsgd1na2vs0mg"},{"bike_id":"5e5014a1-159f-47eb-bc85-47a631e37cf4","system_id":"levelo_inurba_marseille","lat":43.30263,"lon":5.40082,"is_reserved":false,"is_disabled":false,"rental_uris":{"android":"levelo://app?vid=5e5014a1-159f-47eb-bc85-47a631e37cf4","ios":"levelo://app?vid=5e5014a1-159f-47eb-bc85-47a631e37cf4"},"vehicle_type_id":"4","last_reported":1729951641,"current_range_meters":37600,"station_id":"ce4bgvh2rcd13ifvqcs0","pricing_plan_id":"cebpf4jnsgd1na2vs0mg"},{"bike_id":"373beb12-0cb8-4203-a7f1-f364e7fa360d","system_id":"levelo_inurba_marseille","lat":43.25578,"lon":5.38242,"is_reserved":false,"is_disabled":false,"rental_uris":{"android":"levelo://app?vid=373beb12-0cb8-4203-a7f1-f364e7fa360d","ios":"levelo://app?vid=373beb12-0cb8-4203-a7f1-f364e7fa360d"},"vehicle_type_id":"4","last_reported":1729951641,"current_range_meters":37600,"station_id":"ce4bhih2rcd13ifvqfs0","pricing_plan_id":"cebpf4jnsgd1na2vs0mg"},{"bike_id":"c25d9b60-5434-4e6f-b007-7ec2e900a21f","system_id":"levelo_inurba_marseille","lat":43.293065,"lon":5.371637,"is_reserved":false,"is_disabled":false,"rental_uris":{"android":"levelo://app?vid=c25d9b60-5434-4e6f-b007-7ec2e900a21f","ios":"levelo://app?vid=c25d9b60-5434-4e6f-b007-7ec2e900a21f"},"vehicle_type_id":"4","last_reported":1729951641,"current_range_meters":38400,"station_id":"ce4bgh92rcd13ifvqb40","pricing_plan_id":"cebpf4jnsgd1na2vs0mg"},{"bike_id":"62a19d44-7e25-49c4-89dc-58135c8bbd8a","system_id":"levelo_inurba_marseille","lat":43.29219,"lon":5.36071,"is_reserved":false,"is_disabled":false,"rental_uris":{"android":"levelo://app?vid=62a19d44-7e25-49c4-89dc-58135c8bbd8a","ios":"levelo://app?vid=62a19d44-7e25-49c4-89dc-58135c8bbd8a"},"vehicle_type_id":"4","last_reported":1729951641,"current_range_meters":38800,"station_id":"ce4bhbh2rcd13ifvqeqg","pricing_plan_id":"cebpf4jnsgd1na2vs0mg"},{"bike_id":"e7360508-6978-487a-a79b-5e2dad5d0ea3","system_id":"levelo_inurba_marseille","lat":43.22928,"lon":5.3538,"is_reserved":false,"is_disabled":false,"rental_uris":{"android":"levelo://app?vid=e7360508-6978-487a-a79b-5e2dad5d0ea3","ios":"levelo://app?vid=e7360508-6978-487a-a79b-5e2dad5d0ea3"},"vehicle_type_id":"4","last_reported":1729951641,"current_range_meters":30000,"station_id":"cpo3532slgdg3j2ikp40","pricing_plan_id":"cebpf4jnsgd1na2vs0mg"},{"bike_id":"d9c06526-3274-4f8f-a488-6595da948d02","system_id":"levelo_inurba_marseille","lat":43.27211,"lon":5.39179,"is_reserved":false,"is_disabled":false,"rental_uris":{"android":"levelo://app?vid=d9c06526-3274-4f8f-a488-6595da948d02","ios":"levelo://app?vid=d9c06526-3274-4f8f-a488-6595da948d02"},"vehicle_type_id":"4","last_reported":1729951641,"current_range_meters":38800,"station_id":"ce4bhhp2rcd13ifvqfm0","pricing_plan_id":"cebpf4jnsgd1na2vs0mg"},{"bike_id":"65a0b432-1bb9-4e43-a87c-f8817a6ed636","system_id":"levelo_inurba_marseille","lat":43.2408,"lon":5.37753,"is_reserved":false,"is_disabled":false,"rental_uris":{"android":"levelo://app?vid=65a0b432-1bb9-4e43-a87c-f8817a6ed636","ios":"levelo://app?vid=65a0b432-1bb9-4e43-a87c-f8817a6ed636"},"vehicle_type_id":"4","last_reported":1729951641,"current_range_meters":14800,"station_id":"ce4bhnp2rcd13ifvqgvg","pricing_plan_id":"cebpf4jnsgd1na2vs0mg"},{"bike_id":"cef8a6c5-52e4-4542-955f-8afe13b8a51c","system_id":"levelo_inurba_marseille","lat":43.29959,"lon":5.41323,"is_reserved":false,"is_disabled":false,"rental_uris":{"android":"levelo://app?vid=cef8a6c5-52e4-4542-955f-8afe13b8a51c","ios":"levelo://app?vid=cef8a6c5-52e4-4542-955f-8afe13b8a51c"},"vehicle_type_id":"4","last_reported":1729951641,"current_range_meters":37600,"station_id":"ce4bhp12rcd13ifvqh9g","pricing_plan_id":"cebpf4jnsgd1na2vs0mg"},{"bike_id":"3c74d177-f7d5-46aa-be7b-aa6de483a411","system_id":"levelo_inurba_marseille","lat":43.298124,"lon":5.37088,"is_reserved":false,"is_disabled":false,"rental_uris":{"android":"levelo://app?vid=3c74d177-f7d5-46aa-be7b-aa6de483a411","ios":"levelo://app?vid=3c74d177-f7d5-46aa-be7b-aa6de483a411"},"vehicle_type_id":"4","last_reported":1729951641,"current_range_meters":24000,"station_id":"","pricing_plan_id":"cebpf4jnsgd1na2vs0mg"},{"bike_id":"33ff4d83-4e04-47c2-95f9-e34958706111","system_id":"levelo_inurba_marseille","lat":43.28419,"lon":5.3751,"is_reserved":false,"is_disabled":false,"rental_uris":{"android":"levelo://app?vid=33ff4d83-4e04-47c2-95f9-e34958706111","ios":"levelo://app?vid=33ff4d83-4e04-47c2-95f9-e34958706111"},"vehicle_type_id":"4","last_reported":1729951641,"current_range_meters":32000,"station_id":"ce4bh412rcd13ifvqds0","pricing_plan_id":"cebpf4jnsgd1na2vs0mg"},{"bike_id":"34c0b19e-e327-425b-bf09-25bec92dd9c4","system_id":"levelo_inurba_marseille","lat":43.29327,"lon":5.45471,"is_reserved":false,"is_disabled":false,"rental_uris":{"android":"levelo://app?vid=34c0b19e-e327-425b-bf09-25bec92dd9c4","ios":"levelo://app?vid=34c0b19e-e327-425b-bf09-25bec92dd9c4"},"vehicle_type_id":"4","last_reported":1729951641,"current_range_meters":16800,"station_id":"","pricing_plan_id":"cebpf4jnsgd1na2vs0mg"},{"bike_id":"6e064dba-de70-4398-b6a3-af4d9b1b8400","system_id":"levelo_inurba_marseille","lat":43.26215,"lon":5.3744,"is_reserved":false,"is_disabled":false,"rental_uris":{"android":"levelo://app?vid=6e064dba-de70-4398-b6a3-af4d9b1b8400","ios":"levelo://app?vid=6e064dba-de70-4398-b6a3-af4d9b1b8400"},"vehicle_type_id":"4","last_reported":1729951641,"current_range_meters":30400,"station_id":"ce4bhgp2rcd13ifvqfc0","pricing_plan_id":"cebpf4jnsgd1na2vs0mg"},{"bike_id":"778cb633-612d-4867-8516-254218b48069","system_id":"levelo_inurba_marseille","lat":43.29576,"lon":5.36741,"is_reserved":false,"is_disabled":false,"rental_uris":{"android":"levelo://app?vid=778cb633-612d-4867-8516-254218b48069","ios":"levelo://app?vid=778cb633-612d-4867-8516-254218b48069"},"vehicle_type_id":"4","last_reported":1729951641,"current_range_meters":3200,"station_id":"ce4bgph2rcd13ifvqc2g","pricing_plan_id":"cebpf4jnsgd1na2vs0mg"},{"bike_id":"c12aa059-8a66-4a93-bcd6-b5fcac3ca12a","system_id":"levelo_inurba_marseille","lat":43.31369,"lon":5.3849,"is_reserved":false,"is_disabled":false,"rental_uris":{"android":"levelo://app?vid=c12aa059-8a66-4a93-bcd6-b5fcac3ca12a","ios":"levelo://app?vid=c12aa059-8a66-4a93-bcd6-b5fcac3ca12a"},"vehicle_type_id":"4","last_reported":1729951641,"current_range_meters":22400,"station_id":"ce4bgt92rcd13ifvqcf0","pricing_plan_id":"cebpf4jnsgd1na2vs0mg"},{"bike_id":"5063f4af-2df5-4a8d-971c-2e45b710db02","system_id":"levelo_inurba_marseille","lat":43.25575,"lon":5.38246,"is_reserved":false,"is_disabled":false,"rental_uris":{"android":"levelo://app?vid=5063f4af-2df5-4a8d-971c-2e45b710db02","ios":"levelo://app?vid=5063f4af-2df5-4a8d-971c-2e45b710db02"},"vehicle_type_id":"4","last_reported":1729951641,"current_range_meters":37600,"station_id":"ce4bhih2rcd13ifvqfs0","pricing_plan_id":"cebpf4jnsgd1na2vs0mg"},{"bike_id":"e16ba0fb-c8f9-4074-a1c8-ad626ad5602f","system_id":"levelo_inurba_marseille","lat":43.26939,"lon":5.40264,"is_reserved":false,"is_disabled":false,"rental_uris":{"android":"levelo://app?vid=e16ba0fb-c8f9-4074-a1c8-ad626ad5602f","ios":"levelo://app?vid=e16ba0fb-c8f9-4074-a1c8-ad626ad5602f"},"vehicle_type_id":"4","last_reported":1729951641,"current_range_meters":39200,"station_id":"cjm6bp8fraef2m0cb0m0","pricing_plan_id":"cebpf4jnsgd1na2vs0mg"},{"bike_id":"fad42251-2e99-4f0e-8106-075fc5b792cd","system_id":"levelo_inurba_marseille","lat":43.26195,"lon":5.37448,"is_reserved":false,"is_disabled":false,"rental_uris":{"android":"levelo://app?vid=fad42251-2e99-4f0e-8106-075fc5b792cd","ios":"levelo://app?vid=fad42251-2e99-4f0e-8106-075fc5b792cd"},"vehicle_type_id":"4","last_reported":1729951641,"current_range_meters":37600,"station_id":"ce4bhgp2rcd13ifvqfc0","pricing_plan_id":"cebpf4jnsgd1na2vs0mg"},{"bike_id":"485075a1-66f5-4529-8480-56c5e4119a5c","system_id":"levelo_inurba_marseille","lat":43.275673,"lon":5.384121,"is_reserved":false,"is_disabled":false,"rental_uris":{"android":"levelo://app?vid=485075a1-66f5-4529-8480-56c5e4119a5c","ios":"levelo://app?vid=485075a1-66f5-4529-8480-56c5e4119a5c"},"vehicle_type_id":"4","last_reported":1729951641,"current_range_meters":38800,"station_id":"ce4bhh92rcd13ifvqfi0","pricing_plan_id":"cebpf4jnsgd1na2vs0mg"},{"bike_id":"cd6085f0-abe4-4e31-91e6-31eaf858a0e1","system_id":"levelo_inurba_marseille","lat":43.30954,"lon":5.39037,"is_reserved":false,"is_disabled":false,"rental_uris":{"android":"levelo://app?vid=cd6085f0-abe4-4e31-91e6-31eaf858a0e1","ios":"levelo://app?vid=cd6085f0-abe4-4e31-91e6-31eaf858a0e1"},"vehicle_type_id":"4","last_reported":1729951641,"current_range_meters":27200,"station_id":"ce4bgup2rcd13ifvqco0","pricing_plan_id":"cebpf4jnsgd1na2vs0mg"},{"bike_id":"43650981-6b24-4a34-b5e2-fd816b5645ae","system_id":"levelo_inurba_marseille","lat":43.2926,"lon":5.38449,"is_reserved":false,"is_disabled":false,"rental_uris":{"android":"levelo://app?vid=43650981-6b24-4a34-b5e2-fd816b5645ae","ios":"levelo://app?vid=43650981-6b24-4a34-b5e2-fd816b5645ae"},"vehicle_type_id":"4","last_reported":1729951641,"current_range_meters":27600,"station_id":"ce4bh692rcd13ifvqea0","pricing_plan_id":"cebpf4jnsgd1na2vs0mg"},{"bike_id":"fa85b85c-3a79-4bd5-b190-7c23aca73add","system_id":"levelo_inurba_marseille","lat":43.296173,"lon":5.373773,"is_reserved":false,"is_disabled":false,"rental_uris":{"android":"levelo://app?vid=fa85b85c-3a79-4bd5-b190-7c23aca73add","ios":"levelo://app?vid=fa85b85c-3a79-4bd5-b190-7c23aca73add"},"vehicle_type_id":"4","last_reported":1729951641,"current_range_meters":27200,"station_id":"ce4bh612rcd13ifvqe6g","pricing_plan_id":"cebpf4jnsgd1na2vs0mg"},{"bike_id":"6875a1a6-32b9-4783-93f5-84a3a0c85f67","system_id":"levelo_inurba_marseille","lat":43.23064,"lon":5.35489,"is_reserved":false,"is_disabled":false,"rental_uris":{"android":"levelo://app?vid=6875a1a6-32b9-4783-93f5-84a3a0c85f67","ios":"levelo://app?vid=6875a1a6-32b9-4783-93f5-84a3a0c85f67"},"vehicle_type_id":"4","last_reported":1729951641,"current_range_meters":30000,"station_id":"cpo3342slgdg3j2ifvpg","pricing_plan_id":"cebpf4jnsgd1na2vs0mg"},{"bike_id":"889e4acd-dea2-4e5b-91ea-b561581ead61","system_id":"levelo_inurba_marseille","lat":43.2656,"lon":5.39006,"is_reserved":false,"is_disabled":false,"rental_uris":{"android":"levelo://app?vid=889e4acd-dea2-4e5b-91ea-b561581ead61","ios":"levelo://app?vid=889e4acd-dea2-4e5b-91ea-b561581ead61"},"vehicle_type_id":"4","last_reported":1729951641,"current_range_meters":38800,"station_id":"ce4bhe12rcd13ifvqf30","pricing_plan_id":"cebpf4jnsgd1na2vs0mg"},{"bike_id":"dc690ca7-52fc-47f8-a2bd-076e56f966ed","system_id":"levelo_inurba_marseille","lat":43.27051,"lon":5.4026,"is_reserved":false,"is_disabled":false,"rental_uris":{"android":"levelo://app?vid=dc690ca7-52fc-47f8-a2bd-076e56f966ed","ios":"levelo://app?vid=dc690ca7-52fc-47f8-a2bd-076e56f966ed"},"vehicle_type_id":"4","last_reported":1729951641,"current_range_meters":37600,"station_id":"ce4bhk92rcd13ifvqgc0","pricing_plan_id":"cebpf4jnsgd1na2vs0mg"},{"bike_id":"d7a8e45f-bbdd-4620-bf9c-0d509253e7ff","system_id":"levelo_inurba_marseille","lat":43.29843,"lon":5.36273,"is_reserved":false,"is_disabled":false,"rental_uris":{"android":"levelo://app?vid=d7a8e45f-bbdd-4620-bf9c-0d509253e7ff","ios":"levelo://app?vid=d7a8e45f-bbdd-4620-bf9c-0d509253e7ff"},"vehicle_type_id":"4","last_reported":1729951641,"current_range_meters":31200,"station_id":"ce4bgpp2rcd13ifvqc3g","pricing_plan_id":"cebpf4jnsgd1na2vs0mg"},{"bike_id":"3a9bfb16-0c1d-4441-a397-be908d793bb9","system_id":"levelo_inurba_marseille","lat":43.2549,"lon":5.37649,"is_reserved":false,"is_disabled":false,"rental_uris":{"android":"levelo://app?vid=3a9bfb16-0c1d-4441-a397-be908d793bb9","ios":"levelo://app?vid=3a9bfb16-0c1d-4441-a397-be908d793bb9"},"vehicle_type_id":"4","last_reported":1729951641,"current_range_meters":31200,"station_id":"ce4bhh12rcd13ifvqff0","pricing_plan_id":"cebpf4jnsgd1na2vs0mg"},{"bike_id":"dd8e8b79-2b45-4d11-a75d-121c717ed359","system_id":"levelo_inurba_marseille","lat":43.27374,"lon":5.36261,"is_reserved":false,"is_disabled":false,"rental_uris":{"android":"levelo://app?vid=dd8e8b79-2b45-4d11-a75d-121c717ed359","ios":"levelo://app?vid=dd8e8b79-2b45-4d11-a75d-121c717ed359"},"vehicle_type_id":"4","last_reported":1729951641,"current_range_meters":38800,"station_id":"ce4bhbh2rcd13ifvqeo0","pricing_plan_id":"cebpf4jnsgd1na2vs0mg"},{"bike_id":"0a37d4b5-856f-49ed-a46c-bda1ec1913bb","system_id":"levelo_inurba_marseille","lat":43.265533,"lon":5.372828,"is_reserved":false,"is_disabled":false,"rental_uris":{"android":"levelo://app?vid=0a37d4b5-856f-49ed-a46c-bda1ec1913bb","ios":"levelo://app?vid=0a37d4b5-856f-49ed-a46c-bda1ec1913bb"},"vehicle_type_id":"4","last_reported":1729951641,"current_range_meters":38800,"station_id":"ce4bhg12rcd13ifvqf70","pricing_plan_id":"cebpf4jnsgd1na2vs0mg"},{"bike_id":"da3e9f08-7d0c-46e1-8d60-008e3cea9b39","system_id":"levelo_inurba_marseille","lat":43.30921,"lon":5.40156,"is_reserved":false,"is_disabled":false,"rental_uris":{"android":"levelo://app?vid=da3e9f08-7d0c-46e1-8d60-008e3cea9b39","ios":"levelo://app?vid=da3e9f08-7d0c-46e1-8d60-008e3cea9b39"},"vehicle_type_id":"4","last_reported":1729951641,"current_range_meters":33200,"station_id":"ce4bgvp2rcd13ifvqct0","pricing_plan_id":"cebpf4jnsgd1na2vs0mg"},{"bike_id":"fe827cd3-0c09-4990-9d97-6bb259358f7d","system_id":"levelo_inurba_marseille","lat":43.24386,"lon":5.37059,"is_reserved":false,"is_disabled":false,"rental_uris":{"android":"levelo://app?vid=fe827cd3-0c09-4990-9d97-6bb259358f7d","ios":"levelo://app?vid=fe827cd3-0c09-4990-9d97-6bb259358f7d"},"vehicle_type_id":"4","last_reported":1729951641,"current_range_meters":12400,"station_id":"ce4bhhh2rcd13ifvqfk0","pricing_plan_id":"cebpf4jnsgd1na2vs0mg"},{"bike_id":"9a36fa65-42dc-4268-b8ef-c2e3daf798ec","system_id":"levelo_inurba_marseille","lat":43.32658,"lon":5.4099,"is_reserved":false,"is_disabled":false,"rental_uris":{"android":"levelo://app?vid=9a36fa65-42dc-4268-b8ef-c2e3daf798ec","ios":"levelo://app?vid=9a36fa65-42dc-4268-b8ef-c2e3daf798ec"},"vehicle_type_id":"4","last_reported":1729951641,"current_range_meters":38800,"station_id":"ce4bhpp2rcd13ifvqhgg","pricing_plan_id":"cebpf4jnsgd1na2vs0mg"},{"bike_id":"7495a94b-9f18-4fc2-9997-3602a8b06834","system_id":"levelo_inurba_marseille","lat":43.30344,"lon":5.41878,"is_reserved":false,"is_disabled":false,"rental_uris":{"android":"levelo://app?vid=7495a94b-9f18-4fc2-9997-3602a8b06834","ios":"levelo://app?vid=7495a94b-9f18-4fc2-9997-3602a8b06834"},"vehicle_type_id":"4","last_reported":1729951641,"current_range_meters":12000,"station_id":"ce4bhop2rcd13ifvqh7g","pricing_plan_id":"cebpf4jnsgd1na2vs0mg"},{"bike_id":"d4dbb103-b4d9-4e96-8ae8-a3fef8c9dbdf","system_id":"levelo_inurba_marseille","lat":43.31756,"lon":5.3902,"is_reserved":false,"is_disabled":false,"rental_uris":{"android":"levelo://app?vid=d4dbb103-b4d9-4e96-8ae8-a3fef8c9dbdf","ios":"levelo://app?vid=d4dbb103-b4d9-4e96-8ae8-a3fef8c9dbdf"},"vehicle_type_id":"4","last_reported":1729951641,"current_range_meters":16400,"station_id":"ce4bhqp2rcd13ifvqhng","pricing_plan_id":"cebpf4jnsgd1na2vs0mg"},{"bike_id":"07930b03-63b0-438a-b866-1ea1f67e9f7c","system_id":"levelo_inurba_marseille","lat":43.29224,"lon":5.36053,"is_reserved":false,"is_disabled":false,"rental_uris":{"android":"levelo://app?vid=07930b03-63b0-438a-b866-1ea1f67e9f7c","ios":"levelo://app?vid=07930b03-63b0-438a-b866-1ea1f67e9f7c"},"vehicle_type_id":"4","last_reported":1729951641,"current_range_meters":36000,"station_id":"ce4bhbh2rcd13ifvqeqg","pricing_plan_id":"cebpf4jnsgd1na2vs0mg"},{"bike_id":"72d4fe02-7ad5-4cd4-aa12-822b9a78e2cb","system_id":"levelo_inurba_marseille","lat":43.30926,"lon":5.4015,"is_reserved":false,"is_disabled":false,"rental_uris":{"android":"levelo://app?vid=72d4fe02-7ad5-4cd4-aa12-822b9a78e2cb","ios":"levelo://app?vid=72d4fe02-7ad5-4cd4-aa12-822b9a78e2cb"},"vehicle_type_id":"4","last_reported":1729951641,"current_range_meters":38800,"station_id":"ce4bgvp2rcd13ifvqct0","pricing_plan_id":"cebpf4jnsgd1na2vs0mg"},{"bike_id":"c620abc8-2626-440f-878c-1efbd192a62e","system_id":"levelo_inurba_marseille","lat":43.25004,"lon":5.38922,"is_reserved":false,"is_disabled":false,"rental_uris":{"android":"levelo://app?vid=c620abc8-2626-440f-878c-1efbd192a62e","ios":"levelo://app?vid=c620abc8-2626-440f-878c-1efbd192a62e"},"vehicle_type_id":"4","last_reported":1729951641,"current_range_meters":38800,"station_id":"ce4bhgp2rcd13ifvqfd0","pricing_plan_id":"cebpf4jnsgd1na2vs0mg"},{"bike_id":"03c3662f-d9b5-485a-8a89-75c166e95f18","system_id":"levelo_inurba_marseille","lat":43.301531,"lon":5.380861,"is_reserved":false,"is_disabled":false,"rental_uris":{"android":"levelo://app?vid=03c3662f-d9b5-485a-8a89-75c166e95f18","ios":"levelo://app?vid=03c3662f-d9b5-485a-8a89-75c166e95f18"},"vehicle_type_id":"4","last_reported":1729951641,"current_range_meters":27200,"station_id":"ce4bgjp2rcd13ifvqbh0","pricing_plan_id":"cebpf4jnsgd1na2vs0mg"},{"bike_id":"f73eb936-9c2a-478f-b577-3db04ff09a3e","system_id":"levelo_inurba_marseille","lat":43.29251,"lon":5.40909,"is_reserved":false,"is_disabled":false,"rental_uris":{"android":"levelo://app?vid=f73eb936-9c2a-478f-b577-3db04ff09a3e","ios":"levelo://app?vid=f73eb936-9c2a-478f-b577-3db04ff09a3e"},"vehicle_type_id":"4","last_reported":1729951641,"current_range_meters":38800,"station_id":"ce4bh192rcd13ifvqdc0","pricing_plan_id":"cebpf4jnsgd1na2vs0mg"},{"bike_id":"b00ff3f0-eb85-4cae-8041-4372fdfdcda6","system_id":"levelo_inurba_marseille","lat":43.27313,"lon":5.39095,"is_reserved":false,"is_disabled":false,"rental_uris":{"android":"levelo://app?vid=b00ff3f0-eb85-4cae-8041-4372fdfdcda6","ios":"levelo://app?vid=b00ff3f0-eb85-4cae-8041-4372fdfdcda6"},"vehicle_type_id":"4","last_reported":1729951641,"current_range_meters":3200,"station_id":"ce4bhgp2rcd13ifvqfe0","pricing_plan_id":"cebpf4jnsgd1na2vs0mg"},{"bike_id":"c2c62c3b-9fd9-4656-9a0f-de891581f0fb","system_id":"levelo_inurba_marseille","lat":43.28415,"lon":5.34983,"is_reserved":false,"is_disabled":false,"rental_uris":{"android":"levelo://app?vid=c2c62c3b-9fd9-4656-9a0f-de891581f0fb","ios":"levelo://app?vid=c2c62c3b-9fd9-4656-9a0f-de891581f0fb"},"vehicle_type_id":"4","last_reported":1729951641,"current_range_meters":32000,"station_id":"ce4bhbh2rcd13ifvqepg","pricing_plan_id":"cebpf4jnsgd1na2vs0mg"},{"bike_id":"0746b5ef-d14c-48d4-b50d-3a9822f0004c","system_id":"levelo_inurba_marseille","lat":43.22937,"lon":5.35378,"is_reserved":false,"is_disabled":false,"rental_uris":{"android":"levelo://app?vid=0746b5ef-d14c-48d4-b50d-3a9822f0004c","ios":"levelo://app?vid=0746b5ef-d14c-48d4-b50d-3a9822f0004c"},"vehicle_type_id":"4","last_reported":1729951641,"current_range_meters":36400,"station_id":"cpo3532slgdg3j2ikp40","pricing_plan_id":"cebpf4jnsgd1na2vs0mg"},{"bike_id":"34fe0dd6-f475-4a80-908d-ffe3dd401102","system_id":"levelo_inurba_marseille","lat":43.2466,"lon":5.38164,"is_reserved":false,"is_disabled":false,"rental_uris":{"android":"levelo://app?vid=34fe0dd6-f475-4a80-908d-ffe3dd401102","ios":"levelo://app?vid=34fe0dd6-f475-4a80-908d-ffe3dd401102"},"vehicle_type_id":"4","last_reported":1729951641,"current_range_meters":6400,"station_id":"ce4bhn12rcd13ifvqgpg","pricing_plan_id":"cebpf4jnsgd1na2vs0mg"},{"bike_id":"0c60e0c9-b627-4979-85c0-fc19ec1301b6","system_id":"levelo_inurba_marseille","lat":43.26029,"lon":5.37553,"is_reserved":false,"is_disabled":false,"rental_uris":{"android":"levelo://app?vid=0c60e0c9-b627-4979-85c0-fc19ec1301b6","ios":"levelo://app?vid=0c60e0c9-b627-4979-85c0-fc19ec1301b6"},"vehicle_type_id":"4","last_reported":1729951641,"current_range_meters":33600,"station_id":"ce4bhgh2rcd13ifvqfa0","pricing_plan_id":"cebpf4jnsgd1na2vs0mg"},{"bike_id":"3d3e5018-3d0d-40b1-9179-e1a33d519eda","system_id":"levelo_inurba_marseille","lat":43.27311,"lon":5.39082,"is_reserved":false,"is_disabled":false,"rental_uris":{"android":"levelo://app?vid=3d3e5018-3d0d-40b1-9179-e1a33d519eda","ios":"levelo://app?vid=3d3e5018-3d0d-40b1-9179-e1a33d519eda"},"vehicle_type_id":"4","last_reported":1729951641,"current_range_meters":26000,"station_id":"ce4bhgp2rcd13ifvqfe0","pricing_plan_id":"cebpf4jnsgd1na2vs0mg"},{"bike_id":"ef136fa5-257b-4ee5-bd73-f0de7405e6ba","system_id":"levelo_inurba_marseille","lat":43.24539,"lon":5.39519,"is_reserved":false,"is_disabled":false,"rental_uris":{"android":"levelo://app?vid=ef136fa5-257b-4ee5-bd73-f0de7405e6ba","ios":"levelo://app?vid=ef136fa5-257b-4ee5-bd73-f0de7405e6ba"},"vehicle_type_id":"4","last_reported":1729951641,"current_range_meters":29600,"station_id":"ce4bhlp2rcd13ifvqgjg","pricing_plan_id":"cebpf4jnsgd1na2vs0mg"},{"bike_id":"ca20f193-a7fc-418d-a3ae-dbb2bd510d2d","system_id":"levelo_inurba_marseille","lat":43.30775,"lon":5.37648,"is_reserved":false,"is_disabled":false,"rental_uris":{"android":"levelo://app?vid=ca20f193-a7fc-418d-a3ae-dbb2bd510d2d","ios":"levelo://app?vid=ca20f193-a7fc-418d-a3ae-dbb2bd510d2d"},"vehicle_type_id":"4","last_reported":1729951641,"current_range_meters":38800,"station_id":"ce4bgv92rcd13ifvqcq0","pricing_plan_id":"cebpf4jnsgd1na2vs0mg"},{"bike_id":"3563856c-b401-40bc-8eb6-8d16f3194b35","system_id":"levelo_inurba_marseille","lat":43.30489,"lon":5.36631,"is_reserved":false,"is_disabled":false,"rental_uris":{"android":"levelo://app?vid=3563856c-b401-40bc-8eb6-8d16f3194b35","ios":"levelo://app?vid=3563856c-b401-40bc-8eb6-8d16f3194b35"},"vehicle_type_id":"4","last_reported":1729951641,"current_range_meters":38400,"station_id":"ce4bgrp2rcd13ifvqc9g","pricing_plan_id":"cebpf4jnsgd1na2vs0mg"},{"bike_id":"9488ca84-aa5e-4311-bde9-38d634703444","system_id":"levelo_inurba_marseille","lat":43.3248,"lon":5.36565,"is_reserved":false,"is_disabled":false,"rental_uris":{"android":"levelo://app?vid=9488ca84-aa5e-4311-bde9-38d634703444","ios":"levelo://app?vid=9488ca84-aa5e-4311-bde9-38d634703444"},"vehicle_type_id":"4","last_reported":1729951641,"current_range_meters":38800,"station_id":"ce4bhs12rcd13ifvqhvg","pricing_plan_id":"cebpf4jnsgd1na2vs0mg"},{"bike_id":"adee13b6-38d0-497f-9ce3-7744a8d05815","system_id":"levelo_inurba_marseille","lat":43.27811,"lon":5.40718,"is_reserved":false,"is_disabled":false,"rental_uris":{"android":"levelo://app?vid=adee13b6-38d0-497f-9ce3-7744a8d05815","ios":"levelo://app?vid=adee13b6-38d0-497f-9ce3-7744a8d05815"},"vehicle_type_id":"4","last_reported":1729951641,"current_range_meters":32000,"station_id":"ce4bhnh2rcd13ifvqgtg","pricing_plan_id":"cebpf4jnsgd1na2vs0mg"},{"bike_id":"530af74b-ea49-4abc-8f8d-b5e57d675fe4","system_id":"levelo_inurba_marseille","lat":43.25864,"lon":5.39898,"is_reserved":false,"is_disabled":false,"rental_uris":{"android":"levelo://app?vid=530af74b-ea49-4abc-8f8d-b5e57d675fe4","ios":"levelo://app?vid=530af74b-ea49-4abc-8f8d-b5e57d675fe4"},"vehicle_type_id":"4","last_reported":1729951641,"current_range_meters":4000,"station_id":"ce4bhl92rcd13ifvqghg","pricing_plan_id":"cebpf4jnsgd1na2vs0mg"},{"bike_id":"3c5ddb2f-20a7-4146-ac62-db8b76c8aa3c","system_id":"levelo_inurba_marseille","lat":43.26806,"lon":5.40257,"is_reserved":false,"is_disabled":false,"rental_uris":{"android":"levelo://app?vid=3c5ddb2f-20a7-4146-ac62-db8b76c8aa3c","ios":"levelo://app?vid=3c5ddb2f-20a7-4146-ac62-db8b76c8aa3c"},"vehicle_type_id":"4","last_reported":1729951641,"current_range_meters":30400,"station_id":"ce501612rcd8frsf0b60","pricing_plan_id":"cebpf4jnsgd1na2vs0mg"},{"bike_id":"601916c5-3274-4e01-863c-d96df39ce3b1","system_id":"levelo_inurba_marseille","lat":43.26558,"lon":5.39013,"is_reserved":false,"is_disabled":false,"rental_uris":{"android":"levelo://app?vid=601916c5-3274-4e01-863c-d96df39ce3b1","ios":"levelo://app?vid=601916c5-3274-4e01-863c-d96df39ce3b1"},"vehicle_type_id":"4","last_reported":1729951641,"current_range_meters":36400,"station_id":"ce4bhe12rcd13ifvqf30","pricing_plan_id":"cebpf4jnsgd1na2vs0mg"},{"bike_id":"14a76e75-36f8-4740-a470-b424aaf788f7","system_id":"levelo_inurba_marseille","lat":43.30463,"lon":5.37893,"is_reserved":false,"is_disabled":false,"rental_uris":{"android":"levelo://app?vid=14a76e75-36f8-4740-a470-b424aaf788f7","ios":"levelo://app?vid=14a76e75-36f8-4740-a470-b424aaf788f7"},"vehicle_type_id":"4","last_reported":1729951641,"current_range_meters":36800,"station_id":"ce4bgup2rcd13ifvqcn0","pricing_plan_id":"cebpf4jnsgd1na2vs0mg"},{"bike_id":"dc72e49c-b26a-401b-87fe-367cb03380d0","system_id":"levelo_inurba_marseille","lat":43.28082,"lon":5.3965,"is_reserved":false,"is_disabled":false,"rental_uris":{"android":"levelo://app?vid=dc72e49c-b26a-401b-87fe-367cb03380d0","ios":"levelo://app?vid=dc72e49c-b26a-401b-87fe-367cb03380d0"},"vehicle_type_id":"4","last_reported":1729951641,"current_range_meters":17600,"station_id":"ce4bho12rcd13ifvqh2g","pricing_plan_id":"cebpf4jnsgd1na2vs0mg"},{"bike_id":"dde37656-02f1-4bc7-b984-81bd203133c4","system_id":"levelo_inurba_marseille","lat":43.29936,"lon":5.36559,"is_reserved":false,"is_disabled":false,"rental_uris":{"android":"levelo://app?vid=dde37656-02f1-4bc7-b984-81bd203133c4","ios":"levelo://app?vid=dde37656-02f1-4bc7-b984-81bd203133c4"},"vehicle_type_id":"4","last_reported":1729951641,"current_range_meters":32000,"station_id":"ce4bgm92rcd13ifvqbr0","pricing_plan_id":"cebpf4jnsgd1na2vs0mg"},{"bike_id":"ce812f08-9725-47c3-97c3-a8c4c4b79bd8","system_id":"levelo_inurba_marseille","lat":43.30933,"lon":5.4015,"is_reserved":false,"is_disabled":false,"rental_uris":{"android":"levelo://app?vid=ce812f08-9725-47c3-97c3-a8c4c4b79bd8","ios":"levelo://app?vid=ce812f08-9725-47c3-97c3-a8c4c4b79bd8"},"vehicle_type_id":"4","last_reported":1729951641,"current_range_meters":38400,"station_id":"ce4bgvp2rcd13ifvqct0","pricing_plan_id":"cebpf4jnsgd1na2vs0mg"},{"bike_id":"1fafbe93-2ba4-4077-bfcf-7b3992b30a25","system_id":"levelo_inurba_marseille","lat":43.29542,"lon":5.42278,"is_reserved":false,"is_disabled":false,"rental_uris":{"android":"levelo://app?vid=1fafbe93-2ba4-4077-bfcf-7b3992b30a25","ios":"levelo://app?vid=1fafbe93-2ba4-4077-bfcf-7b3992b30a25"},"vehicle_type_id":"4","last_reported":1729951641,"current_range_meters":38800,"station_id":"ce4bhph2rcd13ifvqhdg","pricing_plan_id":"cebpf4jnsgd1na2vs0mg"},{"bike_id":"7b9bb9f6-2747-4f5c-a936-06f552492e45","system_id":"levelo_inurba_marseille","lat":43.3172,"lon":5.42403,"is_reserved":false,"is_disabled":false,"rental_uris":{"android":"levelo://app?vid=7b9bb9f6-2747-4f5c-a936-06f552492e45","ios":"levelo://app?vid=7b9bb9f6-2747-4f5c-a936-06f552492e45"},"vehicle_type_id":"4","last_reported":1729951641,"current_range_meters":38800,"station_id":"ce4bhp92rcd13ifvqhbg","pricing_plan_id":"cebpf4jnsgd1na2vs0mg"},{"bike_id":"4bafa726-86cb-40fe-9c0c-25741165ee73","system_id":"levelo_inurba_marseille","lat":43.300556,"lon":5.413788,"is_reserved":false,"is_disabled":false,"rental_uris":{"android":"levelo://app?vid=4bafa726-86cb-40fe-9c0c-25741165ee73","ios":"levelo://app?vid=4bafa726-86cb-40fe-9c0c-25741165ee73"},"vehicle_type_id":"4","last_reported":1729951641,"current_range_meters":16000,"station_id":"ce4bhp12rcd13ifvqh9g","pricing_plan_id":"cebpf4jnsgd1na2vs0mg"},{"bike_id":"63296fe4-f93e-455b-bec2-913b4c4530dd","system_id":"levelo_inurba_marseille","lat":43.27918,"lon":5.39576,"is_reserved":false,"is_disabled":false,"rental_uris":{"android":"levelo://app?vid=63296fe4-f93e-455b-bec2-913b4c4530dd","ios":"levelo://app?vid=63296fe4-f93e-455b-bec2-913b4c4530dd"},"vehicle_type_id":"4","last_reported":1729951641,"current_range_meters":23200,"station_id":"ce4bhf92rcd13ifvqf40","pricing_plan_id":"cebpf4jnsgd1na2vs0mg"},{"bike_id":"8a55373d-8f54-4890-9729-5db301ba9fa0","system_id":"levelo_inurba_marseille","lat":43.25006,"lon":5.38912,"is_reserved":false,"is_disabled":false,"rental_uris":{"android":"levelo://app?vid=8a55373d-8f54-4890-9729-5db301ba9fa0","ios":"levelo://app?vid=8a55373d-8f54-4890-9729-5db301ba9fa0"},"vehicle_type_id":"4","last_reported":1729951641,"current_range_meters":36800,"station_id":"ce4bhgp2rcd13ifvqfd0","pricing_plan_id":"cebpf4jnsgd1na2vs0mg"},{"bike_id":"217b6992-770c-4501-bf46-01eca14ab494","system_id":"levelo_inurba_marseille","lat":43.29003,"lon":5.35613,"is_reserved":false,"is_disabled":false,"rental_uris":{"android":"levelo://app?vid=217b6992-770c-4501-bf46-01eca14ab494","ios":"levelo://app?vid=217b6992-770c-4501-bf46-01eca14ab494"},"vehicle_type_id":"4","last_reported":1729951641,"current_range_meters":38800,"station_id":"ce4bhb92rcd13ifvqen0","pricing_plan_id":"cebpf4jnsgd1na2vs0mg"},{"bike_id":"e113f747-4daa-44f7-a218-9e030daa2565","system_id":"levelo_inurba_marseille","lat":43.32105,"lon":5.3677,"is_reserved":false,"is_disabled":false,"rental_uris":{"android":"levelo://app?vid=e113f747-4daa-44f7-a218-9e030daa2565","ios":"levelo://app?vid=e113f747-4daa-44f7-a218-9e030daa2565"},"vehicle_type_id":"4","last_reported":1729951641,"current_range_meters":30000,"station_id":"ce4bhrh2rcd13ifvqhug","pricing_plan_id":"cebpf4jnsgd1na2vs0mg"},{"bike_id":"4a63244c-0b40-4de7-bc48-8699390ce981","system_id":"levelo_inurba_marseille","lat":43.29952,"lon":5.3849,"is_reserved":false,"is_disabled":false,"rental_uris":{"android":"levelo://app?vid=4a63244c-0b40-4de7-bc48-8699390ce981","ios":"levelo://app?vid=4a63244c-0b40-4de7-bc48-8699390ce981"},"vehicle_type_id":"4","last_reported":1729951641,"current_range_meters":8000,"station_id":"ce4bgj92rcd13ifvqbd0","pricing_plan_id":"cebpf4jnsgd1na2vs0mg"},{"bike_id":"d824071b-a0d8-4c18-b7de-ef04381f0405","system_id":"levelo_inurba_marseille","lat":43.30955,"lon":5.3903,"is_reserved":false,"is_disabled":false,"rental_uris":{"android":"levelo://app?vid=d824071b-a0d8-4c18-b7de-ef04381f0405","ios":"levelo://app?vid=d824071b-a0d8-4c18-b7de-ef04381f0405"},"vehicle_type_id":"4","last_reported":1729951641,"current_range_meters":27200,"station_id":"ce4bgup2rcd13ifvqco0","pricing_plan_id":"cebpf4jnsgd1na2vs0mg"},{"bike_id":"7569b810-af8d-4c95-be87-76834cbad9fe","system_id":"levelo_inurba_marseille","lat":43.27309,"lon":5.39101,"is_reserved":false,"is_disabled":false,"rental_uris":{"android":"levelo://app?vid=7569b810-af8d-4c95-be87-76834cbad9fe","ios":"levelo://app?vid=7569b810-af8d-4c95-be87-76834cbad9fe"},"vehicle_type_id":"4","last_reported":1729951641,"current_range_meters":24400,"station_id":"ce4bhgp2rcd13ifvqfe0","pricing_plan_id":"cebpf4jnsgd1na2vs0mg"},{"bike_id":"f52dc158-649d-4a31-90c8-1d3f191fd52c","system_id":"levelo_inurba_marseille","lat":43.2705,"lon":5.40266,"is_reserved":false,"is_disabled":false,"rental_uris":{"android":"levelo://app?vid=f52dc158-649d-4a31-90c8-1d3f191fd52c","ios":"levelo://app?vid=f52dc158-649d-4a31-90c8-1d3f191fd52c"},"vehicle_type_id":"4","last_reported":1729951641,"current_range_meters":6000,"station_id":"ce4bhk92rcd13ifvqgc0","pricing_plan_id":"cebpf4jnsgd1na2vs0mg"},{"bike_id":"c5342152-eaa7-4487-b5ac-2c3245f2bd54","system_id":"levelo_inurba_marseille","lat":43.2848,"lon":5.38426,"is_reserved":false,"is_disabled":false,"rental_uris":{"android":"levelo://app?vid=c5342152-eaa7-4487-b5ac-2c3245f2bd54","ios":"levelo://app?vid=c5342152-eaa7-4487-b5ac-2c3245f2bd54"},"vehicle_type_id":"4","last_reported":1729951641,"current_range_meters":18000,"station_id":"ce4bh512rcd13ifvqe3g","pricing_plan_id":"cebpf4jnsgd1na2vs0mg"},{"bike_id":"a29fbbab-d9cf-4241-b3b9-ed34ac9a1a96","system_id":"levelo_inurba_marseille","lat":43.29845,"lon":5.36272,"is_reserved":false,"is_disabled":false,"rental_uris":{"android":"levelo://app?vid=a29fbbab-d9cf-4241-b3b9-ed34ac9a1a96","ios":"levelo://app?vid=a29fbbab-d9cf-4241-b3b9-ed34ac9a1a96"},"vehicle_type_id":"4","last_reported":1729951641,"current_range_meters":28400,"station_id":"ce4bgpp2rcd13ifvqc3g","pricing_plan_id":"cebpf4jnsgd1na2vs0mg"},{"bike_id":"a57007c5-4677-4dd1-a320-66b5f5c3835a","system_id":"levelo_inurba_marseille","lat":43.29022,"lon":5.37556,"is_reserved":false,"is_disabled":false,"rental_uris":{"android":"levelo://app?vid=a57007c5-4677-4dd1-a320-66b5f5c3835a","ios":"levelo://app?vid=a57007c5-4677-4dd1-a320-66b5f5c3835a"},"vehicle_type_id":"4","last_reported":1729951641,"current_range_meters":38800,"station_id":"ce4bh692rcd13ifvqe90","pricing_plan_id":"cebpf4jnsgd1na2vs0mg"},{"bike_id":"bf291e7e-22e0-40c3-9fbf-804e4d125b27","system_id":"levelo_inurba_marseille","lat":43.25574,"lon":5.38232,"is_reserved":false,"is_disabled":false,"rental_uris":{"android":"levelo://app?vid=bf291e7e-22e0-40c3-9fbf-804e4d125b27","ios":"levelo://app?vid=bf291e7e-22e0-40c3-9fbf-804e4d125b27"},"vehicle_type_id":"4","last_reported":1729951641,"current_range_meters":19600,"station_id":"ce4bhih2rcd13ifvqfs0","pricing_plan_id":"cebpf4jnsgd1na2vs0mg"},{"bike_id":"704ff70b-3044-4cc0-a1b3-72bc6b15acdb","system_id":"levelo_inurba_marseille","lat":43.28477,"lon":5.38543,"is_reserved":false,"is_disabled":false,"rental_uris":{"android":"levelo://app?vid=704ff70b-3044-4cc0-a1b3-72bc6b15acdb","ios":"levelo://app?vid=704ff70b-3044-4cc0-a1b3-72bc6b15acdb"},"vehicle_type_id":"4","last_reported":1729951641,"current_range_meters":37600,"station_id":"ce4bh8p2rcd13ifvqeb0","pricing_plan_id":"cebpf4jnsgd1na2vs0mg"},{"bike_id":"cb176300-6569-4931-a7b5-26a3947ac35d","system_id":"levelo_inurba_marseille","lat":43.25007,"lon":5.38919,"is_reserved":false,"is_disabled":false,"rental_uris":{"android":"levelo://app?vid=cb176300-6569-4931-a7b5-26a3947ac35d","ios":"levelo://app?vid=cb176300-6569-4931-a7b5-26a3947ac35d"},"vehicle_type_id":"4","last_reported":1729951641,"current_range_meters":36400,"station_id":"ce4bhgp2rcd13ifvqfd0","pricing_plan_id":"cebpf4jnsgd1na2vs0mg"},{"bike_id":"73c2c8ad-3512-479e-8e48-8e695e24feab","system_id":"levelo_inurba_marseille","lat":43.32364,"lon":5.36754,"is_reserved":false,"is_disabled":false,"rental_uris":{"android":"levelo://app?vid=73c2c8ad-3512-479e-8e48-8e695e24feab","ios":"levelo://app?vid=73c2c8ad-3512-479e-8e48-8e695e24feab"},"vehicle_type_id":"4","last_reported":1729951641,"current_range_meters":26800,"station_id":"ce4bhsh2rcd13ifvqi2g","pricing_plan_id":"cebpf4jnsgd1na2vs0mg"},{"bike_id":"e20e0947-9b10-4f9e-bf1d-0c5a88df67b2","system_id":"levelo_inurba_marseille","lat":43.28416,"lon":5.37518,"is_reserved":false,"is_disabled":false,"rental_uris":{"android":"levelo://app?vid=e20e0947-9b10-4f9e-bf1d-0c5a88df67b2","ios":"levelo://app?vid=e20e0947-9b10-4f9e-bf1d-0c5a88df67b2"},"vehicle_type_id":"4","last_reported":1729951641,"current_range_meters":27200,"station_id":"ce4bh412rcd13ifvqds0","pricing_plan_id":"cebpf4jnsgd1na2vs0mg"},{"bike_id":"12373d0a-89df-486a-9f23-1d3f99b7385c","system_id":"levelo_inurba_marseille","lat":43.28474,"lon":5.3841,"is_reserved":false,"is_disabled":false,"rental_uris":{"android":"levelo://app?vid=12373d0a-89df-486a-9f23-1d3f99b7385c","ios":"levelo://app?vid=12373d0a-89df-486a-9f23-1d3f99b7385c"},"vehicle_type_id":"4","last_reported":1729951641,"current_range_meters":18000,"station_id":"ce4bh512rcd13ifvqe3g","pricing_plan_id":"cebpf4jnsgd1na2vs0mg"},{"bike_id":"763f5dbb-276a-40ae-aed0-f11835e3b041","system_id":"levelo_inurba_marseille","lat":43.22936,"lon":5.35382,"is_reserved":false,"is_disabled":false,"rental_uris":{"android":"levelo://app?vid=763f5dbb-276a-40ae-aed0-f11835e3b041","ios":"levelo://app?vid=763f5dbb-276a-40ae-aed0-f11835e3b041"},"vehicle_type_id":"4","last_reported":1729951641,"current_range_meters":22800,"station_id":"cpo3532slgdg3j2ikp40","pricing_plan_id":"cebpf4jnsgd1na2vs0mg"},{"bike_id":"361ec233-7c4e-4e69-a079-9345367740ac","system_id":"levelo_inurba_marseille","lat":43.30778,"lon":5.37653,"is_reserved":false,"is_disabled":false,"rental_uris":{"android":"levelo://app?vid=361ec233-7c4e-4e69-a079-9345367740ac","ios":"levelo://app?vid=361ec233-7c4e-4e69-a079-9345367740ac"},"vehicle_type_id":"4","last_reported":1729951641,"current_range_meters":38800,"station_id":"ce4bgv92rcd13ifvqcq0","pricing_plan_id":"cebpf4jnsgd1na2vs0mg"},{"bike_id":"a4cdb9e2-dcee-478e-b833-1e72009d3ae3","system_id":"levelo_inurba_marseille","lat":43.30414,"lon":5.41292,"is_reserved":false,"is_disabled":false,"rental_uris":{"android":"levelo://app?vid=a4cdb9e2-dcee-478e-b833-1e72009d3ae3","ios":"levelo://app?vid=a4cdb9e2-dcee-478e-b833-1e72009d3ae3"},"vehicle_type_id":"4","last_reported":1729951641,"current_range_meters":6000,"station_id":"ce4bhop2rcd13ifvqh8g","pricing_plan_id":"cebpf4jnsgd1na2vs0mg"},{"bike_id":"c45ca045-00d3-4f98-8d38-eb48dbae3d86","system_id":"levelo_inurba_marseille","lat":43.29516,"lon":5.37504,"is_reserved":false,"is_disabled":false,"rental_uris":{"android":"levelo://app?vid=c45ca045-00d3-4f98-8d38-eb48dbae3d86","ios":"levelo://app?vid=c45ca045-00d3-4f98-8d38-eb48dbae3d86"},"vehicle_type_id":"4","last_reported":1729951641,"current_range_meters":38800,"station_id":"ce4bgkp2rcd13ifvqbmg","pricing_plan_id":"cebpf4jnsgd1na2vs0mg"},{"bike_id":"582ec9d2-ec14-40ed-ae52-5eea1439d892","system_id":"levelo_inurba_marseille","lat":43.336,"lon":5.41028,"is_reserved":false,"is_disabled":false,"rental_uris":{"android":"levelo://app?vid=582ec9d2-ec14-40ed-ae52-5eea1439d892","ios":"levelo://app?vid=582ec9d2-ec14-40ed-ae52-5eea1439d892"},"vehicle_type_id":"4","last_reported":1729951641,"current_range_meters":20000,"station_id":"ce4bhqh2rcd13ifvqhmg","pricing_plan_id":"cebpf4jnsgd1na2vs0mg"},{"bike_id":"75bc418d-5fa4-4111-819c-79228dcd39de","system_id":"levelo_inurba_marseille","lat":43.26051,"lon":5.39405,"is_reserved":false,"is_disabled":false,"rental_uris":{"android":"levelo://app?vid=75bc418d-5fa4-4111-819c-79228dcd39de","ios":"levelo://app?vid=75bc418d-5fa4-4111-819c-79228dcd39de"},"vehicle_type_id":"4","last_reported":1729951641,"current_range_meters":14400,"station_id":"ce4bhh92rcd13ifvqfj0","pricing_plan_id":"cebpf4jnsgd1na2vs0mg"},{"bike_id":"d7ff7165-6d5c-4f76-865c-b2ea1a2a3c7a","system_id":"levelo_inurba_marseille","lat":43.27488,"lon":5.42458,"is_reserved":false,"is_disabled":false,"rental_uris":{"android":"levelo://app?vid=d7ff7165-6d5c-4f76-865c-b2ea1a2a3c7a","ios":"levelo://app?vid=d7ff7165-6d5c-4f76-865c-b2ea1a2a3c7a"},"vehicle_type_id":"4","last_reported":1729951641,"current_range_meters":10000,"station_id":"ce4bhn92rcd13ifvqgrg","pricing_plan_id":"cebpf4jnsgd1na2vs0mg"},{"bike_id":"578fec5a-8a35-4232-ab6c-e7d31c04260b","system_id":"levelo_inurba_marseille","lat":43.29586,"lon":5.38112,"is_reserved":false,"is_disabled":false,"rental_uris":{"android":"levelo://app?vid=578fec5a-8a35-4232-ab6c-e7d31c04260b","ios":"levelo://app?vid=578fec5a-8a35-4232-ab6c-e7d31c04260b"},"vehicle_type_id":"4","last_reported":1729951641,"current_range_meters":39200,"station_id":"ce4bgl12rcd13ifvqbo0","pricing_plan_id":"cebpf4jnsgd1na2vs0mg"},{"bike_id":"ac798375-c5f5-4492-b4b6-dc13a7a6f02c","system_id":"levelo_inurba_marseille","lat":43.30427,"lon":5.38886,"is_reserved":false,"is_disabled":false,"rental_uris":{"android":"levelo://app?vid=ac798375-c5f5-4492-b4b6-dc13a7a6f02c","ios":"levelo://app?vid=ac798375-c5f5-4492-b4b6-dc13a7a6f02c"},"vehicle_type_id":"4","last_reported":1729951641,"current_range_meters":6400,"station_id":"ce4bgk12rcd13ifvqbi0","pricing_plan_id":"cebpf4jnsgd1na2vs0mg"},{"bike_id":"d13cfe8d-6bc1-49c8-b259-26c297560ecd","system_id":"levelo_inurba_marseille","lat":43.29795,"lon":5.38093,"is_reserved":false,"is_disabled":false,"rental_uris":{"android":"levelo://app?vid=d13cfe8d-6bc1-49c8-b259-26c297560ecd","ios":"levelo://app?vid=d13cfe8d-6bc1-49c8-b259-26c297560ecd"},"vehicle_type_id":"4","last_reported":1729951641,"current_range_meters":39200,"station_id":"ce4bgip2rcd13ifvqbb0","pricing_plan_id":"cebpf4jnsgd1na2vs0mg"},{"bike_id":"8001b44d-9ab0-46f5-80ea-c34d9f92effc","system_id":"levelo_inurba_marseille","lat":43.26928,"lon":5.40267,"is_reserved":false,"is_disabled":false,"rental_uris":{"android":"levelo://app?vid=8001b44d-9ab0-46f5-80ea-c34d9f92effc","ios":"levelo://app?vid=8001b44d-9ab0-46f5-80ea-c34d9f92effc"},"vehicle_type_id":"4","last_reported":1729951641,"current_range_meters":39200,"station_id":"cjm6bp8fraef2m0cb0m0","pricing_plan_id":"cebpf4jnsgd1na2vs0mg"},{"bike_id":"ec1ef2fd-0187-4063-a08a-f08e31fd67e9","system_id":"levelo_inurba_marseille","lat":43.25004,"lon":5.38918,"is_reserved":false,"is_disabled":false,"rental_uris":{"android":"levelo://app?vid=ec1ef2fd-0187-4063-a08a-f08e31fd67e9","ios":"levelo://app?vid=ec1ef2fd-0187-4063-a08a-f08e31fd67e9"},"vehicle_type_id":"4","last_reported":1729951641,"current_range_meters":36000,"station_id":"ce4bhgp2rcd13ifvqfd0","pricing_plan_id":"cebpf4jnsgd1na2vs0mg"},{"bike_id":"a162d33f-f4c3-419b-bb47-5694747bd5e0","system_id":"levelo_inurba_marseille","lat":43.32133,"lon":5.41097,"is_reserved":false,"is_disabled":false,"rental_uris":{"android":"levelo://app?vid=a162d33f-f4c3-419b-bb47-5694747bd5e0","ios":"levelo://app?vid=a162d33f-f4c3-419b-bb47-5694747bd5e0"},"vehicle_type_id":"4","last_reported":1729951641,"current_range_meters":22400,"station_id":"ce4bh092rcd13ifvqd20","pricing_plan_id":"cebpf4jnsgd1na2vs0mg"},{"bike_id":"519e0c96-c1d9-4881-a546-315bb92e36c1","system_id":"levelo_inurba_marseille","lat":43.294319,"lon":5.397514,"is_reserved":false,"is_disabled":false,"rental_uris":{"android":"levelo://app?vid=519e0c96-c1d9-4881-a546-315bb92e36c1","ios":"levelo://app?vid=519e0c96-c1d9-4881-a546-315bb92e36c1"},"vehicle_type_id":"4","last_reported":1729951641,"current_range_meters":32400,"station_id":"ce4bh3h2rcd13ifvqdo0","pricing_plan_id":"cebpf4jnsgd1na2vs0mg"},{"bike_id":"31554b55-47d7-43b1-ad82-9d997bccc8c1","system_id":"levelo_inurba_marseille","lat":43.30097,"lon":5.39083,"is_reserved":false,"is_disabled":false,"rental_uris":{"android":"levelo://app?vid=31554b55-47d7-43b1-ad82-9d997bccc8c1","ios":"levelo://app?vid=31554b55-47d7-43b1-ad82-9d997bccc8c1"},"vehicle_type_id":"4","last_reported":1729951641,"current_range_meters":28000,"station_id":"ce4bh192rcd13ifvqdb0","pricing_plan_id":"cebpf4jnsgd1na2vs0mg"},{"bike_id":"d4aec44f-ddca-4104-91b2-0d4ceaa50166","system_id":"levelo_inurba_marseille","lat":43.28073,"lon":5.39649,"is_reserved":false,"is_disabled":false,"rental_uris":{"android":"levelo://app?vid=d4aec44f-ddca-4104-91b2-0d4ceaa50166","ios":"levelo://app?vid=d4aec44f-ddca-4104-91b2-0d4ceaa50166"},"vehicle_type_id":"4","last_reported":1729951641,"current_range_meters":38800,"station_id":"ce4bho12rcd13ifvqh2g","pricing_plan_id":"cebpf4jnsgd1na2vs0mg"},{"bike_id":"07512975-17c1-45e9-9ed2-449945871421","system_id":"levelo_inurba_marseille","lat":43.27981,"lon":5.40023,"is_reserved":false,"is_disabled":false,"rental_uris":{"android":"levelo://app?vid=07512975-17c1-45e9-9ed2-449945871421","ios":"levelo://app?vid=07512975-17c1-45e9-9ed2-449945871421"},"vehicle_type_id":"4","last_reported":1729951641,"current_range_meters":18800,"station_id":"ce4bho92rcd13ifvqh4g","pricing_plan_id":"cebpf4jnsgd1na2vs0mg"},{"bike_id":"db845eaa-4bce-4564-804c-c6d992cb729c","system_id":"levelo_inurba_marseille","lat":43.29575,"lon":5.37533,"is_reserved":false,"is_disabled":false,"rental_uris":{"android":"levelo://app?vid=db845eaa-4bce-4564-804c-c6d992cb729c","ios":"levelo://app?vid=db845eaa-4bce-4564-804c-c6d992cb729c"},"vehicle_type_id":"4","last_reported":1729951641,"current_range_meters":38400,"station_id":"ce4bgh92rcd13ifvqb50","pricing_plan_id":"cebpf4jnsgd1na2vs0mg"},{"bike_id":"cbb63747-5027-4a55-bb6e-7701c0ff47b0","system_id":"levelo_inurba_marseille","lat":43.30147,"lon":5.38086,"is_reserved":false,"is_disabled":false,"rental_uris":{"android":"levelo://app?vid=cbb63747-5027-4a55-bb6e-7701c0ff47b0","ios":"levelo://app?vid=cbb63747-5027-4a55-bb6e-7701c0ff47b0"},"vehicle_type_id":"4","last_reported":1729951641,"current_range_meters":31200,"station_id":"ce4bgjp2rcd13ifvqbh0","pricing_plan_id":"cebpf4jnsgd1na2vs0mg"},{"bike_id":"f9dd0103-b045-4d3e-97f0-feaf4a2d3923","system_id":"levelo_inurba_marseille","lat":43.24999,"lon":5.38921,"is_reserved":false,"is_disabled":false,"rental_uris":{"android":"levelo://app?vid=f9dd0103-b045-4d3e-97f0-feaf4a2d3923","ios":"levelo://app?vid=f9dd0103-b045-4d3e-97f0-feaf4a2d3923"},"vehicle_type_id":"4","last_reported":1729951641,"current_range_meters":9200,"station_id":"ce4bhgp2rcd13ifvqfd0","pricing_plan_id":"cebpf4jnsgd1na2vs0mg"},{"bike_id":"9af16b29-d70d-4dcf-8784-9bb20c4f17a5","system_id":"levelo_inurba_marseille","lat":43.31078,"lon":5.42427,"is_reserved":false,"is_disabled":false,"rental_uris":{"android":"levelo://app?vid=9af16b29-d70d-4dcf-8784-9bb20c4f17a5","ios":"levelo://app?vid=9af16b29-d70d-4dcf-8784-9bb20c4f17a5"},"vehicle_type_id":"4","last_reported":1729951641,"current_range_meters":25200,"station_id":"ce4bhp92rcd13ifvqhag","pricing_plan_id":"cebpf4jnsgd1na2vs0mg"},{"bike_id":"c35847dd-3fd4-4b17-8a06-da8fbf47376e","system_id":"levelo_inurba_marseille","lat":43.30532,"lon":5.36537,"is_reserved":false,"is_disabled":false,"rental_uris":{"android":"levelo://app?vid=c35847dd-3fd4-4b17-8a06-da8fbf47376e","ios":"levelo://app?vid=c35847dd-3fd4-4b17-8a06-da8fbf47376e"},"vehicle_type_id":"4","last_reported":1729951641,"current_range_meters":26000,"station_id":"ce4bgs12rcd13ifvqcag","pricing_plan_id":"cebpf4jnsgd1na2vs0mg"},{"bike_id":"48876f5b-e353-4ac0-9c4c-bbd49c679bab","system_id":"levelo_inurba_marseille","lat":43.31685,"lon":5.40469,"is_reserved":false,"is_disabled":false,"rental_uris":{"android":"levelo://app?vid=48876f5b-e353-4ac0-9c4c-bbd49c679bab","ios":"levelo://app?vid=48876f5b-e353-4ac0-9c4c-bbd49c679bab"},"vehicle_type_id":"4","last_reported":1729951641,"current_range_meters":36000,"station_id":"ce4bh012rcd13ifvqd00","pricing_plan_id":"cebpf4jnsgd1na2vs0mg"},{"bike_id":"fe0863da-9a70-466a-9350-47fdf2c8cc05","system_id":"levelo_inurba_marseille","lat":43.27056,"lon":5.40259,"is_reserved":false,"is_disabled":false,"rental_uris":{"android":"levelo://app?vid=fe0863da-9a70-466a-9350-47fdf2c8cc05","ios":"levelo://app?vid=fe0863da-9a70-466a-9350-47fdf2c8cc05"},"vehicle_type_id":"4","last_reported":1729951641,"current_range_meters":16400,"station_id":"ce4bhk92rcd13ifvqgc0","pricing_plan_id":"cebpf4jnsgd1na2vs0mg"},{"bike_id":"2502b547-1537-4acc-b38a-ccb5e750204d","system_id":"levelo_inurba_marseille","lat":43.28845,"lon":5.35851,"is_reserved":false,"is_disabled":false,"rental_uris":{"android":"levelo://app?vid=2502b547-1537-4acc-b38a-ccb5e750204d","ios":"levelo://app?vid=2502b547-1537-4acc-b38a-ccb5e750204d"},"vehicle_type_id":"4","last_reported":1729951641,"current_range_meters":37600,"station_id":"ce4bhb12rcd13ifvqem0","pricing_plan_id":"cebpf4jnsgd1na2vs0mg"},{"bike_id":"ae64a632-906c-4892-bde8-1344c5987603","system_id":"levelo_inurba_marseille","lat":43.29846,"lon":5.36274,"is_reserved":false,"is_disabled":false,"rental_uris":{"android":"levelo://app?vid=ae64a632-906c-4892-bde8-1344c5987603","ios":"levelo://app?vid=ae64a632-906c-4892-bde8-1344c5987603"},"vehicle_type_id":"4","last_reported":1729951641,"current_range_meters":38000,"station_id":"ce4bgpp2rcd13ifvqc3g","pricing_plan_id":"cebpf4jnsgd1na2vs0mg"},{"bike_id":"9c7e99f6-3852-48e8-93ed-d74a8c4abb02","system_id":"levelo_inurba_marseille","lat":43.30303,"lon":5.369,"is_reserved":false,"is_disabled":false,"rental_uris":{"android":"levelo://app?vid=9c7e99f6-3852-48e8-93ed-d74a8c4abb02","ios":"levelo://app?vid=9c7e99f6-3852-48e8-93ed-d74a8c4abb02"},"vehicle_type_id":"4","last_reported":1729951641,"current_range_meters":5600,"station_id":"ce4bgqh2rcd13ifvqc5g","pricing_plan_id":"cebpf4jnsgd1na2vs0mg"},{"bike_id":"2931539b-307a-4a04-b0d1-e3402c4d581d","system_id":"levelo_inurba_marseille","lat":43.31358,"lon":5.36832,"is_reserved":false,"is_disabled":false,"rental_uris":{"android":"levelo://app?vid=2931539b-307a-4a04-b0d1-e3402c4d581d","ios":"levelo://app?vid=2931539b-307a-4a04-b0d1-e3402c4d581d"},"vehicle_type_id":"4","last_reported":1729951641,"current_range_meters":38800,"station_id":"","pricing_plan_id":"cebpf4jnsgd1na2vs0mg"},{"bike_id":"43698cfd-e175-489f-9955-3010d260a3bb","system_id":"levelo_inurba_marseille","lat":43.27209,"lon":5.39178,"is_reserved":false,"is_disabled":false,"rental_uris":{"android":"levelo://app?vid=43698cfd-e175-489f-9955-3010d260a3bb","ios":"levelo://app?vid=43698cfd-e175-489f-9955-3010d260a3bb"},"vehicle_type_id":"4","last_reported":1729951641,"current_range_meters":35600,"station_id":"ce4bhhp2rcd13ifvqfm0","pricing_plan_id":"cebpf4jnsgd1na2vs0mg"},{"bike_id":"0ecf5e07-d4ac-4f2c-bd1b-3acf9f99ddc6","system_id":"levelo_inurba_marseille","lat":43.2602,"lon":5.37554,"is_reserved":false,"is_disabled":false,"rental_uris":{"android":"levelo://app?vid=0ecf5e07-d4ac-4f2c-bd1b-3acf9f99ddc6","ios":"levelo://app?vid=0ecf5e07-d4ac-4f2c-bd1b-3acf9f99ddc6"},"vehicle_type_id":"4","last_reported":1729951641,"current_range_meters":38800,"station_id":"ce4bhgh2rcd13ifvqfa0","pricing_plan_id":"cebpf4jnsgd1na2vs0mg"},{"bike_id":"79789d3b-fcac-4224-af4d-75a300fd730b","system_id":"levelo_inurba_marseille","lat":43.30091,"lon":5.39083,"is_reserved":false,"is_disabled":false,"rental_uris":{"android":"levelo://app?vid=79789d3b-fcac-4224-af4d-75a300fd730b","ios":"levelo://app?vid=79789d3b-fcac-4224-af4d-75a300fd730b"},"vehicle_type_id":"4","last_reported":1729951641,"current_range_meters":36800,"station_id":"ce4bh192rcd13ifvqdb0","pricing_plan_id":"cebpf4jnsgd1na2vs0mg"},{"bike_id":"3440d9b5-3e68-45f4-98be-6b0e41381653","system_id":"levelo_inurba_marseille","lat":43.28445,"lon":5.39183,"is_reserved":false,"is_disabled":false,"rental_uris":{"android":"levelo://app?vid=3440d9b5-3e68-45f4-98be-6b0e41381653","ios":"levelo://app?vid=3440d9b5-3e68-45f4-98be-6b0e41381653"},"vehicle_type_id":"4","last_reported":1729951641,"current_range_meters":26800,"station_id":"ce4bhoh2rcd13ifvqh5g","pricing_plan_id":"cebpf4jnsgd1na2vs0mg"},{"bike_id":"f6a5ef30-cd45-4f33-acc1-40cc262286be","system_id":"levelo_inurba_marseille","lat":43.26941,"lon":5.40254,"is_reserved":false,"is_disabled":false,"rental_uris":{"android":"levelo://app?vid=f6a5ef30-cd45-4f33-acc1-40cc262286be","ios":"levelo://app?vid=f6a5ef30-cd45-4f33-acc1-40cc262286be"},"vehicle_type_id":"4","last_reported":1729951641,"current_range_meters":39200,"station_id":"cjm6bp8fraef2m0cb0m0","pricing_plan_id":"cebpf4jnsgd1na2vs0mg"},{"bike_id":"4c727983-7214-4d70-8fc7-f724d797e183","system_id":"levelo_inurba_marseille","lat":43.30296,"lon":5.40098,"is_reserved":false,"is_disabled":false,"rental_uris":{"android":"levelo://app?vid=4c727983-7214-4d70-8fc7-f724d797e183","ios":"levelo://app?vid=4c727983-7214-4d70-8fc7-f724d797e183"},"vehicle_type_id":"4","last_reported":1729951641,"current_range_meters":30000,"station_id":"ce4bgi92rcd13ifvqb90","pricing_plan_id":"cebpf4jnsgd1na2vs0mg"},{"bike_id":"c4f16691-f8e1-494d-b2b9-e447f16bf18a","system_id":"levelo_inurba_marseille","lat":43.25813,"lon":5.39425,"is_reserved":false,"is_disabled":false,"rental_uris":{"android":"levelo://app?vid=c4f16691-f8e1-494d-b2b9-e447f16bf18a","ios":"levelo://app?vid=c4f16691-f8e1-494d-b2b9-e447f16bf18a"},"vehicle_type_id":"4","last_reported":1729951641,"current_range_meters":26000,"station_id":"ce4bhip2rcd13ifvqft0","pricing_plan_id":"cebpf4jnsgd1na2vs0mg"},{"bike_id":"386c6a7e-cd6c-4112-aa78-c50040cf1776","system_id":"levelo_inurba_marseille","lat":43.25089,"lon":5.39514,"is_reserved":false,"is_disabled":false,"rental_uris":{"android":"levelo://app?vid=386c6a7e-cd6c-4112-aa78-c50040cf1776","ios":"levelo://app?vid=386c6a7e-cd6c-4112-aa78-c50040cf1776"},"vehicle_type_id":"4","last_reported":1729951641,"current_range_meters":39200,"station_id":"ce4bhm12rcd13ifvqgkg","pricing_plan_id":"cebpf4jnsgd1na2vs0mg"},{"bike_id":"93121440-2fcc-4dd2-9251-6c906fd85885","system_id":"levelo_inurba_marseille","lat":43.28716,"lon":5.37938,"is_reserved":false,"is_disabled":false,"rental_uris":{"android":"levelo://app?vid=93121440-2fcc-4dd2-9251-6c906fd85885","ios":"levelo://app?vid=93121440-2fcc-4dd2-9251-6c906fd85885"},"vehicle_type_id":"4","last_reported":1729951641,"current_range_meters":39200,"station_id":"ce4bh9p2rcd13ifvqec0","pricing_plan_id":"cebpf4jnsgd1na2vs0mg"},{"bike_id":"9befed88-9f8c-464c-b07b-093bd97066bb","system_id":"levelo_inurba_marseille","lat":43.29805,"lon":5.37136,"is_reserved":false,"is_disabled":false,"rental_uris":{"android":"levelo://app?vid=9befed88-9f8c-464c-b07b-093bd97066bb","ios":"levelo://app?vid=9befed88-9f8c-464c-b07b-093bd97066bb"},"vehicle_type_id":"4","last_reported":1729951641,"current_range_meters":24000,"station_id":"","pricing_plan_id":"cebpf4jnsgd1na2vs0mg"},{"bike_id":"01e10191-2598-468f-ba94-b843fc349ea0","system_id":"levelo_inurba_marseille","lat":43.29196,"lon":5.35814,"is_reserved":false,"is_disabled":false,"rental_uris":{"android":"levelo://app?vid=01e10191-2598-468f-ba94-b843fc349ea0","ios":"levelo://app?vid=01e10191-2598-468f-ba94-b843fc349ea0"},"vehicle_type_id":"4","last_reported":1729951641,"current_range_meters":31200,"station_id":"ce4bhb12rcd13ifvqel0","pricing_plan_id":"cebpf4jnsgd1na2vs0mg"},{"bike_id":"f37e3b02-a49c-4c4e-b112-f9c8c24edf90","system_id":"levelo_inurba_marseille","lat":43.23194,"lon":5.35558,"is_reserved":false,"is_disabled":false,"rental_uris":{"android":"levelo://app?vid=f37e3b02-a49c-4c4e-b112-f9c8c24edf90","ios":"levelo://app?vid=f37e3b02-a49c-4c4e-b112-f9c8c24edf90"},"vehicle_type_id":"4","last_reported":1729951641,"current_range_meters":27600,"station_id":"ce4bhu92rcd13ifvqi70","pricing_plan_id":"cebpf4jnsgd1na2vs0mg"},{"bike_id":"a94f4a23-103c-4252-827d-c4b2b0d10aaf","system_id":"levelo_inurba_marseille","lat":43.25877,"lon":5.399,"is_reserved":false,"is_disabled":false,"rental_uris":{"android":"levelo://app?vid=a94f4a23-103c-4252-827d-c4b2b0d10aaf","ios":"levelo://app?vid=a94f4a23-103c-4252-827d-c4b2b0d10aaf"},"vehicle_type_id":"4","last_reported":1729951641,"current_range_meters":18800,"station_id":"ce4bhl92rcd13ifvqghg","pricing_plan_id":"cebpf4jnsgd1na2vs0mg"},{"bike_id":"5f477dea-509a-4da5-8af2-99e6712d5692","system_id":"levelo_inurba_marseille","lat":43.30303,"lon":5.39214,"is_reserved":false,"is_disabled":false,"rental_uris":{"android":"levelo://app?vid=5f477dea-509a-4da5-8af2-99e6712d5692","ios":"levelo://app?vid=5f477dea-509a-4da5-8af2-99e6712d5692"},"vehicle_type_id":"4","last_reported":1729951641,"current_range_meters":32000,"station_id":"ce4bgkh2rcd13ifvqbk0","pricing_plan_id":"cebpf4jnsgd1na2vs0mg"},{"bike_id":"caa30749-ab95-45a6-9cd8-e3c51eb81d4d","system_id":"levelo_inurba_marseille","lat":43.30202,"lon":5.39477,"is_reserved":false,"is_disabled":false,"rental_uris":{"android":"levelo://app?vid=caa30749-ab95-45a6-9cd8-e3c51eb81d4d","ios":"levelo://app?vid=caa30749-ab95-45a6-9cd8-e3c51eb81d4d"},"vehicle_type_id":"4","last_reported":1729951641,"current_range_meters":38800,"station_id":"ce4bh0p2rcd13ifvqd70","pricing_plan_id":"cebpf4jnsgd1na2vs0mg"},{"bike_id":"878dd1c1-b99c-4b72-8338-2f49086ddf9f","system_id":"levelo_inurba_marseille","lat":43.29844,"lon":5.36274,"is_reserved":false,"is_disabled":false,"rental_uris":{"android":"levelo://app?vid=878dd1c1-b99c-4b72-8338-2f49086ddf9f","ios":"levelo://app?vid=878dd1c1-b99c-4b72-8338-2f49086ddf9f"},"vehicle_type_id":"4","last_reported":1729951641,"current_range_meters":8000,"station_id":"ce4bgpp2rcd13ifvqc3g","pricing_plan_id":"cebpf4jnsgd1na2vs0mg"},{"bike_id":"a4d2aac1-98f7-4ee9-bb54-2720ee698eac","system_id":"levelo_inurba_marseille","lat":43.2558,"lon":5.38237,"is_reserved":false,"is_disabled":false,"rental_uris":{"android":"levelo://app?vid=a4d2aac1-98f7-4ee9-bb54-2720ee698eac","ios":"levelo://app?vid=a4d2aac1-98f7-4ee9-bb54-2720ee698eac"},"vehicle_type_id":"4","last_reported":1729951641,"current_range_meters":36000,"station_id":"ce4bhih2rcd13ifvqfs0","pricing_plan_id":"cebpf4jnsgd1na2vs0mg"},{"bike_id":"dad2718b-ffdf-4024-8a84-70e058921ae1","system_id":"levelo_inurba_marseille","lat":43.26056,"lon":5.39396,"is_reserved":false,"is_disabled":false,"rental_uris":{"android":"levelo://app?vid=dad2718b-ffdf-4024-8a84-70e058921ae1","ios":"levelo://app?vid=dad2718b-ffdf-4024-8a84-70e058921ae1"},"vehicle_type_id":"4","last_reported":1729951641,"current_range_meters":32800,"station_id":"ce4bhh92rcd13ifvqfj0","pricing_plan_id":"cebpf4jnsgd1na2vs0mg"},{"bike_id":"5c8d47df-cace-44d5-9922-d4ea86fc841f","system_id":"levelo_inurba_marseille","lat":43.239615,"lon":5.36634,"is_reserved":false,"is_disabled":false,"rental_uris":{"android":"levelo://app?vid=5c8d47df-cace-44d5-9922-d4ea86fc841f","ios":"levelo://app?vid=5c8d47df-cace-44d5-9922-d4ea86fc841f"},"vehicle_type_id":"4","last_reported":1729951641,"current_range_meters":29600,"station_id":"ce4bhi12rcd13ifvqfp0","pricing_plan_id":"cebpf4jnsgd1na2vs0mg"},{"bike_id":"b8fbf6cb-4344-49f0-aa51-6bf07fd511fe","system_id":"levelo_inurba_marseille","lat":43.2549,"lon":5.37646,"is_reserved":false,"is_disabled":false,"rental_uris":{"android":"levelo://app?vid=b8fbf6cb-4344-49f0-aa51-6bf07fd511fe","ios":"levelo://app?vid=b8fbf6cb-4344-49f0-aa51-6bf07fd511fe"},"vehicle_type_id":"4","last_reported":1729951641,"current_range_meters":27600,"station_id":"ce4bhh12rcd13ifvqff0","pricing_plan_id":"cebpf4jnsgd1na2vs0mg"},{"bike_id":"55841616-52dc-4da7-abf2-e48d73a5e891","system_id":"levelo_inurba_marseille","lat":43.25936,"lon":5.4091,"is_reserved":false,"is_disabled":false,"rental_uris":{"android":"levelo://app?vid=55841616-52dc-4da7-abf2-e48d73a5e891","ios":"levelo://app?vid=55841616-52dc-4da7-abf2-e48d73a5e891"},"vehicle_type_id":"4","last_reported":1729951641,"current_range_meters":34000,"station_id":"ce4bhm92rcd13ifvqglg","pricing_plan_id":"cebpf4jnsgd1na2vs0mg"},{"bike_id":"7b97ac46-3ce9-4b7e-9ee6-ff4ee9ab558d","system_id":"levelo_inurba_marseille","lat":43.30517,"lon":5.36726,"is_reserved":false,"is_disabled":false,"rental_uris":{"android":"levelo://app?vid=7b97ac46-3ce9-4b7e-9ee6-ff4ee9ab558d","ios":"levelo://app?vid=7b97ac46-3ce9-4b7e-9ee6-ff4ee9ab558d"},"vehicle_type_id":"4","last_reported":1729951641,"current_range_meters":11600,"station_id":"ce4bgrp2rcd13ifvqc9g","pricing_plan_id":"cebpf4jnsgd1na2vs0mg"},{"bike_id":"78fe5887-32b3-4abc-bf3a-d9e9dae1fbd2","system_id":"levelo_inurba_marseille","lat":43.27057,"lon":5.40252,"is_reserved":false,"is_disabled":false,"rental_uris":{"android":"levelo://app?vid=78fe5887-32b3-4abc-bf3a-d9e9dae1fbd2","ios":"levelo://app?vid=78fe5887-32b3-4abc-bf3a-d9e9dae1fbd2"},"vehicle_type_id":"4","last_reported":1729951641,"current_range_meters":36800,"station_id":"ce4bhk92rcd13ifvqgc0","pricing_plan_id":"cebpf4jnsgd1na2vs0mg"},{"bike_id":"63dffe58-b321-4992-b66b-9f28a3e3e3b4","system_id":"levelo_inurba_marseille","lat":43.29955,"lon":5.41325,"is_reserved":false,"is_disabled":false,"rental_uris":{"android":"levelo://app?vid=63dffe58-b321-4992-b66b-9f28a3e3e3b4","ios":"levelo://app?vid=63dffe58-b321-4992-b66b-9f28a3e3e3b4"},"vehicle_type_id":"4","last_reported":1729951641,"current_range_meters":38800,"station_id":"ce4bhp12rcd13ifvqh9g","pricing_plan_id":"cebpf4jnsgd1na2vs0mg"},{"bike_id":"18e97220-bf24-4738-babf-adf78fe19d0e","system_id":"levelo_inurba_marseille","lat":43.28418,"lon":5.349683,"is_reserved":false,"is_disabled":false,"rental_uris":{"android":"levelo://app?vid=18e97220-bf24-4738-babf-adf78fe19d0e","ios":"levelo://app?vid=18e97220-bf24-4738-babf-adf78fe19d0e"},"vehicle_type_id":"4","last_reported":1729951641,"current_range_meters":24000,"station_id":"ce4bhbh2rcd13ifvqepg","pricing_plan_id":"cebpf4jnsgd1na2vs0mg"},{"bike_id":"af90d39c-3e0c-4229-af99-8d4dba70a1e9","system_id":"levelo_inurba_marseille","lat":43.33025,"lon":5.39038,"is_reserved":false,"is_disabled":false,"rental_uris":{"android":"levelo://app?vid=af90d39c-3e0c-4229-af99-8d4dba70a1e9","ios":"levelo://app?vid=af90d39c-3e0c-4229-af99-8d4dba70a1e9"},"vehicle_type_id":"4","last_reported":1729951641,"current_range_meters":10000,"station_id":"ce4bhr92rcd13ifvqhrg","pricing_plan_id":"cebpf4jnsgd1na2vs0mg"},{"bike_id":"a3af2ecd-ac52-44d6-80f3-3dc73df77a4c","system_id":"levelo_inurba_marseille","lat":43.30533,"lon":5.36533,"is_reserved":false,"is_disabled":false,"rental_uris":{"android":"levelo://app?vid=a3af2ecd-ac52-44d6-80f3-3dc73df77a4c","ios":"levelo://app?vid=a3af2ecd-ac52-44d6-80f3-3dc73df77a4c"},"vehicle_type_id":"4","last_reported":1729951641,"current_range_meters":30800,"station_id":"ce4bgs12rcd13ifvqcag","pricing_plan_id":"cebpf4jnsgd1na2vs0mg"},{"bike_id":"455840c4-825a-43fe-ac64-96a89f80339f","system_id":"levelo_inurba_marseille","lat":43.30097,"lon":5.39097,"is_reserved":false,"is_disabled":false,"rental_uris":{"android":"levelo://app?vid=455840c4-825a-43fe-ac64-96a89f80339f","ios":"levelo://app?vid=455840c4-825a-43fe-ac64-96a89f80339f"},"vehicle_type_id":"4","last_reported":1729951641,"current_range_meters":32400,"station_id":"ce4bh192rcd13ifvqdb0","pricing_plan_id":"cebpf4jnsgd1na2vs0mg"},{"bike_id":"62ae82f1-158f-4243-ae3b-e335180a06f4","system_id":"levelo_inurba_marseille","lat":43.29932,"lon":5.36563,"is_reserved":false,"is_disabled":false,"rental_uris":{"android":"levelo://app?vid=62ae82f1-158f-4243-ae3b-e335180a06f4","ios":"levelo://app?vid=62ae82f1-158f-4243-ae3b-e335180a06f4"},"vehicle_type_id":"4","last_reported":1729951641,"current_range_meters":24400,"station_id":"ce4bgm92rcd13ifvqbr0","pricing_plan_id":"cebpf4jnsgd1na2vs0mg"},{"bike_id":"d805231a-75d9-4fe1-a158-512c4edc93c0","system_id":"levelo_inurba_marseille","lat":43.2898,"lon":5.3784,"is_reserved":false,"is_disabled":false,"rental_uris":{"android":"levelo://app?vid=d805231a-75d9-4fe1-a158-512c4edc93c0","ios":"levelo://app?vid=d805231a-75d9-4fe1-a158-512c4edc93c0"},"vehicle_type_id":"4","last_reported":1729951641,"current_range_meters":38800,"station_id":"ce4bh9p2rcd13ifvqed0","pricing_plan_id":"cebpf4jnsgd1na2vs0mg"},{"bike_id":"ff0a3573-003d-4966-a881-5959109e57ba","system_id":"levelo_inurba_marseille","lat":43.30949,"lon":5.39042,"is_reserved":false,"is_disabled":false,"rental_uris":{"android":"levelo://app?vid=ff0a3573-003d-4966-a881-5959109e57ba","ios":"levelo://app?vid=ff0a3573-003d-4966-a881-5959109e57ba"},"vehicle_type_id":"4","last_reported":1729951641,"current_range_meters":38800,"station_id":"ce4bgup2rcd13ifvqco0","pricing_plan_id":"cebpf4jnsgd1na2vs0mg"},{"bike_id":"6bd21379-faa8-4846-8879-ef9461a40365","system_id":"levelo_inurba_marseille","lat":43.24066,"lon":5.37764,"is_reserved":false,"is_disabled":false,"rental_uris":{"android":"levelo://app?vid=6bd21379-faa8-4846-8879-ef9461a40365","ios":"levelo://app?vid=6bd21379-faa8-4846-8879-ef9461a40365"},"vehicle_type_id":"4","last_reported":1729951641,"current_range_meters":30400,"station_id":"ce4bhnp2rcd13ifvqgvg","pricing_plan_id":"cebpf4jnsgd1na2vs0mg"},{"bike_id":"b425a53a-2ca1-45d6-9375-1a007f59f76d","system_id":"levelo_inurba_marseille","lat":43.274177,"lon":5.394064,"is_reserved":false,"is_disabled":false,"rental_uris":{"android":"levelo://app?vid=b425a53a-2ca1-45d6-9375-1a007f59f76d","ios":"levelo://app?vid=b425a53a-2ca1-45d6-9375-1a007f59f76d"},"vehicle_type_id":"4","last_reported":1729951641,"current_range_meters":19600,"station_id":"ce4bhdp2rcd13ifvqf20","pricing_plan_id":"cebpf4jnsgd1na2vs0mg"},{"bike_id":"cff8651c-77f0-4779-a7d1-9202230ceabd","system_id":"levelo_inurba_marseille","lat":43.28415,"lon":5.34995,"is_reserved":false,"is_disabled":false,"rental_uris":{"android":"levelo://app?vid=cff8651c-77f0-4779-a7d1-9202230ceabd","ios":"levelo://app?vid=cff8651c-77f0-4779-a7d1-9202230ceabd"},"vehicle_type_id":"4","last_reported":1729951641,"current_range_meters":8400,"station_id":"ce4bhbh2rcd13ifvqepg","pricing_plan_id":"cebpf4jnsgd1na2vs0mg"},{"bike_id":"c912794d-6fe6-4ca2-80c1-1e8ef83964e7","system_id":"levelo_inurba_marseille","lat":43.336,"lon":5.41011,"is_reserved":false,"is_disabled":false,"rental_uris":{"android":"levelo://app?vid=c912794d-6fe6-4ca2-80c1-1e8ef83964e7","ios":"levelo://app?vid=c912794d-6fe6-4ca2-80c1-1e8ef83964e7"},"vehicle_type_id":"4","last_reported":1729951641,"current_range_meters":38800,"station_id":"ce4bgh92rcd13ifvqb50","pricing_plan_id":"cebpf4jnsgd1na2vs0mg"},{"bike_id":"9bd8468e-c1ef-4d86-ab40-fd99610bd7c5","system_id":"levelo_inurba_marseille","lat":43.28439,"lon":5.39195,"is_reserved":false,"is_disabled":false,"rental_uris":{"android":"levelo://app?vid=9bd8468e-c1ef-4d86-ab40-fd99610bd7c5","ios":"levelo://app?vid=9bd8468e-c1ef-4d86-ab40-fd99610bd7c5"},"vehicle_type_id":"4","last_reported":1729951641,"current_range_meters":38800,"station_id":"ce4bhoh2rcd13ifvqh5g","pricing_plan_id":"cebpf4jnsgd1na2vs0mg"},{"bike_id":"f906d17c-3a40-4347-9f3b-ae3a2d443e96","system_id":"levelo_inurba_marseille","lat":43.337444,"lon":5.374475,"is_reserved":false,"is_disabled":false,"rental_uris":{"android":"levelo://app?vid=f906d17c-3a40-4347-9f3b-ae3a2d443e96","ios":"levelo://app?vid=f906d17c-3a40-4347-9f3b-ae3a2d443e96"},"vehicle_type_id":"4","last_reported":1729951641,"current_range_meters":37600,"station_id":"ce4bgvh2rcd13ifvqcs0","pricing_plan_id":"cebpf4jnsgd1na2vs0mg"},{"bike_id":"53c5f996-6ad5-48af-b7ab-eb0d176e34d5","system_id":"levelo_inurba_marseille","lat":43.32395,"lon":5.38933,"is_reserved":false,"is_disabled":false,"rental_uris":{"android":"levelo://app?vid=53c5f996-6ad5-48af-b7ab-eb0d176e34d5","ios":"levelo://app?vid=53c5f996-6ad5-48af-b7ab-eb0d176e34d5"},"vehicle_type_id":"4","last_reported":1729951641,"current_range_meters":8800,"station_id":"","pricing_plan_id":"cebpf4jnsgd1na2vs0mg"},{"bike_id":"1c122e80-7b9e-4700-9eaa-1e7c46ed2f63","system_id":"levelo_inurba_marseille","lat":43.28437,"lon":5.3919,"is_reserved":false,"is_disabled":false,"rental_uris":{"android":"levelo://app?vid=1c122e80-7b9e-4700-9eaa-1e7c46ed2f63","ios":"levelo://app?vid=1c122e80-7b9e-4700-9eaa-1e7c46ed2f63"},"vehicle_type_id":"4","last_reported":1729951641,"current_range_meters":38800,"station_id":"ce4bhoh2rcd13ifvqh5g","pricing_plan_id":"cebpf4jnsgd1na2vs0mg"},{"bike_id":"c8702e69-c37e-4961-b027-23a17ebf3c8e","system_id":"levelo_inurba_marseille","lat":43.296,"lon":5.37736,"is_reserved":false,"is_disabled":false,"rental_uris":{"android":"levelo://app?vid=c8702e69-c37e-4961-b027-23a17ebf3c8e","ios":"levelo://app?vid=c8702e69-c37e-4961-b027-23a17ebf3c8e"},"vehicle_type_id":"4","last_reported":1729951641,"current_range_meters":37600,"station_id":"ce4bgi92rcd13ifvqb90","pricing_plan_id":"cebpf4jnsgd1na2vs0mg"},{"bike_id":"aeaaf672-57cd-4ada-b407-3fdd016c6e87","system_id":"levelo_inurba_marseille","lat":43.28847,"lon":5.35841,"is_reserved":false,"is_disabled":false,"rental_uris":{"android":"levelo://app?vid=aeaaf672-57cd-4ada-b407-3fdd016c6e87","ios":"levelo://app?vid=aeaaf672-57cd-4ada-b407-3fdd016c6e87"},"vehicle_type_id":"4","last_reported":1729951641,"current_range_meters":30800,"station_id":"ce4bhb12rcd13ifvqem0","pricing_plan_id":"cebpf4jnsgd1na2vs0mg"},{"bike_id":"9c5bdd23-4ced-431a-9ff5-8741184ae57b","system_id":"levelo_inurba_marseille","lat":43.3122,"lon":5.36852,"is_reserved":false,"is_disabled":false,"rental_uris":{"android":"levelo://app?vid=9c5bdd23-4ced-431a-9ff5-8741184ae57b","ios":"levelo://app?vid=9c5bdd23-4ced-431a-9ff5-8741184ae57b"},"vehicle_type_id":"4","last_reported":1729951641,"current_range_meters":22000,"station_id":"ce4bgl92rcd13ifvqbq0","pricing_plan_id":"cebpf4jnsgd1na2vs0mg"},{"bike_id":"59cd8360-bf86-4680-b143-f46e444cc2dd","system_id":"levelo_inurba_marseille","lat":43.29227,"lon":5.36063,"is_reserved":false,"is_disabled":false,"rental_uris":{"android":"levelo://app?vid=59cd8360-bf86-4680-b143-f46e444cc2dd","ios":"levelo://app?vid=59cd8360-bf86-4680-b143-f46e444cc2dd"},"vehicle_type_id":"4","last_reported":1729951641,"current_range_meters":15200,"station_id":"ce4bhbh2rcd13ifvqeqg","pricing_plan_id":"cebpf4jnsgd1na2vs0mg"},{"bike_id":"6b228b45-c01a-4a25-be88-7895947446d9","system_id":"levelo_inurba_marseille","lat":43.30422,"lon":5.39749,"is_reserved":false,"is_disabled":false,"rental_uris":{"android":"levelo://app?vid=6b228b45-c01a-4a25-be88-7895947446d9","ios":"levelo://app?vid=6b228b45-c01a-4a25-be88-7895947446d9"},"vehicle_type_id":"4","last_reported":1729951641,"current_range_meters":24800,"station_id":"ce4bh092rcd13ifvqd20","pricing_plan_id":"cebpf4jnsgd1na2vs0mg"},{"bike_id":"5f4148c1-c62f-4225-b9ef-8fdef8791f64","system_id":"levelo_inurba_marseille","lat":43.290619,"lon":5.371723,"is_reserved":false,"is_disabled":false,"rental_uris":{"android":"levelo://app?vid=5f4148c1-c62f-4225-b9ef-8fdef8791f64","ios":"levelo://app?vid=5f4148c1-c62f-4225-b9ef-8fdef8791f64"},"vehicle_type_id":"4","last_reported":1729951641,"current_range_meters":6800,"station_id":"ce4bh5p2rcd13ifvqe4g","pricing_plan_id":"cebpf4jnsgd1na2vs0mg"},{"bike_id":"65a299e3-c24f-466b-85de-bffe82da7ba6","system_id":"levelo_inurba_marseille","lat":43.30248,"lon":5.40096,"is_reserved":false,"is_disabled":false,"rental_uris":{"android":"levelo://app?vid=65a299e3-c24f-466b-85de-bffe82da7ba6","ios":"levelo://app?vid=65a299e3-c24f-466b-85de-bffe82da7ba6"},"vehicle_type_id":"4","last_reported":1729951641,"current_range_meters":37600,"station_id":"ce4bgvh2rcd13ifvqcs0","pricing_plan_id":"cebpf4jnsgd1na2vs0mg"},{"bike_id":"a3a32520-c902-4f28-8853-079d50e068c3","system_id":"levelo_inurba_marseille","lat":43.26206,"lon":5.37923,"is_reserved":false,"is_disabled":false,"rental_uris":{"android":"levelo://app?vid=a3a32520-c902-4f28-8853-079d50e068c3","ios":"levelo://app?vid=a3a32520-c902-4f28-8853-079d50e068c3"},"vehicle_type_id":"4","last_reported":1729951641,"current_range_meters":38800,"station_id":"ce4bhjp2rcd13ifvqg90","pricing_plan_id":"cebpf4jnsgd1na2vs0mg"},{"bike_id":"b36635ec-777f-460b-8fc4-683b4e7937dc","system_id":"levelo_inurba_marseille","lat":43.23967,"lon":5.3663,"is_reserved":false,"is_disabled":false,"rental_uris":{"android":"levelo://app?vid=b36635ec-777f-460b-8fc4-683b4e7937dc","ios":"levelo://app?vid=b36635ec-777f-460b-8fc4-683b4e7937dc"},"vehicle_type_id":"4","last_reported":1729951641,"current_range_meters":24400,"station_id":"ce4bhi12rcd13ifvqfp0","pricing_plan_id":"cebpf4jnsgd1na2vs0mg"},{"bike_id":"d36dfeb4-c31e-48df-ab3c-ae4e4ad62517","system_id":"levelo_inurba_marseille","lat":43.31193,"lon":5.3872,"is_reserved":false,"is_disabled":false,"rental_uris":{"android":"levelo://app?vid=d36dfeb4-c31e-48df-ab3c-ae4e4ad62517","ios":"levelo://app?vid=d36dfeb4-c31e-48df-ab3c-ae4e4ad62517"},"vehicle_type_id":"4","last_reported":1729951641,"current_range_meters":29600,"station_id":"ce4bgv12rcd13ifvqcp0","pricing_plan_id":"cebpf4jnsgd1na2vs0mg"},{"bike_id":"3e1205ab-0bc6-479c-9e06-2c971082cf74","system_id":"levelo_inurba_marseille","lat":43.32049,"lon":5.4154,"is_reserved":false,"is_disabled":false,"rental_uris":{"android":"levelo://app?vid=3e1205ab-0bc6-479c-9e06-2c971082cf74","ios":"levelo://app?vid=3e1205ab-0bc6-479c-9e06-2c971082cf74"},"vehicle_type_id":"4","last_reported":1729951641,"current_range_meters":17600,"station_id":"ce4bhq92rcd13ifvqhkg","pricing_plan_id":"cebpf4jnsgd1na2vs0mg"},{"bike_id":"8a7ea3b3-7c19-4f13-a31a-07202c98e2c3","system_id":"levelo_inurba_marseille","lat":43.32477,"lon":5.36566,"is_reserved":false,"is_disabled":false,"rental_uris":{"android":"levelo://app?vid=8a7ea3b3-7c19-4f13-a31a-07202c98e2c3","ios":"levelo://app?vid=8a7ea3b3-7c19-4f13-a31a-07202c98e2c3"},"vehicle_type_id":"4","last_reported":1729951641,"current_range_meters":25600,"station_id":"ce4bhs12rcd13ifvqhvg","pricing_plan_id":"cebpf4jnsgd1na2vs0mg"},{"bike_id":"04518ea9-c53f-40a3-80da-3e58bba4a32f","system_id":"levelo_inurba_marseille","lat":43.22919,"lon":5.3537,"is_reserved":false,"is_disabled":false,"rental_uris":{"android":"levelo://app?vid=04518ea9-c53f-40a3-80da-3e58bba4a32f","ios":"levelo://app?vid=04518ea9-c53f-40a3-80da-3e58bba4a32f"},"vehicle_type_id":"4","last_reported":1729951641,"current_range_meters":32000,"station_id":"cpo3532slgdg3j2ikp40","pricing_plan_id":"cebpf4jnsgd1na2vs0mg"},{"bike_id":"3d537944-7a77-435d-8e52-b9b7b4261932","system_id":"levelo_inurba_marseille","lat":43.29622,"lon":5.37154,"is_reserved":false,"is_disabled":false,"rental_uris":{"android":"levelo://app?vid=3d537944-7a77-435d-8e52-b9b7b4261932","ios":"levelo://app?vid=3d537944-7a77-435d-8e52-b9b7b4261932"},"vehicle_type_id":"4","last_reported":1729951641,"current_range_meters":30800,"station_id":"ce4bgnh2rcd13ifvqc0g","pricing_plan_id":"cebpf4jnsgd1na2vs0mg"},{"bike_id":"60528b55-e747-4a9e-8ca0-272ea3a19644","system_id":"levelo_inurba_marseille","lat":43.27826,"lon":5.39209,"is_reserved":false,"is_disabled":false,"rental_uris":{"android":"levelo://app?vid=60528b55-e747-4a9e-8ca0-272ea3a19644","ios":"levelo://app?vid=60528b55-e747-4a9e-8ca0-272ea3a19644"},"vehicle_type_id":"4","last_reported":1729951641,"current_range_meters":38800,"station_id":"ce4bhjp2rcd13ifvqga0","pricing_plan_id":"cebpf4jnsgd1na2vs0mg"},{"bike_id":"f3a34846-533f-4af0-8097-aa9c2eb94feb","system_id":"levelo_inurba_marseille","lat":43.28984,"lon":5.37841,"is_reserved":false,"is_disabled":false,"rental_uris":{"android":"levelo://app?vid=f3a34846-533f-4af0-8097-aa9c2eb94feb","ios":"levelo://app?vid=f3a34846-533f-4af0-8097-aa9c2eb94feb"},"vehicle_type_id":"4","last_reported":1729951641,"current_range_meters":30400,"station_id":"ce4bh9p2rcd13ifvqed0","pricing_plan_id":"cebpf4jnsgd1na2vs0mg"},{"bike_id":"3d268554-e261-43e5-aeac-30cb023246f1","system_id":"levelo_inurba_marseille","lat":43.23149,"lon":5.43715,"is_reserved":false,"is_disabled":false,"rental_uris":{"android":"levelo://app?vid=3d268554-e261-43e5-aeac-30cb023246f1","ios":"levelo://app?vid=3d268554-e261-43e5-aeac-30cb023246f1"},"vehicle_type_id":"4","last_reported":1729951641,"current_range_meters":5600,"station_id":"ce4bhmp2rcd13ifvqgog","pricing_plan_id":"cebpf4jnsgd1na2vs0mg"},{"bike_id":"c99defe0-8efc-4702-86ff-f4db4c3ca963","system_id":"levelo_inurba_marseille","lat":43.27433,"lon":5.39412,"is_reserved":false,"is_disabled":false,"rental_uris":{"android":"levelo://app?vid=c99defe0-8efc-4702-86ff-f4db4c3ca963","ios":"levelo://app?vid=c99defe0-8efc-4702-86ff-f4db4c3ca963"},"vehicle_type_id":"4","last_reported":1729951641,"current_range_meters":30000,"station_id":"ce4bhdp2rcd13ifvqf20","pricing_plan_id":"cebpf4jnsgd1na2vs0mg"},{"bike_id":"dee36d10-75d4-4e73-abec-e2f0f4df095c","system_id":"levelo_inurba_marseille","lat":43.30085,"lon":5.39073,"is_reserved":false,"is_disabled":false,"rental_uris":{"android":"levelo://app?vid=dee36d10-75d4-4e73-abec-e2f0f4df095c","ios":"levelo://app?vid=dee36d10-75d4-4e73-abec-e2f0f4df095c"},"vehicle_type_id":"4","last_reported":1729951641,"current_range_meters":12800,"station_id":"ce4bh192rcd13ifvqdb0","pricing_plan_id":"cebpf4jnsgd1na2vs0mg"},{"bike_id":"470a42bf-8c27-4188-a0d5-a81835dfe949","system_id":"levelo_inurba_marseille","lat":43.29961,"lon":5.38498,"is_reserved":false,"is_disabled":false,"rental_uris":{"android":"levelo://app?vid=470a42bf-8c27-4188-a0d5-a81835dfe949","ios":"levelo://app?vid=470a42bf-8c27-4188-a0d5-a81835dfe949"},"vehicle_type_id":"4","last_reported":1729951641,"current_range_meters":24800,"station_id":"ce4bgj92rcd13ifvqbd0","pricing_plan_id":"cebpf4jnsgd1na2vs0mg"},{"bike_id":"960c25fd-a513-4486-9205-28e40f919a67","system_id":"levelo_inurba_marseille","lat":43.2844,"lon":5.3918,"is_reserved":false,"is_disabled":false,"rental_uris":{"android":"levelo://app?vid=960c25fd-a513-4486-9205-28e40f919a67","ios":"levelo://app?vid=960c25fd-a513-4486-9205-28e40f919a67"},"vehicle_type_id":"4","last_reported":1729951641,"current_range_meters":30800,"station_id":"ce4bhoh2rcd13ifvqh5g","pricing_plan_id":"cebpf4jnsgd1na2vs0mg"},{"bike_id":"374c6b0b-5583-4ed8-8e1b-71051917a33b","system_id":"levelo_inurba_marseille","lat":43.29969,"lon":5.37199,"is_reserved":false,"is_disabled":false,"rental_uris":{"android":"levelo://app?vid=374c6b0b-5583-4ed8-8e1b-71051917a33b","ios":"levelo://app?vid=374c6b0b-5583-4ed8-8e1b-71051917a33b"},"vehicle_type_id":"4","last_reported":1729951641,"current_range_meters":16800,"station_id":"ce4bgr92rcd13ifvqc7g","pricing_plan_id":"cebpf4jnsgd1na2vs0mg"},{"bike_id":"64828541-88dd-42eb-99f1-4c038df2f017","system_id":"levelo_inurba_marseille","lat":43.26033,"lon":5.37555,"is_reserved":false,"is_disabled":false,"rental_uris":{"android":"levelo://app?vid=64828541-88dd-42eb-99f1-4c038df2f017","ios":"levelo://app?vid=64828541-88dd-42eb-99f1-4c038df2f017"},"vehicle_type_id":"4","last_reported":1729951641,"current_range_meters":4400,"station_id":"ce4bhgh2rcd13ifvqfa0","pricing_plan_id":"cebpf4jnsgd1na2vs0mg"},{"bike_id":"09cd44cc-5e07-4d08-a643-2e9160d171c4","system_id":"levelo_inurba_marseille","lat":43.296,"lon":5.381,"is_reserved":false,"is_disabled":false,"rental_uris":{"android":"levelo://app?vid=09cd44cc-5e07-4d08-a643-2e9160d171c4","ios":"levelo://app?vid=09cd44cc-5e07-4d08-a643-2e9160d171c4"},"vehicle_type_id":"4","last_reported":1729951641,"current_range_meters":32800,"station_id":"ce4bgl12rcd13ifvqbo0","pricing_plan_id":"cebpf4jnsgd1na2vs0mg"},{"bike_id":"5f9c55b9-421c-4a18-843e-bd43cca4fa97","system_id":"levelo_inurba_marseille","lat":43.30555,"lon":5.36544,"is_reserved":false,"is_disabled":false,"rental_uris":{"android":"levelo://app?vid=5f9c55b9-421c-4a18-843e-bd43cca4fa97","ios":"levelo://app?vid=5f9c55b9-421c-4a18-843e-bd43cca4fa97"},"vehicle_type_id":"4","last_reported":1729951641,"current_range_meters":33200,"station_id":"ce4bgs12rcd13ifvqcag","pricing_plan_id":"cebpf4jnsgd1na2vs0mg"},{"bike_id":"45b5e6d6-32fd-49dd-9328-597ec709b243","system_id":"levelo_inurba_marseille","lat":43.32473,"lon":5.36578,"is_reserved":false,"is_disabled":false,"rental_uris":{"android":"levelo://app?vid=45b5e6d6-32fd-49dd-9328-597ec709b243","ios":"levelo://app?vid=45b5e6d6-32fd-49dd-9328-597ec709b243"},"vehicle_type_id":"4","last_reported":1729951641,"current_range_meters":28400,"station_id":"ce4bhs12rcd13ifvqhvg","pricing_plan_id":"cebpf4jnsgd1na2vs0mg"},{"bike_id":"b085dea5-897b-4be3-987f-f14b28d9fed3","system_id":"levelo_inurba_marseille","lat":43.31069,"lon":5.38359,"is_reserved":false,"is_disabled":false,"rental_uris":{"android":"levelo://app?vid=b085dea5-897b-4be3-987f-f14b28d9fed3","ios":"levelo://app?vid=b085dea5-897b-4be3-987f-f14b28d9fed3"},"vehicle_type_id":"4","last_reported":1729951641,"current_range_meters":36000,"station_id":"ce4bgv92rcd13ifvqcr0","pricing_plan_id":"cebpf4jnsgd1na2vs0mg"},{"bike_id":"17456719-10f2-423b-b42b-1d8181cfe555","system_id":"levelo_inurba_marseille","lat":43.30248,"lon":5.401,"is_reserved":false,"is_disabled":false,"rental_uris":{"android":"levelo://app?vid=17456719-10f2-423b-b42b-1d8181cfe555","ios":"levelo://app?vid=17456719-10f2-423b-b42b-1d8181cfe555"},"vehicle_type_id":"4","last_reported":1729951641,"current_range_meters":39200,"station_id":"ce4bgvh2rcd13ifvqcs0","pricing_plan_id":"cebpf4jnsgd1na2vs0mg"},{"bike_id":"e8ff6e07-6eef-4e18-aa8b-2237221f8600","system_id":"levelo_inurba_marseille","lat":43.3046,"lon":5.37902,"is_reserved":false,"is_disabled":false,"rental_uris":{"android":"levelo://app?vid=e8ff6e07-6eef-4e18-aa8b-2237221f8600","ios":"levelo://app?vid=e8ff6e07-6eef-4e18-aa8b-2237221f8600"},"vehicle_type_id":"4","last_reported":1729951641,"current_range_meters":38000,"station_id":"ce4bgup2rcd13ifvqcn0","pricing_plan_id":"cebpf4jnsgd1na2vs0mg"},{"bike_id":"e89316dc-a19a-469f-a9cd-dc00b495757e","system_id":"levelo_inurba_marseille","lat":43.27809,"lon":5.40709,"is_reserved":false,"is_disabled":false,"rental_uris":{"android":"levelo://app?vid=e89316dc-a19a-469f-a9cd-dc00b495757e","ios":"levelo://app?vid=e89316dc-a19a-469f-a9cd-dc00b495757e"},"vehicle_type_id":"4","last_reported":1729951641,"current_range_meters":14400,"station_id":"ce4bhnh2rcd13ifvqgtg","pricing_plan_id":"cebpf4jnsgd1na2vs0mg"},{"bike_id":"ca4fc4ac-302f-463a-af04-47b94db06854","system_id":"levelo_inurba_marseille","lat":43.28448,"lon":5.39208,"is_reserved":false,"is_disabled":false,"rental_uris":{"android":"levelo://app?vid=ca4fc4ac-302f-463a-af04-47b94db06854","ios":"levelo://app?vid=ca4fc4ac-302f-463a-af04-47b94db06854"},"vehicle_type_id":"4","last_reported":1729951641,"current_range_meters":34000,"station_id":"ce4bhoh2rcd13ifvqh5g","pricing_plan_id":"cebpf4jnsgd1na2vs0mg"},{"bike_id":"95c7dcc6-dd3c-4845-b26d-1eded32464d3","system_id":"levelo_inurba_marseille","lat":43.28932,"lon":5.36389,"is_reserved":false,"is_disabled":false,"rental_uris":{"android":"levelo://app?vid=95c7dcc6-dd3c-4845-b26d-1eded32464d3","ios":"levelo://app?vid=95c7dcc6-dd3c-4845-b26d-1eded32464d3"},"vehicle_type_id":"4","last_reported":1729951641,"current_range_meters":27200,"station_id":"ce4bhc92rcd13ifvqetg","pricing_plan_id":"cebpf4jnsgd1na2vs0mg"},{"bike_id":"4f07ad21-5b4a-48fd-b5e5-da89c71cf8b1","system_id":"levelo_inurba_marseille","lat":43.24179,"lon":5.39729,"is_reserved":false,"is_disabled":false,"rental_uris":{"android":"levelo://app?vid=4f07ad21-5b4a-48fd-b5e5-da89c71cf8b1","ios":"levelo://app?vid=4f07ad21-5b4a-48fd-b5e5-da89c71cf8b1"},"vehicle_type_id":"4","last_reported":1729951641,"current_range_meters":2800,"station_id":"ce4bhn12rcd13ifvqgpg","pricing_plan_id":"cebpf4jnsgd1na2vs0mg"},{"bike_id":"fa30867d-31fd-449d-bf86-f380d61b29ca","system_id":"levelo_inurba_marseille","lat":43.28421,"lon":5.34982,"is_reserved":false,"is_disabled":false,"rental_uris":{"android":"levelo://app?vid=fa30867d-31fd-449d-bf86-f380d61b29ca","ios":"levelo://app?vid=fa30867d-31fd-449d-bf86-f380d61b29ca"},"vehicle_type_id":"4","last_reported":1729951641,"current_range_meters":36800,"station_id":"ce4bhbh2rcd13ifvqepg","pricing_plan_id":"cebpf4jnsgd1na2vs0mg"},{"bike_id":"332da9d5-f0f1-4cf2-811d-ffee94be1ccc","system_id":"levelo_inurba_marseille","lat":43.28417,"lon":5.34987,"is_reserved":false,"is_disabled":false,"rental_uris":{"android":"levelo://app?vid=332da9d5-f0f1-4cf2-811d-ffee94be1ccc","ios":"levelo://app?vid=332da9d5-f0f1-4cf2-811d-ffee94be1ccc"},"vehicle_type_id":"4","last_reported":1729951641,"current_range_meters":38800,"station_id":"ce4bhbh2rcd13ifvqepg","pricing_plan_id":"cebpf4jnsgd1na2vs0mg"},{"bike_id":"20bc8438-3663-4554-bffb-2e1b29d847af","system_id":"levelo_inurba_marseille","lat":43.22933,"lon":5.35377,"is_reserved":false,"is_disabled":false,"rental_uris":{"android":"levelo://app?vid=20bc8438-3663-4554-bffb-2e1b29d847af","ios":"levelo://app?vid=20bc8438-3663-4554-bffb-2e1b29d847af"},"vehicle_type_id":"4","last_reported":1729951641,"current_range_meters":10800,"station_id":"cpo3532slgdg3j2ikp40","pricing_plan_id":"cebpf4jnsgd1na2vs0mg"},{"bike_id":"c1bf6512-cbca-4dd0-9fce-347eb9a22b77","system_id":"levelo_inurba_marseille","lat":43.30148,"lon":5.38079,"is_reserved":false,"is_disabled":false,"rental_uris":{"android":"levelo://app?vid=c1bf6512-cbca-4dd0-9fce-347eb9a22b77","ios":"levelo://app?vid=c1bf6512-cbca-4dd0-9fce-347eb9a22b77"},"vehicle_type_id":"4","last_reported":1729951641,"current_range_meters":36000,"station_id":"ce4bgjp2rcd13ifvqbh0","pricing_plan_id":"cebpf4jnsgd1na2vs0mg"},{"bike_id":"c118d512-c17f-4947-89e5-5e866e12167f","system_id":"levelo_inurba_marseille","lat":43.28415,"lon":5.34992,"is_reserved":false,"is_disabled":false,"rental_uris":{"android":"levelo://app?vid=c118d512-c17f-4947-89e5-5e866e12167f","ios":"levelo://app?vid=c118d512-c17f-4947-89e5-5e866e12167f"},"vehicle_type_id":"4","last_reported":1729951641,"current_range_meters":38800,"station_id":"ce4bhbh2rcd13ifvqepg","pricing_plan_id":"cebpf4jnsgd1na2vs0mg"},{"bike_id":"4a08e4d6-633e-4604-8605-4a562fa4e6b8","system_id":"levelo_inurba_marseille","lat":43.30209,"lon":5.36618,"is_reserved":false,"is_disabled":false,"rental_uris":{"android":"levelo://app?vid=4a08e4d6-633e-4604-8605-4a562fa4e6b8","ios":"levelo://app?vid=4a08e4d6-633e-4604-8605-4a562fa4e6b8"},"vehicle_type_id":"4","last_reported":1729951641,"current_range_meters":10800,"station_id":"ce4bgrh2rcd13ifvqc8g","pricing_plan_id":"cebpf4jnsgd1na2vs0mg"},{"bike_id":"7063d9c0-83c2-4a2e-94fa-e2af7be4d467","system_id":"levelo_inurba_marseille","lat":43.30148,"lon":5.38078,"is_reserved":false,"is_disabled":false,"rental_uris":{"android":"levelo://app?vid=7063d9c0-83c2-4a2e-94fa-e2af7be4d467","ios":"levelo://app?vid=7063d9c0-83c2-4a2e-94fa-e2af7be4d467"},"vehicle_type_id":"4","last_reported":1729951641,"current_range_meters":17200,"station_id":"ce4bgjp2rcd13ifvqbh0","pricing_plan_id":"cebpf4jnsgd1na2vs0mg"},{"bike_id":"76329276-dce7-44d3-9d74-277d20e84a0e","system_id":"levelo_inurba_marseille","lat":43.26205,"lon":5.37927,"is_reserved":false,"is_disabled":false,"rental_uris":{"android":"levelo://app?vid=76329276-dce7-44d3-9d74-277d20e84a0e","ios":"levelo://app?vid=76329276-dce7-44d3-9d74-277d20e84a0e"},"vehicle_type_id":"4","last_reported":1729951641,"current_range_meters":38800,"station_id":"ce4bhjp2rcd13ifvqg90","pricing_plan_id":"cebpf4jnsgd1na2vs0mg"},{"bike_id":"f0a235e8-9a12-452d-825e-f30568e2dac3","system_id":"levelo_inurba_marseille","lat":43.24801,"lon":5.37457,"is_reserved":false,"is_disabled":false,"rental_uris":{"android":"levelo://app?vid=f0a235e8-9a12-452d-825e-f30568e2dac3","ios":"levelo://app?vid=f0a235e8-9a12-452d-825e-f30568e2dac3"},"vehicle_type_id":"4","last_reported":1729951641,"current_range_meters":38800,"station_id":"ce4bhgh2rcd13ifvqfb0","pricing_plan_id":"cebpf4jnsgd1na2vs0mg"},