{"last_updated":1724177473,"ttl":30,"version":"2.2","data":{"bikes":[{"bike_id":"9f292a51-20fa-4dab-beac-0e22f768dd93","system_id":"levelo_inurba_marseille","lat":43.31341,"lon":5.367098,"is_reserved":false,"is_disabled":false,"rental_uris":{"android":"levelo://app?vid=9f292a51-20fa-4dab-beac-0e22f768dd93","ios":"levelo://app?vid=9f292a51-20fa-4dab-beac-0e22f768dd93"},"vehicle_type_id":"4","last_reported":1724177473,"current_range_meters":0,"station_id":"ce4bgr92rcd13ifvqc6g","pricing_plan_id":"cebpf4jnsgd1na2vs0mg"},{"bike_id":"958dcaed-6d5e-458f-bd66-7a7d47a0d2a8","system_id":"levelo_inurba_marseille","lat":43.31228,"lon":5.36871,"is_reserved":false,"is_disabled":false,"rental_uris":{"android":"levelo://app?vid=958dcaed-6d5e-458f-bd66-7a7d47a0d2a8","ios":"levelo://app?vid=958dcaed-6d5e-458f-bd66-7a7d47a0d2a8"},"vehicle_type_id":"4","last_reported":1724177473,"current_range_meters":2800,"station_id":"ce4bgl92rcd13ifvqbq0","pricing_plan_id":"cebpf4jnsgd1na2vs0mg"},{"bike_id":"914420b8-ddaf-4bf9-ae4b-1df7e269f9e3","system_id":"levelo_inurba_marseille","lat":43.309076,"lon":5.368465,"is_reserved":false,"is_disabled":false,"rental_uris":{"android":"levelo://app?vid=914420b8-ddaf-4bf9-ae4b-1df7e269f9e3","ios":"levelo://app?vid=914420b8-ddaf-4bf9-ae4b-1df7e269f9e3"},"vehicle_type_id":"4","last_reported":1724177473,"current_range_meters":12400,"station_id":"ce4bgn92rcd13ifvqbvg","pricing_plan_id":"cebpf4jnsgd1na2vs0mg"},{"bike_id":"8654dfd8-97a6-4317-b85a-e26bcc7a01fb","system_id":"levelo_inurba_marseille","lat":43.31487,"lon":5.3731,"is_reserved":false,"is_disabled":false,"rental_uris":{"android":"levelo://app?vid=8654dfd8-97a6-4317-b85a-e26bcc7a01fb","ios":"levelo://app?vid=8654dfd8-97a6-4317-b85a-e26bcc7a01fb"},"vehicle_type_id":"4","last_reported":1724177473,"current_range_meters":400,"station_id":"ce4bgt12rcd13ifvqcd0","pricing_plan_id":"cebpf4jnsgd1na2vs0mg"},{"bike_id":"5881271c-c4a0-4055-8305-c829658a321e","system_id":"levelo_inurba_marseille","lat":43.31486,"lon":5.37311,"is_reserved":false,"is_disabled":false,"rental_uris":{"android":"levelo://app?vid=5881271c-c4a0-4055-8305-c829658a321e","ios":"levelo://app?vid=5881271c-c4a0-4055-8305-c829658a321e"},"vehicle_type_id":"4","last_reported":1724177473,"current_range_meters":0,"station_id":"ce4bgt12rcd13ifvqcd0","pricing_plan_id":"cebpf4jnsgd1na2vs0mg"},{"bike_id":"802fddc7-0590-4a0d-a43c-b1bf721c14ae","system_id":"levelo_inurba_marseille","lat":43.30887,"lon":5.37194,"is_reserved":false,"is_disabled":false,"rental_uris":{"android":"levelo://app?vid=802fddc7-0590-4a0d-a43c-b1bf721c14ae","ios":"levelo://app?vid=802fddc7-0590-4a0d-a43c-b1bf721c14ae"},"vehicle_type_id":"4","last_reported":1724177473,"current_range_meters":31200,"station_id":"ce4bguh2rcd13ifvqckg","pricing_plan_id":"cebpf4jnsgd1na2vs0mg"},{"bike_id":"c989cdd5-fdd4-4185-b3c6-ef791ecd3ecd","system_id":"levelo_inurba_marseille","lat":43.30889,"lon":5.37204,"is_reserved":false,"is_disabled":false,"rental_uris":{"android":"levelo://app?vid=c989cdd5-fdd4-4185-b3c6-ef791ecd3ecd","ios":"levelo://app?vid=c989cdd5-fdd4-4185-b3c6-ef791ecd3ecd"},"vehicle_type_id":"4","last_reported":1724177473,"current_range_meters":31200,"station_id":"ce4bguh2rcd13ifvqckg","pricing_plan_id":"cebpf4jnsgd1na2vs0mg"},{"bike_id":"5223ee75-8b8d-4e8a-9c74-e5443a56beb8","system_id":"levelo_inurba_marseille","lat":43.30537,"lon":5.367345,"is_reserved":false,"is_disabled":false,"rental_uris":{"android":"levelo://app?vid=5223ee75-8b8d-4e8a-9c74-e5443a56beb8","ios":"levelo://app?vid=5223ee75-8b8d-4e8a-9c74-e5443a56beb8"},"vehicle_type_id":"4","last_reported":1724177473,"current_range_meters":0,"station_id":"ce4bgrp2rcd13ifvqc9g","pricing_plan_id":"cebpf4jnsgd1na2vs0mg"},{"bike_id":"200195c3-3531-4385-b27e-3fb7c35b1462","system_id":"levelo_inurba_marseille","lat":43.30537,"lon":5.367345,"is_reserved":false,"is_disabled":false,"rental_uris":{"android":"levelo://app?vid=200195c3-3531-4385-b27e-3fb7c35b1462","ios":"levelo://app?vid=200195c3-3531-4385-b27e-3fb7c35b1462"},"vehicle_type_id":"4","last_reported":1724177473,"current_range_meters":20800,"station_id":"ce4bgrp2rcd13ifvqc9g","pricing_plan_id":"cebpf4jnsgd1na2vs0mg"},{"bike_id":"d92f7d33-0200-47d9-aeb5-3a3850235ee3","system_id":"levelo_inurba_marseille","lat":43.305368,"lon":5.367343,"is_reserved":false,"is_disabled":false,"rental_uris":{"android":"levelo://app?vid=d92f7d33-0200-47d9-aeb5-3a3850235ee3","ios":"levelo://app?vid=d92f7d33-0200-47d9-aeb5-3a3850235ee3"},"vehicle_type_id":"4","last_reported":1724177473,"current_range_meters":24400,"station_id":"ce4bgrp2rcd13ifvqc9g","pricing_plan_id":"cebpf4jnsgd1na2vs0mg"},{"bike_id":"0a72fbab-9ec6-4c35-b1a1-47c4b7b6893f","system_id":"levelo_inurba_marseille","lat":43.30601,"lon":5.37231,"is_reserved":false,"is_disabled":false,"rental_uris":{"android":"levelo://app?vid=0a72fbab-9ec6-4c35-b1a1-47c4b7b6893f","ios":"levelo://app?vid=0a72fbab-9ec6-4c35-b1a1-47c4b7b6893f"},"vehicle_type_id":"4","last_reported":1724177473,"current_range_meters":29600,"station_id":"ce4bgqh2rcd13ifvqc4g","pricing_plan_id":"cebpf4jnsgd1na2vs0mg"},{"bike_id":"4f04e46d-2dd3-46f9-aa94-d8c64c11debc","system_id":"levelo_inurba_marseille","lat":43.30596,"lon":5.37242,"is_reserved":false,"is_disabled":false,"rental_uris":{"android":"levelo://app?vid=4f04e46d-2dd3-46f9-aa94-d8c64c11debc","ios":"levelo://app?vid=4f04e46d-2dd3-46f9-aa94-d8c64c11debc"},"vehicle_type_id":"4","last_reported":1724177473,"current_range_meters":31200,"station_id":"ce4bgqh2rcd13ifvqc4g","pricing_plan_id":"cebpf4jnsgd1na2vs0mg"},{"bike_id":"74ae9b72-97d9-4776-8c57-d5b53f64e654","system_id":"levelo_inurba_marseille","lat":43.31115,"lon":5.37767,"is_reserved":false,"is_disabled":false,"rental_uris":{"android":"levelo://app?vid=74ae9b72-97d9-4776-8c57-d5b53f64e654","ios":"levelo://app?vid=74ae9b72-97d9-4776-8c57-d5b53f64e654"},"vehicle_type_id":"4","last_reported":1724177473,"current_range_meters":0,"station_id":"ce4bgt92rcd13ifvqcg0","pricing_plan_id":"cebpf4jnsgd1na2vs0mg"},{"bike_id":"faf48dd1-e93e-4aad-9dd0-3f634be6b0e5","system_id":"levelo_inurba_marseille","lat":43.307945,"lon":5.376487,"is_reserved":false,"is_disabled":false,"rental_uris":{"android":"levelo://app?vid=faf48dd1-e93e-4aad-9dd0-3f634be6b0e5","ios":"levelo://app?vid=faf48dd1-e93e-4aad-9dd0-3f634be6b0e5"},"vehicle_type_id":"4","last_reported":1724177473,"current_range_meters":11600,"station_id":"ce4bgv92rcd13ifvqcq0","pricing_plan_id":"cebpf4jnsgd1na2vs0mg"},{"bike_id":"fc623347-dcaf-4212-a1f3-298cdc03749a","system_id":"levelo_inurba_marseille","lat":43.307945,"lon":5.376487,"is_reserved":false,"is_disabled":false,"rental_uris":{"android":"levelo://app?vid=fc623347-dcaf-4212-a1f3-298cdc03749a","ios":"levelo://app?vid=fc623347-dcaf-4212-a1f3-298cdc03749a"},"vehicle_type_id":"4","last_reported":1724177473,"current_range_meters":9200,"station_id":"ce4bgv92rcd13ifvqcq0","pricing_plan_id":"cebpf4jnsgd1na2vs0mg"},{"bike_id":"147a20fe-5f4c-46c4-83a7-41fb45f24ba9","system_id":"levelo_inurba_marseille","lat":43.307945,"lon":5.376487,"is_reserved":false,"is_disabled":false,"rental_uris":{"android":"levelo://app?vid=147a20fe-5f4c-46c4-83a7-41fb45f24ba9","ios":"levelo://app?vid=147a20fe-5f4c-46c4-83a7-41fb45f24ba9"},"vehicle_type_id":"4","last_reported":1724177473,"current_range_meters":23200,"station_id":"ce4bgv92rcd13ifvqcq0","pricing_plan_id":"cebpf4jnsgd1na2vs0mg"},{"bike_id":"75cd5b07-e655-478f-9d12-84bf54703b08","system_id":"levelo_inurba_marseille","lat":43.310122,"lon":5.379232,"is_reserved":false,"is_disabled":false,"rental_uris":{"android":"levelo://app?vid=75cd5b07-e655-478f-9d12-84bf54703b08","ios":"levelo://app?vid=75cd5b07-e655-478f-9d12-84bf54703b08"},"vehicle_type_id":"4","last_reported":1724177473,"current_range_meters":0,"station_id":"","pricing_plan_id":"cebpf4jnsgd1na2vs0mg"},{"bike_id":"fb0e83da-36ef-486e-946c-763b4006ff44","system_id":"levelo_inurba_marseille","lat":43.303046,"lon":5.368981,"is_reserved":false,"is_disabled":false,"rental_uris":{"android":"levelo://app?vid=fb0e83da-36ef-486e-946c-763b4006ff44","ios":"levelo://app?vid=fb0e83da-36ef-486e-946c-763b4006ff44"},"vehicle_type_id":"4","last_reported":1724177473,"current_range_meters":3200,"station_id":"ce4bgqh2rcd13ifvqc5g","pricing_plan_id":"cebpf4jnsgd1na2vs0mg"},{"bike_id":"65b70863-3705-4328-b003-65e6ba595737","system_id":"levelo_inurba_marseille","lat":43.30304,"lon":5.368987,"is_reserved":false,"is_disabled":false,"rental_uris":{"android":"levelo://app?vid=65b70863-3705-4328-b003-65e6ba595737","ios":"levelo://app?vid=65b70863-3705-4328-b003-65e6ba595737"},"vehicle_type_id":"4","last_reported":1724177473,"current_range_meters":29600,"station_id":"ce4bgqh2rcd13ifvqc5g","pricing_plan_id":"cebpf4jnsgd1na2vs0mg"},{"bike_id":"b8bf27be-b1c6-4feb-8c88-c2b24bbc0a7f","system_id":"levelo_inurba_marseille","lat":43.303046,"lon":5.368981,"is_reserved":false,"is_disabled":false,"rental_uris":{"android":"levelo://app?vid=b8bf27be-b1c6-4feb-8c88-c2b24bbc0a7f","ios":"levelo://app?vid=b8bf27be-b1c6-4feb-8c88-c2b24bbc0a7f"},"vehicle_type_id":"4","last_reported":1724177473,"current_range_meters":11200,"station_id":"ce4bgqh2rcd13ifvqc5g","pricing_plan_id":"cebpf4jnsgd1na2vs0mg"},{"bike_id":"e7f7c48a-99a6-4882-826e-69cd08d288ea","system_id":"levelo_inurba_marseille","lat":43.303046,"lon":5.368981,"is_reserved":false,"is_disabled":false,"rental_uris":{"android":"levelo://app?vid=e7f7c48a-99a6-4882-826e-69cd08d288ea","ios":"levelo://app?vid=e7f7c48a-99a6-4882-826e-69cd08d288ea"},"vehicle_type_id":"4","last_reported":1724177473,"current_range_meters":6400,"station_id":"ce4bgqh2rcd13ifvqc5g","pricing_plan_id":"cebpf4jnsgd1na2vs0mg"},{"bike_id":"83e5c1a5-5696-4871-839a-1ba90fdf222d","system_id":"levelo_inurba_marseille","lat":43.30304,"lon":5.368987,"is_reserved":false,"is_disabled":false,"rental_uris":{"android":"levelo://app?vid=83e5c1a5-5696-4871-839a-1ba90fdf222d","ios":"levelo://app?vid=83e5c1a5-5696-4871-839a-1ba90fdf222d"},"vehicle_type_id":"4","last_reported":1724177473,"current_range_meters":24800,"station_id":"ce4bgqh2rcd13ifvqc5g","pricing_plan_id":"cebpf4jnsgd1na2vs0mg"},{"bike_id":"ed6fd7ad-70eb-4b7f-852e-22618d01401f","system_id":"levelo_inurba_marseille","lat":43.308012,"lon":5.381511,"is_reserved":false,"is_disabled":false,"rental_uris":{"android":"levelo://app?vid=ed6fd7ad-70eb-4b7f-852e-22618d01401f","ios":"levelo://app?vid=ed6fd7ad-70eb-4b7f-852e-22618d01401f"},"vehicle_type_id":"4","last_reported":1724177473,"current_range_meters":2000,"station_id":"ce4bgt12rcd13ifvqce0","pricing_plan_id":"cebpf4jnsgd1na2vs0mg"},{"bike_id":"7a221f03-7feb-411e-bb48-f90d91b26f62","system_id":"levelo_inurba_marseille","lat":43.308012,"lon":5.381511,"is_reserved":false,"is_disabled":false,"rental_uris":{"android":"levelo://app?vid=7a221f03-7feb-411e-bb48-f90d91b26f62","ios":"levelo://app?vid=7a221f03-7feb-411e-bb48-f90d91b26f62"},"vehicle_type_id":"4","last_reported":1724177473,"current_range_meters":4400,"station_id":"ce4bgt12rcd13ifvqce0","pricing_plan_id":"cebpf4jnsgd1na2vs0mg"},{"bike_id":"a0d2f3c8-c9ca-44e9-a1d8-b2f71c81ca15","system_id":"levelo_inurba_marseille","lat":43.304606,"lon":5.379026,"is_reserved":false,"is_disabled":false,"rental_uris":{"android":"levelo://app?vid=a0d2f3c8-c9ca-44e9-a1d8-b2f71c81ca15","ios":"levelo://app?vid=a0d2f3c8-c9ca-44e9-a1d8-b2f71c81ca15"},"vehicle_type_id":"4","last_reported":1724177473,"current_range_meters":10400,"station_id":"ce4bgup2rcd13ifvqcn0","pricing_plan_id":"cebpf4jnsgd1na2vs0mg"},{"bike_id":"b777db7a-b877-49c1-80a0-c4b829942131","system_id":"levelo_inurba_marseille","lat":43.324771,"lon":5.36557,"is_reserved":false,"is_disabled":false,"rental_uris":{"android":"levelo://app?vid=b777db7a-b877-49c1-80a0-c4b829942131","ios":"levelo://app?vid=b777db7a-b877-49c1-80a0-c4b829942131"},"vehicle_type_id":"4","last_reported":1724177473,"current_range_meters":1600,"station_id":"ce4bhs12rcd13ifvqhvg","pricing_plan_id":"cebpf4jnsgd1na2vs0mg"},{"bike_id":"dc18ef80-7b17-4500-950b-a5b475701f80","system_id":"levelo_inurba_marseille","lat":43.324771,"lon":5.36557,"is_reserved":false,"is_disabled":false,"rental_uris":{"android":"levelo://app?vid=dc18ef80-7b17-4500-950b-a5b475701f80","ios":"levelo://app?vid=dc18ef80-7b17-4500-950b-a5b475701f80"},"vehicle_type_id":"4","last_reported":1724177473,"current_range_meters":7200,"station_id":"ce4bhs12rcd13ifvqhvg","pricing_plan_id":"cebpf4jnsgd1na2vs0mg"},{"bike_id":"40cacabd-e6d7-4354-8326-0016e8a97b29","system_id":"levelo_inurba_marseille","lat":43.310804,"lon":5.38359,"is_reserved":false,"is_disabled":false,"rental_uris":{"android":"levelo://app?vid=40cacabd-e6d7-4354-8326-0016e8a97b29","ios":"levelo://app?vid=40cacabd-e6d7-4354-8326-0016e8a97b29"},"vehicle_type_id":"4","last_reported":1724177473,"current_range_meters":14400,"station_id":"ce4bgv92rcd13ifvqcr0","pricing_plan_id":"cebpf4jnsgd1na2vs0mg"},{"bike_id":"278b0b8d-f4d5-4d54-bea8-763ba57487ff","system_id":"levelo_inurba_marseille","lat":43.302784,"lon":5.377158,"is_reserved":false,"is_disabled":false,"rental_uris":{"android":"levelo://app?vid=278b0b8d-f4d5-4d54-bea8-763ba57487ff","ios":"levelo://app?vid=278b0b8d-f4d5-4d54-bea8-763ba57487ff"},"vehicle_type_id":"4","last_reported":1724177473,"current_range_meters":0,"station_id":"ce4bguh2rcd13ifvqcj0","pricing_plan_id":"cebpf4jnsgd1na2vs0mg"},{"bike_id":"77772792-5800-46b1-9175-4d375e4f5a6a","system_id":"levelo_inurba_marseille","lat":43.319935,"lon":5.381699,"is_reserved":false,"is_disabled":false,"rental_uris":{"android":"levelo://app?vid=77772792-5800-46b1-9175-4d375e4f5a6a","ios":"levelo://app?vid=77772792-5800-46b1-9175-4d375e4f5a6a"},"vehicle_type_id":"4","last_reported":1724177473,"current_range_meters":4400,"station_id":"ce4bhr12rcd13ifvqhpg","pricing_plan_id":"cebpf4jnsgd1na2vs0mg"},{"bike_id":"2d46870b-5aa0-46be-abd8-382df61d5df3","system_id":"levelo_inurba_marseille","lat":43.313571,"lon":5.384829,"is_reserved":false,"is_disabled":false,"rental_uris":{"android":"levelo://app?vid=2d46870b-5aa0-46be-abd8-382df61d5df3","ios":"levelo://app?vid=2d46870b-5aa0-46be-abd8-382df61d5df3"},"vehicle_type_id":"4","last_reported":1724177473,"current_range_meters":6000,"station_id":"ce4bgt92rcd13ifvqcf0","pricing_plan_id":"cebpf4jnsgd1na2vs0mg"},{"bike_id":"83b90f83-47dd-4150-a208-ee15d124ef0c","system_id":"levelo_inurba_marseille","lat":43.313571,"lon":5.384829,"is_reserved":false,"is_disabled":false,"rental_uris":{"android":"levelo://app?vid=83b90f83-47dd-4150-a208-ee15d124ef0c","ios":"levelo://app?vid=83b90f83-47dd-4150-a208-ee15d124ef0c"},"vehicle_type_id":"4","last_reported":1724177473,"current_range_meters":7200,"station_id":"ce4bgt92rcd13ifvqcf0","pricing_plan_id":"cebpf4jnsgd1na2vs0mg"},{"bike_id":"5219cef4-0439-4ed6-b2b3-b1f196fd620d","system_id":"levelo_inurba_marseille","lat":43.31357,"lon":5.38491,"is_reserved":false,"is_disabled":false,"rental_uris":{"android":"levelo://app?vid=5219cef4-0439-4ed6-b2b3-b1f196fd620d","ios":"levelo://app?vid=5219cef4-0439-4ed6-b2b3-b1f196fd620d"},"vehicle_type_id":"4","last_reported":1724177473,"current_range_meters":0,"station_id":"ce4bgt92rcd13ifvqcf0","pricing_plan_id":"cebpf4jnsgd1na2vs0mg"},{"bike_id":"c180979f-9324-471e-a8ba-3f305e0ebf1b","system_id":"levelo_inurba_marseille","lat":43.299724,"lon":5.371829,"is_reserved":false,"is_disabled":false,"rental_uris":{"android":"levelo://app?vid=c180979f-9324-471e-a8ba-3f305e0ebf1b","ios":"levelo://app?vid=c180979f-9324-471e-a8ba-3f305e0ebf1b"},"vehicle_type_id":"4","last_reported":1724177473,"current_range_meters":6400,"station_id":"ce4bgr92rcd13ifvqc7g","pricing_plan_id":"cebpf4jnsgd1na2vs0mg"},{"bike_id":"03a742fa-1190-4c07-b6e9-54425bd42d48","system_id":"levelo_inurba_marseille","lat":43.30648,"lon":5.38416,"is_reserved":false,"is_disabled":false,"rental_uris":{"android":"levelo://app?vid=03a742fa-1190-4c07-b6e9-54425bd42d48","ios":"levelo://app?vid=03a742fa-1190-4c07-b6e9-54425bd42d48"},"vehicle_type_id":"4","last_reported":1724177473,"current_range_meters":26000,"station_id":"","pricing_plan_id":"cebpf4jnsgd1na2vs0mg"},{"bike_id":"f6054473-9c5b-47e2-9635-fe36ebdccd19","system_id":"levelo_inurba_marseille","lat":43.2985,"lon":5.36292,"is_reserved":false,"is_disabled":false,"rental_uris":{"android":"levelo://app?vid=f6054473-9c5b-47e2-9635-fe36ebdccd19","ios":"levelo://app?vid=f6054473-9c5b-47e2-9635-fe36ebdccd19"},"vehicle_type_id":"4","last_reported":1724177473,"current_range_meters":4800,"station_id":"ce4bgpp2rcd13ifvqc3g","pricing_plan_id":"cebpf4jnsgd1na2vs0mg"},{"bike_id":"6e85bb23-f6b2-4ef3-86f2-f9cb20f3e16c","system_id":"levelo_inurba_marseille","lat":43.298433,"lon":5.362774,"is_reserved":false,"is_disabled":false,"rental_uris":{"android":"levelo://app?vid=6e85bb23-f6b2-4ef3-86f2-f9cb20f3e16c","ios":"levelo://app?vid=6e85bb23-f6b2-4ef3-86f2-f9cb20f3e16c"},"vehicle_type_id":"4","last_reported":1724177473,"current_range_meters":23200,"station_id":"ce4bgpp2rcd13ifvqc3g","pricing_plan_id":"cebpf4jnsgd1na2vs0mg"},{"bike_id":"b089c6d3-0aa9-49fb-8231-8b8ddd05e955","system_id":"levelo_inurba_marseille","lat":43.305364,"lon":5.384119,"is_reserved":false,"is_disabled":false,"rental_uris":{"android":"levelo://app?vid=b089c6d3-0aa9-49fb-8231-8b8ddd05e955","ios":"levelo://app?vid=b089c6d3-0aa9-49fb-8231-8b8ddd05e955"},"vehicle_type_id":"4","last_reported":1724177473,"current_range_meters":400,"station_id":"ce4bgg92rcd13ifvqb30","pricing_plan_id":"cebpf4jnsgd1na2vs0mg"},{"bike_id":"53333850-ff01-417b-9903-b5e72814ba13","system_id":"levelo_inurba_marseille","lat":43.298433,"lon":5.362774,"is_reserved":false,"is_disabled":false,"rental_uris":{"android":"levelo://app?vid=53333850-ff01-417b-9903-b5e72814ba13","ios":"levelo://app?vid=53333850-ff01-417b-9903-b5e72814ba13"},"vehicle_type_id":"4","last_reported":1724177473,"current_range_meters":12400,"station_id":"ce4bgpp2rcd13ifvqc3g","pricing_plan_id":"cebpf4jnsgd1na2vs0mg"},{"bike_id":"caa97fa6-32d3-4fda-9792-ee201e8cc03b","system_id":"levelo_inurba_marseille","lat":43.299243,"lon":5.37481,"is_reserved":false,"is_disabled":false,"rental_uris":{"android":"levelo://app?vid=caa97fa6-32d3-4fda-9792-ee201e8cc03b","ios":"levelo://app?vid=caa97fa6-32d3-4fda-9792-ee201e8cc03b"},"vehicle_type_id":"4","last_reported":1724177473,"current_range_meters":4400,"station_id":"ce4bgjh2rcd13ifvqbg0","pricing_plan_id":"cebpf4jnsgd1na2vs0mg"},{"bike_id":"ba3d8096-6642-4de6-89dc-4b6b9e9bcda6","system_id":"levelo_inurba_marseille","lat":43.297794,"lon":5.370888,"is_reserved":false,"is_disabled":false,"rental_uris":{"android":"levelo://app?vid=ba3d8096-6642-4de6-89dc-4b6b9e9bcda6","ios":"levelo://app?vid=ba3d8096-6642-4de6-89dc-4b6b9e9bcda6"},"vehicle_type_id":"4","last_reported":1724177473,"current_range_meters":21600,"station_id":"ce4bgop2rcd13ifvqc1g","pricing_plan_id":"cebpf4jnsgd1na2vs0mg"},{"bike_id":"9de35079-ff0b-4f26-9e89-a57d9850ad50","system_id":"levelo_inurba_marseille","lat":43.322872,"lon":5.382756,"is_reserved":false,"is_disabled":false,"rental_uris":{"android":"levelo://app?vid=9de35079-ff0b-4f26-9e89-a57d9850ad50","ios":"levelo://app?vid=9de35079-ff0b-4f26-9e89-a57d9850ad50"},"vehicle_type_id":"4","last_reported":1724177473,"current_range_meters":10400,"station_id":"ce4bhr12rcd13ifvqhqg","pricing_plan_id":"cebpf4jnsgd1na2vs0mg"},{"bike_id":"e90fb3b6-4ba5-4768-8484-edf2d46fa148","system_id":"levelo_inurba_marseille","lat":43.322872,"lon":5.382756,"is_reserved":false,"is_disabled":false,"rental_uris":{"android":"levelo://app?vid=e90fb3b6-4ba5-4768-8484-edf2d46fa148","ios":"levelo://app?vid=e90fb3b6-4ba5-4768-8484-edf2d46fa148"},"vehicle_type_id":"4","last_reported":1724177473,"current_range_meters":400,"station_id":"ce4bhr12rcd13ifvqhqg","pricing_plan_id":"cebpf4jnsgd1na2vs0mg"},{"bike_id":"1fdd085d-6d34-4b13-bace-68cb6290f999","system_id":"levelo_inurba_marseille","lat":43.322872,"lon":5.382756,"is_reserved":false,"is_disabled":false,"rental_uris":{"android":"levelo://app?vid=1fdd085d-6d34-4b13-bace-68cb6290f999","ios":"levelo://app?vid=1fdd085d-6d34-4b13-bace-68cb6290f999"},"vehicle_type_id":"4","last_reported":1724177473,"current_range_meters":22400,"station_id":"ce4bhr12rcd13ifvqhqg","pricing_plan_id":"cebpf4jnsgd1na2vs0mg"},{"bike_id":"38b10a66-6051-4349-afd2-1d54758bdc3a","system_id":"levelo_inurba_marseille","lat":43.322872,"lon":5.382756,"is_reserved":false,"is_disabled":false,"rental_uris":{"android":"levelo://app?vid=38b10a66-6051-4349-afd2-1d54758bdc3a","ios":"levelo://app?vid=38b10a66-6051-4349-afd2-1d54758bdc3a"},"vehicle_type_id":"4","last_reported":1724177473,"current_range_meters":25200,"station_id":"ce4bhr12rcd13ifvqhqg","pricing_plan_id":"cebpf4jnsgd1na2vs0mg"},{"bike_id":"72ee5bcc-c564-4def-a85b-42a7c2e5d2fc","system_id":"levelo_inurba_marseille","lat":43.298913,"lon":5.375973,"is_reserved":false,"is_disabled":false,"rental_uris":{"android":"levelo://app?vid=72ee5bcc-c564-4def-a85b-42a7c2e5d2fc","ios":"levelo://app?vid=72ee5bcc-c564-4def-a85b-42a7c2e5d2fc"},"vehicle_type_id":"4","last_reported":1724177473,"current_range_meters":8400,"station_id":"","pricing_plan_id":"cebpf4jnsgd1na2vs0mg"},{"bike_id":"9f4e07e3-3fef-46c1-ba1f-4ff47d42c934","system_id":"levelo_inurba_marseille","lat":43.298433,"lon":5.362774,"is_reserved":false,"is_disabled":false,"rental_uris":{"android":"levelo://app?vid=9f4e07e3-3fef-46c1-ba1f-4ff47d42c934","ios":"levelo://app?vid=9f4e07e3-3fef-46c1-ba1f-4ff47d42c934"},"vehicle_type_id":"4","last_reported":1724177473,"current_range_meters":10400,"station_id":"ce4bgpp2rcd13ifvqc3g","pricing_plan_id":"cebpf4jnsgd1na2vs0mg"},{"bike_id":"34814b62-6af5-4d6a-87d2-e4b147d252ba","system_id":"levelo_inurba_marseille","lat":43.29701,"lon":5.36609,"is_reserved":false,"is_disabled":false,"rental_uris":{"android":"levelo://app?vid=34814b62-6af5-4d6a-87d2-e4b147d252ba","ios":"levelo://app?vid=34814b62-6af5-4d6a-87d2-e4b147d252ba"},"vehicle_type_id":"4","last_reported":1724177473,"current_range_meters":0,"station_id":"ce4bgn12rcd13ifvqbt0","pricing_plan_id":"cebpf4jnsgd1na2vs0mg"},{"bike_id":"c4995323-13df-4ee2-94a5-ed025fa9cda7","system_id":"levelo_inurba_marseille","lat":43.30204,"lon":5.38311,"is_reserved":false,"is_disabled":false,"rental_uris":{"android":"levelo://app?vid=c4995323-13df-4ee2-94a5-ed025fa9cda7","ios":"levelo://app?vid=c4995323-13df-4ee2-94a5-ed025fa9cda7"},"vehicle_type_id":"4","last_reported":1724177473,"current_range_meters":18400,"station_id":"","pricing_plan_id":"cebpf4jnsgd1na2vs0mg"},{"bike_id":"173c87e2-330e-4e49-92a9-1f77ef590222","system_id":"levelo_inurba_marseille","lat":43.29672,"lon":5.36435,"is_reserved":false,"is_disabled":false,"rental_uris":{"android":"levelo://app?vid=173c87e2-330e-4e49-92a9-1f77ef590222","ios":"levelo://app?vid=173c87e2-330e-4e49-92a9-1f77ef590222"},"vehicle_type_id":"4","last_reported":1724177473,"current_range_meters":26400,"station_id":"","pricing_plan_id":"cebpf4jnsgd1na2vs0mg"},{"bike_id":"10978901-7248-4d8b-87a4-551081c428fd","system_id":"levelo_inurba_marseille","lat":43.296131,"lon":5.370773,"is_reserved":false,"is_disabled":false,"rental_uris":{"android":"levelo://app?vid=10978901-7248-4d8b-87a4-551081c428fd","ios":"levelo://app?vid=10978901-7248-4d8b-87a4-551081c428fd"},"vehicle_type_id":"4","last_reported":1724177473,"current_range_meters":30400,"station_id":"ce4bgnh2rcd13ifvqc0g","pricing_plan_id":"cebpf4jnsgd1na2vs0mg"},{"bike_id":"3418f153-796e-4d5b-b2b8-593cd27fe94f","system_id":"levelo_inurba_marseille","lat":43.29573,"lon":5.367355,"is_reserved":false,"is_disabled":false,"rental_uris":{"android":"levelo://app?vid=3418f153-796e-4d5b-b2b8-593cd27fe94f","ios":"levelo://app?vid=3418f153-796e-4d5b-b2b8-593cd27fe94f"},"vehicle_type_id":"4","last_reported":1724177473,"current_range_meters":1200,"station_id":"ce4bgph2rcd13ifvqc2g","pricing_plan_id":"cebpf4jnsgd1na2vs0mg"},{"bike_id":"3aa50b69-1971-4ffc-afe5-a17290fae45c","system_id":"levelo_inurba_marseille","lat":43.29907,"lon":5.38158,"is_reserved":false,"is_disabled":false,"rental_uris":{"android":"levelo://app?vid=3aa50b69-1971-4ffc-afe5-a17290fae45c","ios":"levelo://app?vid=3aa50b69-1971-4ffc-afe5-a17290fae45c"},"vehicle_type_id":"4","last_reported":1724177473,"current_range_meters":6000,"station_id":"ce4bgj12rcd13ifvqbc0","pricing_plan_id":"cebpf4jnsgd1na2vs0mg"},{"bike_id":"58f9cecb-25e1-485b-ab3d-e03d4a7f9da2","system_id":"levelo_inurba_marseille","lat":43.317557,"lon":5.390173,"is_reserved":false,"is_disabled":false,"rental_uris":{"android":"levelo://app?vid=58f9cecb-25e1-485b-ab3d-e03d4a7f9da2","ios":"levelo://app?vid=58f9cecb-25e1-485b-ab3d-e03d4a7f9da2"},"vehicle_type_id":"4","last_reported":1724177473,"current_range_meters":0,"station_id":"ce4bhqp2rcd13ifvqhng","pricing_plan_id":"cebpf4jnsgd1na2vs0mg"},{"bike_id":"521190ce-123a-40e2-aa2c-e4af3467ae80","system_id":"levelo_inurba_marseille","lat":43.317557,"lon":5.390173,"is_reserved":false,"is_disabled":false,"rental_uris":{"android":"levelo://app?vid=521190ce-123a-40e2-aa2c-e4af3467ae80","ios":"levelo://app?vid=521190ce-123a-40e2-aa2c-e4af3467ae80"},"vehicle_type_id":"4","last_reported":1724177473,"current_range_meters":1600,"station_id":"ce4bhqp2rcd13ifvqhng","pricing_plan_id":"cebpf4jnsgd1na2vs0mg"},{"bike_id":"c52ea7ef-6973-40d9-a93f-bc2d9ac9defb","system_id":"levelo_inurba_marseille","lat":43.295748,"lon":5.37522,"is_reserved":false,"is_disabled":false,"rental_uris":{"android":"levelo://app?vid=c52ea7ef-6973-40d9-a93f-bc2d9ac9defb","ios":"levelo://app?vid=c52ea7ef-6973-40d9-a93f-bc2d9ac9defb"},"vehicle_type_id":"4","last_reported":1724177473,"current_range_meters":31200,"station_id":"ce4bgh92rcd13ifvqb50","pricing_plan_id":"cebpf4jnsgd1na2vs0mg"},{"bike_id":"2feb2bc3-cc60-4892-9567-5b3aee08d380","system_id":"levelo_inurba_marseille","lat":43.304274,"lon":5.388873,"is_reserved":false,"is_disabled":false,"rental_uris":{"android":"levelo://app?vid=2feb2bc3-cc60-4892-9567-5b3aee08d380","ios":"levelo://app?vid=2feb2bc3-cc60-4892-9567-5b3aee08d380"},"vehicle_type_id":"4","last_reported":1724177473,"current_range_meters":10800,"station_id":"ce4bgk12rcd13ifvqbi0","pricing_plan_id":"cebpf4jnsgd1na2vs0mg"},{"bike_id":"234e2af6-4566-4868-8dbd-fc8e38130d24","system_id":"levelo_inurba_marseille","lat":43.298037,"lon":5.381066,"is_reserved":false,"is_disabled":false,"rental_uris":{"android":"levelo://app?vid=234e2af6-4566-4868-8dbd-fc8e38130d24","ios":"levelo://app?vid=234e2af6-4566-4868-8dbd-fc8e38130d24"},"vehicle_type_id":"4","last_reported":1724177473,"current_range_meters":8000,"station_id":"ce4bgip2rcd13ifvqbb0","pricing_plan_id":"cebpf4jnsgd1na2vs0mg"},{"bike_id":"040bfec0-9823-4a22-be70-34b16a13bbf9","system_id":"levelo_inurba_marseille","lat":43.298037,"lon":5.381066,"is_reserved":false,"is_disabled":false,"rental_uris":{"android":"levelo://app?vid=040bfec0-9823-4a22-be70-34b16a13bbf9","ios":"levelo://app?vid=040bfec0-9823-4a22-be70-34b16a13bbf9"},"vehicle_type_id":"4","last_reported":1724177473,"current_range_meters":7600,"station_id":"ce4bgip2rcd13ifvqbb0","pricing_plan_id":"cebpf4jnsgd1na2vs0mg"},{"bike_id":"ff797d5c-4d9e-4662-9cc4-753faef2aae6","system_id":"levelo_inurba_marseille","lat":43.298037,"lon":5.381066,"is_reserved":false,"is_disabled":false,"rental_uris":{"android":"levelo://app?vid=ff797d5c-4d9e-4662-9cc4-753faef2aae6","ios":"levelo://app?vid=ff797d5c-4d9e-4662-9cc4-753faef2aae6"},"vehicle_type_id":"4","last_reported":1724177473,"current_range_meters":25600,"station_id":"ce4bgip2rcd13ifvqbb0","pricing_plan_id":"cebpf4jnsgd1na2vs0mg"},{"bike_id":"77c76bda-a2cf-48f7-b3ef-f115d045a29f","system_id":"levelo_inurba_marseille","lat":43.304274,"lon":5.388873,"is_reserved":false,"is_disabled":false,"rental_uris":{"android":"levelo://app?vid=77c76bda-a2cf-48f7-b3ef-f115d045a29f","ios":"levelo://app?vid=77c76bda-a2cf-48f7-b3ef-f115d045a29f"},"vehicle_type_id":"4","last_reported":1724177473,"current_range_meters":17200,"station_id":"ce4bgk12rcd13ifvqbi0","pricing_plan_id":"cebpf4jnsgd1na2vs0mg"},{"bike_id":"eb9f19fc-9694-4a43-aa1c-49a31c626119","system_id":"levelo_inurba_marseille","lat":43.296263,"lon":5.377094,"is_reserved":false,"is_disabled":false,"rental_uris":{"android":"levelo://app?vid=eb9f19fc-9694-4a43-aa1c-49a31c626119","ios":"levelo://app?vid=eb9f19fc-9694-4a43-aa1c-49a31c626119"},"vehicle_type_id":"4","last_reported":1724177473,"current_range_meters":0,"station_id":"ce4bgi92rcd13ifvqb90","pricing_plan_id":"cebpf4jnsgd1na2vs0mg"},{"bike_id":"be8b9734-c0cf-48f4-8029-615bcb0efa6a","system_id":"levelo_inurba_marseille","lat":43.298037,"lon":5.381066,"is_reserved":false,"is_disabled":false,"rental_uris":{"android":"levelo://app?vid=be8b9734-c0cf-48f4-8029-615bcb0efa6a","ios":"levelo://app?vid=be8b9734-c0cf-48f4-8029-615bcb0efa6a"},"vehicle_type_id":"4","last_reported":1724177473,"current_range_meters":5600,"station_id":"ce4bgip2rcd13ifvqbb0","pricing_plan_id":"cebpf4jnsgd1na2vs0mg"},{"bike_id":"c6db3763-d62d-4b0f-80a4-ab2ce2c5e77e","system_id":"levelo_inurba_marseille","lat":43.304278,"lon":5.388868,"is_reserved":false,"is_disabled":false,"rental_uris":{"android":"levelo://app?vid=c6db3763-d62d-4b0f-80a4-ab2ce2c5e77e","ios":"levelo://app?vid=c6db3763-d62d-4b0f-80a4-ab2ce2c5e77e"},"vehicle_type_id":"4","last_reported":1724177473,"current_range_meters":9200,"station_id":"ce4bgk12rcd13ifvqbi0","pricing_plan_id":"cebpf4jnsgd1na2vs0mg"},{"bike_id":"9d90d43f-ab0a-47e6-9431-1ddeca9cdede","system_id":"levelo_inurba_marseille","lat":43.304278,"lon":5.388868,"is_reserved":false,"is_disabled":false,"rental_uris":{"android":"levelo://app?vid=9d90d43f-ab0a-47e6-9431-1ddeca9cdede","ios":"levelo://app?vid=9d90d43f-ab0a-47e6-9431-1ddeca9cdede"},"vehicle_type_id":"4","last_reported":1724177473,"current_range_meters":4000,"station_id":"ce4bgk12rcd13ifvqbi0","pricing_plan_id":"cebpf4jnsgd1na2vs0mg"},{"bike_id":"11118a6c-1b72-4dfb-b471-0e12e027b56c","system_id":"levelo_inurba_marseille","lat":43.297551,"lon":5.380871,"is_reserved":false,"is_disabled":false,"rental_uris":{"android":"levelo://app?vid=11118a6c-1b72-4dfb-b471-0e12e027b56c","ios":"levelo://app?vid=11118a6c-1b72-4dfb-b471-0e12e027b56c"},"vehicle_type_id":"4","last_reported":1724177473,"current_range_meters":4400,"station_id":"","pricing_plan_id":"cebpf4jnsgd1na2vs0mg"},{"bike_id":"89aaaaa0-6e40-4d85-93bb-dbfefa3d98b1","system_id":"levelo_inurba_marseille","lat":43.299737,"lon":5.384861,"is_reserved":false,"is_disabled":false,"rental_uris":{"android":"levelo://app?vid=89aaaaa0-6e40-4d85-93bb-dbfefa3d98b1","ios":"levelo://app?vid=89aaaaa0-6e40-4d85-93bb-dbfefa3d98b1"},"vehicle_type_id":"4","last_reported":1724177473,"current_range_meters":2000,"station_id":"ce4bhb92rcd13ifvqen0","pricing_plan_id":"cebpf4jnsgd1na2vs0mg"},{"bike_id":"1d0053f9-b91e-4a76-aefa-6ddf65ab52b2","system_id":"levelo_inurba_marseille","lat":43.295279,"lon":5.375048,"is_reserved":false,"is_disabled":false,"rental_uris":{"android":"levelo://app?vid=1d0053f9-b91e-4a76-aefa-6ddf65ab52b2","ios":"levelo://app?vid=1d0053f9-b91e-4a76-aefa-6ddf65ab52b2"},"vehicle_type_id":"4","last_reported":1724177473,"current_range_meters":1200,"station_id":"ce4bgkp2rcd13ifvqbmg","pricing_plan_id":"cebpf4jnsgd1na2vs0mg"},{"bike_id":"0f5ca824-8f3e-41d3-a758-4a6735fbf838","system_id":"levelo_inurba_marseille","lat":43.29978,"lon":5.38496,"is_reserved":false,"is_disabled":false,"rental_uris":{"android":"levelo://app?vid=0f5ca824-8f3e-41d3-a758-4a6735fbf838","ios":"levelo://app?vid=0f5ca824-8f3e-41d3-a758-4a6735fbf838"},"vehicle_type_id":"4","last_reported":1724177473,"current_range_meters":23600,"station_id":"ce4bgj92rcd13ifvqbd0","pricing_plan_id":"cebpf4jnsgd1na2vs0mg"},{"bike_id":"6bea9c93-8d6e-48ee-860b-a64659c70646","system_id":"levelo_inurba_marseille","lat":43.30139,"lon":5.38774,"is_reserved":false,"is_disabled":false,"rental_uris":{"android":"levelo://app?vid=6bea9c93-8d6e-48ee-860b-a64659c70646","ios":"levelo://app?vid=6bea9c93-8d6e-48ee-860b-a64659c70646"},"vehicle_type_id":"4","last_reported":1724177473,"current_range_meters":0,"station_id":"ce4bghh2rcd13ifvqb60","pricing_plan_id":"cebpf4jnsgd1na2vs0mg"},{"bike_id":"862209ab-b8c7-46b3-8c32-c6e27a370018","system_id":"levelo_inurba_marseille","lat":43.301396,"lon":5.387812,"is_reserved":false,"is_disabled":false,"rental_uris":{"android":"levelo://app?vid=862209ab-b8c7-46b3-8c32-c6e27a370018","ios":"levelo://app?vid=862209ab-b8c7-46b3-8c32-c6e27a370018"},"vehicle_type_id":"4","last_reported":1724177473,"current_range_meters":6000,"station_id":"ce4bghh2rcd13ifvqb60","pricing_plan_id":"cebpf4jnsgd1na2vs0mg"},{"bike_id":"7d00275e-6661-4e69-b00f-0fa5ca76531b","system_id":"levelo_inurba_marseille","lat":43.301396,"lon":5.387812,"is_reserved":false,"is_disabled":false,"rental_uris":{"android":"levelo://app?vid=7d00275e-6661-4e69-b00f-0fa5ca76531b","ios":"levelo://app?vid=7d00275e-6661-4e69-b00f-0fa5ca76531b"},"vehicle_type_id":"4","last_reported":1724177473,"current_range_meters":0,"station_id":"ce4bghh2rcd13ifvqb60","pricing_plan_id":"cebpf4jnsgd1na2vs0mg"},{"bike_id":"44c3bb2e-5024-4656-b430-1530a131733d","system_id":"levelo_inurba_marseille","lat":43.301407,"lon":5.387863,"is_reserved":false,"is_disabled":false,"rental_uris":{"android":"levelo://app?vid=44c3bb2e-5024-4656-b430-1530a131733d","ios":"levelo://app?vid=44c3bb2e-5024-4656-b430-1530a131733d"},"vehicle_type_id":"4","last_reported":1724177473,"current_range_meters":27600,"station_id":"ce4bghh2rcd13ifvqb60","pricing_plan_id":"cebpf4jnsgd1na2vs0mg"},{"bike_id":"2747a882-2a3f-4712-8707-7eaa2696683c","system_id":"levelo_inurba_marseille","lat":43.290624,"lon":5.359245,"is_reserved":false,"is_disabled":false,"rental_uris":{"android":"levelo://app?vid=2747a882-2a3f-4712-8707-7eaa2696683c","ios":"levelo://app?vid=2747a882-2a3f-4712-8707-7eaa2696683c"},"vehicle_type_id":"4","last_reported":1724177473,"current_range_meters":26800,"station_id":"ce4bha92rcd13ifvqeg0","pricing_plan_id":"cebpf4jnsgd1na2vs0mg"},{"bike_id":"7409d33b-2152-4857-ae80-cffd3d7629fe","system_id":"levelo_inurba_marseille","lat":43.32367,"lon":5.388836,"is_reserved":false,"is_disabled":false,"rental_uris":{"android":"levelo://app?vid=7409d33b-2152-4857-ae80-cffd3d7629fe","ios":"levelo://app?vid=7409d33b-2152-4857-ae80-cffd3d7629fe"},"vehicle_type_id":"4","last_reported":1724177473,"current_range_meters":0,"station_id":"ce4bhqp2rcd13ifvqhog","pricing_plan_id":"cebpf4jnsgd1na2vs0mg"},{"bike_id":"a9d2e858-819a-469b-b325-4c7cb03a2b33","system_id":"levelo_inurba_marseille","lat":43.29602,"lon":5.381084,"is_reserved":false,"is_disabled":false,"rental_uris":{"android":"levelo://app?vid=a9d2e858-819a-469b-b325-4c7cb03a2b33","ios":"levelo://app?vid=a9d2e858-819a-469b-b325-4c7cb03a2b33"},"vehicle_type_id":"4","last_reported":1724177473,"current_range_meters":0,"station_id":"ce4bgl12rcd13ifvqbo0","pricing_plan_id":"cebpf4jnsgd1na2vs0mg"},{"bike_id":"543b0178-f2c2-46d2-aaaf-22ac9158f72e","system_id":"levelo_inurba_marseille","lat":43.29598,"lon":5.38098,"is_reserved":false,"is_disabled":false,"rental_uris":{"android":"levelo://app?vid=543b0178-f2c2-46d2-aaaf-22ac9158f72e","ios":"levelo://app?vid=543b0178-f2c2-46d2-aaaf-22ac9158f72e"},"vehicle_type_id":"4","last_reported":1724177473,"current_range_meters":27600,"station_id":"ce4bgl12rcd13ifvqbo0","pricing_plan_id":"cebpf4jnsgd1na2vs0mg"},{"bike_id":"87474189-2280-471a-b36f-4d9918b26adb","system_id":"levelo_inurba_marseille","lat":43.29602,"lon":5.381084,"is_reserved":false,"is_disabled":false,"rental_uris":{"android":"levelo://app?vid=87474189-2280-471a-b36f-4d9918b26adb","ios":"levelo://app?vid=87474189-2280-471a-b36f-4d9918b26adb"},"vehicle_type_id":"4","last_reported":1724177473,"current_range_meters":23600,"station_id":"ce4bgl12rcd13ifvqbo0","pricing_plan_id":"cebpf4jnsgd1na2vs0mg"},{"bike_id":"817b7000-d447-4735-a33f-208faf22024b","system_id":"levelo_inurba_marseille","lat":43.29602,"lon":5.381084,"is_reserved":false,"is_disabled":false,"rental_uris":{"android":"levelo://app?vid=817b7000-d447-4735-a33f-208faf22024b","ios":"levelo://app?vid=817b7000-d447-4735-a33f-208faf22024b"},"vehicle_type_id":"4","last_reported":1724177473,"current_range_meters":4800,"station_id":"ce4bgl12rcd13ifvqbo0","pricing_plan_id":"cebpf4jnsgd1na2vs0mg"},{"bike_id":"ede61598-2d61-49a7-a7a3-e6d57a126e4c","system_id":"levelo_inurba_marseille","lat":43.29596,"lon":5.38102,"is_reserved":false,"is_disabled":false,"rental_uris":{"android":"levelo://app?vid=ede61598-2d61-49a7-a7a3-e6d57a126e4c","ios":"levelo://app?vid=ede61598-2d61-49a7-a7a3-e6d57a126e4c"},"vehicle_type_id":"4","last_reported":1724177473,"current_range_meters":0,"station_id":"ce4bgl12rcd13ifvqbo0","pricing_plan_id":"cebpf4jnsgd1na2vs0mg"},{"bike_id":"73a30fb5-0254-491e-9766-7fc00c8b4d72","system_id":"levelo_inurba_marseille","lat":43.29602,"lon":5.381084,"is_reserved":false,"is_disabled":false,"rental_uris":{"android":"levelo://app?vid=73a30fb5-0254-491e-9766-7fc00c8b4d72","ios":"levelo://app?vid=73a30fb5-0254-491e-9766-7fc00c8b4d72"},"vehicle_type_id":"4","last_reported":1724177473,"current_range_meters":23600,"station_id":"ce4bgl12rcd13ifvqbo0","pricing_plan_id":"cebpf4jnsgd1na2vs0mg"},{"bike_id":"6c6781fa-3a4e-4306-83c3-9e3fc0efce37","system_id":"levelo_inurba_marseille","lat":43.29322,"lon":5.37143,"is_reserved":false,"is_disabled":false,"rental_uris":{"android":"levelo://app?vid=6c6781fa-3a4e-4306-83c3-9e3fc0efce37","ios":"levelo://app?vid=6c6781fa-3a4e-4306-83c3-9e3fc0efce37"},"vehicle_type_id":"4","last_reported":1724177473,"current_range_meters":0,"station_id":"ce4bgh92rcd13ifvqb40","pricing_plan_id":"cebpf4jnsgd1na2vs0mg"},{"bike_id":"5ce55817-c475-4fc5-b5a0-da6341b239fc","system_id":"levelo_inurba_marseille","lat":43.29293,"lon":5.369535,"is_reserved":false,"is_disabled":false,"rental_uris":{"android":"levelo://app?vid=5ce55817-c475-4fc5-b5a0-da6341b239fc","ios":"levelo://app?vid=5ce55817-c475-4fc5-b5a0-da6341b239fc"},"vehicle_type_id":"4","last_reported":1724177473,"current_range_meters":7200,"station_id":"ce4bgjh2rcd13ifvqbf0","pricing_plan_id":"cebpf4jnsgd1na2vs0mg"},{"bike_id":"606acd87-d61f-4a5a-854c-a6297a996dd4","system_id":"levelo_inurba_marseille","lat":43.292749,"lon":5.368402,"is_reserved":false,"is_disabled":false,"rental_uris":{"android":"levelo://app?vid=606acd87-d61f-4a5a-854c-a6297a996dd4","ios":"levelo://app?vid=606acd87-d61f-4a5a-854c-a6297a996dd4"},"vehicle_type_id":"4","last_reported":1724177473,"current_range_meters":15600,"station_id":"ce4bhbp2rcd13ifvqesg","pricing_plan_id":"cebpf4jnsgd1na2vs0mg"},{"bike_id":"afed36c1-8735-4db8-83ab-2edd467dfabe","system_id":"levelo_inurba_marseille","lat":43.29303,"lon":5.3718,"is_reserved":false,"is_disabled":false,"rental_uris":{"android":"levelo://app?vid=afed36c1-8735-4db8-83ab-2edd467dfabe","ios":"levelo://app?vid=afed36c1-8735-4db8-83ab-2edd467dfabe"},"vehicle_type_id":"4","last_reported":1724177473,"current_range_meters":0,"station_id":"ce4bgh92rcd13ifvqb40","pricing_plan_id":"cebpf4jnsgd1na2vs0mg"},{"bike_id":"41a8ce0d-1eb6-41a0-a074-21f9aa6bf5d3","system_id":"levelo_inurba_marseille","lat":43.29302,"lon":5.37176,"is_reserved":false,"is_disabled":false,"rental_uris":{"android":"levelo://app?vid=41a8ce0d-1eb6-41a0-a074-21f9aa6bf5d3","ios":"levelo://app?vid=41a8ce0d-1eb6-41a0-a074-21f9aa6bf5d3"},"vehicle_type_id":"4","last_reported":1724177473,"current_range_meters":0,"station_id":"ce4bgh92rcd13ifvqb40","pricing_plan_id":"cebpf4jnsgd1na2vs0mg"},{"bike_id":"d3d7a8d1-98a7-484e-816a-435d2bfa10e1","system_id":"levelo_inurba_marseille","lat":43.292749,"lon":5.368402,"is_reserved":false,"is_disabled":false,"rental_uris":{"android":"levelo://app?vid=d3d7a8d1-98a7-484e-816a-435d2bfa10e1","ios":"levelo://app?vid=d3d7a8d1-98a7-484e-816a-435d2bfa10e1"},"vehicle_type_id":"4","last_reported":1724177473,"current_range_meters":30400,"station_id":"ce4bhbp2rcd13ifvqesg","pricing_plan_id":"cebpf4jnsgd1na2vs0mg"},{"bike_id":"be807625-5b59-4ae5-a3a7-4df1d019e827","system_id":"levelo_inurba_marseille","lat":43.29273,"lon":5.368444,"is_reserved":false,"is_disabled":false,"rental_uris":{"android":"levelo://app?vid=be807625-5b59-4ae5-a3a7-4df1d019e827","ios":"levelo://app?vid=be807625-5b59-4ae5-a3a7-4df1d019e827"},"vehicle_type_id":"4","last_reported":1724177473,"current_range_meters":0,"station_id":"","pricing_plan_id":"cebpf4jnsgd1na2vs0mg"},{"bike_id":"483b4076-8104-48d9-90ab-8a105382915f","system_id":"levelo_inurba_marseille","lat":43.29268,"lon":5.36857,"is_reserved":false,"is_disabled":false,"rental_uris":{"android":"levelo://app?vid=483b4076-8104-48d9-90ab-8a105382915f","ios":"levelo://app?vid=483b4076-8104-48d9-90ab-8a105382915f"},"vehicle_type_id":"4","last_reported":1724177473,"current_range_meters":0,"station_id":"ce4bhbp2rcd13ifvqesg","pricing_plan_id":"cebpf4jnsgd1na2vs0mg"},{"bike_id":"652a6ab7-8023-42ef-8bc1-549834e1bc45","system_id":"levelo_inurba_marseille","lat":43.292749,"lon":5.368402,"is_reserved":false,"is_disabled":false,"rental_uris":{"android":"levelo://app?vid=652a6ab7-8023-42ef-8bc1-549834e1bc45","ios":"levelo://app?vid=652a6ab7-8023-42ef-8bc1-549834e1bc45"},"vehicle_type_id":"4","last_reported":1724177473,"current_range_meters":3200,"station_id":"ce4bhbp2rcd13ifvqesg","pricing_plan_id":"cebpf4jnsgd1na2vs0mg"},{"bike_id":"8828d8af-7130-4fc2-8474-e22ecf70a723","system_id":"levelo_inurba_marseille","lat":43.292296,"lon":5.366324,"is_reserved":false,"is_disabled":false,"rental_uris":{"android":"levelo://app?vid=8828d8af-7130-4fc2-8474-e22ecf70a723","ios":"levelo://app?vid=8828d8af-7130-4fc2-8474-e22ecf70a723"},"vehicle_type_id":"4","last_reported":1724177473,"current_range_meters":17200,"station_id":"ce4bha92rcd13ifvqeh0","pricing_plan_id":"cebpf4jnsgd1na2vs0mg"},{"bike_id":"76896e1d-2533-482c-972d-b601ca2ebcfd","system_id":"levelo_inurba_marseille","lat":43.29302,"lon":5.37447,"is_reserved":false,"is_disabled":false,"rental_uris":{"android":"levelo://app?vid=76896e1d-2533-482c-972d-b601ca2ebcfd","ios":"levelo://app?vid=76896e1d-2533-482c-972d-b601ca2ebcfd"},"vehicle_type_id":"4","last_reported":1724177473,"current_range_meters":0,"station_id":"ce4bgi12rcd13ifvqb70","pricing_plan_id":"cebpf4jnsgd1na2vs0mg"},{"bike_id":"5f38e686-f232-4708-82a5-ab21d2fe242a","system_id":"levelo_inurba_marseille","lat":43.293009,"lon":5.374584,"is_reserved":false,"is_disabled":false,"rental_uris":{"android":"levelo://app?vid=5f38e686-f232-4708-82a5-ab21d2fe242a","ios":"levelo://app?vid=5f38e686-f232-4708-82a5-ab21d2fe242a"},"vehicle_type_id":"4","last_reported":1724177473,"current_range_meters":29200,"station_id":"ce4bgi12rcd13ifvqb70","pricing_plan_id":"cebpf4jnsgd1na2vs0mg"},{"bike_id":"d3d1b54c-7f54-481e-bfe7-bbaf5564b67f","system_id":"levelo_inurba_marseille","lat":43.3059,"lon":5.39353,"is_reserved":false,"is_disabled":false,"rental_uris":{"android":"levelo://app?vid=d3d1b54c-7f54-481e-bfe7-bbaf5564b67f","ios":"levelo://app?vid=d3d1b54c-7f54-481e-bfe7-bbaf5564b67f"},"vehicle_type_id":"4","last_reported":1724177473,"current_range_meters":0,"station_id":"ce4bh0p2rcd13ifvqd80","pricing_plan_id":"cebpf4jnsgd1na2vs0mg"},{"bike_id":"e1e06653-16ea-482d-80e5-cf086d93b774","system_id":"levelo_inurba_marseille","lat":43.29294,"lon":5.37449,"is_reserved":false,"is_disabled":false,"rental_uris":{"android":"levelo://app?vid=e1e06653-16ea-482d-80e5-cf086d93b774","ios":"levelo://app?vid=e1e06653-16ea-482d-80e5-cf086d93b774"},"vehicle_type_id":"4","last_reported":1724177473,"current_range_meters":0,"station_id":"ce4bgi12rcd13ifvqb70","pricing_plan_id":"cebpf4jnsgd1na2vs0mg"},{"bike_id":"4faac643-4e05-45b8-b076-cda30f0b5344","system_id":"levelo_inurba_marseille","lat":43.29295,"lon":5.37458,"is_reserved":false,"is_disabled":false,"rental_uris":{"android":"levelo://app?vid=4faac643-4e05-45b8-b076-cda30f0b5344","ios":"levelo://app?vid=4faac643-4e05-45b8-b076-cda30f0b5344"},"vehicle_type_id":"4","last_reported":1724177473,"current_range_meters":0,"station_id":"ce4bgi12rcd13ifvqb70","pricing_plan_id":"cebpf4jnsgd1na2vs0mg"},{"bike_id":"0eb202da-ff33-4932-a7c0-726c60c3538a","system_id":"levelo_inurba_marseille","lat":43.305994,"lon":5.393687,"is_reserved":false,"is_disabled":false,"rental_uris":{"android":"levelo://app?vid=0eb202da-ff33-4932-a7c0-726c60c3538a","ios":"levelo://app?vid=0eb202da-ff33-4932-a7c0-726c60c3538a"},"vehicle_type_id":"4","last_reported":1724177473,"current_range_meters":23600,"station_id":"ce4bh0p2rcd13ifvqd80","pricing_plan_id":"cebpf4jnsgd1na2vs0mg"},{"bike_id":"ada80e18-01cd-4a44-8cb8-c78a89cfc524","system_id":"levelo_inurba_marseille","lat":43.303002,"lon":5.392142,"is_reserved":false,"is_disabled":false,"rental_uris":{"android":"levelo://app?vid=ada80e18-01cd-4a44-8cb8-c78a89cfc524","ios":"levelo://app?vid=ada80e18-01cd-4a44-8cb8-c78a89cfc524"},"vehicle_type_id":"4","last_reported":1724177473,"current_range_meters":0,"station_id":"ce4bgkh2rcd13ifvqbk0","pricing_plan_id":"cebpf4jnsgd1na2vs0mg"},{"bike_id":"20ec04c0-474a-49b3-94ca-f5add81a34f4","system_id":"levelo_inurba_marseille","lat":43.302992,"lon":5.392136,"is_reserved":false,"is_disabled":false,"rental_uris":{"android":"levelo://app?vid=20ec04c0-474a-49b3-94ca-f5add81a34f4","ios":"levelo://app?vid=20ec04c0-474a-49b3-94ca-f5add81a34f4"},"vehicle_type_id":"4","last_reported":1724177473,"current_range_meters":0,"station_id":"ce4bgkh2rcd13ifvqbk0","pricing_plan_id":"cebpf4jnsgd1na2vs0mg"},{"bike_id":"85122fc3-9d9d-444d-b41b-78eabf318562","system_id":"levelo_inurba_marseille","lat":43.302992,"lon":5.392136,"is_reserved":false,"is_disabled":false,"rental_uris":{"android":"levelo://app?vid=85122fc3-9d9d-444d-b41b-78eabf318562","ios":"levelo://app?vid=85122fc3-9d9d-444d-b41b-78eabf318562"},"vehicle_type_id":"4","last_reported":1724177473,"current_range_meters":8800,"station_id":"ce4bgkh2rcd13ifvqbk0","pricing_plan_id":"cebpf4jnsgd1na2vs0mg"},{"bike_id":"e819d8dd-e7d0-4412-8ab8-3dadfe21b8d4","system_id":"levelo_inurba_marseille","lat":43.2936,"lon":5.37835,"is_reserved":false,"is_disabled":false,"rental_uris":{"android":"levelo://app?vid=e819d8dd-e7d0-4412-8ab8-3dadfe21b8d4","ios":"levelo://app?vid=e819d8dd-e7d0-4412-8ab8-3dadfe21b8d4"},"vehicle_type_id":"4","last_reported":1724177473,"current_range_meters":13200,"station_id":"ce4bgjh2rcd13ifvqbf0","pricing_plan_id":"cebpf4jnsgd1na2vs0mg"},{"bike_id":"aaf5bdbb-453c-469a-95f2-a1cdd3115a7e","system_id":"levelo_inurba_marseille","lat":43.302992,"lon":5.392136,"is_reserved":false,"is_disabled":false,"rental_uris":{"android":"levelo://app?vid=aaf5bdbb-453c-469a-95f2-a1cdd3115a7e","ios":"levelo://app?vid=aaf5bdbb-453c-469a-95f2-a1cdd3115a7e"},"vehicle_type_id":"4","last_reported":1724177473,"current_range_meters":26400,"station_id":"ce4bgkh2rcd13ifvqbk0","pricing_plan_id":"cebpf4jnsgd1na2vs0mg"},{"bike_id":"64f25df3-8e9f-4829-ace9-7e1a61af13e3","system_id":"levelo_inurba_marseille","lat":43.2936,"lon":5.37835,"is_reserved":false,"is_disabled":false,"rental_uris":{"android":"levelo://app?vid=64f25df3-8e9f-4829-ace9-7e1a61af13e3","ios":"levelo://app?vid=64f25df3-8e9f-4829-ace9-7e1a61af13e3"},"vehicle_type_id":"4","last_reported":1724177473,"current_range_meters":29600,"station_id":"ce4bgjh2rcd13ifvqbf0","pricing_plan_id":"cebpf4jnsgd1na2vs0mg"},{"bike_id":"f5640d42-1b2d-4555-a124-56b6e30cb502","system_id":"levelo_inurba_marseille","lat":43.2936,"lon":5.37835,"is_reserved":false,"is_disabled":false,"rental_uris":{"android":"levelo://app?vid=f5640d42-1b2d-4555-a124-56b6e30cb502","ios":"levelo://app?vid=f5640d42-1b2d-4555-a124-56b6e30cb502"},"vehicle_type_id":"4","last_reported":1724177473,"current_range_meters":14000,"station_id":"ce4bgjh2rcd13ifvqbf0","pricing_plan_id":"cebpf4jnsgd1na2vs0mg"},{"bike_id":"1f79c524-28f6-4178-a620-4702a5d84031","system_id":"levelo_inurba_marseille","lat":43.2936,"lon":5.37835,"is_reserved":false,"is_disabled":false,"rental_uris":{"android":"levelo://app?vid=1f79c524-28f6-4178-a620-4702a5d84031","ios":"levelo://app?vid=1f79c524-28f6-4178-a620-4702a5d84031"},"vehicle_type_id":"4","last_reported":1724177473,"current_range_meters":28000,"station_id":"ce4bgjh2rcd13ifvqbf0","pricing_plan_id":"cebpf4jnsgd1na2vs0mg"},{"bike_id":"67af4f5a-cc99-4a58-9728-8106061bb2d0","system_id":"levelo_inurba_marseille","lat":43.30085,"lon":5.390856,"is_reserved":false,"is_disabled":false,"rental_uris":{"android":"levelo://app?vid=67af4f5a-cc99-4a58-9728-8106061bb2d0","ios":"levelo://app?vid=67af4f5a-cc99-4a58-9728-8106061bb2d0"},"vehicle_type_id":"4","last_reported":1724177473,"current_range_meters":0,"station_id":"ce4bh192rcd13ifvqdb0","pricing_plan_id":"cebpf4jnsgd1na2vs0mg"},{"bike_id":"fc740bc1-13a7-46ca-b78b-5bb64e81b3c6","system_id":"levelo_inurba_marseille","lat":43.29224,"lon":5.36076,"is_reserved":false,"is_disabled":false,"rental_uris":{"android":"levelo://app?vid=fc740bc1-13a7-46ca-b78b-5bb64e81b3c6","ios":"levelo://app?vid=fc740bc1-13a7-46ca-b78b-5bb64e81b3c6"},"vehicle_type_id":"4","last_reported":1724177473,"current_range_meters":31200,"station_id":"ce4bhbh2rcd13ifvqeqg","pricing_plan_id":"cebpf4jnsgd1na2vs0mg"},{"bike_id":"b8e5c7d2-2769-4b25-a385-9989049214c7","system_id":"levelo_inurba_marseille","lat":43.292311,"lon":5.360731,"is_reserved":false,"is_disabled":false,"rental_uris":{"android":"levelo://app?vid=b8e5c7d2-2769-4b25-a385-9989049214c7","ios":"levelo://app?vid=b8e5c7d2-2769-4b25-a385-9989049214c7"},"vehicle_type_id":"4","last_reported":1724177473,"current_range_meters":10800,"station_id":"ce4bhbh2rcd13ifvqeqg","pricing_plan_id":"cebpf4jnsgd1na2vs0mg"},{"bike_id":"955e6e51-497b-4057-8a34-fde83cfe2f51","system_id":"levelo_inurba_marseille","lat":43.292227,"lon":5.360677,"is_reserved":false,"is_disabled":false,"rental_uris":{"android":"levelo://app?vid=955e6e51-497b-4057-8a34-fde83cfe2f51","ios":"levelo://app?vid=955e6e51-497b-4057-8a34-fde83cfe2f51"},"vehicle_type_id":"4","last_reported":1724177473,"current_range_meters":31200,"station_id":"ce4bhbh2rcd13ifvqeqg","pricing_plan_id":"cebpf4jnsgd1na2vs0mg"},{"bike_id":"226e6584-f64b-4def-9cc1-a8a9064cdc8f","system_id":"levelo_inurba_marseille","lat":43.29225,"lon":5.36045,"is_reserved":false,"is_disabled":false,"rental_uris":{"android":"levelo://app?vid=226e6584-f64b-4def-9cc1-a8a9064cdc8f","ios":"levelo://app?vid=226e6584-f64b-4def-9cc1-a8a9064cdc8f"},"vehicle_type_id":"4","last_reported":1724177473,"current_range_meters":26400,"station_id":"ce4bhbh2rcd13ifvqeqg","pricing_plan_id":"cebpf4jnsgd1na2vs0mg"},{"bike_id":"782013bf-fe4a-400c-b9f3-4e680aa07cfb","system_id":"levelo_inurba_marseille","lat":43.29224,"lon":5.3605,"is_reserved":false,"is_disabled":false,"rental_uris":{"android":"levelo://app?vid=782013bf-fe4a-400c-b9f3-4e680aa07cfb","ios":"levelo://app?vid=782013bf-fe4a-400c-b9f3-4e680aa07cfb"},"vehicle_type_id":"4","last_reported":1724177473,"current_range_meters":0,"station_id":"ce4bhbh2rcd13ifvqeqg","pricing_plan_id":"cebpf4jnsgd1na2vs0mg"},{"bike_id":"0b114b8e-4b1e-4aa3-80c8-111c55927384","system_id":"levelo_inurba_marseille","lat":43.30085,"lon":5.390856,"is_reserved":false,"is_disabled":false,"rental_uris":{"android":"levelo://app?vid=0b114b8e-4b1e-4aa3-80c8-111c55927384","ios":"levelo://app?vid=0b114b8e-4b1e-4aa3-80c8-111c55927384"},"vehicle_type_id":"4","last_reported":1724177473,"current_range_meters":12800,"station_id":"ce4bh192rcd13ifvqdb0","pricing_plan_id":"cebpf4jnsgd1na2vs0mg"},{"bike_id":"c9c2c3e3-ac59-4a06-b13f-5d1e7afe7ccc","system_id":"levelo_inurba_marseille","lat":43.30085,"lon":5.390856,"is_reserved":false,"is_disabled":false,"rental_uris":{"android":"levelo://app?vid=c9c2c3e3-ac59-4a06-b13f-5d1e7afe7ccc","ios":"levelo://app?vid=c9c2c3e3-ac59-4a06-b13f-5d1e7afe7ccc"},"vehicle_type_id":"4","last_reported":1724177473,"current_range_meters":1600,"station_id":"ce4bh192rcd13ifvqdb0","pricing_plan_id":"cebpf4jnsgd1na2vs0mg"},{"bike_id":"078c62eb-e556-4f45-bd72-1d0ceed44aec","system_id":"levelo_inurba_marseille","lat":43.29221,"lon":5.36063,"is_reserved":false,"is_disabled":false,"rental_uris":{"android":"levelo://app?vid=078c62eb-e556-4f45-bd72-1d0ceed44aec","ios":"levelo://app?vid=078c62eb-e556-4f45-bd72-1d0ceed44aec"},"vehicle_type_id":"4","last_reported":1724177473,"current_range_meters":28400,"station_id":"ce4bhbh2rcd13ifvqeqg","pricing_plan_id":"cebpf4jnsgd1na2vs0mg"},{"bike_id":"f52139e8-f160-405a-a111-528c3635bdca","system_id":"levelo_inurba_marseille","lat":43.292311,"lon":5.360731,"is_reserved":false,"is_disabled":false,"rental_uris":{"android":"levelo://app?vid=f52139e8-f160-405a-a111-528c3635bdca","ios":"levelo://app?vid=f52139e8-f160-405a-a111-528c3635bdca"},"vehicle_type_id":"4","last_reported":1724177473,"current_range_meters":30800,"station_id":"ce4bhbh2rcd13ifvqeqg","pricing_plan_id":"cebpf4jnsgd1na2vs0mg"},{"bike_id":"595bc2aa-2bca-416f-854b-63d2df82cdee","system_id":"levelo_inurba_marseille","lat":43.292199,"lon":5.360489,"is_reserved":false,"is_disabled":false,"rental_uris":{"android":"levelo://app?vid=595bc2aa-2bca-416f-854b-63d2df82cdee","ios":"levelo://app?vid=595bc2aa-2bca-416f-854b-63d2df82cdee"},"vehicle_type_id":"4","last_reported":1724177473,"current_range_meters":28800,"station_id":"ce4bhbh2rcd13ifvqeqg","pricing_plan_id":"cebpf4jnsgd1na2vs0mg"},{"bike_id":"97e025a6-dbb7-4a13-9255-9882f6fb59ee","system_id":"levelo_inurba_marseille","lat":43.29218,"lon":5.36053,"is_reserved":false,"is_disabled":false,"rental_uris":{"android":"levelo://app?vid=97e025a6-dbb7-4a13-9255-9882f6fb59ee","ios":"levelo://app?vid=97e025a6-dbb7-4a13-9255-9882f6fb59ee"},"vehicle_type_id":"4","last_reported":1724177473,"current_range_meters":31200,"station_id":"ce4bhbh2rcd13ifvqeqg","pricing_plan_id":"cebpf4jnsgd1na2vs0mg"},{"bike_id":"921e1ab7-1bbe-4f3d-a92a-173ebe9ea6f5","system_id":"levelo_inurba_marseille","lat":43.292311,"lon":5.360731,"is_reserved":false,"is_disabled":false,"rental_uris":{"android":"levelo://app?vid=921e1ab7-1bbe-4f3d-a92a-173ebe9ea6f5","ios":"levelo://app?vid=921e1ab7-1bbe-4f3d-a92a-173ebe9ea6f5"},"vehicle_type_id":"4","last_reported":1724177473,"current_range_meters":28400,"station_id":"ce4bhbh2rcd13ifvqeqg","pricing_plan_id":"cebpf4jnsgd1na2vs0mg"},{"bike_id":"c50b1351-2590-48e8-9ecb-621d2bcfb4b9","system_id":"levelo_inurba_marseille","lat":43.29216,"lon":5.36051,"is_reserved":false,"is_disabled":false,"rental_uris":{"android":"levelo://app?vid=c50b1351-2590-48e8-9ecb-621d2bcfb4b9","ios":"levelo://app?vid=c50b1351-2590-48e8-9ecb-621d2bcfb4b9"},"vehicle_type_id":"4","last_reported":1724177473,"current_range_meters":30400,"station_id":"ce4bhbh2rcd13ifvqeqg","pricing_plan_id":"cebpf4jnsgd1na2vs0mg"},{"bike_id":"18159d30-6e6f-44ac-bd54-3a7dff721633","system_id":"levelo_inurba_marseille","lat":43.292311,"lon":5.360731,"is_reserved":false,"is_disabled":false,"rental_uris":{"android":"levelo://app?vid=18159d30-6e6f-44ac-bd54-3a7dff721633","ios":"levelo://app?vid=18159d30-6e6f-44ac-bd54-3a7dff721633"},"vehicle_type_id":"4","last_reported":1724177473,"current_range_meters":24000,"station_id":"ce4bhbh2rcd13ifvqeqg","pricing_plan_id":"cebpf4jnsgd1na2vs0mg"},{"bike_id":"78f249d6-c906-475d-8e32-2c299a20e082","system_id":"levelo_inurba_marseille","lat":43.292311,"lon":5.360731,"is_reserved":false,"is_disabled":false,"rental_uris":{"android":"levelo://app?vid=78f249d6-c906-475d-8e32-2c299a20e082","ios":"levelo://app?vid=78f249d6-c906-475d-8e32-2c299a20e082"},"vehicle_type_id":"4","last_reported":1724177473,"current_range_meters":27200,"station_id":"ce4bhbh2rcd13ifvqeqg","pricing_plan_id":"cebpf4jnsgd1na2vs0mg"},{"bike_id":"f7d5c580-02ba-42a7-aabd-e6e06c398498","system_id":"levelo_inurba_marseille","lat":43.31375,"lon":5.39597,"is_reserved":false,"is_disabled":false,"rental_uris":{"android":"levelo://app?vid=f7d5c580-02ba-42a7-aabd-e6e06c398498","ios":"levelo://app?vid=f7d5c580-02ba-42a7-aabd-e6e06c398498"},"vehicle_type_id":"4","last_reported":1724177473,"current_range_meters":19200,"station_id":"","pricing_plan_id":"cebpf4jnsgd1na2vs0mg"},{"bike_id":"e05ee206-b141-476e-9a0e-9ad98c9e3005","system_id":"levelo_inurba_marseille","lat":43.29206,"lon":5.36078,"is_reserved":false,"is_disabled":false,"rental_uris":{"android":"levelo://app?vid=e05ee206-b141-476e-9a0e-9ad98c9e3005","ios":"levelo://app?vid=e05ee206-b141-476e-9a0e-9ad98c9e3005"},"vehicle_type_id":"4","last_reported":1724177473,"current_range_meters":29600,"station_id":"ce4bhbh2rcd13ifvqeqg","pricing_plan_id":"cebpf4jnsgd1na2vs0mg"},{"bike_id":"c6ea7e55-ae2e-422f-8a35-8cf31577d495","system_id":"levelo_inurba_marseille","lat":43.298764,"lon":5.388973,"is_reserved":false,"is_disabled":false,"rental_uris":{"android":"levelo://app?vid=c6ea7e55-ae2e-422f-8a35-8cf31577d495","ios":"levelo://app?vid=c6ea7e55-ae2e-422f-8a35-8cf31577d495"},"vehicle_type_id":"4","last_reported":1724177473,"current_range_meters":29600,"station_id":"ce4bh392rcd13ifvqdl0","pricing_plan_id":"cebpf4jnsgd1na2vs0mg"},{"bike_id":"bca1e686-29d3-47ea-b6e5-8750312b5881","system_id":"levelo_inurba_marseille","lat":43.298764,"lon":5.388973,"is_reserved":false,"is_disabled":false,"rental_uris":{"android":"levelo://app?vid=bca1e686-29d3-47ea-b6e5-8750312b5881","ios":"levelo://app?vid=bca1e686-29d3-47ea-b6e5-8750312b5881"},"vehicle_type_id":"4","last_reported":1724177473,"current_range_meters":1600,"station_id":"ce4bh392rcd13ifvqdl0","pricing_plan_id":"cebpf4jnsgd1na2vs0mg"},{"bike_id":"b50e7ee0-5c2b-4aca-9401-c29dad95944b","system_id":"levelo_inurba_marseille","lat":43.291675,"lon":5.371583,"is_reserved":false,"is_disabled":false,"rental_uris":{"android":"levelo://app?vid=b50e7ee0-5c2b-4aca-9401-c29dad95944b","ios":"levelo://app?vid=b50e7ee0-5c2b-4aca-9401-c29dad95944b"},"vehicle_type_id":"4","last_reported":1724177473,"current_range_meters":29200,"station_id":"ce4bha92rcd13ifvqeh0","pricing_plan_id":"cebpf4jnsgd1na2vs0mg"},{"bike_id":"fd7e0959-5417-4002-9716-25f0a024ae47","system_id":"levelo_inurba_marseille","lat":43.298764,"lon":5.388973,"is_reserved":false,"is_disabled":false,"rental_uris":{"android":"levelo://app?vid=fd7e0959-5417-4002-9716-25f0a024ae47","ios":"levelo://app?vid=fd7e0959-5417-4002-9716-25f0a024ae47"},"vehicle_type_id":"4","last_reported":1724177473,"current_range_meters":17600,"station_id":"ce4bh392rcd13ifvqdl0","pricing_plan_id":"cebpf4jnsgd1na2vs0mg"},{"bike_id":"6c2c6746-a9bb-4a07-9d86-86aa70cd183a","system_id":"levelo_inurba_marseille","lat":43.291675,"lon":5.371583,"is_reserved":false,"is_disabled":false,"rental_uris":{"android":"levelo://app?vid=6c2c6746-a9bb-4a07-9d86-86aa70cd183a","ios":"levelo://app?vid=6c2c6746-a9bb-4a07-9d86-86aa70cd183a"},"vehicle_type_id":"4","last_reported":1724177473,"current_range_meters":9600,"station_id":"ce4bha92rcd13ifvqeh0","pricing_plan_id":"cebpf4jnsgd1na2vs0mg"},{"bike_id":"cb311e8b-8fe2-4949-b160-2eaec25c1938","system_id":"levelo_inurba_marseille","lat":43.292005,"lon":5.357875,"is_reserved":false,"is_disabled":false,"rental_uris":{"android":"levelo://app?vid=cb311e8b-8fe2-4949-b160-2eaec25c1938","ios":"levelo://app?vid=cb311e8b-8fe2-4949-b160-2eaec25c1938"},"vehicle_type_id":"4","last_reported":1724177473,"current_range_meters":31200,"station_id":"ce4bhb12rcd13ifvqel0","pricing_plan_id":"cebpf4jnsgd1na2vs0mg"},{"bike_id":"bead2cf0-208c-4fbd-b04b-17b8c0ed6f31","system_id":"levelo_inurba_marseille","lat":43.29194,"lon":5.3581,"is_reserved":false,"is_disabled":false,"rental_uris":{"android":"levelo://app?vid=bead2cf0-208c-4fbd-b04b-17b8c0ed6f31","ios":"levelo://app?vid=bead2cf0-208c-4fbd-b04b-17b8c0ed6f31"},"vehicle_type_id":"4","last_reported":1724177473,"current_range_meters":0,"station_id":"ce4bhb12rcd13ifvqel0","pricing_plan_id":"cebpf4jnsgd1na2vs0mg"},{"bike_id":"f17a43cc-3204-45af-9a11-f7a3c036756c","system_id":"levelo_inurba_marseille","lat":43.283494,"lon":5.380945,"is_reserved":false,"is_disabled":false,"rental_uris":{"android":"levelo://app?vid=f17a43cc-3204-45af-9a11-f7a3c036756c","ios":"levelo://app?vid=f17a43cc-3204-45af-9a11-f7a3c036756c"},"vehicle_type_id":"4","last_reported":1724177473,"current_range_meters":7200,"station_id":"ce4bh412rcd13ifvqdr0","pricing_plan_id":"cebpf4jnsgd1na2vs0mg"},{"bike_id":"7e6fa062-c010-45dd-a162-4a081c9abc04","system_id":"levelo_inurba_marseille","lat":43.29194,"lon":5.35806,"is_reserved":false,"is_disabled":false,"rental_uris":{"android":"levelo://app?vid=7e6fa062-c010-45dd-a162-4a081c9abc04","ios":"levelo://app?vid=7e6fa062-c010-45dd-a162-4a081c9abc04"},"vehicle_type_id":"4","last_reported":1724177473,"current_range_meters":12400,"station_id":"ce4bhb12rcd13ifvqel0","pricing_plan_id":"cebpf4jnsgd1na2vs0mg"},{"bike_id":"b55f5e4f-e70e-4574-a9ff-d2508dbe9619","system_id":"levelo_inurba_marseille","lat":43.29194,"lon":5.35801,"is_reserved":false,"is_disabled":false,"rental_uris":{"android":"levelo://app?vid=b55f5e4f-e70e-4574-a9ff-d2508dbe9619","ios":"levelo://app?vid=b55f5e4f-e70e-4574-a9ff-d2508dbe9619"},"vehicle_type_id":"4","last_reported":1724177473,"current_range_meters":30800,"station_id":"ce4bhb12rcd13ifvqel0","pricing_plan_id":"cebpf4jnsgd1na2vs0mg"},{"bike_id":"c942d540-a034-4629-b2cf-cc35ba50be27","system_id":"levelo_inurba_marseille","lat":43.29192,"lon":5.35809,"is_reserved":false,"is_disabled":false,"rental_uris":{"android":"levelo://app?vid=c942d540-a034-4629-b2cf-cc35ba50be27","ios":"levelo://app?vid=c942d540-a034-4629-b2cf-cc35ba50be27"},"vehicle_type_id":"4","last_reported":1724177473,"current_range_meters":12400,"station_id":"ce4bhb12rcd13ifvqel0","pricing_plan_id":"cebpf4jnsgd1na2vs0mg"},{"bike_id":"c9d2252b-1797-4369-8db2-8b22435b5c5d","system_id":"levelo_inurba_marseille","lat":43.313291,"lon":5.396838,"is_reserved":false,"is_disabled":false,"rental_uris":{"android":"levelo://app?vid=c9d2252b-1797-4369-8db2-8b22435b5c5d","ios":"levelo://app?vid=c9d2252b-1797-4369-8db2-8b22435b5c5d"},"vehicle_type_id":"4","last_reported":1724177473,"current_range_meters":22400,"station_id":"ce4bgvp2rcd13ifvqcu0","pricing_plan_id":"cebpf4jnsgd1na2vs0mg"},{"bike_id":"880537ea-c593-49ae-8f4a-982ffc1fd6ca","system_id":"levelo_inurba_marseille","lat":43.29194,"lon":5.35799,"is_reserved":false,"is_disabled":false,"rental_uris":{"android":"levelo://app?vid=880537ea-c593-49ae-8f4a-982ffc1fd6ca","ios":"levelo://app?vid=880537ea-c593-49ae-8f4a-982ffc1fd6ca"},"vehicle_type_id":"4","last_reported":1724177473,"current_range_meters":6800,"station_id":"ce4bhb12rcd13ifvqel0","pricing_plan_id":"cebpf4jnsgd1na2vs0mg"},{"bike_id":"821c250d-3002-4d33-86b8-3dba8776a861","system_id":"levelo_inurba_marseille","lat":43.291902,"lon":5.358094,"is_reserved":false,"is_disabled":false,"rental_uris":{"android":"levelo://app?vid=821c250d-3002-4d33-86b8-3dba8776a861","ios":"levelo://app?vid=821c250d-3002-4d33-86b8-3dba8776a861"},"vehicle_type_id":"4","last_reported":1724177473,"current_range_meters":30800,"station_id":"ce4bhb12rcd13ifvqel0","pricing_plan_id":"cebpf4jnsgd1na2vs0mg"},{"bike_id":"b4746a0a-8caa-435f-b16e-7657ca2a7ab1","system_id":"levelo_inurba_marseille","lat":43.313291,"lon":5.396838,"is_reserved":false,"is_disabled":false,"rental_uris":{"android":"levelo://app?vid=b4746a0a-8caa-435f-b16e-7657ca2a7ab1","ios":"levelo://app?vid=b4746a0a-8caa-435f-b16e-7657ca2a7ab1"},"vehicle_type_id":"4","last_reported":1724177473,"current_range_meters":13600,"station_id":"ce4bgvp2rcd13ifvqcu0","pricing_plan_id":"cebpf4jnsgd1na2vs0mg"},{"bike_id":"6d5d5690-30dc-4636-b9aa-0213ad4d814a","system_id":"levelo_inurba_marseille","lat":43.313291,"lon":5.396838,"is_reserved":false,"is_disabled":false,"rental_uris":{"android":"levelo://app?vid=6d5d5690-30dc-4636-b9aa-0213ad4d814a","ios":"levelo://app?vid=6d5d5690-30dc-4636-b9aa-0213ad4d814a"},"vehicle_type_id":"4","last_reported":1724177473,"current_range_meters":4800,"station_id":"ce4bgvp2rcd13ifvqcu0","pricing_plan_id":"cebpf4jnsgd1na2vs0mg"},{"bike_id":"f0ddc124-1c57-42de-804f-7bae52238591","system_id":"levelo_inurba_marseille","lat":43.313291,"lon":5.396838,"is_reserved":false,"is_disabled":false,"rental_uris":{"android":"levelo://app?vid=f0ddc124-1c57-42de-804f-7bae52238591","ios":"levelo://app?vid=f0ddc124-1c57-42de-804f-7bae52238591"},"vehicle_type_id":"4","last_reported":1724177473,"current_range_meters":10400,"station_id":"ce4bgvp2rcd13ifvqcu0","pricing_plan_id":"cebpf4jnsgd1na2vs0mg"},{"bike_id":"cd793c11-2195-4d53-bf4e-cd7648cf5881","system_id":"levelo_inurba_marseille","lat":43.313291,"lon":5.396838,"is_reserved":false,"is_disabled":false,"rental_uris":{"android":"levelo://app?vid=cd793c11-2195-4d53-bf4e-cd7648cf5881","ios":"levelo://app?vid=cd793c11-2195-4d53-bf4e-cd7648cf5881"},"vehicle_type_id":"4","last_reported":1724177473,"current_range_meters":0,"station_id":"ce4bgvp2rcd13ifvqcu0","pricing_plan_id":"cebpf4jnsgd1na2vs0mg"},{"bike_id":"e04cd4d2-83c2-4e67-984b-bc8b86fed65a","system_id":"levelo_inurba_marseille","lat":43.309038,"lon":5.396546,"is_reserved":false,"is_disabled":false,"rental_uris":{"android":"levelo://app?vid=e04cd4d2-83c2-4e67-984b-bc8b86fed65a","ios":"levelo://app?vid=e04cd4d2-83c2-4e67-984b-bc8b86fed65a"},"vehicle_type_id":"4","last_reported":1724177473,"current_range_meters":8400,"station_id":"ce4bh012rcd13ifvqcv0","pricing_plan_id":"cebpf4jnsgd1na2vs0mg"},{"bike_id":"c5b95486-0cd3-4c42-901c-42d21268a37c","system_id":"levelo_inurba_marseille","lat":43.313291,"lon":5.396838,"is_reserved":false,"is_disabled":false,"rental_uris":{"android":"levelo://app?vid=c5b95486-0cd3-4c42-901c-42d21268a37c","ios":"levelo://app?vid=c5b95486-0cd3-4c42-901c-42d21268a37c"},"vehicle_type_id":"4","last_reported":1724177473,"current_range_meters":5200,"station_id":"ce4bgvp2rcd13ifvqcu0","pricing_plan_id":"cebpf4jnsgd1na2vs0mg"},{"bike_id":"5e06b87f-c5a6-4623-9134-430a8458de51","system_id":"levelo_inurba_marseille","lat":43.313291,"lon":5.396838,"is_reserved":false,"is_disabled":false,"rental_uris":{"android":"levelo://app?vid=5e06b87f-c5a6-4623-9134-430a8458de51","ios":"levelo://app?vid=5e06b87f-c5a6-4623-9134-430a8458de51"},"vehicle_type_id":"4","last_reported":1724177473,"current_range_meters":26000,"station_id":"ce4bgvp2rcd13ifvqcu0","pricing_plan_id":"cebpf4jnsgd1na2vs0mg"},{"bike_id":"7ebac5c7-d4e3-4759-8225-9f72ef7a3e6e","system_id":"levelo_inurba_marseille","lat":43.29188,"lon":5.35803,"is_reserved":false,"is_disabled":false,"rental_uris":{"android":"levelo://app?vid=7ebac5c7-d4e3-4759-8225-9f72ef7a3e6e","ios":"levelo://app?vid=7ebac5c7-d4e3-4759-8225-9f72ef7a3e6e"},"vehicle_type_id":"4","last_reported":1724177473,"current_range_meters":21600,"station_id":"ce4bhb12rcd13ifvqel0","pricing_plan_id":"cebpf4jnsgd1na2vs0mg"},{"bike_id":"31ed5330-3dad-4c4d-89d9-b815609ada36","system_id":"levelo_inurba_marseille","lat":43.29187,"lon":5.35807,"is_reserved":false,"is_disabled":false,"rental_uris":{"android":"levelo://app?vid=31ed5330-3dad-4c4d-89d9-b815609ada36","ios":"levelo://app?vid=31ed5330-3dad-4c4d-89d9-b815609ada36"},"vehicle_type_id":"4","last_reported":1724177473,"current_range_meters":10800,"station_id":"ce4bhb12rcd13ifvqel0","pricing_plan_id":"cebpf4jnsgd1na2vs0mg"},{"bike_id":"87580afc-5ccc-4de2-84e6-75bea960affc","system_id":"levelo_inurba_marseille","lat":43.291865,"lon":5.358088,"is_reserved":false,"is_disabled":false,"rental_uris":{"android":"levelo://app?vid=87580afc-5ccc-4de2-84e6-75bea960affc","ios":"levelo://app?vid=87580afc-5ccc-4de2-84e6-75bea960affc"},"vehicle_type_id":"4","last_reported":1724177473,"current_range_meters":31200,"station_id":"ce4bhb12rcd13ifvqel0","pricing_plan_id":"cebpf4jnsgd1na2vs0mg"},{"bike_id":"02657829-8a0a-477e-9397-b0fb1df3ccd5","system_id":"levelo_inurba_marseille","lat":43.29529,"lon":5.385581,"is_reserved":false,"is_disabled":false,"rental_uris":{"android":"levelo://app?vid=02657829-8a0a-477e-9397-b0fb1df3ccd5","ios":"levelo://app?vid=02657829-8a0a-477e-9397-b0fb1df3ccd5"},"vehicle_type_id":"4","last_reported":1724177473,"current_range_meters":4000,"station_id":"ce4bgih2rcd13ifvqba0","pricing_plan_id":"cebpf4jnsgd1na2vs0mg"},{"bike_id":"6aa15c24-6fc4-4371-8a45-bb65686e6254","system_id":"levelo_inurba_marseille","lat":43.309038,"lon":5.396546,"is_reserved":false,"is_disabled":false,"rental_uris":{"android":"levelo://app?vid=6aa15c24-6fc4-4371-8a45-bb65686e6254","ios":"levelo://app?vid=6aa15c24-6fc4-4371-8a45-bb65686e6254"},"vehicle_type_id":"4","last_reported":1724177473,"current_range_meters":18800,"station_id":"ce4bh012rcd13ifvqcv0","pricing_plan_id":"cebpf4jnsgd1na2vs0mg"},{"bike_id":"c4d46c83-8b68-4902-82e0-7c92dc408eb7","system_id":"levelo_inurba_marseille","lat":43.29529,"lon":5.385581,"is_reserved":false,"is_disabled":false,"rental_uris":{"android":"levelo://app?vid=c4d46c83-8b68-4902-82e0-7c92dc408eb7","ios":"levelo://app?vid=c4d46c83-8b68-4902-82e0-7c92dc408eb7"},"vehicle_type_id":"4","last_reported":1724177473,"current_range_meters":26000,"station_id":"ce4bgih2rcd13ifvqba0","pricing_plan_id":"cebpf4jnsgd1na2vs0mg"},{"bike_id":"96c2a947-93c0-41a4-86d2-168c77b5f770","system_id":"levelo_inurba_marseille","lat":43.295293,"lon":5.385428,"is_reserved":false,"is_disabled":false,"rental_uris":{"android":"levelo://app?vid=96c2a947-93c0-41a4-86d2-168c77b5f770","ios":"levelo://app?vid=96c2a947-93c0-41a4-86d2-168c77b5f770"},"vehicle_type_id":"4","last_reported":1724177473,"current_range_meters":0,"station_id":"ce4bgih2rcd13ifvqba0","pricing_plan_id":"cebpf4jnsgd1na2vs0mg"},{"bike_id":"c68ca823-2bcb-4fa4-9c35-951a32c436fb","system_id":"levelo_inurba_marseille","lat":43.295279,"lon":5.385441,"is_reserved":false,"is_disabled":false,"rental_uris":{"android":"levelo://app?vid=c68ca823-2bcb-4fa4-9c35-951a32c436fb","ios":"levelo://app?vid=c68ca823-2bcb-4fa4-9c35-951a32c436fb"},"vehicle_type_id":"4","last_reported":1724177473,"current_range_meters":0,"station_id":"ce4bgih2rcd13ifvqba0","pricing_plan_id":"cebpf4jnsgd1na2vs0mg"},{"bike_id":"a2af4794-90f8-4e5d-bff5-13787dadde5d","system_id":"levelo_inurba_marseille","lat":43.29529,"lon":5.385581,"is_reserved":false,"is_disabled":false,"rental_uris":{"android":"levelo://app?vid=a2af4794-90f8-4e5d-bff5-13787dadde5d","ios":"levelo://app?vid=a2af4794-90f8-4e5d-bff5-13787dadde5d"},"vehicle_type_id":"4","last_reported":1724177473,"current_range_meters":400,"station_id":"ce4bgih2rcd13ifvqba0","pricing_plan_id":"cebpf4jnsgd1na2vs0mg"},{"bike_id":"64c27aaa-45a4-4556-8567-7db2e0a69e0e","system_id":"levelo_inurba_marseille","lat":43.30211,"lon":5.39461,"is_reserved":false,"is_disabled":false,"rental_uris":{"android":"levelo://app?vid=64c27aaa-45a4-4556-8567-7db2e0a69e0e","ios":"levelo://app?vid=64c27aaa-45a4-4556-8567-7db2e0a69e0e"},"vehicle_type_id":"4","last_reported":1724177473,"current_range_meters":0,"station_id":"ce4bh0p2rcd13ifvqd70","pricing_plan_id":"cebpf4jnsgd1na2vs0mg"},{"bike_id":"b18b7d68-1415-4b08-98a0-8a5cc726b8e7","system_id":"levelo_inurba_marseille","lat":43.302008,"lon":5.394694,"is_reserved":false,"is_disabled":false,"rental_uris":{"android":"levelo://app?vid=b18b7d68-1415-4b08-98a0-8a5cc726b8e7","ios":"levelo://app?vid=b18b7d68-1415-4b08-98a0-8a5cc726b8e7"},"vehicle_type_id":"4","last_reported":1724177473,"current_range_meters":0,"station_id":"ce4bh0p2rcd13ifvqd70","pricing_plan_id":"cebpf4jnsgd1na2vs0mg"},{"bike_id":"277f74ec-913c-46ba-ab43-2c532fc54e81","system_id":"levelo_inurba_marseille","lat":43.30213,"lon":5.394697,"is_reserved":false,"is_disabled":false,"rental_uris":{"android":"levelo://app?vid=277f74ec-913c-46ba-ab43-2c532fc54e81","ios":"levelo://app?vid=277f74ec-913c-46ba-ab43-2c532fc54e81"},"vehicle_type_id":"4","last_reported":1724177473,"current_range_meters":15200,"station_id":"ce4bh0p2rcd13ifvqd70","pricing_plan_id":"cebpf4jnsgd1na2vs0mg"},{"bike_id":"b7d5c4c9-7459-46b5-b9d0-9d695190900b","system_id":"levelo_inurba_marseille","lat":43.30211,"lon":5.39472,"is_reserved":false,"is_disabled":false,"rental_uris":{"android":"levelo://app?vid=b7d5c4c9-7459-46b5-b9d0-9d695190900b","ios":"levelo://app?vid=b7d5c4c9-7459-46b5-b9d0-9d695190900b"},"vehicle_type_id":"4","last_reported":1724177473,"current_range_meters":0,"station_id":"ce4bh0p2rcd13ifvqd70","pricing_plan_id":"cebpf4jnsgd1na2vs0mg"},{"bike_id":"00f2651e-a683-4197-b293-6b1856e59dfc","system_id":"levelo_inurba_marseille","lat":43.290624,"lon":5.359245,"is_reserved":false,"is_disabled":false,"rental_uris":{"android":"levelo://app?vid=00f2651e-a683-4197-b293-6b1856e59dfc","ios":"levelo://app?vid=00f2651e-a683-4197-b293-6b1856e59dfc"},"vehicle_type_id":"4","last_reported":1724177473,"current_range_meters":7200,"station_id":"ce4bha92rcd13ifvqeg0","pricing_plan_id":"cebpf4jnsgd1na2vs0mg"},{"bike_id":"b46b73f8-87f6-4702-b571-4d25ea2bc045","system_id":"levelo_inurba_marseille","lat":43.290624,"lon":5.359245,"is_reserved":false,"is_disabled":false,"rental_uris":{"android":"levelo://app?vid=b46b73f8-87f6-4702-b571-4d25ea2bc045","ios":"levelo://app?vid=b46b73f8-87f6-4702-b571-4d25ea2bc045"},"vehicle_type_id":"4","last_reported":1724177473,"current_range_meters":12800,"station_id":"ce4bha92rcd13ifvqeg0","pricing_plan_id":"cebpf4jnsgd1na2vs0mg"},{"bike_id":"19d84597-9a2a-46be-b1f1-ecb5914c27f5","system_id":"levelo_inurba_marseille","lat":43.290624,"lon":5.359245,"is_reserved":false,"is_disabled":false,"rental_uris":{"android":"levelo://app?vid=19d84597-9a2a-46be-b1f1-ecb5914c27f5","ios":"levelo://app?vid=19d84597-9a2a-46be-b1f1-ecb5914c27f5"},"vehicle_type_id":"4","last_reported":1724177473,"current_range_meters":8000,"station_id":"ce4bha92rcd13ifvqeg0","pricing_plan_id":"cebpf4jnsgd1na2vs0mg"},{"bike_id":"785c1638-1c90-4191-8fc6-ad23fc2a82f2","system_id":"levelo_inurba_marseille","lat":43.290624,"lon":5.359245,"is_reserved":false,"is_disabled":false,"rental_uris":{"android":"levelo://app?vid=785c1638-1c90-4191-8fc6-ad23fc2a82f2","ios":"levelo://app?vid=785c1638-1c90-4191-8fc6-ad23fc2a82f2"},"vehicle_type_id":"4","last_reported":1724177473,"current_range_meters":10000,"station_id":"ce4bha92rcd13ifvqeg0","pricing_plan_id":"cebpf4jnsgd1na2vs0mg"},{"bike_id":"32e8aa45-4867-47da-aaea-cb81f0725a85","system_id":"levelo_inurba_marseille","lat":43.290631,"lon":5.359244,"is_reserved":false,"is_disabled":false,"rental_uris":{"android":"levelo://app?vid=32e8aa45-4867-47da-aaea-cb81f0725a85","ios":"levelo://app?vid=32e8aa45-4867-47da-aaea-cb81f0725a85"},"vehicle_type_id":"4","last_reported":1724177473,"current_range_meters":25600,"station_id":"ce4bha92rcd13ifvqeg0","pricing_plan_id":"cebpf4jnsgd1na2vs0mg"},{"bike_id":"1592cc2b-8578-4ae4-97dc-25dfd846a68a","system_id":"levelo_inurba_marseille","lat":43.294153,"lon":5.386305,"is_reserved":false,"is_disabled":false,"rental_uris":{"android":"levelo://app?vid=1592cc2b-8578-4ae4-97dc-25dfd846a68a","ios":"levelo://app?vid=1592cc2b-8578-4ae4-97dc-25dfd846a68a"},"vehicle_type_id":"4","last_reported":1724177473,"current_range_meters":3200,"station_id":"ce4bh2h2rcd13ifvqdh0","pricing_plan_id":"cebpf4jnsgd1na2vs0mg"},{"bike_id":"cf8509aa-bde9-466e-85a0-1cc135f84712","system_id":"levelo_inurba_marseille","lat":43.294153,"lon":5.386305,"is_reserved":false,"is_disabled":false,"rental_uris":{"android":"levelo://app?vid=cf8509aa-bde9-466e-85a0-1cc135f84712","ios":"levelo://app?vid=cf8509aa-bde9-466e-85a0-1cc135f84712"},"vehicle_type_id":"4","last_reported":1724177473,"current_range_meters":3200,"station_id":"ce4bh2h2rcd13ifvqdh0","pricing_plan_id":"cebpf4jnsgd1na2vs0mg"},{"bike_id":"89a11b19-09b5-493f-80a4-b70481a99b4b","system_id":"levelo_inurba_marseille","lat":43.29421,"lon":5.38627,"is_reserved":false,"is_disabled":false,"rental_uris":{"android":"levelo://app?vid=89a11b19-09b5-493f-80a4-b70481a99b4b","ios":"levelo://app?vid=89a11b19-09b5-493f-80a4-b70481a99b4b"},"vehicle_type_id":"4","last_reported":1724177473,"current_range_meters":2000,"station_id":"ce4bh2h2rcd13ifvqdh0","pricing_plan_id":"cebpf4jnsgd1na2vs0mg"},{"bike_id":"9decfdff-891a-404b-924f-d6cf21d906af","system_id":"levelo_inurba_marseille","lat":43.290319,"lon":5.375732,"is_reserved":false,"is_disabled":false,"rental_uris":{"android":"levelo://app?vid=9decfdff-891a-404b-924f-d6cf21d906af","ios":"levelo://app?vid=9decfdff-891a-404b-924f-d6cf21d906af"},"vehicle_type_id":"4","last_reported":1724177473,"current_range_meters":3600,"station_id":"ce4bh692rcd13ifvqe90","pricing_plan_id":"cebpf4jnsgd1na2vs0mg"},{"bike_id":"971c2479-7556-4b5b-912d-22cd6af505a9","system_id":"levelo_inurba_marseille","lat":43.294153,"lon":5.386305,"is_reserved":false,"is_disabled":false,"rental_uris":{"android":"levelo://app?vid=971c2479-7556-4b5b-912d-22cd6af505a9","ios":"levelo://app?vid=971c2479-7556-4b5b-912d-22cd6af505a9"},"vehicle_type_id":"4","last_reported":1724177473,"current_range_meters":13200,"station_id":"ce4bh2h2rcd13ifvqdh0","pricing_plan_id":"cebpf4jnsgd1na2vs0mg"},{"bike_id":"e9f2cae1-c3fe-4c56-be70-caa24feb015d","system_id":"levelo_inurba_marseille","lat":43.294153,"lon":5.386305,"is_reserved":false,"is_disabled":false,"rental_uris":{"android":"levelo://app?vid=e9f2cae1-c3fe-4c56-be70-caa24feb015d","ios":"levelo://app?vid=e9f2cae1-c3fe-4c56-be70-caa24feb015d"},"vehicle_type_id":"4","last_reported":1724177473,"current_range_meters":10800,"station_id":"ce4bh2h2rcd13ifvqdh0","pricing_plan_id":"cebpf4jnsgd1na2vs0mg"},{"bike_id":"6b1185c2-43a3-4b07-8896-7f94233537ff","system_id":"levelo_inurba_marseille","lat":43.294153,"lon":5.386305,"is_reserved":false,"is_disabled":false,"rental_uris":{"android":"levelo://app?vid=6b1185c2-43a3-4b07-8896-7f94233537ff","ios":"levelo://app?vid=6b1185c2-43a3-4b07-8896-7f94233537ff"},"vehicle_type_id":"4","last_reported":1724177473,"current_range_meters":14400,"station_id":"ce4bh2h2rcd13ifvqdh0","pricing_plan_id":"cebpf4jnsgd1na2vs0mg"},{"bike_id":"d9fba37d-0f61-48b9-80de-5b3f37cfd14f","system_id":"levelo_inurba_marseille","lat":43.294153,"lon":5.386305,"is_reserved":false,"is_disabled":false,"rental_uris":{"android":"levelo://app?vid=d9fba37d-0f61-48b9-80de-5b3f37cfd14f","ios":"levelo://app?vid=d9fba37d-0f61-48b9-80de-5b3f37cfd14f"},"vehicle_type_id":"4","last_reported":1724177473,"current_range_meters":0,"station_id":"ce4bh2h2rcd13ifvqdh0","pricing_plan_id":"cebpf4jnsgd1na2vs0mg"},{"bike_id":"4d927fc9-7e6b-4fff-b18b-38a24ee2f641","system_id":"levelo_inurba_marseille","lat":43.294153,"lon":5.386305,"is_reserved":false,"is_disabled":false,"rental_uris":{"android":"levelo://app?vid=4d927fc9-7e6b-4fff-b18b-38a24ee2f641","ios":"levelo://app?vid=4d927fc9-7e6b-4fff-b18b-38a24ee2f641"},"vehicle_type_id":"4","last_reported":1724177473,"current_range_meters":26400,"station_id":"ce4bh2h2rcd13ifvqdh0","pricing_plan_id":"cebpf4jnsgd1na2vs0mg"},{"bike_id":"fa8a5a35-bcab-43ae-bb47-5fb76b84c163","system_id":"levelo_inurba_marseille","lat":43.29417,"lon":5.38624,"is_reserved":false,"is_disabled":false,"rental_uris":{"android":"levelo://app?vid=fa8a5a35-bcab-43ae-bb47-5fb76b84c163","ios":"levelo://app?vid=fa8a5a35-bcab-43ae-bb47-5fb76b84c163"},"vehicle_type_id":"4","last_reported":1724177473,"current_range_meters":0,"station_id":"ce4bh2h2rcd13ifvqdh0","pricing_plan_id":"cebpf4jnsgd1na2vs0mg"},{"bike_id":"24530b81-1f9f-4288-9967-a7668f0cd6ea","system_id":"levelo_inurba_marseille","lat":43.29033,"lon":5.37565,"is_reserved":false,"is_disabled":false,"rental_uris":{"android":"levelo://app?vid=24530b81-1f9f-4288-9967-a7668f0cd6ea","ios":"levelo://app?vid=24530b81-1f9f-4288-9967-a7668f0cd6ea"},"vehicle_type_id":"4","last_reported":1724177473,"current_range_meters":1200,"station_id":"ce4bh692rcd13ifvqe90","pricing_plan_id":"cebpf4jnsgd1na2vs0mg"},{"bike_id":"ca71b538-3e40-48c8-aa9e-3159f0aa8545","system_id":"levelo_inurba_marseille","lat":43.29417,"lon":5.38626,"is_reserved":false,"is_disabled":false,"rental_uris":{"android":"levelo://app?vid=ca71b538-3e40-48c8-aa9e-3159f0aa8545","ios":"levelo://app?vid=ca71b538-3e40-48c8-aa9e-3159f0aa8545"},"vehicle_type_id":"4","last_reported":1724177473,"current_range_meters":2400,"station_id":"ce4bh2h2rcd13ifvqdh0","pricing_plan_id":"cebpf4jnsgd1na2vs0mg"},{"bike_id":"3c134a21-3974-4de7-a4b0-e8ffc52070a9","system_id":"levelo_inurba_marseille","lat":43.294153,"lon":5.386305,"is_reserved":false,"is_disabled":false,"rental_uris":{"android":"levelo://app?vid=3c134a21-3974-4de7-a4b0-e8ffc52070a9","ios":"levelo://app?vid=3c134a21-3974-4de7-a4b0-e8ffc52070a9"},"vehicle_type_id":"4","last_reported":1724177473,"current_range_meters":3600,"station_id":"ce4bh2h2rcd13ifvqdh0","pricing_plan_id":"cebpf4jnsgd1na2vs0mg"},{"bike_id":"db75ef17-0ce9-4814-b0ad-6711c6eec297","system_id":"levelo_inurba_marseille","lat":43.289433,"lon":5.366313,"is_reserved":false,"is_disabled":false,"rental_uris":{"android":"levelo://app?vid=db75ef17-0ce9-4814-b0ad-6711c6eec297","ios":"levelo://app?vid=db75ef17-0ce9-4814-b0ad-6711c6eec297"},"vehicle_type_id":"4","last_reported":1724177473,"current_range_meters":31200,"station_id":"ce4bhap2rcd13ifvqek0","pricing_plan_id":"cebpf4jnsgd1na2vs0mg"},{"bike_id":"170a76f5-f68d-40b5-9fe6-a7d65ba69641","system_id":"levelo_inurba_marseille","lat":43.294153,"lon":5.386305,"is_reserved":false,"is_disabled":false,"rental_uris":{"android":"levelo://app?vid=170a76f5-f68d-40b5-9fe6-a7d65ba69641","ios":"levelo://app?vid=170a76f5-f68d-40b5-9fe6-a7d65ba69641"},"vehicle_type_id":"4","last_reported":1724177473,"current_range_meters":2800,"station_id":"ce4bh2h2rcd13ifvqdh0","pricing_plan_id":"cebpf4jnsgd1na2vs0mg"},{"bike_id":"fe68b2fe-5d16-4227-b426-83ba89bd84de","system_id":"levelo_inurba_marseille","lat":43.29417,"lon":5.3863,"is_reserved":false,"is_disabled":false,"rental_uris":{"android":"levelo://app?vid=fe68b2fe-5d16-4227-b426-83ba89bd84de","ios":"levelo://app?vid=fe68b2fe-5d16-4227-b426-83ba89bd84de"},"vehicle_type_id":"4","last_reported":1724177473,"current_range_meters":3200,"station_id":"ce4bh2h2rcd13ifvqdh0","pricing_plan_id":"cebpf4jnsgd1na2vs0mg"},{"bike_id":"9f18b094-a7e4-4f93-901e-7b06e6c24347","system_id":"levelo_inurba_marseille","lat":43.294153,"lon":5.386305,"is_reserved":false,"is_disabled":false,"rental_uris":{"android":"levelo://app?vid=9f18b094-a7e4-4f93-901e-7b06e6c24347","ios":"levelo://app?vid=9f18b094-a7e4-4f93-901e-7b06e6c24347"},"vehicle_type_id":"4","last_reported":1724177473,"current_range_meters":14800,"station_id":"ce4bh2h2rcd13ifvqdh0","pricing_plan_id":"cebpf4jnsgd1na2vs0mg"},{"bike_id":"cfa56d69-3a05-4772-a6cf-7d211e20266c","system_id":"levelo_inurba_marseille","lat":43.29414,"lon":5.38625,"is_reserved":false,"is_disabled":false,"rental_uris":{"android":"levelo://app?vid=cfa56d69-3a05-4772-a6cf-7d211e20266c","ios":"levelo://app?vid=cfa56d69-3a05-4772-a6cf-7d211e20266c"},"vehicle_type_id":"4","last_reported":1724177473,"current_range_meters":28000,"station_id":"ce4bh2h2rcd13ifvqdh0","pricing_plan_id":"cebpf4jnsgd1na2vs0mg"},{"bike_id":"bc2b3409-89c9-461f-8170-6684fba364e0","system_id":"levelo_inurba_marseille","lat":43.29413,"lon":5.38625,"is_reserved":false,"is_disabled":false,"rental_uris":{"android":"levelo://app?vid=bc2b3409-89c9-461f-8170-6684fba364e0","ios":"levelo://app?vid=bc2b3409-89c9-461f-8170-6684fba364e0"},"vehicle_type_id":"4","last_reported":1724177473,"current_range_meters":9600,"station_id":"ce4bh2h2rcd13ifvqdh0","pricing_plan_id":"cebpf4jnsgd1na2vs0mg"},{"bike_id":"6e17ce42-b9f2-4158-8f75-3b1c0567ac40","system_id":"levelo_inurba_marseille","lat":43.29415,"lon":5.38629,"is_reserved":false,"is_disabled":false,"rental_uris":{"android":"levelo://app?vid=6e17ce42-b9f2-4158-8f75-3b1c0567ac40","ios":"levelo://app?vid=6e17ce42-b9f2-4158-8f75-3b1c0567ac40"},"vehicle_type_id":"4","last_reported":1724177473,"current_range_meters":15600,"station_id":"ce4bh2h2rcd13ifvqdh0","pricing_plan_id":"cebpf4jnsgd1na2vs0mg"},{"bike_id":"5161d409-3884-4f50-9ed7-ead5c00cab54","system_id":"levelo_inurba_marseille","lat":43.29416,"lon":5.38631,"is_reserved":false,"is_disabled":false,"rental_uris":{"android":"levelo://app?vid=5161d409-3884-4f50-9ed7-ead5c00cab54","ios":"levelo://app?vid=5161d409-3884-4f50-9ed7-ead5c00cab54"},"vehicle_type_id":"4","last_reported":1724177473,"current_range_meters":24800,"station_id":"ce4bh2h2rcd13ifvqdh0","pricing_plan_id":"cebpf4jnsgd1na2vs0mg"},{"bike_id":"92ef7a41-17b3-485a-8441-8ea6681c90f1","system_id":"levelo_inurba_marseille","lat":43.294135,"lon":5.386266,"is_reserved":false,"is_disabled":false,"rental_uris":{"android":"levelo://app?vid=92ef7a41-17b3-485a-8441-8ea6681c90f1","ios":"levelo://app?vid=92ef7a41-17b3-485a-8441-8ea6681c90f1"},"vehicle_type_id":"4","last_reported":1724177473,"current_range_meters":1200,"station_id":"","pricing_plan_id":"cebpf4jnsgd1na2vs0mg"},{"bike_id":"73322591-e8ee-4867-aaf8-1a9ca9863fe7","system_id":"levelo_inurba_marseille","lat":43.289184,"lon":5.366408,"is_reserved":false,"is_disabled":false,"rental_uris":{"android":"levelo://app?vid=73322591-e8ee-4867-aaf8-1a9ca9863fe7","ios":"levelo://app?vid=73322591-e8ee-4867-aaf8-1a9ca9863fe7"},"vehicle_type_id":"4","last_reported":1724177473,"current_range_meters":8400,"station_id":"ce4bhap2rcd13ifvqek0","pricing_plan_id":"cebpf4jnsgd1na2vs0mg"},{"bike_id":"fb197465-1328-4b74-9aaf-a10e4d5956c2","system_id":"levelo_inurba_marseille","lat":43.294162,"lon":5.386292,"is_reserved":false,"is_disabled":false,"rental_uris":{"android":"levelo://app?vid=fb197465-1328-4b74-9aaf-a10e4d5956c2","ios":"levelo://app?vid=fb197465-1328-4b74-9aaf-a10e4d5956c2"},"vehicle_type_id":"4","last_reported":1724177473,"current_range_meters":9600,"station_id":"ce4bh2h2rcd13ifvqdh0","pricing_plan_id":"cebpf4jnsgd1na2vs0mg"},{"bike_id":"63aebc78-2f80-4e34-85a8-ae3b4d83d5bf","system_id":"levelo_inurba_marseille","lat":43.28939,"lon":5.3663,"is_reserved":false,"is_disabled":false,"rental_uris":{"android":"levelo://app?vid=63aebc78-2f80-4e34-85a8-ae3b4d83d5bf","ios":"levelo://app?vid=63aebc78-2f80-4e34-85a8-ae3b4d83d5bf"},"vehicle_type_id":"4","last_reported":1724177473,"current_range_meters":5200,"station_id":"ce4bhap2rcd13ifvqek0","pricing_plan_id":"cebpf4jnsgd1na2vs0mg"},{"bike_id":"290f5547-2122-4ebe-a2e4-d6a316d1ba70","system_id":"levelo_inurba_marseille","lat":43.289468,"lon":5.363719,"is_reserved":false,"is_disabled":false,"rental_uris":{"android":"levelo://app?vid=290f5547-2122-4ebe-a2e4-d6a316d1ba70","ios":"levelo://app?vid=290f5547-2122-4ebe-a2e4-d6a316d1ba70"},"vehicle_type_id":"4","last_reported":1724177473,"current_range_meters":12800,"station_id":"ce4bhc92rcd13ifvqetg","pricing_plan_id":"cebpf4jnsgd1na2vs0mg"},{"bike_id":"40864704-d3b8-4308-b177-47cfba418106","system_id":"levelo_inurba_marseille","lat":43.28935,"lon":5.3664,"is_reserved":false,"is_disabled":false,"rental_uris":{"android":"levelo://app?vid=40864704-d3b8-4308-b177-47cfba418106","ios":"levelo://app?vid=40864704-d3b8-4308-b177-47cfba418106"},"vehicle_type_id":"4","last_reported":1724177473,"current_range_meters":15600,"station_id":"ce4bhap2rcd13ifvqek0","pricing_plan_id":"cebpf4jnsgd1na2vs0mg"},{"bike_id":"5352b110-d231-4105-af31-0171ceacd0d7","system_id":"levelo_inurba_marseille","lat":43.28942,"lon":5.363923,"is_reserved":false,"is_disabled":false,"rental_uris":{"android":"levelo://app?vid=5352b110-d231-4105-af31-0171ceacd0d7","ios":"levelo://app?vid=5352b110-d231-4105-af31-0171ceacd0d7"},"vehicle_type_id":"4","last_reported":1724177473,"current_range_meters":0,"station_id":"ce4bhc92rcd13ifvqetg","pricing_plan_id":"cebpf4jnsgd1na2vs0mg"},{"bike_id":"8bc6082f-d40a-459a-a882-78f7b2476c7f","system_id":"levelo_inurba_marseille","lat":43.28932,"lon":5.36642,"is_reserved":false,"is_disabled":false,"rental_uris":{"android":"levelo://app?vid=8bc6082f-d40a-459a-a882-78f7b2476c7f","ios":"levelo://app?vid=8bc6082f-d40a-459a-a882-78f7b2476c7f"},"vehicle_type_id":"4","last_reported":1724177473,"current_range_meters":800,"station_id":"ce4bhap2rcd13ifvqek0","pricing_plan_id":"cebpf4jnsgd1na2vs0mg"},{"bike_id":"c7723ded-f183-4f2a-a9c8-97e6ed29babf","system_id":"levelo_inurba_marseille","lat":43.2893,"lon":5.36641,"is_reserved":false,"is_disabled":false,"rental_uris":{"android":"levelo://app?vid=c7723ded-f183-4f2a-a9c8-97e6ed29babf","ios":"levelo://app?vid=c7723ded-f183-4f2a-a9c8-97e6ed29babf"},"vehicle_type_id":"4","last_reported":1724177473,"current_range_meters":1200,"station_id":"ce4bhap2rcd13ifvqek0","pricing_plan_id":"cebpf4jnsgd1na2vs0mg"},{"bike_id":"bc203ff7-9bae-49f3-a821-1c0866d625bb","system_id":"levelo_inurba_marseille","lat":43.289468,"lon":5.363719,"is_reserved":false,"is_disabled":false,"rental_uris":{"android":"levelo://app?vid=bc203ff7-9bae-49f3-a821-1c0866d625bb","ios":"levelo://app?vid=bc203ff7-9bae-49f3-a821-1c0866d625bb"},"vehicle_type_id":"4","last_reported":1724177473,"current_range_meters":0,"station_id":"ce4bhc92rcd13ifvqetg","pricing_plan_id":"cebpf4jnsgd1na2vs0mg"},{"bike_id":"e7dd1135-b207-4ca1-a91c-3ea4b4dd059a","system_id":"levelo_inurba_marseille","lat":43.292642,"lon":5.384254,"is_reserved":false,"is_disabled":false,"rental_uris":{"android":"levelo://app?vid=e7dd1135-b207-4ca1-a91c-3ea4b4dd059a","ios":"levelo://app?vid=e7dd1135-b207-4ca1-a91c-3ea4b4dd059a"},"vehicle_type_id":"4","last_reported":1724177473,"current_range_meters":400,"station_id":"ce4bh692rcd13ifvqea0","pricing_plan_id":"cebpf4jnsgd1na2vs0mg"},{"bike_id":"30adc6d2-472a-4e9d-b742-d6cf69e4d92b","system_id":"levelo_inurba_marseille","lat":43.292642,"lon":5.384254,"is_reserved":false,"is_disabled":false,"rental_uris":{"android":"levelo://app?vid=30adc6d2-472a-4e9d-b742-d6cf69e4d92b","ios":"levelo://app?vid=30adc6d2-472a-4e9d-b742-d6cf69e4d92b"},"vehicle_type_id":"4","last_reported":1724177473,"current_range_meters":1600,"station_id":"ce4bh692rcd13ifvqea0","pricing_plan_id":"cebpf4jnsgd1na2vs0mg"},{"bike_id":"abee9384-4f3a-4a13-a0dd-378a279ef4b3","system_id":"levelo_inurba_marseille","lat":43.29269,"lon":5.38447,"is_reserved":false,"is_disabled":false,"rental_uris":{"android":"levelo://app?vid=abee9384-4f3a-4a13-a0dd-378a279ef4b3","ios":"levelo://app?vid=abee9384-4f3a-4a13-a0dd-378a279ef4b3"},"vehicle_type_id":"4","last_reported":1724177473,"current_range_meters":0,"station_id":"ce4bh692rcd13ifvqea0","pricing_plan_id":"cebpf4jnsgd1na2vs0mg"},{"bike_id":"057f4fd0-068b-4879-b06c-a7d389d850e7","system_id":"levelo_inurba_marseille","lat":43.29268,"lon":5.38447,"is_reserved":false,"is_disabled":false,"rental_uris":{"android":"levelo://app?vid=057f4fd0-068b-4879-b06c-a7d389d850e7","ios":"levelo://app?vid=057f4fd0-068b-4879-b06c-a7d389d850e7"},"vehicle_type_id":"4","last_reported":1724177473,"current_range_meters":0,"station_id":"ce4bh692rcd13ifvqea0","pricing_plan_id":"cebpf4jnsgd1na2vs0mg"},{"bike_id":"5c8a5f38-159a-403c-ae24-383ae150c7c4","system_id":"levelo_inurba_marseille","lat":43.304296,"lon":5.397513,"is_reserved":false,"is_disabled":false,"rental_uris":{"android":"levelo://app?vid=5c8a5f38-159a-403c-ae24-383ae150c7c4","ios":"levelo://app?vid=5c8a5f38-159a-403c-ae24-383ae150c7c4"},"vehicle_type_id":"4","last_reported":1724177473,"current_range_meters":7600,"station_id":"ce4bh092rcd13ifvqd20","pricing_plan_id":"cebpf4jnsgd1na2vs0mg"},{"bike_id":"8c8cd78c-f62b-4e8c-8686-3a8c2f2e3cee","system_id":"levelo_inurba_marseille","lat":43.292644,"lon":5.384257,"is_reserved":false,"is_disabled":false,"rental_uris":{"android":"levelo://app?vid=8c8cd78c-f62b-4e8c-8686-3a8c2f2e3cee","ios":"levelo://app?vid=8c8cd78c-f62b-4e8c-8686-3a8c2f2e3cee"},"vehicle_type_id":"4","last_reported":1724177473,"current_range_meters":6400,"station_id":"ce4bh692rcd13ifvqea0","pricing_plan_id":"cebpf4jnsgd1na2vs0mg"},{"bike_id":"91ec2e3a-bfb7-486f-90f3-d2a4e19b9246","system_id":"levelo_inurba_marseille","lat":43.292642,"lon":5.384254,"is_reserved":false,"is_disabled":false,"rental_uris":{"android":"levelo://app?vid=91ec2e3a-bfb7-486f-90f3-d2a4e19b9246","ios":"levelo://app?vid=91ec2e3a-bfb7-486f-90f3-d2a4e19b9246"},"vehicle_type_id":"4","last_reported":1724177473,"current_range_meters":15200,"station_id":"ce4bh692rcd13ifvqea0","pricing_plan_id":"cebpf4jnsgd1na2vs0mg"},{"bike_id":"d9e29a8d-3066-48de-aad6-846e0c2bc323","system_id":"levelo_inurba_marseille","lat":43.2926,"lon":5.38442,"is_reserved":false,"is_disabled":false,"rental_uris":{"android":"levelo://app?vid=d9e29a8d-3066-48de-aad6-846e0c2bc323","ios":"levelo://app?vid=d9e29a8d-3066-48de-aad6-846e0c2bc323"},"vehicle_type_id":"4","last_reported":1724177473,"current_range_meters":0,"station_id":"ce4bh692rcd13ifvqea0","pricing_plan_id":"cebpf4jnsgd1na2vs0mg"},{"bike_id":"1c39ae84-820f-4b59-ac93-47cc3afde430","system_id":"levelo_inurba_marseille","lat":43.292642,"lon":5.384254,"is_reserved":false,"is_disabled":false,"rental_uris":{"android":"levelo://app?vid=1c39ae84-820f-4b59-ac93-47cc3afde430","ios":"levelo://app?vid=1c39ae84-820f-4b59-ac93-47cc3afde430"},"vehicle_type_id":"4","last_reported":1724177473,"current_range_meters":2000,"station_id":"ce4bh692rcd13ifvqea0","pricing_plan_id":"cebpf4jnsgd1na2vs0mg"},{"bike_id":"623ec5c4-ca04-4653-9756-029b075ed6d1","system_id":"levelo_inurba_marseille","lat":43.29256,"lon":5.38435,"is_reserved":false,"is_disabled":false,"rental_uris":{"android":"levelo://app?vid=623ec5c4-ca04-4653-9756-029b075ed6d1","ios":"levelo://app?vid=623ec5c4-ca04-4653-9756-029b075ed6d1"},"vehicle_type_id":"4","last_reported":1724177473,"current_range_meters":3600,"station_id":"ce4bh692rcd13ifvqea0","pricing_plan_id":"cebpf4jnsgd1na2vs0mg"},{"bike_id":"6d978379-72ac-4bd3-b156-3a3774415449","system_id":"levelo_inurba_marseille","lat":43.2926,"lon":5.38444,"is_reserved":false,"is_disabled":false,"rental_uris":{"android":"levelo://app?vid=6d978379-72ac-4bd3-b156-3a3774415449","ios":"levelo://app?vid=6d978379-72ac-4bd3-b156-3a3774415449"},"vehicle_type_id":"4","last_reported":1724177473,"current_range_meters":15600,"station_id":"ce4bh692rcd13ifvqea0","pricing_plan_id":"cebpf4jnsgd1na2vs0mg"},{"bike_id":"97187e73-7350-4894-a528-ff59c951288c","system_id":"levelo_inurba_marseille","lat":43.2926,"lon":5.38444,"is_reserved":false,"is_disabled":false,"rental_uris":{"android":"levelo://app?vid=97187e73-7350-4894-a528-ff59c951288c","ios":"levelo://app?vid=97187e73-7350-4894-a528-ff59c951288c"},"vehicle_type_id":"4","last_reported":1724177473,"current_range_meters":0,"station_id":"ce4bh692rcd13ifvqea0","pricing_plan_id":"cebpf4jnsgd1na2vs0mg"},{"bike_id":"b5da0cf5-9c00-4d08-b45a-d6f0c28a0238","system_id":"levelo_inurba_marseille","lat":43.292642,"lon":5.384254,"is_reserved":false,"is_disabled":false,"rental_uris":{"android":"levelo://app?vid=b5da0cf5-9c00-4d08-b45a-d6f0c28a0238","ios":"levelo://app?vid=b5da0cf5-9c00-4d08-b45a-d6f0c28a0238"},"vehicle_type_id":"4","last_reported":1724177473,"current_range_meters":21200,"station_id":"ce4bh692rcd13ifvqea0","pricing_plan_id":"cebpf4jnsgd1na2vs0mg"},{"bike_id":"b5081410-f9a0-451c-a666-28b69fb17118","system_id":"levelo_inurba_marseille","lat":43.292644,"lon":5.384257,"is_reserved":false,"is_disabled":false,"rental_uris":{"android":"levelo://app?vid=b5081410-f9a0-451c-a666-28b69fb17118","ios":"levelo://app?vid=b5081410-f9a0-451c-a666-28b69fb17118"},"vehicle_type_id":"4","last_reported":1724177473,"current_range_meters":27600,"station_id":"ce4bh692rcd13ifvqea0","pricing_plan_id":"cebpf4jnsgd1na2vs0mg"},{"bike_id":"c1faaa12-6d2a-4e1f-864d-972d151ebce9","system_id":"levelo_inurba_marseille","lat":43.2926,"lon":5.384457,"is_reserved":false,"is_disabled":false,"rental_uris":{"android":"levelo://app?vid=c1faaa12-6d2a-4e1f-864d-972d151ebce9","ios":"levelo://app?vid=c1faaa12-6d2a-4e1f-864d-972d151ebce9"},"vehicle_type_id":"4","last_reported":1724177473,"current_range_meters":0,"station_id":"ce4bh692rcd13ifvqea0","pricing_plan_id":"cebpf4jnsgd1na2vs0mg"},{"bike_id":"9ab8e7ee-26a3-40a7-9a25-3194284e42f7","system_id":"levelo_inurba_marseille","lat":43.29252,"lon":5.38439,"is_reserved":false,"is_disabled":false,"rental_uris":{"android":"levelo://app?vid=9ab8e7ee-26a3-40a7-9a25-3194284e42f7","ios":"levelo://app?vid=9ab8e7ee-26a3-40a7-9a25-3194284e42f7"},"vehicle_type_id":"4","last_reported":1724177473,"current_range_meters":800,"station_id":"ce4bh692rcd13ifvqea0","pricing_plan_id":"cebpf4jnsgd1na2vs0mg"},{"bike_id":"87669c80-2722-4126-a342-5824179e6b13","system_id":"levelo_inurba_marseille","lat":43.290104,"lon":5.356111,"is_reserved":false,"is_disabled":false,"rental_uris":{"android":"levelo://app?vid=87669c80-2722-4126-a342-5824179e6b13","ios":"levelo://app?vid=87669c80-2722-4126-a342-5824179e6b13"},"vehicle_type_id":"4","last_reported":1724177473,"current_range_meters":31200,"station_id":"ce4bhb92rcd13ifvqen0","pricing_plan_id":"cebpf4jnsgd1na2vs0mg"},{"bike_id":"94c8019c-2f1d-4912-9de7-a84bd8c87712","system_id":"levelo_inurba_marseille","lat":43.290103,"lon":5.356114,"is_reserved":false,"is_disabled":false,"rental_uris":{"android":"levelo://app?vid=94c8019c-2f1d-4912-9de7-a84bd8c87712","ios":"levelo://app?vid=94c8019c-2f1d-4912-9de7-a84bd8c87712"},"vehicle_type_id":"4","last_reported":1724177473,"current_range_meters":31200,"station_id":"ce4bhb92rcd13ifvqen0","pricing_plan_id":"cebpf4jnsgd1na2vs0mg"},{"bike_id":"a8ec198e-6364-4446-b413-f4a2261ab782","system_id":"levelo_inurba_marseille","lat":43.290103,"lon":5.356114,"is_reserved":false,"is_disabled":false,"rental_uris":{"android":"levelo://app?vid=a8ec198e-6364-4446-b413-f4a2261ab782","ios":"levelo://app?vid=a8ec198e-6364-4446-b413-f4a2261ab782"},"vehicle_type_id":"4","last_reported":1724177473,"current_range_meters":0,"station_id":"ce4bhb92rcd13ifvqen0","pricing_plan_id":"cebpf4jnsgd1na2vs0mg"},{"bike_id":"12cc704c-10cd-4eae-9c94-1664745c5146","system_id":"levelo_inurba_marseille","lat":43.29008,"lon":5.35613,"is_reserved":false,"is_disabled":false,"rental_uris":{"android":"levelo://app?vid=12cc704c-10cd-4eae-9c94-1664745c5146","ios":"levelo://app?vid=12cc704c-10cd-4eae-9c94-1664745c5146"},"vehicle_type_id":"4","last_reported":1724177473,"current_range_meters":31200,"station_id":"ce4bhb92rcd13ifvqen0","pricing_plan_id":"cebpf4jnsgd1na2vs0mg"},{"bike_id":"8a4d6798-476d-429a-a02c-baad821d1a95","system_id":"levelo_inurba_marseille","lat":43.290103,"lon":5.356114,"is_reserved":false,"is_disabled":false,"rental_uris":{"android":"levelo://app?vid=8a4d6798-476d-429a-a02c-baad821d1a95","ios":"levelo://app?vid=8a4d6798-476d-429a-a02c-baad821d1a95"},"vehicle_type_id":"4","last_reported":1724177473,"current_range_meters":26800,"station_id":"ce4bhb92rcd13ifvqen0","pricing_plan_id":"cebpf4jnsgd1na2vs0mg"},{"bike_id":"61245fbb-88a9-4920-929e-634dfe038952","system_id":"levelo_inurba_marseille","lat":43.290104,"lon":5.356111,"is_reserved":false,"is_disabled":false,"rental_uris":{"android":"levelo://app?vid=61245fbb-88a9-4920-929e-634dfe038952","ios":"levelo://app?vid=61245fbb-88a9-4920-929e-634dfe038952"},"vehicle_type_id":"4","last_reported":1724177473,"current_range_meters":20800,"station_id":"ce4bhb92rcd13ifvqen0","pricing_plan_id":"cebpf4jnsgd1na2vs0mg"},{"bike_id":"0307666e-dea7-4bf5-a949-3a3fed25fe5d","system_id":"levelo_inurba_marseille","lat":43.290104,"lon":5.356111,"is_reserved":false,"is_disabled":false,"rental_uris":{"android":"levelo://app?vid=0307666e-dea7-4bf5-a949-3a3fed25fe5d","ios":"levelo://app?vid=0307666e-dea7-4bf5-a949-3a3fed25fe5d"},"vehicle_type_id":"4","last_reported":1724177473,"current_range_meters":31200,"station_id":"ce4bhb92rcd13ifvqen0","pricing_plan_id":"cebpf4jnsgd1na2vs0mg"},{"bike_id":"959d6388-9d03-4aaf-ac25-ad62233edc65","system_id":"levelo_inurba_marseille","lat":43.290104,"lon":5.356111,"is_reserved":false,"is_disabled":false,"rental_uris":{"android":"levelo://app?vid=959d6388-9d03-4aaf-ac25-ad62233edc65","ios":"levelo://app?vid=959d6388-9d03-4aaf-ac25-ad62233edc65"},"vehicle_type_id":"4","last_reported":1724177473,"current_range_meters":27200,"station_id":"ce4bhb92rcd13ifvqen0","pricing_plan_id":"cebpf4jnsgd1na2vs0mg"},{"bike_id":"fe90f5e8-65d8-4ddf-98c4-2324f7c12e84","system_id":"levelo_inurba_marseille","lat":43.290104,"lon":5.356111,"is_reserved":false,"is_disabled":false,"rental_uris":{"android":"levelo://app?vid=fe90f5e8-65d8-4ddf-98c4-2324f7c12e84","ios":"levelo://app?vid=fe90f5e8-65d8-4ddf-98c4-2324f7c12e84"},"vehicle_type_id":"4","last_reported":1724177473,"current_range_meters":26800,"station_id":"ce4bhb92rcd13ifvqen0","pricing_plan_id":"cebpf4jnsgd1na2vs0mg"},{"bike_id":"ffd693be-4333-407d-a479-a5fe186d6223","system_id":"levelo_inurba_marseille","lat":43.290103,"lon":5.356114,"is_reserved":false,"is_disabled":false,"rental_uris":{"android":"levelo://app?vid=ffd693be-4333-407d-a479-a5fe186d6223","ios":"levelo://app?vid=ffd693be-4333-407d-a479-a5fe186d6223"},"vehicle_type_id":"4","last_reported":1724177473,"current_range_meters":23600,"station_id":"ce4bhb92rcd13ifvqen0","pricing_plan_id":"cebpf4jnsgd1na2vs0mg"},