{"last_updated":1685839739,"ttl":30,"version":"2.2","data":{"bikes":[{"bike_id":"74b78136-b699-431b-bc73-aa0153f6a4ad","system_id":"levelo_inurba_marseille","lat":43.312239,"lon":5.368562,"is_reserved":false,"is_disabled":false,"rental_uris":{"android":"levelo://app?vid=74b78136-b699-431b-bc73-aa0153f6a4ad","ios":"levelo://app?vid=74b78136-b699-431b-bc73-aa0153f6a4ad"},"vehicle_type_id":"4","last_reported":1685839740,"current_range_meters":31200,"station_id":"ce4bgl92rcd13ifvqbq0","pricing_plan_id":"free"},{"bike_id":"548ba8f9-230d-4c58-926b-3ca2f350957e","system_id":"levelo_inurba_marseille","lat":43.312239,"lon":5.368562,"is_reserved":false,"is_disabled":false,"rental_uris":{"android":"levelo://app?vid=548ba8f9-230d-4c58-926b-3ca2f350957e","ios":"levelo://app?vid=548ba8f9-230d-4c58-926b-3ca2f350957e"},"vehicle_type_id":"4","last_reported":1685839740,"current_range_meters":6400,"station_id":"ce4bgl92rcd13ifvqbq0","pricing_plan_id":"free"},{"bike_id":"16574bc3-dab7-4877-94bc-7aa7f420c4e7","system_id":"levelo_inurba_marseille","lat":43.312239,"lon":5.368562,"is_reserved":false,"is_disabled":false,"rental_uris":{"android":"levelo://app?vid=16574bc3-dab7-4877-94bc-7aa7f420c4e7","ios":"levelo://app?vid=16574bc3-dab7-4877-94bc-7aa7f420c4e7"},"vehicle_type_id":"4","last_reported":1685839740,"current_range_meters":31200,"station_id":"ce4bgl92rcd13ifvqbq0","pricing_plan_id":"free"},{"bike_id":"10b0af1d-2336-4a9f-908a-cc0ba6ccfdb7","system_id":"levelo_inurba_marseille","lat":43.312239,"lon":5.368562,"is_reserved":false,"is_disabled":false,"rental_uris":{"android":"levelo://app?vid=10b0af1d-2336-4a9f-908a-cc0ba6ccfdb7","ios":"levelo://app?vid=10b0af1d-2336-4a9f-908a-cc0ba6ccfdb7"},"vehicle_type_id":"4","last_reported":1685839740,"current_range_meters":31200,"station_id":"ce4bgl92rcd13ifvqbq0","pricing_plan_id":"free"},{"bike_id":"6d633af9-b883-42dc-86dd-44e95352383d","system_id":"levelo_inurba_marseille","lat":43.31358,"lon":5.37121,"is_reserved":false,"is_disabled":false,"rental_uris":{"android":"levelo://app?vid=6d633af9-b883-42dc-86dd-44e95352383d","ios":"levelo://app?vid=6d633af9-b883-42dc-86dd-44e95352383d"},"vehicle_type_id":"4","last_reported":1685839740,"current_range_meters":24000,"station_id":"","pricing_plan_id":"free"},{"bike_id":"b540663e-ddfd-4d0c-bff0-6562bb7285b6","system_id":"levelo_inurba_marseille","lat":43.309076,"lon":5.368465,"is_reserved":false,"is_disabled":false,"rental_uris":{"android":"levelo://app?vid=b540663e-ddfd-4d0c-bff0-6562bb7285b6","ios":"levelo://app?vid=b540663e-ddfd-4d0c-bff0-6562bb7285b6"},"vehicle_type_id":"4","last_reported":1685839740,"current_range_meters":24400,"station_id":"ce4bgn92rcd13ifvqbvg","pricing_plan_id":"free"},{"bike_id":"ff813697-bfd6-4e21-8100-7ce53377ff51","system_id":"levelo_inurba_marseille","lat":43.30894,"lon":5.37194,"is_reserved":false,"is_disabled":false,"rental_uris":{"android":"levelo://app?vid=ff813697-bfd6-4e21-8100-7ce53377ff51","ios":"levelo://app?vid=ff813697-bfd6-4e21-8100-7ce53377ff51"},"vehicle_type_id":"4","last_reported":1685839740,"current_range_meters":23600,"station_id":"","pricing_plan_id":"free"},{"bike_id":"4d43e892-ec90-4fce-8475-f727fed3851f","system_id":"levelo_inurba_marseille","lat":43.31927,"lon":5.36679,"is_reserved":false,"is_disabled":false,"rental_uris":{"android":"levelo://app?vid=4d43e892-ec90-4fce-8475-f727fed3851f","ios":"levelo://app?vid=4d43e892-ec90-4fce-8475-f727fed3851f"},"vehicle_type_id":"4","last_reported":1685839740,"current_range_meters":3200,"station_id":"","pricing_plan_id":"free"},{"bike_id":"3cc8533f-41ad-4263-bf80-298e60df6e41","system_id":"levelo_inurba_marseille","lat":43.305368,"lon":5.367343,"is_reserved":false,"is_disabled":false,"rental_uris":{"android":"levelo://app?vid=3cc8533f-41ad-4263-bf80-298e60df6e41","ios":"levelo://app?vid=3cc8533f-41ad-4263-bf80-298e60df6e41"},"vehicle_type_id":"4","last_reported":1685839740,"current_range_meters":31200,"station_id":"ce4bgrp2rcd13ifvqc9g","pricing_plan_id":"free"},{"bike_id":"834980c2-f183-4229-846a-e919d6a4a674","system_id":"levelo_inurba_marseille","lat":43.305293,"lon":5.36701,"is_reserved":false,"is_disabled":false,"rental_uris":{"android":"levelo://app?vid=834980c2-f183-4229-846a-e919d6a4a674","ios":"levelo://app?vid=834980c2-f183-4229-846a-e919d6a4a674"},"vehicle_type_id":"4","last_reported":1685839740,"current_range_meters":0,"station_id":"","pricing_plan_id":"free"},{"bike_id":"bf7018c0-8315-4263-ac76-220b7a400853","system_id":"levelo_inurba_marseille","lat":43.305368,"lon":5.367343,"is_reserved":false,"is_disabled":false,"rental_uris":{"android":"levelo://app?vid=bf7018c0-8315-4263-ac76-220b7a400853","ios":"levelo://app?vid=bf7018c0-8315-4263-ac76-220b7a400853"},"vehicle_type_id":"4","last_reported":1685839740,"current_range_meters":31200,"station_id":"ce4bgrp2rcd13ifvqc9g","pricing_plan_id":"free"},{"bike_id":"dff3f640-4b80-48f8-8dfe-074c2de3a61b","system_id":"levelo_inurba_marseille","lat":43.311131,"lon":5.377651,"is_reserved":false,"is_disabled":false,"rental_uris":{"android":"levelo://app?vid=dff3f640-4b80-48f8-8dfe-074c2de3a61b","ios":"levelo://app?vid=dff3f640-4b80-48f8-8dfe-074c2de3a61b"},"vehicle_type_id":"4","last_reported":1685839740,"current_range_meters":26000,"station_id":"ce4bgt92rcd13ifvqcg0","pricing_plan_id":"free"},{"bike_id":"535e6112-5666-42ec-a276-9dc7063c4dbd","system_id":"levelo_inurba_marseille","lat":43.311131,"lon":5.377651,"is_reserved":false,"is_disabled":false,"rental_uris":{"android":"levelo://app?vid=535e6112-5666-42ec-a276-9dc7063c4dbd","ios":"levelo://app?vid=535e6112-5666-42ec-a276-9dc7063c4dbd"},"vehicle_type_id":"4","last_reported":1685839740,"current_range_meters":25200,"station_id":"ce4bgt92rcd13ifvqcg0","pricing_plan_id":"free"},{"bike_id":"b6e04337-a422-4d98-8cdb-695a3e0eb48a","system_id":"levelo_inurba_marseille","lat":43.30312,"lon":5.36906,"is_reserved":false,"is_disabled":false,"rental_uris":{"android":"levelo://app?vid=b6e04337-a422-4d98-8cdb-695a3e0eb48a","ios":"levelo://app?vid=b6e04337-a422-4d98-8cdb-695a3e0eb48a"},"vehicle_type_id":"4","last_reported":1685839740,"current_range_meters":30400,"station_id":"ce4bgqh2rcd13ifvqc5g","pricing_plan_id":"free"},{"bike_id":"42a30e9c-8f22-46ed-b6d4-d6b9ba504d22","system_id":"levelo_inurba_marseille","lat":43.301896,"lon":5.366214,"is_reserved":false,"is_disabled":false,"rental_uris":{"android":"levelo://app?vid=42a30e9c-8f22-46ed-b6d4-d6b9ba504d22","ios":"levelo://app?vid=42a30e9c-8f22-46ed-b6d4-d6b9ba504d22"},"vehicle_type_id":"4","last_reported":1685839740,"current_range_meters":22800,"station_id":"ce4bgrh2rcd13ifvqc8g","pricing_plan_id":"free"},{"bike_id":"a480dd3d-c50e-40e9-bd89-572feaca096f","system_id":"levelo_inurba_marseille","lat":43.301939,"lon":5.366286,"is_reserved":false,"is_disabled":false,"rental_uris":{"android":"levelo://app?vid=a480dd3d-c50e-40e9-bd89-572feaca096f","ios":"levelo://app?vid=a480dd3d-c50e-40e9-bd89-572feaca096f"},"vehicle_type_id":"4","last_reported":1685839740,"current_range_meters":27200,"station_id":"ce4bgrh2rcd13ifvqc8g","pricing_plan_id":"free"},{"bike_id":"c49af1eb-2d74-49cf-9ac0-7707764c20ae","system_id":"levelo_inurba_marseille","lat":43.301939,"lon":5.366286,"is_reserved":false,"is_disabled":false,"rental_uris":{"android":"levelo://app?vid=c49af1eb-2d74-49cf-9ac0-7707764c20ae","ios":"levelo://app?vid=c49af1eb-2d74-49cf-9ac0-7707764c20ae"},"vehicle_type_id":"4","last_reported":1685839740,"current_range_meters":31200,"station_id":"ce4bgrh2rcd13ifvqc8g","pricing_plan_id":"free"},{"bike_id":"af341045-d248-4435-863c-0d9f6d1fd79c","system_id":"levelo_inurba_marseille","lat":43.308012,"lon":5.381511,"is_reserved":false,"is_disabled":false,"rental_uris":{"android":"levelo://app?vid=af341045-d248-4435-863c-0d9f6d1fd79c","ios":"levelo://app?vid=af341045-d248-4435-863c-0d9f6d1fd79c"},"vehicle_type_id":"4","last_reported":1685839740,"current_range_meters":20400,"station_id":"ce4bgt12rcd13ifvqce0","pricing_plan_id":"free"},{"bike_id":"ebe827b8-42b0-44fc-bfc6-0b4b443ddf4c","system_id":"levelo_inurba_marseille","lat":43.304606,"lon":5.379026,"is_reserved":false,"is_disabled":false,"rental_uris":{"android":"levelo://app?vid=ebe827b8-42b0-44fc-bfc6-0b4b443ddf4c","ios":"levelo://app?vid=ebe827b8-42b0-44fc-bfc6-0b4b443ddf4c"},"vehicle_type_id":"4","last_reported":1685839740,"current_range_meters":18000,"station_id":"ce4bgup2rcd13ifvqcn0","pricing_plan_id":"free"},{"bike_id":"2fb61e13-65c0-4d38-987d-cbfd6e8a78a8","system_id":"levelo_inurba_marseille","lat":43.304606,"lon":5.379026,"is_reserved":false,"is_disabled":false,"rental_uris":{"android":"levelo://app?vid=2fb61e13-65c0-4d38-987d-cbfd6e8a78a8","ios":"levelo://app?vid=2fb61e13-65c0-4d38-987d-cbfd6e8a78a8"},"vehicle_type_id":"4","last_reported":1685839740,"current_range_meters":10400,"station_id":"ce4bgup2rcd13ifvqcn0","pricing_plan_id":"free"},{"bike_id":"dd5a0028-1c13-43f1-8b29-7eaf60713d6f","system_id":"levelo_inurba_marseille","lat":43.304606,"lon":5.379026,"is_reserved":false,"is_disabled":false,"rental_uris":{"android":"levelo://app?vid=dd5a0028-1c13-43f1-8b29-7eaf60713d6f","ios":"levelo://app?vid=dd5a0028-1c13-43f1-8b29-7eaf60713d6f"},"vehicle_type_id":"4","last_reported":1685839740,"current_range_meters":20000,"station_id":"ce4bgup2rcd13ifvqcn0","pricing_plan_id":"free"},{"bike_id":"c3ccfd1b-d59a-46b8-a52d-0a4015ad552b","system_id":"levelo_inurba_marseille","lat":43.31645,"lon":5.38315,"is_reserved":false,"is_disabled":false,"rental_uris":{"android":"levelo://app?vid=c3ccfd1b-d59a-46b8-a52d-0a4015ad552b","ios":"levelo://app?vid=c3ccfd1b-d59a-46b8-a52d-0a4015ad552b"},"vehicle_type_id":"4","last_reported":1685839740,"current_range_meters":14000,"station_id":"","pricing_plan_id":"free"},{"bike_id":"396815b4-dc25-41ae-b14d-3c452c7a8cec","system_id":"levelo_inurba_marseille","lat":43.30141,"lon":5.37408,"is_reserved":false,"is_disabled":false,"rental_uris":{"android":"levelo://app?vid=396815b4-dc25-41ae-b14d-3c452c7a8cec","ios":"levelo://app?vid=396815b4-dc25-41ae-b14d-3c452c7a8cec"},"vehicle_type_id":"4","last_reported":1685839740,"current_range_meters":22800,"station_id":"","pricing_plan_id":"free"},{"bike_id":"ce0eafea-7a28-40e5-b49f-bbdc4e411c48","system_id":"levelo_inurba_marseille","lat":43.319935,"lon":5.381699,"is_reserved":false,"is_disabled":false,"rental_uris":{"android":"levelo://app?vid=ce0eafea-7a28-40e5-b49f-bbdc4e411c48","ios":"levelo://app?vid=ce0eafea-7a28-40e5-b49f-bbdc4e411c48"},"vehicle_type_id":"4","last_reported":1685839740,"current_range_meters":12400,"station_id":"ce4bhr12rcd13ifvqhpg","pricing_plan_id":"free"},{"bike_id":"994fd81e-6db6-4408-acc8-bec511d624f9","system_id":"levelo_inurba_marseille","lat":43.319935,"lon":5.381699,"is_reserved":false,"is_disabled":false,"rental_uris":{"android":"levelo://app?vid=994fd81e-6db6-4408-acc8-bec511d624f9","ios":"levelo://app?vid=994fd81e-6db6-4408-acc8-bec511d624f9"},"vehicle_type_id":"4","last_reported":1685839740,"current_range_meters":18800,"station_id":"ce4bhr12rcd13ifvqhpg","pricing_plan_id":"free"},{"bike_id":"1f1dc83b-8ccb-4689-a2db-9ce7e1fda49c","system_id":"levelo_inurba_marseille","lat":43.319935,"lon":5.381699,"is_reserved":false,"is_disabled":false,"rental_uris":{"android":"levelo://app?vid=1f1dc83b-8ccb-4689-a2db-9ce7e1fda49c","ios":"levelo://app?vid=1f1dc83b-8ccb-4689-a2db-9ce7e1fda49c"},"vehicle_type_id":"4","last_reported":1685839740,"current_range_meters":5200,"station_id":"ce4bhr12rcd13ifvqhpg","pricing_plan_id":"free"},{"bike_id":"580c91f6-6c87-4823-b79b-d87cf2e683c9","system_id":"levelo_inurba_marseille","lat":43.319935,"lon":5.381699,"is_reserved":false,"is_disabled":false,"rental_uris":{"android":"levelo://app?vid=580c91f6-6c87-4823-b79b-d87cf2e683c9","ios":"levelo://app?vid=580c91f6-6c87-4823-b79b-d87cf2e683c9"},"vehicle_type_id":"4","last_reported":1685839740,"current_range_meters":1200,"station_id":"ce4bhr12rcd13ifvqhpg","pricing_plan_id":"free"},{"bike_id":"77b1248e-24c5-490f-b5ae-5d0da8693aeb","system_id":"levelo_inurba_marseille","lat":43.31363,"lon":5.38493,"is_reserved":false,"is_disabled":false,"rental_uris":{"android":"levelo://app?vid=77b1248e-24c5-490f-b5ae-5d0da8693aeb","ios":"levelo://app?vid=77b1248e-24c5-490f-b5ae-5d0da8693aeb"},"vehicle_type_id":"4","last_reported":1685839740,"current_range_meters":30800,"station_id":"ce4bgt92rcd13ifvqcf0","pricing_plan_id":"free"},{"bike_id":"c043d25c-ce85-4520-bd16-3bb7859a4f03","system_id":"levelo_inurba_marseille","lat":43.29934,"lon":5.36535,"is_reserved":false,"is_disabled":false,"rental_uris":{"android":"levelo://app?vid=c043d25c-ce85-4520-bd16-3bb7859a4f03","ios":"levelo://app?vid=c043d25c-ce85-4520-bd16-3bb7859a4f03"},"vehicle_type_id":"4","last_reported":1685839740,"current_range_meters":30000,"station_id":"ce4bgm92rcd13ifvqbr0","pricing_plan_id":"free"},{"bike_id":"0eaa3d21-ea0d-4d74-a206-37773dbd69f6","system_id":"levelo_inurba_marseille","lat":43.298433,"lon":5.362774,"is_reserved":false,"is_disabled":false,"rental_uris":{"android":"levelo://app?vid=0eaa3d21-ea0d-4d74-a206-37773dbd69f6","ios":"levelo://app?vid=0eaa3d21-ea0d-4d74-a206-37773dbd69f6"},"vehicle_type_id":"4","last_reported":1685839740,"current_range_meters":30800,"station_id":"ce4bgpp2rcd13ifvqc3g","pricing_plan_id":"free"},{"bike_id":"595ee09e-596e-4e1e-9401-c05c4ef6fe49","system_id":"levelo_inurba_marseille","lat":43.298433,"lon":5.362774,"is_reserved":false,"is_disabled":false,"rental_uris":{"android":"levelo://app?vid=595ee09e-596e-4e1e-9401-c05c4ef6fe49","ios":"levelo://app?vid=595ee09e-596e-4e1e-9401-c05c4ef6fe49"},"vehicle_type_id":"4","last_reported":1685839740,"current_range_meters":31200,"station_id":"ce4bgpp2rcd13ifvqc3g","pricing_plan_id":"free"},{"bike_id":"73561192-3d3a-4c1e-8198-16bb41021519","system_id":"levelo_inurba_marseille","lat":43.298433,"lon":5.362774,"is_reserved":false,"is_disabled":false,"rental_uris":{"android":"levelo://app?vid=73561192-3d3a-4c1e-8198-16bb41021519","ios":"levelo://app?vid=73561192-3d3a-4c1e-8198-16bb41021519"},"vehicle_type_id":"4","last_reported":1685839740,"current_range_meters":31200,"station_id":"ce4bgpp2rcd13ifvqc3g","pricing_plan_id":"free"},{"bike_id":"4f976664-9372-4197-bcf8-aa46c7494515","system_id":"levelo_inurba_marseille","lat":43.298433,"lon":5.362774,"is_reserved":false,"is_disabled":false,"rental_uris":{"android":"levelo://app?vid=4f976664-9372-4197-bcf8-aa46c7494515","ios":"levelo://app?vid=4f976664-9372-4197-bcf8-aa46c7494515"},"vehicle_type_id":"4","last_reported":1685839740,"current_range_meters":25600,"station_id":"ce4bgpp2rcd13ifvqc3g","pricing_plan_id":"free"},{"bike_id":"3e49beaf-5af3-433f-aa1f-36d7e66c0ad7","system_id":"levelo_inurba_marseille","lat":43.311722,"lon":5.387247,"is_reserved":false,"is_disabled":false,"rental_uris":{"android":"levelo://app?vid=3e49beaf-5af3-433f-aa1f-36d7e66c0ad7","ios":"levelo://app?vid=3e49beaf-5af3-433f-aa1f-36d7e66c0ad7"},"vehicle_type_id":"4","last_reported":1685839740,"current_range_meters":30400,"station_id":"ce4bgv12rcd13ifvqcp0","pricing_plan_id":"free"},{"bike_id":"b9cf6557-2db2-4828-97f1-13a369745ef6","system_id":"levelo_inurba_marseille","lat":43.32747,"lon":5.37481,"is_reserved":false,"is_disabled":false,"rental_uris":{"android":"levelo://app?vid=b9cf6557-2db2-4828-97f1-13a369745ef6","ios":"levelo://app?vid=b9cf6557-2db2-4828-97f1-13a369745ef6"},"vehicle_type_id":"4","last_reported":1685839740,"current_range_meters":6400,"station_id":"","pricing_plan_id":"free"},{"bike_id":"5c13369c-3d90-43e9-9999-2f3f9d451d95","system_id":"levelo_inurba_marseille","lat":43.29908,"lon":5.38152,"is_reserved":false,"is_disabled":false,"rental_uris":{"android":"levelo://app?vid=5c13369c-3d90-43e9-9999-2f3f9d451d95","ios":"levelo://app?vid=5c13369c-3d90-43e9-9999-2f3f9d451d95"},"vehicle_type_id":"4","last_reported":1685839740,"current_range_meters":1600,"station_id":"ce4bgj12rcd13ifvqbc0","pricing_plan_id":"free"},{"bike_id":"cb922290-f2b4-49c6-8fe7-cac3328a5443","system_id":"levelo_inurba_marseille","lat":43.30967,"lon":5.39036,"is_reserved":false,"is_disabled":false,"rental_uris":{"android":"levelo://app?vid=cb922290-f2b4-49c6-8fe7-cac3328a5443","ios":"levelo://app?vid=cb922290-f2b4-49c6-8fe7-cac3328a5443"},"vehicle_type_id":"4","last_reported":1685839740,"current_range_meters":6000,"station_id":"ce4bgup2rcd13ifvqco0","pricing_plan_id":"free"},{"bike_id":"4fd408ec-e43b-44c5-8ebc-71b92a6b1219","system_id":"levelo_inurba_marseille","lat":43.309589,"lon":5.390258,"is_reserved":false,"is_disabled":false,"rental_uris":{"android":"levelo://app?vid=4fd408ec-e43b-44c5-8ebc-71b92a6b1219","ios":"levelo://app?vid=4fd408ec-e43b-44c5-8ebc-71b92a6b1219"},"vehicle_type_id":"4","last_reported":1685839740,"current_range_meters":3600,"station_id":"ce4bgup2rcd13ifvqco0","pricing_plan_id":"free"},{"bike_id":"c51dd003-5c0f-4568-9d83-864645c6cab7","system_id":"levelo_inurba_marseille","lat":43.317557,"lon":5.390173,"is_reserved":false,"is_disabled":false,"rental_uris":{"android":"levelo://app?vid=c51dd003-5c0f-4568-9d83-864645c6cab7","ios":"levelo://app?vid=c51dd003-5c0f-4568-9d83-864645c6cab7"},"vehicle_type_id":"4","last_reported":1685839740,"current_range_meters":3600,"station_id":"ce4bhqp2rcd13ifvqhng","pricing_plan_id":"free"},{"bike_id":"4879a260-9f1b-402b-bd89-3bac325db973","system_id":"levelo_inurba_marseille","lat":43.317557,"lon":5.390173,"is_reserved":false,"is_disabled":false,"rental_uris":{"android":"levelo://app?vid=4879a260-9f1b-402b-bd89-3bac325db973","ios":"levelo://app?vid=4879a260-9f1b-402b-bd89-3bac325db973"},"vehicle_type_id":"4","last_reported":1685839740,"current_range_meters":3600,"station_id":"ce4bhqp2rcd13ifvqhng","pricing_plan_id":"free"},{"bike_id":"92baffbb-31d4-451d-9d2c-a8b115aa4739","system_id":"levelo_inurba_marseille","lat":43.317557,"lon":5.390173,"is_reserved":false,"is_disabled":false,"rental_uris":{"android":"levelo://app?vid=92baffbb-31d4-451d-9d2c-a8b115aa4739","ios":"levelo://app?vid=92baffbb-31d4-451d-9d2c-a8b115aa4739"},"vehicle_type_id":"4","last_reported":1685839740,"current_range_meters":18400,"station_id":"ce4bhqp2rcd13ifvqhng","pricing_plan_id":"free"},{"bike_id":"fd39dd34-010d-41c9-aeea-111b3348d1c9","system_id":"levelo_inurba_marseille","lat":43.304274,"lon":5.388873,"is_reserved":false,"is_disabled":false,"rental_uris":{"android":"levelo://app?vid=fd39dd34-010d-41c9-aeea-111b3348d1c9","ios":"levelo://app?vid=fd39dd34-010d-41c9-aeea-111b3348d1c9"},"vehicle_type_id":"4","last_reported":1685839740,"current_range_meters":29200,"station_id":"ce4bgk12rcd13ifvqbi0","pricing_plan_id":"free"},{"bike_id":"5ed978cb-0ac5-437c-a176-6be44ac1ed9f","system_id":"levelo_inurba_marseille","lat":43.299707,"lon":5.384859,"is_reserved":false,"is_disabled":false,"rental_uris":{"android":"levelo://app?vid=5ed978cb-0ac5-437c-a176-6be44ac1ed9f","ios":"levelo://app?vid=5ed978cb-0ac5-437c-a176-6be44ac1ed9f"},"vehicle_type_id":"4","last_reported":1685839740,"current_range_meters":28000,"station_id":"ce4bgj92rcd13ifvqbd0","pricing_plan_id":"free"},{"bike_id":"076d058e-a0f9-4306-8f38-5dcc3a918bb4","system_id":"levelo_inurba_marseille","lat":43.309589,"lon":5.390258,"is_reserved":false,"is_disabled":false,"rental_uris":{"android":"levelo://app?vid=076d058e-a0f9-4306-8f38-5dcc3a918bb4","ios":"levelo://app?vid=076d058e-a0f9-4306-8f38-5dcc3a918bb4"},"vehicle_type_id":"4","last_reported":1685839740,"current_range_meters":29200,"station_id":"ce4bgup2rcd13ifvqco0","pricing_plan_id":"free"},{"bike_id":"ced9b400-b3c5-4f2d-b2a3-a7563480da1f","system_id":"levelo_inurba_marseille","lat":43.299424,"lon":5.385189,"is_reserved":false,"is_disabled":false,"rental_uris":{"android":"levelo://app?vid=ced9b400-b3c5-4f2d-b2a3-a7563480da1f","ios":"levelo://app?vid=ced9b400-b3c5-4f2d-b2a3-a7563480da1f"},"vehicle_type_id":"4","last_reported":1685839740,"current_range_meters":16000,"station_id":"","pricing_plan_id":"free"},{"bike_id":"a5aaf8a8-b676-497f-92d4-c454aa45c212","system_id":"levelo_inurba_marseille","lat":43.32367,"lon":5.388836,"is_reserved":false,"is_disabled":false,"rental_uris":{"android":"levelo://app?vid=a5aaf8a8-b676-497f-92d4-c454aa45c212","ios":"levelo://app?vid=a5aaf8a8-b676-497f-92d4-c454aa45c212"},"vehicle_type_id":"4","last_reported":1685839740,"current_range_meters":0,"station_id":"ce4bhqp2rcd13ifvqhog","pricing_plan_id":"free"},{"bike_id":"ce28f952-0366-40af-af5d-12fd1e486cbf","system_id":"levelo_inurba_marseille","lat":43.32367,"lon":5.388836,"is_reserved":false,"is_disabled":false,"rental_uris":{"android":"levelo://app?vid=ce28f952-0366-40af-af5d-12fd1e486cbf","ios":"levelo://app?vid=ce28f952-0366-40af-af5d-12fd1e486cbf"},"vehicle_type_id":"4","last_reported":1685839740,"current_range_meters":28800,"station_id":"ce4bhqp2rcd13ifvqhog","pricing_plan_id":"free"},{"bike_id":"1619b961-36bd-4a7d-a354-b4d8cf39a904","system_id":"levelo_inurba_marseille","lat":43.32367,"lon":5.388836,"is_reserved":false,"is_disabled":false,"rental_uris":{"android":"levelo://app?vid=1619b961-36bd-4a7d-a354-b4d8cf39a904","ios":"levelo://app?vid=1619b961-36bd-4a7d-a354-b4d8cf39a904"},"vehicle_type_id":"4","last_reported":1685839740,"current_range_meters":10800,"station_id":"ce4bhqp2rcd13ifvqhog","pricing_plan_id":"free"},{"bike_id":"80f803b0-3f07-40c8-b4d5-2f41e8fc0b58","system_id":"levelo_inurba_marseille","lat":43.29307,"lon":5.37183,"is_reserved":false,"is_disabled":false,"rental_uris":{"android":"levelo://app?vid=80f803b0-3f07-40c8-b4d5-2f41e8fc0b58","ios":"levelo://app?vid=80f803b0-3f07-40c8-b4d5-2f41e8fc0b58"},"vehicle_type_id":"4","last_reported":1685839740,"current_range_meters":26800,"station_id":"","pricing_plan_id":"free"},{"bike_id":"a171d9a2-66c2-480b-98a1-9945fd66ec95","system_id":"levelo_inurba_marseille","lat":43.30627,"lon":5.39318,"is_reserved":false,"is_disabled":false,"rental_uris":{"android":"levelo://app?vid=a171d9a2-66c2-480b-98a1-9945fd66ec95","ios":"levelo://app?vid=a171d9a2-66c2-480b-98a1-9945fd66ec95"},"vehicle_type_id":"4","last_reported":1685839740,"current_range_meters":11200,"station_id":"ce4bgup2rcd13ifvqco0","pricing_plan_id":"free"},{"bike_id":"8123563e-084e-4804-86db-58e56659ec45","system_id":"levelo_inurba_marseille","lat":43.305994,"lon":5.393687,"is_reserved":false,"is_disabled":false,"rental_uris":{"android":"levelo://app?vid=8123563e-084e-4804-86db-58e56659ec45","ios":"levelo://app?vid=8123563e-084e-4804-86db-58e56659ec45"},"vehicle_type_id":"4","last_reported":1685839740,"current_range_meters":20400,"station_id":"ce4bh0p2rcd13ifvqd80","pricing_plan_id":"free"},{"bike_id":"54b6b121-ed7f-4892-a7c4-ab976d2f6f33","system_id":"levelo_inurba_marseille","lat":43.30304,"lon":5.39208,"is_reserved":false,"is_disabled":false,"rental_uris":{"android":"levelo://app?vid=54b6b121-ed7f-4892-a7c4-ab976d2f6f33","ios":"levelo://app?vid=54b6b121-ed7f-4892-a7c4-ab976d2f6f33"},"vehicle_type_id":"4","last_reported":1685839740,"current_range_meters":8000,"station_id":"ce4bgkh2rcd13ifvqbk0","pricing_plan_id":"free"},{"bike_id":"db8b4f29-9d93-40e1-a184-e5324758b3eb","system_id":"levelo_inurba_marseille","lat":43.303002,"lon":5.392142,"is_reserved":false,"is_disabled":false,"rental_uris":{"android":"levelo://app?vid=db8b4f29-9d93-40e1-a184-e5324758b3eb","ios":"levelo://app?vid=db8b4f29-9d93-40e1-a184-e5324758b3eb"},"vehicle_type_id":"4","last_reported":1685839740,"current_range_meters":30000,"station_id":"ce4bgkh2rcd13ifvqbk0","pricing_plan_id":"free"},{"bike_id":"60acad7d-d54d-4ac7-ad73-b58c73b0c02c","system_id":"levelo_inurba_marseille","lat":43.29226,"lon":5.36067,"is_reserved":false,"is_disabled":false,"rental_uris":{"android":"levelo://app?vid=60acad7d-d54d-4ac7-ad73-b58c73b0c02c","ios":"levelo://app?vid=60acad7d-d54d-4ac7-ad73-b58c73b0c02c"},"vehicle_type_id":"4","last_reported":1685839740,"current_range_meters":30000,"station_id":"","pricing_plan_id":"free"},{"bike_id":"9cbabaa0-1e90-4ca2-bfb8-3b456442e307","system_id":"levelo_inurba_marseille","lat":43.309038,"lon":5.396546,"is_reserved":false,"is_disabled":false,"rental_uris":{"android":"levelo://app?vid=9cbabaa0-1e90-4ca2-bfb8-3b456442e307","ios":"levelo://app?vid=9cbabaa0-1e90-4ca2-bfb8-3b456442e307"},"vehicle_type_id":"4","last_reported":1685839740,"current_range_meters":22000,"station_id":"ce4bh012rcd13ifvqcv0","pricing_plan_id":"free"},{"bike_id":"bb7579e7-5e69-4ba1-92ec-0f4a56fbf061","system_id":"levelo_inurba_marseille","lat":43.33249,"lon":5.37942,"is_reserved":false,"is_disabled":false,"rental_uris":{"android":"levelo://app?vid=bb7579e7-5e69-4ba1-92ec-0f4a56fbf061","ios":"levelo://app?vid=bb7579e7-5e69-4ba1-92ec-0f4a56fbf061"},"vehicle_type_id":"4","last_reported":1685839740,"current_range_meters":0,"station_id":"","pricing_plan_id":"free"},{"bike_id":"99a2753b-b40e-4ce4-b22d-442cd16154a2","system_id":"levelo_inurba_marseille","lat":43.313291,"lon":5.396838,"is_reserved":false,"is_disabled":false,"rental_uris":{"android":"levelo://app?vid=99a2753b-b40e-4ce4-b22d-442cd16154a2","ios":"levelo://app?vid=99a2753b-b40e-4ce4-b22d-442cd16154a2"},"vehicle_type_id":"4","last_reported":1685839740,"current_range_meters":24000,"station_id":"ce4bgvp2rcd13ifvqcu0","pricing_plan_id":"free"},{"bike_id":"291a178c-f7ac-4b5b-8b20-fbd6ae82a33c","system_id":"levelo_inurba_marseille","lat":43.309038,"lon":5.396546,"is_reserved":false,"is_disabled":false,"rental_uris":{"android":"levelo://app?vid=291a178c-f7ac-4b5b-8b20-fbd6ae82a33c","ios":"levelo://app?vid=291a178c-f7ac-4b5b-8b20-fbd6ae82a33c"},"vehicle_type_id":"4","last_reported":1685839740,"current_range_meters":21200,"station_id":"ce4bh012rcd13ifvqcv0","pricing_plan_id":"free"},{"bike_id":"5c0436ba-15d4-4fe8-83d5-c1498ddb4552","system_id":"levelo_inurba_marseille","lat":43.313291,"lon":5.396838,"is_reserved":false,"is_disabled":false,"rental_uris":{"android":"levelo://app?vid=5c0436ba-15d4-4fe8-83d5-c1498ddb4552","ios":"levelo://app?vid=5c0436ba-15d4-4fe8-83d5-c1498ddb4552"},"vehicle_type_id":"4","last_reported":1685839740,"current_range_meters":14000,"station_id":"ce4bgvp2rcd13ifvqcu0","pricing_plan_id":"free"},{"bike_id":"457c7eaf-d042-4c29-8f4d-e9234736eff3","system_id":"levelo_inurba_marseille","lat":43.309038,"lon":5.396546,"is_reserved":false,"is_disabled":false,"rental_uris":{"android":"levelo://app?vid=457c7eaf-d042-4c29-8f4d-e9234736eff3","ios":"levelo://app?vid=457c7eaf-d042-4c29-8f4d-e9234736eff3"},"vehicle_type_id":"4","last_reported":1685839740,"current_range_meters":22000,"station_id":"ce4bh012rcd13ifvqcv0","pricing_plan_id":"free"},{"bike_id":"03db749f-5f56-4968-a902-723cd8850ef3","system_id":"levelo_inurba_marseille","lat":43.29529,"lon":5.385581,"is_reserved":false,"is_disabled":false,"rental_uris":{"android":"levelo://app?vid=03db749f-5f56-4968-a902-723cd8850ef3","ios":"levelo://app?vid=03db749f-5f56-4968-a902-723cd8850ef3"},"vehicle_type_id":"4","last_reported":1685839740,"current_range_meters":28800,"station_id":"ce4bgih2rcd13ifvqba0","pricing_plan_id":"free"},{"bike_id":"a1d588f9-8125-4a8f-9f59-c1cf1bdc5430","system_id":"levelo_inurba_marseille","lat":43.32815,"lon":5.38932,"is_reserved":false,"is_disabled":false,"rental_uris":{"android":"levelo://app?vid=a1d588f9-8125-4a8f-9f59-c1cf1bdc5430","ios":"levelo://app?vid=a1d588f9-8125-4a8f-9f59-c1cf1bdc5430"},"vehicle_type_id":"4","last_reported":1685839740,"current_range_meters":14800,"station_id":"","pricing_plan_id":"free"},{"bike_id":"458f10f4-63ad-41ba-8508-5b43b4685401","system_id":"levelo_inurba_marseille","lat":43.302008,"lon":5.394694,"is_reserved":false,"is_disabled":false,"rental_uris":{"android":"levelo://app?vid=458f10f4-63ad-41ba-8508-5b43b4685401","ios":"levelo://app?vid=458f10f4-63ad-41ba-8508-5b43b4685401"},"vehicle_type_id":"4","last_reported":1685839740,"current_range_meters":25200,"station_id":"ce4bh0p2rcd13ifvqd70","pricing_plan_id":"free"},{"bike_id":"b6107e7b-aa71-440d-9944-2d4c4c98a802","system_id":"levelo_inurba_marseille","lat":43.290631,"lon":5.359244,"is_reserved":false,"is_disabled":false,"rental_uris":{"android":"levelo://app?vid=b6107e7b-aa71-440d-9944-2d4c4c98a802","ios":"levelo://app?vid=b6107e7b-aa71-440d-9944-2d4c4c98a802"},"vehicle_type_id":"4","last_reported":1685839740,"current_range_meters":17600,"station_id":"ce4bha92rcd13ifvqeg0","pricing_plan_id":"free"},{"bike_id":"7d0544b1-6cf8-4b6b-852b-424d705c8500","system_id":"levelo_inurba_marseille","lat":43.290631,"lon":5.359244,"is_reserved":false,"is_disabled":false,"rental_uris":{"android":"levelo://app?vid=7d0544b1-6cf8-4b6b-852b-424d705c8500","ios":"levelo://app?vid=7d0544b1-6cf8-4b6b-852b-424d705c8500"},"vehicle_type_id":"4","last_reported":1685839740,"current_range_meters":2400,"station_id":"ce4bha92rcd13ifvqeg0","pricing_plan_id":"free"},{"bike_id":"2c0f7bfa-eaee-47fb-a305-bc6912ffea3c","system_id":"levelo_inurba_marseille","lat":43.29418,"lon":5.38632,"is_reserved":false,"is_disabled":false,"rental_uris":{"android":"levelo://app?vid=2c0f7bfa-eaee-47fb-a305-bc6912ffea3c","ios":"levelo://app?vid=2c0f7bfa-eaee-47fb-a305-bc6912ffea3c"},"vehicle_type_id":"4","last_reported":1685839740,"current_range_meters":6800,"station_id":"ce4bh2h2rcd13ifvqdh0","pricing_plan_id":"free"},{"bike_id":"0a8aba60-b51b-427d-be66-8709066b23d1","system_id":"levelo_inurba_marseille","lat":43.33211,"lon":5.38558,"is_reserved":false,"is_disabled":false,"rental_uris":{"android":"levelo://app?vid=0a8aba60-b51b-427d-be66-8709066b23d1","ios":"levelo://app?vid=0a8aba60-b51b-427d-be66-8709066b23d1"},"vehicle_type_id":"4","last_reported":1685839740,"current_range_meters":27600,"station_id":"","pricing_plan_id":"free"},{"bike_id":"2fb05e46-0547-47b8-b456-7b9716852605","system_id":"levelo_inurba_marseille","lat":43.292644,"lon":5.384257,"is_reserved":false,"is_disabled":false,"rental_uris":{"android":"levelo://app?vid=2fb05e46-0547-47b8-b456-7b9716852605","ios":"levelo://app?vid=2fb05e46-0547-47b8-b456-7b9716852605"},"vehicle_type_id":"4","last_reported":1685839740,"current_range_meters":20800,"station_id":"ce4bh692rcd13ifvqea0","pricing_plan_id":"free"},{"bike_id":"5cbcf543-d288-404c-bac6-328ef38ba2d8","system_id":"levelo_inurba_marseille","lat":43.33039,"lon":5.3892,"is_reserved":false,"is_disabled":false,"rental_uris":{"android":"levelo://app?vid=5cbcf543-d288-404c-bac6-328ef38ba2d8","ios":"levelo://app?vid=5cbcf543-d288-404c-bac6-328ef38ba2d8"},"vehicle_type_id":"4","last_reported":1685839740,"current_range_meters":22000,"station_id":"ce4bhr92rcd13ifvqhrg","pricing_plan_id":"free"},{"bike_id":"dcb00244-aef9-4eec-91cd-42ea75ebd82c","system_id":"levelo_inurba_marseille","lat":43.33047,"lon":5.38908,"is_reserved":false,"is_disabled":false,"rental_uris":{"android":"levelo://app?vid=dcb00244-aef9-4eec-91cd-42ea75ebd82c","ios":"levelo://app?vid=dcb00244-aef9-4eec-91cd-42ea75ebd82c"},"vehicle_type_id":"4","last_reported":1685839740,"current_range_meters":5600,"station_id":"ce4bhr92rcd13ifvqhrg","pricing_plan_id":"free"},{"bike_id":"05f1a2c7-d830-495c-86b8-292585194459","system_id":"levelo_inurba_marseille","lat":43.3304,"lon":5.38921,"is_reserved":false,"is_disabled":false,"rental_uris":{"android":"levelo://app?vid=05f1a2c7-d830-495c-86b8-292585194459","ios":"levelo://app?vid=05f1a2c7-d830-495c-86b8-292585194459"},"vehicle_type_id":"4","last_reported":1685839740,"current_range_meters":21600,"station_id":"ce4bhr92rcd13ifvqhrg","pricing_plan_id":"free"},{"bike_id":"0456b2c1-8a4f-4e94-ae33-a548e7711bcf","system_id":"levelo_inurba_marseille","lat":43.33045,"lon":5.38915,"is_reserved":false,"is_disabled":false,"rental_uris":{"android":"levelo://app?vid=0456b2c1-8a4f-4e94-ae33-a548e7711bcf","ios":"levelo://app?vid=0456b2c1-8a4f-4e94-ae33-a548e7711bcf"},"vehicle_type_id":"4","last_reported":1685839740,"current_range_meters":14400,"station_id":"ce4bhr92rcd13ifvqhrg","pricing_plan_id":"free"},{"bike_id":"e2b942e0-3901-4124-a71d-a8535684af38","system_id":"levelo_inurba_marseille","lat":43.33046,"lon":5.38914,"is_reserved":false,"is_disabled":false,"rental_uris":{"android":"levelo://app?vid=e2b942e0-3901-4124-a71d-a8535684af38","ios":"levelo://app?vid=e2b942e0-3901-4124-a71d-a8535684af38"},"vehicle_type_id":"4","last_reported":1685839740,"current_range_meters":28400,"station_id":"ce4bhr92rcd13ifvqhrg","pricing_plan_id":"free"},{"bike_id":"4c000fe7-36f8-4c79-a023-f0156a20cade","system_id":"levelo_inurba_marseille","lat":43.290104,"lon":5.356111,"is_reserved":false,"is_disabled":false,"rental_uris":{"android":"levelo://app?vid=4c000fe7-36f8-4c79-a023-f0156a20cade","ios":"levelo://app?vid=4c000fe7-36f8-4c79-a023-f0156a20cade"},"vehicle_type_id":"4","last_reported":1685839740,"current_range_meters":28800,"station_id":"ce4bhb92rcd13ifvqen0","pricing_plan_id":"free"},{"bike_id":"54a25392-5979-4616-994f-f749e8afe7c4","system_id":"levelo_inurba_marseille","lat":43.290104,"lon":5.356111,"is_reserved":false,"is_disabled":false,"rental_uris":{"android":"levelo://app?vid=54a25392-5979-4616-994f-f749e8afe7c4","ios":"levelo://app?vid=54a25392-5979-4616-994f-f749e8afe7c4"},"vehicle_type_id":"4","last_reported":1685839740,"current_range_meters":29200,"station_id":"ce4bhb92rcd13ifvqen0","pricing_plan_id":"free"},{"bike_id":"9db0a326-3c29-4495-9c92-ab85092bb580","system_id":"levelo_inurba_marseille","lat":43.33043,"lon":5.38921,"is_reserved":false,"is_disabled":false,"rental_uris":{"android":"levelo://app?vid=9db0a326-3c29-4495-9c92-ab85092bb580","ios":"levelo://app?vid=9db0a326-3c29-4495-9c92-ab85092bb580"},"vehicle_type_id":"4","last_reported":1685839740,"current_range_meters":22400,"station_id":"ce4bhr92rcd13ifvqhrg","pricing_plan_id":"free"},{"bike_id":"6ba259d9-bb80-4fa2-a724-d3e9c4198d19","system_id":"levelo_inurba_marseille","lat":43.290104,"lon":5.356111,"is_reserved":false,"is_disabled":false,"rental_uris":{"android":"levelo://app?vid=6ba259d9-bb80-4fa2-a724-d3e9c4198d19","ios":"levelo://app?vid=6ba259d9-bb80-4fa2-a724-d3e9c4198d19"},"vehicle_type_id":"4","last_reported":1685839740,"current_range_meters":28000,"station_id":"ce4bhb92rcd13ifvqen0","pricing_plan_id":"free"},{"bike_id":"6a4245ab-9847-48a1-8468-0a85dc2e6cf0","system_id":"levelo_inurba_marseille","lat":43.28856,"lon":5.358371,"is_reserved":false,"is_disabled":false,"rental_uris":{"android":"levelo://app?vid=6a4245ab-9847-48a1-8468-0a85dc2e6cf0","ios":"levelo://app?vid=6a4245ab-9847-48a1-8468-0a85dc2e6cf0"},"vehicle_type_id":"4","last_reported":1685839740,"current_range_meters":29200,"station_id":"ce4bhb12rcd13ifvqem0","pricing_plan_id":"free"},{"bike_id":"cc463d9e-d920-4761-a3b4-ba3e08523237","system_id":"levelo_inurba_marseille","lat":43.28856,"lon":5.358371,"is_reserved":false,"is_disabled":false,"rental_uris":{"android":"levelo://app?vid=cc463d9e-d920-4761-a3b4-ba3e08523237","ios":"levelo://app?vid=cc463d9e-d920-4761-a3b4-ba3e08523237"},"vehicle_type_id":"4","last_reported":1685839740,"current_range_meters":26000,"station_id":"ce4bhb12rcd13ifvqem0","pricing_plan_id":"free"},{"bike_id":"076f2957-6e39-4131-b394-010ec5c02a21","system_id":"levelo_inurba_marseille","lat":43.28856,"lon":5.358371,"is_reserved":false,"is_disabled":false,"rental_uris":{"android":"levelo://app?vid=076f2957-6e39-4131-b394-010ec5c02a21","ios":"levelo://app?vid=076f2957-6e39-4131-b394-010ec5c02a21"},"vehicle_type_id":"4","last_reported":1685839740,"current_range_meters":18400,"station_id":"ce4bhb12rcd13ifvqem0","pricing_plan_id":"free"},{"bike_id":"8f950625-af2d-4089-844d-37bd38107aa9","system_id":"levelo_inurba_marseille","lat":43.33746,"lon":5.37445,"is_reserved":false,"is_disabled":false,"rental_uris":{"android":"levelo://app?vid=8f950625-af2d-4089-844d-37bd38107aa9","ios":"levelo://app?vid=8f950625-af2d-4089-844d-37bd38107aa9"},"vehicle_type_id":"4","last_reported":1685839740,"current_range_meters":31200,"station_id":"","pricing_plan_id":"free"},{"bike_id":"1dc2cc99-6997-4e64-abe8-10878865daff","system_id":"levelo_inurba_marseille","lat":43.3093,"lon":5.40142,"is_reserved":false,"is_disabled":false,"rental_uris":{"android":"levelo://app?vid=1dc2cc99-6997-4e64-abe8-10878865daff","ios":"levelo://app?vid=1dc2cc99-6997-4e64-abe8-10878865daff"},"vehicle_type_id":"4","last_reported":1685839740,"current_range_meters":15600,"station_id":"","pricing_plan_id":"free"},{"bike_id":"675927e0-ab95-41a0-80be-7ee111a218f5","system_id":"levelo_inurba_marseille","lat":43.3375,"lon":5.37472,"is_reserved":false,"is_disabled":false,"rental_uris":{"android":"levelo://app?vid=675927e0-ab95-41a0-80be-7ee111a218f5","ios":"levelo://app?vid=675927e0-ab95-41a0-80be-7ee111a218f5"},"vehicle_type_id":"4","last_reported":1685839740,"current_range_meters":29600,"station_id":"","pricing_plan_id":"free"},{"bike_id":"fd20705c-30f4-405e-9cde-eaad2dbd8d77","system_id":"levelo_inurba_marseille","lat":43.30642,"lon":5.40084,"is_reserved":false,"is_disabled":false,"rental_uris":{"android":"levelo://app?vid=fd20705c-30f4-405e-9cde-eaad2dbd8d77","ios":"levelo://app?vid=fd20705c-30f4-405e-9cde-eaad2dbd8d77"},"vehicle_type_id":"4","last_reported":1685839740,"current_range_meters":27200,"station_id":"ce4bh112rcd13ifvqda0","pricing_plan_id":"free"},{"bike_id":"34ec6f56-41fe-4bde-81cb-8160e6b4a91a","system_id":"levelo_inurba_marseille","lat":43.30642,"lon":5.401031,"is_reserved":false,"is_disabled":false,"rental_uris":{"android":"levelo://app?vid=34ec6f56-41fe-4bde-81cb-8160e6b4a91a","ios":"levelo://app?vid=34ec6f56-41fe-4bde-81cb-8160e6b4a91a"},"vehicle_type_id":"4","last_reported":1685839740,"current_range_meters":27600,"station_id":"ce4bh112rcd13ifvqda0","pricing_plan_id":"free"},{"bike_id":"cf0caa37-cec8-408b-98f7-37211a80813c","system_id":"levelo_inurba_marseille","lat":43.33774,"lon":5.37432,"is_reserved":false,"is_disabled":false,"rental_uris":{"android":"levelo://app?vid=cf0caa37-cec8-408b-98f7-37211a80813c","ios":"levelo://app?vid=cf0caa37-cec8-408b-98f7-37211a80813c"},"vehicle_type_id":"4","last_reported":1685839740,"current_range_meters":30000,"station_id":"","pricing_plan_id":"free"},{"bike_id":"9fc69c19-d01f-4557-a8ae-c4df9b10a1e2","system_id":"levelo_inurba_marseille","lat":43.30642,"lon":5.401031,"is_reserved":false,"is_disabled":false,"rental_uris":{"android":"levelo://app?vid=9fc69c19-d01f-4557-a8ae-c4df9b10a1e2","ios":"levelo://app?vid=9fc69c19-d01f-4557-a8ae-c4df9b10a1e2"},"vehicle_type_id":"4","last_reported":1685839740,"current_range_meters":800,"station_id":"ce4bh112rcd13ifvqda0","pricing_plan_id":"free"},{"bike_id":"5a6c3182-7bb3-4e89-8402-9b30e6379ee8","system_id":"levelo_inurba_marseille","lat":43.298681,"lon":5.397225,"is_reserved":false,"is_disabled":false,"rental_uris":{"android":"levelo://app?vid=5a6c3182-7bb3-4e89-8402-9b30e6379ee8","ios":"levelo://app?vid=5a6c3182-7bb3-4e89-8402-9b30e6379ee8"},"vehicle_type_id":"4","last_reported":1685839740,"current_range_meters":27200,"station_id":"ce4bh0h2rcd13ifvqd50","pricing_plan_id":"free"},{"bike_id":"c66cb54a-78fb-4cf0-90fb-899a13c1be31","system_id":"levelo_inurba_marseille","lat":43.298681,"lon":5.397225,"is_reserved":false,"is_disabled":false,"rental_uris":{"android":"levelo://app?vid=c66cb54a-78fb-4cf0-90fb-899a13c1be31","ios":"levelo://app?vid=c66cb54a-78fb-4cf0-90fb-899a13c1be31"},"vehicle_type_id":"4","last_reported":1685839740,"current_range_meters":24800,"station_id":"ce4bh0h2rcd13ifvqd50","pricing_plan_id":"free"},{"bike_id":"2aa238c8-6488-4f0f-a21b-439633f995f7","system_id":"levelo_inurba_marseille","lat":43.298681,"lon":5.397225,"is_reserved":false,"is_disabled":false,"rental_uris":{"android":"levelo://app?vid=2aa238c8-6488-4f0f-a21b-439633f995f7","ios":"levelo://app?vid=2aa238c8-6488-4f0f-a21b-439633f995f7"},"vehicle_type_id":"4","last_reported":1685839740,"current_range_meters":20000,"station_id":"ce4bh0h2rcd13ifvqd50","pricing_plan_id":"free"},{"bike_id":"60a089c7-bed5-40a8-8c85-47bec2f131a2","system_id":"levelo_inurba_marseille","lat":43.286593,"lon":5.363346,"is_reserved":false,"is_disabled":false,"rental_uris":{"android":"levelo://app?vid=60a089c7-bed5-40a8-8c85-47bec2f131a2","ios":"levelo://app?vid=60a089c7-bed5-40a8-8c85-47bec2f131a2"},"vehicle_type_id":"4","last_reported":1685839740,"current_range_meters":20000,"station_id":"ce4bhah2rcd13ifvqej0","pricing_plan_id":"free"},{"bike_id":"1be95756-e8f4-4158-85d8-3f22e3077c45","system_id":"levelo_inurba_marseille","lat":43.286591,"lon":5.363346,"is_reserved":false,"is_disabled":false,"rental_uris":{"android":"levelo://app?vid=1be95756-e8f4-4158-85d8-3f22e3077c45","ios":"levelo://app?vid=1be95756-e8f4-4158-85d8-3f22e3077c45"},"vehicle_type_id":"4","last_reported":1685839740,"current_range_meters":27200,"station_id":"ce4bhah2rcd13ifvqej0","pricing_plan_id":"free"},{"bike_id":"1ad2bede-308b-4525-bcf1-588c269a4c8f","system_id":"levelo_inurba_marseille","lat":43.302759,"lon":5.400793,"is_reserved":false,"is_disabled":false,"rental_uris":{"android":"levelo://app?vid=1ad2bede-308b-4525-bcf1-588c269a4c8f","ios":"levelo://app?vid=1ad2bede-308b-4525-bcf1-588c269a4c8f"},"vehicle_type_id":"4","last_reported":1685839740,"current_range_meters":28000,"station_id":"ce4bgvh2rcd13ifvqcs0","pricing_plan_id":"free"},{"bike_id":"fd4f84cf-60e1-4ae5-8247-25cf70b0c354","system_id":"levelo_inurba_marseille","lat":43.302759,"lon":5.400793,"is_reserved":false,"is_disabled":false,"rental_uris":{"android":"levelo://app?vid=fd4f84cf-60e1-4ae5-8247-25cf70b0c354","ios":"levelo://app?vid=fd4f84cf-60e1-4ae5-8247-25cf70b0c354"},"vehicle_type_id":"4","last_reported":1685839740,"current_range_meters":27600,"station_id":"ce4bgvh2rcd13ifvqcs0","pricing_plan_id":"free"},{"bike_id":"8b86f859-a6f4-4528-add1-cc4e3f1fe04f","system_id":"levelo_inurba_marseille","lat":43.302759,"lon":5.400793,"is_reserved":false,"is_disabled":false,"rental_uris":{"android":"levelo://app?vid=8b86f859-a6f4-4528-add1-cc4e3f1fe04f","ios":"levelo://app?vid=8b86f859-a6f4-4528-add1-cc4e3f1fe04f"},"vehicle_type_id":"4","last_reported":1685839740,"current_range_meters":18000,"station_id":"ce4bgvh2rcd13ifvqcs0","pricing_plan_id":"free"},{"bike_id":"0d59d2f0-30eb-47b8-8db8-c06778c4bf88","system_id":"levelo_inurba_marseille","lat":43.302759,"lon":5.400793,"is_reserved":false,"is_disabled":false,"rental_uris":{"android":"levelo://app?vid=0d59d2f0-30eb-47b8-8db8-c06778c4bf88","ios":"levelo://app?vid=0d59d2f0-30eb-47b8-8db8-c06778c4bf88"},"vehicle_type_id":"4","last_reported":1685839740,"current_range_meters":29600,"station_id":"ce4bgvh2rcd13ifvqcs0","pricing_plan_id":"free"},{"bike_id":"fceba16d-ac64-416a-9b80-4b5430e4011d","system_id":"levelo_inurba_marseille","lat":43.302759,"lon":5.400793,"is_reserved":false,"is_disabled":false,"rental_uris":{"android":"levelo://app?vid=fceba16d-ac64-416a-9b80-4b5430e4011d","ios":"levelo://app?vid=fceba16d-ac64-416a-9b80-4b5430e4011d"},"vehicle_type_id":"4","last_reported":1685839740,"current_range_meters":30000,"station_id":"ce4bgvh2rcd13ifvqcs0","pricing_plan_id":"free"},{"bike_id":"ba71aab4-fb6e-4803-80e9-3dd08d41722e","system_id":"levelo_inurba_marseille","lat":43.316517,"lon":5.404375,"is_reserved":false,"is_disabled":false,"rental_uris":{"android":"levelo://app?vid=ba71aab4-fb6e-4803-80e9-3dd08d41722e","ios":"levelo://app?vid=ba71aab4-fb6e-4803-80e9-3dd08d41722e"},"vehicle_type_id":"4","last_reported":1685839740,"current_range_meters":31200,"station_id":"ce4bh012rcd13ifvqd00","pricing_plan_id":"free"},{"bike_id":"7cf0c8f2-6032-4a5a-954c-9f906e055823","system_id":"levelo_inurba_marseille","lat":43.31642,"lon":5.40436,"is_reserved":false,"is_disabled":false,"rental_uris":{"android":"levelo://app?vid=7cf0c8f2-6032-4a5a-954c-9f906e055823","ios":"levelo://app?vid=7cf0c8f2-6032-4a5a-954c-9f906e055823"},"vehicle_type_id":"4","last_reported":1685839740,"current_range_meters":31200,"station_id":"ce4bh012rcd13ifvqd00","pricing_plan_id":"free"},{"bike_id":"aa93bff9-f3c7-4578-b37d-045f6bf399b7","system_id":"levelo_inurba_marseille","lat":43.31644,"lon":5.40437,"is_reserved":false,"is_disabled":false,"rental_uris":{"android":"levelo://app?vid=aa93bff9-f3c7-4578-b37d-045f6bf399b7","ios":"levelo://app?vid=aa93bff9-f3c7-4578-b37d-045f6bf399b7"},"vehicle_type_id":"4","last_reported":1685839740,"current_range_meters":19600,"station_id":"ce4bh012rcd13ifvqd00","pricing_plan_id":"free"},{"bike_id":"248cc71f-bc28-495a-8966-798b07e96275","system_id":"levelo_inurba_marseille","lat":43.284534,"lon":5.358662,"is_reserved":false,"is_disabled":false,"rental_uris":{"android":"levelo://app?vid=248cc71f-bc28-495a-8966-798b07e96275","ios":"levelo://app?vid=248cc71f-bc28-495a-8966-798b07e96275"},"vehicle_type_id":"4","last_reported":1685839740,"current_range_meters":20800,"station_id":"ce4bhah2rcd13ifvqei0","pricing_plan_id":"free"},{"bike_id":"0318ca7b-fcde-4898-96b5-0b325392a244","system_id":"levelo_inurba_marseille","lat":43.285856,"lon":5.350771,"is_reserved":false,"is_disabled":false,"rental_uris":{"android":"levelo://app?vid=0318ca7b-fcde-4898-96b5-0b325392a244","ios":"levelo://app?vid=0318ca7b-fcde-4898-96b5-0b325392a244"},"vehicle_type_id":"4","last_reported":1685839740,"current_range_meters":31200,"station_id":"ce4bhch2rcd13ifvqeug","pricing_plan_id":"free"},{"bike_id":"0a5e25f5-e34a-4905-8427-38a3f4f7cb23","system_id":"levelo_inurba_marseille","lat":43.28617,"lon":5.35097,"is_reserved":false,"is_disabled":false,"rental_uris":{"android":"levelo://app?vid=0a5e25f5-e34a-4905-8427-38a3f4f7cb23","ios":"levelo://app?vid=0a5e25f5-e34a-4905-8427-38a3f4f7cb23"},"vehicle_type_id":"4","last_reported":1685839740,"current_range_meters":25600,"station_id":"","pricing_plan_id":"free"},{"bike_id":"3e09b0fa-dd8c-4079-8346-e8dd3caf896d","system_id":"levelo_inurba_marseille","lat":43.28616,"lon":5.35099,"is_reserved":false,"is_disabled":false,"rental_uris":{"android":"levelo://app?vid=3e09b0fa-dd8c-4079-8346-e8dd3caf896d","ios":"levelo://app?vid=3e09b0fa-dd8c-4079-8346-e8dd3caf896d"},"vehicle_type_id":"4","last_reported":1685839740,"current_range_meters":31200,"station_id":"","pricing_plan_id":"free"},{"bike_id":"c030ed44-1097-48a9-8354-bbbbde62a048","system_id":"levelo_inurba_marseille","lat":43.28615,"lon":5.35097,"is_reserved":false,"is_disabled":false,"rental_uris":{"android":"levelo://app?vid=c030ed44-1097-48a9-8354-bbbbde62a048","ios":"levelo://app?vid=c030ed44-1097-48a9-8354-bbbbde62a048"},"vehicle_type_id":"4","last_reported":1685839740,"current_range_meters":30400,"station_id":"","pricing_plan_id":"free"},{"bike_id":"810b2257-cd2e-4601-b06b-605319169af8","system_id":"levelo_inurba_marseille","lat":43.285848,"lon":5.350787,"is_reserved":false,"is_disabled":false,"rental_uris":{"android":"levelo://app?vid=810b2257-cd2e-4601-b06b-605319169af8","ios":"levelo://app?vid=810b2257-cd2e-4601-b06b-605319169af8"},"vehicle_type_id":"4","last_reported":1685839740,"current_range_meters":31200,"station_id":"ce4bhch2rcd13ifvqeug","pricing_plan_id":"free"},{"bike_id":"6221448b-1587-4577-adfa-2f84ee672ed0","system_id":"levelo_inurba_marseille","lat":43.287154,"lon":5.399979,"is_reserved":false,"is_disabled":false,"rental_uris":{"android":"levelo://app?vid=6221448b-1587-4577-adfa-2f84ee672ed0","ios":"levelo://app?vid=6221448b-1587-4577-adfa-2f84ee672ed0"},"vehicle_type_id":"4","last_reported":1685839740,"current_range_meters":15600,"station_id":"ce4bho92rcd13ifvqh3g","pricing_plan_id":"free"},{"bike_id":"b205e703-9cc6-479d-b47b-dcec15459f4d","system_id":"levelo_inurba_marseille","lat":43.32655,"lon":5.40379,"is_reserved":false,"is_disabled":false,"rental_uris":{"android":"levelo://app?vid=b205e703-9cc6-479d-b47b-dcec15459f4d","ios":"levelo://app?vid=b205e703-9cc6-479d-b47b-dcec15459f4d"},"vehicle_type_id":"4","last_reported":1685839740,"current_range_meters":15200,"station_id":"","pricing_plan_id":"free"},{"bike_id":"50907e2b-978d-4878-87d9-05ccc3a86a19","system_id":"levelo_inurba_marseille","lat":43.323464,"lon":5.406297,"is_reserved":false,"is_disabled":false,"rental_uris":{"android":"levelo://app?vid=50907e2b-978d-4878-87d9-05ccc3a86a19","ios":"levelo://app?vid=50907e2b-978d-4878-87d9-05ccc3a86a19"},"vehicle_type_id":"4","last_reported":1685839740,"current_range_meters":21200,"station_id":"ce4bhq92rcd13ifvqhjg","pricing_plan_id":"free"},{"bike_id":"de4feed6-b5e9-4db3-88fe-23aa2ac41e5d","system_id":"levelo_inurba_marseille","lat":43.323464,"lon":5.406297,"is_reserved":false,"is_disabled":false,"rental_uris":{"android":"levelo://app?vid=de4feed6-b5e9-4db3-88fe-23aa2ac41e5d","ios":"levelo://app?vid=de4feed6-b5e9-4db3-88fe-23aa2ac41e5d"},"vehicle_type_id":"4","last_reported":1685839740,"current_range_meters":4000,"station_id":"ce4bhq92rcd13ifvqhjg","pricing_plan_id":"free"},{"bike_id":"32e8f0cc-be0d-40d4-bbb6-ba64324deebb","system_id":"levelo_inurba_marseille","lat":43.284219,"lon":5.3497,"is_reserved":false,"is_disabled":false,"rental_uris":{"android":"levelo://app?vid=32e8f0cc-be0d-40d4-bbb6-ba64324deebb","ios":"levelo://app?vid=32e8f0cc-be0d-40d4-bbb6-ba64324deebb"},"vehicle_type_id":"4","last_reported":1685839740,"current_range_meters":30800,"station_id":"ce4bhbh2rcd13ifvqepg","pricing_plan_id":"free"},{"bike_id":"89da4138-be74-4141-aa42-547be980dc7a","system_id":"levelo_inurba_marseille","lat":43.282754,"lon":5.350519,"is_reserved":false,"is_disabled":false,"rental_uris":{"android":"levelo://app?vid=89da4138-be74-4141-aa42-547be980dc7a","ios":"levelo://app?vid=89da4138-be74-4141-aa42-547be980dc7a"},"vehicle_type_id":"4","last_reported":1685839740,"current_range_meters":29200,"station_id":"ce4bhbp2rcd13ifvqerg","pricing_plan_id":"free"},{"bike_id":"2ec182fd-a502-4f81-8c20-c622a432b4f7","system_id":"levelo_inurba_marseille","lat":43.292724,"lon":5.401131,"is_reserved":false,"is_disabled":false,"rental_uris":{"android":"levelo://app?vid=2ec182fd-a502-4f81-8c20-c622a432b4f7","ios":"levelo://app?vid=2ec182fd-a502-4f81-8c20-c622a432b4f7"},"vehicle_type_id":"4","last_reported":1685839740,"current_range_meters":1600,"station_id":"ce4bh312rcd13ifvqdk0","pricing_plan_id":"free"},{"bike_id":"25fd80f9-1b5a-4dd6-af5c-0910d173b880","system_id":"levelo_inurba_marseille","lat":43.280382,"lon":5.369291,"is_reserved":false,"is_disabled":false,"rental_uris":{"android":"levelo://app?vid=25fd80f9-1b5a-4dd6-af5c-0910d173b880","ios":"levelo://app?vid=25fd80f9-1b5a-4dd6-af5c-0910d173b880"},"vehicle_type_id":"4","last_reported":1685839740,"current_range_meters":24800,"station_id":"ce4bha12rcd13ifvqef0","pricing_plan_id":"free"},{"bike_id":"ecae86e4-7353-4589-8f27-ebe0177fe06c","system_id":"levelo_inurba_marseille","lat":43.29034,"lon":5.39963,"is_reserved":false,"is_disabled":false,"rental_uris":{"android":"levelo://app?vid=ecae86e4-7353-4589-8f27-ebe0177fe06c","ios":"levelo://app?vid=ecae86e4-7353-4589-8f27-ebe0177fe06c"},"vehicle_type_id":"4","last_reported":1685839740,"current_range_meters":28400,"station_id":"ce4bh392rcd13ifvqdm0","pricing_plan_id":"free"},{"bike_id":"0bb9b4a6-765f-4b03-bb79-298473410081","system_id":"levelo_inurba_marseille","lat":43.281044,"lon":5.378308,"is_reserved":false,"is_disabled":false,"rental_uris":{"android":"levelo://app?vid=0bb9b4a6-765f-4b03-bb79-298473410081","ios":"levelo://app?vid=0bb9b4a6-765f-4b03-bb79-298473410081"},"vehicle_type_id":"4","last_reported":1685839740,"current_range_meters":1600,"station_id":"ce4bha12rcd13ifvqee0","pricing_plan_id":"free"},{"bike_id":"e7879720-bbb0-49d8-a1e4-434e15de9490","system_id":"levelo_inurba_marseille","lat":43.281044,"lon":5.378308,"is_reserved":false,"is_disabled":false,"rental_uris":{"android":"levelo://app?vid=e7879720-bbb0-49d8-a1e4-434e15de9490","ios":"levelo://app?vid=e7879720-bbb0-49d8-a1e4-434e15de9490"},"vehicle_type_id":"4","last_reported":1685839740,"current_range_meters":31200,"station_id":"ce4bha12rcd13ifvqee0","pricing_plan_id":"free"},{"bike_id":"d85c25b5-7ffb-45d9-b579-690e3aa4a5ff","system_id":"levelo_inurba_marseille","lat":43.284462,"lon":5.392121,"is_reserved":false,"is_disabled":false,"rental_uris":{"android":"levelo://app?vid=d85c25b5-7ffb-45d9-b579-690e3aa4a5ff","ios":"levelo://app?vid=d85c25b5-7ffb-45d9-b579-690e3aa4a5ff"},"vehicle_type_id":"4","last_reported":1685839740,"current_range_meters":12000,"station_id":"ce4bhoh2rcd13ifvqh5g","pricing_plan_id":"free"},{"bike_id":"1502d5e5-3007-4d73-abe0-31aa3cdc05ae","system_id":"levelo_inurba_marseille","lat":43.285742,"lon":5.395004,"is_reserved":false,"is_disabled":false,"rental_uris":{"android":"levelo://app?vid=1502d5e5-3007-4d73-abe0-31aa3cdc05ae","ios":"levelo://app?vid=1502d5e5-3007-4d73-abe0-31aa3cdc05ae"},"vehicle_type_id":"4","last_reported":1685839740,"current_range_meters":28400,"station_id":"ce4bh292rcd13ifvqdg0","pricing_plan_id":"free"},{"bike_id":"d7861dd7-926b-4d57-b0ec-0898e516baa7","system_id":"levelo_inurba_marseille","lat":43.27901,"lon":5.38005,"is_reserved":false,"is_disabled":false,"rental_uris":{"android":"levelo://app?vid=d7861dd7-926b-4d57-b0ec-0898e516baa7","ios":"levelo://app?vid=d7861dd7-926b-4d57-b0ec-0898e516baa7"},"vehicle_type_id":"4","last_reported":1685839740,"current_range_meters":31200,"station_id":"","pricing_plan_id":"free"},{"bike_id":"e6301e79-9157-4e89-ad00-c4866d6fba11","system_id":"levelo_inurba_marseille","lat":43.287154,"lon":5.399979,"is_reserved":false,"is_disabled":false,"rental_uris":{"android":"levelo://app?vid=e6301e79-9157-4e89-ad00-c4866d6fba11","ios":"levelo://app?vid=e6301e79-9157-4e89-ad00-c4866d6fba11"},"vehicle_type_id":"4","last_reported":1685839740,"current_range_meters":22000,"station_id":"ce4bho92rcd13ifvqh3g","pricing_plan_id":"free"},{"bike_id":"5cb2adcf-a950-4a47-ab25-9cf80a17d47b","system_id":"levelo_inurba_marseille","lat":43.287154,"lon":5.399979,"is_reserved":false,"is_disabled":false,"rental_uris":{"android":"levelo://app?vid=5cb2adcf-a950-4a47-ab25-9cf80a17d47b","ios":"levelo://app?vid=5cb2adcf-a950-4a47-ab25-9cf80a17d47b"},"vehicle_type_id":"4","last_reported":1685839740,"current_range_meters":26400,"station_id":"ce4bho92rcd13ifvqh3g","pricing_plan_id":"free"},{"bike_id":"df6c1fb7-7b02-4d5c-aa4e-fe08d3de6b95","system_id":"levelo_inurba_marseille","lat":43.320045,"lon":5.415048,"is_reserved":false,"is_disabled":false,"rental_uris":{"android":"levelo://app?vid=df6c1fb7-7b02-4d5c-aa4e-fe08d3de6b95","ios":"levelo://app?vid=df6c1fb7-7b02-4d5c-aa4e-fe08d3de6b95"},"vehicle_type_id":"4","last_reported":1685839740,"current_range_meters":28000,"station_id":"ce4bhq92rcd13ifvqhkg","pricing_plan_id":"free"},{"bike_id":"6a393bd7-90bb-4794-9445-d37322c69d35","system_id":"levelo_inurba_marseille","lat":43.299579,"lon":5.413255,"is_reserved":false,"is_disabled":false,"rental_uris":{"android":"levelo://app?vid=6a393bd7-90bb-4794-9445-d37322c69d35","ios":"levelo://app?vid=6a393bd7-90bb-4794-9445-d37322c69d35"},"vehicle_type_id":"4","last_reported":1685839740,"current_range_meters":30000,"station_id":"ce4bhp12rcd13ifvqh9g","pricing_plan_id":"free"},{"bike_id":"f535a6da-e294-4da7-8bb0-bfd29eed5333","system_id":"levelo_inurba_marseille","lat":43.30404,"lon":5.41552,"is_reserved":false,"is_disabled":false,"rental_uris":{"android":"levelo://app?vid=f535a6da-e294-4da7-8bb0-bfd29eed5333","ios":"levelo://app?vid=f535a6da-e294-4da7-8bb0-bfd29eed5333"},"vehicle_type_id":"4","last_reported":1685839740,"current_range_meters":0,"station_id":"","pricing_plan_id":"free"},{"bike_id":"8e4f98c9-82df-4d26-bc83-a8f5b4ae9aa1","system_id":"levelo_inurba_marseille","lat":43.292569,"lon":5.409107,"is_reserved":false,"is_disabled":false,"rental_uris":{"android":"levelo://app?vid=8e4f98c9-82df-4d26-bc83-a8f5b4ae9aa1","ios":"levelo://app?vid=8e4f98c9-82df-4d26-bc83-a8f5b4ae9aa1"},"vehicle_type_id":"4","last_reported":1685839740,"current_range_meters":22000,"station_id":"ce4bh192rcd13ifvqdc0","pricing_plan_id":"free"},{"bike_id":"c3364cdd-f36b-4cad-a0df-d551de901819","system_id":"levelo_inurba_marseille","lat":43.29259,"lon":5.40903,"is_reserved":false,"is_disabled":false,"rental_uris":{"android":"levelo://app?vid=c3364cdd-f36b-4cad-a0df-d551de901819","ios":"levelo://app?vid=c3364cdd-f36b-4cad-a0df-d551de901819"},"vehicle_type_id":"4","last_reported":1685839740,"current_range_meters":25600,"station_id":"ce4bh192rcd13ifvqdc0","pricing_plan_id":"free"},{"bike_id":"2b7ace50-1bf0-4ed3-903f-6306ff80d3cf","system_id":"levelo_inurba_marseille","lat":43.292571,"lon":5.409107,"is_reserved":false,"is_disabled":false,"rental_uris":{"android":"levelo://app?vid=2b7ace50-1bf0-4ed3-903f-6306ff80d3cf","ios":"levelo://app?vid=2b7ace50-1bf0-4ed3-903f-6306ff80d3cf"},"vehicle_type_id":"4","last_reported":1685839740,"current_range_meters":26800,"station_id":"ce4bh192rcd13ifvqdc0","pricing_plan_id":"free"},{"bike_id":"da8ed60e-4827-42ea-9a4d-43736890ea2e","system_id":"levelo_inurba_marseille","lat":43.292569,"lon":5.409107,"is_reserved":false,"is_disabled":false,"rental_uris":{"android":"levelo://app?vid=da8ed60e-4827-42ea-9a4d-43736890ea2e","ios":"levelo://app?vid=da8ed60e-4827-42ea-9a4d-43736890ea2e"},"vehicle_type_id":"4","last_reported":1685839740,"current_range_meters":0,"station_id":"ce4bh192rcd13ifvqdc0","pricing_plan_id":"free"},{"bike_id":"849717f1-4d44-41ef-ab8b-6224b3593beb","system_id":"levelo_inurba_marseille","lat":43.29252,"lon":5.40912,"is_reserved":false,"is_disabled":false,"rental_uris":{"android":"levelo://app?vid=849717f1-4d44-41ef-ab8b-6224b3593beb","ios":"levelo://app?vid=849717f1-4d44-41ef-ab8b-6224b3593beb"},"vehicle_type_id":"4","last_reported":1685839740,"current_range_meters":10800,"station_id":"ce4bh192rcd13ifvqdc0","pricing_plan_id":"free"},{"bike_id":"f0bfe120-5962-4c32-b4d1-ece241139030","system_id":"levelo_inurba_marseille","lat":43.280784,"lon":5.396622,"is_reserved":false,"is_disabled":false,"rental_uris":{"android":"levelo://app?vid=f0bfe120-5962-4c32-b4d1-ece241139030","ios":"levelo://app?vid=f0bfe120-5962-4c32-b4d1-ece241139030"},"vehicle_type_id":"4","last_reported":1685839740,"current_range_meters":18800,"station_id":"ce4bho12rcd13ifvqh2g","pricing_plan_id":"free"},{"bike_id":"d36d0c61-5596-4974-9371-37c105292ad9","system_id":"levelo_inurba_marseille","lat":43.280784,"lon":5.396622,"is_reserved":false,"is_disabled":false,"rental_uris":{"android":"levelo://app?vid=d36d0c61-5596-4974-9371-37c105292ad9","ios":"levelo://app?vid=d36d0c61-5596-4974-9371-37c105292ad9"},"vehicle_type_id":"4","last_reported":1685839740,"current_range_meters":31200,"station_id":"ce4bho12rcd13ifvqh2g","pricing_plan_id":"free"},{"bike_id":"7582fb74-5451-446b-ad0d-1483e414e02b","system_id":"levelo_inurba_marseille","lat":43.280784,"lon":5.396622,"is_reserved":false,"is_disabled":false,"rental_uris":{"android":"levelo://app?vid=7582fb74-5451-446b-ad0d-1483e414e02b","ios":"levelo://app?vid=7582fb74-5451-446b-ad0d-1483e414e02b"},"vehicle_type_id":"4","last_reported":1685839740,"current_range_meters":31200,"station_id":"ce4bho12rcd13ifvqh2g","pricing_plan_id":"free"},{"bike_id":"08d684bf-1ec1-4d2f-9faa-6a15fd3c6851","system_id":"levelo_inurba_marseille","lat":43.280784,"lon":5.396622,"is_reserved":false,"is_disabled":false,"rental_uris":{"android":"levelo://app?vid=08d684bf-1ec1-4d2f-9faa-6a15fd3c6851","ios":"levelo://app?vid=08d684bf-1ec1-4d2f-9faa-6a15fd3c6851"},"vehicle_type_id":"4","last_reported":1685839740,"current_range_meters":11200,"station_id":"ce4bho12rcd13ifvqh2g","pricing_plan_id":"free"},{"bike_id":"7d07b029-6d35-4cc5-b61f-bc76e5ffbe34","system_id":"levelo_inurba_marseille","lat":43.27835,"lon":5.39207,"is_reserved":false,"is_disabled":false,"rental_uris":{"android":"levelo://app?vid=7d07b029-6d35-4cc5-b61f-bc76e5ffbe34","ios":"levelo://app?vid=7d07b029-6d35-4cc5-b61f-bc76e5ffbe34"},"vehicle_type_id":"4","last_reported":1685839740,"current_range_meters":4000,"station_id":"ce4bhjp2rcd13ifvqga0","pricing_plan_id":"free"},{"bike_id":"eb383b48-1300-442c-a2d0-7fba66dd5800","system_id":"levelo_inurba_marseille","lat":43.278401,"lon":5.392152,"is_reserved":false,"is_disabled":false,"rental_uris":{"android":"levelo://app?vid=eb383b48-1300-442c-a2d0-7fba66dd5800","ios":"levelo://app?vid=eb383b48-1300-442c-a2d0-7fba66dd5800"},"vehicle_type_id":"4","last_reported":1685839740,"current_range_meters":7600,"station_id":"ce4bhjp2rcd13ifvqga0","pricing_plan_id":"free"},{"bike_id":"bcc4deb6-83cc-4852-8aee-3ddf0d42c06d","system_id":"levelo_inurba_marseille","lat":43.278401,"lon":5.392152,"is_reserved":false,"is_disabled":false,"rental_uris":{"android":"levelo://app?vid=bcc4deb6-83cc-4852-8aee-3ddf0d42c06d","ios":"levelo://app?vid=bcc4deb6-83cc-4852-8aee-3ddf0d42c06d"},"vehicle_type_id":"4","last_reported":1685839740,"current_range_meters":30400,"station_id":"ce4bhjp2rcd13ifvqga0","pricing_plan_id":"free"},{"bike_id":"aece11da-abe5-4650-ba29-dfec19e336af","system_id":"levelo_inurba_marseille","lat":43.33612,"lon":5.410321,"is_reserved":false,"is_disabled":false,"rental_uris":{"android":"levelo://app?vid=aece11da-abe5-4650-ba29-dfec19e336af","ios":"levelo://app?vid=aece11da-abe5-4650-ba29-dfec19e336af"},"vehicle_type_id":"4","last_reported":1685839740,"current_range_meters":32000,"station_id":"ce4bhqh2rcd13ifvqhmg","pricing_plan_id":"free"},{"bike_id":"500b222e-940e-45f3-9c58-44c099d9e8ae","system_id":"levelo_inurba_marseille","lat":43.273613,"lon":5.362705,"is_reserved":false,"is_disabled":false,"rental_uris":{"android":"levelo://app?vid=500b222e-940e-45f3-9c58-44c099d9e8ae","ios":"levelo://app?vid=500b222e-940e-45f3-9c58-44c099d9e8ae"},"vehicle_type_id":"4","last_reported":1685839740,"current_range_meters":17200,"station_id":"ce4bhbh2rcd13ifvqeo0","pricing_plan_id":"free"},{"bike_id":"e1d3d640-d733-4874-817f-e9df379d0109","system_id":"levelo_inurba_marseille","lat":43.27569,"lon":5.3842,"is_reserved":false,"is_disabled":false,"rental_uris":{"android":"levelo://app?vid=e1d3d640-d733-4874-817f-e9df379d0109","ios":"levelo://app?vid=e1d3d640-d733-4874-817f-e9df379d0109"},"vehicle_type_id":"4","last_reported":1685839740,"current_range_meters":30800,"station_id":"","pricing_plan_id":"free"},{"bike_id":"266f7eb9-8305-4bd6-b36a-549eb2bf6e4a","system_id":"levelo_inurba_marseille","lat":43.273613,"lon":5.362705,"is_reserved":false,"is_disabled":false,"rental_uris":{"android":"levelo://app?vid=266f7eb9-8305-4bd6-b36a-549eb2bf6e4a","ios":"levelo://app?vid=266f7eb9-8305-4bd6-b36a-549eb2bf6e4a"},"vehicle_type_id":"4","last_reported":1685839740,"current_range_meters":2800,"station_id":"ce4bhbh2rcd13ifvqeo0","pricing_plan_id":"free"},{"bike_id":"92c8ce47-028f-4bde-8828-d69ca7684011","system_id":"levelo_inurba_marseille","lat":43.273609,"lon":5.362708,"is_reserved":false,"is_disabled":false,"rental_uris":{"android":"levelo://app?vid=92c8ce47-028f-4bde-8828-d69ca7684011","ios":"levelo://app?vid=92c8ce47-028f-4bde-8828-d69ca7684011"},"vehicle_type_id":"4","last_reported":1685839740,"current_range_meters":3200,"station_id":"ce4bhbh2rcd13ifvqeo0","pricing_plan_id":"free"},{"bike_id":"fe140f1f-b210-424b-b75d-c62c86b83222","system_id":"levelo_inurba_marseille","lat":43.273609,"lon":5.362708,"is_reserved":false,"is_disabled":false,"rental_uris":{"android":"levelo://app?vid=fe140f1f-b210-424b-b75d-c62c86b83222","ios":"levelo://app?vid=fe140f1f-b210-424b-b75d-c62c86b83222"},"vehicle_type_id":"4","last_reported":1685839740,"current_range_meters":21200,"station_id":"ce4bhbh2rcd13ifvqeo0","pricing_plan_id":"free"},{"bike_id":"449eeb59-bd7e-4175-860b-36c5840ef090","system_id":"levelo_inurba_marseille","lat":43.336134,"lon":5.410341,"is_reserved":false,"is_disabled":false,"rental_uris":{"android":"levelo://app?vid=449eeb59-bd7e-4175-860b-36c5840ef090","ios":"levelo://app?vid=449eeb59-bd7e-4175-860b-36c5840ef090"},"vehicle_type_id":"4","last_reported":1685839740,"current_range_meters":32000,"station_id":"ce4bhqh2rcd13ifvqhmg","pricing_plan_id":"free"},{"bike_id":"8608971e-0a5b-45d4-bea0-6cd6e58cd09f","system_id":"levelo_inurba_marseille","lat":43.33612,"lon":5.410321,"is_reserved":false,"is_disabled":false,"rental_uris":{"android":"levelo://app?vid=8608971e-0a5b-45d4-bea0-6cd6e58cd09f","ios":"levelo://app?vid=8608971e-0a5b-45d4-bea0-6cd6e58cd09f"},"vehicle_type_id":"4","last_reported":1685839740,"current_range_meters":26400,"station_id":"ce4bhqh2rcd13ifvqhmg","pricing_plan_id":"free"},{"bike_id":"3b14e52f-7df5-46e4-b2ce-369ea39314a9","system_id":"levelo_inurba_marseille","lat":43.336134,"lon":5.410341,"is_reserved":false,"is_disabled":false,"rental_uris":{"android":"levelo://app?vid=3b14e52f-7df5-46e4-b2ce-369ea39314a9","ios":"levelo://app?vid=3b14e52f-7df5-46e4-b2ce-369ea39314a9"},"vehicle_type_id":"4","last_reported":1685839740,"current_range_meters":800,"station_id":"ce4bhqh2rcd13ifvqhmg","pricing_plan_id":"free"},{"bike_id":"1047baed-e4e4-44e1-a721-8cb09706769a","system_id":"levelo_inurba_marseille","lat":43.336134,"lon":5.410341,"is_reserved":false,"is_disabled":false,"rental_uris":{"android":"levelo://app?vid=1047baed-e4e4-44e1-a721-8cb09706769a","ios":"levelo://app?vid=1047baed-e4e4-44e1-a721-8cb09706769a"},"vehicle_type_id":"4","last_reported":1685839740,"current_range_meters":19600,"station_id":"ce4bhqh2rcd13ifvqhmg","pricing_plan_id":"free"},{"bike_id":"88d4d8ce-94db-4e04-947f-9be38bb7b3c4","system_id":"levelo_inurba_marseille","lat":43.33612,"lon":5.410321,"is_reserved":false,"is_disabled":false,"rental_uris":{"android":"levelo://app?vid=88d4d8ce-94db-4e04-947f-9be38bb7b3c4","ios":"levelo://app?vid=88d4d8ce-94db-4e04-947f-9be38bb7b3c4"},"vehicle_type_id":"4","last_reported":1685839740,"current_range_meters":16400,"station_id":"ce4bhqh2rcd13ifvqhmg","pricing_plan_id":"free"},{"bike_id":"9e3e9364-2c59-49d2-ad66-90ae6c254e2b","system_id":"levelo_inurba_marseille","lat":43.336134,"lon":5.410341,"is_reserved":false,"is_disabled":false,"rental_uris":{"android":"levelo://app?vid=9e3e9364-2c59-49d2-ad66-90ae6c254e2b","ios":"levelo://app?vid=9e3e9364-2c59-49d2-ad66-90ae6c254e2b"},"vehicle_type_id":"4","last_reported":1685839740,"current_range_meters":26800,"station_id":"ce4bhqh2rcd13ifvqhmg","pricing_plan_id":"free"},{"bike_id":"993b8824-d263-40a5-b80e-1c5c5f2a118a","system_id":"levelo_inurba_marseille","lat":43.336134,"lon":5.410341,"is_reserved":false,"is_disabled":false,"rental_uris":{"android":"levelo://app?vid=993b8824-d263-40a5-b80e-1c5c5f2a118a","ios":"levelo://app?vid=993b8824-d263-40a5-b80e-1c5c5f2a118a"},"vehicle_type_id":"4","last_reported":1685839740,"current_range_meters":4800,"station_id":"ce4bhqh2rcd13ifvqhmg","pricing_plan_id":"free"},{"bike_id":"9908a2eb-cceb-4359-b2f6-31b6ef3dee84","system_id":"levelo_inurba_marseille","lat":43.275243,"lon":5.384237,"is_reserved":false,"is_disabled":false,"rental_uris":{"android":"levelo://app?vid=9908a2eb-cceb-4359-b2f6-31b6ef3dee84","ios":"levelo://app?vid=9908a2eb-cceb-4359-b2f6-31b6ef3dee84"},"vehicle_type_id":"4","last_reported":1685839740,"current_range_meters":24400,"station_id":"ce4bhe12rcd13ifvqf30","pricing_plan_id":"free"},{"bike_id":"1734bc3f-0d75-4a76-91b0-05dbde8debea","system_id":"levelo_inurba_marseille","lat":43.317121,"lon":5.423936,"is_reserved":false,"is_disabled":false,"rental_uris":{"android":"levelo://app?vid=1734bc3f-0d75-4a76-91b0-05dbde8debea","ios":"levelo://app?vid=1734bc3f-0d75-4a76-91b0-05dbde8debea"},"vehicle_type_id":"4","last_reported":1685839740,"current_range_meters":22400,"station_id":"ce4bhp92rcd13ifvqhbg","pricing_plan_id":"free"},{"bike_id":"9db9545d-f63d-42be-a674-9c25625f916b","system_id":"levelo_inurba_marseille","lat":43.294,"lon":5.41899,"is_reserved":false,"is_disabled":false,"rental_uris":{"android":"levelo://app?vid=9db9545d-f63d-42be-a674-9c25625f916b","ios":"levelo://app?vid=9db9545d-f63d-42be-a674-9c25625f916b"},"vehicle_type_id":"4","last_reported":1685839740,"current_range_meters":10400,"station_id":"","pricing_plan_id":"free"},{"bike_id":"4d80717c-1ab1-4ff1-8e16-4b8981f90281","system_id":"levelo_inurba_marseille","lat":43.32828,"lon":5.42133,"is_reserved":false,"is_disabled":false,"rental_uris":{"android":"levelo://app?vid=4d80717c-1ab1-4ff1-8e16-4b8981f90281","ios":"levelo://app?vid=4d80717c-1ab1-4ff1-8e16-4b8981f90281"},"vehicle_type_id":"4","last_reported":1685839740,"current_range_meters":28400,"station_id":"","pricing_plan_id":"free"},{"bike_id":"81feb41d-fe3a-4bb0-afdc-0abd1cebd339","system_id":"levelo_inurba_marseille","lat":43.295523,"lon":5.422926,"is_reserved":false,"is_disabled":false,"rental_uris":{"android":"levelo://app?vid=81feb41d-fe3a-4bb0-afdc-0abd1cebd339","ios":"levelo://app?vid=81feb41d-fe3a-4bb0-afdc-0abd1cebd339"},"vehicle_type_id":"4","last_reported":1685839740,"current_range_meters":20000,"station_id":"ce4bhph2rcd13ifvqhdg","pricing_plan_id":"free"},{"bike_id":"66cd23d9-7aea-4478-a4f7-bfb23f725e00","system_id":"levelo_inurba_marseille","lat":43.29554,"lon":5.42296,"is_reserved":false,"is_disabled":false,"rental_uris":{"android":"levelo://app?vid=66cd23d9-7aea-4478-a4f7-bfb23f725e00","ios":"levelo://app?vid=66cd23d9-7aea-4478-a4f7-bfb23f725e00"},"vehicle_type_id":"4","last_reported":1685839740,"current_range_meters":14000,"station_id":"ce4bhph2rcd13ifvqhdg","pricing_plan_id":"free"},{"bike_id":"8ba6a344-5809-4687-b75e-1a68f6670404","system_id":"levelo_inurba_marseille","lat":43.269467,"lon":5.386439,"is_reserved":false,"is_disabled":false,"rental_uris":{"android":"levelo://app?vid=8ba6a344-5809-4687-b75e-1a68f6670404","ios":"levelo://app?vid=8ba6a344-5809-4687-b75e-1a68f6670404"},"vehicle_type_id":"4","last_reported":1685839740,"current_range_meters":29200,"station_id":"ce4bhh92rcd13ifvqfh0","pricing_plan_id":"free"},{"bike_id":"42771c4a-ad62-4630-8bf4-dce689a16d1c","system_id":"levelo_inurba_marseille","lat":43.269319,"lon":5.389397,"is_reserved":false,"is_disabled":false,"rental_uris":{"android":"levelo://app?vid=42771c4a-ad62-4630-8bf4-dce689a16d1c","ios":"levelo://app?vid=42771c4a-ad62-4630-8bf4-dce689a16d1c"},"vehicle_type_id":"4","last_reported":1685839740,"current_range_meters":21600,"station_id":"ce4bhhh2rcd13ifvqfl0","pricing_plan_id":"free"},{"bike_id":"477c9b24-a1bd-4af2-9e3a-7a10b9af13d1","system_id":"levelo_inurba_marseille","lat":43.31716,"lon":5.43314,"is_reserved":false,"is_disabled":false,"rental_uris":{"android":"levelo://app?vid=477c9b24-a1bd-4af2-9e3a-7a10b9af13d1","ios":"levelo://app?vid=477c9b24-a1bd-4af2-9e3a-7a10b9af13d1"},"vehicle_type_id":"4","last_reported":1685839740,"current_range_meters":0,"station_id":"","pricing_plan_id":"free"},{"bike_id":"d36ca82f-90ab-49af-9e99-882862a775ac","system_id":"levelo_inurba_marseille","lat":43.27998,"lon":5.41664,"is_reserved":false,"is_disabled":false,"rental_uris":{"android":"levelo://app?vid=d36ca82f-90ab-49af-9e99-882862a775ac","ios":"levelo://app?vid=d36ca82f-90ab-49af-9e99-882862a775ac"},"vehicle_type_id":"4","last_reported":1685839740,"current_range_meters":17600,"station_id":"","pricing_plan_id":"free"},{"bike_id":"bf8176d7-3c9a-4666-9476-80921713d8fb","system_id":"levelo_inurba_marseille","lat":43.2799,"lon":5.41657,"is_reserved":false,"is_disabled":false,"rental_uris":{"android":"levelo://app?vid=bf8176d7-3c9a-4666-9476-80921713d8fb","ios":"levelo://app?vid=bf8176d7-3c9a-4666-9476-80921713d8fb"},"vehicle_type_id":"4","last_reported":1685839740,"current_range_meters":30000,"station_id":"ce4bho12rcd13ifvqh1g","pricing_plan_id":"free"},{"bike_id":"57143554-6bd2-4ac3-a9a3-581bc0ed1a91","system_id":"levelo_inurba_marseille","lat":43.27996,"lon":5.416624,"is_reserved":false,"is_disabled":false,"rental_uris":{"android":"levelo://app?vid=57143554-6bd2-4ac3-a9a3-581bc0ed1a91","ios":"levelo://app?vid=57143554-6bd2-4ac3-a9a3-581bc0ed1a91"},"vehicle_type_id":"4","last_reported":1685839740,"current_range_meters":30000,"station_id":"ce4bho12rcd13ifvqh1g","pricing_plan_id":"free"},{"bike_id":"41a55e85-588d-4f8e-9446-cd08ffebfb50","system_id":"levelo_inurba_marseille","lat":43.2799,"lon":5.4166,"is_reserved":false,"is_disabled":false,"rental_uris":{"android":"levelo://app?vid=41a55e85-588d-4f8e-9446-cd08ffebfb50","ios":"levelo://app?vid=41a55e85-588d-4f8e-9446-cd08ffebfb50"},"vehicle_type_id":"4","last_reported":1685839740,"current_range_meters":26400,"station_id":"","pricing_plan_id":"free"},{"bike_id":"b557ba17-de7e-4403-86b9-baf4bf48ed1b","system_id":"levelo_inurba_marseille","lat":43.27993,"lon":5.41666,"is_reserved":false,"is_disabled":false,"rental_uris":{"android":"levelo://app?vid=b557ba17-de7e-4403-86b9-baf4bf48ed1b","ios":"levelo://app?vid=b557ba17-de7e-4403-86b9-baf4bf48ed1b"},"vehicle_type_id":"4","last_reported":1685839740,"current_range_meters":31200,"station_id":"ce4bho12rcd13ifvqh1g","pricing_plan_id":"free"},{"bike_id":"9aea0ca1-b346-425d-a79a-14fc2c79905d","system_id":"levelo_inurba_marseille","lat":43.27988,"lon":5.41661,"is_reserved":false,"is_disabled":false,"rental_uris":{"android":"levelo://app?vid=9aea0ca1-b346-425d-a79a-14fc2c79905d","ios":"levelo://app?vid=9aea0ca1-b346-425d-a79a-14fc2c79905d"},"vehicle_type_id":"4","last_reported":1685839740,"current_range_meters":31200,"station_id":"ce4bho12rcd13ifvqh1g","pricing_plan_id":"free"},{"bike_id":"b2dc2e2f-3b39-4f28-a735-f24159149b8d","system_id":"levelo_inurba_marseille","lat":43.27989,"lon":5.41663,"is_reserved":false,"is_disabled":false,"rental_uris":{"android":"levelo://app?vid=b2dc2e2f-3b39-4f28-a735-f24159149b8d","ios":"levelo://app?vid=b2dc2e2f-3b39-4f28-a735-f24159149b8d"},"vehicle_type_id":"4","last_reported":1685839740,"current_range_meters":26000,"station_id":"","pricing_plan_id":"free"},{"bike_id":"e5002f7b-92de-46f6-8594-6cf771688c5d","system_id":"levelo_inurba_marseille","lat":43.27988,"lon":5.41662,"is_reserved":false,"is_disabled":false,"rental_uris":{"android":"levelo://app?vid=e5002f7b-92de-46f6-8594-6cf771688c5d","ios":"levelo://app?vid=e5002f7b-92de-46f6-8594-6cf771688c5d"},"vehicle_type_id":"4","last_reported":1685839740,"current_range_meters":31200,"station_id":"ce4bho12rcd13ifvqh1g","pricing_plan_id":"free"},{"bike_id":"47f9f9ed-249a-439d-b417-2e62e3013491","system_id":"levelo_inurba_marseille","lat":43.27996,"lon":5.416624,"is_reserved":false,"is_disabled":false,"rental_uris":{"android":"levelo://app?vid=47f9f9ed-249a-439d-b417-2e62e3013491","ios":"levelo://app?vid=47f9f9ed-249a-439d-b417-2e62e3013491"},"vehicle_type_id":"4","last_reported":1685839740,"current_range_meters":31200,"station_id":"ce4bho12rcd13ifvqh1g","pricing_plan_id":"free"},{"bike_id":"9a910898-7923-4b86-a109-ded213d8eccb","system_id":"levelo_inurba_marseille","lat":43.30797,"lon":5.43519,"is_reserved":false,"is_disabled":false,"rental_uris":{"android":"levelo://app?vid=9a910898-7923-4b86-a109-ded213d8eccb","ios":"levelo://app?vid=9a910898-7923-4b86-a109-ded213d8eccb"},"vehicle_type_id":"4","last_reported":1685839740,"current_range_meters":10400,"station_id":"","pricing_plan_id":"free"},{"bike_id":"99d8481f-dacb-432f-a12f-a3ddc6a28202","system_id":"levelo_inurba_marseille","lat":43.317104,"lon":5.436818,"is_reserved":false,"is_disabled":false,"rental_uris":{"android":"levelo://app?vid=99d8481f-dacb-432f-a12f-a3ddc6a28202","ios":"levelo://app?vid=99d8481f-dacb-432f-a12f-a3ddc6a28202"},"vehicle_type_id":"4","last_reported":1685839740,"current_range_meters":31200,"station_id":"ce4bhp92rcd13ifvqhcg","pricing_plan_id":"free"},{"bike_id":"2bc36e8d-06f1-44be-a05c-7b46eae24054","system_id":"levelo_inurba_marseille","lat":43.317104,"lon":5.436818,"is_reserved":false,"is_disabled":false,"rental_uris":{"android":"levelo://app?vid=2bc36e8d-06f1-44be-a05c-7b46eae24054","ios":"levelo://app?vid=2bc36e8d-06f1-44be-a05c-7b46eae24054"},"vehicle_type_id":"4","last_reported":1685839740,"current_range_meters":30800,"station_id":"ce4bhp92rcd13ifvqhcg","pricing_plan_id":"free"},{"bike_id":"ad56fe35-4a2d-4c63-962d-c6ca58bc17d7","system_id":"levelo_inurba_marseille","lat":43.271368,"lon":5.40928,"is_reserved":false,"is_disabled":false,"rental_uris":{"android":"levelo://app?vid=ad56fe35-4a2d-4c63-962d-c6ca58bc17d7","ios":"levelo://app?vid=ad56fe35-4a2d-4c63-962d-c6ca58bc17d7"},"vehicle_type_id":"4","last_reported":1685839740,"current_range_meters":6400,"station_id":"ce4bhl12rcd13ifvqgf0","pricing_plan_id":"free"},{"bike_id":"34ba6cc8-2bdb-4948-97a3-9696e103b856","system_id":"levelo_inurba_marseille","lat":43.271388,"lon":5.409269,"is_reserved":false,"is_disabled":false,"rental_uris":{"android":"levelo://app?vid=34ba6cc8-2bdb-4948-97a3-9696e103b856","ios":"levelo://app?vid=34ba6cc8-2bdb-4948-97a3-9696e103b856"},"vehicle_type_id":"4","last_reported":1685839740,"current_range_meters":16800,"station_id":"ce4bhl12rcd13ifvqgf0","pricing_plan_id":"free"},{"bike_id":"5021f0dd-313f-455e-9425-4f69e8a44370","system_id":"levelo_inurba_marseille","lat":43.267959,"lon":5.402687,"is_reserved":false,"is_disabled":false,"rental_uris":{"android":"levelo://app?vid=5021f0dd-313f-455e-9425-4f69e8a44370","ios":"levelo://app?vid=5021f0dd-313f-455e-9425-4f69e8a44370"},"vehicle_type_id":"4","last_reported":1685839740,"current_range_meters":28000,"station_id":"ce501612rcd8frsf0b60","pricing_plan_id":"free"},{"bike_id":"a014d823-461f-4668-8e39-13d9ad7f8365","system_id":"levelo_inurba_marseille","lat":43.267959,"lon":5.402685,"is_reserved":false,"is_disabled":false,"rental_uris":{"android":"levelo://app?vid=a014d823-461f-4668-8e39-13d9ad7f8365","ios":"levelo://app?vid=a014d823-461f-4668-8e39-13d9ad7f8365"},"vehicle_type_id":"4","last_reported":1685839740,"current_range_meters":24000,"station_id":"ce501612rcd8frsf0b60","pricing_plan_id":"free"},{"bike_id":"deca7443-e1ae-4c58-a7f8-44e65dab06ed","system_id":"levelo_inurba_marseille","lat":43.298768,"lon":5.43643,"is_reserved":false,"is_disabled":false,"rental_uris":{"android":"levelo://app?vid=deca7443-e1ae-4c58-a7f8-44e65dab06ed","ios":"levelo://app?vid=deca7443-e1ae-4c58-a7f8-44e65dab06ed"},"vehicle_type_id":"4","last_reported":1685839740,"current_range_meters":1600,"station_id":"ce4bhpp2rcd13ifvqhfg","pricing_plan_id":"free"},{"bike_id":"0aa0a751-ac08-4622-b709-fa8f0c27c316","system_id":"levelo_inurba_marseille","lat":43.298768,"lon":5.43643,"is_reserved":false,"is_disabled":false,"rental_uris":{"android":"levelo://app?vid=0aa0a751-ac08-4622-b709-fa8f0c27c316","ios":"levelo://app?vid=0aa0a751-ac08-4622-b709-fa8f0c27c316"},"vehicle_type_id":"4","last_reported":1685839740,"current_range_meters":0,"station_id":"ce4bhpp2rcd13ifvqhfg","pricing_plan_id":"free"},{"bike_id":"2d92ec99-512a-4e1c-b87c-115cc99d30f0","system_id":"levelo_inurba_marseille","lat":43.26088,"lon":5.39761,"is_reserved":false,"is_disabled":false,"rental_uris":{"android":"levelo://app?vid=2d92ec99-512a-4e1c-b87c-115cc99d30f0","ios":"levelo://app?vid=2d92ec99-512a-4e1c-b87c-115cc99d30f0"},"vehicle_type_id":"4","last_reported":1685839740,"current_range_meters":1600,"station_id":"ce4bhi12rcd13ifvqfq0","pricing_plan_id":"free"},{"bike_id":"bb56b429-5e3d-4b9e-ba10-61385bc5341f","system_id":"levelo_inurba_marseille","lat":43.254945,"lon":5.376454,"is_reserved":false,"is_disabled":false,"rental_uris":{"android":"levelo://app?vid=bb56b429-5e3d-4b9e-ba10-61385bc5341f","ios":"levelo://app?vid=bb56b429-5e3d-4b9e-ba10-61385bc5341f"},"vehicle_type_id":"4","last_reported":1685839740,"current_range_meters":31200,"station_id":"ce4bhh12rcd13ifvqff0","pricing_plan_id":"free"},{"bike_id":"ba537a26-e3eb-41f6-b782-bf969e0b3c47","system_id":"levelo_inurba_marseille","lat":43.254945,"lon":5.376454,"is_reserved":false,"is_disabled":false,"rental_uris":{"android":"levelo://app?vid=ba537a26-e3eb-41f6-b782-bf969e0b3c47","ios":"levelo://app?vid=ba537a26-e3eb-41f6-b782-bf969e0b3c47"},"vehicle_type_id":"4","last_reported":1685839740,"current_range_meters":31200,"station_id":"ce4bhh12rcd13ifvqff0","pricing_plan_id":"free"},{"bike_id":"131a09f7-6458-41fe-8d40-eabe9353db20","system_id":"levelo_inurba_marseille","lat":43.254945,"lon":5.376454,"is_reserved":false,"is_disabled":false,"rental_uris":{"android":"levelo://app?vid=131a09f7-6458-41fe-8d40-eabe9353db20","ios":"levelo://app?vid=131a09f7-6458-41fe-8d40-eabe9353db20"},"vehicle_type_id":"4","last_reported":1685839740,"current_range_meters":31200,"station_id":"ce4bhh12rcd13ifvqff0","pricing_plan_id":"free"},{"bike_id":"f3d51095-9bc2-4f08-a053-03ad06d382da","system_id":"levelo_inurba_marseille","lat":43.254945,"lon":5.376454,"is_reserved":false,"is_disabled":false,"rental_uris":{"android":"levelo://app?vid=f3d51095-9bc2-4f08-a053-03ad06d382da","ios":"levelo://app?vid=f3d51095-9bc2-4f08-a053-03ad06d382da"},"vehicle_type_id":"4","last_reported":1685839740,"current_range_meters":31200,"station_id":"ce4bhh12rcd13ifvqff0","pricing_plan_id":"free"},{"bike_id":"0267bbc6-08cf-4c5e-8373-e99a14cec4cc","system_id":"levelo_inurba_marseille","lat":43.254945,"lon":5.376454,"is_reserved":false,"is_disabled":false,"rental_uris":{"android":"levelo://app?vid=0267bbc6-08cf-4c5e-8373-e99a14cec4cc","ios":"levelo://app?vid=0267bbc6-08cf-4c5e-8373-e99a14cec4cc"},"vehicle_type_id":"4","last_reported":1685839740,"current_range_meters":31200,"station_id":"ce4bhh12rcd13ifvqff0","pricing_plan_id":"free"},{"bike_id":"0b2e7a19-1538-43bf-9f9d-718dead8b83e","system_id":"levelo_inurba_marseille","lat":43.27074,"lon":5.42278,"is_reserved":false,"is_disabled":false,"rental_uris":{"android":"levelo://app?vid=0b2e7a19-1538-43bf-9f9d-718dead8b83e","ios":"levelo://app?vid=0b2e7a19-1538-43bf-9f9d-718dead8b83e"},"vehicle_type_id":"4","last_reported":1685839740,"current_range_meters":31200,"station_id":"ce4bhk92rcd13ifvqgb0","pricing_plan_id":"free"},{"bike_id":"c0017406-555c-41f0-a788-fcaf5f67b3c6","system_id":"levelo_inurba_marseille","lat":43.270721,"lon":5.422764,"is_reserved":false,"is_disabled":false,"rental_uris":{"android":"levelo://app?vid=c0017406-555c-41f0-a788-fcaf5f67b3c6","ios":"levelo://app?vid=c0017406-555c-41f0-a788-fcaf5f67b3c6"},"vehicle_type_id":"4","last_reported":1685839740,"current_range_meters":31200,"station_id":"ce4bhk92rcd13ifvqgb0","pricing_plan_id":"free"},{"bike_id":"8f87b84b-9bce-42d0-b2f6-5811a0549e80","system_id":"levelo_inurba_marseille","lat":43.2707,"lon":5.42281,"is_reserved":false,"is_disabled":false,"rental_uris":{"android":"levelo://app?vid=8f87b84b-9bce-42d0-b2f6-5811a0549e80","ios":"levelo://app?vid=8f87b84b-9bce-42d0-b2f6-5811a0549e80"},"vehicle_type_id":"4","last_reported":1685839740,"current_range_meters":31200,"station_id":"ce4bhk92rcd13ifvqgb0","pricing_plan_id":"free"},{"bike_id":"605a70ba-7a48-4c59-a639-b804d004800d","system_id":"levelo_inurba_marseille","lat":43.258658,"lon":5.398935,"is_reserved":false,"is_disabled":false,"rental_uris":{"android":"levelo://app?vid=605a70ba-7a48-4c59-a639-b804d004800d","ios":"levelo://app?vid=605a70ba-7a48-4c59-a639-b804d004800d"},"vehicle_type_id":"4","last_reported":1685839740,"current_range_meters":17200,"station_id":"ce4bhl92rcd13ifvqghg","pricing_plan_id":"free"},{"bike_id":"59b0b156-85c5-4d6e-adae-60eb76d35fb5","system_id":"levelo_inurba_marseille","lat":43.258658,"lon":5.398935,"is_reserved":false,"is_disabled":false,"rental_uris":{"android":"levelo://app?vid=59b0b156-85c5-4d6e-adae-60eb76d35fb5","ios":"levelo://app?vid=59b0b156-85c5-4d6e-adae-60eb76d35fb5"},"vehicle_type_id":"4","last_reported":1685839740,"current_range_meters":9600,"station_id":"ce4bhl92rcd13ifvqghg","pricing_plan_id":"free"},{"bike_id":"5716e087-9568-4c4a-83f1-5e07fa5e02a2","system_id":"levelo_inurba_marseille","lat":43.258658,"lon":5.398935,"is_reserved":false,"is_disabled":false,"rental_uris":{"android":"levelo://app?vid=5716e087-9568-4c4a-83f1-5e07fa5e02a2","ios":"levelo://app?vid=5716e087-9568-4c4a-83f1-5e07fa5e02a2"},"vehicle_type_id":"4","last_reported":1685839740,"current_range_meters":29200,"station_id":"ce4bhl92rcd13ifvqghg","pricing_plan_id":"free"},{"bike_id":"8a065f1c-914c-4e39-9a27-b733ec5a900d","system_id":"levelo_inurba_marseille","lat":43.25294,"lon":5.37878,"is_reserved":false,"is_disabled":false,"rental_uris":{"android":"levelo://app?vid=8a065f1c-914c-4e39-9a27-b733ec5a900d","ios":"levelo://app?vid=8a065f1c-914c-4e39-9a27-b733ec5a900d"},"vehicle_type_id":"4","last_reported":1685839740,"current_range_meters":24800,"station_id":"","pricing_plan_id":"free"},{"bike_id":"e370656b-f8e3-4af5-b780-09cad9cf5f70","system_id":"levelo_inurba_marseille","lat":43.25946,"lon":5.409,"is_reserved":false,"is_disabled":false,"rental_uris":{"android":"levelo://app?vid=e370656b-f8e3-4af5-b780-09cad9cf5f70","ios":"levelo://app?vid=e370656b-f8e3-4af5-b780-09cad9cf5f70"},"vehicle_type_id":"4","last_reported":1685839740,"current_range_meters":21600,"station_id":"","pricing_plan_id":"free"},{"bike_id":"d5810f77-7e40-44af-8225-1c2616617c36","system_id":"levelo_inurba_marseille","lat":43.259013,"lon":5.409301,"is_reserved":false,"is_disabled":false,"rental_uris":{"android":"levelo://app?vid=d5810f77-7e40-44af-8225-1c2616617c36","ios":"levelo://app?vid=d5810f77-7e40-44af-8225-1c2616617c36"},"vehicle_type_id":"4","last_reported":1685839740,"current_range_meters":0,"station_id":"ce4bhm92rcd13ifvqglg","pricing_plan_id":"free"},{"bike_id":"42570abe-9464-4d01-954c-350ce70f2edd","system_id":"levelo_inurba_marseille","lat":43.259013,"lon":5.409301,"is_reserved":false,"is_disabled":false,"rental_uris":{"android":"levelo://app?vid=42570abe-9464-4d01-954c-350ce70f2edd","ios":"levelo://app?vid=42570abe-9464-4d01-954c-350ce70f2edd"},"vehicle_type_id":"4","last_reported":1685839740,"current_range_meters":0,"station_id":"ce4bhm92rcd13ifvqglg","pricing_plan_id":"free"},{"bike_id":"86a495a9-785d-42c3-97c7-a735e2c9ca95","system_id":"levelo_inurba_marseille","lat":43.34437,"lon":5.44252,"is_reserved":false,"is_disabled":false,"rental_uris":{"android":"levelo://app?vid=86a495a9-785d-42c3-97c7-a735e2c9ca95","ios":"levelo://app?vid=86a495a9-785d-42c3-97c7-a735e2c9ca95"},"vehicle_type_id":"4","last_reported":1685839740,"current_range_meters":0,"station_id":"","pricing_plan_id":"free"},{"bike_id":"353af0ee-a073-4b4c-8883-1c4a31f29256","system_id":"levelo_inurba_marseille","lat":43.250009,"lon":5.389195,"is_reserved":false,"is_disabled":false,"rental_uris":{"android":"levelo://app?vid=353af0ee-a073-4b4c-8883-1c4a31f29256","ios":"levelo://app?vid=353af0ee-a073-4b4c-8883-1c4a31f29256"},"vehicle_type_id":"4","last_reported":1685839740,"current_range_meters":10400,"station_id":"ce4bhgp2rcd13ifvqfd0","pricing_plan_id":"free"},{"bike_id":"8c528c42-8947-4f33-9328-5db873a188bd","system_id":"levelo_inurba_marseille","lat":43.250023,"lon":5.38919,"is_reserved":false,"is_disabled":false,"rental_uris":{"android":"levelo://app?vid=8c528c42-8947-4f33-9328-5db873a188bd","ios":"levelo://app?vid=8c528c42-8947-4f33-9328-5db873a188bd"},"vehicle_type_id":"4","last_reported":1685839740,"current_range_meters":25600,"station_id":"ce4bhgp2rcd13ifvqfd0","pricing_plan_id":"free"},{"bike_id":"e236b9b7-6354-4314-8eca-31e93b1856c5","system_id":"levelo_inurba_marseille","lat":43.2479,"lon":5.374457,"is_reserved":false,"is_disabled":false,"rental_uris":{"android":"levelo://app?vid=e236b9b7-6354-4314-8eca-31e93b1856c5","ios":"levelo://app?vid=e236b9b7-6354-4314-8eca-31e93b1856c5"},"vehicle_type_id":"4","last_reported":1685839740,"current_range_meters":31600,"station_id":"ce4bhgh2rcd13ifvqfb0","pricing_plan_id":"free"},{"bike_id":"08cddbd1-db51-48c4-b73b-a3706cd40028","system_id":"levelo_inurba_marseille","lat":43.2479,"lon":5.374457,"is_reserved":false,"is_disabled":false,"rental_uris":{"android":"levelo://app?vid=08cddbd1-db51-48c4-b73b-a3706cd40028","ios":"levelo://app?vid=08cddbd1-db51-48c4-b73b-a3706cd40028"},"vehicle_type_id":"4","last_reported":1685839740,"current_range_meters":31600,"station_id":"ce4bhgh2rcd13ifvqfb0","pricing_plan_id":"free"},{"bike_id":"4f5d7c95-0281-471b-9cc6-31d61eb71e10","system_id":"levelo_inurba_marseille","lat":43.2479,"lon":5.374457,"is_reserved":false,"is_disabled":false,"rental_uris":{"android":"levelo://app?vid=4f5d7c95-0281-471b-9cc6-31d61eb71e10","ios":"levelo://app?vid=4f5d7c95-0281-471b-9cc6-31d61eb71e10"},"vehicle_type_id":"4","last_reported":1685839740,"current_range_meters":15600,"station_id":"ce4bhgh2rcd13ifvqfb0","pricing_plan_id":"free"},{"bike_id":"ba07e79a-7772-4762-8590-23469d882b56","system_id":"levelo_inurba_marseille","lat":43.2479,"lon":5.374457,"is_reserved":false,"is_disabled":false,"rental_uris":{"android":"levelo://app?vid=ba07e79a-7772-4762-8590-23469d882b56","ios":"levelo://app?vid=ba07e79a-7772-4762-8590-23469d882b56"},"vehicle_type_id":"4","last_reported":1685839740,"current_range_meters":22000,"station_id":"ce4bhgh2rcd13ifvqfb0","pricing_plan_id":"free"},{"bike_id":"9c3fcb89-6ae5-4333-a785-b409b7ec25eb","system_id":"levelo_inurba_marseille","lat":43.25102,"lon":5.403214,"is_reserved":false,"is_disabled":false,"rental_uris":{"android":"levelo://app?vid=9c3fcb89-6ae5-4333-a785-b409b7ec25eb","ios":"levelo://app?vid=9c3fcb89-6ae5-4333-a785-b409b7ec25eb"},"vehicle_type_id":"4","last_reported":1685839740,"current_range_meters":31200,"station_id":"ce4bhlh2rcd13ifvqgig","pricing_plan_id":"free"},{"bike_id":"828d5a38-fe8c-4448-a6c4-190d3c86c8d3","system_id":"levelo_inurba_marseille","lat":43.25102,"lon":5.403214,"is_reserved":false,"is_disabled":false,"rental_uris":{"android":"levelo://app?vid=828d5a38-fe8c-4448-a6c4-190d3c86c8d3","ios":"levelo://app?vid=828d5a38-fe8c-4448-a6c4-190d3c86c8d3"},"vehicle_type_id":"4","last_reported":1685839740,"current_range_meters":31200,"station_id":"ce4bhlh2rcd13ifvqgig","pricing_plan_id":"free"},{"bike_id":"ce3e669d-e67a-4c27-b7b5-a317c5edd67d","system_id":"levelo_inurba_marseille","lat":43.25102,"lon":5.403214,"is_reserved":false,"is_disabled":false,"rental_uris":{"android":"levelo://app?vid=ce3e669d-e67a-4c27-b7b5-a317c5edd67d","ios":"levelo://app?vid=ce3e669d-e67a-4c27-b7b5-a317c5edd67d"},"vehicle_type_id":"4","last_reported":1685839740,"current_range_meters":29200,"station_id":"ce4bhlh2rcd13ifvqgig","pricing_plan_id":"free"},{"bike_id":"cb53d8b5-07a1-4a89-8907-2a6d19d6a836","system_id":"levelo_inurba_marseille","lat":43.25102,"lon":5.403214,"is_reserved":false,"is_disabled":false,"rental_uris":{"android":"levelo://app?vid=cb53d8b5-07a1-4a89-8907-2a6d19d6a836","ios":"levelo://app?vid=cb53d8b5-07a1-4a89-8907-2a6d19d6a836"},"vehicle_type_id":"4","last_reported":1685839740,"current_range_meters":27600,"station_id":"ce4bhlh2rcd13ifvqgig","pricing_plan_id":"free"},{"bike_id":"7698009b-e450-4d67-a821-f71b3f2e4f44","system_id":"levelo_inurba_marseille","lat":43.25102,"lon":5.403214,"is_reserved":false,"is_disabled":false,"rental_uris":{"android":"levelo://app?vid=7698009b-e450-4d67-a821-f71b3f2e4f44","ios":"levelo://app?vid=7698009b-e450-4d67-a821-f71b3f2e4f44"},"vehicle_type_id":"4","last_reported":1685839740,"current_range_meters":30400,"station_id":"ce4bhlh2rcd13ifvqgig","pricing_plan_id":"free"},{"bike_id":"fe8eed12-160d-4b3f-9c40-3f0342d5ef8b","system_id":"levelo_inurba_marseille","lat":43.25107,"lon":5.40308,"is_reserved":false,"is_disabled":false,"rental_uris":{"android":"levelo://app?vid=fe8eed12-160d-4b3f-9c40-3f0342d5ef8b","ios":"levelo://app?vid=fe8eed12-160d-4b3f-9c40-3f0342d5ef8b"},"vehicle_type_id":"4","last_reported":1685839740,"current_range_meters":31200,"station_id":"ce4bhlh2rcd13ifvqgig","pricing_plan_id":"free"},{"bike_id":"7483f19f-613f-47c4-84c4-211dd0e52f83","system_id":"levelo_inurba_marseille","lat":43.25102,"lon":5.403214,"is_reserved":false,"is_disabled":false,"rental_uris":{"android":"levelo://app?vid=7483f19f-613f-47c4-84c4-211dd0e52f83","ios":"levelo://app?vid=7483f19f-613f-47c4-84c4-211dd0e52f83"},"vehicle_type_id":"4","last_reported":1685839740,"current_range_meters":17600,"station_id":"ce4bhlh2rcd13ifvqgig","pricing_plan_id":"free"},{"bike_id":"34361c0c-a485-4137-88f2-ea3c0d6b88bd","system_id":"levelo_inurba_marseille","lat":43.25102,"lon":5.403214,"is_reserved":false,"is_disabled":false,"rental_uris":{"android":"levelo://app?vid=34361c0c-a485-4137-88f2-ea3c0d6b88bd","ios":"levelo://app?vid=34361c0c-a485-4137-88f2-ea3c0d6b88bd"},"vehicle_type_id":"4","last_reported":1685839740,"current_range_meters":0,"station_id":"ce4bhlh2rcd13ifvqgig","pricing_plan_id":"free"},{"bike_id":"47912536-5657-4bbe-a3f3-ae61f852431c","system_id":"levelo_inurba_marseille","lat":43.25102,"lon":5.403214,"is_reserved":false,"is_disabled":false,"rental_uris":{"android":"levelo://app?vid=47912536-5657-4bbe-a3f3-ae61f852431c","ios":"levelo://app?vid=47912536-5657-4bbe-a3f3-ae61f852431c"},"vehicle_type_id":"4","last_reported":1685839740,"current_range_meters":2800,"station_id":"ce4bhlh2rcd13ifvqgig","pricing_plan_id":"free"},{"bike_id":"8ae77b5e-541a-4803-94e5-50e8fc075cbd","system_id":"levelo_inurba_marseille","lat":43.24462,"lon":5.36911,"is_reserved":false,"is_disabled":false,"rental_uris":{"android":"levelo://app?vid=8ae77b5e-541a-4803-94e5-50e8fc075cbd","ios":"levelo://app?vid=8ae77b5e-541a-4803-94e5-50e8fc075cbd"},"vehicle_type_id":"4","last_reported":1685839740,"current_range_meters":31200,"station_id":"","pricing_plan_id":"free"},{"bike_id":"f48f61f2-f413-4add-8bc7-fa009bc0b679","system_id":"levelo_inurba_marseille","lat":43.24643,"lon":5.39158,"is_reserved":false,"is_disabled":false,"rental_uris":{"android":"levelo://app?vid=f48f61f2-f413-4add-8bc7-fa009bc0b679","ios":"levelo://app?vid=f48f61f2-f413-4add-8bc7-fa009bc0b679"},"vehicle_type_id":"4","last_reported":1685839740,"current_range_meters":19200,"station_id":"","pricing_plan_id":"free"},{"bike_id":"5d413320-2d93-47df-9016-dd82954c80b5","system_id":"levelo_inurba_marseille","lat":43.24649,"lon":5.39191,"is_reserved":false,"is_disabled":false,"rental_uris":{"android":"levelo://app?vid=5d413320-2d93-47df-9016-dd82954c80b5","ios":"levelo://app?vid=5d413320-2d93-47df-9016-dd82954c80b5"},"vehicle_type_id":"4","last_reported":1685839740,"current_range_meters":26000,"station_id":"","pricing_plan_id":"free"},{"bike_id":"90ec6158-08ad-4670-8a96-0a5e300cb0d7","system_id":"levelo_inurba_marseille","lat":43.24597,"lon":5.38974,"is_reserved":false,"is_disabled":false,"rental_uris":{"android":"levelo://app?vid=90ec6158-08ad-4670-8a96-0a5e300cb0d7","ios":"levelo://app?vid=90ec6158-08ad-4670-8a96-0a5e300cb0d7"},"vehicle_type_id":"4","last_reported":1685839740,"current_range_meters":8800,"station_id":"","pricing_plan_id":"free"},{"bike_id":"3ee586cf-8989-4392-b6fa-6b70bf941d99","system_id":"levelo_inurba_marseille","lat":43.243884,"lon":5.370737,"is_reserved":false,"is_disabled":false,"rental_uris":{"android":"levelo://app?vid=3ee586cf-8989-4392-b6fa-6b70bf941d99","ios":"levelo://app?vid=3ee586cf-8989-4392-b6fa-6b70bf941d99"},"vehicle_type_id":"4","last_reported":1685839740,"current_range_meters":30000,"station_id":"ce4bhhh2rcd13ifvqfk0","pricing_plan_id":"free"},{"bike_id":"2c8cb84b-1112-4638-840b-42a6227cf279","system_id":"levelo_inurba_marseille","lat":43.28906,"lon":5.45714,"is_reserved":false,"is_disabled":false,"rental_uris":{"android":"levelo://app?vid=2c8cb84b-1112-4638-840b-42a6227cf279","ios":"levelo://app?vid=2c8cb84b-1112-4638-840b-42a6227cf279"},"vehicle_type_id":"4","last_reported":1685839740,"current_range_meters":10000,"station_id":"","pricing_plan_id":"free"},{"bike_id":"27775441-1d6a-4956-bf71-a83355e67459","system_id":"levelo_inurba_marseille","lat":43.24075,"lon":5.37747,"is_reserved":false,"is_disabled":false,"rental_uris":{"android":"levelo://app?vid=27775441-1d6a-4956-bf71-a83355e67459","ios":"levelo://app?vid=27775441-1d6a-4956-bf71-a83355e67459"},"vehicle_type_id":"4","last_reported":1685839740,"current_range_meters":28400,"station_id":"","pricing_plan_id":"free"},{"bike_id":"36be0654-a594-495b-a31c-6463ea32f1be","system_id":"levelo_inurba_marseille","lat":43.30384,"lon":5.47453,"is_reserved":false,"is_disabled":false,"rental_uris":{"android":"levelo://app?vid=36be0654-a594-495b-a31c-6463ea32f1be","ios":"levelo://app?vid=36be0654-a594-495b-a31c-6463ea32f1be"},"vehicle_type_id":"4","last_reported":1685839740,"current_range_meters":1600,"station_id":"","pricing_plan_id":"free"},{"bike_id":"97911575-0740-4ace-9259-7ac6b2b09d9e","system_id":"levelo_inurba_marseille","lat":43.28779,"lon":5.47072,"is_reserved":false,"is_disabled":false,"rental_uris":{"android":"levelo://app?vid=97911575-0740-4ace-9259-7ac6b2b09d9e","ios":"levelo://app?vid=97911575-0740-4ace-9259-7ac6b2b09d9e"},"vehicle_type_id":"4","last_reported":1685839740,"current_range_meters":400,"station_id":"","pricing_plan_id":"free"},{"bike_id":"0403bdd3-d33f-41aa-b926-3449fdd04957","system_id":"levelo_inurba_marseille","lat":43.231923,"lon":5.355545,"is_reserved":false,"is_disabled":false,"rental_uris":{"android":"levelo://app?vid=0403bdd3-d33f-41aa-b926-3449fdd04957","ios":"levelo://app?vid=0403bdd3-d33f-41aa-b926-3449fdd04957"},"vehicle_type_id":"4","last_reported":1685839740,"current_range_meters":800,"station_id":"ce4bhu92rcd13ifvqi70","pricing_plan_id":"free"},{"bike_id":"3915b033-9705-42c2-be41-1677e4599d93","system_id":"levelo_inurba_marseille","lat":43.231923,"lon":5.355545,"is_reserved":false,"is_disabled":false,"rental_uris":{"android":"levelo://app?vid=3915b033-9705-42c2-be41-1677e4599d93","ios":"levelo://app?vid=3915b033-9705-42c2-be41-1677e4599d93"},"vehicle_type_id":"4","last_reported":1685839740,"current_range_meters":10000,"station_id":"ce4bhu92rcd13ifvqi70","pricing_plan_id":"free"},{"bike_id":"5415a139-84e4-4b13-9148-e00cf8617cfe","system_id":"levelo_inurba_marseille","lat":43.231794,"lon":5.400052,"is_reserved":false,"is_disabled":false,"rental_uris":{"android":"levelo://app?vid=5415a139-84e4-4b13-9148-e00cf8617cfe","ios":"levelo://app?vid=5415a139-84e4-4b13-9148-e00cf8617cfe"},"vehicle_type_id":"4","last_reported":1685839740,"current_range_meters":12800,"station_id":"ce4bhn12rcd13ifvqgqg","pricing_plan_id":"free"},{"bike_id":"1af805c0-6c33-4a29-95c6-2ec3262192da","system_id":"levelo_inurba_marseille","lat":43.231793,"lon":5.400044,"is_reserved":false,"is_disabled":false,"rental_uris":{"android":"levelo://app?vid=1af805c0-6c33-4a29-95c6-2ec3262192da","ios":"levelo://app?vid=1af805c0-6c33-4a29-95c6-2ec3262192da"},"vehicle_type_id":"4","last_reported":1685839740,"current_range_meters":23200,"station_id":"ce4bhn12rcd13ifvqgqg","pricing_plan_id":"free"}]}}