{"last_updated":1784151992,"ttl":60,"version":"2.2","data":{"bikes":[{"bike_id":"ba0c28b1-8732-48e2-8079-f25b2b3fbc3c","system_id":"levelo_inurba_marseille","lat":43.337444,"lon":5.374475,"is_reserved":false,"is_disabled":false,"rental_uris":{"android":"levelo://app?vid=ba0c28b1-8732-48e2-8079-f25b2b3fbc3c","ios":"levelo://app?vid=ba0c28b1-8732-48e2-8079-f25b2b3fbc3c"},"vehicle_type_id":"4","last_reported":1784151993,"current_range_meters":0,"station_id":"","pricing_plan_id":"cebpf4jnsgd1na2vs0mg"},{"bike_id":"4ea0fb8a-0f2d-4a48-a4b0-ecd5856ab21e","system_id":"levelo_inurba_marseille","lat":43.28929,"lon":5.38394,"is_reserved":false,"is_disabled":true,"rental_uris":{"android":"levelo://app?vid=4ea0fb8a-0f2d-4a48-a4b0-ecd5856ab21e","ios":"levelo://app?vid=4ea0fb8a-0f2d-4a48-a4b0-ecd5856ab21e"},"vehicle_type_id":"4","last_reported":1784151993,"current_range_meters":13600,"station_id":"ce4bh612rcd13ifvqe6g","pricing_plan_id":"cebpf4jnsgd1na2vs0mg"},{"bike_id":"a483b020-2083-45ea-9e42-b4078ccd4657","system_id":"levelo_inurba_marseille","lat":43.30924,"lon":5.40142,"is_reserved":false,"is_disabled":false,"rental_uris":{"android":"levelo://app?vid=a483b020-2083-45ea-9e42-b4078ccd4657","ios":"levelo://app?vid=a483b020-2083-45ea-9e42-b4078ccd4657"},"vehicle_type_id":"4","last_reported":1784151993,"current_range_meters":36800,"station_id":"ce4bgvp2rcd13ifvqct0","pricing_plan_id":"cebpf4jnsgd1na2vs0mg"},{"bike_id":"7ccb10b2-b34b-4f63-9d90-71f4c8373c54","system_id":"levelo_inurba_marseille","lat":43.26362,"lon":5.41089,"is_reserved":false,"is_disabled":false,"rental_uris":{"android":"levelo://app?vid=7ccb10b2-b34b-4f63-9d90-71f4c8373c54","ios":"levelo://app?vid=7ccb10b2-b34b-4f63-9d90-71f4c8373c54"},"vehicle_type_id":"4","last_reported":1784151993,"current_range_meters":2800,"station_id":"st_d4e5ca6na9uc73bfl5fg","pricing_plan_id":"cebpf4jnsgd1na2vs0mg"},{"bike_id":"9649e985-acec-4014-9d3d-53ae4dfd2c12","system_id":"levelo_inurba_marseille","lat":43.30501,"lon":5.40117,"is_reserved":false,"is_disabled":false,"rental_uris":{"android":"levelo://app?vid=9649e985-acec-4014-9d3d-53ae4dfd2c12","ios":"levelo://app?vid=9649e985-acec-4014-9d3d-53ae4dfd2c12"},"vehicle_type_id":"4","last_reported":1784151993,"current_range_meters":17600,"station_id":"","pricing_plan_id":"cebpf4jnsgd1na2vs0mg"},{"bike_id":"76b63993-96f7-484a-8343-5ea3ca2d69bf","system_id":"levelo_inurba_marseille","lat":43.27461,"lon":5.36145,"is_reserved":false,"is_disabled":false,"rental_uris":{"android":"levelo://app?vid=76b63993-96f7-484a-8343-5ea3ca2d69bf","ios":"levelo://app?vid=76b63993-96f7-484a-8343-5ea3ca2d69bf"},"vehicle_type_id":"4","last_reported":1784151993,"current_range_meters":33200,"station_id":"","pricing_plan_id":"cebpf4jnsgd1na2vs0mg"},{"bike_id":"040c043d-81a3-47a0-8c07-f9a7a526f418","system_id":"levelo_inurba_marseille","lat":43.28228,"lon":5.39047,"is_reserved":false,"is_disabled":false,"rental_uris":{"android":"levelo://app?vid=040c043d-81a3-47a0-8c07-f9a7a526f418","ios":"levelo://app?vid=040c043d-81a3-47a0-8c07-f9a7a526f418"},"vehicle_type_id":"4","last_reported":1784151993,"current_range_meters":38000,"station_id":"ce4bhn92rcd13ifvqgsg","pricing_plan_id":"cebpf4jnsgd1na2vs0mg"},{"bike_id":"0355467a-4bf1-47dd-84f8-f9fae99cadaa","system_id":"levelo_inurba_marseille","lat":43.24075,"lon":5.37742,"is_reserved":false,"is_disabled":false,"rental_uris":{"android":"levelo://app?vid=0355467a-4bf1-47dd-84f8-f9fae99cadaa","ios":"levelo://app?vid=0355467a-4bf1-47dd-84f8-f9fae99cadaa"},"vehicle_type_id":"4","last_reported":1784151993,"current_range_meters":38400,"station_id":"ce4bhnp2rcd13ifvqgvg","pricing_plan_id":"cebpf4jnsgd1na2vs0mg"},{"bike_id":"25dc49a4-4458-4dad-a9f2-23c7d1639b63","system_id":"levelo_inurba_marseille","lat":43.27874,"lon":5.38033,"is_reserved":false,"is_disabled":false,"rental_uris":{"android":"levelo://app?vid=25dc49a4-4458-4dad-a9f2-23c7d1639b63","ios":"levelo://app?vid=25dc49a4-4458-4dad-a9f2-23c7d1639b63"},"vehicle_type_id":"4","last_reported":1784151993,"current_range_meters":38400,"station_id":"ce4bhf92rcd13ifvqf50","pricing_plan_id":"cebpf4jnsgd1na2vs0mg"},{"bike_id":"cbbc587f-8b01-49c5-bb35-f91fcd0b30f8","system_id":"levelo_inurba_marseille","lat":43.29441,"lon":5.40323,"is_reserved":false,"is_disabled":false,"rental_uris":{"android":"levelo://app?vid=cbbc587f-8b01-49c5-bb35-f91fcd0b30f8","ios":"levelo://app?vid=cbbc587f-8b01-49c5-bb35-f91fcd0b30f8"},"vehicle_type_id":"4","last_reported":1784151993,"current_range_meters":8400,"station_id":"","pricing_plan_id":"cebpf4jnsgd1na2vs0mg"},{"bike_id":"e7b772bc-bb42-4677-a86b-8af91aee4efe","system_id":"levelo_inurba_marseille","lat":43.29307,"lon":5.37422,"is_reserved":false,"is_disabled":true,"rental_uris":{"android":"levelo://app?vid=e7b772bc-bb42-4677-a86b-8af91aee4efe","ios":"levelo://app?vid=e7b772bc-bb42-4677-a86b-8af91aee4efe"},"vehicle_type_id":"4","last_reported":1784151993,"current_range_meters":14800,"station_id":"ce4bgi12rcd13ifvqb70","pricing_plan_id":"cebpf4jnsgd1na2vs0mg"},{"bike_id":"93f62aaf-97ab-422a-99e3-4c99e240ad11","system_id":"levelo_inurba_marseille","lat":43.26563,"lon":5.38987,"is_reserved":false,"is_disabled":true,"rental_uris":{"android":"levelo://app?vid=93f62aaf-97ab-422a-99e3-4c99e240ad11","ios":"levelo://app?vid=93f62aaf-97ab-422a-99e3-4c99e240ad11"},"vehicle_type_id":"4","last_reported":1784151993,"current_range_meters":0,"station_id":"ce4bhe12rcd13ifvqf30","pricing_plan_id":"cebpf4jnsgd1na2vs0mg"},{"bike_id":"0391366a-8eee-49f3-9d55-05d01b9cf39a","system_id":"levelo_inurba_marseille","lat":43.28856,"lon":5.35791,"is_reserved":false,"is_disabled":false,"rental_uris":{"android":"levelo://app?vid=0391366a-8eee-49f3-9d55-05d01b9cf39a","ios":"levelo://app?vid=0391366a-8eee-49f3-9d55-05d01b9cf39a"},"vehicle_type_id":"4","last_reported":1784151993,"current_range_meters":27600,"station_id":"ce4bhb12rcd13ifvqem0","pricing_plan_id":"cebpf4jnsgd1na2vs0mg"},{"bike_id":"cd031995-05a2-45cd-aa6b-90e1afa9efad","system_id":"levelo_inurba_marseille","lat":43.26219,"lon":5.38756,"is_reserved":false,"is_disabled":false,"rental_uris":{"android":"levelo://app?vid=cd031995-05a2-45cd-aa6b-90e1afa9efad","ios":"levelo://app?vid=cd031995-05a2-45cd-aa6b-90e1afa9efad"},"vehicle_type_id":"4","last_reported":1784151993,"current_range_meters":39200,"station_id":"st_d8gjfg747rts73coq3b0","pricing_plan_id":"cebpf4jnsgd1na2vs0mg"},{"bike_id":"d25cc7c1-b35c-40e8-95e1-17ff370eade9","system_id":"levelo_inurba_marseille","lat":43.2468,"lon":5.37837,"is_reserved":false,"is_disabled":false,"rental_uris":{"android":"levelo://app?vid=d25cc7c1-b35c-40e8-95e1-17ff370eade9","ios":"levelo://app?vid=d25cc7c1-b35c-40e8-95e1-17ff370eade9"},"vehicle_type_id":"4","last_reported":1784151993,"current_range_meters":21600,"station_id":"","pricing_plan_id":"cebpf4jnsgd1na2vs0mg"},{"bike_id":"08c47c94-3393-46c2-9cc5-e595bce31c8a","system_id":"levelo_inurba_marseille","lat":43.2925,"lon":5.37638,"is_reserved":false,"is_disabled":false,"rental_uris":{"android":"levelo://app?vid=08c47c94-3393-46c2-9cc5-e595bce31c8a","ios":"levelo://app?vid=08c47c94-3393-46c2-9cc5-e595bce31c8a"},"vehicle_type_id":"4","last_reported":1784151993,"current_range_meters":39200,"station_id":"ce4bgi12rcd13ifvqb80","pricing_plan_id":"cebpf4jnsgd1na2vs0mg"},{"bike_id":"4042b532-f507-4505-9cba-a8b2ca78e957","system_id":"levelo_inurba_marseille","lat":43.26248,"lon":5.38767,"is_reserved":false,"is_disabled":false,"rental_uris":{"android":"levelo://app?vid=4042b532-f507-4505-9cba-a8b2ca78e957","ios":"levelo://app?vid=4042b532-f507-4505-9cba-a8b2ca78e957"},"vehicle_type_id":"4","last_reported":1784151993,"current_range_meters":37600,"station_id":"st_d8gjfg747rts73coq3b0","pricing_plan_id":"cebpf4jnsgd1na2vs0mg"},{"bike_id":"4dd83e35-73dd-44b8-9d3c-9c21e3418d4e","system_id":"levelo_inurba_marseille","lat":43.2749,"lon":5.4255,"is_reserved":false,"is_disabled":false,"rental_uris":{"android":"levelo://app?vid=4dd83e35-73dd-44b8-9d3c-9c21e3418d4e","ios":"levelo://app?vid=4dd83e35-73dd-44b8-9d3c-9c21e3418d4e"},"vehicle_type_id":"4","last_reported":1784151993,"current_range_meters":18800,"station_id":"st_d8t4bh7nbrqs73arha60","pricing_plan_id":"cebpf4jnsgd1na2vs0mg"},{"bike_id":"a7d4e0ee-2274-4a8a-8aa8-91b732144f98","system_id":"levelo_inurba_marseille","lat":43.27828,"lon":5.40725,"is_reserved":false,"is_disabled":false,"rental_uris":{"android":"levelo://app?vid=a7d4e0ee-2274-4a8a-8aa8-91b732144f98","ios":"levelo://app?vid=a7d4e0ee-2274-4a8a-8aa8-91b732144f98"},"vehicle_type_id":"4","last_reported":1784151993,"current_range_meters":24800,"station_id":"ce4bhnh2rcd13ifvqgtg","pricing_plan_id":"cebpf4jnsgd1na2vs0mg"},{"bike_id":"d6057eb2-9bb7-4bbb-9d1a-c165943bae0a","system_id":"levelo_inurba_marseille","lat":43.23966,"lon":5.36626,"is_reserved":false,"is_disabled":false,"rental_uris":{"android":"levelo://app?vid=d6057eb2-9bb7-4bbb-9d1a-c165943bae0a","ios":"levelo://app?vid=d6057eb2-9bb7-4bbb-9d1a-c165943bae0a"},"vehicle_type_id":"4","last_reported":1784151993,"current_range_meters":20400,"station_id":"ce4bhi12rcd13ifvqfp0","pricing_plan_id":"cebpf4jnsgd1na2vs0mg"},{"bike_id":"91d7c619-55b0-4f7e-8799-ac824d122b85","system_id":"levelo_inurba_marseille","lat":43.28457,"lon":5.35887,"is_reserved":false,"is_disabled":false,"rental_uris":{"android":"levelo://app?vid=91d7c619-55b0-4f7e-8799-ac824d122b85","ios":"levelo://app?vid=91d7c619-55b0-4f7e-8799-ac824d122b85"},"vehicle_type_id":"4","last_reported":1784151993,"current_range_meters":16800,"station_id":"ce4bhah2rcd13ifvqei0","pricing_plan_id":"cebpf4jnsgd1na2vs0mg"},{"bike_id":"1458b34d-af0e-4952-b32f-baba6272e685","system_id":"levelo_inurba_marseille","lat":43.25504,"lon":5.37653,"is_reserved":false,"is_disabled":false,"rental_uris":{"android":"levelo://app?vid=1458b34d-af0e-4952-b32f-baba6272e685","ios":"levelo://app?vid=1458b34d-af0e-4952-b32f-baba6272e685"},"vehicle_type_id":"4","last_reported":1784151993,"current_range_meters":17600,"station_id":"ce4bhh12rcd13ifvqff0","pricing_plan_id":"cebpf4jnsgd1na2vs0mg"},{"bike_id":"daf11da9-09e4-45d4-814b-e16971bc59a4","system_id":"levelo_inurba_marseille","lat":43.27971,"lon":5.38702,"is_reserved":false,"is_disabled":true,"rental_uris":{"android":"levelo://app?vid=daf11da9-09e4-45d4-814b-e16971bc59a4","ios":"levelo://app?vid=daf11da9-09e4-45d4-814b-e16971bc59a4"},"vehicle_type_id":"4","last_reported":1784151993,"current_range_meters":29600,"station_id":"ce4bhg12rcd13ifvqf80","pricing_plan_id":"cebpf4jnsgd1na2vs0mg"},{"bike_id":"a4d79a17-63b8-4c7f-b179-79ed9edf9240","system_id":"levelo_inurba_marseille","lat":43.33525,"lon":5.3746,"is_reserved":false,"is_disabled":true,"rental_uris":{"android":"levelo://app?vid=a4d79a17-63b8-4c7f-b179-79ed9edf9240","ios":"levelo://app?vid=a4d79a17-63b8-4c7f-b179-79ed9edf9240"},"vehicle_type_id":"4","last_reported":1784151993,"current_range_meters":38000,"station_id":"st_d46tts09ee8s73dlu43g","pricing_plan_id":"cebpf4jnsgd1na2vs0mg"},{"bike_id":"abc5b77a-4544-4bfe-851e-465e1981cb2e","system_id":"levelo_inurba_marseille","lat":43.30651,"lon":5.40061,"is_reserved":false,"is_disabled":false,"rental_uris":{"android":"levelo://app?vid=abc5b77a-4544-4bfe-851e-465e1981cb2e","ios":"levelo://app?vid=abc5b77a-4544-4bfe-851e-465e1981cb2e"},"vehicle_type_id":"4","last_reported":1784151993,"current_range_meters":12000,"station_id":"ce4bh112rcd13ifvqda0","pricing_plan_id":"cebpf4jnsgd1na2vs0mg"},{"bike_id":"89800b38-8625-4cae-8d75-1540654ce7f6","system_id":"levelo_inurba_marseille","lat":43.31242,"lon":5.36873,"is_reserved":false,"is_disabled":false,"rental_uris":{"android":"levelo://app?vid=89800b38-8625-4cae-8d75-1540654ce7f6","ios":"levelo://app?vid=89800b38-8625-4cae-8d75-1540654ce7f6"},"vehicle_type_id":"4","last_reported":1784151993,"current_range_meters":16800,"station_id":"ce4bgl92rcd13ifvqbq0","pricing_plan_id":"cebpf4jnsgd1na2vs0mg"},{"bike_id":"3e7ccdc7-2e55-4a4e-a827-df0ec4837e45","system_id":"levelo_inurba_marseille","lat":43.31497,"lon":5.37304,"is_reserved":false,"is_disabled":false,"rental_uris":{"android":"levelo://app?vid=3e7ccdc7-2e55-4a4e-a827-df0ec4837e45","ios":"levelo://app?vid=3e7ccdc7-2e55-4a4e-a827-df0ec4837e45"},"vehicle_type_id":"4","last_reported":1784151993,"current_range_meters":40000,"station_id":"ce4bgt12rcd13ifvqcd0","pricing_plan_id":"cebpf4jnsgd1na2vs0mg"},{"bike_id":"92451269-f8d4-4349-bee7-395bf79e1e9a","system_id":"levelo_inurba_marseille","lat":43.29658,"lon":5.37955,"is_reserved":false,"is_disabled":false,"rental_uris":{"android":"levelo://app?vid=92451269-f8d4-4349-bee7-395bf79e1e9a","ios":"levelo://app?vid=92451269-f8d4-4349-bee7-395bf79e1e9a"},"vehicle_type_id":"4","last_reported":1784151993,"current_range_meters":22800,"station_id":"","pricing_plan_id":"cebpf4jnsgd1na2vs0mg"},{"bike_id":"b7b159b6-ba7d-4cd5-9705-b4bb03362319","system_id":"levelo_inurba_marseille","lat":43.28594,"lon":5.38434,"is_reserved":false,"is_disabled":false,"rental_uris":{"android":"levelo://app?vid=b7b159b6-ba7d-4cd5-9705-b4bb03362319","ios":"levelo://app?vid=b7b159b6-ba7d-4cd5-9705-b4bb03362319"},"vehicle_type_id":"4","last_reported":1784151993,"current_range_meters":17200,"station_id":"","pricing_plan_id":"cebpf4jnsgd1na2vs0mg"},{"bike_id":"6ecdbc70-037f-43de-a75c-7affd449619c","system_id":"levelo_inurba_marseille","lat":43.25494,"lon":5.37651,"is_reserved":false,"is_disabled":false,"rental_uris":{"android":"levelo://app?vid=6ecdbc70-037f-43de-a75c-7affd449619c","ios":"levelo://app?vid=6ecdbc70-037f-43de-a75c-7affd449619c"},"vehicle_type_id":"4","last_reported":1784151993,"current_range_meters":4800,"station_id":"ce4bhh12rcd13ifvqff0","pricing_plan_id":"cebpf4jnsgd1na2vs0mg"},{"bike_id":"549d0cc4-8cf4-44cf-b2d1-2c4d5c2f5368","system_id":"levelo_inurba_marseille","lat":43.28109,"lon":5.37835,"is_reserved":false,"is_disabled":false,"rental_uris":{"android":"levelo://app?vid=549d0cc4-8cf4-44cf-b2d1-2c4d5c2f5368","ios":"levelo://app?vid=549d0cc4-8cf4-44cf-b2d1-2c4d5c2f5368"},"vehicle_type_id":"4","last_reported":1784151993,"current_range_meters":40000,"station_id":"ce4bha12rcd13ifvqee0","pricing_plan_id":"cebpf4jnsgd1na2vs0mg"},{"bike_id":"00a6d79d-9890-4f25-bbf5-bcd1f7046887","system_id":"levelo_inurba_marseille","lat":43.33777,"lon":5.3741,"is_reserved":false,"is_disabled":false,"rental_uris":{"android":"levelo://app?vid=00a6d79d-9890-4f25-bbf5-bcd1f7046887","ios":"levelo://app?vid=00a6d79d-9890-4f25-bbf5-bcd1f7046887"},"vehicle_type_id":"4","last_reported":1784151993,"current_range_meters":25200,"station_id":"","pricing_plan_id":"cebpf4jnsgd1na2vs0mg"},{"bike_id":"ef6880d0-6944-4f6a-8f40-6662368b8f75","system_id":"levelo_inurba_marseille","lat":43.3147,"lon":5.45385,"is_reserved":false,"is_disabled":false,"rental_uris":{"android":"levelo://app?vid=ef6880d0-6944-4f6a-8f40-6662368b8f75","ios":"levelo://app?vid=ef6880d0-6944-4f6a-8f40-6662368b8f75"},"vehicle_type_id":"4","last_reported":1784151993,"current_range_meters":20000,"station_id":"","pricing_plan_id":"cebpf4jnsgd1na2vs0mg"},{"bike_id":"342762a1-2ff3-49fe-9f64-f945845f11c8","system_id":"levelo_inurba_marseille","lat":43.28466,"lon":5.35887,"is_reserved":false,"is_disabled":false,"rental_uris":{"android":"levelo://app?vid=342762a1-2ff3-49fe-9f64-f945845f11c8","ios":"levelo://app?vid=342762a1-2ff3-49fe-9f64-f945845f11c8"},"vehicle_type_id":"4","last_reported":1784151993,"current_range_meters":38000,"station_id":"ce4bho92rcd13ifvqh4g","pricing_plan_id":"cebpf4jnsgd1na2vs0mg"},{"bike_id":"51fb821f-fd0e-4e74-9cfc-a95678441f0e","system_id":"levelo_inurba_marseille","lat":43.28612,"lon":5.39878,"is_reserved":false,"is_disabled":false,"rental_uris":{"android":"levelo://app?vid=51fb821f-fd0e-4e74-9cfc-a95678441f0e","ios":"levelo://app?vid=51fb821f-fd0e-4e74-9cfc-a95678441f0e"},"vehicle_type_id":"4","last_reported":1784151993,"current_range_meters":30400,"station_id":"st_d4a7ka997mjs738ck50g","pricing_plan_id":"cebpf4jnsgd1na2vs0mg"},{"bike_id":"bf7f46ab-16c0-45b1-9e14-09575cfc67ff","system_id":"levelo_inurba_marseille","lat":43.28691,"lon":5.38637,"is_reserved":false,"is_disabled":false,"rental_uris":{"android":"levelo://app?vid=bf7f46ab-16c0-45b1-9e14-09575cfc67ff","ios":"levelo://app?vid=bf7f46ab-16c0-45b1-9e14-09575cfc67ff"},"vehicle_type_id":"4","last_reported":1784151993,"current_range_meters":38000,"station_id":"ce4bh492rcd13ifvqdug","pricing_plan_id":"cebpf4jnsgd1na2vs0mg"},{"bike_id":"fc69d422-fc1d-45fe-8074-3c79aacfd0fb","system_id":"levelo_inurba_marseille","lat":43.24678,"lon":5.38149,"is_reserved":false,"is_disabled":false,"rental_uris":{"android":"levelo://app?vid=fc69d422-fc1d-45fe-8074-3c79aacfd0fb","ios":"levelo://app?vid=fc69d422-fc1d-45fe-8074-3c79aacfd0fb"},"vehicle_type_id":"4","last_reported":1784151993,"current_range_meters":28400,"station_id":"ce4bhih2rcd13ifvqfr0","pricing_plan_id":"cebpf4jnsgd1na2vs0mg"},{"bike_id":"ca2b47c7-8791-46f7-b073-f96abe15f18e","system_id":"levelo_inurba_marseille","lat":43.31261,"lon":5.36848,"is_reserved":false,"is_disabled":false,"rental_uris":{"android":"levelo://app?vid=ca2b47c7-8791-46f7-b073-f96abe15f18e","ios":"levelo://app?vid=ca2b47c7-8791-46f7-b073-f96abe15f18e"},"vehicle_type_id":"4","last_reported":1784151993,"current_range_meters":35600,"station_id":"ce4bgl92rcd13ifvqbq0","pricing_plan_id":"cebpf4jnsgd1na2vs0mg"},{"bike_id":"dc75fd1a-3397-42ba-b2ed-01d52692f326","system_id":"levelo_inurba_marseille","lat":43.2621,"lon":5.37443,"is_reserved":false,"is_disabled":false,"rental_uris":{"android":"levelo://app?vid=dc75fd1a-3397-42ba-b2ed-01d52692f326","ios":"levelo://app?vid=dc75fd1a-3397-42ba-b2ed-01d52692f326"},"vehicle_type_id":"4","last_reported":1784151993,"current_range_meters":6000,"station_id":"ce4bhgp2rcd13ifvqfc0","pricing_plan_id":"cebpf4jnsgd1na2vs0mg"},{"bike_id":"d183c213-4177-4bf2-b9e0-24872be8a9c8","system_id":"levelo_inurba_marseille","lat":43.2849,"lon":5.48387,"is_reserved":false,"is_disabled":false,"rental_uris":{"android":"levelo://app?vid=d183c213-4177-4bf2-b9e0-24872be8a9c8","ios":"levelo://app?vid=d183c213-4177-4bf2-b9e0-24872be8a9c8"},"vehicle_type_id":"4","last_reported":1784151993,"current_range_meters":25200,"station_id":"st_d3svhcjqgbts73a3dn0g","pricing_plan_id":"cebpf4jnsgd1na2vs0mg"},{"bike_id":"661100a4-a7b1-41a3-9520-4fa0fef21b66","system_id":"levelo_inurba_marseille","lat":43.25485,"lon":5.3765,"is_reserved":false,"is_disabled":false,"rental_uris":{"android":"levelo://app?vid=661100a4-a7b1-41a3-9520-4fa0fef21b66","ios":"levelo://app?vid=661100a4-a7b1-41a3-9520-4fa0fef21b66"},"vehicle_type_id":"4","last_reported":1784151993,"current_range_meters":33200,"station_id":"ce4bhh12rcd13ifvqff0","pricing_plan_id":"cebpf4jnsgd1na2vs0mg"},{"bike_id":"6f90ebaf-af58-4b04-b9dd-0eeeb5e38c7c","system_id":"levelo_inurba_marseille","lat":43.2954,"lon":5.38549,"is_reserved":false,"is_disabled":false,"rental_uris":{"android":"levelo://app?vid=6f90ebaf-af58-4b04-b9dd-0eeeb5e38c7c","ios":"levelo://app?vid=6f90ebaf-af58-4b04-b9dd-0eeeb5e38c7c"},"vehicle_type_id":"4","last_reported":1784151993,"current_range_meters":39200,"station_id":"ce4bgih2rcd13ifvqba0","pricing_plan_id":"cebpf4jnsgd1na2vs0mg"},{"bike_id":"77f0b611-8e54-40ee-804a-9a0ef852a88a","system_id":"levelo_inurba_marseille","lat":43.31234,"lon":5.36846,"is_reserved":false,"is_disabled":true,"rental_uris":{"android":"levelo://app?vid=77f0b611-8e54-40ee-804a-9a0ef852a88a","ios":"levelo://app?vid=77f0b611-8e54-40ee-804a-9a0ef852a88a"},"vehicle_type_id":"4","last_reported":1784151993,"current_range_meters":23200,"station_id":"ce4bgl92rcd13ifvqbq0","pricing_plan_id":"cebpf4jnsgd1na2vs0mg"},{"bike_id":"3d52ed38-78bf-4882-9313-b6474591023a","system_id":"levelo_inurba_marseille","lat":43.31198,"lon":5.36873,"is_reserved":false,"is_disabled":true,"rental_uris":{"android":"levelo://app?vid=3d52ed38-78bf-4882-9313-b6474591023a","ios":"levelo://app?vid=3d52ed38-78bf-4882-9313-b6474591023a"},"vehicle_type_id":"4","last_reported":1784151993,"current_range_meters":29600,"station_id":"ce4bgl92rcd13ifvqbq0","pricing_plan_id":"cebpf4jnsgd1na2vs0mg"},{"bike_id":"e4e2da61-31a3-435a-b1ec-9bb834559f2e","system_id":"levelo_inurba_marseille","lat":43.25004,"lon":5.38928,"is_reserved":false,"is_disabled":false,"rental_uris":{"android":"levelo://app?vid=e4e2da61-31a3-435a-b1ec-9bb834559f2e","ios":"levelo://app?vid=e4e2da61-31a3-435a-b1ec-9bb834559f2e"},"vehicle_type_id":"4","last_reported":1784151993,"current_range_meters":36400,"station_id":"ce4bhgp2rcd13ifvqfd0","pricing_plan_id":"cebpf4jnsgd1na2vs0mg"},{"bike_id":"e827aed9-ca14-47c5-970b-363196fc1ed0","system_id":"levelo_inurba_marseille","lat":43.26223,"lon":5.38782,"is_reserved":false,"is_disabled":false,"rental_uris":{"android":"levelo://app?vid=e827aed9-ca14-47c5-970b-363196fc1ed0","ios":"levelo://app?vid=e827aed9-ca14-47c5-970b-363196fc1ed0"},"vehicle_type_id":"4","last_reported":1784151993,"current_range_meters":28000,"station_id":"st_d8gjfg747rts73coq3b0","pricing_plan_id":"cebpf4jnsgd1na2vs0mg"},{"bike_id":"9ed7cd76-9fd3-4b9c-9fe8-35f6f2290bd8","system_id":"levelo_inurba_marseille","lat":43.29026,"lon":5.35921,"is_reserved":false,"is_disabled":false,"rental_uris":{"android":"levelo://app?vid=9ed7cd76-9fd3-4b9c-9fe8-35f6f2290bd8","ios":"levelo://app?vid=9ed7cd76-9fd3-4b9c-9fe8-35f6f2290bd8"},"vehicle_type_id":"4","last_reported":1784151993,"current_range_meters":19600,"station_id":"ce4bha92rcd13ifvqeg0","pricing_plan_id":"cebpf4jnsgd1na2vs0mg"},{"bike_id":"a1a69b09-24b9-41c1-a5e0-0454756eaf9d","system_id":"levelo_inurba_marseille","lat":43.30274,"lon":5.3772,"is_reserved":false,"is_disabled":false,"rental_uris":{"android":"levelo://app?vid=a1a69b09-24b9-41c1-a5e0-0454756eaf9d","ios":"levelo://app?vid=a1a69b09-24b9-41c1-a5e0-0454756eaf9d"},"vehicle_type_id":"4","last_reported":1784151993,"current_range_meters":20400,"station_id":"ce4bguh2rcd13ifvqcj0","pricing_plan_id":"cebpf4jnsgd1na2vs0mg"},{"bike_id":"8de8a927-d65e-478b-817e-d6577c042196","system_id":"levelo_inurba_marseille","lat":43.26236,"lon":5.38773,"is_reserved":false,"is_disabled":false,"rental_uris":{"android":"levelo://app?vid=8de8a927-d65e-478b-817e-d6577c042196","ios":"levelo://app?vid=8de8a927-d65e-478b-817e-d6577c042196"},"vehicle_type_id":"4","last_reported":1784151993,"current_range_meters":39200,"station_id":"st_d8gjfg747rts73coq3b0","pricing_plan_id":"cebpf4jnsgd1na2vs0mg"},{"bike_id":"c25bb13f-78ac-46ad-85e2-c5fdfafeb5d8","system_id":"levelo_inurba_marseille","lat":43.30187,"lon":5.38205,"is_reserved":false,"is_disabled":false,"rental_uris":{"android":"levelo://app?vid=c25bb13f-78ac-46ad-85e2-c5fdfafeb5d8","ios":"levelo://app?vid=c25bb13f-78ac-46ad-85e2-c5fdfafeb5d8"},"vehicle_type_id":"4","last_reported":1784151993,"current_range_meters":18800,"station_id":"","pricing_plan_id":"cebpf4jnsgd1na2vs0mg"},{"bike_id":"b3d23da5-3818-4c03-a551-e227276b471b","system_id":"levelo_inurba_marseille","lat":43.32496,"lon":5.36549,"is_reserved":false,"is_disabled":false,"rental_uris":{"android":"levelo://app?vid=b3d23da5-3818-4c03-a551-e227276b471b","ios":"levelo://app?vid=b3d23da5-3818-4c03-a551-e227276b471b"},"vehicle_type_id":"4","last_reported":1784151993,"current_range_meters":33600,"station_id":"ce4bhs12rcd13ifvqhvg","pricing_plan_id":"cebpf4jnsgd1na2vs0mg"},{"bike_id":"b9e704be-0c34-4347-afc4-8a347b743bdc","system_id":"levelo_inurba_marseille","lat":43.30379,"lon":5.39767,"is_reserved":false,"is_disabled":false,"rental_uris":{"android":"levelo://app?vid=b9e704be-0c34-4347-afc4-8a347b743bdc","ios":"levelo://app?vid=b9e704be-0c34-4347-afc4-8a347b743bdc"},"vehicle_type_id":"4","last_reported":1784151993,"current_range_meters":27200,"station_id":"","pricing_plan_id":"cebpf4jnsgd1na2vs0mg"},{"bike_id":"6cd48a31-aaa8-4146-8aa2-c9360304ef60","system_id":"levelo_inurba_marseille","lat":43.27808,"lon":5.4073,"is_reserved":false,"is_disabled":false,"rental_uris":{"android":"levelo://app?vid=6cd48a31-aaa8-4146-8aa2-c9360304ef60","ios":"levelo://app?vid=6cd48a31-aaa8-4146-8aa2-c9360304ef60"},"vehicle_type_id":"4","last_reported":1784151993,"current_range_meters":15200,"station_id":"ce4bhnh2rcd13ifvqgtg","pricing_plan_id":"cebpf4jnsgd1na2vs0mg"},{"bike_id":"e1bb6861-ee59-438c-aa2a-2a553b2d6f43","system_id":"levelo_inurba_marseille","lat":43.27169,"lon":5.41002,"is_reserved":false,"is_disabled":true,"rental_uris":{"android":"levelo://app?vid=e1bb6861-ee59-438c-aa2a-2a553b2d6f43","ios":"levelo://app?vid=e1bb6861-ee59-438c-aa2a-2a553b2d6f43"},"vehicle_type_id":"4","last_reported":1784151993,"current_range_meters":38000,"station_id":"ce4bhl12rcd13ifvqgf0","pricing_plan_id":"cebpf4jnsgd1na2vs0mg"},{"bike_id":"d61f5f42-3266-4ab9-bc4e-5a83331a7ece","system_id":"levelo_inurba_marseille","lat":43.25556,"lon":5.38265,"is_reserved":false,"is_disabled":true,"rental_uris":{"android":"levelo://app?vid=d61f5f42-3266-4ab9-bc4e-5a83331a7ece","ios":"levelo://app?vid=d61f5f42-3266-4ab9-bc4e-5a83331a7ece"},"vehicle_type_id":"4","last_reported":1784151993,"current_range_meters":36000,"station_id":"ce4bhih2rcd13ifvqfs0","pricing_plan_id":"cebpf4jnsgd1na2vs0mg"},{"bike_id":"06097b1f-6886-48c9-a8e6-84f03d133de4","system_id":"levelo_inurba_marseille","lat":43.31342,"lon":5.43233,"is_reserved":false,"is_disabled":false,"rental_uris":{"android":"levelo://app?vid=06097b1f-6886-48c9-a8e6-84f03d133de4","ios":"levelo://app?vid=06097b1f-6886-48c9-a8e6-84f03d133de4"},"vehicle_type_id":"4","last_reported":1784151993,"current_range_meters":5600,"station_id":"","pricing_plan_id":"cebpf4jnsgd1na2vs0mg"},{"bike_id":"34c5b572-acfb-4138-9633-fe327799f420","system_id":"levelo_inurba_marseille","lat":43.29542,"lon":5.36126,"is_reserved":false,"is_disabled":true,"rental_uris":{"android":"levelo://app?vid=34c5b572-acfb-4138-9633-fe327799f420","ios":"levelo://app?vid=34c5b572-acfb-4138-9633-fe327799f420"},"vehicle_type_id":"4","last_reported":1784151993,"current_range_meters":38400,"station_id":"","pricing_plan_id":"cebpf4jnsgd1na2vs0mg"},{"bike_id":"c70a5a1a-1138-428e-9352-e5f388c6b2fe","system_id":"levelo_inurba_marseille","lat":43.3377,"lon":5.37468,"is_reserved":false,"is_disabled":false,"rental_uris":{"android":"levelo://app?vid=c70a5a1a-1138-428e-9352-e5f388c6b2fe","ios":"levelo://app?vid=c70a5a1a-1138-428e-9352-e5f388c6b2fe"},"vehicle_type_id":"4","last_reported":1784151993,"current_range_meters":33200,"station_id":"","pricing_plan_id":"cebpf4jnsgd1na2vs0mg"},{"bike_id":"52f61720-f0ab-4be0-8955-2b7651cf9f9a","system_id":"levelo_inurba_marseille","lat":43.27493,"lon":5.42464,"is_reserved":false,"is_disabled":false,"rental_uris":{"android":"levelo://app?vid=52f61720-f0ab-4be0-8955-2b7651cf9f9a","ios":"levelo://app?vid=52f61720-f0ab-4be0-8955-2b7651cf9f9a"},"vehicle_type_id":"4","last_reported":1784151993,"current_range_meters":36400,"station_id":"ce4bhn92rcd13ifvqgrg","pricing_plan_id":"cebpf4jnsgd1na2vs0mg"},{"bike_id":"2623e023-e953-40ac-8068-15d2169ca99d","system_id":"levelo_inurba_marseille","lat":43.28707,"lon":5.46688,"is_reserved":false,"is_disabled":false,"rental_uris":{"android":"levelo://app?vid=2623e023-e953-40ac-8068-15d2169ca99d","ios":"levelo://app?vid=2623e023-e953-40ac-8068-15d2169ca99d"},"vehicle_type_id":"4","last_reported":1784151993,"current_range_meters":11200,"station_id":"st_d6tc3vkotcvc738tfjhg","pricing_plan_id":"cebpf4jnsgd1na2vs0mg"},{"bike_id":"7a5203cf-b3c3-4680-afa1-0e3d4d1fb7e2","system_id":"levelo_inurba_marseille","lat":43.23889,"lon":5.37476,"is_reserved":false,"is_disabled":false,"rental_uris":{"android":"levelo://app?vid=7a5203cf-b3c3-4680-afa1-0e3d4d1fb7e2","ios":"levelo://app?vid=7a5203cf-b3c3-4680-afa1-0e3d4d1fb7e2"},"vehicle_type_id":"4","last_reported":1784151993,"current_range_meters":33200,"station_id":"st_d6sm7csbq4hs73f8fpjg","pricing_plan_id":"cebpf4jnsgd1na2vs0mg"},{"bike_id":"b62dc545-7a8c-413a-8f72-153ae6eae1c3","system_id":"levelo_inurba_marseille","lat":43.30798,"lon":5.38151,"is_reserved":false,"is_disabled":false,"rental_uris":{"android":"levelo://app?vid=b62dc545-7a8c-413a-8f72-153ae6eae1c3","ios":"levelo://app?vid=b62dc545-7a8c-413a-8f72-153ae6eae1c3"},"vehicle_type_id":"4","last_reported":1784151993,"current_range_meters":9600,"station_id":"ce4bgt12rcd13ifvqce0","pricing_plan_id":"cebpf4jnsgd1na2vs0mg"},{"bike_id":"527415d2-3310-4374-89f4-74668fbed1a2","system_id":"levelo_inurba_marseille","lat":43.31179,"lon":5.36914,"is_reserved":false,"is_disabled":false,"rental_uris":{"android":"levelo://app?vid=527415d2-3310-4374-89f4-74668fbed1a2","ios":"levelo://app?vid=527415d2-3310-4374-89f4-74668fbed1a2"},"vehicle_type_id":"4","last_reported":1784151993,"current_range_meters":24400,"station_id":"ce4bgl92rcd13ifvqbq0","pricing_plan_id":"cebpf4jnsgd1na2vs0mg"},{"bike_id":"f9b04cff-0426-44bb-9440-4e9193de90d6","system_id":"levelo_inurba_marseille","lat":43.31282,"lon":5.36993,"is_reserved":false,"is_disabled":false,"rental_uris":{"android":"levelo://app?vid=f9b04cff-0426-44bb-9440-4e9193de90d6","ios":"levelo://app?vid=f9b04cff-0426-44bb-9440-4e9193de90d6"},"vehicle_type_id":"4","last_reported":1784151993,"current_range_meters":39200,"station_id":"","pricing_plan_id":"cebpf4jnsgd1na2vs0mg"},{"bike_id":"11123c9f-61f9-45e2-94af-d4ddb2458ccd","system_id":"levelo_inurba_marseille","lat":43.29834,"lon":5.36284,"is_reserved":false,"is_disabled":false,"rental_uris":{"android":"levelo://app?vid=11123c9f-61f9-45e2-94af-d4ddb2458ccd","ios":"levelo://app?vid=11123c9f-61f9-45e2-94af-d4ddb2458ccd"},"vehicle_type_id":"4","last_reported":1784151993,"current_range_meters":28400,"station_id":"ce4bgpp2rcd13ifvqc3g","pricing_plan_id":"cebpf4jnsgd1na2vs0mg"},{"bike_id":"d53aa255-e8ee-473c-bec9-d23ab834a76d","system_id":"levelo_inurba_marseille","lat":43.28148,"lon":5.4265,"is_reserved":false,"is_disabled":false,"rental_uris":{"android":"levelo://app?vid=d53aa255-e8ee-473c-bec9-d23ab834a76d","ios":"levelo://app?vid=d53aa255-e8ee-473c-bec9-d23ab834a76d"},"vehicle_type_id":"4","last_reported":1784151993,"current_range_meters":37600,"station_id":"ce4bhnh2rcd13ifvqgug","pricing_plan_id":"cebpf4jnsgd1na2vs0mg"},{"bike_id":"a32a9fe5-0c3b-4ba9-8fd0-c50aff1ff5c4","system_id":"levelo_inurba_marseille","lat":43.29127,"lon":5.35896,"is_reserved":false,"is_disabled":false,"rental_uris":{"android":"levelo://app?vid=a32a9fe5-0c3b-4ba9-8fd0-c50aff1ff5c4","ios":"levelo://app?vid=a32a9fe5-0c3b-4ba9-8fd0-c50aff1ff5c4"},"vehicle_type_id":"4","last_reported":1784151993,"current_range_meters":38000,"station_id":"","pricing_plan_id":"cebpf4jnsgd1na2vs0mg"},{"bike_id":"10ef5bd0-f130-4452-b7f2-391aef329ae1","system_id":"levelo_inurba_marseille","lat":43.28162,"lon":5.42646,"is_reserved":false,"is_disabled":false,"rental_uris":{"android":"levelo://app?vid=10ef5bd0-f130-4452-b7f2-391aef329ae1","ios":"levelo://app?vid=10ef5bd0-f130-4452-b7f2-391aef329ae1"},"vehicle_type_id":"4","last_reported":1784151993,"current_range_meters":38000,"station_id":"ce4bhnh2rcd13ifvqgug","pricing_plan_id":"cebpf4jnsgd1na2vs0mg"},{"bike_id":"a5f3b012-ad58-4422-b4ff-bc91482e2113","system_id":"levelo_inurba_marseille","lat":43.2668,"lon":5.38255,"is_reserved":false,"is_disabled":false,"rental_uris":{"android":"levelo://app?vid=a5f3b012-ad58-4422-b4ff-bc91482e2113","ios":"levelo://app?vid=a5f3b012-ad58-4422-b4ff-bc91482e2113"},"vehicle_type_id":"4","last_reported":1784151993,"current_range_meters":11600,"station_id":"ce4bhg92rcd13ifvqf90","pricing_plan_id":"cebpf4jnsgd1na2vs0mg"},{"bike_id":"5445239a-a338-4f42-b77d-947715ae9d91","system_id":"levelo_inurba_marseille","lat":43.25494,"lon":5.37647,"is_reserved":false,"is_disabled":false,"rental_uris":{"android":"levelo://app?vid=5445239a-a338-4f42-b77d-947715ae9d91","ios":"levelo://app?vid=5445239a-a338-4f42-b77d-947715ae9d91"},"vehicle_type_id":"4","last_reported":1784151993,"current_range_meters":23200,"station_id":"ce4bhh12rcd13ifvqff0","pricing_plan_id":"cebpf4jnsgd1na2vs0mg"},{"bike_id":"3df7b3ee-3083-4a49-a1f1-8ec2f9d7ba3b","system_id":"levelo_inurba_marseille","lat":43.26057,"lon":5.39412,"is_reserved":false,"is_disabled":false,"rental_uris":{"android":"levelo://app?vid=3df7b3ee-3083-4a49-a1f1-8ec2f9d7ba3b","ios":"levelo://app?vid=3df7b3ee-3083-4a49-a1f1-8ec2f9d7ba3b"},"vehicle_type_id":"4","last_reported":1784151993,"current_range_meters":33600,"station_id":"ce4bhh92rcd13ifvqfj0","pricing_plan_id":"cebpf4jnsgd1na2vs0mg"},{"bike_id":"03e9a8f9-886d-47d4-a62b-7bf5a1ceb804","system_id":"levelo_inurba_marseille","lat":43.2454,"lon":5.39529,"is_reserved":false,"is_disabled":false,"rental_uris":{"android":"levelo://app?vid=03e9a8f9-886d-47d4-a62b-7bf5a1ceb804","ios":"levelo://app?vid=03e9a8f9-886d-47d4-a62b-7bf5a1ceb804"},"vehicle_type_id":"4","last_reported":1784151993,"current_range_meters":9600,"station_id":"ce4bhlp2rcd13ifvqgjg","pricing_plan_id":"cebpf4jnsgd1na2vs0mg"},{"bike_id":"51e67687-adac-48d3-87a7-692cc0efb738","system_id":"levelo_inurba_marseille","lat":43.260249,"lon":5.375509,"is_reserved":false,"is_disabled":false,"rental_uris":{"android":"levelo://app?vid=51e67687-adac-48d3-87a7-692cc0efb738","ios":"levelo://app?vid=51e67687-adac-48d3-87a7-692cc0efb738"},"vehicle_type_id":"4","last_reported":1784151993,"current_range_meters":36800,"station_id":"ce4bhgh2rcd13ifvqfa0","pricing_plan_id":"cebpf4jnsgd1na2vs0mg"},{"bike_id":"4b7a59e7-ab3d-4faa-858c-47bc7b616a74","system_id":"levelo_inurba_marseille","lat":43.27339,"lon":5.39097,"is_reserved":false,"is_disabled":false,"rental_uris":{"android":"levelo://app?vid=4b7a59e7-ab3d-4faa-858c-47bc7b616a74","ios":"levelo://app?vid=4b7a59e7-ab3d-4faa-858c-47bc7b616a74"},"vehicle_type_id":"4","last_reported":1784151993,"current_range_meters":19200,"station_id":"ce4bhgp2rcd13ifvqfe0","pricing_plan_id":"cebpf4jnsgd1na2vs0mg"},{"bike_id":"57091f55-05a7-48f3-b9de-2a363c338c85","system_id":"levelo_inurba_marseille","lat":43.23895,"lon":5.37449,"is_reserved":false,"is_disabled":true,"rental_uris":{"android":"levelo://app?vid=57091f55-05a7-48f3-b9de-2a363c338c85","ios":"levelo://app?vid=57091f55-05a7-48f3-b9de-2a363c338c85"},"vehicle_type_id":"4","last_reported":1784151993,"current_range_meters":0,"station_id":"st_d6sm7csbq4hs73f8fpjg","pricing_plan_id":"cebpf4jnsgd1na2vs0mg"},{"bike_id":"5ee03f4b-159d-426a-a2ca-0b6a084e3698","system_id":"levelo_inurba_marseille","lat":43.23782,"lon":5.36632,"is_reserved":false,"is_disabled":false,"rental_uris":{"android":"levelo://app?vid=5ee03f4b-159d-426a-a2ca-0b6a084e3698","ios":"levelo://app?vid=5ee03f4b-159d-426a-a2ca-0b6a084e3698"},"vehicle_type_id":"4","last_reported":1784151993,"current_range_meters":33200,"station_id":"st_d3nk18o9ro0c73en2l3g","pricing_plan_id":"cebpf4jnsgd1na2vs0mg"},{"bike_id":"3881a700-b2f5-47cf-af67-157f64684ce7","system_id":"levelo_inurba_marseille","lat":43.27269,"lon":5.38965,"is_reserved":false,"is_disabled":false,"rental_uris":{"android":"levelo://app?vid=3881a700-b2f5-47cf-af67-157f64684ce7","ios":"levelo://app?vid=3881a700-b2f5-47cf-af67-157f64684ce7"},"vehicle_type_id":"4","last_reported":1784151993,"current_range_meters":2800,"station_id":"","pricing_plan_id":"cebpf4jnsgd1na2vs0mg"},{"bike_id":"e9700518-bfab-4e19-9c8e-e3cb6414cf72","system_id":"levelo_inurba_marseille","lat":43.29194,"lon":5.35784,"is_reserved":false,"is_disabled":true,"rental_uris":{"android":"levelo://app?vid=e9700518-bfab-4e19-9c8e-e3cb6414cf72","ios":"levelo://app?vid=e9700518-bfab-4e19-9c8e-e3cb6414cf72"},"vehicle_type_id":"4","last_reported":1784151993,"current_range_meters":18800,"station_id":"ce4bhb12rcd13ifvqel0","pricing_plan_id":"cebpf4jnsgd1na2vs0mg"},{"bike_id":"169213bf-733e-4b41-b64d-17aaa8e3c5bb","system_id":"levelo_inurba_marseille","lat":43.26938,"lon":5.38669,"is_reserved":false,"is_disabled":false,"rental_uris":{"android":"levelo://app?vid=169213bf-733e-4b41-b64d-17aaa8e3c5bb","ios":"levelo://app?vid=169213bf-733e-4b41-b64d-17aaa8e3c5bb"},"vehicle_type_id":"4","last_reported":1784151993,"current_range_meters":39200,"station_id":"ce4bhh92rcd13ifvqfh0","pricing_plan_id":"cebpf4jnsgd1na2vs0mg"},{"bike_id":"94c9ef49-e00d-419e-a588-e0f66f0f90a7","system_id":"levelo_inurba_marseille","lat":43.27987,"lon":5.38261,"is_reserved":false,"is_disabled":false,"rental_uris":{"android":"levelo://app?vid=94c9ef49-e00d-419e-a588-e0f66f0f90a7","ios":"levelo://app?vid=94c9ef49-e00d-419e-a588-e0f66f0f90a7"},"vehicle_type_id":"4","last_reported":1784151993,"current_range_meters":6000,"station_id":"","pricing_plan_id":"cebpf4jnsgd1na2vs0mg"},{"bike_id":"aa81239f-7290-4667-a713-744f29ca3d00","system_id":"levelo_inurba_marseille","lat":43.31368,"lon":5.38479,"is_reserved":false,"is_disabled":false,"rental_uris":{"android":"levelo://app?vid=aa81239f-7290-4667-a713-744f29ca3d00","ios":"levelo://app?vid=aa81239f-7290-4667-a713-744f29ca3d00"},"vehicle_type_id":"4","last_reported":1784151993,"current_range_meters":33200,"station_id":"ce4bgt92rcd13ifvqcf0","pricing_plan_id":"cebpf4jnsgd1na2vs0mg"},{"bike_id":"ed380857-49cf-4638-b5c5-4ca067018391","system_id":"levelo_inurba_marseille","lat":43.29865,"lon":5.36265,"is_reserved":false,"is_disabled":false,"rental_uris":{"android":"levelo://app?vid=ed380857-49cf-4638-b5c5-4ca067018391","ios":"levelo://app?vid=ed380857-49cf-4638-b5c5-4ca067018391"},"vehicle_type_id":"4","last_reported":1784151993,"current_range_meters":8800,"station_id":"ce4bgpp2rcd13ifvqc3g","pricing_plan_id":"cebpf4jnsgd1na2vs0mg"},{"bike_id":"4a7eaf6c-ea42-4513-9dcf-f7f08fab0fdb","system_id":"levelo_inurba_marseille","lat":43.31373,"lon":5.38151,"is_reserved":false,"is_disabled":false,"rental_uris":{"android":"levelo://app?vid=4a7eaf6c-ea42-4513-9dcf-f7f08fab0fdb","ios":"levelo://app?vid=4a7eaf6c-ea42-4513-9dcf-f7f08fab0fdb"},"vehicle_type_id":"4","last_reported":1784151993,"current_range_meters":23200,"station_id":"","pricing_plan_id":"cebpf4jnsgd1na2vs0mg"},{"bike_id":"331f3c42-16cf-4b7d-86b2-9b6a902781d9","system_id":"levelo_inurba_marseille","lat":43.29878,"lon":5.36281,"is_reserved":false,"is_disabled":true,"rental_uris":{"android":"levelo://app?vid=331f3c42-16cf-4b7d-86b2-9b6a902781d9","ios":"levelo://app?vid=331f3c42-16cf-4b7d-86b2-9b6a902781d9"},"vehicle_type_id":"4","last_reported":1784151993,"current_range_meters":12400,"station_id":"ce4bgpp2rcd13ifvqc3g","pricing_plan_id":"cebpf4jnsgd1na2vs0mg"},{"bike_id":"5aa818bb-d89d-415b-8b4c-85cb4ccb8ca7","system_id":"levelo_inurba_marseille","lat":43.29847,"lon":5.3627,"is_reserved":false,"is_disabled":false,"rental_uris":{"android":"levelo://app?vid=5aa818bb-d89d-415b-8b4c-85cb4ccb8ca7","ios":"levelo://app?vid=5aa818bb-d89d-415b-8b4c-85cb4ccb8ca7"},"vehicle_type_id":"4","last_reported":1784151993,"current_range_meters":11200,"station_id":"ce4bgpp2rcd13ifvqc3g","pricing_plan_id":"cebpf4jnsgd1na2vs0mg"},{"bike_id":"0852ce7d-b59c-464a-9746-e5ee61ec41c7","system_id":"levelo_inurba_marseille","lat":43.28075,"lon":5.39643,"is_reserved":false,"is_disabled":false,"rental_uris":{"android":"levelo://app?vid=0852ce7d-b59c-464a-9746-e5ee61ec41c7","ios":"levelo://app?vid=0852ce7d-b59c-464a-9746-e5ee61ec41c7"},"vehicle_type_id":"4","last_reported":1784151993,"current_range_meters":6400,"station_id":"ce4bho12rcd13ifvqh2g","pricing_plan_id":"cebpf4jnsgd1na2vs0mg"},{"bike_id":"069a3029-e23d-4a4e-9deb-dd40f9ed318c","system_id":"levelo_inurba_marseille","lat":43.30793,"lon":5.38164,"is_reserved":false,"is_disabled":false,"rental_uris":{"android":"levelo://app?vid=069a3029-e23d-4a4e-9deb-dd40f9ed318c","ios":"levelo://app?vid=069a3029-e23d-4a4e-9deb-dd40f9ed318c"},"vehicle_type_id":"4","last_reported":1784151993,"current_range_meters":35600,"station_id":"ce4bgt12rcd13ifvqce0","pricing_plan_id":"cebpf4jnsgd1na2vs0mg"},{"bike_id":"d961209a-b67b-4b38-87ff-6951d64d7341","system_id":"levelo_inurba_marseille","lat":43.28207,"lon":5.39068,"is_reserved":false,"is_disabled":false,"rental_uris":{"android":"levelo://app?vid=d961209a-b67b-4b38-87ff-6951d64d7341","ios":"levelo://app?vid=d961209a-b67b-4b38-87ff-6951d64d7341"},"vehicle_type_id":"4","last_reported":1784151993,"current_range_meters":29600,"station_id":"ce4bhn92rcd13ifvqgsg","pricing_plan_id":"cebpf4jnsgd1na2vs0mg"},{"bike_id":"55bc1f3e-40e9-43a5-b6e0-601d907e1d30","system_id":"levelo_inurba_marseille","lat":43.28473,"lon":5.38439,"is_reserved":false,"is_disabled":false,"rental_uris":{"android":"levelo://app?vid=55bc1f3e-40e9-43a5-b6e0-601d907e1d30","ios":"levelo://app?vid=55bc1f3e-40e9-43a5-b6e0-601d907e1d30"},"vehicle_type_id":"4","last_reported":1784151993,"current_range_meters":20400,"station_id":"ce4bh512rcd13ifvqe3g","pricing_plan_id":"cebpf4jnsgd1na2vs0mg"},{"bike_id":"7abfca80-7cdd-4a41-b507-c3c15b674fd2","system_id":"levelo_inurba_marseille","lat":43.28928,"lon":5.38401,"is_reserved":false,"is_disabled":false,"rental_uris":{"android":"levelo://app?vid=7abfca80-7cdd-4a41-b507-c3c15b674fd2","ios":"levelo://app?vid=7abfca80-7cdd-4a41-b507-c3c15b674fd2"},"vehicle_type_id":"4","last_reported":1784151993,"current_range_meters":14800,"station_id":"ce4bh612rcd13ifvqe6g","pricing_plan_id":"cebpf4jnsgd1na2vs0mg"},{"bike_id":"e7214ffe-3c7d-40bd-9508-b392c8d6378d","system_id":"levelo_inurba_marseille","lat":43.29015,"lon":5.37564,"is_reserved":false,"is_disabled":true,"rental_uris":{"android":"levelo://app?vid=e7214ffe-3c7d-40bd-9508-b392c8d6378d","ios":"levelo://app?vid=e7214ffe-3c7d-40bd-9508-b392c8d6378d"},"vehicle_type_id":"4","last_reported":1784151993,"current_range_meters":39200,"station_id":"ce4bh692rcd13ifvqe90","pricing_plan_id":"cebpf4jnsgd1na2vs0mg"},{"bike_id":"d0dca651-580c-4704-be18-23cce9e78d40","system_id":"levelo_inurba_marseille","lat":43.23944,"lon":5.36669,"is_reserved":false,"is_disabled":false,"rental_uris":{"android":"levelo://app?vid=d0dca651-580c-4704-be18-23cce9e78d40","ios":"levelo://app?vid=d0dca651-580c-4704-be18-23cce9e78d40"},"vehicle_type_id":"4","last_reported":1784151993,"current_range_meters":18000,"station_id":"ce4bhi12rcd13ifvqfp0","pricing_plan_id":"cebpf4jnsgd1na2vs0mg"},{"bike_id":"81587832-75ed-49cd-91c3-f57f9b8cec45","system_id":"levelo_inurba_marseille","lat":43.29051,"lon":5.35912,"is_reserved":false,"is_disabled":true,"rental_uris":{"android":"levelo://app?vid=81587832-75ed-49cd-91c3-f57f9b8cec45","ios":"levelo://app?vid=81587832-75ed-49cd-91c3-f57f9b8cec45"},"vehicle_type_id":"4","last_reported":1784151993,"current_range_meters":18800,"station_id":"ce4bha92rcd13ifvqeg0","pricing_plan_id":"cebpf4jnsgd1na2vs0mg"},{"bike_id":"d4037206-0988-49a5-9589-9cf52ca0b5da","system_id":"levelo_inurba_marseille","lat":43.30337,"lon":5.40728,"is_reserved":false,"is_disabled":false,"rental_uris":{"android":"levelo://app?vid=d4037206-0988-49a5-9589-9cf52ca0b5da","ios":"levelo://app?vid=d4037206-0988-49a5-9589-9cf52ca0b5da"},"vehicle_type_id":"4","last_reported":1784151993,"current_range_meters":2800,"station_id":"","pricing_plan_id":"cebpf4jnsgd1na2vs0mg"},{"bike_id":"88a62dbe-493c-42c6-91d9-4bf79be3a821","system_id":"levelo_inurba_marseille","lat":43.28362,"lon":5.38094,"is_reserved":false,"is_disabled":false,"rental_uris":{"android":"levelo://app?vid=88a62dbe-493c-42c6-91d9-4bf79be3a821","ios":"levelo://app?vid=88a62dbe-493c-42c6-91d9-4bf79be3a821"},"vehicle_type_id":"4","last_reported":1784151993,"current_range_meters":36400,"station_id":"ce4bh412rcd13ifvqdr0","pricing_plan_id":"cebpf4jnsgd1na2vs0mg"},{"bike_id":"47aa8bb9-bbbe-438d-a04e-c6d7882bdd46","system_id":"levelo_inurba_marseille","lat":43.29281,"lon":5.4015,"is_reserved":false,"is_disabled":false,"rental_uris":{"android":"levelo://app?vid=47aa8bb9-bbbe-438d-a04e-c6d7882bdd46","ios":"levelo://app?vid=47aa8bb9-bbbe-438d-a04e-c6d7882bdd46"},"vehicle_type_id":"4","last_reported":1784151993,"current_range_meters":14000,"station_id":"ce4bh312rcd13ifvqdk0","pricing_plan_id":"cebpf4jnsgd1na2vs0mg"},{"bike_id":"4b911392-ef14-41c9-9b8b-9cc75ade3e33","system_id":"levelo_inurba_marseille","lat":43.25496,"lon":5.37658,"is_reserved":false,"is_disabled":false,"rental_uris":{"android":"levelo://app?vid=4b911392-ef14-41c9-9b8b-9cc75ade3e33","ios":"levelo://app?vid=4b911392-ef14-41c9-9b8b-9cc75ade3e33"},"vehicle_type_id":"4","last_reported":1784151993,"current_range_meters":33600,"station_id":"ce4bhh12rcd13ifvqff0","pricing_plan_id":"cebpf4jnsgd1na2vs0mg"},{"bike_id":"e094afb8-e9b4-4c9e-86a7-9875a2fe40c7","system_id":"levelo_inurba_marseille","lat":43.29808,"lon":5.44064,"is_reserved":false,"is_disabled":false,"rental_uris":{"android":"levelo://app?vid=e094afb8-e9b4-4c9e-86a7-9875a2fe40c7","ios":"levelo://app?vid=e094afb8-e9b4-4c9e-86a7-9875a2fe40c7"},"vehicle_type_id":"4","last_reported":1784151993,"current_range_meters":38800,"station_id":"st_d3jp68qikq2c7381ktn0","pricing_plan_id":"cebpf4jnsgd1na2vs0mg"},{"bike_id":"c6ac626d-aef6-478f-8af0-d0de9fa8be85","system_id":"levelo_inurba_marseille","lat":43.22712,"lon":5.34834,"is_reserved":false,"is_disabled":false,"rental_uris":{"android":"levelo://app?vid=c6ac626d-aef6-478f-8af0-d0de9fa8be85","ios":"levelo://app?vid=c6ac626d-aef6-478f-8af0-d0de9fa8be85"},"vehicle_type_id":"4","last_reported":1784151993,"current_range_meters":11600,"station_id":"","pricing_plan_id":"cebpf4jnsgd1na2vs0mg"},{"bike_id":"e8976180-d139-402b-b8a5-104a73f8a7c2","system_id":"levelo_inurba_marseille","lat":43.29922,"lon":5.43051,"is_reserved":false,"is_disabled":false,"rental_uris":{"android":"levelo://app?vid=e8976180-d139-402b-b8a5-104a73f8a7c2","ios":"levelo://app?vid=e8976180-d139-402b-b8a5-104a73f8a7c2"},"vehicle_type_id":"4","last_reported":1784151993,"current_range_meters":16400,"station_id":"","pricing_plan_id":"cebpf4jnsgd1na2vs0mg"},{"bike_id":"f15b10d6-c036-41c7-95f4-4b8a6655f1be","system_id":"levelo_inurba_marseille","lat":43.28416,"lon":5.37522,"is_reserved":false,"is_disabled":false,"rental_uris":{"android":"levelo://app?vid=f15b10d6-c036-41c7-95f4-4b8a6655f1be","ios":"levelo://app?vid=f15b10d6-c036-41c7-95f4-4b8a6655f1be"},"vehicle_type_id":"4","last_reported":1784151993,"current_range_meters":32000,"station_id":"ce4bh412rcd13ifvqds0","pricing_plan_id":"cebpf4jnsgd1na2vs0mg"},{"bike_id":"ceea90dc-aba2-42cf-8305-f588021ccebe","system_id":"levelo_inurba_marseille","lat":43.31362,"lon":5.38488,"is_reserved":false,"is_disabled":false,"rental_uris":{"android":"levelo://app?vid=ceea90dc-aba2-42cf-8305-f588021ccebe","ios":"levelo://app?vid=ceea90dc-aba2-42cf-8305-f588021ccebe"},"vehicle_type_id":"4","last_reported":1784151993,"current_range_meters":40000,"station_id":"ce4bgt92rcd13ifvqcf0","pricing_plan_id":"cebpf4jnsgd1na2vs0mg"},{"bike_id":"0c964dab-40ec-49b5-8e4d-a4ff83f48bf2","system_id":"levelo_inurba_marseille","lat":43.27953,"lon":5.39105,"is_reserved":false,"is_disabled":false,"rental_uris":{"android":"levelo://app?vid=0c964dab-40ec-49b5-8e4d-a4ff83f48bf2","ios":"levelo://app?vid=0c964dab-40ec-49b5-8e4d-a4ff83f48bf2"},"vehicle_type_id":"4","last_reported":1784151993,"current_range_meters":30400,"station_id":"","pricing_plan_id":"cebpf4jnsgd1na2vs0mg"},{"bike_id":"6224e227-7d0a-40cd-8ccc-b2e0d0d9f84f","system_id":"levelo_inurba_marseille","lat":43.314,"lon":5.38801,"is_reserved":false,"is_disabled":false,"rental_uris":{"android":"levelo://app?vid=6224e227-7d0a-40cd-8ccc-b2e0d0d9f84f","ios":"levelo://app?vid=6224e227-7d0a-40cd-8ccc-b2e0d0d9f84f"},"vehicle_type_id":"4","last_reported":1784151993,"current_range_meters":18000,"station_id":"","pricing_plan_id":"cebpf4jnsgd1na2vs0mg"},{"bike_id":"7ff8118f-6c81-4cdf-8a1d-4753d954065d","system_id":"levelo_inurba_marseille","lat":43.2962,"lon":5.37976,"is_reserved":false,"is_disabled":false,"rental_uris":{"android":"levelo://app?vid=7ff8118f-6c81-4cdf-8a1d-4753d954065d","ios":"levelo://app?vid=7ff8118f-6c81-4cdf-8a1d-4753d954065d"},"vehicle_type_id":"4","last_reported":1784151993,"current_range_meters":16400,"station_id":"","pricing_plan_id":"cebpf4jnsgd1na2vs0mg"},{"bike_id":"7d9aee17-e1b8-4f5e-bcad-64c7c24e1aaf","system_id":"levelo_inurba_marseille","lat":43.29276,"lon":5.40894,"is_reserved":false,"is_disabled":false,"rental_uris":{"android":"levelo://app?vid=7d9aee17-e1b8-4f5e-bcad-64c7c24e1aaf","ios":"levelo://app?vid=7d9aee17-e1b8-4f5e-bcad-64c7c24e1aaf"},"vehicle_type_id":"4","last_reported":1784151993,"current_range_meters":35600,"station_id":"ce4bh192rcd13ifvqdc0","pricing_plan_id":"cebpf4jnsgd1na2vs0mg"},{"bike_id":"de163011-6b02-44c4-8d7f-1c724f9579ae","system_id":"levelo_inurba_marseille","lat":43.28537,"lon":5.44104,"is_reserved":false,"is_disabled":false,"rental_uris":{"android":"levelo://app?vid=de163011-6b02-44c4-8d7f-1c724f9579ae","ios":"levelo://app?vid=de163011-6b02-44c4-8d7f-1c724f9579ae"},"vehicle_type_id":"4","last_reported":1784151993,"current_range_meters":39200,"station_id":"st_d3j3df2ikq2c7380ej80","pricing_plan_id":"cebpf4jnsgd1na2vs0mg"},{"bike_id":"7e5aaabf-5d20-4e0c-b827-d85976106417","system_id":"levelo_inurba_marseille","lat":43.28563,"lon":5.39497,"is_reserved":false,"is_disabled":false,"rental_uris":{"android":"levelo://app?vid=7e5aaabf-5d20-4e0c-b827-d85976106417","ios":"levelo://app?vid=7e5aaabf-5d20-4e0c-b827-d85976106417"},"vehicle_type_id":"4","last_reported":1784151993,"current_range_meters":39200,"station_id":"ce4bh292rcd13ifvqdg0","pricing_plan_id":"cebpf4jnsgd1na2vs0mg"},{"bike_id":"c8753191-b242-4423-bc94-7bdfbbb26d1b","system_id":"levelo_inurba_marseille","lat":43.29583,"lon":5.38587,"is_reserved":false,"is_disabled":false,"rental_uris":{"android":"levelo://app?vid=c8753191-b242-4423-bc94-7bdfbbb26d1b","ios":"levelo://app?vid=c8753191-b242-4423-bc94-7bdfbbb26d1b"},"vehicle_type_id":"4","last_reported":1784151993,"current_range_meters":38400,"station_id":"","pricing_plan_id":"cebpf4jnsgd1na2vs0mg"},{"bike_id":"67519f54-be61-4c9c-8159-ccb28b4ee63b","system_id":"levelo_inurba_marseille","lat":43.30681,"lon":5.38421,"is_reserved":false,"is_disabled":false,"rental_uris":{"android":"levelo://app?vid=67519f54-be61-4c9c-8159-ccb28b4ee63b","ios":"levelo://app?vid=67519f54-be61-4c9c-8159-ccb28b4ee63b"},"vehicle_type_id":"4","last_reported":1784151993,"current_range_meters":12800,"station_id":"","pricing_plan_id":"cebpf4jnsgd1na2vs0mg"},{"bike_id":"bff190af-5ff9-4e35-a77d-9727c07971de","system_id":"levelo_inurba_marseille","lat":43.31126,"lon":5.37764,"is_reserved":false,"is_disabled":false,"rental_uris":{"android":"levelo://app?vid=bff190af-5ff9-4e35-a77d-9727c07971de","ios":"levelo://app?vid=bff190af-5ff9-4e35-a77d-9727c07971de"},"vehicle_type_id":"4","last_reported":1784151993,"current_range_meters":39200,"station_id":"ce4bgt92rcd13ifvqcg0","pricing_plan_id":"cebpf4jnsgd1na2vs0mg"},{"bike_id":"0d9088f7-bbe4-4824-98ee-ab749cbdbd5e","system_id":"levelo_inurba_marseille","lat":43.26575,"lon":5.39001,"is_reserved":false,"is_disabled":false,"rental_uris":{"android":"levelo://app?vid=0d9088f7-bbe4-4824-98ee-ab749cbdbd5e","ios":"levelo://app?vid=0d9088f7-bbe4-4824-98ee-ab749cbdbd5e"},"vehicle_type_id":"4","last_reported":1784151993,"current_range_meters":18000,"station_id":"ce4bhe12rcd13ifvqf30","pricing_plan_id":"cebpf4jnsgd1na2vs0mg"},{"bike_id":"6b7bc794-a8b6-4b15-bdfb-b2fb240ae758","system_id":"levelo_inurba_marseille","lat":43.28408,"lon":5.34982,"is_reserved":false,"is_disabled":true,"rental_uris":{"android":"levelo://app?vid=6b7bc794-a8b6-4b15-bdfb-b2fb240ae758","ios":"levelo://app?vid=6b7bc794-a8b6-4b15-bdfb-b2fb240ae758"},"vehicle_type_id":"4","last_reported":1784151993,"current_range_meters":40000,"station_id":"ce4bhbh2rcd13ifvqepg","pricing_plan_id":"cebpf4jnsgd1na2vs0mg"},{"bike_id":"d23c7d19-904e-4735-9968-d7b28d2ac114","system_id":"levelo_inurba_marseille","lat":43.28036,"lon":5.36937,"is_reserved":false,"is_disabled":false,"rental_uris":{"android":"levelo://app?vid=d23c7d19-904e-4735-9968-d7b28d2ac114","ios":"levelo://app?vid=d23c7d19-904e-4735-9968-d7b28d2ac114"},"vehicle_type_id":"4","last_reported":1784151993,"current_range_meters":36000,"station_id":"ce4bha12rcd13ifvqef0","pricing_plan_id":"cebpf4jnsgd1na2vs0mg"},{"bike_id":"8ba6af2e-4ee2-4412-818d-054fc08ee6ac","system_id":"levelo_inurba_marseille","lat":43.28345,"lon":5.38117,"is_reserved":false,"is_disabled":true,"rental_uris":{"android":"levelo://app?vid=8ba6af2e-4ee2-4412-818d-054fc08ee6ac","ios":"levelo://app?vid=8ba6af2e-4ee2-4412-818d-054fc08ee6ac"},"vehicle_type_id":"4","last_reported":1784151993,"current_range_meters":800,"station_id":"ce4bh412rcd13ifvqdr0","pricing_plan_id":"cebpf4jnsgd1na2vs0mg"},{"bike_id":"d6b0724d-3030-4e7b-8778-a4d582b3070a","system_id":"levelo_inurba_marseille","lat":43.2861,"lon":5.35105,"is_reserved":false,"is_disabled":true,"rental_uris":{"android":"levelo://app?vid=d6b0724d-3030-4e7b-8778-a4d582b3070a","ios":"levelo://app?vid=d6b0724d-3030-4e7b-8778-a4d582b3070a"},"vehicle_type_id":"4","last_reported":1784151993,"current_range_meters":30400,"station_id":"ce4bhch2rcd13ifvqeug","pricing_plan_id":"cebpf4jnsgd1na2vs0mg"},{"bike_id":"b6a4890d-997f-42d9-85c0-811ebddfc959","system_id":"levelo_inurba_marseille","lat":43.28661,"lon":5.36366,"is_reserved":false,"is_disabled":false,"rental_uris":{"android":"levelo://app?vid=b6a4890d-997f-42d9-85c0-811ebddfc959","ios":"levelo://app?vid=b6a4890d-997f-42d9-85c0-811ebddfc959"},"vehicle_type_id":"4","last_reported":1784151993,"current_range_meters":35200,"station_id":"ce4bhah2rcd13ifvqej0","pricing_plan_id":"cebpf4jnsgd1na2vs0mg"},{"bike_id":"da085bd4-e387-428b-86f4-5fcca2af242c","system_id":"levelo_inurba_marseille","lat":43.31126,"lon":5.37766,"is_reserved":false,"is_disabled":false,"rental_uris":{"android":"levelo://app?vid=da085bd4-e387-428b-86f4-5fcca2af242c","ios":"levelo://app?vid=da085bd4-e387-428b-86f4-5fcca2af242c"},"vehicle_type_id":"4","last_reported":1784151993,"current_range_meters":26000,"station_id":"ce4bgt92rcd13ifvqcg0","pricing_plan_id":"cebpf4jnsgd1na2vs0mg"},{"bike_id":"faf47c97-9a06-42ff-a560-793302d437ca","system_id":"levelo_inurba_marseille","lat":43.28672,"lon":5.3635,"is_reserved":false,"is_disabled":false,"rental_uris":{"android":"levelo://app?vid=faf47c97-9a06-42ff-a560-793302d437ca","ios":"levelo://app?vid=faf47c97-9a06-42ff-a560-793302d437ca"},"vehicle_type_id":"4","last_reported":1784151993,"current_range_meters":35600,"station_id":"ce4bhah2rcd13ifvqej0","pricing_plan_id":"cebpf4jnsgd1na2vs0mg"},{"bike_id":"60162809-8111-4a52-aae5-c50399956595","system_id":"levelo_inurba_marseille","lat":43.29551,"lon":5.39021,"is_reserved":false,"is_disabled":true,"rental_uris":{"android":"levelo://app?vid=60162809-8111-4a52-aae5-c50399956595","ios":"levelo://app?vid=60162809-8111-4a52-aae5-c50399956595"},"vehicle_type_id":"4","last_reported":1784151993,"current_range_meters":22800,"station_id":"ce4bh3p2rcd13ifvqdp0","pricing_plan_id":"cebpf4jnsgd1na2vs0mg"},{"bike_id":"f2fe406b-0cdc-4984-8a3b-1a549de4a6bd","system_id":"levelo_inurba_marseille","lat":43.33758,"lon":5.37428,"is_reserved":false,"is_disabled":false,"rental_uris":{"android":"levelo://app?vid=f2fe406b-0cdc-4984-8a3b-1a549de4a6bd","ios":"levelo://app?vid=f2fe406b-0cdc-4984-8a3b-1a549de4a6bd"},"vehicle_type_id":"4","last_reported":1784151993,"current_range_meters":20800,"station_id":"","pricing_plan_id":"cebpf4jnsgd1na2vs0mg"},{"bike_id":"1e628dec-3141-48e0-b510-1c285ab03f4c","system_id":"levelo_inurba_marseille","lat":43.26369,"lon":5.41,"is_reserved":false,"is_disabled":true,"rental_uris":{"android":"levelo://app?vid=1e628dec-3141-48e0-b510-1c285ab03f4c","ios":"levelo://app?vid=1e628dec-3141-48e0-b510-1c285ab03f4c"},"vehicle_type_id":"4","last_reported":1784151993,"current_range_meters":6800,"station_id":"st_d4e5ca6na9uc73bfl5fg","pricing_plan_id":"cebpf4jnsgd1na2vs0mg"},{"bike_id":"8337f5b4-2806-4bc0-9f71-af183adb5db8","system_id":"levelo_inurba_marseille","lat":43.231359,"lon":5.437577,"is_reserved":false,"is_disabled":false,"rental_uris":{"android":"levelo://app?vid=8337f5b4-2806-4bc0-9f71-af183adb5db8","ios":"levelo://app?vid=8337f5b4-2806-4bc0-9f71-af183adb5db8"},"vehicle_type_id":"4","last_reported":1784151993,"current_range_meters":6800,"station_id":"","pricing_plan_id":"cebpf4jnsgd1na2vs0mg"},{"bike_id":"0e80f4be-aa62-4d4f-a88f-c49843efcd83","system_id":"levelo_inurba_marseille","lat":43.25089,"lon":5.41344,"is_reserved":false,"is_disabled":true,"rental_uris":{"android":"levelo://app?vid=0e80f4be-aa62-4d4f-a88f-c49843efcd83","ios":"levelo://app?vid=0e80f4be-aa62-4d4f-a88f-c49843efcd83"},"vehicle_type_id":"4","last_reported":1784151993,"current_range_meters":12800,"station_id":"","pricing_plan_id":"cebpf4jnsgd1na2vs0mg"},{"bike_id":"784530cd-3156-47d5-baf0-e60e83e96852","system_id":"levelo_inurba_marseille","lat":43.28592,"lon":5.39942,"is_reserved":false,"is_disabled":false,"rental_uris":{"android":"levelo://app?vid=784530cd-3156-47d5-baf0-e60e83e96852","ios":"levelo://app?vid=784530cd-3156-47d5-baf0-e60e83e96852"},"vehicle_type_id":"4","last_reported":1784151993,"current_range_meters":17600,"station_id":"","pricing_plan_id":"cebpf4jnsgd1na2vs0mg"},{"bike_id":"9816fcfb-fed5-46a5-a828-dec154df7717","system_id":"levelo_inurba_marseille","lat":43.26816,"lon":5.40285,"is_reserved":false,"is_disabled":true,"rental_uris":{"android":"levelo://app?vid=9816fcfb-fed5-46a5-a828-dec154df7717","ios":"levelo://app?vid=9816fcfb-fed5-46a5-a828-dec154df7717"},"vehicle_type_id":"4","last_reported":1784151993,"current_range_meters":32000,"station_id":"ce501612rcd8frsf0b60","pricing_plan_id":"cebpf4jnsgd1na2vs0mg"},{"bike_id":"314807e5-c7e5-4040-98f7-f5b3f656b526","system_id":"levelo_inurba_marseille","lat":43.311114,"lon":5.377829,"is_reserved":false,"is_disabled":false,"rental_uris":{"android":"levelo://app?vid=314807e5-c7e5-4040-98f7-f5b3f656b526","ios":"levelo://app?vid=314807e5-c7e5-4040-98f7-f5b3f656b526"},"vehicle_type_id":"4","last_reported":1784151993,"current_range_meters":9600,"station_id":"ce4bgt92rcd13ifvqcg0","pricing_plan_id":"cebpf4jnsgd1na2vs0mg"},{"bike_id":"c1642e08-1c08-4e75-a9ab-f361b18adfaa","system_id":"levelo_inurba_marseille","lat":43.29515,"lon":5.38545,"is_reserved":false,"is_disabled":false,"rental_uris":{"android":"levelo://app?vid=c1642e08-1c08-4e75-a9ab-f361b18adfaa","ios":"levelo://app?vid=c1642e08-1c08-4e75-a9ab-f361b18adfaa"},"vehicle_type_id":"4","last_reported":1784151993,"current_range_meters":39200,"station_id":"ce4bgih2rcd13ifvqba0","pricing_plan_id":"cebpf4jnsgd1na2vs0mg"},{"bike_id":"bd529bea-55e2-462e-96f2-84ef02ccf732","system_id":"levelo_inurba_marseille","lat":43.31335,"lon":5.38522,"is_reserved":false,"is_disabled":false,"rental_uris":{"android":"levelo://app?vid=bd529bea-55e2-462e-96f2-84ef02ccf732","ios":"levelo://app?vid=bd529bea-55e2-462e-96f2-84ef02ccf732"},"vehicle_type_id":"4","last_reported":1784151993,"current_range_meters":28000,"station_id":"ce4bgt92rcd13ifvqcf0","pricing_plan_id":"cebpf4jnsgd1na2vs0mg"},{"bike_id":"93704dec-746e-4db8-9abc-1e5fc281f374","system_id":"levelo_inurba_marseille","lat":43.32701,"lon":5.4126,"is_reserved":false,"is_disabled":false,"rental_uris":{"android":"levelo://app?vid=93704dec-746e-4db8-9abc-1e5fc281f374","ios":"levelo://app?vid=93704dec-746e-4db8-9abc-1e5fc281f374"},"vehicle_type_id":"4","last_reported":1784151993,"current_range_meters":6000,"station_id":"","pricing_plan_id":"cebpf4jnsgd1na2vs0mg"},{"bike_id":"533a7847-175b-483b-a3d6-015f27e4fcd3","system_id":"levelo_inurba_marseille","lat":43.26017,"lon":5.37557,"is_reserved":false,"is_disabled":true,"rental_uris":{"android":"levelo://app?vid=533a7847-175b-483b-a3d6-015f27e4fcd3","ios":"levelo://app?vid=533a7847-175b-483b-a3d6-015f27e4fcd3"},"vehicle_type_id":"4","last_reported":1784151993,"current_range_meters":0,"station_id":"ce4bhgh2rcd13ifvqfa0","pricing_plan_id":"cebpf4jnsgd1na2vs0mg"},{"bike_id":"b2b194ed-86a5-4dc8-b828-5b80e1681197","system_id":"levelo_inurba_marseille","lat":43.28528,"lon":5.4412,"is_reserved":false,"is_disabled":false,"rental_uris":{"android":"levelo://app?vid=b2b194ed-86a5-4dc8-b828-5b80e1681197","ios":"levelo://app?vid=b2b194ed-86a5-4dc8-b828-5b80e1681197"},"vehicle_type_id":"4","last_reported":1784151993,"current_range_meters":27200,"station_id":"st_d3j3df2ikq2c7380ej80","pricing_plan_id":"cebpf4jnsgd1na2vs0mg"},{"bike_id":"7004d868-bd3f-42c5-9cf4-fb3139e382be","system_id":"levelo_inurba_marseille","lat":43.29933,"lon":5.36544,"is_reserved":false,"is_disabled":false,"rental_uris":{"android":"levelo://app?vid=7004d868-bd3f-42c5-9cf4-fb3139e382be","ios":"levelo://app?vid=7004d868-bd3f-42c5-9cf4-fb3139e382be"},"vehicle_type_id":"4","last_reported":1784151993,"current_range_meters":39200,"station_id":"ce4bgm92rcd13ifvqbr0","pricing_plan_id":"cebpf4jnsgd1na2vs0mg"},{"bike_id":"2a93def1-9840-4751-b465-b53bb0ce6123","system_id":"levelo_inurba_marseille","lat":43.22558,"lon":5.41631,"is_reserved":false,"is_disabled":false,"rental_uris":{"android":"levelo://app?vid=2a93def1-9840-4751-b465-b53bb0ce6123","ios":"levelo://app?vid=2a93def1-9840-4751-b465-b53bb0ce6123"},"vehicle_type_id":"4","last_reported":1784151993,"current_range_meters":24000,"station_id":"st_d2o4gvlbi1j2169b742g","pricing_plan_id":"cebpf4jnsgd1na2vs0mg"},{"bike_id":"4a704f50-eef6-4a9a-b6b7-28e63e5355dc","system_id":"levelo_inurba_marseille","lat":43.25095,"lon":5.39531,"is_reserved":false,"is_disabled":false,"rental_uris":{"android":"levelo://app?vid=4a704f50-eef6-4a9a-b6b7-28e63e5355dc","ios":"levelo://app?vid=4a704f50-eef6-4a9a-b6b7-28e63e5355dc"},"vehicle_type_id":"4","last_reported":1784151993,"current_range_meters":14800,"station_id":"ce4bhm12rcd13ifvqgkg","pricing_plan_id":"cebpf4jnsgd1na2vs0mg"},{"bike_id":"2ab8aed6-e4b5-49f6-a596-3523f1008ac8","system_id":"levelo_inurba_marseille","lat":43.28939,"lon":5.38385,"is_reserved":false,"is_disabled":true,"rental_uris":{"android":"levelo://app?vid=2ab8aed6-e4b5-49f6-a596-3523f1008ac8","ios":"levelo://app?vid=2ab8aed6-e4b5-49f6-a596-3523f1008ac8"},"vehicle_type_id":"4","last_reported":1784151993,"current_range_meters":30400,"station_id":"ce4bh612rcd13ifvqe6g","pricing_plan_id":"cebpf4jnsgd1na2vs0mg"},{"bike_id":"10592882-7bed-4bde-a924-b4cdb04c175f","system_id":"levelo_inurba_marseille","lat":43.2815,"lon":5.42647,"is_reserved":false,"is_disabled":false,"rental_uris":{"android":"levelo://app?vid=10592882-7bed-4bde-a924-b4cdb04c175f","ios":"levelo://app?vid=10592882-7bed-4bde-a924-b4cdb04c175f"},"vehicle_type_id":"4","last_reported":1784151993,"current_range_meters":39200,"station_id":"ce4bhnh2rcd13ifvqgug","pricing_plan_id":"cebpf4jnsgd1na2vs0mg"},{"bike_id":"9d11d095-4a32-4b08-939a-b97ebb9a3475","system_id":"levelo_inurba_marseille","lat":43.25503,"lon":5.37648,"is_reserved":false,"is_disabled":false,"rental_uris":{"android":"levelo://app?vid=9d11d095-4a32-4b08-939a-b97ebb9a3475","ios":"levelo://app?vid=9d11d095-4a32-4b08-939a-b97ebb9a3475"},"vehicle_type_id":"4","last_reported":1784151993,"current_range_meters":38000,"station_id":"ce4bhh12rcd13ifvqff0","pricing_plan_id":"cebpf4jnsgd1na2vs0mg"},{"bike_id":"b617c35b-7c51-4687-9948-30e5ef21086e","system_id":"levelo_inurba_marseille","lat":43.28702,"lon":5.46685,"is_reserved":false,"is_disabled":false,"rental_uris":{"android":"levelo://app?vid=b617c35b-7c51-4687-9948-30e5ef21086e","ios":"levelo://app?vid=b617c35b-7c51-4687-9948-30e5ef21086e"},"vehicle_type_id":"4","last_reported":1784151993,"current_range_meters":23200,"station_id":"st_d6tc3vkotcvc738tfjhg","pricing_plan_id":"cebpf4jnsgd1na2vs0mg"},{"bike_id":"1cdfc967-6908-42cd-a9be-b4dbc9fb4bb4","system_id":"levelo_inurba_marseille","lat":43.29848,"lon":5.36274,"is_reserved":false,"is_disabled":false,"rental_uris":{"android":"levelo://app?vid=1cdfc967-6908-42cd-a9be-b4dbc9fb4bb4","ios":"levelo://app?vid=1cdfc967-6908-42cd-a9be-b4dbc9fb4bb4"},"vehicle_type_id":"4","last_reported":1784151993,"current_range_meters":12800,"station_id":"ce4bgpp2rcd13ifvqc3g","pricing_plan_id":"cebpf4jnsgd1na2vs0mg"},{"bike_id":"809c9d7b-1425-450c-ace0-f3fd328420ed","system_id":"levelo_inurba_marseille","lat":43.29555,"lon":5.38533,"is_reserved":false,"is_disabled":false,"rental_uris":{"android":"levelo://app?vid=809c9d7b-1425-450c-ace0-f3fd328420ed","ios":"levelo://app?vid=809c9d7b-1425-450c-ace0-f3fd328420ed"},"vehicle_type_id":"4","last_reported":1784151993,"current_range_meters":28000,"station_id":"ce4bgih2rcd13ifvqba0","pricing_plan_id":"cebpf4jnsgd1na2vs0mg"},{"bike_id":"abd28b51-9db3-4251-8023-1ab1c1cc68c9","system_id":"levelo_inurba_marseille","lat":43.27989,"lon":5.41652,"is_reserved":false,"is_disabled":true,"rental_uris":{"android":"levelo://app?vid=abd28b51-9db3-4251-8023-1ab1c1cc68c9","ios":"levelo://app?vid=abd28b51-9db3-4251-8023-1ab1c1cc68c9"},"vehicle_type_id":"4","last_reported":1784151993,"current_range_meters":28800,"station_id":"ce4bho12rcd13ifvqh1g","pricing_plan_id":"cebpf4jnsgd1na2vs0mg"},{"bike_id":"c4263ce1-faa4-480c-9a84-43f172a43366","system_id":"levelo_inurba_marseille","lat":43.28338,"lon":5.38107,"is_reserved":false,"is_disabled":false,"rental_uris":{"android":"levelo://app?vid=c4263ce1-faa4-480c-9a84-43f172a43366","ios":"levelo://app?vid=c4263ce1-faa4-480c-9a84-43f172a43366"},"vehicle_type_id":"4","last_reported":1784151993,"current_range_meters":39200,"station_id":"ce4bh412rcd13ifvqdr0","pricing_plan_id":"cebpf4jnsgd1na2vs0mg"},{"bike_id":"6d32b765-aa0d-46a8-942b-fd272d4b06e6","system_id":"levelo_inurba_marseille","lat":43.27628,"lon":5.36099,"is_reserved":false,"is_disabled":true,"rental_uris":{"android":"levelo://app?vid=6d32b765-aa0d-46a8-942b-fd272d4b06e6","ios":"levelo://app?vid=6d32b765-aa0d-46a8-942b-fd272d4b06e6"},"vehicle_type_id":"4","last_reported":1784151993,"current_range_meters":11600,"station_id":"ce4bgj92rcd13ifvqbe0","pricing_plan_id":"cebpf4jnsgd1na2vs0mg"},{"bike_id":"08b3cabb-81a2-40b0-ac75-f8af9ea6db29","system_id":"levelo_inurba_marseille","lat":43.2794,"lon":5.38758,"is_reserved":false,"is_disabled":false,"rental_uris":{"android":"levelo://app?vid=08b3cabb-81a2-40b0-ac75-f8af9ea6db29","ios":"levelo://app?vid=08b3cabb-81a2-40b0-ac75-f8af9ea6db29"},"vehicle_type_id":"4","last_reported":1784151993,"current_range_meters":35600,"station_id":"ce4bhg12rcd13ifvqf80","pricing_plan_id":"cebpf4jnsgd1na2vs0mg"},{"bike_id":"57889d2e-37dd-4f8f-b3ab-1bc0a62b2215","system_id":"levelo_inurba_marseille","lat":43.30446,"lon":5.37932,"is_reserved":false,"is_disabled":true,"rental_uris":{"android":"levelo://app?vid=57889d2e-37dd-4f8f-b3ab-1bc0a62b2215","ios":"levelo://app?vid=57889d2e-37dd-4f8f-b3ab-1bc0a62b2215"},"vehicle_type_id":"4","last_reported":1784151993,"current_range_meters":24800,"station_id":"ce4bgup2rcd13ifvqcn0","pricing_plan_id":"cebpf4jnsgd1na2vs0mg"},{"bike_id":"b45f0205-96d2-4bd2-8ac9-1d2877b8b6cb","system_id":"levelo_inurba_marseille","lat":43.30886,"lon":5.39634,"is_reserved":false,"is_disabled":false,"rental_uris":{"android":"levelo://app?vid=b45f0205-96d2-4bd2-8ac9-1d2877b8b6cb","ios":"levelo://app?vid=b45f0205-96d2-4bd2-8ac9-1d2877b8b6cb"},"vehicle_type_id":"4","last_reported":1784151993,"current_range_meters":19200,"station_id":"ce4bh012rcd13ifvqcv0","pricing_plan_id":"cebpf4jnsgd1na2vs0mg"},{"bike_id":"963f7e35-78de-427c-9878-e094dd434b23","system_id":"levelo_inurba_marseille","lat":43.30778,"lon":5.37655,"is_reserved":false,"is_disabled":false,"rental_uris":{"android":"levelo://app?vid=963f7e35-78de-427c-9878-e094dd434b23","ios":"levelo://app?vid=963f7e35-78de-427c-9878-e094dd434b23"},"vehicle_type_id":"4","last_reported":1784151993,"current_range_meters":28800,"station_id":"ce4bgv92rcd13ifvqcq0","pricing_plan_id":"cebpf4jnsgd1na2vs0mg"},{"bike_id":"f24b4a21-0367-4901-8758-38e6d4a427ef","system_id":"levelo_inurba_marseille","lat":43.29573,"lon":5.39978,"is_reserved":false,"is_disabled":false,"rental_uris":{"android":"levelo://app?vid=f24b4a21-0367-4901-8758-38e6d4a427ef","ios":"levelo://app?vid=f24b4a21-0367-4901-8758-38e6d4a427ef"},"vehicle_type_id":"4","last_reported":1784151993,"current_range_meters":36000,"station_id":"ce4bh312rcd13ifvqdj0","pricing_plan_id":"cebpf4jnsgd1na2vs0mg"},{"bike_id":"51905566-557d-413c-97fd-b84daf11e827","system_id":"levelo_inurba_marseille","lat":43.27919,"lon":5.39555,"is_reserved":false,"is_disabled":true,"rental_uris":{"android":"levelo://app?vid=51905566-557d-413c-97fd-b84daf11e827","ios":"levelo://app?vid=51905566-557d-413c-97fd-b84daf11e827"},"vehicle_type_id":"4","last_reported":1784151993,"current_range_meters":35200,"station_id":"ce4bhf92rcd13ifvqf40","pricing_plan_id":"cebpf4jnsgd1na2vs0mg"},{"bike_id":"12efef75-86d1-4e71-901c-eee71c4143ca","system_id":"levelo_inurba_marseille","lat":43.29539,"lon":5.39042,"is_reserved":false,"is_disabled":false,"rental_uris":{"android":"levelo://app?vid=12efef75-86d1-4e71-901c-eee71c4143ca","ios":"levelo://app?vid=12efef75-86d1-4e71-901c-eee71c4143ca"},"vehicle_type_id":"4","last_reported":1784151993,"current_range_meters":25200,"station_id":"ce4bh3p2rcd13ifvqdp0","pricing_plan_id":"cebpf4jnsgd1na2vs0mg"},{"bike_id":"3b625d31-66eb-468c-b322-2aaec385b149","system_id":"levelo_inurba_marseille","lat":43.26039,"lon":5.37553,"is_reserved":false,"is_disabled":false,"rental_uris":{"android":"levelo://app?vid=3b625d31-66eb-468c-b322-2aaec385b149","ios":"levelo://app?vid=3b625d31-66eb-468c-b322-2aaec385b149"},"vehicle_type_id":"4","last_reported":1784151993,"current_range_meters":25200,"station_id":"ce4bhgh2rcd13ifvqfa0","pricing_plan_id":"cebpf4jnsgd1na2vs0mg"},{"bike_id":"0f0b0ed1-aa01-4343-a977-b10e5bbc57bd","system_id":"levelo_inurba_marseille","lat":43.28728,"lon":5.3609,"is_reserved":false,"is_disabled":false,"rental_uris":{"android":"levelo://app?vid=0f0b0ed1-aa01-4343-a977-b10e5bbc57bd","ios":"levelo://app?vid=0f0b0ed1-aa01-4343-a977-b10e5bbc57bd"},"vehicle_type_id":"4","last_reported":1784151993,"current_range_meters":32400,"station_id":"cki0cbj6b192h4jlfktg","pricing_plan_id":"cebpf4jnsgd1na2vs0mg"},{"bike_id":"6393878f-e954-4e2b-b8a8-9c0f8252eae8","system_id":"levelo_inurba_marseille","lat":43.2795,"lon":5.4106,"is_reserved":false,"is_disabled":true,"rental_uris":{"android":"levelo://app?vid=6393878f-e954-4e2b-b8a8-9c0f8252eae8","ios":"levelo://app?vid=6393878f-e954-4e2b-b8a8-9c0f8252eae8"},"vehicle_type_id":"4","last_reported":1784151993,"current_range_meters":6400,"station_id":"ce4bhnp2rcd13ifvqh0g","pricing_plan_id":"cebpf4jnsgd1na2vs0mg"},{"bike_id":"b5d9c396-44c6-46bd-824f-446527c80c88","system_id":"levelo_inurba_marseille","lat":43.29591,"lon":5.39283,"is_reserved":false,"is_disabled":false,"rental_uris":{"android":"levelo://app?vid=b5d9c396-44c6-46bd-824f-446527c80c88","ios":"levelo://app?vid=b5d9c396-44c6-46bd-824f-446527c80c88"},"vehicle_type_id":"4","last_reported":1784151993,"current_range_meters":8400,"station_id":"ce4bh292rcd13ifvqdf0","pricing_plan_id":"cebpf4jnsgd1na2vs0mg"},{"bike_id":"96825e0c-14e6-44a1-9638-22706c4a0540","system_id":"levelo_inurba_marseille","lat":43.27207,"lon":5.39181,"is_reserved":false,"is_disabled":true,"rental_uris":{"android":"levelo://app?vid=96825e0c-14e6-44a1-9638-22706c4a0540","ios":"levelo://app?vid=96825e0c-14e6-44a1-9638-22706c4a0540"},"vehicle_type_id":"4","last_reported":1784151993,"current_range_meters":17600,"station_id":"ce4bhhp2rcd13ifvqfm0","pricing_plan_id":"cebpf4jnsgd1na2vs0mg"},{"bike_id":"58f60e07-17ed-4b6c-a936-d1af0e336e55","system_id":"levelo_inurba_marseille","lat":43.258294,"lon":5.394396,"is_reserved":false,"is_disabled":false,"rental_uris":{"android":"levelo://app?vid=58f60e07-17ed-4b6c-a936-d1af0e336e55","ios":"levelo://app?vid=58f60e07-17ed-4b6c-a936-d1af0e336e55"},"vehicle_type_id":"4","last_reported":1784151993,"current_range_meters":38400,"station_id":"ce4bhip2rcd13ifvqft0","pricing_plan_id":"cebpf4jnsgd1na2vs0mg"},{"bike_id":"1d06f609-a4dd-4a48-b04c-b8a32f7f61cb","system_id":"levelo_inurba_marseille","lat":43.28667,"lon":5.36352,"is_reserved":false,"is_disabled":false,"rental_uris":{"android":"levelo://app?vid=1d06f609-a4dd-4a48-b04c-b8a32f7f61cb","ios":"levelo://app?vid=1d06f609-a4dd-4a48-b04c-b8a32f7f61cb"},"vehicle_type_id":"4","last_reported":1784151993,"current_range_meters":39200,"station_id":"ce4bhah2rcd13ifvqej0","pricing_plan_id":"cebpf4jnsgd1na2vs0mg"},{"bike_id":"3897b37b-5ebf-4f3a-8458-0d1f0b06c771","system_id":"levelo_inurba_marseille","lat":43.29079,"lon":5.36547,"is_reserved":false,"is_disabled":false,"rental_uris":{"android":"levelo://app?vid=3897b37b-5ebf-4f3a-8458-0d1f0b06c771","ios":"levelo://app?vid=3897b37b-5ebf-4f3a-8458-0d1f0b06c771"},"vehicle_type_id":"4","last_reported":1784151993,"current_range_meters":10800,"station_id":"","pricing_plan_id":"cebpf4jnsgd1na2vs0mg"},{"bike_id":"7501a6ba-1e83-4d1e-9471-fbdafd1731ca","system_id":"levelo_inurba_marseille","lat":43.30598,"lon":5.37217,"is_reserved":false,"is_disabled":false,"rental_uris":{"android":"levelo://app?vid=7501a6ba-1e83-4d1e-9471-fbdafd1731ca","ios":"levelo://app?vid=7501a6ba-1e83-4d1e-9471-fbdafd1731ca"},"vehicle_type_id":"4","last_reported":1784151993,"current_range_meters":36000,"station_id":"ce4bgqh2rcd13ifvqc4g","pricing_plan_id":"cebpf4jnsgd1na2vs0mg"},{"bike_id":"9945d993-577c-4caa-9f25-c17b3085dd0d","system_id":"levelo_inurba_marseille","lat":43.31409,"lon":5.37396,"is_reserved":false,"is_disabled":false,"rental_uris":{"android":"levelo://app?vid=9945d993-577c-4caa-9f25-c17b3085dd0d","ios":"levelo://app?vid=9945d993-577c-4caa-9f25-c17b3085dd0d"},"vehicle_type_id":"4","last_reported":1784151993,"current_range_meters":9200,"station_id":"","pricing_plan_id":"cebpf4jnsgd1na2vs0mg"},{"bike_id":"b690cb30-563f-410d-aac5-41d05e78c295","system_id":"levelo_inurba_marseille","lat":43.24832,"lon":5.37473,"is_reserved":false,"is_disabled":false,"rental_uris":{"android":"levelo://app?vid=b690cb30-563f-410d-aac5-41d05e78c295","ios":"levelo://app?vid=b690cb30-563f-410d-aac5-41d05e78c295"},"vehicle_type_id":"4","last_reported":1784151993,"current_range_meters":23200,"station_id":"","pricing_plan_id":"cebpf4jnsgd1na2vs0mg"},{"bike_id":"87cd80c1-765a-40d8-8380-43b47cab9508","system_id":"levelo_inurba_marseille","lat":43.28657,"lon":5.36355,"is_reserved":false,"is_disabled":false,"rental_uris":{"android":"levelo://app?vid=87cd80c1-765a-40d8-8380-43b47cab9508","ios":"levelo://app?vid=87cd80c1-765a-40d8-8380-43b47cab9508"},"vehicle_type_id":"4","last_reported":1784151993,"current_range_meters":33200,"station_id":"ce4bhah2rcd13ifvqej0","pricing_plan_id":"cebpf4jnsgd1na2vs0mg"},{"bike_id":"93f173f0-b5e7-453c-b62d-5cea08429256","system_id":"levelo_inurba_marseille","lat":43.29226,"lon":5.35792,"is_reserved":false,"is_disabled":true,"rental_uris":{"android":"levelo://app?vid=93f173f0-b5e7-453c-b62d-5cea08429256","ios":"levelo://app?vid=93f173f0-b5e7-453c-b62d-5cea08429256"},"vehicle_type_id":"4","last_reported":1784151993,"current_range_meters":36000,"station_id":"ce4bhb12rcd13ifvqel0","pricing_plan_id":"cebpf4jnsgd1na2vs0mg"},{"bike_id":"c05e8784-2da4-4b67-9d12-8ee978734878","system_id":"levelo_inurba_marseille","lat":43.26565,"lon":5.40337,"is_reserved":false,"is_disabled":false,"rental_uris":{"android":"levelo://app?vid=c05e8784-2da4-4b67-9d12-8ee978734878","ios":"levelo://app?vid=c05e8784-2da4-4b67-9d12-8ee978734878"},"vehicle_type_id":"4","last_reported":1784151993,"current_range_meters":8800,"station_id":"ce4bhmp2rcd13ifvqgng","pricing_plan_id":"cebpf4jnsgd1na2vs0mg"},{"bike_id":"935dc5cd-1d54-4d1e-8181-36b46070ea9e","system_id":"levelo_inurba_marseille","lat":43.27947,"lon":5.41039,"is_reserved":false,"is_disabled":false,"rental_uris":{"android":"levelo://app?vid=935dc5cd-1d54-4d1e-8181-36b46070ea9e","ios":"levelo://app?vid=935dc5cd-1d54-4d1e-8181-36b46070ea9e"},"vehicle_type_id":"4","last_reported":1784151993,"current_range_meters":24000,"station_id":"ce4bhnp2rcd13ifvqh0g","pricing_plan_id":"cebpf4jnsgd1na2vs0mg"},{"bike_id":"c0c12634-da58-4425-89c7-83dd3f1069a6","system_id":"levelo_inurba_marseille","lat":43.32038,"lon":5.3683,"is_reserved":false,"is_disabled":false,"rental_uris":{"android":"levelo://app?vid=c0c12634-da58-4425-89c7-83dd3f1069a6","ios":"levelo://app?vid=c0c12634-da58-4425-89c7-83dd3f1069a6"},"vehicle_type_id":"4","last_reported":1784151993,"current_range_meters":8000,"station_id":"","pricing_plan_id":"cebpf4jnsgd1na2vs0mg"},{"bike_id":"8ebea892-706c-47dd-875e-d569386cdfa3","system_id":"levelo_inurba_marseille","lat":43.24686,"lon":5.38147,"is_reserved":false,"is_disabled":false,"rental_uris":{"android":"levelo://app?vid=8ebea892-706c-47dd-875e-d569386cdfa3","ios":"levelo://app?vid=8ebea892-706c-47dd-875e-d569386cdfa3"},"vehicle_type_id":"4","last_reported":1784151993,"current_range_meters":10000,"station_id":"ce4bhih2rcd13ifvqfr0","pricing_plan_id":"cebpf4jnsgd1na2vs0mg"},{"bike_id":"c21e3ebb-49a3-4bfb-8769-8d535067f0b7","system_id":"levelo_inurba_marseille","lat":43.31104,"lon":5.38581,"is_reserved":false,"is_disabled":false,"rental_uris":{"android":"levelo://app?vid=c21e3ebb-49a3-4bfb-8769-8d535067f0b7","ios":"levelo://app?vid=c21e3ebb-49a3-4bfb-8769-8d535067f0b7"},"vehicle_type_id":"4","last_reported":1784151993,"current_range_meters":27600,"station_id":"","pricing_plan_id":"cebpf4jnsgd1na2vs0mg"},{"bike_id":"eb58ab90-ce55-4c60-8055-75f998323481","system_id":"levelo_inurba_marseille","lat":43.25479,"lon":5.37641,"is_reserved":false,"is_disabled":false,"rental_uris":{"android":"levelo://app?vid=eb58ab90-ce55-4c60-8055-75f998323481","ios":"levelo://app?vid=eb58ab90-ce55-4c60-8055-75f998323481"},"vehicle_type_id":"4","last_reported":1784151993,"current_range_meters":29600,"station_id":"ce4bhh12rcd13ifvqff0","pricing_plan_id":"cebpf4jnsgd1na2vs0mg"},{"bike_id":"4a26c072-0421-420b-837a-ab79a476a507","system_id":"levelo_inurba_marseille","lat":43.26603,"lon":5.3895,"is_reserved":false,"is_disabled":false,"rental_uris":{"android":"levelo://app?vid=4a26c072-0421-420b-837a-ab79a476a507","ios":"levelo://app?vid=4a26c072-0421-420b-837a-ab79a476a507"},"vehicle_type_id":"4","last_reported":1784151993,"current_range_meters":3600,"station_id":"","pricing_plan_id":"cebpf4jnsgd1na2vs0mg"},{"bike_id":"3738e680-7c4f-4247-aff7-d2b3eea5a73a","system_id":"levelo_inurba_marseille","lat":43.22545,"lon":5.34854,"is_reserved":false,"is_disabled":false,"rental_uris":{"android":"levelo://app?vid=3738e680-7c4f-4247-aff7-d2b3eea5a73a","ios":"levelo://app?vid=3738e680-7c4f-4247-aff7-d2b3eea5a73a"},"vehicle_type_id":"4","last_reported":1784151993,"current_range_meters":30800,"station_id":"st_cvj5dfep6f1abm77gieg","pricing_plan_id":"cebpf4jnsgd1na2vs0mg"},{"bike_id":"ffb03615-a0ea-40a9-8b3b-a7b0f979a9b2","system_id":"levelo_inurba_marseille","lat":43.29192,"lon":5.35809,"is_reserved":false,"is_disabled":false,"rental_uris":{"android":"levelo://app?vid=ffb03615-a0ea-40a9-8b3b-a7b0f979a9b2","ios":"levelo://app?vid=ffb03615-a0ea-40a9-8b3b-a7b0f979a9b2"},"vehicle_type_id":"4","last_reported":1784151993,"current_range_meters":6400,"station_id":"ce4bhb12rcd13ifvqel0","pricing_plan_id":"cebpf4jnsgd1na2vs0mg"},{"bike_id":"ca532082-94a5-487d-b39d-2f3fd710ba69","system_id":"levelo_inurba_marseille","lat":43.301413,"lon":5.380785,"is_reserved":false,"is_disabled":false,"rental_uris":{"android":"levelo://app?vid=ca532082-94a5-487d-b39d-2f3fd710ba69","ios":"levelo://app?vid=ca532082-94a5-487d-b39d-2f3fd710ba69"},"vehicle_type_id":"4","last_reported":1784151993,"current_range_meters":8400,"station_id":"ce4bh9p2rcd13ifvqed0","pricing_plan_id":"cebpf4jnsgd1na2vs0mg"},{"bike_id":"d97c609b-426e-4c53-b709-2c63dfa43425","system_id":"levelo_inurba_marseille","lat":43.28626,"lon":5.37044,"is_reserved":false,"is_disabled":true,"rental_uris":{"android":"levelo://app?vid=d97c609b-426e-4c53-b709-2c63dfa43425","ios":"levelo://app?vid=d97c609b-426e-4c53-b709-2c63dfa43425"},"vehicle_type_id":"4","last_reported":1784151993,"current_range_meters":0,"station_id":"ce4bht12rcd13ifvqi60","pricing_plan_id":"cebpf4jnsgd1na2vs0mg"},{"bike_id":"5d694794-9cfb-4504-b5a4-41c2095511c4","system_id":"levelo_inurba_marseille","lat":43.28392,"lon":5.37534,"is_reserved":false,"is_disabled":false,"rental_uris":{"android":"levelo://app?vid=5d694794-9cfb-4504-b5a4-41c2095511c4","ios":"levelo://app?vid=5d694794-9cfb-4504-b5a4-41c2095511c4"},"vehicle_type_id":"4","last_reported":1784151993,"current_range_meters":39200,"station_id":"ce4bh412rcd13ifvqds0","pricing_plan_id":"cebpf4jnsgd1na2vs0mg"},{"bike_id":"5e6b3d0f-0390-41da-a81c-1ae1a216b11d","system_id":"levelo_inurba_marseille","lat":43.30426,"lon":5.41276,"is_reserved":false,"is_disabled":false,"rental_uris":{"android":"levelo://app?vid=5e6b3d0f-0390-41da-a81c-1ae1a216b11d","ios":"levelo://app?vid=5e6b3d0f-0390-41da-a81c-1ae1a216b11d"},"vehicle_type_id":"4","last_reported":1784151993,"current_range_meters":24800,"station_id":"ce4bhop2rcd13ifvqh8g","pricing_plan_id":"cebpf4jnsgd1na2vs0mg"},{"bike_id":"127041c9-3057-4763-bbb4-ce7f0d1a2d71","system_id":"levelo_inurba_marseille","lat":43.337662,"lon":5.374328,"is_reserved":false,"is_disabled":false,"rental_uris":{"android":"levelo://app?vid=127041c9-3057-4763-bbb4-ce7f0d1a2d71","ios":"levelo://app?vid=127041c9-3057-4763-bbb4-ce7f0d1a2d71"},"vehicle_type_id":"4","last_reported":1784151993,"current_range_meters":16800,"station_id":"","pricing_plan_id":"cebpf4jnsgd1na2vs0mg"},{"bike_id":"eaa2f425-0b8e-4abc-aff5-1e5643ff75c3","system_id":"levelo_inurba_marseille","lat":43.26968,"lon":5.36645,"is_reserved":false,"is_disabled":true,"rental_uris":{"android":"levelo://app?vid=eaa2f425-0b8e-4abc-aff5-1e5643ff75c3","ios":"levelo://app?vid=eaa2f425-0b8e-4abc-aff5-1e5643ff75c3"},"vehicle_type_id":"4","last_reported":1784151993,"current_range_meters":0,"station_id":"","pricing_plan_id":"cebpf4jnsgd1na2vs0mg"},{"bike_id":"e60ee228-0df9-468a-bbf5-697204b4f8c0","system_id":"levelo_inurba_marseille","lat":43.29922,"lon":5.37468,"is_reserved":false,"is_disabled":false,"rental_uris":{"android":"levelo://app?vid=e60ee228-0df9-468a-bbf5-697204b4f8c0","ios":"levelo://app?vid=e60ee228-0df9-468a-bbf5-697204b4f8c0"},"vehicle_type_id":"4","last_reported":1784151993,"current_range_meters":35200,"station_id":"ce4bgjh2rcd13ifvqbg0","pricing_plan_id":"cebpf4jnsgd1na2vs0mg"},{"bike_id":"3b93d7f4-bc8b-476c-bed7-718f95233c6c","system_id":"levelo_inurba_marseille","lat":43.28112,"lon":5.37836,"is_reserved":false,"is_disabled":false,"rental_uris":{"android":"levelo://app?vid=3b93d7f4-bc8b-476c-bed7-718f95233c6c","ios":"levelo://app?vid=3b93d7f4-bc8b-476c-bed7-718f95233c6c"},"vehicle_type_id":"4","last_reported":1784151993,"current_range_meters":28800,"station_id":"ce4bha12rcd13ifvqee0","pricing_plan_id":"cebpf4jnsgd1na2vs0mg"},{"bike_id":"f7e157b9-6bb4-4bbe-a611-bfb6311466b0","system_id":"levelo_inurba_marseille","lat":43.29064,"lon":5.39974,"is_reserved":false,"is_disabled":false,"rental_uris":{"android":"levelo://app?vid=f7e157b9-6bb4-4bbe-a611-bfb6311466b0","ios":"levelo://app?vid=f7e157b9-6bb4-4bbe-a611-bfb6311466b0"},"vehicle_type_id":"4","last_reported":1784151993,"current_range_meters":17600,"station_id":"ce4bh392rcd13ifvqdm0","pricing_plan_id":"cebpf4jnsgd1na2vs0mg"},{"bike_id":"3be55253-0925-4ed4-b384-8be188bdc3c3","system_id":"levelo_inurba_marseille","lat":43.28547,"lon":5.3951,"is_reserved":false,"is_disabled":false,"rental_uris":{"android":"levelo://app?vid=3be55253-0925-4ed4-b384-8be188bdc3c3","ios":"levelo://app?vid=3be55253-0925-4ed4-b384-8be188bdc3c3"},"vehicle_type_id":"4","last_reported":1784151993,"current_range_meters":39200,"station_id":"ce4bh292rcd13ifvqdg0","pricing_plan_id":"cebpf4jnsgd1na2vs0mg"},{"bike_id":"78838c0a-be65-4d2a-85c5-92571ee70f5f","system_id":"levelo_inurba_marseille","lat":43.28948,"lon":5.3836,"is_reserved":false,"is_disabled":false,"rental_uris":{"android":"levelo://app?vid=78838c0a-be65-4d2a-85c5-92571ee70f5f","ios":"levelo://app?vid=78838c0a-be65-4d2a-85c5-92571ee70f5f"},"vehicle_type_id":"4","last_reported":1784151993,"current_range_meters":36800,"station_id":"ce4bh612rcd13ifvqe6g","pricing_plan_id":"cebpf4jnsgd1na2vs0mg"},{"bike_id":"7551790c-7aa2-4519-b300-cbe1154c2749","system_id":"levelo_inurba_marseille","lat":43.26926,"lon":5.40224,"is_reserved":false,"is_disabled":false,"rental_uris":{"android":"levelo://app?vid=7551790c-7aa2-4519-b300-cbe1154c2749","ios":"levelo://app?vid=7551790c-7aa2-4519-b300-cbe1154c2749"},"vehicle_type_id":"4","last_reported":1784151993,"current_range_meters":17200,"station_id":"cjm6bp8fraef2m0cb0m0","pricing_plan_id":"cebpf4jnsgd1na2vs0mg"},{"bike_id":"af8e899d-1d46-40ee-a0d7-1c8ce9a4528e","system_id":"levelo_inurba_marseille","lat":43.27569,"lon":5.38417,"is_reserved":false,"is_disabled":false,"rental_uris":{"android":"levelo://app?vid=af8e899d-1d46-40ee-a0d7-1c8ce9a4528e","ios":"levelo://app?vid=af8e899d-1d46-40ee-a0d7-1c8ce9a4528e"},"vehicle_type_id":"4","last_reported":1784151993,"current_range_meters":39200,"station_id":"ce4bhh92rcd13ifvqfi0","pricing_plan_id":"cebpf4jnsgd1na2vs0mg"},{"bike_id":"7bcdc1f5-c10a-4a2e-87d8-12d6fbdd0ffe","system_id":"levelo_inurba_marseille","lat":43.29502,"lon":5.38552,"is_reserved":false,"is_disabled":false,"rental_uris":{"android":"levelo://app?vid=7bcdc1f5-c10a-4a2e-87d8-12d6fbdd0ffe","ios":"levelo://app?vid=7bcdc1f5-c10a-4a2e-87d8-12d6fbdd0ffe"},"vehicle_type_id":"4","last_reported":1784151993,"current_range_meters":7200,"station_id":"ce4bgih2rcd13ifvqba0","pricing_plan_id":"cebpf4jnsgd1na2vs0mg"},{"bike_id":"d1ecb1bc-decb-4a49-8af7-7f5db8aab7e8","system_id":"levelo_inurba_marseille","lat":43.29189,"lon":5.36812,"is_reserved":false,"is_disabled":false,"rental_uris":{"android":"levelo://app?vid=d1ecb1bc-decb-4a49-8af7-7f5db8aab7e8","ios":"levelo://app?vid=d1ecb1bc-decb-4a49-8af7-7f5db8aab7e8"},"vehicle_type_id":"4","last_reported":1784151993,"current_range_meters":32400,"station_id":"","pricing_plan_id":"cebpf4jnsgd1na2vs0mg"},{"bike_id":"5e616712-d59f-4ccf-b2a9-e3afe51fd7fc","system_id":"levelo_inurba_marseille","lat":43.26492,"lon":5.39538,"is_reserved":false,"is_disabled":false,"rental_uris":{"android":"levelo://app?vid=5e616712-d59f-4ccf-b2a9-e3afe51fd7fc","ios":"levelo://app?vid=5e616712-d59f-4ccf-b2a9-e3afe51fd7fc"},"vehicle_type_id":"4","last_reported":1784151993,"current_range_meters":32800,"station_id":"ce4bhi12rcd13ifvqfq0","pricing_plan_id":"cebpf4jnsgd1na2vs0mg"},{"bike_id":"27ce9d80-bd6b-4e10-a265-a48b1391e250","system_id":"levelo_inurba_marseille","lat":43.33778,"lon":5.3743,"is_reserved":false,"is_disabled":false,"rental_uris":{"android":"levelo://app?vid=27ce9d80-bd6b-4e10-a265-a48b1391e250","ios":"levelo://app?vid=27ce9d80-bd6b-4e10-a265-a48b1391e250"},"vehicle_type_id":"4","last_reported":1784151993,"current_range_meters":37600,"station_id":"","pricing_plan_id":"cebpf4jnsgd1na2vs0mg"},{"bike_id":"8427e0af-d4af-4fb4-89c0-875197efc945","system_id":"levelo_inurba_marseille","lat":43.26492,"lon":5.39553,"is_reserved":false,"is_disabled":false,"rental_uris":{"android":"levelo://app?vid=8427e0af-d4af-4fb4-89c0-875197efc945","ios":"levelo://app?vid=8427e0af-d4af-4fb4-89c0-875197efc945"},"vehicle_type_id":"4","last_reported":1784151993,"current_range_meters":39200,"station_id":"ce4bhi12rcd13ifvqfq0","pricing_plan_id":"cebpf4jnsgd1na2vs0mg"},{"bike_id":"4c445abe-25ad-466b-a445-744bf62fbea8","system_id":"levelo_inurba_marseille","lat":43.24385,"lon":5.37092,"is_reserved":false,"is_disabled":true,"rental_uris":{"android":"levelo://app?vid=4c445abe-25ad-466b-a445-744bf62fbea8","ios":"levelo://app?vid=4c445abe-25ad-466b-a445-744bf62fbea8"},"vehicle_type_id":"4","last_reported":1784151993,"current_range_meters":39200,"station_id":"ce4bhhh2rcd13ifvqfk0","pricing_plan_id":"cebpf4jnsgd1na2vs0mg"},{"bike_id":"cc37eb32-39ee-42ab-b045-6f78457f6d1b","system_id":"levelo_inurba_marseille","lat":43.25646,"lon":5.37567,"is_reserved":false,"is_disabled":false,"rental_uris":{"android":"levelo://app?vid=cc37eb32-39ee-42ab-b045-6f78457f6d1b","ios":"levelo://app?vid=cc37eb32-39ee-42ab-b045-6f78457f6d1b"},"vehicle_type_id":"4","last_reported":1784151993,"current_range_meters":25200,"station_id":"","pricing_plan_id":"cebpf4jnsgd1na2vs0mg"},{"bike_id":"eddc32ac-2b9a-42fe-9a92-fc81aceb5ce8","system_id":"levelo_inurba_marseille","lat":43.28458,"lon":5.35888,"is_reserved":false,"is_disabled":false,"rental_uris":{"android":"levelo://app?vid=eddc32ac-2b9a-42fe-9a92-fc81aceb5ce8","ios":"levelo://app?vid=eddc32ac-2b9a-42fe-9a92-fc81aceb5ce8"},"vehicle_type_id":"4","last_reported":1784151993,"current_range_meters":30800,"station_id":"ce4bhah2rcd13ifvqei0","pricing_plan_id":"cebpf4jnsgd1na2vs0mg"},{"bike_id":"85aa1803-8127-4970-ad73-f8de39bdfbb8","system_id":"levelo_inurba_marseille","lat":43.32486,"lon":5.38269,"is_reserved":false,"is_disabled":false,"rental_uris":{"android":"levelo://app?vid=85aa1803-8127-4970-ad73-f8de39bdfbb8","ios":"levelo://app?vid=85aa1803-8127-4970-ad73-f8de39bdfbb8"},"vehicle_type_id":"4","last_reported":1784151993,"current_range_meters":17200,"station_id":"st_d4asgbiv49dc73anf9m0","pricing_plan_id":"cebpf4jnsgd1na2vs0mg"},{"bike_id":"24353060-e2d6-444a-a846-b21c259c2d77","system_id":"levelo_inurba_marseille","lat":43.29037,"lon":5.35923,"is_reserved":false,"is_disabled":false,"rental_uris":{"android":"levelo://app?vid=24353060-e2d6-444a-a846-b21c259c2d77","ios":"levelo://app?vid=24353060-e2d6-444a-a846-b21c259c2d77"},"vehicle_type_id":"4","last_reported":1784151993,"current_range_meters":4400,"station_id":"ce4bha92rcd13ifvqeg0","pricing_plan_id":"cebpf4jnsgd1na2vs0mg"},{"bike_id":"4c5d14b6-5086-46d1-be04-34b77d4459a6","system_id":"levelo_inurba_marseille","lat":43.32489,"lon":5.36563,"is_reserved":false,"is_disabled":false,"rental_uris":{"android":"levelo://app?vid=4c5d14b6-5086-46d1-be04-34b77d4459a6","ios":"levelo://app?vid=4c5d14b6-5086-46d1-be04-34b77d4459a6"},"vehicle_type_id":"4","last_reported":1784151993,"current_range_meters":31200,"station_id":"ce4bhs12rcd13ifvqhvg","pricing_plan_id":"cebpf4jnsgd1na2vs0mg"},{"bike_id":"f1224380-ec41-45e9-ac9e-aec8b7ef04f6","system_id":"levelo_inurba_marseille","lat":43.29033,"lon":5.39987,"is_reserved":false,"is_disabled":false,"rental_uris":{"android":"levelo://app?vid=f1224380-ec41-45e9-ac9e-aec8b7ef04f6","ios":"levelo://app?vid=f1224380-ec41-45e9-ac9e-aec8b7ef04f6"},"vehicle_type_id":"4","last_reported":1784151993,"current_range_meters":40000,"station_id":"ce4bh392rcd13ifvqdm0","pricing_plan_id":"cebpf4jnsgd1na2vs0mg"},{"bike_id":"0f34ff65-c41a-414e-929b-c51a425f3622","system_id":"levelo_inurba_marseille","lat":43.27487,"lon":5.42548,"is_reserved":false,"is_disabled":false,"rental_uris":{"android":"levelo://app?vid=0f34ff65-c41a-414e-929b-c51a425f3622","ios":"levelo://app?vid=0f34ff65-c41a-414e-929b-c51a425f3622"},"vehicle_type_id":"4","last_reported":1784151993,"current_range_meters":8400,"station_id":"st_d8t4bh7nbrqs73arha60","pricing_plan_id":"cebpf4jnsgd1na2vs0mg"},{"bike_id":"ecc295da-e6e3-4b72-af91-092433c094df","system_id":"levelo_inurba_marseille","lat":43.29535,"lon":5.38552,"is_reserved":false,"is_disabled":false,"rental_uris":{"android":"levelo://app?vid=ecc295da-e6e3-4b72-af91-092433c094df","ios":"levelo://app?vid=ecc295da-e6e3-4b72-af91-092433c094df"},"vehicle_type_id":"4","last_reported":1784151993,"current_range_meters":28000,"station_id":"ce4bgih2rcd13ifvqba0","pricing_plan_id":"cebpf4jnsgd1na2vs0mg"},{"bike_id":"aba3853e-bfc9-410c-84e0-12d4242a1eee","system_id":"levelo_inurba_marseille","lat":43.23392,"lon":5.3643,"is_reserved":false,"is_disabled":false,"rental_uris":{"android":"levelo://app?vid=aba3853e-bfc9-410c-84e0-12d4242a1eee","ios":"levelo://app?vid=aba3853e-bfc9-410c-84e0-12d4242a1eee"},"vehicle_type_id":"4","last_reported":1784151993,"current_range_meters":34800,"station_id":"","pricing_plan_id":"cebpf4jnsgd1na2vs0mg"},{"bike_id":"4f328a78-c889-4aec-ae72-8b69dfc36735","system_id":"levelo_inurba_marseille","lat":43.29511,"lon":5.39411,"is_reserved":false,"is_disabled":false,"rental_uris":{"android":"levelo://app?vid=4f328a78-c889-4aec-ae72-8b69dfc36735","ios":"levelo://app?vid=4f328a78-c889-4aec-ae72-8b69dfc36735"},"vehicle_type_id":"4","last_reported":1784151993,"current_range_meters":39200,"station_id":"ce4bh292rcd13ifvqdf0","pricing_plan_id":"cebpf4jnsgd1na2vs0mg"},{"bike_id":"324874fe-117d-47d9-8763-3ff165b02c7d","system_id":"levelo_inurba_marseille","lat":43.2632,"lon":5.37703,"is_reserved":false,"is_disabled":false,"rental_uris":{"android":"levelo://app?vid=324874fe-117d-47d9-8763-3ff165b02c7d","ios":"levelo://app?vid=324874fe-117d-47d9-8763-3ff165b02c7d"},"vehicle_type_id":"4","last_reported":1784151993,"current_range_meters":16000,"station_id":"","pricing_plan_id":"cebpf4jnsgd1na2vs0mg"},{"bike_id":"de086767-1e3a-4071-910c-487f3a439953","system_id":"levelo_inurba_marseille","lat":43.29607,"lon":5.37723,"is_reserved":false,"is_disabled":true,"rental_uris":{"android":"levelo://app?vid=de086767-1e3a-4071-910c-487f3a439953","ios":"levelo://app?vid=de086767-1e3a-4071-910c-487f3a439953"},"vehicle_type_id":"4","last_reported":1784151993,"current_range_meters":25600,"station_id":"ce4bgi92rcd13ifvqb90","pricing_plan_id":"cebpf4jnsgd1na2vs0mg"},{"bike_id":"b4b7cf45-857d-499f-903c-2153de8727c5","system_id":"levelo_inurba_marseille","lat":43.32428,"lon":5.3659,"is_reserved":false,"is_disabled":false,"rental_uris":{"android":"levelo://app?vid=b4b7cf45-857d-499f-903c-2153de8727c5","ios":"levelo://app?vid=b4b7cf45-857d-499f-903c-2153de8727c5"},"vehicle_type_id":"4","last_reported":1784151993,"current_range_meters":8000,"station_id":"","pricing_plan_id":"cebpf4jnsgd1na2vs0mg"},{"bike_id":"f30ce508-4929-4130-9276-3e69e709fe8f","system_id":"levelo_inurba_marseille","lat":43.29901,"lon":5.39742,"is_reserved":false,"is_disabled":false,"rental_uris":{"android":"levelo://app?vid=f30ce508-4929-4130-9276-3e69e709fe8f","ios":"levelo://app?vid=f30ce508-4929-4130-9276-3e69e709fe8f"},"vehicle_type_id":"4","last_reported":1784151993,"current_range_meters":39200,"station_id":"ce4bh0h2rcd13ifvqd50","pricing_plan_id":"cebpf4jnsgd1na2vs0mg"},{"bike_id":"c84aef38-3b44-4f7f-aef4-bb78024c1c98","system_id":"levelo_inurba_marseille","lat":43.25513,"lon":5.37654,"is_reserved":false,"is_disabled":false,"rental_uris":{"android":"levelo://app?vid=c84aef38-3b44-4f7f-aef4-bb78024c1c98","ios":"levelo://app?vid=c84aef38-3b44-4f7f-aef4-bb78024c1c98"},"vehicle_type_id":"4","last_reported":1784151993,"current_range_meters":39200,"station_id":"ce4bhh12rcd13ifvqff0","pricing_plan_id":"cebpf4jnsgd1na2vs0mg"},{"bike_id":"de33586d-1ad6-43fb-abac-eff95af90a64","system_id":"levelo_inurba_marseille","lat":43.26022,"lon":5.37554,"is_reserved":false,"is_disabled":true,"rental_uris":{"android":"levelo://app?vid=de33586d-1ad6-43fb-abac-eff95af90a64","ios":"levelo://app?vid=de33586d-1ad6-43fb-abac-eff95af90a64"},"vehicle_type_id":"4","last_reported":1784151993,"current_range_meters":28000,"station_id":"ce4bhgh2rcd13ifvqfa0","pricing_plan_id":"cebpf4jnsgd1na2vs0mg"},{"bike_id":"6bfecd8b-bb08-41a1-97e0-66de0c033905","system_id":"levelo_inurba_marseille","lat":43.30142,"lon":5.39896,"is_reserved":false,"is_disabled":true,"rental_uris":{"android":"levelo://app?vid=6bfecd8b-bb08-41a1-97e0-66de0c033905","ios":"levelo://app?vid=6bfecd8b-bb08-41a1-97e0-66de0c033905"},"vehicle_type_id":"4","last_reported":1784151993,"current_range_meters":12000,"station_id":"ce4bh0h2rcd13ifvqd40","pricing_plan_id":"cebpf4jnsgd1na2vs0mg"},{"bike_id":"66e873b2-82e5-4c8b-966e-bd32f68ff1f4","system_id":"levelo_inurba_marseille","lat":43.269268,"lon":5.389179,"is_reserved":false,"is_disabled":false,"rental_uris":{"android":"levelo://app?vid=66e873b2-82e5-4c8b-966e-bd32f68ff1f4","ios":"levelo://app?vid=66e873b2-82e5-4c8b-966e-bd32f68ff1f4"},"vehicle_type_id":"4","last_reported":1784151993,"current_range_meters":36800,"station_id":"ce4bhhh2rcd13ifvqfl0","pricing_plan_id":"cebpf4jnsgd1na2vs0mg"},{"bike_id":"13652050-b2e1-4225-9cf4-5b4af3b19551","system_id":"levelo_inurba_marseille","lat":43.3374,"lon":5.37486,"is_reserved":false,"is_disabled":false,"rental_uris":{"android":"levelo://app?vid=13652050-b2e1-4225-9cf4-5b4af3b19551","ios":"levelo://app?vid=13652050-b2e1-4225-9cf4-5b4af3b19551"},"vehicle_type_id":"4","last_reported":1784151993,"current_range_meters":14800,"station_id":"","pricing_plan_id":"cebpf4jnsgd1na2vs0mg"},{"bike_id":"51715928-b767-4063-bdf7-2027d9b3bc27","system_id":"levelo_inurba_marseille","lat":43.27502,"lon":5.42458,"is_reserved":false,"is_disabled":false,"rental_uris":{"android":"levelo://app?vid=51715928-b767-4063-bdf7-2027d9b3bc27","ios":"levelo://app?vid=51715928-b767-4063-bdf7-2027d9b3bc27"},"vehicle_type_id":"4","last_reported":1784151993,"current_range_meters":39200,"station_id":"ce4bhn92rcd13ifvqgrg","pricing_plan_id":"cebpf4jnsgd1na2vs0mg"},{"bike_id":"a25b858b-4a88-484f-96d4-90395ea62528","system_id":"levelo_inurba_marseille","lat":43.337603,"lon":5.37433,"is_reserved":false,"is_disabled":false,"rental_uris":{"android":"levelo://app?vid=a25b858b-4a88-484f-96d4-90395ea62528","ios":"levelo://app?vid=a25b858b-4a88-484f-96d4-90395ea62528"},"vehicle_type_id":"4","last_reported":1784151993,"current_range_meters":27600,"station_id":"","pricing_plan_id":"cebpf4jnsgd1na2vs0mg"},{"bike_id":"eadbf5e7-6bfc-4e3a-b0e9-0f3c75f13d91","system_id":"levelo_inurba_marseille","lat":43.2811,"lon":5.37826,"is_reserved":false,"is_disabled":false,"rental_uris":{"android":"levelo://app?vid=eadbf5e7-6bfc-4e3a-b0e9-0f3c75f13d91","ios":"levelo://app?vid=eadbf5e7-6bfc-4e3a-b0e9-0f3c75f13d91"},"vehicle_type_id":"4","last_reported":1784151993,"current_range_meters":38400,"station_id":"ce4bha12rcd13ifvqee0","pricing_plan_id":"cebpf4jnsgd1na2vs0mg"},{"bike_id":"e14c842e-50bc-4074-9284-336ad4596845","system_id":"levelo_inurba_marseille","lat":43.28432,"lon":5.3593,"is_reserved":false,"is_disabled":false,"rental_uris":{"android":"levelo://app?vid=e14c842e-50bc-4074-9284-336ad4596845","ios":"levelo://app?vid=e14c842e-50bc-4074-9284-336ad4596845"},"vehicle_type_id":"4","last_reported":1784151993,"current_range_meters":39200,"station_id":"","pricing_plan_id":"cebpf4jnsgd1na2vs0mg"},{"bike_id":"1329511d-c3e8-4e24-970e-a68ede635be8","system_id":"levelo_inurba_marseille","lat":43.29372,"lon":5.37931,"is_reserved":false,"is_disabled":false,"rental_uris":{"android":"levelo://app?vid=1329511d-c3e8-4e24-970e-a68ede635be8","ios":"levelo://app?vid=1329511d-c3e8-4e24-970e-a68ede635be8"},"vehicle_type_id":"4","last_reported":1784151993,"current_range_meters":19200,"station_id":"","pricing_plan_id":"cebpf4jnsgd1na2vs0mg"},{"bike_id":"0d46c7cb-e297-47ed-bb53-eca961b2f1ca","system_id":"levelo_inurba_marseille","lat":43.30119,"lon":5.38807,"is_reserved":false,"is_disabled":false,"rental_uris":{"android":"levelo://app?vid=0d46c7cb-e297-47ed-bb53-eca961b2f1ca","ios":"levelo://app?vid=0d46c7cb-e297-47ed-bb53-eca961b2f1ca"},"vehicle_type_id":"4","last_reported":1784151993,"current_range_meters":15200,"station_id":"ce4bghh2rcd13ifvqb60","pricing_plan_id":"cebpf4jnsgd1na2vs0mg"},{"bike_id":"7604574c-06cb-407e-9e16-b7858411e1bc","system_id":"levelo_inurba_marseille","lat":43.2784,"lon":5.40684,"is_reserved":false,"is_disabled":true,"rental_uris":{"android":"levelo://app?vid=7604574c-06cb-407e-9e16-b7858411e1bc","ios":"levelo://app?vid=7604574c-06cb-407e-9e16-b7858411e1bc"},"vehicle_type_id":"4","last_reported":1784151993,"current_range_meters":25600,"station_id":"ce4bhnh2rcd13ifvqgtg","pricing_plan_id":"cebpf4jnsgd1na2vs0mg"},{"bike_id":"a2b81de8-1e13-4f73-8a04-ae2c2872f502","system_id":"levelo_inurba_marseille","lat":43.28929,"lon":5.38391,"is_reserved":false,"is_disabled":false,"rental_uris":{"android":"levelo://app?vid=a2b81de8-1e13-4f73-8a04-ae2c2872f502","ios":"levelo://app?vid=a2b81de8-1e13-4f73-8a04-ae2c2872f502"},"vehicle_type_id":"4","last_reported":1784151993,"current_range_meters":6000,"station_id":"ce4bh612rcd13ifvqe6g","pricing_plan_id":"cebpf4jnsgd1na2vs0mg"},{"bike_id":"b22b8ece-88d7-4b89-af8b-369532e856f5","system_id":"levelo_inurba_marseille","lat":43.33774,"lon":5.37434,"is_reserved":false,"is_disabled":false,"rental_uris":{"android":"levelo://app?vid=b22b8ece-88d7-4b89-af8b-369532e856f5","ios":"levelo://app?vid=b22b8ece-88d7-4b89-af8b-369532e856f5"},"vehicle_type_id":"4","last_reported":1784151993,"current_range_meters":35600,"station_id":"","pricing_plan_id":"cebpf4jnsgd1na2vs0mg"},{"bike_id":"4114751a-3c44-46b0-979b-b9ba4f78ff44","system_id":"levelo_inurba_marseille","lat":43.2534,"lon":5.42179,"is_reserved":false,"is_disabled":false,"rental_uris":{"android":"levelo://app?vid=4114751a-3c44-46b0-979b-b9ba4f78ff44","ios":"levelo://app?vid=4114751a-3c44-46b0-979b-b9ba4f78ff44"},"vehicle_type_id":"4","last_reported":1784151993,"current_range_meters":23200,"station_id":"st_d2m65c5bi1j21697t3ng","pricing_plan_id":"cebpf4jnsgd1na2vs0mg"},