{"last_updated":1760814391,"ttl":60,"version":"2.2","data":{"bikes":[{"bike_id":"3fc971f1-3621-4186-95f6-f2ab50c0694c","system_id":"levelo_inurba_marseille","lat":43.27216,"lon":5.39168,"is_reserved":false,"is_disabled":false,"rental_uris":{"android":"levelo://app?vid=3fc971f1-3621-4186-95f6-f2ab50c0694c","ios":"levelo://app?vid=3fc971f1-3621-4186-95f6-f2ab50c0694c"},"vehicle_type_id":"4","last_reported":1760814391,"current_range_meters":2800,"station_id":"ce4bhhp2rcd13ifvqfm0","pricing_plan_id":"cebpf4jnsgd1na2vs0mg"},{"bike_id":"eadd2edf-ad22-4637-86e0-c77911baf1f6","system_id":"levelo_inurba_marseille","lat":43.21223,"lon":5.35061,"is_reserved":false,"is_disabled":true,"rental_uris":{"android":"levelo://app?vid=eadd2edf-ad22-4637-86e0-c77911baf1f6","ios":"levelo://app?vid=eadd2edf-ad22-4637-86e0-c77911baf1f6"},"vehicle_type_id":"4","last_reported":1760814391,"current_range_meters":2800,"station_id":"","pricing_plan_id":"cebpf4jnsgd1na2vs0mg"},{"bike_id":"df167aa3-5dcc-4e45-96e7-26232ebf1f6a","system_id":"levelo_inurba_marseille","lat":43.30807,"lon":5.43517,"is_reserved":false,"is_disabled":false,"rental_uris":{"android":"levelo://app?vid=df167aa3-5dcc-4e45-96e7-26232ebf1f6a","ios":"levelo://app?vid=df167aa3-5dcc-4e45-96e7-26232ebf1f6a"},"vehicle_type_id":"4","last_reported":1760814391,"current_range_meters":2800,"station_id":"ce4bhph2rcd13ifvqheg","pricing_plan_id":"cebpf4jnsgd1na2vs0mg"},{"bike_id":"33de5793-85a5-48b8-bb7c-0ec374b034ca","system_id":"levelo_inurba_marseille","lat":43.22541,"lon":5.34837,"is_reserved":false,"is_disabled":true,"rental_uris":{"android":"levelo://app?vid=33de5793-85a5-48b8-bb7c-0ec374b034ca","ios":"levelo://app?vid=33de5793-85a5-48b8-bb7c-0ec374b034ca"},"vehicle_type_id":"4","last_reported":1760814391,"current_range_meters":2800,"station_id":"","pricing_plan_id":"cebpf4jnsgd1na2vs0mg"},{"bike_id":"92d84d6e-1ef1-41a5-8c57-cf43b76f1ae7","system_id":"levelo_inurba_marseille","lat":43.26223,"lon":5.37451,"is_reserved":false,"is_disabled":false,"rental_uris":{"android":"levelo://app?vid=92d84d6e-1ef1-41a5-8c57-cf43b76f1ae7","ios":"levelo://app?vid=92d84d6e-1ef1-41a5-8c57-cf43b76f1ae7"},"vehicle_type_id":"4","last_reported":1760814391,"current_range_meters":2800,"station_id":"ce4bhgp2rcd13ifvqfc0","pricing_plan_id":"cebpf4jnsgd1na2vs0mg"},{"bike_id":"7ec8b36f-6f1a-41f0-a03a-a45e51acb027","system_id":"levelo_inurba_marseille","lat":43.21764,"lon":5.34618,"is_reserved":false,"is_disabled":true,"rental_uris":{"android":"levelo://app?vid=7ec8b36f-6f1a-41f0-a03a-a45e51acb027","ios":"levelo://app?vid=7ec8b36f-6f1a-41f0-a03a-a45e51acb027"},"vehicle_type_id":"4","last_reported":1760814391,"current_range_meters":2800,"station_id":"st_cvj6r9ubvosntc0bgbag","pricing_plan_id":"cebpf4jnsgd1na2vs0mg"},{"bike_id":"121f55c8-5a85-4142-a96c-bf52eb873442","system_id":"levelo_inurba_marseille","lat":43.30449,"lon":5.36951,"is_reserved":false,"is_disabled":false,"rental_uris":{"android":"levelo://app?vid=121f55c8-5a85-4142-a96c-bf52eb873442","ios":"levelo://app?vid=121f55c8-5a85-4142-a96c-bf52eb873442"},"vehicle_type_id":"4","last_reported":1760814391,"current_range_meters":2800,"station_id":"","pricing_plan_id":"cebpf4jnsgd1na2vs0mg"},{"bike_id":"1efbe577-d919-4c77-b9cf-7591abcd7e76","system_id":"levelo_inurba_marseille","lat":43.278022,"lon":5.402773,"is_reserved":false,"is_disabled":false,"rental_uris":{"android":"levelo://app?vid=1efbe577-d919-4c77-b9cf-7591abcd7e76","ios":"levelo://app?vid=1efbe577-d919-4c77-b9cf-7591abcd7e76"},"vehicle_type_id":"4","last_reported":1760814391,"current_range_meters":2800,"station_id":"ce4bh392rcd13ifvqdm0","pricing_plan_id":"cebpf4jnsgd1na2vs0mg"},{"bike_id":"48fdab8e-3bfa-435c-9fda-5169a91bce66","system_id":"levelo_inurba_marseille","lat":43.269392,"lon":5.4025,"is_reserved":false,"is_disabled":false,"rental_uris":{"android":"levelo://app?vid=48fdab8e-3bfa-435c-9fda-5169a91bce66","ios":"levelo://app?vid=48fdab8e-3bfa-435c-9fda-5169a91bce66"},"vehicle_type_id":"4","last_reported":1760814391,"current_range_meters":2800,"station_id":"cjm6bp8fraef2m0cb0m0","pricing_plan_id":"cebpf4jnsgd1na2vs0mg"},{"bike_id":"6c2beeeb-98a7-4e37-9bce-f25474acb60e","system_id":"levelo_inurba_marseille","lat":43.29862,"lon":5.38898,"is_reserved":false,"is_disabled":false,"rental_uris":{"android":"levelo://app?vid=6c2beeeb-98a7-4e37-9bce-f25474acb60e","ios":"levelo://app?vid=6c2beeeb-98a7-4e37-9bce-f25474acb60e"},"vehicle_type_id":"4","last_reported":1760814391,"current_range_meters":3200,"station_id":"ce4bh392rcd13ifvqdl0","pricing_plan_id":"cebpf4jnsgd1na2vs0mg"},{"bike_id":"5cf58e81-7552-4ebd-a932-79bba6f62907","system_id":"levelo_inurba_marseille","lat":43.29028,"lon":5.38634,"is_reserved":false,"is_disabled":true,"rental_uris":{"android":"levelo://app?vid=5cf58e81-7552-4ebd-a932-79bba6f62907","ios":"levelo://app?vid=5cf58e81-7552-4ebd-a932-79bba6f62907"},"vehicle_type_id":"4","last_reported":1760814391,"current_range_meters":3200,"station_id":"ce4bh3h2rcd13ifvqdo0","pricing_plan_id":"cebpf4jnsgd1na2vs0mg"},{"bike_id":"c3c47f0d-8218-4d10-806e-39a8a329102c","system_id":"levelo_inurba_marseille","lat":43.29536,"lon":5.38552,"is_reserved":false,"is_disabled":false,"rental_uris":{"android":"levelo://app?vid=c3c47f0d-8218-4d10-806e-39a8a329102c","ios":"levelo://app?vid=c3c47f0d-8218-4d10-806e-39a8a329102c"},"vehicle_type_id":"4","last_reported":1760814391,"current_range_meters":3200,"station_id":"ce4bgih2rcd13ifvqba0","pricing_plan_id":"cebpf4jnsgd1na2vs0mg"},{"bike_id":"3203fbd4-a1bd-4399-aabd-c63b62067954","system_id":"levelo_inurba_marseille","lat":43.3007,"lon":5.39053,"is_reserved":false,"is_disabled":false,"rental_uris":{"android":"levelo://app?vid=3203fbd4-a1bd-4399-aabd-c63b62067954","ios":"levelo://app?vid=3203fbd4-a1bd-4399-aabd-c63b62067954"},"vehicle_type_id":"4","last_reported":1760814391,"current_range_meters":3200,"station_id":"ce4bh192rcd13ifvqdb0","pricing_plan_id":"cebpf4jnsgd1na2vs0mg"},{"bike_id":"5090d3d3-08b6-489d-89a1-e9e3f2d27b6f","system_id":"levelo_inurba_marseille","lat":43.26946,"lon":5.4025,"is_reserved":false,"is_disabled":false,"rental_uris":{"android":"levelo://app?vid=5090d3d3-08b6-489d-89a1-e9e3f2d27b6f","ios":"levelo://app?vid=5090d3d3-08b6-489d-89a1-e9e3f2d27b6f"},"vehicle_type_id":"4","last_reported":1760814391,"current_range_meters":3200,"station_id":"cjm6bp8fraef2m0cb0m0","pricing_plan_id":"cebpf4jnsgd1na2vs0mg"},{"bike_id":"44c82552-6eb9-4091-bfee-9b7daeced1e2","system_id":"levelo_inurba_marseille","lat":43.295348,"lon":5.385447,"is_reserved":false,"is_disabled":false,"rental_uris":{"android":"levelo://app?vid=44c82552-6eb9-4091-bfee-9b7daeced1e2","ios":"levelo://app?vid=44c82552-6eb9-4091-bfee-9b7daeced1e2"},"vehicle_type_id":"4","last_reported":1760814391,"current_range_meters":3200,"station_id":"ce4bgih2rcd13ifvqba0","pricing_plan_id":"cebpf4jnsgd1na2vs0mg"},{"bike_id":"97404b2b-5fa4-4f12-acf8-a4d6a1499459","system_id":"levelo_inurba_marseille","lat":43.23966,"lon":5.36634,"is_reserved":false,"is_disabled":false,"rental_uris":{"android":"levelo://app?vid=97404b2b-5fa4-4f12-acf8-a4d6a1499459","ios":"levelo://app?vid=97404b2b-5fa4-4f12-acf8-a4d6a1499459"},"vehicle_type_id":"4","last_reported":1760814391,"current_range_meters":3200,"station_id":"ce4bhi12rcd13ifvqfp0","pricing_plan_id":"cebpf4jnsgd1na2vs0mg"},{"bike_id":"d5607cc7-ef0e-4aad-9eda-1e6f6362bc5c","system_id":"levelo_inurba_marseille","lat":43.29498,"lon":5.43301,"is_reserved":false,"is_disabled":false,"rental_uris":{"android":"levelo://app?vid=d5607cc7-ef0e-4aad-9eda-1e6f6362bc5c","ios":"levelo://app?vid=d5607cc7-ef0e-4aad-9eda-1e6f6362bc5c"},"vehicle_type_id":"4","last_reported":1760814391,"current_range_meters":3200,"station_id":"st_d3j5ugp08ojc73fj9d10","pricing_plan_id":"cebpf4jnsgd1na2vs0mg"},{"bike_id":"3598b383-579b-47d9-89b6-df786d16c45f","system_id":"levelo_inurba_marseille","lat":43.29412,"lon":5.37512,"is_reserved":false,"is_disabled":false,"rental_uris":{"android":"levelo://app?vid=3598b383-579b-47d9-89b6-df786d16c45f","ios":"levelo://app?vid=3598b383-579b-47d9-89b6-df786d16c45f"},"vehicle_type_id":"4","last_reported":1760814391,"current_range_meters":3200,"station_id":"","pricing_plan_id":"cebpf4jnsgd1na2vs0mg"},{"bike_id":"e257a5c9-b99e-4af1-ac4f-b017f1c8b418","system_id":"levelo_inurba_marseille","lat":43.33759,"lon":5.37438,"is_reserved":false,"is_disabled":false,"rental_uris":{"android":"levelo://app?vid=e257a5c9-b99e-4af1-ac4f-b017f1c8b418","ios":"levelo://app?vid=e257a5c9-b99e-4af1-ac4f-b017f1c8b418"},"vehicle_type_id":"4","last_reported":1760814391,"current_range_meters":3600,"station_id":"","pricing_plan_id":"cebpf4jnsgd1na2vs0mg"},{"bike_id":"f2e4239f-4073-4555-a31b-67ba97d4f956","system_id":"levelo_inurba_marseille","lat":43.26779,"lon":5.39427,"is_reserved":false,"is_disabled":false,"rental_uris":{"android":"levelo://app?vid=f2e4239f-4073-4555-a31b-67ba97d4f956","ios":"levelo://app?vid=f2e4239f-4073-4555-a31b-67ba97d4f956"},"vehicle_type_id":"4","last_reported":1760814391,"current_range_meters":3600,"station_id":"ce4bhh12rcd13ifvqfg0","pricing_plan_id":"cebpf4jnsgd1na2vs0mg"},{"bike_id":"6dead0d0-105b-487d-8a00-f9fa3dad8ebc","system_id":"levelo_inurba_marseille","lat":43.29245,"lon":5.383896,"is_reserved":false,"is_disabled":false,"rental_uris":{"android":"levelo://app?vid=6dead0d0-105b-487d-8a00-f9fa3dad8ebc","ios":"levelo://app?vid=6dead0d0-105b-487d-8a00-f9fa3dad8ebc"},"vehicle_type_id":"4","last_reported":1760814391,"current_range_meters":3600,"station_id":"","pricing_plan_id":"cebpf4jnsgd1na2vs0mg"},{"bike_id":"6fd8362c-b05e-4911-ac06-7e2b318e81ec","system_id":"levelo_inurba_marseille","lat":43.300848,"lon":5.390826,"is_reserved":false,"is_disabled":false,"rental_uris":{"android":"levelo://app?vid=6fd8362c-b05e-4911-ac06-7e2b318e81ec","ios":"levelo://app?vid=6fd8362c-b05e-4911-ac06-7e2b318e81ec"},"vehicle_type_id":"4","last_reported":1760814391,"current_range_meters":3600,"station_id":"ce4bh192rcd13ifvqdb0","pricing_plan_id":"cebpf4jnsgd1na2vs0mg"},{"bike_id":"ea7cb060-d598-4dde-8fb1-5edc70aa26d8","system_id":"levelo_inurba_marseille","lat":43.2648,"lon":5.39558,"is_reserved":false,"is_disabled":true,"rental_uris":{"android":"levelo://app?vid=ea7cb060-d598-4dde-8fb1-5edc70aa26d8","ios":"levelo://app?vid=ea7cb060-d598-4dde-8fb1-5edc70aa26d8"},"vehicle_type_id":"4","last_reported":1760814391,"current_range_meters":3600,"station_id":"ce4bhi12rcd13ifvqfq0","pricing_plan_id":"cebpf4jnsgd1na2vs0mg"},{"bike_id":"920c0ce2-5784-420c-9b8f-1f3343e07cae","system_id":"levelo_inurba_marseille","lat":43.29526,"lon":5.38548,"is_reserved":false,"is_disabled":false,"rental_uris":{"android":"levelo://app?vid=920c0ce2-5784-420c-9b8f-1f3343e07cae","ios":"levelo://app?vid=920c0ce2-5784-420c-9b8f-1f3343e07cae"},"vehicle_type_id":"4","last_reported":1760814391,"current_range_meters":3600,"station_id":"ce4bgih2rcd13ifvqba0","pricing_plan_id":"cebpf4jnsgd1na2vs0mg"},{"bike_id":"31ed8337-588c-482f-b6c3-c5dfb99c0c54","system_id":"levelo_inurba_marseille","lat":43.27913,"lon":5.39572,"is_reserved":false,"is_disabled":false,"rental_uris":{"android":"levelo://app?vid=31ed8337-588c-482f-b6c3-c5dfb99c0c54","ios":"levelo://app?vid=31ed8337-588c-482f-b6c3-c5dfb99c0c54"},"vehicle_type_id":"4","last_reported":1760814391,"current_range_meters":4000,"station_id":"ce4bhf92rcd13ifvqf40","pricing_plan_id":"cebpf4jnsgd1na2vs0mg"},{"bike_id":"cfdaac18-da71-41e4-aa06-9ee9de0b543a","system_id":"levelo_inurba_marseille","lat":43.29258,"lon":5.38452,"is_reserved":false,"is_disabled":false,"rental_uris":{"android":"levelo://app?vid=cfdaac18-da71-41e4-aa06-9ee9de0b543a","ios":"levelo://app?vid=cfdaac18-da71-41e4-aa06-9ee9de0b543a"},"vehicle_type_id":"4","last_reported":1760814391,"current_range_meters":4000,"station_id":"ce4bh692rcd13ifvqea0","pricing_plan_id":"cebpf4jnsgd1na2vs0mg"},{"bike_id":"394213f8-a678-4fef-874f-bcb7093d4f1d","system_id":"levelo_inurba_marseille","lat":43.28149,"lon":5.42642,"is_reserved":false,"is_disabled":false,"rental_uris":{"android":"levelo://app?vid=394213f8-a678-4fef-874f-bcb7093d4f1d","ios":"levelo://app?vid=394213f8-a678-4fef-874f-bcb7093d4f1d"},"vehicle_type_id":"4","last_reported":1760814391,"current_range_meters":4000,"station_id":"ce4bhnh2rcd13ifvqgug","pricing_plan_id":"cebpf4jnsgd1na2vs0mg"},{"bike_id":"3d348067-c21e-43c0-b303-10de3bcff73d","system_id":"levelo_inurba_marseille","lat":43.27053,"lon":5.40265,"is_reserved":false,"is_disabled":false,"rental_uris":{"android":"levelo://app?vid=3d348067-c21e-43c0-b303-10de3bcff73d","ios":"levelo://app?vid=3d348067-c21e-43c0-b303-10de3bcff73d"},"vehicle_type_id":"4","last_reported":1760814391,"current_range_meters":4000,"station_id":"ce4bhk92rcd13ifvqgc0","pricing_plan_id":"cebpf4jnsgd1na2vs0mg"},{"bike_id":"6d62827a-6615-4b31-a4f0-c0e700c61ccf","system_id":"levelo_inurba_marseille","lat":43.302521,"lon":5.400542,"is_reserved":false,"is_disabled":false,"rental_uris":{"android":"levelo://app?vid=6d62827a-6615-4b31-a4f0-c0e700c61ccf","ios":"levelo://app?vid=6d62827a-6615-4b31-a4f0-c0e700c61ccf"},"vehicle_type_id":"4","last_reported":1760814391,"current_range_meters":4400,"station_id":"ce4bgvh2rcd13ifvqcs0","pricing_plan_id":"cebpf4jnsgd1na2vs0mg"},{"bike_id":"61e4c69c-db6c-4073-a823-b2edc2e3c6bd","system_id":"levelo_inurba_marseille","lat":43.31371,"lon":5.38486,"is_reserved":false,"is_disabled":false,"rental_uris":{"android":"levelo://app?vid=61e4c69c-db6c-4073-a823-b2edc2e3c6bd","ios":"levelo://app?vid=61e4c69c-db6c-4073-a823-b2edc2e3c6bd"},"vehicle_type_id":"4","last_reported":1760814391,"current_range_meters":4400,"station_id":"ce4bgt92rcd13ifvqcf0","pricing_plan_id":"cebpf4jnsgd1na2vs0mg"},{"bike_id":"6af86244-5655-4827-b8e7-5e0131f4833c","system_id":"levelo_inurba_marseille","lat":43.28709,"lon":5.37579,"is_reserved":false,"is_disabled":false,"rental_uris":{"android":"levelo://app?vid=6af86244-5655-4827-b8e7-5e0131f4833c","ios":"levelo://app?vid=6af86244-5655-4827-b8e7-5e0131f4833c"},"vehicle_type_id":"4","last_reported":1760814391,"current_range_meters":4400,"station_id":"","pricing_plan_id":"cebpf4jnsgd1na2vs0mg"},{"bike_id":"96574f7d-c82c-4dad-af24-a5e062fafcaf","system_id":"levelo_inurba_marseille","lat":43.23267,"lon":5.35664,"is_reserved":false,"is_disabled":false,"rental_uris":{"android":"levelo://app?vid=96574f7d-c82c-4dad-af24-a5e062fafcaf","ios":"levelo://app?vid=96574f7d-c82c-4dad-af24-a5e062fafcaf"},"vehicle_type_id":"4","last_reported":1760814391,"current_range_meters":4800,"station_id":"","pricing_plan_id":"cebpf4jnsgd1na2vs0mg"},{"bike_id":"24d82d64-1145-442f-a9f5-19238b0b39ef","system_id":"levelo_inurba_marseille","lat":43.272133,"lon":5.391866,"is_reserved":false,"is_disabled":false,"rental_uris":{"android":"levelo://app?vid=24d82d64-1145-442f-a9f5-19238b0b39ef","ios":"levelo://app?vid=24d82d64-1145-442f-a9f5-19238b0b39ef"},"vehicle_type_id":"4","last_reported":1760814391,"current_range_meters":4800,"station_id":"","pricing_plan_id":"cebpf4jnsgd1na2vs0mg"},{"bike_id":"9fdbcfe6-38b7-407f-9d33-f3489a9ad69e","system_id":"levelo_inurba_marseille","lat":43.28343,"lon":5.38099,"is_reserved":false,"is_disabled":false,"rental_uris":{"android":"levelo://app?vid=9fdbcfe6-38b7-407f-9d33-f3489a9ad69e","ios":"levelo://app?vid=9fdbcfe6-38b7-407f-9d33-f3489a9ad69e"},"vehicle_type_id":"4","last_reported":1760814391,"current_range_meters":4800,"station_id":"ce4bh412rcd13ifvqdr0","pricing_plan_id":"cebpf4jnsgd1na2vs0mg"},{"bike_id":"fafbd404-0daa-4a8b-95c8-2c17ea348e5c","system_id":"levelo_inurba_marseille","lat":43.27993,"lon":5.41666,"is_reserved":false,"is_disabled":false,"rental_uris":{"android":"levelo://app?vid=fafbd404-0daa-4a8b-95c8-2c17ea348e5c","ios":"levelo://app?vid=fafbd404-0daa-4a8b-95c8-2c17ea348e5c"},"vehicle_type_id":"4","last_reported":1760814391,"current_range_meters":4800,"station_id":"ce4bho12rcd13ifvqh1g","pricing_plan_id":"cebpf4jnsgd1na2vs0mg"},{"bike_id":"6612ff54-a7ba-46e6-81a6-8ea03079d293","system_id":"levelo_inurba_marseille","lat":43.31481,"lon":5.37311,"is_reserved":false,"is_disabled":false,"rental_uris":{"android":"levelo://app?vid=6612ff54-a7ba-46e6-81a6-8ea03079d293","ios":"levelo://app?vid=6612ff54-a7ba-46e6-81a6-8ea03079d293"},"vehicle_type_id":"4","last_reported":1760814391,"current_range_meters":4800,"station_id":"ce4bgt12rcd13ifvqcd0","pricing_plan_id":"cebpf4jnsgd1na2vs0mg"},{"bike_id":"be09ed19-acf9-4d27-b8e6-0d53eaf7ff47","system_id":"levelo_inurba_marseille","lat":43.27212,"lon":5.39193,"is_reserved":false,"is_disabled":false,"rental_uris":{"android":"levelo://app?vid=be09ed19-acf9-4d27-b8e6-0d53eaf7ff47","ios":"levelo://app?vid=be09ed19-acf9-4d27-b8e6-0d53eaf7ff47"},"vehicle_type_id":"4","last_reported":1760814391,"current_range_meters":5600,"station_id":"ce4bhhp2rcd13ifvqfm0","pricing_plan_id":"cebpf4jnsgd1na2vs0mg"},{"bike_id":"b23419ca-391f-4619-8992-f1240fdcf396","system_id":"levelo_inurba_marseille","lat":43.24625,"lon":5.43153,"is_reserved":false,"is_disabled":false,"rental_uris":{"android":"levelo://app?vid=b23419ca-391f-4619-8992-f1240fdcf396","ios":"levelo://app?vid=b23419ca-391f-4619-8992-f1240fdcf396"},"vehicle_type_id":"4","last_reported":1760814391,"current_range_meters":5600,"station_id":"st_d2m6c4gdas8pm72e190g","pricing_plan_id":"cebpf4jnsgd1na2vs0mg"},{"bike_id":"03ed63de-9c6b-45ff-9854-c7747e3d3858","system_id":"levelo_inurba_marseille","lat":43.297738,"lon":5.372337,"is_reserved":false,"is_disabled":false,"rental_uris":{"android":"levelo://app?vid=03ed63de-9c6b-45ff-9854-c7747e3d3858","ios":"levelo://app?vid=03ed63de-9c6b-45ff-9854-c7747e3d3858"},"vehicle_type_id":"4","last_reported":1760814391,"current_range_meters":5600,"station_id":"ce4bgop2rcd13ifvqc1g","pricing_plan_id":"cebpf4jnsgd1na2vs0mg"},{"bike_id":"af45386d-74ba-4249-a18c-9e4371d82b25","system_id":"levelo_inurba_marseille","lat":43.289762,"lon":5.387012,"is_reserved":false,"is_disabled":false,"rental_uris":{"android":"levelo://app?vid=af45386d-74ba-4249-a18c-9e4371d82b25","ios":"levelo://app?vid=af45386d-74ba-4249-a18c-9e4371d82b25"},"vehicle_type_id":"4","last_reported":1760814391,"current_range_meters":5600,"station_id":"ce4bh4p2rcd13ifvqe0g","pricing_plan_id":"cebpf4jnsgd1na2vs0mg"},{"bike_id":"6f1f2c01-55b4-4173-8c34-84eabcc82d3b","system_id":"levelo_inurba_marseille","lat":43.26938,"lon":5.40266,"is_reserved":false,"is_disabled":false,"rental_uris":{"android":"levelo://app?vid=6f1f2c01-55b4-4173-8c34-84eabcc82d3b","ios":"levelo://app?vid=6f1f2c01-55b4-4173-8c34-84eabcc82d3b"},"vehicle_type_id":"4","last_reported":1760814391,"current_range_meters":5600,"station_id":"cjm6bp8fraef2m0cb0m0","pricing_plan_id":"cebpf4jnsgd1na2vs0mg"},{"bike_id":"3d46319a-421e-466d-8ac8-cc04cd70a3e1","system_id":"levelo_inurba_marseille","lat":43.2792,"lon":5.39579,"is_reserved":false,"is_disabled":false,"rental_uris":{"android":"levelo://app?vid=3d46319a-421e-466d-8ac8-cc04cd70a3e1","ios":"levelo://app?vid=3d46319a-421e-466d-8ac8-cc04cd70a3e1"},"vehicle_type_id":"4","last_reported":1760814391,"current_range_meters":5600,"station_id":"ce4bhf92rcd13ifvqf40","pricing_plan_id":"cebpf4jnsgd1na2vs0mg"},{"bike_id":"1c400808-3eed-46b3-a252-e7edeff346ab","system_id":"levelo_inurba_marseille","lat":43.29536,"lon":5.38545,"is_reserved":false,"is_disabled":false,"rental_uris":{"android":"levelo://app?vid=1c400808-3eed-46b3-a252-e7edeff346ab","ios":"levelo://app?vid=1c400808-3eed-46b3-a252-e7edeff346ab"},"vehicle_type_id":"4","last_reported":1760814391,"current_range_meters":6000,"station_id":"ce4bgih2rcd13ifvqba0","pricing_plan_id":"cebpf4jnsgd1na2vs0mg"},{"bike_id":"83a5c5bb-9d06-4146-9e27-b63caec2964c","system_id":"levelo_inurba_marseille","lat":43.30606,"lon":5.3721,"is_reserved":false,"is_disabled":false,"rental_uris":{"android":"levelo://app?vid=83a5c5bb-9d06-4146-9e27-b63caec2964c","ios":"levelo://app?vid=83a5c5bb-9d06-4146-9e27-b63caec2964c"},"vehicle_type_id":"4","last_reported":1760814391,"current_range_meters":6000,"station_id":"ce4bgqh2rcd13ifvqc4g","pricing_plan_id":"cebpf4jnsgd1na2vs0mg"},{"bike_id":"7b857880-9b27-4e4d-b31b-55af373663cb","system_id":"levelo_inurba_marseille","lat":43.28413,"lon":5.37514,"is_reserved":false,"is_disabled":false,"rental_uris":{"android":"levelo://app?vid=7b857880-9b27-4e4d-b31b-55af373663cb","ios":"levelo://app?vid=7b857880-9b27-4e4d-b31b-55af373663cb"},"vehicle_type_id":"4","last_reported":1760814391,"current_range_meters":6000,"station_id":"ce4bh412rcd13ifvqds0","pricing_plan_id":"cebpf4jnsgd1na2vs0mg"},{"bike_id":"03f22c3f-c891-43fe-993b-80d7bf710db0","system_id":"levelo_inurba_marseille","lat":43.29538,"lon":5.38542,"is_reserved":false,"is_disabled":false,"rental_uris":{"android":"levelo://app?vid=03f22c3f-c891-43fe-993b-80d7bf710db0","ios":"levelo://app?vid=03f22c3f-c891-43fe-993b-80d7bf710db0"},"vehicle_type_id":"4","last_reported":1760814391,"current_range_meters":6000,"station_id":"ce4bgih2rcd13ifvqba0","pricing_plan_id":"cebpf4jnsgd1na2vs0mg"},{"bike_id":"ce95d049-db64-403b-9240-386698d0ebe7","system_id":"levelo_inurba_marseille","lat":43.27229,"lon":5.39167,"is_reserved":false,"is_disabled":false,"rental_uris":{"android":"levelo://app?vid=ce95d049-db64-403b-9240-386698d0ebe7","ios":"levelo://app?vid=ce95d049-db64-403b-9240-386698d0ebe7"},"vehicle_type_id":"4","last_reported":1760814391,"current_range_meters":6000,"station_id":"ce4bhhp2rcd13ifvqfm0","pricing_plan_id":"cebpf4jnsgd1na2vs0mg"},{"bike_id":"dfd812db-3f88-4134-bfbc-1a1c85339aee","system_id":"levelo_inurba_marseille","lat":43.27062,"lon":5.38301,"is_reserved":false,"is_disabled":false,"rental_uris":{"android":"levelo://app?vid=dfd812db-3f88-4134-bfbc-1a1c85339aee","ios":"levelo://app?vid=dfd812db-3f88-4134-bfbc-1a1c85339aee"},"vehicle_type_id":"4","last_reported":1760814391,"current_range_meters":6000,"station_id":"st_d3n2fo6cfp8s73cte1j0","pricing_plan_id":"cebpf4jnsgd1na2vs0mg"},{"bike_id":"da5a9ab5-8958-4b1c-ab84-726fe0db6b4a","system_id":"levelo_inurba_marseille","lat":43.24081,"lon":5.37767,"is_reserved":false,"is_disabled":false,"rental_uris":{"android":"levelo://app?vid=da5a9ab5-8958-4b1c-ab84-726fe0db6b4a","ios":"levelo://app?vid=da5a9ab5-8958-4b1c-ab84-726fe0db6b4a"},"vehicle_type_id":"4","last_reported":1760814391,"current_range_meters":6000,"station_id":"ce4bhnp2rcd13ifvqgvg","pricing_plan_id":"cebpf4jnsgd1na2vs0mg"},{"bike_id":"cbd20b8c-6aee-4595-95e0-d1e4d5f13ed2","system_id":"levelo_inurba_marseille","lat":43.27196,"lon":5.391957,"is_reserved":false,"is_disabled":false,"rental_uris":{"android":"levelo://app?vid=cbd20b8c-6aee-4595-95e0-d1e4d5f13ed2","ios":"levelo://app?vid=cbd20b8c-6aee-4595-95e0-d1e4d5f13ed2"},"vehicle_type_id":"4","last_reported":1760814391,"current_range_meters":6000,"station_id":"ce4bhhp2rcd13ifvqfm0","pricing_plan_id":"cebpf4jnsgd1na2vs0mg"},{"bike_id":"b198fdae-a02e-4380-b40a-23fa0f5e4197","system_id":"levelo_inurba_marseille","lat":43.28623,"lon":5.40692,"is_reserved":false,"is_disabled":false,"rental_uris":{"android":"levelo://app?vid=b198fdae-a02e-4380-b40a-23fa0f5e4197","ios":"levelo://app?vid=b198fdae-a02e-4380-b40a-23fa0f5e4197"},"vehicle_type_id":"4","last_reported":1760814391,"current_range_meters":6000,"station_id":"","pricing_plan_id":"cebpf4jnsgd1na2vs0mg"},{"bike_id":"480476d8-4cd3-406e-8583-8cae3aa74638","system_id":"levelo_inurba_marseille","lat":43.29493,"lon":5.43304,"is_reserved":false,"is_disabled":false,"rental_uris":{"android":"levelo://app?vid=480476d8-4cd3-406e-8583-8cae3aa74638","ios":"levelo://app?vid=480476d8-4cd3-406e-8583-8cae3aa74638"},"vehicle_type_id":"4","last_reported":1760814391,"current_range_meters":6000,"station_id":"st_d3j5ugp08ojc73fj9d10","pricing_plan_id":"cebpf4jnsgd1na2vs0mg"},{"bike_id":"ce87f571-de00-47bf-ad06-62e300dc239f","system_id":"levelo_inurba_marseille","lat":43.29263,"lon":5.38446,"is_reserved":false,"is_disabled":false,"rental_uris":{"android":"levelo://app?vid=ce87f571-de00-47bf-ad06-62e300dc239f","ios":"levelo://app?vid=ce87f571-de00-47bf-ad06-62e300dc239f"},"vehicle_type_id":"4","last_reported":1760814391,"current_range_meters":6400,"station_id":"ce4bh692rcd13ifvqea0","pricing_plan_id":"cebpf4jnsgd1na2vs0mg"},{"bike_id":"a1710182-9f0e-4577-a892-197041f29f2c","system_id":"levelo_inurba_marseille","lat":43.30896,"lon":5.37189,"is_reserved":false,"is_disabled":false,"rental_uris":{"android":"levelo://app?vid=a1710182-9f0e-4577-a892-197041f29f2c","ios":"levelo://app?vid=a1710182-9f0e-4577-a892-197041f29f2c"},"vehicle_type_id":"4","last_reported":1760814391,"current_range_meters":6400,"station_id":"ce4bguh2rcd13ifvqckg","pricing_plan_id":"cebpf4jnsgd1na2vs0mg"},{"bike_id":"9dd1d8fe-c2a8-4a70-a175-61f5f9fe7fd2","system_id":"levelo_inurba_marseille","lat":43.32289,"lon":5.38543,"is_reserved":false,"is_disabled":false,"rental_uris":{"android":"levelo://app?vid=9dd1d8fe-c2a8-4a70-a175-61f5f9fe7fd2","ios":"levelo://app?vid=9dd1d8fe-c2a8-4a70-a175-61f5f9fe7fd2"},"vehicle_type_id":"4","last_reported":1760814391,"current_range_meters":6400,"station_id":"","pricing_plan_id":"cebpf4jnsgd1na2vs0mg"},{"bike_id":"6fa39166-3783-4dde-a00e-1aa9e0a9da45","system_id":"levelo_inurba_marseille","lat":43.295135,"lon":5.390407,"is_reserved":false,"is_disabled":false,"rental_uris":{"android":"levelo://app?vid=6fa39166-3783-4dde-a00e-1aa9e0a9da45","ios":"levelo://app?vid=6fa39166-3783-4dde-a00e-1aa9e0a9da45"},"vehicle_type_id":"4","last_reported":1760814391,"current_range_meters":6400,"station_id":"ce4bh3p2rcd13ifvqdp0","pricing_plan_id":"cebpf4jnsgd1na2vs0mg"},{"bike_id":"dcc00e67-1191-4314-ab42-5b6a0efd1bdf","system_id":"levelo_inurba_marseille","lat":43.26185,"lon":5.40577,"is_reserved":false,"is_disabled":false,"rental_uris":{"android":"levelo://app?vid=dcc00e67-1191-4314-ab42-5b6a0efd1bdf","ios":"levelo://app?vid=dcc00e67-1191-4314-ab42-5b6a0efd1bdf"},"vehicle_type_id":"4","last_reported":1760814391,"current_range_meters":6400,"station_id":"ce4bhmh2rcd13ifvqgmg","pricing_plan_id":"cebpf4jnsgd1na2vs0mg"},{"bike_id":"7563d215-1c21-4fbc-bde6-dfe13b011278","system_id":"levelo_inurba_marseille","lat":43.29923,"lon":5.36529,"is_reserved":false,"is_disabled":false,"rental_uris":{"android":"levelo://app?vid=7563d215-1c21-4fbc-bde6-dfe13b011278","ios":"levelo://app?vid=7563d215-1c21-4fbc-bde6-dfe13b011278"},"vehicle_type_id":"4","last_reported":1760814391,"current_range_meters":6400,"station_id":"ce4bgm92rcd13ifvqbr0","pricing_plan_id":"cebpf4jnsgd1na2vs0mg"},{"bike_id":"3eafed4e-46a6-4f90-b1ba-8b8761b9b7ae","system_id":"levelo_inurba_marseille","lat":43.284686,"lon":5.384205,"is_reserved":false,"is_disabled":false,"rental_uris":{"android":"levelo://app?vid=3eafed4e-46a6-4f90-b1ba-8b8761b9b7ae","ios":"levelo://app?vid=3eafed4e-46a6-4f90-b1ba-8b8761b9b7ae"},"vehicle_type_id":"4","last_reported":1760814391,"current_range_meters":6400,"station_id":"ce4bh512rcd13ifvqe3g","pricing_plan_id":"cebpf4jnsgd1na2vs0mg"},{"bike_id":"f35c0d49-b158-4d27-b6c3-1b11847d3f64","system_id":"levelo_inurba_marseille","lat":43.29535,"lon":5.38547,"is_reserved":false,"is_disabled":false,"rental_uris":{"android":"levelo://app?vid=f35c0d49-b158-4d27-b6c3-1b11847d3f64","ios":"levelo://app?vid=f35c0d49-b158-4d27-b6c3-1b11847d3f64"},"vehicle_type_id":"4","last_reported":1760814391,"current_range_meters":6400,"station_id":"ce4bgih2rcd13ifvqba0","pricing_plan_id":"cebpf4jnsgd1na2vs0mg"},{"bike_id":"416f580b-31c7-4ade-8604-dbd86eb8155f","system_id":"levelo_inurba_marseille","lat":43.28174,"lon":5.42113,"is_reserved":false,"is_disabled":false,"rental_uris":{"android":"levelo://app?vid=416f580b-31c7-4ade-8604-dbd86eb8155f","ios":"levelo://app?vid=416f580b-31c7-4ade-8604-dbd86eb8155f"},"vehicle_type_id":"4","last_reported":1760814391,"current_range_meters":6400,"station_id":"","pricing_plan_id":"cebpf4jnsgd1na2vs0mg"},{"bike_id":"5fe6e873-dba1-40dd-bc65-77de126f2710","system_id":"levelo_inurba_marseille","lat":43.332893,"lon":5.395256,"is_reserved":false,"is_disabled":false,"rental_uris":{"android":"levelo://app?vid=5fe6e873-dba1-40dd-bc65-77de126f2710","ios":"levelo://app?vid=5fe6e873-dba1-40dd-bc65-77de126f2710"},"vehicle_type_id":"4","last_reported":1760814391,"current_range_meters":6400,"station_id":"","pricing_plan_id":"cebpf4jnsgd1na2vs0mg"},{"bike_id":"4096706e-b195-49bc-811e-1b988bf76cca","system_id":"levelo_inurba_marseille","lat":43.31268,"lon":5.40158,"is_reserved":false,"is_disabled":false,"rental_uris":{"android":"levelo://app?vid=4096706e-b195-49bc-811e-1b988bf76cca","ios":"levelo://app?vid=4096706e-b195-49bc-811e-1b988bf76cca"},"vehicle_type_id":"4","last_reported":1760814391,"current_range_meters":6400,"station_id":"ce4bh092rcd13ifvqd30","pricing_plan_id":"cebpf4jnsgd1na2vs0mg"},{"bike_id":"4b08cfe7-5df1-4e29-905e-03a9992f8dfa","system_id":"levelo_inurba_marseille","lat":43.33773,"lon":5.37456,"is_reserved":false,"is_disabled":false,"rental_uris":{"android":"levelo://app?vid=4b08cfe7-5df1-4e29-905e-03a9992f8dfa","ios":"levelo://app?vid=4b08cfe7-5df1-4e29-905e-03a9992f8dfa"},"vehicle_type_id":"4","last_reported":1760814391,"current_range_meters":6800,"station_id":"","pricing_plan_id":"cebpf4jnsgd1na2vs0mg"},{"bike_id":"a6394cc7-1a77-4fcc-ae1b-ef5a2ff24a60","system_id":"levelo_inurba_marseille","lat":43.303206,"lon":5.404437,"is_reserved":false,"is_disabled":false,"rental_uris":{"android":"levelo://app?vid=a6394cc7-1a77-4fcc-ae1b-ef5a2ff24a60","ios":"levelo://app?vid=a6394cc7-1a77-4fcc-ae1b-ef5a2ff24a60"},"vehicle_type_id":"4","last_reported":1760814391,"current_range_meters":6800,"station_id":"ce4bh012rcd13ifvqd10","pricing_plan_id":"cebpf4jnsgd1na2vs0mg"},{"bike_id":"af3a694b-52fb-4afb-95f1-95832d576faf","system_id":"levelo_inurba_marseille","lat":43.26947,"lon":5.40266,"is_reserved":false,"is_disabled":false,"rental_uris":{"android":"levelo://app?vid=af3a694b-52fb-4afb-95f1-95832d576faf","ios":"levelo://app?vid=af3a694b-52fb-4afb-95f1-95832d576faf"},"vehicle_type_id":"4","last_reported":1760814391,"current_range_meters":6800,"station_id":"cjm6bp8fraef2m0cb0m0","pricing_plan_id":"cebpf4jnsgd1na2vs0mg"},{"bike_id":"5410e722-b77f-421b-85bb-cc6762227ad0","system_id":"levelo_inurba_marseille","lat":43.28536,"lon":5.441,"is_reserved":false,"is_disabled":false,"rental_uris":{"android":"levelo://app?vid=5410e722-b77f-421b-85bb-cc6762227ad0","ios":"levelo://app?vid=5410e722-b77f-421b-85bb-cc6762227ad0"},"vehicle_type_id":"4","last_reported":1760814391,"current_range_meters":6800,"station_id":"st_d3j3df2ikq2c7380ej80","pricing_plan_id":"cebpf4jnsgd1na2vs0mg"},{"bike_id":"94039e9a-f1c6-48b5-9984-590ebd73a21e","system_id":"levelo_inurba_marseille","lat":43.257202,"lon":5.411167,"is_reserved":false,"is_disabled":false,"rental_uris":{"android":"levelo://app?vid=94039e9a-f1c6-48b5-9984-590ebd73a21e","ios":"levelo://app?vid=94039e9a-f1c6-48b5-9984-590ebd73a21e"},"vehicle_type_id":"4","last_reported":1760814391,"current_range_meters":6800,"station_id":"ce4bhkp2rcd13ifvqgd0","pricing_plan_id":"cebpf4jnsgd1na2vs0mg"},{"bike_id":"e7fd232a-342b-4abf-8e5d-e4ef030e9b1b","system_id":"levelo_inurba_marseille","lat":43.29528,"lon":5.38555,"is_reserved":false,"is_disabled":false,"rental_uris":{"android":"levelo://app?vid=e7fd232a-342b-4abf-8e5d-e4ef030e9b1b","ios":"levelo://app?vid=e7fd232a-342b-4abf-8e5d-e4ef030e9b1b"},"vehicle_type_id":"4","last_reported":1760814391,"current_range_meters":6800,"station_id":"ce4bgih2rcd13ifvqba0","pricing_plan_id":"cebpf4jnsgd1na2vs0mg"},{"bike_id":"e7226762-830a-4299-b939-5b1653c779df","system_id":"levelo_inurba_marseille","lat":43.25124,"lon":5.40323,"is_reserved":false,"is_disabled":false,"rental_uris":{"android":"levelo://app?vid=e7226762-830a-4299-b939-5b1653c779df","ios":"levelo://app?vid=e7226762-830a-4299-b939-5b1653c779df"},"vehicle_type_id":"4","last_reported":1760814391,"current_range_meters":6800,"station_id":"ce4bhlh2rcd13ifvqgig","pricing_plan_id":"cebpf4jnsgd1na2vs0mg"},{"bike_id":"85f8113a-e108-4b8b-a6ac-c96fdd7e18af","system_id":"levelo_inurba_marseille","lat":43.30135,"lon":5.38773,"is_reserved":false,"is_disabled":false,"rental_uris":{"android":"levelo://app?vid=85f8113a-e108-4b8b-a6ac-c96fdd7e18af","ios":"levelo://app?vid=85f8113a-e108-4b8b-a6ac-c96fdd7e18af"},"vehicle_type_id":"4","last_reported":1760814391,"current_range_meters":7200,"station_id":"ce4bghh2rcd13ifvqb60","pricing_plan_id":"cebpf4jnsgd1na2vs0mg"},{"bike_id":"0feedf3e-1811-4abf-876a-1dada9956036","system_id":"levelo_inurba_marseille","lat":43.28681,"lon":5.38666,"is_reserved":false,"is_disabled":false,"rental_uris":{"android":"levelo://app?vid=0feedf3e-1811-4abf-876a-1dada9956036","ios":"levelo://app?vid=0feedf3e-1811-4abf-876a-1dada9956036"},"vehicle_type_id":"4","last_reported":1760814391,"current_range_meters":7200,"station_id":"ce4bh492rcd13ifvqdug","pricing_plan_id":"cebpf4jnsgd1na2vs0mg"},{"bike_id":"c5e45447-2956-450f-bd7e-88aaf308c04d","system_id":"levelo_inurba_marseille","lat":43.29017,"lon":5.36524,"is_reserved":false,"is_disabled":false,"rental_uris":{"android":"levelo://app?vid=c5e45447-2956-450f-bd7e-88aaf308c04d","ios":"levelo://app?vid=c5e45447-2956-450f-bd7e-88aaf308c04d"},"vehicle_type_id":"4","last_reported":1760814391,"current_range_meters":7200,"station_id":"","pricing_plan_id":"cebpf4jnsgd1na2vs0mg"},{"bike_id":"245a030c-0c43-41f8-a4cc-088d55252b06","system_id":"levelo_inurba_marseille","lat":43.244753,"lon":5.369365,"is_reserved":false,"is_disabled":false,"rental_uris":{"android":"levelo://app?vid=245a030c-0c43-41f8-a4cc-088d55252b06","ios":"levelo://app?vid=245a030c-0c43-41f8-a4cc-088d55252b06"},"vehicle_type_id":"4","last_reported":1760814391,"current_range_meters":7200,"station_id":"","pricing_plan_id":"cebpf4jnsgd1na2vs0mg"},{"bike_id":"01df38e7-d352-4bec-9747-5b55965ff1df","system_id":"levelo_inurba_marseille","lat":43.26934,"lon":5.40257,"is_reserved":false,"is_disabled":false,"rental_uris":{"android":"levelo://app?vid=01df38e7-d352-4bec-9747-5b55965ff1df","ios":"levelo://app?vid=01df38e7-d352-4bec-9747-5b55965ff1df"},"vehicle_type_id":"4","last_reported":1760814391,"current_range_meters":7200,"station_id":"cjm6bp8fraef2m0cb0m0","pricing_plan_id":"cebpf4jnsgd1na2vs0mg"},{"bike_id":"df59113e-edba-4fea-868f-90994fc51c98","system_id":"levelo_inurba_marseille","lat":43.30258,"lon":5.40056,"is_reserved":false,"is_disabled":false,"rental_uris":{"android":"levelo://app?vid=df59113e-edba-4fea-868f-90994fc51c98","ios":"levelo://app?vid=df59113e-edba-4fea-868f-90994fc51c98"},"vehicle_type_id":"4","last_reported":1760814391,"current_range_meters":7200,"station_id":"ce4bgvh2rcd13ifvqcs0","pricing_plan_id":"cebpf4jnsgd1na2vs0mg"},{"bike_id":"a817b630-bbed-48d3-97f4-9bd571b9ebab","system_id":"levelo_inurba_marseille","lat":43.29991,"lon":5.37361,"is_reserved":false,"is_disabled":false,"rental_uris":{"android":"levelo://app?vid=a817b630-bbed-48d3-97f4-9bd571b9ebab","ios":"levelo://app?vid=a817b630-bbed-48d3-97f4-9bd571b9ebab"},"vehicle_type_id":"4","last_reported":1760814391,"current_range_meters":7200,"station_id":"","pricing_plan_id":"cebpf4jnsgd1na2vs0mg"},{"bike_id":"fc71008e-d351-4861-a53c-faf5b76bd0a6","system_id":"levelo_inurba_marseille","lat":43.24951,"lon":5.40481,"is_reserved":false,"is_disabled":false,"rental_uris":{"android":"levelo://app?vid=fc71008e-d351-4861-a53c-faf5b76bd0a6","ios":"levelo://app?vid=fc71008e-d351-4861-a53c-faf5b76bd0a6"},"vehicle_type_id":"4","last_reported":1760814391,"current_range_meters":8000,"station_id":"st_d2ngiaodas8pm72gd1h0","pricing_plan_id":"cebpf4jnsgd1na2vs0mg"},{"bike_id":"8c442010-1edd-4097-aa1f-6188152aa464","system_id":"levelo_inurba_marseille","lat":43.29257,"lon":5.38454,"is_reserved":false,"is_disabled":false,"rental_uris":{"android":"levelo://app?vid=8c442010-1edd-4097-aa1f-6188152aa464","ios":"levelo://app?vid=8c442010-1edd-4097-aa1f-6188152aa464"},"vehicle_type_id":"4","last_reported":1760814391,"current_range_meters":8000,"station_id":"ce4bh692rcd13ifvqea0","pricing_plan_id":"cebpf4jnsgd1na2vs0mg"},{"bike_id":"2c0305c3-221c-49a0-8f61-93a5c3df950a","system_id":"levelo_inurba_marseille","lat":43.29252,"lon":5.40906,"is_reserved":false,"is_disabled":false,"rental_uris":{"android":"levelo://app?vid=2c0305c3-221c-49a0-8f61-93a5c3df950a","ios":"levelo://app?vid=2c0305c3-221c-49a0-8f61-93a5c3df950a"},"vehicle_type_id":"4","last_reported":1760814391,"current_range_meters":8000,"station_id":"ce4bh192rcd13ifvqdc0","pricing_plan_id":"cebpf4jnsgd1na2vs0mg"},{"bike_id":"8bd272a3-683a-4148-9970-3334beb0a457","system_id":"levelo_inurba_marseille","lat":43.285287,"lon":5.441001,"is_reserved":false,"is_disabled":false,"rental_uris":{"android":"levelo://app?vid=8bd272a3-683a-4148-9970-3334beb0a457","ios":"levelo://app?vid=8bd272a3-683a-4148-9970-3334beb0a457"},"vehicle_type_id":"4","last_reported":1760814391,"current_range_meters":8000,"station_id":"st_d3j3df2ikq2c7380ej80","pricing_plan_id":"cebpf4jnsgd1na2vs0mg"},{"bike_id":"bc2da3db-9fd8-49a2-9c7e-b2d7fddf194f","system_id":"levelo_inurba_marseille","lat":43.23782,"lon":5.36633,"is_reserved":false,"is_disabled":false,"rental_uris":{"android":"levelo://app?vid=bc2da3db-9fd8-49a2-9c7e-b2d7fddf194f","ios":"levelo://app?vid=bc2da3db-9fd8-49a2-9c7e-b2d7fddf194f"},"vehicle_type_id":"4","last_reported":1760814391,"current_range_meters":8000,"station_id":"st_d3nk18o9ro0c73en2l3g","pricing_plan_id":"cebpf4jnsgd1na2vs0mg"},{"bike_id":"c9d290c7-5c4d-4440-8ce5-b8844432edab","system_id":"levelo_inurba_marseille","lat":43.29251,"lon":5.38444,"is_reserved":false,"is_disabled":false,"rental_uris":{"android":"levelo://app?vid=c9d290c7-5c4d-4440-8ce5-b8844432edab","ios":"levelo://app?vid=c9d290c7-5c4d-4440-8ce5-b8844432edab"},"vehicle_type_id":"4","last_reported":1760814391,"current_range_meters":8000,"station_id":"ce4bh692rcd13ifvqea0","pricing_plan_id":"cebpf4jnsgd1na2vs0mg"},{"bike_id":"12c440c0-45cd-4622-bc6a-7282d5d959cd","system_id":"levelo_inurba_marseille","lat":43.28419,"lon":5.37523,"is_reserved":false,"is_disabled":false,"rental_uris":{"android":"levelo://app?vid=12c440c0-45cd-4622-bc6a-7282d5d959cd","ios":"levelo://app?vid=12c440c0-45cd-4622-bc6a-7282d5d959cd"},"vehicle_type_id":"4","last_reported":1760814391,"current_range_meters":8000,"station_id":"ce4bh412rcd13ifvqds0","pricing_plan_id":"cebpf4jnsgd1na2vs0mg"},{"bike_id":"868aeace-2c03-47f8-8d37-bdf226a53308","system_id":"levelo_inurba_marseille","lat":43.310371,"lon":5.368434,"is_reserved":false,"is_disabled":false,"rental_uris":{"android":"levelo://app?vid=868aeace-2c03-47f8-8d37-bdf226a53308","ios":"levelo://app?vid=868aeace-2c03-47f8-8d37-bdf226a53308"},"vehicle_type_id":"4","last_reported":1760814391,"current_range_meters":8000,"station_id":"ce4bgn92rcd13ifvqbvg","pricing_plan_id":"cebpf4jnsgd1na2vs0mg"},{"bike_id":"2cc6af61-e519-4e7f-9fd2-d6ed2d8a770b","system_id":"levelo_inurba_marseille","lat":43.29243,"lon":5.38454,"is_reserved":false,"is_disabled":false,"rental_uris":{"android":"levelo://app?vid=2cc6af61-e519-4e7f-9fd2-d6ed2d8a770b","ios":"levelo://app?vid=2cc6af61-e519-4e7f-9fd2-d6ed2d8a770b"},"vehicle_type_id":"4","last_reported":1760814391,"current_range_meters":8000,"station_id":"ce4bh692rcd13ifvqea0","pricing_plan_id":"cebpf4jnsgd1na2vs0mg"},{"bike_id":"15095a74-ab12-458e-8a71-0e564aef091a","system_id":"levelo_inurba_marseille","lat":43.25323,"lon":5.42174,"is_reserved":false,"is_disabled":false,"rental_uris":{"android":"levelo://app?vid=15095a74-ab12-458e-8a71-0e564aef091a","ios":"levelo://app?vid=15095a74-ab12-458e-8a71-0e564aef091a"},"vehicle_type_id":"4","last_reported":1760814391,"current_range_meters":8000,"station_id":"st_d2m65c5bi1j21697t3ng","pricing_plan_id":"cebpf4jnsgd1na2vs0mg"},{"bike_id":"2a957978-d5f6-4374-b345-31c622d6be44","system_id":"levelo_inurba_marseille","lat":43.29594,"lon":5.38098,"is_reserved":false,"is_disabled":false,"rental_uris":{"android":"levelo://app?vid=2a957978-d5f6-4374-b345-31c622d6be44","ios":"levelo://app?vid=2a957978-d5f6-4374-b345-31c622d6be44"},"vehicle_type_id":"4","last_reported":1760814391,"current_range_meters":8400,"station_id":"ce4bgl12rcd13ifvqbo0","pricing_plan_id":"cebpf4jnsgd1na2vs0mg"},{"bike_id":"1b3909e6-68ce-49f5-be6d-801d652263c1","system_id":"levelo_inurba_marseille","lat":43.29162,"lon":5.37164,"is_reserved":false,"is_disabled":false,"rental_uris":{"android":"levelo://app?vid=1b3909e6-68ce-49f5-be6d-801d652263c1","ios":"levelo://app?vid=1b3909e6-68ce-49f5-be6d-801d652263c1"},"vehicle_type_id":"4","last_reported":1760814391,"current_range_meters":8400,"station_id":"ce4bha92rcd13ifvqeh0","pricing_plan_id":"cebpf4jnsgd1na2vs0mg"},{"bike_id":"dd4eb968-6f0a-4815-ac1e-e39f4da16996","system_id":"levelo_inurba_marseille","lat":43.267754,"lon":5.394226,"is_reserved":false,"is_disabled":false,"rental_uris":{"android":"levelo://app?vid=dd4eb968-6f0a-4815-ac1e-e39f4da16996","ios":"levelo://app?vid=dd4eb968-6f0a-4815-ac1e-e39f4da16996"},"vehicle_type_id":"4","last_reported":1760814391,"current_range_meters":8400,"station_id":"ce4bhh12rcd13ifvqfg0","pricing_plan_id":"cebpf4jnsgd1na2vs0mg"},{"bike_id":"515b0974-0494-4b9f-b380-58fa0c489598","system_id":"levelo_inurba_marseille","lat":43.26939,"lon":5.40258,"is_reserved":false,"is_disabled":false,"rental_uris":{"android":"levelo://app?vid=515b0974-0494-4b9f-b380-58fa0c489598","ios":"levelo://app?vid=515b0974-0494-4b9f-b380-58fa0c489598"},"vehicle_type_id":"4","last_reported":1760814391,"current_range_meters":8400,"station_id":"cjm6bp8fraef2m0cb0m0","pricing_plan_id":"cebpf4jnsgd1na2vs0mg"},{"bike_id":"42e29697-fad7-4787-9c75-4bac62c7d6fc","system_id":"levelo_inurba_marseille","lat":43.29532,"lon":5.38553,"is_reserved":false,"is_disabled":false,"rental_uris":{"android":"levelo://app?vid=42e29697-fad7-4787-9c75-4bac62c7d6fc","ios":"levelo://app?vid=42e29697-fad7-4787-9c75-4bac62c7d6fc"},"vehicle_type_id":"4","last_reported":1760814391,"current_range_meters":8400,"station_id":"ce4bgih2rcd13ifvqba0","pricing_plan_id":"cebpf4jnsgd1na2vs0mg"},{"bike_id":"6fec1bd2-e6bf-429f-ade8-02ccbf04e9db","system_id":"levelo_inurba_marseille","lat":43.2678,"lon":5.39422,"is_reserved":false,"is_disabled":false,"rental_uris":{"android":"levelo://app?vid=6fec1bd2-e6bf-429f-ade8-02ccbf04e9db","ios":"levelo://app?vid=6fec1bd2-e6bf-429f-ade8-02ccbf04e9db"},"vehicle_type_id":"4","last_reported":1760814391,"current_range_meters":8400,"station_id":"ce4bhh12rcd13ifvqfg0","pricing_plan_id":"cebpf4jnsgd1na2vs0mg"},{"bike_id":"5b200941-4e0e-4846-a85a-4f1f5718c444","system_id":"levelo_inurba_marseille","lat":43.27995,"lon":5.4167,"is_reserved":false,"is_disabled":false,"rental_uris":{"android":"levelo://app?vid=5b200941-4e0e-4846-a85a-4f1f5718c444","ios":"levelo://app?vid=5b200941-4e0e-4846-a85a-4f1f5718c444"},"vehicle_type_id":"4","last_reported":1760814391,"current_range_meters":8400,"station_id":"ce4bho12rcd13ifvqh1g","pricing_plan_id":"cebpf4jnsgd1na2vs0mg"},{"bike_id":"eb510d93-05e0-4709-b75c-9ae54c2a2339","system_id":"levelo_inurba_marseille","lat":43.29533,"lon":5.38547,"is_reserved":false,"is_disabled":false,"rental_uris":{"android":"levelo://app?vid=eb510d93-05e0-4709-b75c-9ae54c2a2339","ios":"levelo://app?vid=eb510d93-05e0-4709-b75c-9ae54c2a2339"},"vehicle_type_id":"4","last_reported":1760814391,"current_range_meters":8400,"station_id":"ce4bgih2rcd13ifvqba0","pricing_plan_id":"cebpf4jnsgd1na2vs0mg"},{"bike_id":"c0316369-603c-416a-bd35-b12236308af5","system_id":"levelo_inurba_marseille","lat":43.27212,"lon":5.39159,"is_reserved":false,"is_disabled":false,"rental_uris":{"android":"levelo://app?vid=c0316369-603c-416a-bd35-b12236308af5","ios":"levelo://app?vid=c0316369-603c-416a-bd35-b12236308af5"},"vehicle_type_id":"4","last_reported":1760814391,"current_range_meters":8400,"station_id":"ce4bhhp2rcd13ifvqfm0","pricing_plan_id":"cebpf4jnsgd1na2vs0mg"},{"bike_id":"bfb8b20c-d4b0-41a5-83cb-b24a8c5bc1e0","system_id":"levelo_inurba_marseille","lat":43.29603,"lon":5.38099,"is_reserved":false,"is_disabled":false,"rental_uris":{"android":"levelo://app?vid=bfb8b20c-d4b0-41a5-83cb-b24a8c5bc1e0","ios":"levelo://app?vid=bfb8b20c-d4b0-41a5-83cb-b24a8c5bc1e0"},"vehicle_type_id":"4","last_reported":1760814391,"current_range_meters":8800,"station_id":"ce4bgl12rcd13ifvqbo0","pricing_plan_id":"cebpf4jnsgd1na2vs0mg"},{"bike_id":"155bfd93-d248-4e9e-86ef-9c54177f3418","system_id":"levelo_inurba_marseille","lat":43.28677,"lon":5.38681,"is_reserved":false,"is_disabled":false,"rental_uris":{"android":"levelo://app?vid=155bfd93-d248-4e9e-86ef-9c54177f3418","ios":"levelo://app?vid=155bfd93-d248-4e9e-86ef-9c54177f3418"},"vehicle_type_id":"4","last_reported":1760814391,"current_range_meters":8800,"station_id":"ce4bh492rcd13ifvqdug","pricing_plan_id":"cebpf4jnsgd1na2vs0mg"},{"bike_id":"b31bff3b-2610-4305-8ede-c2bbab091ecb","system_id":"levelo_inurba_marseille","lat":43.29905,"lon":5.37482,"is_reserved":false,"is_disabled":false,"rental_uris":{"android":"levelo://app?vid=b31bff3b-2610-4305-8ede-c2bbab091ecb","ios":"levelo://app?vid=b31bff3b-2610-4305-8ede-c2bbab091ecb"},"vehicle_type_id":"4","last_reported":1760814391,"current_range_meters":8800,"station_id":"ce4bgjh2rcd13ifvqbg0","pricing_plan_id":"cebpf4jnsgd1na2vs0mg"},{"bike_id":"d5bf2028-d541-4369-8e46-50c1ec9498f8","system_id":"levelo_inurba_marseille","lat":43.29522,"lon":5.39405,"is_reserved":false,"is_disabled":false,"rental_uris":{"android":"levelo://app?vid=d5bf2028-d541-4369-8e46-50c1ec9498f8","ios":"levelo://app?vid=d5bf2028-d541-4369-8e46-50c1ec9498f8"},"vehicle_type_id":"4","last_reported":1760814391,"current_range_meters":8800,"station_id":"ce4bh292rcd13ifvqdf0","pricing_plan_id":"cebpf4jnsgd1na2vs0mg"},{"bike_id":"9538e8d8-bb40-4147-916b-fefc0c6ded50","system_id":"levelo_inurba_marseille","lat":43.2952,"lon":5.38558,"is_reserved":false,"is_disabled":false,"rental_uris":{"android":"levelo://app?vid=9538e8d8-bb40-4147-916b-fefc0c6ded50","ios":"levelo://app?vid=9538e8d8-bb40-4147-916b-fefc0c6ded50"},"vehicle_type_id":"4","last_reported":1760814391,"current_range_meters":8800,"station_id":"ce4bgih2rcd13ifvqba0","pricing_plan_id":"cebpf4jnsgd1na2vs0mg"},{"bike_id":"ab3b05ce-9d4e-402a-aad3-521fdf353a78","system_id":"levelo_inurba_marseille","lat":43.29264,"lon":5.3845,"is_reserved":false,"is_disabled":false,"rental_uris":{"android":"levelo://app?vid=ab3b05ce-9d4e-402a-aad3-521fdf353a78","ios":"levelo://app?vid=ab3b05ce-9d4e-402a-aad3-521fdf353a78"},"vehicle_type_id":"4","last_reported":1760814391,"current_range_meters":9200,"station_id":"ce4bh692rcd13ifvqea0","pricing_plan_id":"cebpf4jnsgd1na2vs0mg"},{"bike_id":"0c1d7f3c-8421-4b05-a23c-dc9192d22342","system_id":"levelo_inurba_marseille","lat":43.28155,"lon":5.42647,"is_reserved":false,"is_disabled":false,"rental_uris":{"android":"levelo://app?vid=0c1d7f3c-8421-4b05-a23c-dc9192d22342","ios":"levelo://app?vid=0c1d7f3c-8421-4b05-a23c-dc9192d22342"},"vehicle_type_id":"4","last_reported":1760814391,"current_range_meters":9200,"station_id":"ce4bhnh2rcd13ifvqgug","pricing_plan_id":"cebpf4jnsgd1na2vs0mg"},{"bike_id":"924ac669-be8b-47aa-9a8e-6f22baf815eb","system_id":"levelo_inurba_marseille","lat":43.337692,"lon":5.374734,"is_reserved":false,"is_disabled":false,"rental_uris":{"android":"levelo://app?vid=924ac669-be8b-47aa-9a8e-6f22baf815eb","ios":"levelo://app?vid=924ac669-be8b-47aa-9a8e-6f22baf815eb"},"vehicle_type_id":"4","last_reported":1760814391,"current_range_meters":9200,"station_id":"","pricing_plan_id":"cebpf4jnsgd1na2vs0mg"},{"bike_id":"9e01b8da-7b04-4ed7-8042-a06237ec338d","system_id":"levelo_inurba_marseille","lat":43.313724,"lon":5.396842,"is_reserved":false,"is_disabled":false,"rental_uris":{"android":"levelo://app?vid=9e01b8da-7b04-4ed7-8042-a06237ec338d","ios":"levelo://app?vid=9e01b8da-7b04-4ed7-8042-a06237ec338d"},"vehicle_type_id":"4","last_reported":1760814391,"current_range_meters":9200,"station_id":"ce4bgvp2rcd13ifvqcu0","pricing_plan_id":"cebpf4jnsgd1na2vs0mg"},{"bike_id":"28a9637c-fff3-4842-a000-2d3864ba27f1","system_id":"levelo_inurba_marseille","lat":43.30608,"lon":5.37217,"is_reserved":false,"is_disabled":false,"rental_uris":{"android":"levelo://app?vid=28a9637c-fff3-4842-a000-2d3864ba27f1","ios":"levelo://app?vid=28a9637c-fff3-4842-a000-2d3864ba27f1"},"vehicle_type_id":"4","last_reported":1760814391,"current_range_meters":9200,"station_id":"ce4bgqh2rcd13ifvqc4g","pricing_plan_id":"cebpf4jnsgd1na2vs0mg"},{"bike_id":"b89630fa-97fa-4dd2-9312-957251d08bc7","system_id":"levelo_inurba_marseille","lat":43.28422,"lon":5.37513,"is_reserved":false,"is_disabled":true,"rental_uris":{"android":"levelo://app?vid=b89630fa-97fa-4dd2-9312-957251d08bc7","ios":"levelo://app?vid=b89630fa-97fa-4dd2-9312-957251d08bc7"},"vehicle_type_id":"4","last_reported":1760814391,"current_range_meters":9200,"station_id":"ce4bh412rcd13ifvqds0","pricing_plan_id":"cebpf4jnsgd1na2vs0mg"},{"bike_id":"6963d567-1514-4beb-9202-b502e9bfdc62","system_id":"levelo_inurba_marseille","lat":43.27217,"lon":5.39169,"is_reserved":false,"is_disabled":false,"rental_uris":{"android":"levelo://app?vid=6963d567-1514-4beb-9202-b502e9bfdc62","ios":"levelo://app?vid=6963d567-1514-4beb-9202-b502e9bfdc62"},"vehicle_type_id":"4","last_reported":1760814391,"current_range_meters":9600,"station_id":"ce4bhhp2rcd13ifvqfm0","pricing_plan_id":"cebpf4jnsgd1na2vs0mg"},{"bike_id":"22dd2f64-c626-4eff-b863-82b8aa97ead0","system_id":"levelo_inurba_marseille","lat":43.29542,"lon":5.3854,"is_reserved":false,"is_disabled":false,"rental_uris":{"android":"levelo://app?vid=22dd2f64-c626-4eff-b863-82b8aa97ead0","ios":"levelo://app?vid=22dd2f64-c626-4eff-b863-82b8aa97ead0"},"vehicle_type_id":"4","last_reported":1760814391,"current_range_meters":9600,"station_id":"ce4bgih2rcd13ifvqba0","pricing_plan_id":"cebpf4jnsgd1na2vs0mg"},{"bike_id":"ff86eea6-c1e6-4578-b1e5-0e4fb5f089c5","system_id":"levelo_inurba_marseille","lat":43.28541,"lon":5.384,"is_reserved":false,"is_disabled":false,"rental_uris":{"android":"levelo://app?vid=ff86eea6-c1e6-4578-b1e5-0e4fb5f089c5","ios":"levelo://app?vid=ff86eea6-c1e6-4578-b1e5-0e4fb5f089c5"},"vehicle_type_id":"4","last_reported":1760814391,"current_range_meters":9600,"station_id":"","pricing_plan_id":"cebpf4jnsgd1na2vs0mg"},{"bike_id":"5278f369-7011-437d-9f60-9ef9499a8a25","system_id":"levelo_inurba_marseille","lat":43.27058,"lon":5.40258,"is_reserved":false,"is_disabled":false,"rental_uris":{"android":"levelo://app?vid=5278f369-7011-437d-9f60-9ef9499a8a25","ios":"levelo://app?vid=5278f369-7011-437d-9f60-9ef9499a8a25"},"vehicle_type_id":"4","last_reported":1760814391,"current_range_meters":9600,"station_id":"ce4bhk92rcd13ifvqgc0","pricing_plan_id":"cebpf4jnsgd1na2vs0mg"},{"bike_id":"f13259c8-94da-45f6-abfa-9a31fb4ba202","system_id":"levelo_inurba_marseille","lat":43.271722,"lon":5.409938,"is_reserved":false,"is_disabled":false,"rental_uris":{"android":"levelo://app?vid=f13259c8-94da-45f6-abfa-9a31fb4ba202","ios":"levelo://app?vid=f13259c8-94da-45f6-abfa-9a31fb4ba202"},"vehicle_type_id":"4","last_reported":1760814391,"current_range_meters":9600,"station_id":"ce4bhl12rcd13ifvqgf0","pricing_plan_id":"cebpf4jnsgd1na2vs0mg"},{"bike_id":"0a53904e-6100-4306-9c10-14b7a7cd0e43","system_id":"levelo_inurba_marseille","lat":43.29982,"lon":5.41335,"is_reserved":false,"is_disabled":false,"rental_uris":{"android":"levelo://app?vid=0a53904e-6100-4306-9c10-14b7a7cd0e43","ios":"levelo://app?vid=0a53904e-6100-4306-9c10-14b7a7cd0e43"},"vehicle_type_id":"4","last_reported":1760814391,"current_range_meters":9600,"station_id":"ce4bhp12rcd13ifvqh9g","pricing_plan_id":"cebpf4jnsgd1na2vs0mg"},{"bike_id":"5579284f-99c2-41ff-91b4-a780186d7245","system_id":"levelo_inurba_marseille","lat":43.25723,"lon":5.41111,"is_reserved":false,"is_disabled":false,"rental_uris":{"android":"levelo://app?vid=5579284f-99c2-41ff-91b4-a780186d7245","ios":"levelo://app?vid=5579284f-99c2-41ff-91b4-a780186d7245"},"vehicle_type_id":"4","last_reported":1760814391,"current_range_meters":9600,"station_id":"ce4bhkp2rcd13ifvqgd0","pricing_plan_id":"cebpf4jnsgd1na2vs0mg"},{"bike_id":"531099f3-f1bd-48d2-afd6-12826d4f5fef","system_id":"levelo_inurba_marseille","lat":43.27072,"lon":5.38312,"is_reserved":false,"is_disabled":false,"rental_uris":{"android":"levelo://app?vid=531099f3-f1bd-48d2-afd6-12826d4f5fef","ios":"levelo://app?vid=531099f3-f1bd-48d2-afd6-12826d4f5fef"},"vehicle_type_id":"4","last_reported":1760814391,"current_range_meters":9600,"station_id":"st_d3n2fo6cfp8s73cte1j0","pricing_plan_id":"cebpf4jnsgd1na2vs0mg"},{"bike_id":"bd4320ce-2aec-4623-8f05-878d797d1bb0","system_id":"levelo_inurba_marseille","lat":43.29261,"lon":5.38438,"is_reserved":false,"is_disabled":false,"rental_uris":{"android":"levelo://app?vid=bd4320ce-2aec-4623-8f05-878d797d1bb0","ios":"levelo://app?vid=bd4320ce-2aec-4623-8f05-878d797d1bb0"},"vehicle_type_id":"4","last_reported":1760814391,"current_range_meters":9600,"station_id":"ce4bh692rcd13ifvqea0","pricing_plan_id":"cebpf4jnsgd1na2vs0mg"},{"bike_id":"8e6781bb-2e20-454e-8191-54182f17bdfc","system_id":"levelo_inurba_marseille","lat":43.217499,"lon":5.346028,"is_reserved":false,"is_disabled":true,"rental_uris":{"android":"levelo://app?vid=8e6781bb-2e20-454e-8191-54182f17bdfc","ios":"levelo://app?vid=8e6781bb-2e20-454e-8191-54182f17bdfc"},"vehicle_type_id":"4","last_reported":1760814391,"current_range_meters":9600,"station_id":"st_cvj6r9ubvosntc0bgbag","pricing_plan_id":"cebpf4jnsgd1na2vs0mg"},{"bike_id":"ad37f7ad-71e3-46e9-b97f-f8656ec704bd","system_id":"levelo_inurba_marseille","lat":43.29536,"lon":5.38529,"is_reserved":false,"is_disabled":false,"rental_uris":{"android":"levelo://app?vid=ad37f7ad-71e3-46e9-b97f-f8656ec704bd","ios":"levelo://app?vid=ad37f7ad-71e3-46e9-b97f-f8656ec704bd"},"vehicle_type_id":"4","last_reported":1760814391,"current_range_meters":9600,"station_id":"ce4bgih2rcd13ifvqba0","pricing_plan_id":"cebpf4jnsgd1na2vs0mg"},{"bike_id":"3e50f951-a987-47b3-b21c-7713fbbf31c2","system_id":"levelo_inurba_marseille","lat":43.296,"lon":5.3811,"is_reserved":false,"is_disabled":false,"rental_uris":{"android":"levelo://app?vid=3e50f951-a987-47b3-b21c-7713fbbf31c2","ios":"levelo://app?vid=3e50f951-a987-47b3-b21c-7713fbbf31c2"},"vehicle_type_id":"4","last_reported":1760814391,"current_range_meters":9600,"station_id":"ce4bgl12rcd13ifvqbo0","pricing_plan_id":"cebpf4jnsgd1na2vs0mg"},{"bike_id":"f03303c4-0ce8-434e-86b8-3d0c86848221","system_id":"levelo_inurba_marseille","lat":43.31328,"lon":5.39693,"is_reserved":false,"is_disabled":false,"rental_uris":{"android":"levelo://app?vid=f03303c4-0ce8-434e-86b8-3d0c86848221","ios":"levelo://app?vid=f03303c4-0ce8-434e-86b8-3d0c86848221"},"vehicle_type_id":"4","last_reported":1760814391,"current_range_meters":9600,"station_id":"ce4bgvp2rcd13ifvqcu0","pricing_plan_id":"cebpf4jnsgd1na2vs0mg"},{"bike_id":"c360dee6-e90e-434d-890f-c405a0c2c8a4","system_id":"levelo_inurba_marseille","lat":43.27199,"lon":5.39195,"is_reserved":false,"is_disabled":false,"rental_uris":{"android":"levelo://app?vid=c360dee6-e90e-434d-890f-c405a0c2c8a4","ios":"levelo://app?vid=c360dee6-e90e-434d-890f-c405a0c2c8a4"},"vehicle_type_id":"4","last_reported":1760814391,"current_range_meters":10000,"station_id":"ce4bhhp2rcd13ifvqfm0","pricing_plan_id":"cebpf4jnsgd1na2vs0mg"},{"bike_id":"1aeca3ed-e09e-4118-bb03-5bae919f4444","system_id":"levelo_inurba_marseille","lat":43.29243,"lon":5.38444,"is_reserved":false,"is_disabled":false,"rental_uris":{"android":"levelo://app?vid=1aeca3ed-e09e-4118-bb03-5bae919f4444","ios":"levelo://app?vid=1aeca3ed-e09e-4118-bb03-5bae919f4444"},"vehicle_type_id":"4","last_reported":1760814391,"current_range_meters":10000,"station_id":"ce4bh692rcd13ifvqea0","pricing_plan_id":"cebpf4jnsgd1na2vs0mg"},{"bike_id":"913779f4-56e0-42d0-9fbb-e6656f8e7d26","system_id":"levelo_inurba_marseille","lat":43.24607,"lon":5.36364,"is_reserved":false,"is_disabled":false,"rental_uris":{"android":"levelo://app?vid=913779f4-56e0-42d0-9fbb-e6656f8e7d26","ios":"levelo://app?vid=913779f4-56e0-42d0-9fbb-e6656f8e7d26"},"vehicle_type_id":"4","last_reported":1760814391,"current_range_meters":10000,"station_id":"","pricing_plan_id":"cebpf4jnsgd1na2vs0mg"},{"bike_id":"96187f0a-b870-49ee-b86c-8c23bfbaa0f5","system_id":"levelo_inurba_marseille","lat":43.29272,"lon":5.38434,"is_reserved":false,"is_disabled":false,"rental_uris":{"android":"levelo://app?vid=96187f0a-b870-49ee-b86c-8c23bfbaa0f5","ios":"levelo://app?vid=96187f0a-b870-49ee-b86c-8c23bfbaa0f5"},"vehicle_type_id":"4","last_reported":1760814391,"current_range_meters":10000,"station_id":"ce4bh692rcd13ifvqea0","pricing_plan_id":"cebpf4jnsgd1na2vs0mg"},{"bike_id":"52d0bd2d-f8ff-455a-b7f4-d59a73e4afee","system_id":"levelo_inurba_marseille","lat":43.30152,"lon":5.38758,"is_reserved":false,"is_disabled":false,"rental_uris":{"android":"levelo://app?vid=52d0bd2d-f8ff-455a-b7f4-d59a73e4afee","ios":"levelo://app?vid=52d0bd2d-f8ff-455a-b7f4-d59a73e4afee"},"vehicle_type_id":"4","last_reported":1760814391,"current_range_meters":10000,"station_id":"ce4bghh2rcd13ifvqb60","pricing_plan_id":"cebpf4jnsgd1na2vs0mg"},{"bike_id":"1ae23019-ea31-4d05-9cf3-f48fd8ecdb6e","system_id":"levelo_inurba_marseille","lat":43.31093,"lon":5.42429,"is_reserved":false,"is_disabled":false,"rental_uris":{"android":"levelo://app?vid=1ae23019-ea31-4d05-9cf3-f48fd8ecdb6e","ios":"levelo://app?vid=1ae23019-ea31-4d05-9cf3-f48fd8ecdb6e"},"vehicle_type_id":"4","last_reported":1760814391,"current_range_meters":10000,"station_id":"ce4bhp92rcd13ifvqhag","pricing_plan_id":"cebpf4jnsgd1na2vs0mg"},{"bike_id":"0d67f819-112d-4682-8ee1-0f286a695555","system_id":"levelo_inurba_marseille","lat":43.29239,"lon":5.38453,"is_reserved":false,"is_disabled":false,"rental_uris":{"android":"levelo://app?vid=0d67f819-112d-4682-8ee1-0f286a695555","ios":"levelo://app?vid=0d67f819-112d-4682-8ee1-0f286a695555"},"vehicle_type_id":"4","last_reported":1760814391,"current_range_meters":10000,"station_id":"ce4bh692rcd13ifvqea0","pricing_plan_id":"cebpf4jnsgd1na2vs0mg"},{"bike_id":"633f5f60-e5d4-479b-84d9-ab8ba5db5348","system_id":"levelo_inurba_marseille","lat":43.2741,"lon":5.39411,"is_reserved":false,"is_disabled":false,"rental_uris":{"android":"levelo://app?vid=633f5f60-e5d4-479b-84d9-ab8ba5db5348","ios":"levelo://app?vid=633f5f60-e5d4-479b-84d9-ab8ba5db5348"},"vehicle_type_id":"4","last_reported":1760814391,"current_range_meters":10000,"station_id":"ce4bhdp2rcd13ifvqf20","pricing_plan_id":"cebpf4jnsgd1na2vs0mg"},{"bike_id":"75b02a51-1325-435e-9661-29bb451a696a","system_id":"levelo_inurba_marseille","lat":43.31448,"lon":5.38488,"is_reserved":false,"is_disabled":false,"rental_uris":{"android":"levelo://app?vid=75b02a51-1325-435e-9661-29bb451a696a","ios":"levelo://app?vid=75b02a51-1325-435e-9661-29bb451a696a"},"vehicle_type_id":"4","last_reported":1760814391,"current_range_meters":10000,"station_id":"","pricing_plan_id":"cebpf4jnsgd1na2vs0mg"},{"bike_id":"835ae112-481c-4e7c-9a50-b3ffc7029740","system_id":"levelo_inurba_marseille","lat":43.28406,"lon":5.37509,"is_reserved":false,"is_disabled":false,"rental_uris":{"android":"levelo://app?vid=835ae112-481c-4e7c-9a50-b3ffc7029740","ios":"levelo://app?vid=835ae112-481c-4e7c-9a50-b3ffc7029740"},"vehicle_type_id":"4","last_reported":1760814391,"current_range_meters":10000,"station_id":"ce4bh412rcd13ifvqds0","pricing_plan_id":"cebpf4jnsgd1na2vs0mg"},{"bike_id":"53c185e8-7c5f-461d-bc64-e13af63e2053","system_id":"levelo_inurba_marseille","lat":43.29527,"lon":5.39056,"is_reserved":false,"is_disabled":false,"rental_uris":{"android":"levelo://app?vid=53c185e8-7c5f-461d-bc64-e13af63e2053","ios":"levelo://app?vid=53c185e8-7c5f-461d-bc64-e13af63e2053"},"vehicle_type_id":"4","last_reported":1760814391,"current_range_meters":10000,"station_id":"ce4bh3p2rcd13ifvqdp0","pricing_plan_id":"cebpf4jnsgd1na2vs0mg"},{"bike_id":"e85a985f-404f-41f4-9182-9a6f877c3d8c","system_id":"levelo_inurba_marseille","lat":43.24968,"lon":5.40502,"is_reserved":false,"is_disabled":false,"rental_uris":{"android":"levelo://app?vid=e85a985f-404f-41f4-9182-9a6f877c3d8c","ios":"levelo://app?vid=e85a985f-404f-41f4-9182-9a6f877c3d8c"},"vehicle_type_id":"4","last_reported":1760814391,"current_range_meters":10000,"station_id":"st_d2ngiaodas8pm72gd1h0","pricing_plan_id":"cebpf4jnsgd1na2vs0mg"},{"bike_id":"d8499493-c7ea-4e0c-bc21-5b941e02ed0d","system_id":"levelo_inurba_marseille","lat":43.2952,"lon":5.39037,"is_reserved":false,"is_disabled":false,"rental_uris":{"android":"levelo://app?vid=d8499493-c7ea-4e0c-bc21-5b941e02ed0d","ios":"levelo://app?vid=d8499493-c7ea-4e0c-bc21-5b941e02ed0d"},"vehicle_type_id":"4","last_reported":1760814391,"current_range_meters":10800,"station_id":"ce4bh3p2rcd13ifvqdp0","pricing_plan_id":"cebpf4jnsgd1na2vs0mg"},{"bike_id":"75c9fdeb-9ffb-47a2-9815-d82764297273","system_id":"levelo_inurba_marseille","lat":43.27212,"lon":5.39187,"is_reserved":false,"is_disabled":false,"rental_uris":{"android":"levelo://app?vid=75c9fdeb-9ffb-47a2-9815-d82764297273","ios":"levelo://app?vid=75c9fdeb-9ffb-47a2-9815-d82764297273"},"vehicle_type_id":"4","last_reported":1760814391,"current_range_meters":10800,"station_id":"ce4bhhp2rcd13ifvqfm0","pricing_plan_id":"cebpf4jnsgd1na2vs0mg"},{"bike_id":"d7de8a4b-054e-4f08-972f-750ba132f0ec","system_id":"levelo_inurba_marseille","lat":43.29174,"lon":5.35803,"is_reserved":false,"is_disabled":true,"rental_uris":{"android":"levelo://app?vid=d7de8a4b-054e-4f08-972f-750ba132f0ec","ios":"levelo://app?vid=d7de8a4b-054e-4f08-972f-750ba132f0ec"},"vehicle_type_id":"4","last_reported":1760814391,"current_range_meters":10800,"station_id":"ce4bhb12rcd13ifvqel0","pricing_plan_id":"cebpf4jnsgd1na2vs0mg"},{"bike_id":"29deeaa9-e77a-408d-b13e-b6abc21d5df6","system_id":"levelo_inurba_marseille","lat":43.296509,"lon":5.386966,"is_reserved":false,"is_disabled":false,"rental_uris":{"android":"levelo://app?vid=29deeaa9-e77a-408d-b13e-b6abc21d5df6","ios":"levelo://app?vid=29deeaa9-e77a-408d-b13e-b6abc21d5df6"},"vehicle_type_id":"4","last_reported":1760814391,"current_range_meters":10800,"station_id":"","pricing_plan_id":"cebpf4jnsgd1na2vs0mg"},{"bike_id":"3fe9b591-2814-4b08-b383-640b780edf0c","system_id":"levelo_inurba_marseille","lat":43.3063,"lon":5.40097,"is_reserved":false,"is_disabled":false,"rental_uris":{"android":"levelo://app?vid=3fe9b591-2814-4b08-b383-640b780edf0c","ios":"levelo://app?vid=3fe9b591-2814-4b08-b383-640b780edf0c"},"vehicle_type_id":"4","last_reported":1760814391,"current_range_meters":10800,"station_id":"ce4bh112rcd13ifvqda0","pricing_plan_id":"cebpf4jnsgd1na2vs0mg"},{"bike_id":"5ec36f29-a595-43fb-81bc-e1f6ecf04525","system_id":"levelo_inurba_marseille","lat":43.21238,"lon":5.35067,"is_reserved":false,"is_disabled":true,"rental_uris":{"android":"levelo://app?vid=5ec36f29-a595-43fb-81bc-e1f6ecf04525","ios":"levelo://app?vid=5ec36f29-a595-43fb-81bc-e1f6ecf04525"},"vehicle_type_id":"4","last_reported":1760814391,"current_range_meters":10800,"station_id":"st_cvj6sg6p6f1abm77japg","pricing_plan_id":"cebpf4jnsgd1na2vs0mg"},{"bike_id":"cd4f59cd-867b-4d17-a241-b35522f2fd8c","system_id":"levelo_inurba_marseille","lat":43.32366,"lon":5.38888,"is_reserved":false,"is_disabled":false,"rental_uris":{"android":"levelo://app?vid=cd4f59cd-867b-4d17-a241-b35522f2fd8c","ios":"levelo://app?vid=cd4f59cd-867b-4d17-a241-b35522f2fd8c"},"vehicle_type_id":"4","last_reported":1760814391,"current_range_meters":10800,"station_id":"ce4bhqp2rcd13ifvqhog","pricing_plan_id":"cebpf4jnsgd1na2vs0mg"},{"bike_id":"59742c94-4658-4515-a228-2a9d9f4b4338","system_id":"levelo_inurba_marseille","lat":43.282684,"lon":5.350728,"is_reserved":false,"is_disabled":false,"rental_uris":{"android":"levelo://app?vid=59742c94-4658-4515-a228-2a9d9f4b4338","ios":"levelo://app?vid=59742c94-4658-4515-a228-2a9d9f4b4338"},"vehicle_type_id":"4","last_reported":1760814391,"current_range_meters":10800,"station_id":"ce4bh692rcd13ifvqea0","pricing_plan_id":"cebpf4jnsgd1na2vs0mg"},{"bike_id":"0b170382-a38a-48fc-b060-b901de311f1a","system_id":"levelo_inurba_marseille","lat":43.33047,"lon":5.39024,"is_reserved":false,"is_disabled":false,"rental_uris":{"android":"levelo://app?vid=0b170382-a38a-48fc-b060-b901de311f1a","ios":"levelo://app?vid=0b170382-a38a-48fc-b060-b901de311f1a"},"vehicle_type_id":"4","last_reported":1760814391,"current_range_meters":11200,"station_id":"ce4bhr92rcd13ifvqhrg","pricing_plan_id":"cebpf4jnsgd1na2vs0mg"},{"bike_id":"f0e8d962-7120-49d0-b6ab-5cecb68d7645","system_id":"levelo_inurba_marseille","lat":43.26829,"lon":5.39441,"is_reserved":false,"is_disabled":false,"rental_uris":{"android":"levelo://app?vid=f0e8d962-7120-49d0-b6ab-5cecb68d7645","ios":"levelo://app?vid=f0e8d962-7120-49d0-b6ab-5cecb68d7645"},"vehicle_type_id":"4","last_reported":1760814391,"current_range_meters":11200,"station_id":"","pricing_plan_id":"cebpf4jnsgd1na2vs0mg"},{"bike_id":"1382b748-840e-4ecc-afc5-0fb4eeaeb841","system_id":"levelo_inurba_marseille","lat":43.30588,"lon":5.37474,"is_reserved":false,"is_disabled":false,"rental_uris":{"android":"levelo://app?vid=1382b748-840e-4ecc-afc5-0fb4eeaeb841","ios":"levelo://app?vid=1382b748-840e-4ecc-afc5-0fb4eeaeb841"},"vehicle_type_id":"4","last_reported":1760814391,"current_range_meters":11200,"station_id":"","pricing_plan_id":"cebpf4jnsgd1na2vs0mg"},{"bike_id":"700769ce-90f2-4510-948d-6b8f0deef293","system_id":"levelo_inurba_marseille","lat":43.303428,"lon":5.404392,"is_reserved":false,"is_disabled":false,"rental_uris":{"android":"levelo://app?vid=700769ce-90f2-4510-948d-6b8f0deef293","ios":"levelo://app?vid=700769ce-90f2-4510-948d-6b8f0deef293"},"vehicle_type_id":"4","last_reported":1760814391,"current_range_meters":11600,"station_id":"ce4bh012rcd13ifvqd10","pricing_plan_id":"cebpf4jnsgd1na2vs0mg"},{"bike_id":"71dfa056-01e5-4adb-beeb-0291deea1131","system_id":"levelo_inurba_marseille","lat":43.29528,"lon":5.38538,"is_reserved":false,"is_disabled":false,"rental_uris":{"android":"levelo://app?vid=71dfa056-01e5-4adb-beeb-0291deea1131","ios":"levelo://app?vid=71dfa056-01e5-4adb-beeb-0291deea1131"},"vehicle_type_id":"4","last_reported":1760814391,"current_range_meters":11600,"station_id":"ce4bgih2rcd13ifvqba0","pricing_plan_id":"cebpf4jnsgd1na2vs0mg"},{"bike_id":"b999a128-3e1c-4f16-825b-23b8f8a46ee8","system_id":"levelo_inurba_marseille","lat":43.29047,"lon":5.35909,"is_reserved":false,"is_disabled":false,"rental_uris":{"android":"levelo://app?vid=b999a128-3e1c-4f16-825b-23b8f8a46ee8","ios":"levelo://app?vid=b999a128-3e1c-4f16-825b-23b8f8a46ee8"},"vehicle_type_id":"4","last_reported":1760814391,"current_range_meters":11600,"station_id":"ce4bha92rcd13ifvqeg0","pricing_plan_id":"cebpf4jnsgd1na2vs0mg"},{"bike_id":"169202d8-dc0a-4359-ab29-4c20d90adf37","system_id":"levelo_inurba_marseille","lat":43.29557,"lon":5.37536,"is_reserved":false,"is_disabled":false,"rental_uris":{"android":"levelo://app?vid=169202d8-dc0a-4359-ab29-4c20d90adf37","ios":"levelo://app?vid=169202d8-dc0a-4359-ab29-4c20d90adf37"},"vehicle_type_id":"4","last_reported":1760814391,"current_range_meters":11600,"station_id":"ce4bgh92rcd13ifvqb50","pricing_plan_id":"cebpf4jnsgd1na2vs0mg"},{"bike_id":"230bdf1d-ed71-4b34-8d74-ba6833bea75c","system_id":"levelo_inurba_marseille","lat":43.23964,"lon":5.3663,"is_reserved":false,"is_disabled":false,"rental_uris":{"android":"levelo://app?vid=230bdf1d-ed71-4b34-8d74-ba6833bea75c","ios":"levelo://app?vid=230bdf1d-ed71-4b34-8d74-ba6833bea75c"},"vehicle_type_id":"4","last_reported":1760814391,"current_range_meters":11600,"station_id":"ce4bhi12rcd13ifvqfp0","pricing_plan_id":"cebpf4jnsgd1na2vs0mg"},{"bike_id":"7996a424-e8bb-4434-9ac8-8b2970e6e1a6","system_id":"levelo_inurba_marseille","lat":43.27211,"lon":5.3918,"is_reserved":false,"is_disabled":false,"rental_uris":{"android":"levelo://app?vid=7996a424-e8bb-4434-9ac8-8b2970e6e1a6","ios":"levelo://app?vid=7996a424-e8bb-4434-9ac8-8b2970e6e1a6"},"vehicle_type_id":"4","last_reported":1760814391,"current_range_meters":11600,"station_id":"ce4bhhp2rcd13ifvqfm0","pricing_plan_id":"cebpf4jnsgd1na2vs0mg"},{"bike_id":"38c3bc73-e885-467c-9015-110393934b88","system_id":"levelo_inurba_marseille","lat":43.29521,"lon":5.38543,"is_reserved":false,"is_disabled":false,"rental_uris":{"android":"levelo://app?vid=38c3bc73-e885-467c-9015-110393934b88","ios":"levelo://app?vid=38c3bc73-e885-467c-9015-110393934b88"},"vehicle_type_id":"4","last_reported":1760814391,"current_range_meters":11600,"station_id":"ce4bgih2rcd13ifvqba0","pricing_plan_id":"cebpf4jnsgd1na2vs0mg"},{"bike_id":"2025fa6a-e294-4f83-bf01-2c64192ffa27","system_id":"levelo_inurba_marseille","lat":43.30426,"lon":5.39753,"is_reserved":false,"is_disabled":false,"rental_uris":{"android":"levelo://app?vid=2025fa6a-e294-4f83-bf01-2c64192ffa27","ios":"levelo://app?vid=2025fa6a-e294-4f83-bf01-2c64192ffa27"},"vehicle_type_id":"4","last_reported":1760814391,"current_range_meters":11600,"station_id":"ce4bh092rcd13ifvqd20","pricing_plan_id":"cebpf4jnsgd1na2vs0mg"},{"bike_id":"57772d0e-d6d9-48d5-bf04-c3ce0daf8e02","system_id":"levelo_inurba_marseille","lat":43.29254,"lon":5.38447,"is_reserved":false,"is_disabled":false,"rental_uris":{"android":"levelo://app?vid=57772d0e-d6d9-48d5-bf04-c3ce0daf8e02","ios":"levelo://app?vid=57772d0e-d6d9-48d5-bf04-c3ce0daf8e02"},"vehicle_type_id":"4","last_reported":1760814391,"current_range_meters":12000,"station_id":"ce4bh692rcd13ifvqea0","pricing_plan_id":"cebpf4jnsgd1na2vs0mg"},{"bike_id":"ebf54450-eba7-449e-8e07-3e1dcaf0b285","system_id":"levelo_inurba_marseille","lat":43.304602,"lon":5.37909,"is_reserved":false,"is_disabled":false,"rental_uris":{"android":"levelo://app?vid=ebf54450-eba7-449e-8e07-3e1dcaf0b285","ios":"levelo://app?vid=ebf54450-eba7-449e-8e07-3e1dcaf0b285"},"vehicle_type_id":"4","last_reported":1760814391,"current_range_meters":12000,"station_id":"ce4bgup2rcd13ifvqcn0","pricing_plan_id":"cebpf4jnsgd1na2vs0mg"},{"bike_id":"657f303b-2417-4a96-a979-9bb80b1500f6","system_id":"levelo_inurba_marseille","lat":43.29852,"lon":5.36286,"is_reserved":false,"is_disabled":true,"rental_uris":{"android":"levelo://app?vid=657f303b-2417-4a96-a979-9bb80b1500f6","ios":"levelo://app?vid=657f303b-2417-4a96-a979-9bb80b1500f6"},"vehicle_type_id":"4","last_reported":1760814391,"current_range_meters":12000,"station_id":"ce4bgpp2rcd13ifvqc3g","pricing_plan_id":"cebpf4jnsgd1na2vs0mg"},{"bike_id":"b1db1391-3474-48f3-85bd-dfc79b190eda","system_id":"levelo_inurba_marseille","lat":43.29276,"lon":5.36079,"is_reserved":false,"is_disabled":false,"rental_uris":{"android":"levelo://app?vid=b1db1391-3474-48f3-85bd-dfc79b190eda","ios":"levelo://app?vid=b1db1391-3474-48f3-85bd-dfc79b190eda"},"vehicle_type_id":"4","last_reported":1760814391,"current_range_meters":12000,"station_id":"","pricing_plan_id":"cebpf4jnsgd1na2vs0mg"},{"bike_id":"41452954-d2d2-42bd-9d7b-51da3651adda","system_id":"levelo_inurba_marseille","lat":43.29256,"lon":5.38457,"is_reserved":false,"is_disabled":false,"rental_uris":{"android":"levelo://app?vid=41452954-d2d2-42bd-9d7b-51da3651adda","ios":"levelo://app?vid=41452954-d2d2-42bd-9d7b-51da3651adda"},"vehicle_type_id":"4","last_reported":1760814391,"current_range_meters":12000,"station_id":"ce4bh692rcd13ifvqea0","pricing_plan_id":"cebpf4jnsgd1na2vs0mg"},{"bike_id":"ae111ea8-041d-47d6-bfb7-7b3b7fb02d4a","system_id":"levelo_inurba_marseille","lat":43.30425,"lon":5.3975,"is_reserved":false,"is_disabled":false,"rental_uris":{"android":"levelo://app?vid=ae111ea8-041d-47d6-bfb7-7b3b7fb02d4a","ios":"levelo://app?vid=ae111ea8-041d-47d6-bfb7-7b3b7fb02d4a"},"vehicle_type_id":"4","last_reported":1760814391,"current_range_meters":12000,"station_id":"ce4bh092rcd13ifvqd20","pricing_plan_id":"cebpf4jnsgd1na2vs0mg"},{"bike_id":"b9c18541-1aed-4523-80cf-0629e7f98b3e","system_id":"levelo_inurba_marseille","lat":43.29433,"lon":5.3845,"is_reserved":false,"is_disabled":false,"rental_uris":{"android":"levelo://app?vid=b9c18541-1aed-4523-80cf-0629e7f98b3e","ios":"levelo://app?vid=b9c18541-1aed-4523-80cf-0629e7f98b3e"},"vehicle_type_id":"4","last_reported":1760814391,"current_range_meters":12000,"station_id":"","pricing_plan_id":"cebpf4jnsgd1na2vs0mg"},{"bike_id":"b2dcfae9-d07d-4413-aaa0-49ed0aa8fe18","system_id":"levelo_inurba_marseille","lat":43.30209,"lon":5.39466,"is_reserved":false,"is_disabled":false,"rental_uris":{"android":"levelo://app?vid=b2dcfae9-d07d-4413-aaa0-49ed0aa8fe18","ios":"levelo://app?vid=b2dcfae9-d07d-4413-aaa0-49ed0aa8fe18"},"vehicle_type_id":"4","last_reported":1760814391,"current_range_meters":12000,"station_id":"ce4bh0p2rcd13ifvqd70","pricing_plan_id":"cebpf4jnsgd1na2vs0mg"},{"bike_id":"5a617b65-74d7-4b11-8941-be90b5f2ba18","system_id":"levelo_inurba_marseille","lat":43.29025,"lon":5.38634,"is_reserved":false,"is_disabled":false,"rental_uris":{"android":"levelo://app?vid=5a617b65-74d7-4b11-8941-be90b5f2ba18","ios":"levelo://app?vid=5a617b65-74d7-4b11-8941-be90b5f2ba18"},"vehicle_type_id":"4","last_reported":1760814391,"current_range_meters":12400,"station_id":"ce4bh4p2rcd13ifvqe0g","pricing_plan_id":"cebpf4jnsgd1na2vs0mg"},{"bike_id":"0a414463-fe1a-4833-8a11-178a3c2c879a","system_id":"levelo_inurba_marseille","lat":43.29852,"lon":5.37897,"is_reserved":false,"is_disabled":false,"rental_uris":{"android":"levelo://app?vid=0a414463-fe1a-4833-8a11-178a3c2c879a","ios":"levelo://app?vid=0a414463-fe1a-4833-8a11-178a3c2c879a"},"vehicle_type_id":"4","last_reported":1760814391,"current_range_meters":12400,"station_id":"","pricing_plan_id":"cebpf4jnsgd1na2vs0mg"},{"bike_id":"f177ad93-bcb8-4c8e-9726-f2d44604e369","system_id":"levelo_inurba_marseille","lat":43.29579,"lon":5.39987,"is_reserved":false,"is_disabled":false,"rental_uris":{"android":"levelo://app?vid=f177ad93-bcb8-4c8e-9726-f2d44604e369","ios":"levelo://app?vid=f177ad93-bcb8-4c8e-9726-f2d44604e369"},"vehicle_type_id":"4","last_reported":1760814391,"current_range_meters":12400,"station_id":"ce4bh312rcd13ifvqdj0","pricing_plan_id":"cebpf4jnsgd1na2vs0mg"},{"bike_id":"50896630-0c2d-477a-804e-332d7dd3d89a","system_id":"levelo_inurba_marseille","lat":43.24647,"lon":5.38893,"is_reserved":false,"is_disabled":false,"rental_uris":{"android":"levelo://app?vid=50896630-0c2d-477a-804e-332d7dd3d89a","ios":"levelo://app?vid=50896630-0c2d-477a-804e-332d7dd3d89a"},"vehicle_type_id":"4","last_reported":1760814391,"current_range_meters":12400,"station_id":"ce4bhg12rcd13ifvqf60","pricing_plan_id":"cebpf4jnsgd1na2vs0mg"},{"bike_id":"ea883585-d0e4-4bcb-922c-57b2a3efdeac","system_id":"levelo_inurba_marseille","lat":43.30512,"lon":5.3681,"is_reserved":false,"is_disabled":false,"rental_uris":{"android":"levelo://app?vid=ea883585-d0e4-4bcb-922c-57b2a3efdeac","ios":"levelo://app?vid=ea883585-d0e4-4bcb-922c-57b2a3efdeac"},"vehicle_type_id":"4","last_reported":1760814391,"current_range_meters":12400,"station_id":"","pricing_plan_id":"cebpf4jnsgd1na2vs0mg"},{"bike_id":"d6f0d889-cd56-4615-9bc3-ec80a60524c2","system_id":"levelo_inurba_marseille","lat":43.29516,"lon":5.39046,"is_reserved":false,"is_disabled":false,"rental_uris":{"android":"levelo://app?vid=d6f0d889-cd56-4615-9bc3-ec80a60524c2","ios":"levelo://app?vid=d6f0d889-cd56-4615-9bc3-ec80a60524c2"},"vehicle_type_id":"4","last_reported":1760814391,"current_range_meters":12400,"station_id":"ce4bh3p2rcd13ifvqdp0","pricing_plan_id":"cebpf4jnsgd1na2vs0mg"},{"bike_id":"52b0f5cf-5a77-4157-8353-77db4fd50165","system_id":"levelo_inurba_marseille","lat":43.2892,"lon":5.38397,"is_reserved":false,"is_disabled":false,"rental_uris":{"android":"levelo://app?vid=52b0f5cf-5a77-4157-8353-77db4fd50165","ios":"levelo://app?vid=52b0f5cf-5a77-4157-8353-77db4fd50165"},"vehicle_type_id":"4","last_reported":1760814391,"current_range_meters":12400,"station_id":"ce4bh612rcd13ifvqe6g","pricing_plan_id":"cebpf4jnsgd1na2vs0mg"},{"bike_id":"94a80ed1-2fee-468c-bb76-25f1829c19bf","system_id":"levelo_inurba_marseille","lat":43.30467,"lon":5.37903,"is_reserved":false,"is_disabled":true,"rental_uris":{"android":"levelo://app?vid=94a80ed1-2fee-468c-bb76-25f1829c19bf","ios":"levelo://app?vid=94a80ed1-2fee-468c-bb76-25f1829c19bf"},"vehicle_type_id":"4","last_reported":1760814391,"current_range_meters":12400,"station_id":"ce4bgup2rcd13ifvqcn0","pricing_plan_id":"cebpf4jnsgd1na2vs0mg"},{"bike_id":"f153bba6-2071-46cc-b200-c6fdd8dcf500","system_id":"levelo_inurba_marseille","lat":43.29504,"lon":5.38566,"is_reserved":false,"is_disabled":false,"rental_uris":{"android":"levelo://app?vid=f153bba6-2071-46cc-b200-c6fdd8dcf500","ios":"levelo://app?vid=f153bba6-2071-46cc-b200-c6fdd8dcf500"},"vehicle_type_id":"4","last_reported":1760814391,"current_range_meters":12400,"station_id":"ce4bgih2rcd13ifvqba0","pricing_plan_id":"cebpf4jnsgd1na2vs0mg"},{"bike_id":"ae6eb0f2-4874-4ceb-8d8c-7385a8266f58","system_id":"levelo_inurba_marseille","lat":43.29529,"lon":5.37918,"is_reserved":false,"is_disabled":false,"rental_uris":{"android":"levelo://app?vid=ae6eb0f2-4874-4ceb-8d8c-7385a8266f58","ios":"levelo://app?vid=ae6eb0f2-4874-4ceb-8d8c-7385a8266f58"},"vehicle_type_id":"4","last_reported":1760814391,"current_range_meters":12400,"station_id":"","pricing_plan_id":"cebpf4jnsgd1na2vs0mg"},{"bike_id":"b1cf4c80-12d3-49a8-99a6-182defaa6366","system_id":"levelo_inurba_marseille","lat":43.29747,"lon":5.38396,"is_reserved":false,"is_disabled":false,"rental_uris":{"android":"levelo://app?vid=b1cf4c80-12d3-49a8-99a6-182defaa6366","ios":"levelo://app?vid=b1cf4c80-12d3-49a8-99a6-182defaa6366"},"vehicle_type_id":"4","last_reported":1760814391,"current_range_meters":12800,"station_id":"","pricing_plan_id":"cebpf4jnsgd1na2vs0mg"},{"bike_id":"3586afa5-19c6-4385-ae3b-80726606c1bb","system_id":"levelo_inurba_marseille","lat":43.26412,"lon":5.39867,"is_reserved":false,"is_disabled":false,"rental_uris":{"android":"levelo://app?vid=3586afa5-19c6-4385-ae3b-80726606c1bb","ios":"levelo://app?vid=3586afa5-19c6-4385-ae3b-80726606c1bb"},"vehicle_type_id":"4","last_reported":1760814391,"current_range_meters":12800,"station_id":"","pricing_plan_id":"cebpf4jnsgd1na2vs0mg"},{"bike_id":"e9c8911f-6661-4330-b933-c7ef20dc0f45","system_id":"levelo_inurba_marseille","lat":43.28133,"lon":5.35026,"is_reserved":false,"is_disabled":false,"rental_uris":{"android":"levelo://app?vid=e9c8911f-6661-4330-b933-c7ef20dc0f45","ios":"levelo://app?vid=e9c8911f-6661-4330-b933-c7ef20dc0f45"},"vehicle_type_id":"4","last_reported":1760814391,"current_range_meters":12800,"station_id":"","pricing_plan_id":"cebpf4jnsgd1na2vs0mg"},{"bike_id":"c6227cff-120f-49c6-93a2-5454dd916cde","system_id":"levelo_inurba_marseille","lat":43.26577,"lon":5.37309,"is_reserved":false,"is_disabled":true,"rental_uris":{"android":"levelo://app?vid=c6227cff-120f-49c6-93a2-5454dd916cde","ios":"levelo://app?vid=c6227cff-120f-49c6-93a2-5454dd916cde"},"vehicle_type_id":"4","last_reported":1760814391,"current_range_meters":12800,"station_id":"ce4bhg12rcd13ifvqf70","pricing_plan_id":"cebpf4jnsgd1na2vs0mg"},{"bike_id":"9542deb9-0f97-45fa-9eda-5c779632d68f","system_id":"levelo_inurba_marseille","lat":43.29528,"lon":5.38551,"is_reserved":false,"is_disabled":false,"rental_uris":{"android":"levelo://app?vid=9542deb9-0f97-45fa-9eda-5c779632d68f","ios":"levelo://app?vid=9542deb9-0f97-45fa-9eda-5c779632d68f"},"vehicle_type_id":"4","last_reported":1760814391,"current_range_meters":12800,"station_id":"ce4bgih2rcd13ifvqba0","pricing_plan_id":"cebpf4jnsgd1na2vs0mg"},{"bike_id":"e978660f-731d-4a95-8df5-e0a54d8fe8be","system_id":"levelo_inurba_marseille","lat":43.21181,"lon":5.35096,"is_reserved":false,"is_disabled":true,"rental_uris":{"android":"levelo://app?vid=e978660f-731d-4a95-8df5-e0a54d8fe8be","ios":"levelo://app?vid=e978660f-731d-4a95-8df5-e0a54d8fe8be"},"vehicle_type_id":"4","last_reported":1760814391,"current_range_meters":12800,"station_id":"st_cvj6sg6p6f1abm77japg","pricing_plan_id":"cebpf4jnsgd1na2vs0mg"},{"bike_id":"9aca6410-dfe2-4f0b-8309-4bbe61aef318","system_id":"levelo_inurba_marseille","lat":43.33023,"lon":5.39053,"is_reserved":false,"is_disabled":false,"rental_uris":{"android":"levelo://app?vid=9aca6410-dfe2-4f0b-8309-4bbe61aef318","ios":"levelo://app?vid=9aca6410-dfe2-4f0b-8309-4bbe61aef318"},"vehicle_type_id":"4","last_reported":1760814391,"current_range_meters":13600,"station_id":"ce4bhr92rcd13ifvqhrg","pricing_plan_id":"cebpf4jnsgd1na2vs0mg"},{"bike_id":"bf2c3617-0e72-4f4a-8585-0c63bcbc4fce","system_id":"levelo_inurba_marseille","lat":43.28617,"lon":5.351,"is_reserved":false,"is_disabled":true,"rental_uris":{"android":"levelo://app?vid=bf2c3617-0e72-4f4a-8585-0c63bcbc4fce","ios":"levelo://app?vid=bf2c3617-0e72-4f4a-8585-0c63bcbc4fce"},"vehicle_type_id":"4","last_reported":1760814391,"current_range_meters":13600,"station_id":"ce4bhch2rcd13ifvqeug","pricing_plan_id":"cebpf4jnsgd1na2vs0mg"},{"bike_id":"4d639fc2-fd62-4b4f-8fc3-f0ee032daac3","system_id":"levelo_inurba_marseille","lat":43.2417,"lon":5.36405,"is_reserved":false,"is_disabled":false,"rental_uris":{"android":"levelo://app?vid=4d639fc2-fd62-4b4f-8fc3-f0ee032daac3","ios":"levelo://app?vid=4d639fc2-fd62-4b4f-8fc3-f0ee032daac3"},"vehicle_type_id":"4","last_reported":1760814391,"current_range_meters":13600,"station_id":"cpo36qri1sfpv3e86is0","pricing_plan_id":"cebpf4jnsgd1na2vs0mg"},{"bike_id":"065e1ac5-d39c-4afa-ac40-251fb2990fe2","system_id":"levelo_inurba_marseille","lat":43.297876,"lon":5.381272,"is_reserved":false,"is_disabled":false,"rental_uris":{"android":"levelo://app?vid=065e1ac5-d39c-4afa-ac40-251fb2990fe2","ios":"levelo://app?vid=065e1ac5-d39c-4afa-ac40-251fb2990fe2"},"vehicle_type_id":"4","last_reported":1760814391,"current_range_meters":13600,"station_id":"ce4bgip2rcd13ifvqbb0","pricing_plan_id":"cebpf4jnsgd1na2vs0mg"},{"bike_id":"6632a0ad-f43a-451e-834c-e4d64180498e","system_id":"levelo_inurba_marseille","lat":43.32667,"lon":5.40991,"is_reserved":false,"is_disabled":false,"rental_uris":{"android":"levelo://app?vid=6632a0ad-f43a-451e-834c-e4d64180498e","ios":"levelo://app?vid=6632a0ad-f43a-451e-834c-e4d64180498e"},"vehicle_type_id":"4","last_reported":1760814391,"current_range_meters":13600,"station_id":"ce4bhpp2rcd13ifvqhgg","pricing_plan_id":"cebpf4jnsgd1na2vs0mg"},{"bike_id":"2387b78c-5569-4c75-ba88-76b0ec2749e5","system_id":"levelo_inurba_marseille","lat":43.28949,"lon":5.37211,"is_reserved":false,"is_disabled":false,"rental_uris":{"android":"levelo://app?vid=2387b78c-5569-4c75-ba88-76b0ec2749e5","ios":"levelo://app?vid=2387b78c-5569-4c75-ba88-76b0ec2749e5"},"vehicle_type_id":"4","last_reported":1760814391,"current_range_meters":13600,"station_id":"","pricing_plan_id":"cebpf4jnsgd1na2vs0mg"},{"bike_id":"b5997b44-1a6c-43d5-aa07-812e4cf430bd","system_id":"levelo_inurba_marseille","lat":43.29251,"lon":5.38449,"is_reserved":false,"is_disabled":false,"rental_uris":{"android":"levelo://app?vid=b5997b44-1a6c-43d5-aa07-812e4cf430bd","ios":"levelo://app?vid=b5997b44-1a6c-43d5-aa07-812e4cf430bd"},"vehicle_type_id":"4","last_reported":1760814391,"current_range_meters":14000,"station_id":"ce4bh692rcd13ifvqea0","pricing_plan_id":"cebpf4jnsgd1na2vs0mg"},{"bike_id":"e6e2dde5-25f6-4b86-b04b-e1c78a5c3ad1","system_id":"levelo_inurba_marseille","lat":43.27216,"lon":5.39194,"is_reserved":false,"is_disabled":false,"rental_uris":{"android":"levelo://app?vid=e6e2dde5-25f6-4b86-b04b-e1c78a5c3ad1","ios":"levelo://app?vid=e6e2dde5-25f6-4b86-b04b-e1c78a5c3ad1"},"vehicle_type_id":"4","last_reported":1760814391,"current_range_meters":14000,"station_id":"ce4bhhp2rcd13ifvqfm0","pricing_plan_id":"cebpf4jnsgd1na2vs0mg"},{"bike_id":"71914a0b-4078-4e91-8fe4-c4688186f52f","system_id":"levelo_inurba_marseille","lat":43.29267,"lon":5.38455,"is_reserved":false,"is_disabled":false,"rental_uris":{"android":"levelo://app?vid=71914a0b-4078-4e91-8fe4-c4688186f52f","ios":"levelo://app?vid=71914a0b-4078-4e91-8fe4-c4688186f52f"},"vehicle_type_id":"4","last_reported":1760814391,"current_range_meters":14000,"station_id":"ce4bh692rcd13ifvqea0","pricing_plan_id":"cebpf4jnsgd1na2vs0mg"},{"bike_id":"074be791-6c38-4f2f-8dd0-b227e073e27e","system_id":"levelo_inurba_marseille","lat":43.24169,"lon":5.364,"is_reserved":false,"is_disabled":false,"rental_uris":{"android":"levelo://app?vid=074be791-6c38-4f2f-8dd0-b227e073e27e","ios":"levelo://app?vid=074be791-6c38-4f2f-8dd0-b227e073e27e"},"vehicle_type_id":"4","last_reported":1760814391,"current_range_meters":14400,"station_id":"cpo36qri1sfpv3e86is0","pricing_plan_id":"cebpf4jnsgd1na2vs0mg"},{"bike_id":"6426e4fa-7f79-410d-acfa-0a51b3b2658a","system_id":"levelo_inurba_marseille","lat":43.312445,"lon":5.404079,"is_reserved":false,"is_disabled":false,"rental_uris":{"android":"levelo://app?vid=6426e4fa-7f79-410d-acfa-0a51b3b2658a","ios":"levelo://app?vid=6426e4fa-7f79-410d-acfa-0a51b3b2658a"},"vehicle_type_id":"4","last_reported":1760814391,"current_range_meters":14400,"station_id":"","pricing_plan_id":"cebpf4jnsgd1na2vs0mg"},{"bike_id":"3f13991a-43fd-4b49-b31a-f84d43d4b745","system_id":"levelo_inurba_marseille","lat":43.28987,"lon":5.37184,"is_reserved":false,"is_disabled":false,"rental_uris":{"android":"levelo://app?vid=3f13991a-43fd-4b49-b31a-f84d43d4b745","ios":"levelo://app?vid=3f13991a-43fd-4b49-b31a-f84d43d4b745"},"vehicle_type_id":"4","last_reported":1760814391,"current_range_meters":14400,"station_id":"","pricing_plan_id":"cebpf4jnsgd1na2vs0mg"},{"bike_id":"3e5701e3-19c6-42fa-bc27-8518853e0b92","system_id":"levelo_inurba_marseille","lat":43.29524,"lon":5.39037,"is_reserved":false,"is_disabled":false,"rental_uris":{"android":"levelo://app?vid=3e5701e3-19c6-42fa-bc27-8518853e0b92","ios":"levelo://app?vid=3e5701e3-19c6-42fa-bc27-8518853e0b92"},"vehicle_type_id":"4","last_reported":1760814391,"current_range_meters":14400,"station_id":"ce4bh3p2rcd13ifvqdp0","pricing_plan_id":"cebpf4jnsgd1na2vs0mg"},{"bike_id":"365b1110-8604-4b2d-ad9b-3263b8a258f2","system_id":"levelo_inurba_marseille","lat":43.28655,"lon":5.3634,"is_reserved":false,"is_disabled":false,"rental_uris":{"android":"levelo://app?vid=365b1110-8604-4b2d-ad9b-3263b8a258f2","ios":"levelo://app?vid=365b1110-8604-4b2d-ad9b-3263b8a258f2"},"vehicle_type_id":"4","last_reported":1760814391,"current_range_meters":14400,"station_id":"ce4bhah2rcd13ifvqej0","pricing_plan_id":"cebpf4jnsgd1na2vs0mg"},{"bike_id":"983ad515-3120-4521-b2f4-b46730c54a13","system_id":"levelo_inurba_marseille","lat":43.30942,"lon":5.39035,"is_reserved":false,"is_disabled":false,"rental_uris":{"android":"levelo://app?vid=983ad515-3120-4521-b2f4-b46730c54a13","ios":"levelo://app?vid=983ad515-3120-4521-b2f4-b46730c54a13"},"vehicle_type_id":"4","last_reported":1760814391,"current_range_meters":14400,"station_id":"ce4bgup2rcd13ifvqco0","pricing_plan_id":"cebpf4jnsgd1na2vs0mg"},{"bike_id":"d712d0ff-3096-41ad-87d0-b640167ff060","system_id":"levelo_inurba_marseille","lat":43.31541,"lon":5.38512,"is_reserved":false,"is_disabled":false,"rental_uris":{"android":"levelo://app?vid=d712d0ff-3096-41ad-87d0-b640167ff060","ios":"levelo://app?vid=d712d0ff-3096-41ad-87d0-b640167ff060"},"vehicle_type_id":"4","last_reported":1760814391,"current_range_meters":14400,"station_id":"","pricing_plan_id":"cebpf4jnsgd1na2vs0mg"},{"bike_id":"a31901fd-1144-4c2f-96ad-e519ba7d4d16","system_id":"levelo_inurba_marseille","lat":43.2315,"lon":5.43713,"is_reserved":false,"is_disabled":true,"rental_uris":{"android":"levelo://app?vid=a31901fd-1144-4c2f-96ad-e519ba7d4d16","ios":"levelo://app?vid=a31901fd-1144-4c2f-96ad-e519ba7d4d16"},"vehicle_type_id":"4","last_reported":1760814391,"current_range_meters":14400,"station_id":"ce4bhmp2rcd13ifvqgog","pricing_plan_id":"cebpf4jnsgd1na2vs0mg"},{"bike_id":"ac6d2c4d-74a8-443d-a9f9-0d9807feacda","system_id":"levelo_inurba_marseille","lat":43.33772,"lon":5.37469,"is_reserved":false,"is_disabled":false,"rental_uris":{"android":"levelo://app?vid=ac6d2c4d-74a8-443d-a9f9-0d9807feacda","ios":"levelo://app?vid=ac6d2c4d-74a8-443d-a9f9-0d9807feacda"},"vehicle_type_id":"4","last_reported":1760814391,"current_range_meters":14400,"station_id":"","pricing_plan_id":"cebpf4jnsgd1na2vs0mg"},{"bike_id":"b15b7ba7-54e2-41c7-b79b-7925a6fa9ea8","system_id":"levelo_inurba_marseille","lat":43.29517,"lon":5.39036,"is_reserved":false,"is_disabled":false,"rental_uris":{"android":"levelo://app?vid=b15b7ba7-54e2-41c7-b79b-7925a6fa9ea8","ios":"levelo://app?vid=b15b7ba7-54e2-41c7-b79b-7925a6fa9ea8"},"vehicle_type_id":"4","last_reported":1760814391,"current_range_meters":14400,"station_id":"ce4bh3p2rcd13ifvqdp0","pricing_plan_id":"cebpf4jnsgd1na2vs0mg"},{"bike_id":"e0e41b40-e104-4d76-98a3-c214336fb4ba","system_id":"levelo_inurba_marseille","lat":43.30901,"lon":5.39622,"is_reserved":false,"is_disabled":false,"rental_uris":{"android":"levelo://app?vid=e0e41b40-e104-4d76-98a3-c214336fb4ba","ios":"levelo://app?vid=e0e41b40-e104-4d76-98a3-c214336fb4ba"},"vehicle_type_id":"4","last_reported":1760814391,"current_range_meters":14400,"station_id":"ce4bh012rcd13ifvqcv0","pricing_plan_id":"cebpf4jnsgd1na2vs0mg"},{"bike_id":"f4b21278-7a88-4f1e-8b50-4cb4a181722f","system_id":"levelo_inurba_marseille","lat":43.28537,"lon":5.44098,"is_reserved":false,"is_disabled":false,"rental_uris":{"android":"levelo://app?vid=f4b21278-7a88-4f1e-8b50-4cb4a181722f","ios":"levelo://app?vid=f4b21278-7a88-4f1e-8b50-4cb4a181722f"},"vehicle_type_id":"4","last_reported":1760814391,"current_range_meters":14400,"station_id":"st_d3j3df2ikq2c7380ej80","pricing_plan_id":"cebpf4jnsgd1na2vs0mg"},{"bike_id":"044994bb-5e99-42ac-ba72-cbe3bd29837b","system_id":"levelo_inurba_marseille","lat":43.29047,"lon":5.37169,"is_reserved":false,"is_disabled":false,"rental_uris":{"android":"levelo://app?vid=044994bb-5e99-42ac-ba72-cbe3bd29837b","ios":"levelo://app?vid=044994bb-5e99-42ac-ba72-cbe3bd29837b"},"vehicle_type_id":"4","last_reported":1760814391,"current_range_meters":14400,"station_id":"ce4bh5p2rcd13ifvqe4g","pricing_plan_id":"cebpf4jnsgd1na2vs0mg"},{"bike_id":"6ce307ee-766d-4254-a0dd-c0aa1c5606f0","system_id":"levelo_inurba_marseille","lat":43.29698,"lon":5.36595,"is_reserved":false,"is_disabled":false,"rental_uris":{"android":"levelo://app?vid=6ce307ee-766d-4254-a0dd-c0aa1c5606f0","ios":"levelo://app?vid=6ce307ee-766d-4254-a0dd-c0aa1c5606f0"},"vehicle_type_id":"4","last_reported":1760814391,"current_range_meters":14400,"station_id":"ce4bgn12rcd13ifvqbt0","pricing_plan_id":"cebpf4jnsgd1na2vs0mg"},{"bike_id":"8d0dfff6-344d-44d4-a7c0-c8985a0e021b","system_id":"levelo_inurba_marseille","lat":43.29913,"lon":5.36818,"is_reserved":false,"is_disabled":false,"rental_uris":{"android":"levelo://app?vid=8d0dfff6-344d-44d4-a7c0-c8985a0e021b","ios":"levelo://app?vid=8d0dfff6-344d-44d4-a7c0-c8985a0e021b"},"vehicle_type_id":"4","last_reported":1760814391,"current_range_meters":14400,"station_id":"","pricing_plan_id":"cebpf4jnsgd1na2vs0mg"},{"bike_id":"cf4c14bf-7635-4f96-a4b6-ee6481db3804","system_id":"levelo_inurba_marseille","lat":43.32293,"lon":5.38287,"is_reserved":false,"is_disabled":false,"rental_uris":{"android":"levelo://app?vid=cf4c14bf-7635-4f96-a4b6-ee6481db3804","ios":"levelo://app?vid=cf4c14bf-7635-4f96-a4b6-ee6481db3804"},"vehicle_type_id":"4","last_reported":1760814391,"current_range_meters":14800,"station_id":"ce4bhr12rcd13ifvqhqg","pricing_plan_id":"cebpf4jnsgd1na2vs0mg"},{"bike_id":"4ec8b0cc-1282-4437-9c7e-d089f0dd057c","system_id":"levelo_inurba_marseille","lat":43.29265,"lon":5.38428,"is_reserved":false,"is_disabled":false,"rental_uris":{"android":"levelo://app?vid=4ec8b0cc-1282-4437-9c7e-d089f0dd057c","ios":"levelo://app?vid=4ec8b0cc-1282-4437-9c7e-d089f0dd057c"},"vehicle_type_id":"4","last_reported":1760814391,"current_range_meters":14800,"station_id":"ce4bh692rcd13ifvqea0","pricing_plan_id":"cebpf4jnsgd1na2vs0mg"},{"bike_id":"5a0654ac-2e38-4b40-befe-67c0ed9ea64f","system_id":"levelo_inurba_marseille","lat":43.25117,"lon":5.4034,"is_reserved":false,"is_disabled":false,"rental_uris":{"android":"levelo://app?vid=5a0654ac-2e38-4b40-befe-67c0ed9ea64f","ios":"levelo://app?vid=5a0654ac-2e38-4b40-befe-67c0ed9ea64f"},"vehicle_type_id":"4","last_reported":1760814391,"current_range_meters":14800,"station_id":"ce4bhlh2rcd13ifvqgig","pricing_plan_id":"cebpf4jnsgd1na2vs0mg"},{"bike_id":"ee5b9b4d-d120-41b9-a430-c7e48db5a413","system_id":"levelo_inurba_marseille","lat":43.27334,"lon":5.39093,"is_reserved":false,"is_disabled":false,"rental_uris":{"android":"levelo://app?vid=ee5b9b4d-d120-41b9-a430-c7e48db5a413","ios":"levelo://app?vid=ee5b9b4d-d120-41b9-a430-c7e48db5a413"},"vehicle_type_id":"4","last_reported":1760814391,"current_range_meters":14800,"station_id":"ce4bhgp2rcd13ifvqfe0","pricing_plan_id":"cebpf4jnsgd1na2vs0mg"},{"bike_id":"f3afa41d-00d3-407a-a32d-94438219b313","system_id":"levelo_inurba_marseille","lat":43.269592,"lon":5.386562,"is_reserved":false,"is_disabled":false,"rental_uris":{"android":"levelo://app?vid=f3afa41d-00d3-407a-a32d-94438219b313","ios":"levelo://app?vid=f3afa41d-00d3-407a-a32d-94438219b313"},"vehicle_type_id":"4","last_reported":1760814391,"current_range_meters":14800,"station_id":"ce4bhh92rcd13ifvqfh0","pricing_plan_id":"cebpf4jnsgd1na2vs0mg"},{"bike_id":"ba8c7f8f-404a-4ee7-b514-9119151b4ba1","system_id":"levelo_inurba_marseille","lat":43.27303,"lon":5.39089,"is_reserved":false,"is_disabled":false,"rental_uris":{"android":"levelo://app?vid=ba8c7f8f-404a-4ee7-b514-9119151b4ba1","ios":"levelo://app?vid=ba8c7f8f-404a-4ee7-b514-9119151b4ba1"},"vehicle_type_id":"4","last_reported":1760814391,"current_range_meters":14800,"station_id":"ce4bhgp2rcd13ifvqfe0","pricing_plan_id":"cebpf4jnsgd1na2vs0mg"},{"bike_id":"a7b3764b-b896-4840-bd7e-9880973af195","system_id":"levelo_inurba_marseille","lat":43.292287,"lon":5.360602,"is_reserved":false,"is_disabled":false,"rental_uris":{"android":"levelo://app?vid=a7b3764b-b896-4840-bd7e-9880973af195","ios":"levelo://app?vid=a7b3764b-b896-4840-bd7e-9880973af195"},"vehicle_type_id":"4","last_reported":1760814391,"current_range_meters":14800,"station_id":"","pricing_plan_id":"cebpf4jnsgd1na2vs0mg"},{"bike_id":"f6459e07-cf92-4ade-97b0-b2dd230fbf26","system_id":"levelo_inurba_marseille","lat":43.26943,"lon":5.40251,"is_reserved":false,"is_disabled":false,"rental_uris":{"android":"levelo://app?vid=f6459e07-cf92-4ade-97b0-b2dd230fbf26","ios":"levelo://app?vid=f6459e07-cf92-4ade-97b0-b2dd230fbf26"},"vehicle_type_id":"4","last_reported":1760814391,"current_range_meters":14800,"station_id":"cjm6bp8fraef2m0cb0m0","pricing_plan_id":"cebpf4jnsgd1na2vs0mg"},{"bike_id":"dc68b9c0-611a-49a3-a162-ec20556d18ff","system_id":"levelo_inurba_marseille","lat":43.28938,"lon":5.39634,"is_reserved":false,"is_disabled":false,"rental_uris":{"android":"levelo://app?vid=dc68b9c0-611a-49a3-a162-ec20556d18ff","ios":"levelo://app?vid=dc68b9c0-611a-49a3-a162-ec20556d18ff"},"vehicle_type_id":"4","last_reported":1760814391,"current_range_meters":14800,"station_id":"ce4bh3h2rcd13ifvqdn0","pricing_plan_id":"cebpf4jnsgd1na2vs0mg"},{"bike_id":"f24ed84e-6647-45f6-a2f7-d0da4b2fccc5","system_id":"levelo_inurba_marseille","lat":43.26951,"lon":5.40246,"is_reserved":false,"is_disabled":false,"rental_uris":{"android":"levelo://app?vid=f24ed84e-6647-45f6-a2f7-d0da4b2fccc5","ios":"levelo://app?vid=f24ed84e-6647-45f6-a2f7-d0da4b2fccc5"},"vehicle_type_id":"4","last_reported":1760814391,"current_range_meters":14800,"station_id":"cjm6bp8fraef2m0cb0m0","pricing_plan_id":"cebpf4jnsgd1na2vs0mg"},{"bike_id":"1c12dddd-d8de-4809-900b-70d11c80ffc2","system_id":"levelo_inurba_marseille","lat":43.27671,"lon":5.38876,"is_reserved":false,"is_disabled":false,"rental_uris":{"android":"levelo://app?vid=1c12dddd-d8de-4809-900b-70d11c80ffc2","ios":"levelo://app?vid=1c12dddd-d8de-4809-900b-70d11c80ffc2"},"vehicle_type_id":"4","last_reported":1760814391,"current_range_meters":14800,"station_id":"ce4bhi12rcd13ifvqfo0","pricing_plan_id":"cebpf4jnsgd1na2vs0mg"},{"bike_id":"c0a350ee-be00-4102-bc12-87d53227b0f5","system_id":"levelo_inurba_marseille","lat":43.29258,"lon":5.38458,"is_reserved":false,"is_disabled":false,"rental_uris":{"android":"levelo://app?vid=c0a350ee-be00-4102-bc12-87d53227b0f5","ios":"levelo://app?vid=c0a350ee-be00-4102-bc12-87d53227b0f5"},"vehicle_type_id":"4","last_reported":1760814391,"current_range_meters":14800,"station_id":"ce4bh692rcd13ifvqea0","pricing_plan_id":"cebpf4jnsgd1na2vs0mg"},{"bike_id":"ca66566f-bb6f-47c3-9261-9f948cee6a02","system_id":"levelo_inurba_marseille","lat":43.27312,"lon":5.39106,"is_reserved":false,"is_disabled":false,"rental_uris":{"android":"levelo://app?vid=ca66566f-bb6f-47c3-9261-9f948cee6a02","ios":"levelo://app?vid=ca66566f-bb6f-47c3-9261-9f948cee6a02"},"vehicle_type_id":"4","last_reported":1760814391,"current_range_meters":15200,"station_id":"ce4bhgp2rcd13ifvqfe0","pricing_plan_id":"cebpf4jnsgd1na2vs0mg"},{"bike_id":"346acee0-8b0f-49aa-a4d7-81f555556277","system_id":"levelo_inurba_marseille","lat":43.26952,"lon":5.40245,"is_reserved":false,"is_disabled":false,"rental_uris":{"android":"levelo://app?vid=346acee0-8b0f-49aa-a4d7-81f555556277","ios":"levelo://app?vid=346acee0-8b0f-49aa-a4d7-81f555556277"},"vehicle_type_id":"4","last_reported":1760814391,"current_range_meters":15200,"station_id":"cjm6bp8fraef2m0cb0m0","pricing_plan_id":"cebpf4jnsgd1na2vs0mg"},{"bike_id":"da645a59-3c37-4a6c-b300-727c90e60e75","system_id":"levelo_inurba_marseille","lat":43.29534,"lon":5.38547,"is_reserved":false,"is_disabled":false,"rental_uris":{"android":"levelo://app?vid=da645a59-3c37-4a6c-b300-727c90e60e75","ios":"levelo://app?vid=da645a59-3c37-4a6c-b300-727c90e60e75"},"vehicle_type_id":"4","last_reported":1760814391,"current_range_meters":15200,"station_id":"ce4bgih2rcd13ifvqba0","pricing_plan_id":"cebpf4jnsgd1na2vs0mg"},{"bike_id":"2057cc40-11b9-4848-ae03-cb3f7da00d8a","system_id":"levelo_inurba_marseille","lat":43.292646,"lon":5.384337,"is_reserved":false,"is_disabled":false,"rental_uris":{"android":"levelo://app?vid=2057cc40-11b9-4848-ae03-cb3f7da00d8a","ios":"levelo://app?vid=2057cc40-11b9-4848-ae03-cb3f7da00d8a"},"vehicle_type_id":"4","last_reported":1760814391,"current_range_meters":15200,"station_id":"ce4bh692rcd13ifvqea0","pricing_plan_id":"cebpf4jnsgd1na2vs0mg"},{"bike_id":"2e024493-35c3-471c-bd82-8a3dc53ad3c5","system_id":"levelo_inurba_marseille","lat":43.26954,"lon":5.40249,"is_reserved":false,"is_disabled":false,"rental_uris":{"android":"levelo://app?vid=2e024493-35c3-471c-bd82-8a3dc53ad3c5","ios":"levelo://app?vid=2e024493-35c3-471c-bd82-8a3dc53ad3c5"},"vehicle_type_id":"4","last_reported":1760814391,"current_range_meters":16000,"station_id":"cjm6bp8fraef2m0cb0m0","pricing_plan_id":"cebpf4jnsgd1na2vs0mg"},{"bike_id":"00b0c6e1-4d62-4ad2-a3d1-e4852b97e9df","system_id":"levelo_inurba_marseille","lat":43.27315,"lon":5.39099,"is_reserved":false,"is_disabled":false,"rental_uris":{"android":"levelo://app?vid=00b0c6e1-4d62-4ad2-a3d1-e4852b97e9df","ios":"levelo://app?vid=00b0c6e1-4d62-4ad2-a3d1-e4852b97e9df"},"vehicle_type_id":"4","last_reported":1760814391,"current_range_meters":16000,"station_id":"ce4bhgp2rcd13ifvqfe0","pricing_plan_id":"cebpf4jnsgd1na2vs0mg"},{"bike_id":"3723dc20-8123-4f5f-92a0-0c3073c1e3b9","system_id":"levelo_inurba_marseille","lat":43.2526,"lon":5.42203,"is_reserved":false,"is_disabled":false,"rental_uris":{"android":"levelo://app?vid=3723dc20-8123-4f5f-92a0-0c3073c1e3b9","ios":"levelo://app?vid=3723dc20-8123-4f5f-92a0-0c3073c1e3b9"},"vehicle_type_id":"4","last_reported":1760814391,"current_range_meters":16000,"station_id":"st_d2m65c5bi1j21697t3ng","pricing_plan_id":"cebpf4jnsgd1na2vs0mg"},{"bike_id":"db7e9d77-873a-4700-b3c6-116db69820f4","system_id":"levelo_inurba_marseille","lat":43.27056,"lon":5.40264,"is_reserved":false,"is_disabled":false,"rental_uris":{"android":"levelo://app?vid=db7e9d77-873a-4700-b3c6-116db69820f4","ios":"levelo://app?vid=db7e9d77-873a-4700-b3c6-116db69820f4"},"vehicle_type_id":"4","last_reported":1760814391,"current_range_meters":16000,"station_id":"ce4bhk92rcd13ifvqgc0","pricing_plan_id":"cebpf4jnsgd1na2vs0mg"},{"bike_id":"9a91c700-0f15-40da-a093-f242e95ef936","system_id":"levelo_inurba_marseille","lat":43.29507,"lon":5.39042,"is_reserved":false,"is_disabled":false,"rental_uris":{"android":"levelo://app?vid=9a91c700-0f15-40da-a093-f242e95ef936","ios":"levelo://app?vid=9a91c700-0f15-40da-a093-f242e95ef936"},"vehicle_type_id":"4","last_reported":1760814391,"current_range_meters":16000,"station_id":"ce4bh3p2rcd13ifvqdp0","pricing_plan_id":"cebpf4jnsgd1na2vs0mg"},