{"last_updated":1742397013,"ttl":60,"version":"2.2","data":{"bikes":[{"bike_id":"f5c97f8a-2624-4b99-bdf9-59f10ff7cfce","system_id":"levelo_inurba_marseille","lat":43.27616,"lon":5.36108,"is_reserved":false,"is_disabled":false,"rental_uris":{"android":"levelo://app?vid=f5c97f8a-2624-4b99-bdf9-59f10ff7cfce","ios":"levelo://app?vid=f5c97f8a-2624-4b99-bdf9-59f10ff7cfce"},"vehicle_type_id":"4","last_reported":1742397013,"current_range_meters":2800,"station_id":"ce4bgj92rcd13ifvqbe0","pricing_plan_id":"cebpf4jnsgd1na2vs0mg"},{"bike_id":"f63d4fe9-c255-46a9-8417-88fae8f613aa","system_id":"levelo_inurba_marseille","lat":43.31373,"lon":5.38493,"is_reserved":false,"is_disabled":false,"rental_uris":{"android":"levelo://app?vid=f63d4fe9-c255-46a9-8417-88fae8f613aa","ios":"levelo://app?vid=f63d4fe9-c255-46a9-8417-88fae8f613aa"},"vehicle_type_id":"4","last_reported":1742397013,"current_range_meters":2800,"station_id":"ce4bgt92rcd13ifvqcf0","pricing_plan_id":"cebpf4jnsgd1na2vs0mg"},{"bike_id":"e236cfa4-9806-42f8-959f-1b78069237f1","system_id":"levelo_inurba_marseille","lat":43.27999,"lon":5.40007,"is_reserved":false,"is_disabled":false,"rental_uris":{"android":"levelo://app?vid=e236cfa4-9806-42f8-959f-1b78069237f1","ios":"levelo://app?vid=e236cfa4-9806-42f8-959f-1b78069237f1"},"vehicle_type_id":"4","last_reported":1742397013,"current_range_meters":2800,"station_id":"ce4bho92rcd13ifvqh4g","pricing_plan_id":"cebpf4jnsgd1na2vs0mg"},{"bike_id":"ac8acac2-b3c2-415f-a6ff-85488d005bb2","system_id":"levelo_inurba_marseille","lat":43.24807,"lon":5.37459,"is_reserved":false,"is_disabled":false,"rental_uris":{"android":"levelo://app?vid=ac8acac2-b3c2-415f-a6ff-85488d005bb2","ios":"levelo://app?vid=ac8acac2-b3c2-415f-a6ff-85488d005bb2"},"vehicle_type_id":"4","last_reported":1742397013,"current_range_meters":2800,"station_id":"ce4bhgh2rcd13ifvqfb0","pricing_plan_id":"cebpf4jnsgd1na2vs0mg"},{"bike_id":"cce97a95-516f-4315-a2ec-5a1c7b9d4da1","system_id":"levelo_inurba_marseille","lat":43.25823,"lon":5.39435,"is_reserved":false,"is_disabled":false,"rental_uris":{"android":"levelo://app?vid=cce97a95-516f-4315-a2ec-5a1c7b9d4da1","ios":"levelo://app?vid=cce97a95-516f-4315-a2ec-5a1c7b9d4da1"},"vehicle_type_id":"4","last_reported":1742397013,"current_range_meters":3200,"station_id":"ce4bhip2rcd13ifvqft0","pricing_plan_id":"cebpf4jnsgd1na2vs0mg"},{"bike_id":"ea607416-83ba-4ea6-9c98-d2eddf1cf075","system_id":"levelo_inurba_marseille","lat":43.293041,"lon":5.369932,"is_reserved":false,"is_disabled":false,"rental_uris":{"android":"levelo://app?vid=ea607416-83ba-4ea6-9c98-d2eddf1cf075","ios":"levelo://app?vid=ea607416-83ba-4ea6-9c98-d2eddf1cf075"},"vehicle_type_id":"4","last_reported":1742397013,"current_range_meters":3200,"station_id":"ce4bhbp2rcd13ifvqesg","pricing_plan_id":"cebpf4jnsgd1na2vs0mg"},{"bike_id":"47418a83-6367-4723-ba3b-1aa94fd0b1e0","system_id":"levelo_inurba_marseille","lat":43.28142,"lon":5.43678,"is_reserved":false,"is_disabled":false,"rental_uris":{"android":"levelo://app?vid=47418a83-6367-4723-ba3b-1aa94fd0b1e0","ios":"levelo://app?vid=47418a83-6367-4723-ba3b-1aa94fd0b1e0"},"vehicle_type_id":"4","last_reported":1742397013,"current_range_meters":3200,"station_id":"","pricing_plan_id":"cebpf4jnsgd1na2vs0mg"},{"bike_id":"80199900-8dce-4757-bbc9-50ebf2191700","system_id":"levelo_inurba_marseille","lat":43.26942,"lon":5.40249,"is_reserved":false,"is_disabled":false,"rental_uris":{"android":"levelo://app?vid=80199900-8dce-4757-bbc9-50ebf2191700","ios":"levelo://app?vid=80199900-8dce-4757-bbc9-50ebf2191700"},"vehicle_type_id":"4","last_reported":1742397013,"current_range_meters":3200,"station_id":"cjm6bp8fraef2m0cb0m0","pricing_plan_id":"cebpf4jnsgd1na2vs0mg"},{"bike_id":"6368f354-6da7-4884-a394-062f1a963ed6","system_id":"levelo_inurba_marseille","lat":43.29289,"lon":5.42804,"is_reserved":false,"is_disabled":false,"rental_uris":{"android":"levelo://app?vid=6368f354-6da7-4884-a394-062f1a963ed6","ios":"levelo://app?vid=6368f354-6da7-4884-a394-062f1a963ed6"},"vehicle_type_id":"4","last_reported":1742397013,"current_range_meters":3200,"station_id":"","pricing_plan_id":"cebpf4jnsgd1na2vs0mg"},{"bike_id":"f09bc776-2518-4569-ac1a-dea4f4a696dd","system_id":"levelo_inurba_marseille","lat":43.29258,"lon":5.37627,"is_reserved":false,"is_disabled":false,"rental_uris":{"android":"levelo://app?vid=f09bc776-2518-4569-ac1a-dea4f4a696dd","ios":"levelo://app?vid=f09bc776-2518-4569-ac1a-dea4f4a696dd"},"vehicle_type_id":"4","last_reported":1742397013,"current_range_meters":3200,"station_id":"ce4bgi12rcd13ifvqb80","pricing_plan_id":"cebpf4jnsgd1na2vs0mg"},{"bike_id":"c0531aac-9e56-48ad-b274-a413685e5906","system_id":"levelo_inurba_marseille","lat":43.27179,"lon":5.41,"is_reserved":false,"is_disabled":false,"rental_uris":{"android":"levelo://app?vid=c0531aac-9e56-48ad-b274-a413685e5906","ios":"levelo://app?vid=c0531aac-9e56-48ad-b274-a413685e5906"},"vehicle_type_id":"4","last_reported":1742397013,"current_range_meters":3600,"station_id":"ce4bhl12rcd13ifvqgf0","pricing_plan_id":"cebpf4jnsgd1na2vs0mg"},{"bike_id":"e7ac7a57-bc7a-451e-be23-ef2cbf01a9ae","system_id":"levelo_inurba_marseille","lat":43.28992,"lon":5.37076,"is_reserved":false,"is_disabled":false,"rental_uris":{"android":"levelo://app?vid=e7ac7a57-bc7a-451e-be23-ef2cbf01a9ae","ios":"levelo://app?vid=e7ac7a57-bc7a-451e-be23-ef2cbf01a9ae"},"vehicle_type_id":"4","last_reported":1742397013,"current_range_meters":3600,"station_id":"","pricing_plan_id":"cebpf4jnsgd1na2vs0mg"},{"bike_id":"63830391-301c-4d9f-8ac9-2f866a32d882","system_id":"levelo_inurba_marseille","lat":43.25724,"lon":5.41096,"is_reserved":false,"is_disabled":false,"rental_uris":{"android":"levelo://app?vid=63830391-301c-4d9f-8ac9-2f866a32d882","ios":"levelo://app?vid=63830391-301c-4d9f-8ac9-2f866a32d882"},"vehicle_type_id":"4","last_reported":1742397013,"current_range_meters":3600,"station_id":"ce4bhkp2rcd13ifvqgd0","pricing_plan_id":"cebpf4jnsgd1na2vs0mg"},{"bike_id":"154606a8-39ea-4836-8df6-ad1683ddf919","system_id":"levelo_inurba_marseille","lat":43.30557,"lon":5.36527,"is_reserved":false,"is_disabled":false,"rental_uris":{"android":"levelo://app?vid=154606a8-39ea-4836-8df6-ad1683ddf919","ios":"levelo://app?vid=154606a8-39ea-4836-8df6-ad1683ddf919"},"vehicle_type_id":"4","last_reported":1742397013,"current_range_meters":4000,"station_id":"ce4bgs12rcd13ifvqcag","pricing_plan_id":"cebpf4jnsgd1na2vs0mg"},{"bike_id":"a2b55b3e-6d2a-48ab-b87d-838913aa8d96","system_id":"levelo_inurba_marseille","lat":43.25936,"lon":5.409,"is_reserved":false,"is_disabled":false,"rental_uris":{"android":"levelo://app?vid=a2b55b3e-6d2a-48ab-b87d-838913aa8d96","ios":"levelo://app?vid=a2b55b3e-6d2a-48ab-b87d-838913aa8d96"},"vehicle_type_id":"4","last_reported":1742397013,"current_range_meters":4000,"station_id":"ce4bhm92rcd13ifvqglg","pricing_plan_id":"cebpf4jnsgd1na2vs0mg"},{"bike_id":"4f6d11f4-8d23-4e35-8c59-e818e64ce7ab","system_id":"levelo_inurba_marseille","lat":43.29528,"lon":5.43899,"is_reserved":false,"is_disabled":false,"rental_uris":{"android":"levelo://app?vid=4f6d11f4-8d23-4e35-8c59-e818e64ce7ab","ios":"levelo://app?vid=4f6d11f4-8d23-4e35-8c59-e818e64ce7ab"},"vehicle_type_id":"4","last_reported":1742397013,"current_range_meters":4000,"station_id":"","pricing_plan_id":"cebpf4jnsgd1na2vs0mg"},{"bike_id":"36709e93-795b-478f-8261-b7d4eb74a346","system_id":"levelo_inurba_marseille","lat":43.30378,"lon":5.42488,"is_reserved":false,"is_disabled":false,"rental_uris":{"android":"levelo://app?vid=36709e93-795b-478f-8261-b7d4eb74a346","ios":"levelo://app?vid=36709e93-795b-478f-8261-b7d4eb74a346"},"vehicle_type_id":"4","last_reported":1742397013,"current_range_meters":4000,"station_id":"ce4bhoh2rcd13ifvqh6g","pricing_plan_id":"cebpf4jnsgd1na2vs0mg"},{"bike_id":"cf9e3004-64b8-46ab-97fb-c0ec380cc653","system_id":"levelo_inurba_marseille","lat":43.2694,"lon":5.40259,"is_reserved":false,"is_disabled":false,"rental_uris":{"android":"levelo://app?vid=cf9e3004-64b8-46ab-97fb-c0ec380cc653","ios":"levelo://app?vid=cf9e3004-64b8-46ab-97fb-c0ec380cc653"},"vehicle_type_id":"4","last_reported":1742397013,"current_range_meters":3600,"station_id":"cjm6bp8fraef2m0cb0m0","pricing_plan_id":"cebpf4jnsgd1na2vs0mg"},{"bike_id":"e7aef694-bffd-4e4b-b091-b4f0ad6c2746","system_id":"levelo_inurba_marseille","lat":43.26556,"lon":5.3902,"is_reserved":false,"is_disabled":false,"rental_uris":{"android":"levelo://app?vid=e7aef694-bffd-4e4b-b091-b4f0ad6c2746","ios":"levelo://app?vid=e7aef694-bffd-4e4b-b091-b4f0ad6c2746"},"vehicle_type_id":"4","last_reported":1742397013,"current_range_meters":4000,"station_id":"ce4bhe12rcd13ifvqf30","pricing_plan_id":"cebpf4jnsgd1na2vs0mg"},{"bike_id":"adc3bbf6-2e0f-4fc7-a766-a528d6d9ebe5","system_id":"levelo_inurba_marseille","lat":43.2512,"lon":5.40318,"is_reserved":false,"is_disabled":false,"rental_uris":{"android":"levelo://app?vid=adc3bbf6-2e0f-4fc7-a766-a528d6d9ebe5","ios":"levelo://app?vid=adc3bbf6-2e0f-4fc7-a766-a528d6d9ebe5"},"vehicle_type_id":"4","last_reported":1742397013,"current_range_meters":4400,"station_id":"ce4bhlh2rcd13ifvqgig","pricing_plan_id":"cebpf4jnsgd1na2vs0mg"},{"bike_id":"52bd4f14-775f-459f-9791-851d088e69cb","system_id":"levelo_inurba_marseille","lat":43.25045,"lon":5.3888,"is_reserved":false,"is_disabled":false,"rental_uris":{"android":"levelo://app?vid=52bd4f14-775f-459f-9791-851d088e69cb","ios":"levelo://app?vid=52bd4f14-775f-459f-9791-851d088e69cb"},"vehicle_type_id":"4","last_reported":1742397013,"current_range_meters":4400,"station_id":"","pricing_plan_id":"cebpf4jnsgd1na2vs0mg"},{"bike_id":"97820cc4-93f7-472f-a6a3-bb0b3708ecd1","system_id":"levelo_inurba_marseille","lat":43.2655,"lon":5.37301,"is_reserved":false,"is_disabled":true,"rental_uris":{"android":"levelo://app?vid=97820cc4-93f7-472f-a6a3-bb0b3708ecd1","ios":"levelo://app?vid=97820cc4-93f7-472f-a6a3-bb0b3708ecd1"},"vehicle_type_id":"4","last_reported":1742397013,"current_range_meters":4800,"station_id":"ce4bhg12rcd13ifvqf70","pricing_plan_id":"cebpf4jnsgd1na2vs0mg"},{"bike_id":"c09aa2df-8f3f-4f43-b911-4105574312f5","system_id":"levelo_inurba_marseille","lat":43.27904,"lon":5.38015,"is_reserved":false,"is_disabled":false,"rental_uris":{"android":"levelo://app?vid=c09aa2df-8f3f-4f43-b911-4105574312f5","ios":"levelo://app?vid=c09aa2df-8f3f-4f43-b911-4105574312f5"},"vehicle_type_id":"4","last_reported":1742397013,"current_range_meters":4800,"station_id":"ce4bhf92rcd13ifvqf50","pricing_plan_id":"cebpf4jnsgd1na2vs0mg"},{"bike_id":"d835339a-815c-4f2d-bc5f-06df97638758","system_id":"levelo_inurba_marseille","lat":43.31391,"lon":5.3856,"is_reserved":false,"is_disabled":false,"rental_uris":{"android":"levelo://app?vid=d835339a-815c-4f2d-bc5f-06df97638758","ios":"levelo://app?vid=d835339a-815c-4f2d-bc5f-06df97638758"},"vehicle_type_id":"4","last_reported":1742397013,"current_range_meters":4800,"station_id":"","pricing_plan_id":"cebpf4jnsgd1na2vs0mg"},{"bike_id":"86cfa0c2-a253-4d36-b8b1-e90d0ce54e22","system_id":"levelo_inurba_marseille","lat":43.24179,"lon":5.39728,"is_reserved":false,"is_disabled":false,"rental_uris":{"android":"levelo://app?vid=86cfa0c2-a253-4d36-b8b1-e90d0ce54e22","ios":"levelo://app?vid=86cfa0c2-a253-4d36-b8b1-e90d0ce54e22"},"vehicle_type_id":"4","last_reported":1742397013,"current_range_meters":4800,"station_id":"ce4bhn12rcd13ifvqgpg","pricing_plan_id":"cebpf4jnsgd1na2vs0mg"},{"bike_id":"bea732db-f51c-42b0-b346-3cf7b7553394","system_id":"levelo_inurba_marseille","lat":43.255882,"lon":5.382298,"is_reserved":false,"is_disabled":false,"rental_uris":{"android":"levelo://app?vid=bea732db-f51c-42b0-b346-3cf7b7553394","ios":"levelo://app?vid=bea732db-f51c-42b0-b346-3cf7b7553394"},"vehicle_type_id":"4","last_reported":1742397013,"current_range_meters":5600,"station_id":"ce4bhih2rcd13ifvqfs0","pricing_plan_id":"cebpf4jnsgd1na2vs0mg"},{"bike_id":"8beacb06-191c-4078-8acc-085abaf3a4f4","system_id":"levelo_inurba_marseille","lat":43.27993,"lon":5.44197,"is_reserved":false,"is_disabled":false,"rental_uris":{"android":"levelo://app?vid=8beacb06-191c-4078-8acc-085abaf3a4f4","ios":"levelo://app?vid=8beacb06-191c-4078-8acc-085abaf3a4f4"},"vehicle_type_id":"4","last_reported":1742397013,"current_range_meters":5600,"station_id":"","pricing_plan_id":"cebpf4jnsgd1na2vs0mg"},{"bike_id":"d0ecd06f-b344-485c-8550-9fa5bf448f53","system_id":"levelo_inurba_marseille","lat":43.25835,"lon":5.39439,"is_reserved":false,"is_disabled":false,"rental_uris":{"android":"levelo://app?vid=d0ecd06f-b344-485c-8550-9fa5bf448f53","ios":"levelo://app?vid=d0ecd06f-b344-485c-8550-9fa5bf448f53"},"vehicle_type_id":"4","last_reported":1742397013,"current_range_meters":5600,"station_id":"ce4bhip2rcd13ifvqft0","pricing_plan_id":"cebpf4jnsgd1na2vs0mg"},{"bike_id":"8528cfd6-758c-4197-aaac-800294acfea6","system_id":"levelo_inurba_marseille","lat":43.25874,"lon":5.3991,"is_reserved":false,"is_disabled":false,"rental_uris":{"android":"levelo://app?vid=8528cfd6-758c-4197-aaac-800294acfea6","ios":"levelo://app?vid=8528cfd6-758c-4197-aaac-800294acfea6"},"vehicle_type_id":"4","last_reported":1742397013,"current_range_meters":5600,"station_id":"ce4bhl92rcd13ifvqghg","pricing_plan_id":"cebpf4jnsgd1na2vs0mg"},{"bike_id":"c0ea395d-b82f-4fd1-8e6d-00dd257afcc2","system_id":"levelo_inurba_marseille","lat":43.26217,"lon":5.37443,"is_reserved":false,"is_disabled":false,"rental_uris":{"android":"levelo://app?vid=c0ea395d-b82f-4fd1-8e6d-00dd257afcc2","ios":"levelo://app?vid=c0ea395d-b82f-4fd1-8e6d-00dd257afcc2"},"vehicle_type_id":"4","last_reported":1742397013,"current_range_meters":5600,"station_id":"ce4bhgp2rcd13ifvqfc0","pricing_plan_id":"cebpf4jnsgd1na2vs0mg"},{"bike_id":"fd8c2ecd-566a-4b2d-9818-fa2db87201ab","system_id":"levelo_inurba_marseille","lat":43.28935,"lon":5.36643,"is_reserved":false,"is_disabled":false,"rental_uris":{"android":"levelo://app?vid=fd8c2ecd-566a-4b2d-9818-fa2db87201ab","ios":"levelo://app?vid=fd8c2ecd-566a-4b2d-9818-fa2db87201ab"},"vehicle_type_id":"4","last_reported":1742397013,"current_range_meters":7200,"station_id":"ce4bhap2rcd13ifvqek0","pricing_plan_id":"cebpf4jnsgd1na2vs0mg"},{"bike_id":"234ecabe-d17c-46ff-ac1e-1ec22f977e8d","system_id":"levelo_inurba_marseille","lat":43.27571,"lon":5.38433,"is_reserved":false,"is_disabled":false,"rental_uris":{"android":"levelo://app?vid=234ecabe-d17c-46ff-ac1e-1ec22f977e8d","ios":"levelo://app?vid=234ecabe-d17c-46ff-ac1e-1ec22f977e8d"},"vehicle_type_id":"4","last_reported":1742397013,"current_range_meters":6000,"station_id":"ce4bhh92rcd13ifvqfi0","pricing_plan_id":"cebpf4jnsgd1na2vs0mg"},{"bike_id":"6eac1618-f153-4059-84ab-6dfa9054f184","system_id":"levelo_inurba_marseille","lat":43.28863,"lon":5.35845,"is_reserved":false,"is_disabled":false,"rental_uris":{"android":"levelo://app?vid=6eac1618-f153-4059-84ab-6dfa9054f184","ios":"levelo://app?vid=6eac1618-f153-4059-84ab-6dfa9054f184"},"vehicle_type_id":"4","last_reported":1742397013,"current_range_meters":6400,"station_id":"ce4bhb12rcd13ifvqem0","pricing_plan_id":"cebpf4jnsgd1na2vs0mg"},{"bike_id":"b627c9ad-3c9c-4e71-ac51-64e10127430c","system_id":"levelo_inurba_marseille","lat":43.27904,"lon":5.37987,"is_reserved":false,"is_disabled":false,"rental_uris":{"android":"levelo://app?vid=b627c9ad-3c9c-4e71-ac51-64e10127430c","ios":"levelo://app?vid=b627c9ad-3c9c-4e71-ac51-64e10127430c"},"vehicle_type_id":"4","last_reported":1742397013,"current_range_meters":6400,"station_id":"ce4bhf92rcd13ifvqf50","pricing_plan_id":"cebpf4jnsgd1na2vs0mg"},{"bike_id":"92f9202d-8cd4-4ca4-92f7-bb05bfe75c06","system_id":"levelo_inurba_marseille","lat":43.32286,"lon":5.38277,"is_reserved":false,"is_disabled":false,"rental_uris":{"android":"levelo://app?vid=92f9202d-8cd4-4ca4-92f7-bb05bfe75c06","ios":"levelo://app?vid=92f9202d-8cd4-4ca4-92f7-bb05bfe75c06"},"vehicle_type_id":"4","last_reported":1742397013,"current_range_meters":6400,"station_id":"ce4bhr12rcd13ifvqhqg","pricing_plan_id":"cebpf4jnsgd1na2vs0mg"},{"bike_id":"31ddc5ec-5703-4c3e-bb85-cd15393915b6","system_id":"levelo_inurba_marseille","lat":43.28493,"lon":5.38591,"is_reserved":false,"is_disabled":false,"rental_uris":{"android":"levelo://app?vid=31ddc5ec-5703-4c3e-bb85-cd15393915b6","ios":"levelo://app?vid=31ddc5ec-5703-4c3e-bb85-cd15393915b6"},"vehicle_type_id":"4","last_reported":1742397013,"current_range_meters":6000,"station_id":"ce4bh8p2rcd13ifvqeb0","pricing_plan_id":"cebpf4jnsgd1na2vs0mg"},{"bike_id":"36cc837b-722b-46c5-8038-cdcb25360f86","system_id":"levelo_inurba_marseille","lat":43.28481,"lon":5.38416,"is_reserved":false,"is_disabled":false,"rental_uris":{"android":"levelo://app?vid=36cc837b-722b-46c5-8038-cdcb25360f86","ios":"levelo://app?vid=36cc837b-722b-46c5-8038-cdcb25360f86"},"vehicle_type_id":"4","last_reported":1742397013,"current_range_meters":6000,"station_id":"ce4bh512rcd13ifvqe3g","pricing_plan_id":"cebpf4jnsgd1na2vs0mg"},{"bike_id":"2fc9495d-c829-4229-a4db-5c8674880d7a","system_id":"levelo_inurba_marseille","lat":43.23058,"lon":5.35489,"is_reserved":false,"is_disabled":false,"rental_uris":{"android":"levelo://app?vid=2fc9495d-c829-4229-a4db-5c8674880d7a","ios":"levelo://app?vid=2fc9495d-c829-4229-a4db-5c8674880d7a"},"vehicle_type_id":"4","last_reported":1742397013,"current_range_meters":6400,"station_id":"cpo3342slgdg3j2ifvpg","pricing_plan_id":"cebpf4jnsgd1na2vs0mg"},{"bike_id":"f82bcd9c-d2b5-4549-9995-8a6864ed1b0d","system_id":"levelo_inurba_marseille","lat":43.30419,"lon":5.41283,"is_reserved":false,"is_disabled":false,"rental_uris":{"android":"levelo://app?vid=f82bcd9c-d2b5-4549-9995-8a6864ed1b0d","ios":"levelo://app?vid=f82bcd9c-d2b5-4549-9995-8a6864ed1b0d"},"vehicle_type_id":"4","last_reported":1742397013,"current_range_meters":6400,"station_id":"ce4bhop2rcd13ifvqh8g","pricing_plan_id":"cebpf4jnsgd1na2vs0mg"},{"bike_id":"0b60e72b-d8b1-4266-9b63-b94b87c1ad4b","system_id":"levelo_inurba_marseille","lat":43.23193,"lon":5.39971,"is_reserved":false,"is_disabled":false,"rental_uris":{"android":"levelo://app?vid=0b60e72b-d8b1-4266-9b63-b94b87c1ad4b","ios":"levelo://app?vid=0b60e72b-d8b1-4266-9b63-b94b87c1ad4b"},"vehicle_type_id":"4","last_reported":1742397013,"current_range_meters":6800,"station_id":"ce4bhn12rcd13ifvqgqg","pricing_plan_id":"cebpf4jnsgd1na2vs0mg"},{"bike_id":"3c4f394c-0305-4c58-97e5-6826bd9d917e","system_id":"levelo_inurba_marseille","lat":43.32505,"lon":5.36574,"is_reserved":false,"is_disabled":false,"rental_uris":{"android":"levelo://app?vid=3c4f394c-0305-4c58-97e5-6826bd9d917e","ios":"levelo://app?vid=3c4f394c-0305-4c58-97e5-6826bd9d917e"},"vehicle_type_id":"4","last_reported":1742397013,"current_range_meters":6800,"station_id":"ce4bhs12rcd13ifvqhvg","pricing_plan_id":"cebpf4jnsgd1na2vs0mg"},{"bike_id":"cc3a5926-f9b0-4001-8ffd-7cb571318774","system_id":"levelo_inurba_marseille","lat":43.28485,"lon":5.38414,"is_reserved":false,"is_disabled":false,"rental_uris":{"android":"levelo://app?vid=cc3a5926-f9b0-4001-8ffd-7cb571318774","ios":"levelo://app?vid=cc3a5926-f9b0-4001-8ffd-7cb571318774"},"vehicle_type_id":"4","last_reported":1742397013,"current_range_meters":6800,"station_id":"ce4bh512rcd13ifvqe3g","pricing_plan_id":"cebpf4jnsgd1na2vs0mg"},{"bike_id":"6ae6f76c-6a01-4d75-9d3f-dfa610803a78","system_id":"levelo_inurba_marseille","lat":43.2307,"lon":5.3549,"is_reserved":false,"is_disabled":false,"rental_uris":{"android":"levelo://app?vid=6ae6f76c-6a01-4d75-9d3f-dfa610803a78","ios":"levelo://app?vid=6ae6f76c-6a01-4d75-9d3f-dfa610803a78"},"vehicle_type_id":"4","last_reported":1742397013,"current_range_meters":6800,"station_id":"cpo3342slgdg3j2ifvpg","pricing_plan_id":"cebpf4jnsgd1na2vs0mg"},{"bike_id":"185a97ba-74c6-4045-9d40-9b3f8b89b811","system_id":"levelo_inurba_marseille","lat":43.3043,"lon":5.3889,"is_reserved":false,"is_disabled":false,"rental_uris":{"android":"levelo://app?vid=185a97ba-74c6-4045-9d40-9b3f8b89b811","ios":"levelo://app?vid=185a97ba-74c6-4045-9d40-9b3f8b89b811"},"vehicle_type_id":"4","last_reported":1742397013,"current_range_meters":7200,"station_id":"ce4bgk12rcd13ifvqbi0","pricing_plan_id":"cebpf4jnsgd1na2vs0mg"},{"bike_id":"282a156f-4980-4ecb-b2d6-fd22222e9e36","system_id":"levelo_inurba_marseille","lat":43.24798,"lon":5.37468,"is_reserved":false,"is_disabled":false,"rental_uris":{"android":"levelo://app?vid=282a156f-4980-4ecb-b2d6-fd22222e9e36","ios":"levelo://app?vid=282a156f-4980-4ecb-b2d6-fd22222e9e36"},"vehicle_type_id":"4","last_reported":1742397013,"current_range_meters":6800,"station_id":"ce4bhgh2rcd13ifvqfb0","pricing_plan_id":"cebpf4jnsgd1na2vs0mg"},{"bike_id":"1fc9779f-efa6-4085-b84f-a32deb5a36e7","system_id":"levelo_inurba_marseille","lat":43.23147,"lon":5.43717,"is_reserved":false,"is_disabled":false,"rental_uris":{"android":"levelo://app?vid=1fc9779f-efa6-4085-b84f-a32deb5a36e7","ios":"levelo://app?vid=1fc9779f-efa6-4085-b84f-a32deb5a36e7"},"vehicle_type_id":"4","last_reported":1742397013,"current_range_meters":7200,"station_id":"ce4bhmp2rcd13ifvqgog","pricing_plan_id":"cebpf4jnsgd1na2vs0mg"},{"bike_id":"88e686a5-b89f-4d0c-a271-251c80433298","system_id":"levelo_inurba_marseille","lat":43.23155,"lon":5.43719,"is_reserved":false,"is_disabled":false,"rental_uris":{"android":"levelo://app?vid=88e686a5-b89f-4d0c-a271-251c80433298","ios":"levelo://app?vid=88e686a5-b89f-4d0c-a271-251c80433298"},"vehicle_type_id":"4","last_reported":1742397013,"current_range_meters":7200,"station_id":"ce4bhmp2rcd13ifvqgog","pricing_plan_id":"cebpf4jnsgd1na2vs0mg"},{"bike_id":"c1ccf0a5-89fe-4d49-a5d7-808fb720c652","system_id":"levelo_inurba_marseille","lat":43.26043,"lon":5.41722,"is_reserved":false,"is_disabled":false,"rental_uris":{"android":"levelo://app?vid=c1ccf0a5-89fe-4d49-a5d7-808fb720c652","ios":"levelo://app?vid=c1ccf0a5-89fe-4d49-a5d7-808fb720c652"},"vehicle_type_id":"4","last_reported":1742397013,"current_range_meters":7200,"station_id":"","pricing_plan_id":"cebpf4jnsgd1na2vs0mg"},{"bike_id":"9ae796bc-d523-4ae2-81a3-e354f3f71109","system_id":"levelo_inurba_marseille","lat":43.32356,"lon":5.38915,"is_reserved":false,"is_disabled":false,"rental_uris":{"android":"levelo://app?vid=9ae796bc-d523-4ae2-81a3-e354f3f71109","ios":"levelo://app?vid=9ae796bc-d523-4ae2-81a3-e354f3f71109"},"vehicle_type_id":"4","last_reported":1742397013,"current_range_meters":7200,"station_id":"ce4bhqp2rcd13ifvqhog","pricing_plan_id":"cebpf4jnsgd1na2vs0mg"},{"bike_id":"ca1c0a28-8faf-435f-9d8b-370c3a07ff34","system_id":"levelo_inurba_marseille","lat":43.24162,"lon":5.36391,"is_reserved":false,"is_disabled":false,"rental_uris":{"android":"levelo://app?vid=ca1c0a28-8faf-435f-9d8b-370c3a07ff34","ios":"levelo://app?vid=ca1c0a28-8faf-435f-9d8b-370c3a07ff34"},"vehicle_type_id":"4","last_reported":1742397013,"current_range_meters":7200,"station_id":"cpo36qri1sfpv3e86is0","pricing_plan_id":"cebpf4jnsgd1na2vs0mg"},{"bike_id":"700425af-d7e2-4b81-a8f7-cd8eab740a32","system_id":"levelo_inurba_marseille","lat":43.2781,"lon":5.40715,"is_reserved":false,"is_disabled":false,"rental_uris":{"android":"levelo://app?vid=700425af-d7e2-4b81-a8f7-cd8eab740a32","ios":"levelo://app?vid=700425af-d7e2-4b81-a8f7-cd8eab740a32"},"vehicle_type_id":"4","last_reported":1742397013,"current_range_meters":7200,"station_id":"ce4bhnh2rcd13ifvqgtg","pricing_plan_id":"cebpf4jnsgd1na2vs0mg"},{"bike_id":"a342afa1-fe1b-4de5-8f98-f3f81167fac6","system_id":"levelo_inurba_marseille","lat":43.22939,"lon":5.3539,"is_reserved":false,"is_disabled":false,"rental_uris":{"android":"levelo://app?vid=a342afa1-fe1b-4de5-8f98-f3f81167fac6","ios":"levelo://app?vid=a342afa1-fe1b-4de5-8f98-f3f81167fac6"},"vehicle_type_id":"4","last_reported":1742397013,"current_range_meters":7200,"station_id":"cpo3532slgdg3j2ikp40","pricing_plan_id":"cebpf4jnsgd1na2vs0mg"},{"bike_id":"b6fa87c7-f42f-4cd3-9710-74681e8651c1","system_id":"levelo_inurba_marseille","lat":43.23142,"lon":5.43713,"is_reserved":false,"is_disabled":false,"rental_uris":{"android":"levelo://app?vid=b6fa87c7-f42f-4cd3-9710-74681e8651c1","ios":"levelo://app?vid=b6fa87c7-f42f-4cd3-9710-74681e8651c1"},"vehicle_type_id":"4","last_reported":1742397013,"current_range_meters":7200,"station_id":"ce4bhmp2rcd13ifvqgog","pricing_plan_id":"cebpf4jnsgd1na2vs0mg"},{"bike_id":"34b74241-1e6e-458b-a83f-9bda30270e74","system_id":"levelo_inurba_marseille","lat":43.27829,"lon":5.40713,"is_reserved":false,"is_disabled":false,"rental_uris":{"android":"levelo://app?vid=34b74241-1e6e-458b-a83f-9bda30270e74","ios":"levelo://app?vid=34b74241-1e6e-458b-a83f-9bda30270e74"},"vehicle_type_id":"4","last_reported":1742397013,"current_range_meters":7200,"station_id":"ce4bhnh2rcd13ifvqgtg","pricing_plan_id":"cebpf4jnsgd1na2vs0mg"},{"bike_id":"17160f55-46ee-40d6-9ccd-1044f9a88806","system_id":"levelo_inurba_marseille","lat":43.27905,"lon":5.38,"is_reserved":false,"is_disabled":false,"rental_uris":{"android":"levelo://app?vid=17160f55-46ee-40d6-9ccd-1044f9a88806","ios":"levelo://app?vid=17160f55-46ee-40d6-9ccd-1044f9a88806"},"vehicle_type_id":"4","last_reported":1742397013,"current_range_meters":6800,"station_id":"ce4bhf92rcd13ifvqf50","pricing_plan_id":"cebpf4jnsgd1na2vs0mg"},{"bike_id":"0bb334b5-cc09-4b29-a5de-b5b597d36a1e","system_id":"levelo_inurba_marseille","lat":43.27212,"lon":5.39181,"is_reserved":false,"is_disabled":false,"rental_uris":{"android":"levelo://app?vid=0bb334b5-cc09-4b29-a5de-b5b597d36a1e","ios":"levelo://app?vid=0bb334b5-cc09-4b29-a5de-b5b597d36a1e"},"vehicle_type_id":"4","last_reported":1742397013,"current_range_meters":6800,"station_id":"ce4bhhp2rcd13ifvqfm0","pricing_plan_id":"cebpf4jnsgd1na2vs0mg"},{"bike_id":"61c41159-7a8b-45ee-a18c-926f56b3edec","system_id":"levelo_inurba_marseille","lat":43.25826,"lon":5.39445,"is_reserved":false,"is_disabled":false,"rental_uris":{"android":"levelo://app?vid=61c41159-7a8b-45ee-a18c-926f56b3edec","ios":"levelo://app?vid=61c41159-7a8b-45ee-a18c-926f56b3edec"},"vehicle_type_id":"4","last_reported":1742397013,"current_range_meters":7200,"station_id":"ce4bhip2rcd13ifvqft0","pricing_plan_id":"cebpf4jnsgd1na2vs0mg"},{"bike_id":"52802b63-8223-4569-bd44-fa9b675f74c2","system_id":"levelo_inurba_marseille","lat":43.27575,"lon":5.36061,"is_reserved":false,"is_disabled":false,"rental_uris":{"android":"levelo://app?vid=52802b63-8223-4569-bd44-fa9b675f74c2","ios":"levelo://app?vid=52802b63-8223-4569-bd44-fa9b675f74c2"},"vehicle_type_id":"4","last_reported":1742397013,"current_range_meters":7200,"station_id":"ce4bha92rcd13ifvqeg0","pricing_plan_id":"cebpf4jnsgd1na2vs0mg"},{"bike_id":"e7727825-1550-4ac5-83b8-e36a5d869f96","system_id":"levelo_inurba_marseille","lat":43.2623,"lon":5.40447,"is_reserved":false,"is_disabled":false,"rental_uris":{"android":"levelo://app?vid=e7727825-1550-4ac5-83b8-e36a5d869f96","ios":"levelo://app?vid=e7727825-1550-4ac5-83b8-e36a5d869f96"},"vehicle_type_id":"4","last_reported":1742397013,"current_range_meters":7200,"station_id":"ce4bhmh2rcd13ifvqgmg","pricing_plan_id":"cebpf4jnsgd1na2vs0mg"},{"bike_id":"256ecd7e-dd05-42dd-abdc-6ee86613b294","system_id":"levelo_inurba_marseille","lat":43.3095,"lon":5.39039,"is_reserved":false,"is_disabled":true,"rental_uris":{"android":"levelo://app?vid=256ecd7e-dd05-42dd-abdc-6ee86613b294","ios":"levelo://app?vid=256ecd7e-dd05-42dd-abdc-6ee86613b294"},"vehicle_type_id":"4","last_reported":1742397013,"current_range_meters":8000,"station_id":"ce4bgup2rcd13ifvqco0","pricing_plan_id":"cebpf4jnsgd1na2vs0mg"},{"bike_id":"f7317967-208e-4ff6-92ee-920ec06830c4","system_id":"levelo_inurba_marseille","lat":43.25725,"lon":5.41094,"is_reserved":false,"is_disabled":false,"rental_uris":{"android":"levelo://app?vid=f7317967-208e-4ff6-92ee-920ec06830c4","ios":"levelo://app?vid=f7317967-208e-4ff6-92ee-920ec06830c4"},"vehicle_type_id":"4","last_reported":1742397013,"current_range_meters":8000,"station_id":"ce4bhkp2rcd13ifvqgd0","pricing_plan_id":"cebpf4jnsgd1na2vs0mg"},{"bike_id":"a1a7a713-b967-46bb-b146-c35e46f993ca","system_id":"levelo_inurba_marseille","lat":43.23158,"lon":5.43705,"is_reserved":false,"is_disabled":false,"rental_uris":{"android":"levelo://app?vid=a1a7a713-b967-46bb-b146-c35e46f993ca","ios":"levelo://app?vid=a1a7a713-b967-46bb-b146-c35e46f993ca"},"vehicle_type_id":"4","last_reported":1742397013,"current_range_meters":8000,"station_id":"ce4bhmp2rcd13ifvqgog","pricing_plan_id":"cebpf4jnsgd1na2vs0mg"},{"bike_id":"29177bd9-b05a-46e3-a7c6-0bab8134bba2","system_id":"levelo_inurba_marseille","lat":43.27175,"lon":5.41002,"is_reserved":false,"is_disabled":false,"rental_uris":{"android":"levelo://app?vid=29177bd9-b05a-46e3-a7c6-0bab8134bba2","ios":"levelo://app?vid=29177bd9-b05a-46e3-a7c6-0bab8134bba2"},"vehicle_type_id":"4","last_reported":1742397013,"current_range_meters":8000,"station_id":"ce4bhl12rcd13ifvqgf0","pricing_plan_id":"cebpf4jnsgd1na2vs0mg"},{"bike_id":"d0b0dc4a-9435-4271-8581-4b84e0882df5","system_id":"levelo_inurba_marseille","lat":43.29523,"lon":5.3904,"is_reserved":false,"is_disabled":false,"rental_uris":{"android":"levelo://app?vid=d0b0dc4a-9435-4271-8581-4b84e0882df5","ios":"levelo://app?vid=d0b0dc4a-9435-4271-8581-4b84e0882df5"},"vehicle_type_id":"4","last_reported":1742397013,"current_range_meters":8000,"station_id":"ce4bh0h2rcd13ifvqd40","pricing_plan_id":"cebpf4jnsgd1na2vs0mg"},{"bike_id":"2c5f6343-a1e5-4faa-bc05-6ed9afdcd20a","system_id":"levelo_inurba_marseille","lat":43.30333,"lon":5.40428,"is_reserved":false,"is_disabled":false,"rental_uris":{"android":"levelo://app?vid=2c5f6343-a1e5-4faa-bc05-6ed9afdcd20a","ios":"levelo://app?vid=2c5f6343-a1e5-4faa-bc05-6ed9afdcd20a"},"vehicle_type_id":"4","last_reported":1742397013,"current_range_meters":8000,"station_id":"ce4bh012rcd13ifvqd10","pricing_plan_id":"cebpf4jnsgd1na2vs0mg"},{"bike_id":"8b32b85a-5da5-4fb7-9bce-2917bc92c51c","system_id":"levelo_inurba_marseille","lat":43.27814,"lon":5.4071,"is_reserved":false,"is_disabled":false,"rental_uris":{"android":"levelo://app?vid=8b32b85a-5da5-4fb7-9bce-2917bc92c51c","ios":"levelo://app?vid=8b32b85a-5da5-4fb7-9bce-2917bc92c51c"},"vehicle_type_id":"4","last_reported":1742397013,"current_range_meters":8000,"station_id":"ce4bhnh2rcd13ifvqgtg","pricing_plan_id":"cebpf4jnsgd1na2vs0mg"},{"bike_id":"b98bd286-ea49-4d0a-a8ce-90a93855e221","system_id":"levelo_inurba_marseille","lat":43.30649,"lon":5.40079,"is_reserved":false,"is_disabled":false,"rental_uris":{"android":"levelo://app?vid=b98bd286-ea49-4d0a-a8ce-90a93855e221","ios":"levelo://app?vid=b98bd286-ea49-4d0a-a8ce-90a93855e221"},"vehicle_type_id":"4","last_reported":1742397013,"current_range_meters":8000,"station_id":"ce4bh112rcd13ifvqda0","pricing_plan_id":"cebpf4jnsgd1na2vs0mg"},{"bike_id":"6b162ed9-3599-4156-a34b-2df90433ae5c","system_id":"levelo_inurba_marseille","lat":43.24141,"lon":5.39691,"is_reserved":false,"is_disabled":false,"rental_uris":{"android":"levelo://app?vid=6b162ed9-3599-4156-a34b-2df90433ae5c","ios":"levelo://app?vid=6b162ed9-3599-4156-a34b-2df90433ae5c"},"vehicle_type_id":"4","last_reported":1742397013,"current_range_meters":8000,"station_id":"","pricing_plan_id":"cebpf4jnsgd1na2vs0mg"},{"bike_id":"25712294-81b1-4b6b-b7e5-ab59b1e3466f","system_id":"levelo_inurba_marseille","lat":43.28265,"lon":5.35065,"is_reserved":false,"is_disabled":false,"rental_uris":{"android":"levelo://app?vid=25712294-81b1-4b6b-b7e5-ab59b1e3466f","ios":"levelo://app?vid=25712294-81b1-4b6b-b7e5-ab59b1e3466f"},"vehicle_type_id":"4","last_reported":1742397013,"current_range_meters":7200,"station_id":"ce4bhbp2rcd13ifvqerg","pricing_plan_id":"cebpf4jnsgd1na2vs0mg"},{"bike_id":"958682d6-693f-4f2e-9ac6-ad3fc26f51c7","system_id":"levelo_inurba_marseille","lat":43.28271,"lon":5.35076,"is_reserved":false,"is_disabled":false,"rental_uris":{"android":"levelo://app?vid=958682d6-693f-4f2e-9ac6-ad3fc26f51c7","ios":"levelo://app?vid=958682d6-693f-4f2e-9ac6-ad3fc26f51c7"},"vehicle_type_id":"4","last_reported":1742397013,"current_range_meters":8000,"station_id":"ce4bhbp2rcd13ifvqerg","pricing_plan_id":"cebpf4jnsgd1na2vs0mg"},{"bike_id":"f21279f0-26ba-40b9-a5fb-1fd6c7d6abe3","system_id":"levelo_inurba_marseille","lat":43.25825,"lon":5.39442,"is_reserved":false,"is_disabled":false,"rental_uris":{"android":"levelo://app?vid=f21279f0-26ba-40b9-a5fb-1fd6c7d6abe3","ios":"levelo://app?vid=f21279f0-26ba-40b9-a5fb-1fd6c7d6abe3"},"vehicle_type_id":"4","last_reported":1742397013,"current_range_meters":8400,"station_id":"ce4bhip2rcd13ifvqft0","pricing_plan_id":"cebpf4jnsgd1na2vs0mg"},{"bike_id":"e8ca296b-d8c0-4f4f-8452-45e3daae8750","system_id":"levelo_inurba_marseille","lat":43.24175,"lon":5.39733,"is_reserved":false,"is_disabled":false,"rental_uris":{"android":"levelo://app?vid=e8ca296b-d8c0-4f4f-8452-45e3daae8750","ios":"levelo://app?vid=e8ca296b-d8c0-4f4f-8452-45e3daae8750"},"vehicle_type_id":"4","last_reported":1742397013,"current_range_meters":8400,"station_id":"ce4bhn12rcd13ifvqgpg","pricing_plan_id":"cebpf4jnsgd1na2vs0mg"},{"bike_id":"79c8c484-c5b3-4065-9b9a-27189c804111","system_id":"levelo_inurba_marseille","lat":43.26216,"lon":5.37444,"is_reserved":false,"is_disabled":false,"rental_uris":{"android":"levelo://app?vid=79c8c484-c5b3-4065-9b9a-27189c804111","ios":"levelo://app?vid=79c8c484-c5b3-4065-9b9a-27189c804111"},"vehicle_type_id":"4","last_reported":1742397013,"current_range_meters":8400,"station_id":"ce4bhgp2rcd13ifvqfc0","pricing_plan_id":"cebpf4jnsgd1na2vs0mg"},{"bike_id":"8e5a443d-b1e8-4513-ad16-7d4a49820eb2","system_id":"levelo_inurba_marseille","lat":43.27379,"lon":5.36253,"is_reserved":false,"is_disabled":false,"rental_uris":{"android":"levelo://app?vid=8e5a443d-b1e8-4513-ad16-7d4a49820eb2","ios":"levelo://app?vid=8e5a443d-b1e8-4513-ad16-7d4a49820eb2"},"vehicle_type_id":"4","last_reported":1742397013,"current_range_meters":8400,"station_id":"ce4bhbh2rcd13ifvqeo0","pricing_plan_id":"cebpf4jnsgd1na2vs0mg"},{"bike_id":"4f70ebff-4208-422e-8c95-09d5bebf9c84","system_id":"levelo_inurba_marseille","lat":43.27911,"lon":5.39593,"is_reserved":false,"is_disabled":false,"rental_uris":{"android":"levelo://app?vid=4f70ebff-4208-422e-8c95-09d5bebf9c84","ios":"levelo://app?vid=4f70ebff-4208-422e-8c95-09d5bebf9c84"},"vehicle_type_id":"4","last_reported":1742397013,"current_range_meters":8400,"station_id":"ce4bhf92rcd13ifvqf40","pricing_plan_id":"cebpf4jnsgd1na2vs0mg"},{"bike_id":"1f332132-6385-4adf-be6a-5eec231ac387","system_id":"levelo_inurba_marseille","lat":43.24179,"lon":5.39728,"is_reserved":false,"is_disabled":false,"rental_uris":{"android":"levelo://app?vid=1f332132-6385-4adf-be6a-5eec231ac387","ios":"levelo://app?vid=1f332132-6385-4adf-be6a-5eec231ac387"},"vehicle_type_id":"4","last_reported":1742397013,"current_range_meters":8400,"station_id":"ce4bhn12rcd13ifvqgpg","pricing_plan_id":"cebpf4jnsgd1na2vs0mg"},{"bike_id":"ebe7f397-f4de-4e4b-973c-b03c05d2ee1e","system_id":"levelo_inurba_marseille","lat":43.30132,"lon":5.39851,"is_reserved":false,"is_disabled":false,"rental_uris":{"android":"levelo://app?vid=ebe7f397-f4de-4e4b-973c-b03c05d2ee1e","ios":"levelo://app?vid=ebe7f397-f4de-4e4b-973c-b03c05d2ee1e"},"vehicle_type_id":"4","last_reported":1742397013,"current_range_meters":8400,"station_id":"ce4bh0h2rcd13ifvqd40","pricing_plan_id":"cebpf4jnsgd1na2vs0mg"},{"bike_id":"45233882-6a89-4b02-addd-28d39958200a","system_id":"levelo_inurba_marseille","lat":43.32343,"lon":5.36721,"is_reserved":false,"is_disabled":false,"rental_uris":{"android":"levelo://app?vid=45233882-6a89-4b02-addd-28d39958200a","ios":"levelo://app?vid=45233882-6a89-4b02-addd-28d39958200a"},"vehicle_type_id":"4","last_reported":1742397013,"current_range_meters":8800,"station_id":"ce4bhsh2rcd13ifvqi2g","pricing_plan_id":"cebpf4jnsgd1na2vs0mg"},{"bike_id":"1fe8cbb2-e61f-4748-8f3f-eff906305549","system_id":"levelo_inurba_marseille","lat":43.230681,"lon":5.355001,"is_reserved":false,"is_disabled":false,"rental_uris":{"android":"levelo://app?vid=1fe8cbb2-e61f-4748-8f3f-eff906305549","ios":"levelo://app?vid=1fe8cbb2-e61f-4748-8f3f-eff906305549"},"vehicle_type_id":"4","last_reported":1742397013,"current_range_meters":8800,"station_id":"cpo3342slgdg3j2ifvpg","pricing_plan_id":"cebpf4jnsgd1na2vs0mg"},{"bike_id":"10eed6fd-0341-4510-a4a6-4c8769f4a4be","system_id":"levelo_inurba_marseille","lat":43.26709,"lon":5.38205,"is_reserved":false,"is_disabled":false,"rental_uris":{"android":"levelo://app?vid=10eed6fd-0341-4510-a4a6-4c8769f4a4be","ios":"levelo://app?vid=10eed6fd-0341-4510-a4a6-4c8769f4a4be"},"vehicle_type_id":"4","last_reported":1742397013,"current_range_meters":8800,"station_id":"ce4bhg92rcd13ifvqf90","pricing_plan_id":"cebpf4jnsgd1na2vs0mg"},{"bike_id":"fd91994f-3ef4-4cfe-b61c-7328c280129b","system_id":"levelo_inurba_marseille","lat":43.27941,"lon":5.41054,"is_reserved":false,"is_disabled":false,"rental_uris":{"android":"levelo://app?vid=fd91994f-3ef4-4cfe-b61c-7328c280129b","ios":"levelo://app?vid=fd91994f-3ef4-4cfe-b61c-7328c280129b"},"vehicle_type_id":"4","last_reported":1742397013,"current_range_meters":8800,"station_id":"ce4bhnp2rcd13ifvqh0g","pricing_plan_id":"cebpf4jnsgd1na2vs0mg"},{"bike_id":"bfd67b10-fd7c-4b25-bc6e-0830b23c1f4b","system_id":"levelo_inurba_marseille","lat":43.25837,"lon":5.39424,"is_reserved":false,"is_disabled":false,"rental_uris":{"android":"levelo://app?vid=bfd67b10-fd7c-4b25-bc6e-0830b23c1f4b","ios":"levelo://app?vid=bfd67b10-fd7c-4b25-bc6e-0830b23c1f4b"},"vehicle_type_id":"4","last_reported":1742397013,"current_range_meters":8800,"station_id":"ce4bhip2rcd13ifvqft0","pricing_plan_id":"cebpf4jnsgd1na2vs0mg"},{"bike_id":"ed32af05-a93a-40af-b3e3-3171404acc80","system_id":"levelo_inurba_marseille","lat":43.27378,"lon":5.36249,"is_reserved":false,"is_disabled":false,"rental_uris":{"android":"levelo://app?vid=ed32af05-a93a-40af-b3e3-3171404acc80","ios":"levelo://app?vid=ed32af05-a93a-40af-b3e3-3171404acc80"},"vehicle_type_id":"4","last_reported":1742397013,"current_range_meters":8800,"station_id":"ce4bhbh2rcd13ifvqeo0","pricing_plan_id":"cebpf4jnsgd1na2vs0mg"},{"bike_id":"61e9fd90-e9dd-462d-a9bd-1aa2307b7287","system_id":"levelo_inurba_marseille","lat":43.23146,"lon":5.43718,"is_reserved":false,"is_disabled":false,"rental_uris":{"android":"levelo://app?vid=61e9fd90-e9dd-462d-a9bd-1aa2307b7287","ios":"levelo://app?vid=61e9fd90-e9dd-462d-a9bd-1aa2307b7287"},"vehicle_type_id":"4","last_reported":1742397013,"current_range_meters":8800,"station_id":"ce4bhmp2rcd13ifvqgog","pricing_plan_id":"cebpf4jnsgd1na2vs0mg"},{"bike_id":"1458d790-b206-45c1-9750-deedac871680","system_id":"levelo_inurba_marseille","lat":43.31375,"lon":5.38497,"is_reserved":false,"is_disabled":false,"rental_uris":{"android":"levelo://app?vid=1458d790-b206-45c1-9750-deedac871680","ios":"levelo://app?vid=1458d790-b206-45c1-9750-deedac871680"},"vehicle_type_id":"4","last_reported":1742397013,"current_range_meters":8800,"station_id":"ce4bgt92rcd13ifvqcf0","pricing_plan_id":"cebpf4jnsgd1na2vs0mg"},{"bike_id":"38502a3e-90ee-445c-bd27-cd190690227e","system_id":"levelo_inurba_marseille","lat":43.29245,"lon":5.368899,"is_reserved":false,"is_disabled":false,"rental_uris":{"android":"levelo://app?vid=38502a3e-90ee-445c-bd27-cd190690227e","ios":"levelo://app?vid=38502a3e-90ee-445c-bd27-cd190690227e"},"vehicle_type_id":"4","last_reported":1742397013,"current_range_meters":8800,"station_id":"ce4bgip2rcd13ifvqbb0","pricing_plan_id":"cebpf4jnsgd1na2vs0mg"},{"bike_id":"f900da6c-7e5c-4ec1-bb80-501e71312a52","system_id":"levelo_inurba_marseille","lat":43.27375,"lon":5.36251,"is_reserved":false,"is_disabled":false,"rental_uris":{"android":"levelo://app?vid=f900da6c-7e5c-4ec1-bb80-501e71312a52","ios":"levelo://app?vid=f900da6c-7e5c-4ec1-bb80-501e71312a52"},"vehicle_type_id":"4","last_reported":1742397013,"current_range_meters":8800,"station_id":"ce4bhbh2rcd13ifvqeo0","pricing_plan_id":"cebpf4jnsgd1na2vs0mg"},{"bike_id":"6cc4e139-8321-43d5-ab2e-d7bc1a5448e0","system_id":"levelo_inurba_marseille","lat":43.24663,"lon":5.38171,"is_reserved":false,"is_disabled":false,"rental_uris":{"android":"levelo://app?vid=6cc4e139-8321-43d5-ab2e-d7bc1a5448e0","ios":"levelo://app?vid=6cc4e139-8321-43d5-ab2e-d7bc1a5448e0"},"vehicle_type_id":"4","last_reported":1742397013,"current_range_meters":8400,"station_id":"ce4bhih2rcd13ifvqfr0","pricing_plan_id":"cebpf4jnsgd1na2vs0mg"},{"bike_id":"fa190e99-72c4-42a8-8aa6-44b6d7051016","system_id":"levelo_inurba_marseille","lat":43.30792,"lon":5.37646,"is_reserved":false,"is_disabled":false,"rental_uris":{"android":"levelo://app?vid=fa190e99-72c4-42a8-8aa6-44b6d7051016","ios":"levelo://app?vid=fa190e99-72c4-42a8-8aa6-44b6d7051016"},"vehicle_type_id":"4","last_reported":1742397013,"current_range_meters":8800,"station_id":"ce4bgv92rcd13ifvqcq0","pricing_plan_id":"cebpf4jnsgd1na2vs0mg"},{"bike_id":"ee6c91ae-48e5-4aa7-bc90-dbfd5be48dab","system_id":"levelo_inurba_marseille","lat":43.26561,"lon":5.37285,"is_reserved":false,"is_disabled":false,"rental_uris":{"android":"levelo://app?vid=ee6c91ae-48e5-4aa7-bc90-dbfd5be48dab","ios":"levelo://app?vid=ee6c91ae-48e5-4aa7-bc90-dbfd5be48dab"},"vehicle_type_id":"4","last_reported":1742397013,"current_range_meters":8800,"station_id":"ce4bhg12rcd13ifvqf70","pricing_plan_id":"cebpf4jnsgd1na2vs0mg"},{"bike_id":"73775d85-d06e-4705-b3d6-611dd3926542","system_id":"levelo_inurba_marseille","lat":43.25905,"lon":5.40864,"is_reserved":false,"is_disabled":false,"rental_uris":{"android":"levelo://app?vid=73775d85-d06e-4705-b3d6-611dd3926542","ios":"levelo://app?vid=73775d85-d06e-4705-b3d6-611dd3926542"},"vehicle_type_id":"4","last_reported":1742397013,"current_range_meters":8800,"station_id":"ce4bhm92rcd13ifvqglg","pricing_plan_id":"cebpf4jnsgd1na2vs0mg"},{"bike_id":"c88fbe28-9402-4ce3-9d2b-7ab1e41f63e4","system_id":"levelo_inurba_marseille","lat":43.27627,"lon":5.36104,"is_reserved":false,"is_disabled":false,"rental_uris":{"android":"levelo://app?vid=c88fbe28-9402-4ce3-9d2b-7ab1e41f63e4","ios":"levelo://app?vid=c88fbe28-9402-4ce3-9d2b-7ab1e41f63e4"},"vehicle_type_id":"4","last_reported":1742397013,"current_range_meters":8800,"station_id":"ce4bgj92rcd13ifvqbe0","pricing_plan_id":"cebpf4jnsgd1na2vs0mg"},{"bike_id":"4af30189-94be-48ce-a528-0780bcce0809","system_id":"levelo_inurba_marseille","lat":43.23155,"lon":5.4372,"is_reserved":false,"is_disabled":false,"rental_uris":{"android":"levelo://app?vid=4af30189-94be-48ce-a528-0780bcce0809","ios":"levelo://app?vid=4af30189-94be-48ce-a528-0780bcce0809"},"vehicle_type_id":"4","last_reported":1742397013,"current_range_meters":8800,"station_id":"ce4bhmp2rcd13ifvqgog","pricing_plan_id":"cebpf4jnsgd1na2vs0mg"},{"bike_id":"e2f2ddd5-2c90-4bd5-9948-f6824751cb16","system_id":"levelo_inurba_marseille","lat":43.25581,"lon":5.38243,"is_reserved":false,"is_disabled":false,"rental_uris":{"android":"levelo://app?vid=e2f2ddd5-2c90-4bd5-9948-f6824751cb16","ios":"levelo://app?vid=e2f2ddd5-2c90-4bd5-9948-f6824751cb16"},"vehicle_type_id":"4","last_reported":1742397013,"current_range_meters":9200,"station_id":"ce4bhih2rcd13ifvqfs0","pricing_plan_id":"cebpf4jnsgd1na2vs0mg"},{"bike_id":"25793b0d-d8a7-4fb7-bbd3-bb61178801a0","system_id":"levelo_inurba_marseille","lat":43.30991,"lon":5.37039,"is_reserved":false,"is_disabled":false,"rental_uris":{"android":"levelo://app?vid=25793b0d-d8a7-4fb7-bbd3-bb61178801a0","ios":"levelo://app?vid=25793b0d-d8a7-4fb7-bbd3-bb61178801a0"},"vehicle_type_id":"4","last_reported":1742397013,"current_range_meters":9200,"station_id":"","pricing_plan_id":"cebpf4jnsgd1na2vs0mg"},{"bike_id":"c24e0f5a-bd83-4593-9db0-de96c392b71b","system_id":"levelo_inurba_marseille","lat":43.31633,"lon":5.40608,"is_reserved":false,"is_disabled":false,"rental_uris":{"android":"levelo://app?vid=c24e0f5a-bd83-4593-9db0-de96c392b71b","ios":"levelo://app?vid=c24e0f5a-bd83-4593-9db0-de96c392b71b"},"vehicle_type_id":"4","last_reported":1742397013,"current_range_meters":9200,"station_id":"ce4bh012rcd13ifvqd00","pricing_plan_id":"cebpf4jnsgd1na2vs0mg"},{"bike_id":"d45aa902-4bcb-471b-8a0f-8cdc3416ec8c","system_id":"levelo_inurba_marseille","lat":43.27617,"lon":5.36117,"is_reserved":false,"is_disabled":false,"rental_uris":{"android":"levelo://app?vid=d45aa902-4bcb-471b-8a0f-8cdc3416ec8c","ios":"levelo://app?vid=d45aa902-4bcb-471b-8a0f-8cdc3416ec8c"},"vehicle_type_id":"4","last_reported":1742397013,"current_range_meters":9200,"station_id":"ce4bgj92rcd13ifvqbe0","pricing_plan_id":"cebpf4jnsgd1na2vs0mg"},{"bike_id":"8abf66b0-4c7b-4a5b-9216-254c311cdf06","system_id":"levelo_inurba_marseille","lat":43.25569,"lon":5.38262,"is_reserved":false,"is_disabled":false,"rental_uris":{"android":"levelo://app?vid=8abf66b0-4c7b-4a5b-9216-254c311cdf06","ios":"levelo://app?vid=8abf66b0-4c7b-4a5b-9216-254c311cdf06"},"vehicle_type_id":"4","last_reported":1742397013,"current_range_meters":9200,"station_id":"ce4bhih2rcd13ifvqfs0","pricing_plan_id":"cebpf4jnsgd1na2vs0mg"},{"bike_id":"d10408e5-f42a-47f3-b883-14ac8caa5886","system_id":"levelo_inurba_marseille","lat":43.28927,"lon":5.38418,"is_reserved":false,"is_disabled":false,"rental_uris":{"android":"levelo://app?vid=d10408e5-f42a-47f3-b883-14ac8caa5886","ios":"levelo://app?vid=d10408e5-f42a-47f3-b883-14ac8caa5886"},"vehicle_type_id":"4","last_reported":1742397013,"current_range_meters":8800,"station_id":"ce4bh612rcd13ifvqe6g","pricing_plan_id":"cebpf4jnsgd1na2vs0mg"},{"bike_id":"c2f4da44-a44d-44d2-8be6-51648ee37d7f","system_id":"levelo_inurba_marseille","lat":43.24999,"lon":5.3895,"is_reserved":false,"is_disabled":false,"rental_uris":{"android":"levelo://app?vid=c2f4da44-a44d-44d2-8be6-51648ee37d7f","ios":"levelo://app?vid=c2f4da44-a44d-44d2-8be6-51648ee37d7f"},"vehicle_type_id":"4","last_reported":1742397013,"current_range_meters":9200,"station_id":"ce4bhgp2rcd13ifvqfd0","pricing_plan_id":"cebpf4jnsgd1na2vs0mg"},{"bike_id":"b6516885-6b2a-4c3b-b46a-6df7fec02364","system_id":"levelo_inurba_marseille","lat":43.2594,"lon":5.40877,"is_reserved":false,"is_disabled":false,"rental_uris":{"android":"levelo://app?vid=b6516885-6b2a-4c3b-b46a-6df7fec02364","ios":"levelo://app?vid=b6516885-6b2a-4c3b-b46a-6df7fec02364"},"vehicle_type_id":"4","last_reported":1742397013,"current_range_meters":9200,"station_id":"ce4bhm92rcd13ifvqglg","pricing_plan_id":"cebpf4jnsgd1na2vs0mg"},{"bike_id":"ca5ec2af-d9c0-4bf6-a9d8-72576ec4b622","system_id":"levelo_inurba_marseille","lat":43.2794,"lon":5.39612,"is_reserved":false,"is_disabled":false,"rental_uris":{"android":"levelo://app?vid=ca5ec2af-d9c0-4bf6-a9d8-72576ec4b622","ios":"levelo://app?vid=ca5ec2af-d9c0-4bf6-a9d8-72576ec4b622"},"vehicle_type_id":"4","last_reported":1742397013,"current_range_meters":9600,"station_id":"ce4bhf92rcd13ifvqf40","pricing_plan_id":"cebpf4jnsgd1na2vs0mg"},{"bike_id":"505c6e85-22bf-4dc4-a762-e1ff9b054e2b","system_id":"levelo_inurba_marseille","lat":43.23164,"lon":5.43715,"is_reserved":false,"is_disabled":false,"rental_uris":{"android":"levelo://app?vid=505c6e85-22bf-4dc4-a762-e1ff9b054e2b","ios":"levelo://app?vid=505c6e85-22bf-4dc4-a762-e1ff9b054e2b"},"vehicle_type_id":"4","last_reported":1742397013,"current_range_meters":9600,"station_id":"ce4bhmp2rcd13ifvqgog","pricing_plan_id":"cebpf4jnsgd1na2vs0mg"},{"bike_id":"ebd45e7b-1c45-4b94-a31a-e5fdc9535d41","system_id":"levelo_inurba_marseille","lat":43.2397,"lon":5.36625,"is_reserved":false,"is_disabled":false,"rental_uris":{"android":"levelo://app?vid=ebd45e7b-1c45-4b94-a31a-e5fdc9535d41","ios":"levelo://app?vid=ebd45e7b-1c45-4b94-a31a-e5fdc9535d41"},"vehicle_type_id":"4","last_reported":1742397013,"current_range_meters":9600,"station_id":"ce4bhi12rcd13ifvqfp0","pricing_plan_id":"cebpf4jnsgd1na2vs0mg"},{"bike_id":"f9ff2843-6a11-4e3b-9e65-9998fbe82454","system_id":"levelo_inurba_marseille","lat":43.25118,"lon":5.40319,"is_reserved":false,"is_disabled":false,"rental_uris":{"android":"levelo://app?vid=f9ff2843-6a11-4e3b-9e65-9998fbe82454","ios":"levelo://app?vid=f9ff2843-6a11-4e3b-9e65-9998fbe82454"},"vehicle_type_id":"4","last_reported":1742397013,"current_range_meters":9600,"station_id":"ce4bhlh2rcd13ifvqgig","pricing_plan_id":"cebpf4jnsgd1na2vs0mg"},{"bike_id":"2fc59438-bcd7-4fcb-af90-ed004623bdc8","system_id":"levelo_inurba_marseille","lat":43.26233,"lon":5.40445,"is_reserved":false,"is_disabled":false,"rental_uris":{"android":"levelo://app?vid=2fc59438-bcd7-4fcb-af90-ed004623bdc8","ios":"levelo://app?vid=2fc59438-bcd7-4fcb-af90-ed004623bdc8"},"vehicle_type_id":"4","last_reported":1742397013,"current_range_meters":9600,"station_id":"ce4bhmh2rcd13ifvqgmg","pricing_plan_id":"cebpf4jnsgd1na2vs0mg"},{"bike_id":"3455258b-4135-46b9-9a26-10bf95160e40","system_id":"levelo_inurba_marseille","lat":43.2319,"lon":5.35554,"is_reserved":false,"is_disabled":false,"rental_uris":{"android":"levelo://app?vid=3455258b-4135-46b9-9a26-10bf95160e40","ios":"levelo://app?vid=3455258b-4135-46b9-9a26-10bf95160e40"},"vehicle_type_id":"4","last_reported":1742397013,"current_range_meters":9600,"station_id":"ce4bhu92rcd13ifvqi70","pricing_plan_id":"cebpf4jnsgd1na2vs0mg"},{"bike_id":"5917bcc2-33b5-4e37-b8eb-c4993c652a01","system_id":"levelo_inurba_marseille","lat":43.29258,"lon":5.4091,"is_reserved":false,"is_disabled":false,"rental_uris":{"android":"levelo://app?vid=5917bcc2-33b5-4e37-b8eb-c4993c652a01","ios":"levelo://app?vid=5917bcc2-33b5-4e37-b8eb-c4993c652a01"},"vehicle_type_id":"4","last_reported":1742397013,"current_range_meters":9600,"station_id":"ce4bh192rcd13ifvqdc0","pricing_plan_id":"cebpf4jnsgd1na2vs0mg"},{"bike_id":"056c9455-af36-4790-b851-b2581cd69543","system_id":"levelo_inurba_marseille","lat":43.26223,"lon":5.4045,"is_reserved":false,"is_disabled":false,"rental_uris":{"android":"levelo://app?vid=056c9455-af36-4790-b851-b2581cd69543","ios":"levelo://app?vid=056c9455-af36-4790-b851-b2581cd69543"},"vehicle_type_id":"4","last_reported":1742397013,"current_range_meters":9600,"station_id":"ce4bhmh2rcd13ifvqgmg","pricing_plan_id":"cebpf4jnsgd1na2vs0mg"},{"bike_id":"054b79e5-3c6c-4562-a1d6-d64bd099ac6b","system_id":"levelo_inurba_marseille","lat":43.2466,"lon":5.3813,"is_reserved":false,"is_disabled":false,"rental_uris":{"android":"levelo://app?vid=054b79e5-3c6c-4562-a1d6-d64bd099ac6b","ios":"levelo://app?vid=054b79e5-3c6c-4562-a1d6-d64bd099ac6b"},"vehicle_type_id":"4","last_reported":1742397013,"current_range_meters":9600,"station_id":"ce4bhih2rcd13ifvqfr0","pricing_plan_id":"cebpf4jnsgd1na2vs0mg"},{"bike_id":"0976928e-00ef-4b34-8456-fb1c152cb4d7","system_id":"levelo_inurba_marseille","lat":43.28847,"lon":5.35876,"is_reserved":false,"is_disabled":false,"rental_uris":{"android":"levelo://app?vid=0976928e-00ef-4b34-8456-fb1c152cb4d7","ios":"levelo://app?vid=0976928e-00ef-4b34-8456-fb1c152cb4d7"},"vehicle_type_id":"4","last_reported":1742397013,"current_range_meters":9600,"station_id":"ce4bhb12rcd13ifvqem0","pricing_plan_id":"cebpf4jnsgd1na2vs0mg"},{"bike_id":"5c9a89ce-6c19-4ca3-9156-7fa10f16eaa9","system_id":"levelo_inurba_marseille","lat":43.32121,"lon":5.36771,"is_reserved":false,"is_disabled":false,"rental_uris":{"android":"levelo://app?vid=5c9a89ce-6c19-4ca3-9156-7fa10f16eaa9","ios":"levelo://app?vid=5c9a89ce-6c19-4ca3-9156-7fa10f16eaa9"},"vehicle_type_id":"4","last_reported":1742397013,"current_range_meters":10000,"station_id":"ce4bhrh2rcd13ifvqhug","pricing_plan_id":"cebpf4jnsgd1na2vs0mg"},{"bike_id":"7d6db5c4-b6d2-42d6-9dd6-440e96e839d2","system_id":"levelo_inurba_marseille","lat":43.29577,"lon":5.37509,"is_reserved":false,"is_disabled":false,"rental_uris":{"android":"levelo://app?vid=7d6db5c4-b6d2-42d6-9dd6-440e96e839d2","ios":"levelo://app?vid=7d6db5c4-b6d2-42d6-9dd6-440e96e839d2"},"vehicle_type_id":"4","last_reported":1742397013,"current_range_meters":10000,"station_id":"ce4bgh92rcd13ifvqb50","pricing_plan_id":"cebpf4jnsgd1na2vs0mg"},{"bike_id":"97f132f3-f25e-4589-ad73-9c5a087e55dd","system_id":"levelo_inurba_marseille","lat":43.30141,"lon":5.38108,"is_reserved":false,"is_disabled":false,"rental_uris":{"android":"levelo://app?vid=97f132f3-f25e-4589-ad73-9c5a087e55dd","ios":"levelo://app?vid=97f132f3-f25e-4589-ad73-9c5a087e55dd"},"vehicle_type_id":"4","last_reported":1742397013,"current_range_meters":10000,"station_id":"ce4bgjp2rcd13ifvqbh0","pricing_plan_id":"cebpf4jnsgd1na2vs0mg"},{"bike_id":"52d3c986-277e-4b12-8ddc-c46c3c10fb43","system_id":"levelo_inurba_marseille","lat":43.26558,"lon":5.37286,"is_reserved":false,"is_disabled":false,"rental_uris":{"android":"levelo://app?vid=52d3c986-277e-4b12-8ddc-c46c3c10fb43","ios":"levelo://app?vid=52d3c986-277e-4b12-8ddc-c46c3c10fb43"},"vehicle_type_id":"4","last_reported":1742397013,"current_range_meters":10000,"station_id":"ce4bhg12rcd13ifvqf70","pricing_plan_id":"cebpf4jnsgd1na2vs0mg"},{"bike_id":"51eae6db-1ecc-4394-962b-e7a92aa6f4ff","system_id":"levelo_inurba_marseille","lat":43.28106,"lon":5.37834,"is_reserved":false,"is_disabled":false,"rental_uris":{"android":"levelo://app?vid=51eae6db-1ecc-4394-962b-e7a92aa6f4ff","ios":"levelo://app?vid=51eae6db-1ecc-4394-962b-e7a92aa6f4ff"},"vehicle_type_id":"4","last_reported":1742397013,"current_range_meters":9600,"station_id":"ce4bha12rcd13ifvqee0","pricing_plan_id":"cebpf4jnsgd1na2vs0mg"},{"bike_id":"b3ab2806-f410-4cce-8b04-fb1a4b877921","system_id":"levelo_inurba_marseille","lat":43.24179,"lon":5.39731,"is_reserved":false,"is_disabled":false,"rental_uris":{"android":"levelo://app?vid=b3ab2806-f410-4cce-8b04-fb1a4b877921","ios":"levelo://app?vid=b3ab2806-f410-4cce-8b04-fb1a4b877921"},"vehicle_type_id":"4","last_reported":1742397013,"current_range_meters":10000,"station_id":"ce4bhn12rcd13ifvqgpg","pricing_plan_id":"cebpf4jnsgd1na2vs0mg"},{"bike_id":"ac7a98a5-fb6e-4fb0-b485-bf5d121721b9","system_id":"levelo_inurba_marseille","lat":43.32667,"lon":5.40976,"is_reserved":false,"is_disabled":false,"rental_uris":{"android":"levelo://app?vid=ac7a98a5-fb6e-4fb0-b485-bf5d121721b9","ios":"levelo://app?vid=ac7a98a5-fb6e-4fb0-b485-bf5d121721b9"},"vehicle_type_id":"4","last_reported":1742397013,"current_range_meters":10000,"station_id":"ce4bhpp2rcd13ifvqhgg","pricing_plan_id":"cebpf4jnsgd1na2vs0mg"},{"bike_id":"7b660f94-53f2-4ea2-ac2b-9a7c88505f64","system_id":"levelo_inurba_marseille","lat":43.25935,"lon":5.40915,"is_reserved":false,"is_disabled":false,"rental_uris":{"android":"levelo://app?vid=7b660f94-53f2-4ea2-ac2b-9a7c88505f64","ios":"levelo://app?vid=7b660f94-53f2-4ea2-ac2b-9a7c88505f64"},"vehicle_type_id":"4","last_reported":1742397013,"current_range_meters":10000,"station_id":"ce4bhm92rcd13ifvqglg","pricing_plan_id":"cebpf4jnsgd1na2vs0mg"},{"bike_id":"8cf8f2d1-cd7e-4a3e-a6fe-fc7af9ab3241","system_id":"levelo_inurba_marseille","lat":43.29552,"lon":5.42281,"is_reserved":false,"is_disabled":false,"rental_uris":{"android":"levelo://app?vid=8cf8f2d1-cd7e-4a3e-a6fe-fc7af9ab3241","ios":"levelo://app?vid=8cf8f2d1-cd7e-4a3e-a6fe-fc7af9ab3241"},"vehicle_type_id":"4","last_reported":1742397013,"current_range_meters":10000,"station_id":"ce4bhph2rcd13ifvqhdg","pricing_plan_id":"cebpf4jnsgd1na2vs0mg"},{"bike_id":"6138b640-3a79-45fe-b651-9195792b5201","system_id":"levelo_inurba_marseille","lat":43.23972,"lon":5.36622,"is_reserved":false,"is_disabled":false,"rental_uris":{"android":"levelo://app?vid=6138b640-3a79-45fe-b651-9195792b5201","ios":"levelo://app?vid=6138b640-3a79-45fe-b651-9195792b5201"},"vehicle_type_id":"4","last_reported":1742397013,"current_range_meters":10000,"station_id":"ce4bhi12rcd13ifvqfp0","pricing_plan_id":"cebpf4jnsgd1na2vs0mg"},{"bike_id":"a724fbdc-e1cd-4859-8e1c-a6e4e78c50c0","system_id":"levelo_inurba_marseille","lat":43.29575,"lon":5.37529,"is_reserved":false,"is_disabled":false,"rental_uris":{"android":"levelo://app?vid=a724fbdc-e1cd-4859-8e1c-a6e4e78c50c0","ios":"levelo://app?vid=a724fbdc-e1cd-4859-8e1c-a6e4e78c50c0"},"vehicle_type_id":"4","last_reported":1742397013,"current_range_meters":10000,"station_id":"ce4bgh92rcd13ifvqb50","pricing_plan_id":"cebpf4jnsgd1na2vs0mg"},{"bike_id":"34490763-ee36-4943-b2a4-b7d3b99138d6","system_id":"levelo_inurba_marseille","lat":43.29947,"lon":5.36517,"is_reserved":false,"is_disabled":false,"rental_uris":{"android":"levelo://app?vid=34490763-ee36-4943-b2a4-b7d3b99138d6","ios":"levelo://app?vid=34490763-ee36-4943-b2a4-b7d3b99138d6"},"vehicle_type_id":"4","last_reported":1742397013,"current_range_meters":10000,"station_id":"ce4bgm92rcd13ifvqbr0","pricing_plan_id":"cebpf4jnsgd1na2vs0mg"},{"bike_id":"6fd20e8a-d75b-419b-803c-29c8df791be2","system_id":"levelo_inurba_marseille","lat":43.29043,"lon":5.37748,"is_reserved":false,"is_disabled":false,"rental_uris":{"android":"levelo://app?vid=6fd20e8a-d75b-419b-803c-29c8df791be2","ios":"levelo://app?vid=6fd20e8a-d75b-419b-803c-29c8df791be2"},"vehicle_type_id":"4","last_reported":1742397013,"current_range_meters":10800,"station_id":"ce4bh9p2rcd13ifvqed0","pricing_plan_id":"cebpf4jnsgd1na2vs0mg"},{"bike_id":"cd6f1262-06b9-4383-8718-dbf3ba4fd41e","system_id":"levelo_inurba_marseille","lat":43.26238,"lon":5.40463,"is_reserved":false,"is_disabled":false,"rental_uris":{"android":"levelo://app?vid=cd6f1262-06b9-4383-8718-dbf3ba4fd41e","ios":"levelo://app?vid=cd6f1262-06b9-4383-8718-dbf3ba4fd41e"},"vehicle_type_id":"4","last_reported":1742397013,"current_range_meters":10800,"station_id":"ce4bhmh2rcd13ifvqgmg","pricing_plan_id":"cebpf4jnsgd1na2vs0mg"},{"bike_id":"e4d45dd0-64e1-438b-960f-23bacc6e4e06","system_id":"levelo_inurba_marseille","lat":43.23145,"lon":5.43716,"is_reserved":false,"is_disabled":false,"rental_uris":{"android":"levelo://app?vid=e4d45dd0-64e1-438b-960f-23bacc6e4e06","ios":"levelo://app?vid=e4d45dd0-64e1-438b-960f-23bacc6e4e06"},"vehicle_type_id":"4","last_reported":1742397013,"current_range_meters":10800,"station_id":"ce4bhmp2rcd13ifvqgog","pricing_plan_id":"cebpf4jnsgd1na2vs0mg"},{"bike_id":"cc7cee07-84f3-4b9a-81b0-5cc5f945f8dd","system_id":"levelo_inurba_marseille","lat":43.2466,"lon":5.38164,"is_reserved":false,"is_disabled":false,"rental_uris":{"android":"levelo://app?vid=cc7cee07-84f3-4b9a-81b0-5cc5f945f8dd","ios":"levelo://app?vid=cc7cee07-84f3-4b9a-81b0-5cc5f945f8dd"},"vehicle_type_id":"4","last_reported":1742397013,"current_range_meters":10800,"station_id":"ce4bhih2rcd13ifvqfr0","pricing_plan_id":"cebpf4jnsgd1na2vs0mg"},{"bike_id":"725ef1c9-4489-4462-90f0-d0856b8365d5","system_id":"levelo_inurba_marseille","lat":43.29942,"lon":5.36525,"is_reserved":false,"is_disabled":false,"rental_uris":{"android":"levelo://app?vid=725ef1c9-4489-4462-90f0-d0856b8365d5","ios":"levelo://app?vid=725ef1c9-4489-4462-90f0-d0856b8365d5"},"vehicle_type_id":"4","last_reported":1742397013,"current_range_meters":10800,"station_id":"ce4bgm92rcd13ifvqbr0","pricing_plan_id":"cebpf4jnsgd1na2vs0mg"},{"bike_id":"5fcb8309-0208-48b4-b28d-ff6e405d3efe","system_id":"levelo_inurba_marseille","lat":43.25006,"lon":5.38919,"is_reserved":false,"is_disabled":false,"rental_uris":{"android":"levelo://app?vid=5fcb8309-0208-48b4-b28d-ff6e405d3efe","ios":"levelo://app?vid=5fcb8309-0208-48b4-b28d-ff6e405d3efe"},"vehicle_type_id":"4","last_reported":1742397013,"current_range_meters":10800,"station_id":"ce4bhgp2rcd13ifvqfd0","pricing_plan_id":"cebpf4jnsgd1na2vs0mg"},{"bike_id":"6e2a22a0-887c-49e7-bfe8-1b4aa03e0e2f","system_id":"levelo_inurba_marseille","lat":43.23151,"lon":5.4372,"is_reserved":false,"is_disabled":false,"rental_uris":{"android":"levelo://app?vid=6e2a22a0-887c-49e7-bfe8-1b4aa03e0e2f","ios":"levelo://app?vid=6e2a22a0-887c-49e7-bfe8-1b4aa03e0e2f"},"vehicle_type_id":"4","last_reported":1742397013,"current_range_meters":10800,"station_id":"ce4bhmp2rcd13ifvqgog","pricing_plan_id":"cebpf4jnsgd1na2vs0mg"},{"bike_id":"63df175c-246c-4e4b-a39c-e4cbcfa6522c","system_id":"levelo_inurba_marseille","lat":43.29783,"lon":5.37099,"is_reserved":false,"is_disabled":false,"rental_uris":{"android":"levelo://app?vid=63df175c-246c-4e4b-a39c-e4cbcfa6522c","ios":"levelo://app?vid=63df175c-246c-4e4b-a39c-e4cbcfa6522c"},"vehicle_type_id":"4","last_reported":1742397013,"current_range_meters":10800,"station_id":"ce4bguh2rcd13ifvqcj0","pricing_plan_id":"cebpf4jnsgd1na2vs0mg"},{"bike_id":"eb6ad15b-5d6f-4c9e-aca2-00662fed81a8","system_id":"levelo_inurba_marseille","lat":43.30561,"lon":5.36695,"is_reserved":false,"is_disabled":false,"rental_uris":{"android":"levelo://app?vid=eb6ad15b-5d6f-4c9e-aca2-00662fed81a8","ios":"levelo://app?vid=eb6ad15b-5d6f-4c9e-aca2-00662fed81a8"},"vehicle_type_id":"4","last_reported":1742397013,"current_range_meters":10800,"station_id":"ce4bgrp2rcd13ifvqc9g","pricing_plan_id":"cebpf4jnsgd1na2vs0mg"},{"bike_id":"b81f5100-48cd-484a-a38f-77673abf4225","system_id":"levelo_inurba_marseille","lat":43.28614,"lon":5.35097,"is_reserved":false,"is_disabled":false,"rental_uris":{"android":"levelo://app?vid=b81f5100-48cd-484a-a38f-77673abf4225","ios":"levelo://app?vid=b81f5100-48cd-484a-a38f-77673abf4225"},"vehicle_type_id":"4","last_reported":1742397013,"current_range_meters":10800,"station_id":"ce4bhch2rcd13ifvqeug","pricing_plan_id":"cebpf4jnsgd1na2vs0mg"},{"bike_id":"d54aab0c-d67a-45ff-9ab3-864b6986e496","system_id":"levelo_inurba_marseille","lat":43.29446,"lon":5.39751,"is_reserved":false,"is_disabled":false,"rental_uris":{"android":"levelo://app?vid=d54aab0c-d67a-45ff-9ab3-864b6986e496","ios":"levelo://app?vid=d54aab0c-d67a-45ff-9ab3-864b6986e496"},"vehicle_type_id":"4","last_reported":1742397013,"current_range_meters":10800,"station_id":"ce4bh3h2rcd13ifvqdo0","pricing_plan_id":"cebpf4jnsgd1na2vs0mg"},{"bike_id":"963a17fa-4222-4f93-b414-09c4cce8d25a","system_id":"levelo_inurba_marseille","lat":43.28429,"lon":5.38421,"is_reserved":false,"is_disabled":false,"rental_uris":{"android":"levelo://app?vid=963a17fa-4222-4f93-b414-09c4cce8d25a","ios":"levelo://app?vid=963a17fa-4222-4f93-b414-09c4cce8d25a"},"vehicle_type_id":"4","last_reported":1742397013,"current_range_meters":10800,"station_id":"","pricing_plan_id":"cebpf4jnsgd1na2vs0mg"},{"bike_id":"a87a3a01-90de-4ff8-b318-a1de3a39d229","system_id":"levelo_inurba_marseille","lat":43.2796,"lon":5.41051,"is_reserved":false,"is_disabled":false,"rental_uris":{"android":"levelo://app?vid=a87a3a01-90de-4ff8-b318-a1de3a39d229","ios":"levelo://app?vid=a87a3a01-90de-4ff8-b318-a1de3a39d229"},"vehicle_type_id":"4","last_reported":1742397013,"current_range_meters":10800,"station_id":"ce4bhnp2rcd13ifvqh0g","pricing_plan_id":"cebpf4jnsgd1na2vs0mg"},{"bike_id":"582c1324-d5ba-4656-846c-51e7b3df15eb","system_id":"levelo_inurba_marseille","lat":43.28933,"lon":5.36633,"is_reserved":false,"is_disabled":false,"rental_uris":{"android":"levelo://app?vid=582c1324-d5ba-4656-846c-51e7b3df15eb","ios":"levelo://app?vid=582c1324-d5ba-4656-846c-51e7b3df15eb"},"vehicle_type_id":"4","last_reported":1742397013,"current_range_meters":11200,"station_id":"ce4bhap2rcd13ifvqek0","pricing_plan_id":"cebpf4jnsgd1na2vs0mg"},{"bike_id":"9df3b5ca-da21-4d89-b428-db5ce8a32345","system_id":"levelo_inurba_marseille","lat":43.30609,"lon":5.37231,"is_reserved":false,"is_disabled":false,"rental_uris":{"android":"levelo://app?vid=9df3b5ca-da21-4d89-b428-db5ce8a32345","ios":"levelo://app?vid=9df3b5ca-da21-4d89-b428-db5ce8a32345"},"vehicle_type_id":"4","last_reported":1742397013,"current_range_meters":11200,"station_id":"ce4bgqh2rcd13ifvqc4g","pricing_plan_id":"cebpf4jnsgd1na2vs0mg"},{"bike_id":"88ccd002-5cc7-4436-b03a-a5333eda4374","system_id":"levelo_inurba_marseille","lat":43.26684,"lon":5.38267,"is_reserved":false,"is_disabled":false,"rental_uris":{"android":"levelo://app?vid=88ccd002-5cc7-4436-b03a-a5333eda4374","ios":"levelo://app?vid=88ccd002-5cc7-4436-b03a-a5333eda4374"},"vehicle_type_id":"4","last_reported":1742397013,"current_range_meters":11200,"station_id":"ce4bhg92rcd13ifvqf90","pricing_plan_id":"cebpf4jnsgd1na2vs0mg"},{"bike_id":"b9e209f0-7e64-4e0b-be82-36223c8bbffe","system_id":"levelo_inurba_marseille","lat":43.27422,"lon":5.39416,"is_reserved":false,"is_disabled":false,"rental_uris":{"android":"levelo://app?vid=b9e209f0-7e64-4e0b-be82-36223c8bbffe","ios":"levelo://app?vid=b9e209f0-7e64-4e0b-be82-36223c8bbffe"},"vehicle_type_id":"4","last_reported":1742397013,"current_range_meters":10800,"station_id":"ce4bhdp2rcd13ifvqf20","pricing_plan_id":"cebpf4jnsgd1na2vs0mg"},{"bike_id":"c118d620-e734-4c8b-83ec-d97ae77003b3","system_id":"levelo_inurba_marseille","lat":43.25576,"lon":5.38233,"is_reserved":false,"is_disabled":false,"rental_uris":{"android":"levelo://app?vid=c118d620-e734-4c8b-83ec-d97ae77003b3","ios":"levelo://app?vid=c118d620-e734-4c8b-83ec-d97ae77003b3"},"vehicle_type_id":"4","last_reported":1742397013,"current_range_meters":11200,"station_id":"ce4bhih2rcd13ifvqfs0","pricing_plan_id":"cebpf4jnsgd1na2vs0mg"},{"bike_id":"75e8bee3-0a10-4522-9d7e-72ece2846129","system_id":"levelo_inurba_marseille","lat":43.33027,"lon":5.3904,"is_reserved":false,"is_disabled":false,"rental_uris":{"android":"levelo://app?vid=75e8bee3-0a10-4522-9d7e-72ece2846129","ios":"levelo://app?vid=75e8bee3-0a10-4522-9d7e-72ece2846129"},"vehicle_type_id":"4","last_reported":1742397013,"current_range_meters":11200,"station_id":"ce4bhr92rcd13ifvqhrg","pricing_plan_id":"cebpf4jnsgd1na2vs0mg"},{"bike_id":"46742bb4-b762-4c4f-8dab-f5edc33ada93","system_id":"levelo_inurba_marseille","lat":43.24069,"lon":5.37747,"is_reserved":false,"is_disabled":false,"rental_uris":{"android":"levelo://app?vid=46742bb4-b762-4c4f-8dab-f5edc33ada93","ios":"levelo://app?vid=46742bb4-b762-4c4f-8dab-f5edc33ada93"},"vehicle_type_id":"4","last_reported":1742397013,"current_range_meters":11200,"station_id":"ce4bhnp2rcd13ifvqgvg","pricing_plan_id":"cebpf4jnsgd1na2vs0mg"},{"bike_id":"0db7ca1a-0d7d-46be-9081-f5b1fbf2edfa","system_id":"levelo_inurba_marseille","lat":43.31755,"lon":5.39013,"is_reserved":false,"is_disabled":false,"rental_uris":{"android":"levelo://app?vid=0db7ca1a-0d7d-46be-9081-f5b1fbf2edfa","ios":"levelo://app?vid=0db7ca1a-0d7d-46be-9081-f5b1fbf2edfa"},"vehicle_type_id":"4","last_reported":1742397013,"current_range_meters":11600,"station_id":"ce4bhqp2rcd13ifvqhng","pricing_plan_id":"cebpf4jnsgd1na2vs0mg"},{"bike_id":"7eedf9e4-2844-4eb7-a904-fb1293c5269d","system_id":"levelo_inurba_marseille","lat":43.295624,"lon":5.39558,"is_reserved":false,"is_disabled":false,"rental_uris":{"android":"levelo://app?vid=7eedf9e4-2844-4eb7-a904-fb1293c5269d","ios":"levelo://app?vid=7eedf9e4-2844-4eb7-a904-fb1293c5269d"},"vehicle_type_id":"4","last_reported":1742397013,"current_range_meters":11600,"station_id":"ce4bh292rcd13ifvqdf0","pricing_plan_id":"cebpf4jnsgd1na2vs0mg"},{"bike_id":"0d6bb2cb-1340-46f1-970f-eef0691d43d5","system_id":"levelo_inurba_marseille","lat":43.28633,"lon":5.35093,"is_reserved":false,"is_disabled":false,"rental_uris":{"android":"levelo://app?vid=0d6bb2cb-1340-46f1-970f-eef0691d43d5","ios":"levelo://app?vid=0d6bb2cb-1340-46f1-970f-eef0691d43d5"},"vehicle_type_id":"4","last_reported":1742397013,"current_range_meters":11600,"station_id":"ce4bhch2rcd13ifvqeug","pricing_plan_id":"cebpf4jnsgd1na2vs0mg"},{"bike_id":"ee0f687c-08bb-4e36-98a2-e3de6b954481","system_id":"levelo_inurba_marseille","lat":43.24198,"lon":5.39684,"is_reserved":false,"is_disabled":false,"rental_uris":{"android":"levelo://app?vid=ee0f687c-08bb-4e36-98a2-e3de6b954481","ios":"levelo://app?vid=ee0f687c-08bb-4e36-98a2-e3de6b954481"},"vehicle_type_id":"4","last_reported":1742397013,"current_range_meters":11600,"station_id":"ce4bhn12rcd13ifvqgpg","pricing_plan_id":"cebpf4jnsgd1na2vs0mg"},{"bike_id":"6e70df74-192d-490d-8560-64aa3c80f825","system_id":"levelo_inurba_marseille","lat":43.2963,"lon":5.37153,"is_reserved":false,"is_disabled":false,"rental_uris":{"android":"levelo://app?vid=6e70df74-192d-490d-8560-64aa3c80f825","ios":"levelo://app?vid=6e70df74-192d-490d-8560-64aa3c80f825"},"vehicle_type_id":"4","last_reported":1742397013,"current_range_meters":11600,"station_id":"ce4bgnh2rcd13ifvqc0g","pricing_plan_id":"cebpf4jnsgd1na2vs0mg"},{"bike_id":"89946c53-7112-46e6-b206-828cdeaa93f5","system_id":"levelo_inurba_marseille","lat":43.25131,"lon":5.40312,"is_reserved":false,"is_disabled":false,"rental_uris":{"android":"levelo://app?vid=89946c53-7112-46e6-b206-828cdeaa93f5","ios":"levelo://app?vid=89946c53-7112-46e6-b206-828cdeaa93f5"},"vehicle_type_id":"4","last_reported":1742397013,"current_range_meters":11600,"station_id":"ce4bhlh2rcd13ifvqgig","pricing_plan_id":"cebpf4jnsgd1na2vs0mg"},{"bike_id":"ddd45f1d-cd52-4cb8-a3ed-3df1aeec1af4","system_id":"levelo_inurba_marseille","lat":43.27895,"lon":5.38028,"is_reserved":false,"is_disabled":false,"rental_uris":{"android":"levelo://app?vid=ddd45f1d-cd52-4cb8-a3ed-3df1aeec1af4","ios":"levelo://app?vid=ddd45f1d-cd52-4cb8-a3ed-3df1aeec1af4"},"vehicle_type_id":"4","last_reported":1742397013,"current_range_meters":11600,"station_id":"ce4bhf92rcd13ifvqf50","pricing_plan_id":"cebpf4jnsgd1na2vs0mg"},{"bike_id":"02f43b01-3b74-45fa-a40e-2df823c84cda","system_id":"levelo_inurba_marseille","lat":43.24165,"lon":5.39687,"is_reserved":false,"is_disabled":false,"rental_uris":{"android":"levelo://app?vid=02f43b01-3b74-45fa-a40e-2df823c84cda","ios":"levelo://app?vid=02f43b01-3b74-45fa-a40e-2df823c84cda"},"vehicle_type_id":"4","last_reported":1742397013,"current_range_meters":11600,"station_id":"ce4bhn12rcd13ifvqgpg","pricing_plan_id":"cebpf4jnsgd1na2vs0mg"},{"bike_id":"9d26c008-8ec1-4269-9cd2-f45774f03ccb","system_id":"levelo_inurba_marseille","lat":43.27952,"lon":5.37935,"is_reserved":false,"is_disabled":false,"rental_uris":{"android":"levelo://app?vid=9d26c008-8ec1-4269-9cd2-f45774f03ccb","ios":"levelo://app?vid=9d26c008-8ec1-4269-9cd2-f45774f03ccb"},"vehicle_type_id":"4","last_reported":1742397013,"current_range_meters":11600,"station_id":"","pricing_plan_id":"cebpf4jnsgd1na2vs0mg"},{"bike_id":"f6d7ec0c-12a9-4a56-84f0-6e30b0160de8","system_id":"levelo_inurba_marseille","lat":43.29256,"lon":5.37626,"is_reserved":false,"is_disabled":false,"rental_uris":{"android":"levelo://app?vid=f6d7ec0c-12a9-4a56-84f0-6e30b0160de8","ios":"levelo://app?vid=f6d7ec0c-12a9-4a56-84f0-6e30b0160de8"},"vehicle_type_id":"4","last_reported":1742397013,"current_range_meters":12000,"station_id":"ce4bgi12rcd13ifvqb80","pricing_plan_id":"cebpf4jnsgd1na2vs0mg"},{"bike_id":"6cc3105f-200d-4a53-b63e-23af0913f914","system_id":"levelo_inurba_marseille","lat":43.29272,"lon":5.36853,"is_reserved":false,"is_disabled":false,"rental_uris":{"android":"levelo://app?vid=6cc3105f-200d-4a53-b63e-23af0913f914","ios":"levelo://app?vid=6cc3105f-200d-4a53-b63e-23af0913f914"},"vehicle_type_id":"4","last_reported":1742397013,"current_range_meters":12400,"station_id":"ce4bhbp2rcd13ifvqesg","pricing_plan_id":"cebpf4jnsgd1na2vs0mg"},{"bike_id":"a6a89595-b394-4351-918c-d97fb5942ef8","system_id":"levelo_inurba_marseille","lat":43.24805,"lon":5.37457,"is_reserved":false,"is_disabled":false,"rental_uris":{"android":"levelo://app?vid=a6a89595-b394-4351-918c-d97fb5942ef8","ios":"levelo://app?vid=a6a89595-b394-4351-918c-d97fb5942ef8"},"vehicle_type_id":"4","last_reported":1742397013,"current_range_meters":12000,"station_id":"ce4bhgh2rcd13ifvqfb0","pricing_plan_id":"cebpf4jnsgd1na2vs0mg"},{"bike_id":"21070c61-b170-4ace-98c6-b715b327d75d","system_id":"levelo_inurba_marseille","lat":43.24656,"lon":5.38894,"is_reserved":false,"is_disabled":false,"rental_uris":{"android":"levelo://app?vid=21070c61-b170-4ace-98c6-b715b327d75d","ios":"levelo://app?vid=21070c61-b170-4ace-98c6-b715b327d75d"},"vehicle_type_id":"4","last_reported":1742397013,"current_range_meters":12000,"station_id":"ce4bhg12rcd13ifvqf60","pricing_plan_id":"cebpf4jnsgd1na2vs0mg"},{"bike_id":"1b78901a-e3ff-4d99-bb3a-5535ec6ebc0d","system_id":"levelo_inurba_marseille","lat":43.25708,"lon":5.40958,"is_reserved":false,"is_disabled":false,"rental_uris":{"android":"levelo://app?vid=1b78901a-e3ff-4d99-bb3a-5535ec6ebc0d","ios":"levelo://app?vid=1b78901a-e3ff-4d99-bb3a-5535ec6ebc0d"},"vehicle_type_id":"4","last_reported":1742397013,"current_range_meters":12400,"station_id":"","pricing_plan_id":"cebpf4jnsgd1na2vs0mg"},{"bike_id":"6d7eebad-6a0f-4574-b003-6396a105759e","system_id":"levelo_inurba_marseille","lat":43.28947,"lon":5.36407,"is_reserved":false,"is_disabled":false,"rental_uris":{"android":"levelo://app?vid=6d7eebad-6a0f-4574-b003-6396a105759e","ios":"levelo://app?vid=6d7eebad-6a0f-4574-b003-6396a105759e"},"vehicle_type_id":"4","last_reported":1742397013,"current_range_meters":12400,"station_id":"ce4bhc92rcd13ifvqetg","pricing_plan_id":"cebpf4jnsgd1na2vs0mg"},{"bike_id":"74be95ee-9576-4aab-8474-a33eb52af625","system_id":"levelo_inurba_marseille","lat":43.29936,"lon":5.36533,"is_reserved":false,"is_disabled":false,"rental_uris":{"android":"levelo://app?vid=74be95ee-9576-4aab-8474-a33eb52af625","ios":"levelo://app?vid=74be95ee-9576-4aab-8474-a33eb52af625"},"vehicle_type_id":"4","last_reported":1742397013,"current_range_meters":12400,"station_id":"ce4bgm92rcd13ifvqbr0","pricing_plan_id":"cebpf4jnsgd1na2vs0mg"},{"bike_id":"91a14a14-a879-462c-af9b-99722fa7585e","system_id":"levelo_inurba_marseille","lat":43.29606,"lon":5.38107,"is_reserved":false,"is_disabled":false,"rental_uris":{"android":"levelo://app?vid=91a14a14-a879-462c-af9b-99722fa7585e","ios":"levelo://app?vid=91a14a14-a879-462c-af9b-99722fa7585e"},"vehicle_type_id":"4","last_reported":1742397013,"current_range_meters":12400,"station_id":"ce4bgl12rcd13ifvqbo0","pricing_plan_id":"cebpf4jnsgd1na2vs0mg"},{"bike_id":"e430fce9-9c98-4a88-9a0f-5912fcf33b04","system_id":"levelo_inurba_marseille","lat":43.29911,"lon":5.37469,"is_reserved":false,"is_disabled":false,"rental_uris":{"android":"levelo://app?vid=e430fce9-9c98-4a88-9a0f-5912fcf33b04","ios":"levelo://app?vid=e430fce9-9c98-4a88-9a0f-5912fcf33b04"},"vehicle_type_id":"4","last_reported":1742397013,"current_range_meters":12400,"station_id":"ce4bgjh2rcd13ifvqbg0","pricing_plan_id":"cebpf4jnsgd1na2vs0mg"},{"bike_id":"daec0be6-00ee-42fc-bfd6-a5ef8456b0e8","system_id":"levelo_inurba_marseille","lat":43.30309,"lon":5.36913,"is_reserved":false,"is_disabled":false,"rental_uris":{"android":"levelo://app?vid=daec0be6-00ee-42fc-bfd6-a5ef8456b0e8","ios":"levelo://app?vid=daec0be6-00ee-42fc-bfd6-a5ef8456b0e8"},"vehicle_type_id":"4","last_reported":1742397013,"current_range_meters":12400,"station_id":"ce4bgqh2rcd13ifvqc5g","pricing_plan_id":"cebpf4jnsgd1na2vs0mg"},{"bike_id":"6b467574-69f1-40a2-a88f-6859ed54971d","system_id":"levelo_inurba_marseille","lat":43.33453,"lon":5.40052,"is_reserved":false,"is_disabled":false,"rental_uris":{"android":"levelo://app?vid=6b467574-69f1-40a2-a88f-6859ed54971d","ios":"levelo://app?vid=6b467574-69f1-40a2-a88f-6859ed54971d"},"vehicle_type_id":"4","last_reported":1742397013,"current_range_meters":12400,"station_id":"","pricing_plan_id":"cebpf4jnsgd1na2vs0mg"},{"bike_id":"176d2e0b-da43-4b98-b92e-b45d4ab12b2f","system_id":"levelo_inurba_marseille","lat":43.30202,"lon":5.38448,"is_reserved":false,"is_disabled":false,"rental_uris":{"android":"levelo://app?vid=176d2e0b-da43-4b98-b92e-b45d4ab12b2f","ios":"levelo://app?vid=176d2e0b-da43-4b98-b92e-b45d4ab12b2f"},"vehicle_type_id":"4","last_reported":1742397013,"current_range_meters":12400,"station_id":"","pricing_plan_id":"cebpf4jnsgd1na2vs0mg"},{"bike_id":"970b945f-b6b2-406c-8b30-6e3daf0e3f5f","system_id":"levelo_inurba_marseille","lat":43.24662,"lon":5.38165,"is_reserved":false,"is_disabled":false,"rental_uris":{"android":"levelo://app?vid=970b945f-b6b2-406c-8b30-6e3daf0e3f5f","ios":"levelo://app?vid=970b945f-b6b2-406c-8b30-6e3daf0e3f5f"},"vehicle_type_id":"4","last_reported":1742397013,"current_range_meters":12800,"station_id":"ce4bhih2rcd13ifvqfr0","pricing_plan_id":"cebpf4jnsgd1na2vs0mg"},{"bike_id":"8da4f892-377e-46a8-932b-52f39de343d3","system_id":"levelo_inurba_marseille","lat":43.31713,"lon":5.43705,"is_reserved":false,"is_disabled":false,"rental_uris":{"android":"levelo://app?vid=8da4f892-377e-46a8-932b-52f39de343d3","ios":"levelo://app?vid=8da4f892-377e-46a8-932b-52f39de343d3"},"vehicle_type_id":"4","last_reported":1742397013,"current_range_meters":12800,"station_id":"ce4bhp92rcd13ifvqhcg","pricing_plan_id":"cebpf4jnsgd1na2vs0mg"},{"bike_id":"eba3d8e8-e851-47dc-8eb9-2b562e17e402","system_id":"levelo_inurba_marseille","lat":43.30285,"lon":5.37696,"is_reserved":false,"is_disabled":false,"rental_uris":{"android":"levelo://app?vid=eba3d8e8-e851-47dc-8eb9-2b562e17e402","ios":"levelo://app?vid=eba3d8e8-e851-47dc-8eb9-2b562e17e402"},"vehicle_type_id":"4","last_reported":1742397013,"current_range_meters":12800,"station_id":"ce4bguh2rcd13ifvqcj0","pricing_plan_id":"cebpf4jnsgd1na2vs0mg"},{"bike_id":"5209f5d9-1882-4dc9-9d6d-86051cbea1a2","system_id":"levelo_inurba_marseille","lat":43.27416,"lon":5.39404,"is_reserved":false,"is_disabled":false,"rental_uris":{"android":"levelo://app?vid=5209f5d9-1882-4dc9-9d6d-86051cbea1a2","ios":"levelo://app?vid=5209f5d9-1882-4dc9-9d6d-86051cbea1a2"},"vehicle_type_id":"4","last_reported":1742397013,"current_range_meters":12800,"station_id":"ce4bhdp2rcd13ifvqf20","pricing_plan_id":"cebpf4jnsgd1na2vs0mg"},{"bike_id":"892b1b21-15a3-4e55-a688-d24728afd2f8","system_id":"levelo_inurba_marseille","lat":43.26212,"lon":5.37445,"is_reserved":false,"is_disabled":false,"rental_uris":{"android":"levelo://app?vid=892b1b21-15a3-4e55-a688-d24728afd2f8","ios":"levelo://app?vid=892b1b21-15a3-4e55-a688-d24728afd2f8"},"vehicle_type_id":"4","last_reported":1742397013,"current_range_meters":12800,"station_id":"ce4bhgp2rcd13ifvqfc0","pricing_plan_id":"cebpf4jnsgd1na2vs0mg"},{"bike_id":"c4e7dd83-32e6-4685-98d4-24d42d551d52","system_id":"levelo_inurba_marseille","lat":43.29574,"lon":5.39961,"is_reserved":false,"is_disabled":false,"rental_uris":{"android":"levelo://app?vid=c4e7dd83-32e6-4685-98d4-24d42d551d52","ios":"levelo://app?vid=c4e7dd83-32e6-4685-98d4-24d42d551d52"},"vehicle_type_id":"4","last_reported":1742397013,"current_range_meters":12800,"station_id":"ce4bh312rcd13ifvqdj0","pricing_plan_id":"cebpf4jnsgd1na2vs0mg"},{"bike_id":"671210b1-9e8f-4893-953f-985ab8b97e34","system_id":"levelo_inurba_marseille","lat":43.32111,"lon":5.36757,"is_reserved":false,"is_disabled":false,"rental_uris":{"android":"levelo://app?vid=671210b1-9e8f-4893-953f-985ab8b97e34","ios":"levelo://app?vid=671210b1-9e8f-4893-953f-985ab8b97e34"},"vehicle_type_id":"4","last_reported":1742397013,"current_range_meters":12800,"station_id":"ce4bhrh2rcd13ifvqhug","pricing_plan_id":"cebpf4jnsgd1na2vs0mg"},{"bike_id":"1e096a21-9296-4ea4-ad05-342ac819913b","system_id":"levelo_inurba_marseille","lat":43.26694,"lon":5.38238,"is_reserved":false,"is_disabled":false,"rental_uris":{"android":"levelo://app?vid=1e096a21-9296-4ea4-ad05-342ac819913b","ios":"levelo://app?vid=1e096a21-9296-4ea4-ad05-342ac819913b"},"vehicle_type_id":"4","last_reported":1742397013,"current_range_meters":12800,"station_id":"ce4bhg92rcd13ifvqf90","pricing_plan_id":"cebpf4jnsgd1na2vs0mg"},{"bike_id":"0998cf85-4c14-474d-9d92-118dcf9c73a7","system_id":"levelo_inurba_marseille","lat":43.30128,"lon":5.37406,"is_reserved":false,"is_disabled":false,"rental_uris":{"android":"levelo://app?vid=0998cf85-4c14-474d-9d92-118dcf9c73a7","ios":"levelo://app?vid=0998cf85-4c14-474d-9d92-118dcf9c73a7"},"vehicle_type_id":"4","last_reported":1742397013,"current_range_meters":12800,"station_id":"ce4bgs92rcd13ifvqcc0","pricing_plan_id":"cebpf4jnsgd1na2vs0mg"},{"bike_id":"7c23dcb0-31a4-457d-8cd5-05a913c017d4","system_id":"levelo_inurba_marseille","lat":43.3303,"lon":5.39021,"is_reserved":false,"is_disabled":false,"rental_uris":{"android":"levelo://app?vid=7c23dcb0-31a4-457d-8cd5-05a913c017d4","ios":"levelo://app?vid=7c23dcb0-31a4-457d-8cd5-05a913c017d4"},"vehicle_type_id":"4","last_reported":1742397013,"current_range_meters":12800,"station_id":"ce4bhr92rcd13ifvqhrg","pricing_plan_id":"cebpf4jnsgd1na2vs0mg"},{"bike_id":"9a407e55-d314-42fc-8c32-c5b5dcba6239","system_id":"levelo_inurba_marseille","lat":43.26233,"lon":5.4043,"is_reserved":false,"is_disabled":false,"rental_uris":{"android":"levelo://app?vid=9a407e55-d314-42fc-8c32-c5b5dcba6239","ios":"levelo://app?vid=9a407e55-d314-42fc-8c32-c5b5dcba6239"},"vehicle_type_id":"4","last_reported":1742397013,"current_range_meters":13600,"station_id":"ce4bhmh2rcd13ifvqgmg","pricing_plan_id":"cebpf4jnsgd1na2vs0mg"},{"bike_id":"e9b703d0-4e06-45c2-866b-77c1ce68824d","system_id":"levelo_inurba_marseille","lat":43.28463,"lon":5.35902,"is_reserved":false,"is_disabled":false,"rental_uris":{"android":"levelo://app?vid=e9b703d0-4e06-45c2-866b-77c1ce68824d","ios":"levelo://app?vid=e9b703d0-4e06-45c2-866b-77c1ce68824d"},"vehicle_type_id":"4","last_reported":1742397013,"current_range_meters":15200,"station_id":"ce4bhah2rcd13ifvqei0","pricing_plan_id":"cebpf4jnsgd1na2vs0mg"},{"bike_id":"db023e60-aee9-48ef-aafc-8f26c7414812","system_id":"levelo_inurba_marseille","lat":43.31372,"lon":5.38494,"is_reserved":false,"is_disabled":false,"rental_uris":{"android":"levelo://app?vid=db023e60-aee9-48ef-aafc-8f26c7414812","ios":"levelo://app?vid=db023e60-aee9-48ef-aafc-8f26c7414812"},"vehicle_type_id":"4","last_reported":1742397013,"current_range_meters":13600,"station_id":"ce4bgt92rcd13ifvqcf0","pricing_plan_id":"cebpf4jnsgd1na2vs0mg"},{"bike_id":"934ec32b-b6dd-4d66-bd2c-48956c0ab1fb","system_id":"levelo_inurba_marseille","lat":43.28075,"lon":5.39658,"is_reserved":false,"is_disabled":false,"rental_uris":{"android":"levelo://app?vid=934ec32b-b6dd-4d66-bd2c-48956c0ab1fb","ios":"levelo://app?vid=934ec32b-b6dd-4d66-bd2c-48956c0ab1fb"},"vehicle_type_id":"4","last_reported":1742397013,"current_range_meters":13600,"station_id":"ce4bho12rcd13ifvqh2g","pricing_plan_id":"cebpf4jnsgd1na2vs0mg"},{"bike_id":"3d6e5bb2-49a5-4ae9-ac7c-7c3250491a49","system_id":"levelo_inurba_marseille","lat":43.28868,"lon":5.35943,"is_reserved":false,"is_disabled":false,"rental_uris":{"android":"levelo://app?vid=3d6e5bb2-49a5-4ae9-ac7c-7c3250491a49","ios":"levelo://app?vid=3d6e5bb2-49a5-4ae9-ac7c-7c3250491a49"},"vehicle_type_id":"4","last_reported":1742397013,"current_range_meters":13600,"station_id":"","pricing_plan_id":"cebpf4jnsgd1na2vs0mg"},{"bike_id":"0af285be-0294-4c23-9728-cedd0c1ca6b2","system_id":"levelo_inurba_marseille","lat":43.23201,"lon":5.39992,"is_reserved":false,"is_disabled":false,"rental_uris":{"android":"levelo://app?vid=0af285be-0294-4c23-9728-cedd0c1ca6b2","ios":"levelo://app?vid=0af285be-0294-4c23-9728-cedd0c1ca6b2"},"vehicle_type_id":"4","last_reported":1742397013,"current_range_meters":13600,"station_id":"ce4bhn12rcd13ifvqgqg","pricing_plan_id":"cebpf4jnsgd1na2vs0mg"},{"bike_id":"471b8c1a-1a85-4080-b533-fb41f3dbfd81","system_id":"levelo_inurba_marseille","lat":43.23195,"lon":5.35556,"is_reserved":false,"is_disabled":false,"rental_uris":{"android":"levelo://app?vid=471b8c1a-1a85-4080-b533-fb41f3dbfd81","ios":"levelo://app?vid=471b8c1a-1a85-4080-b533-fb41f3dbfd81"},"vehicle_type_id":"4","last_reported":1742397013,"current_range_meters":13600,"station_id":"ce4bhu92rcd13ifvqi70","pricing_plan_id":"cebpf4jnsgd1na2vs0mg"},{"bike_id":"cf05a194-6fba-4fdf-b62f-8195f1a28222","system_id":"levelo_inurba_marseille","lat":43.25583,"lon":5.38239,"is_reserved":false,"is_disabled":false,"rental_uris":{"android":"levelo://app?vid=cf05a194-6fba-4fdf-b62f-8195f1a28222","ios":"levelo://app?vid=cf05a194-6fba-4fdf-b62f-8195f1a28222"},"vehicle_type_id":"4","last_reported":1742397013,"current_range_meters":13600,"station_id":"ce4bhih2rcd13ifvqfs0","pricing_plan_id":"cebpf4jnsgd1na2vs0mg"},{"bike_id":"6c7e51d2-e2f9-4032-b4ac-95afc513e72e","system_id":"levelo_inurba_marseille","lat":43.27368,"lon":5.36251,"is_reserved":false,"is_disabled":false,"rental_uris":{"android":"levelo://app?vid=6c7e51d2-e2f9-4032-b4ac-95afc513e72e","ios":"levelo://app?vid=6c7e51d2-e2f9-4032-b4ac-95afc513e72e"},"vehicle_type_id":"4","last_reported":1742397013,"current_range_meters":14000,"station_id":"ce4bhbh2rcd13ifvqeo0","pricing_plan_id":"cebpf4jnsgd1na2vs0mg"},{"bike_id":"256d0495-a89f-4577-a11d-07c4b587cd91","system_id":"levelo_inurba_marseille","lat":43.30332,"lon":5.36903,"is_reserved":false,"is_disabled":false,"rental_uris":{"android":"levelo://app?vid=256d0495-a89f-4577-a11d-07c4b587cd91","ios":"levelo://app?vid=256d0495-a89f-4577-a11d-07c4b587cd91"},"vehicle_type_id":"4","last_reported":1742397013,"current_range_meters":14000,"station_id":"ce4bgqh2rcd13ifvqc5g","pricing_plan_id":"cebpf4jnsgd1na2vs0mg"},{"bike_id":"abde3a87-90d6-46e0-b890-3ee481ed5b06","system_id":"levelo_inurba_marseille","lat":43.3015,"lon":5.37424,"is_reserved":false,"is_disabled":false,"rental_uris":{"android":"levelo://app?vid=abde3a87-90d6-46e0-b890-3ee481ed5b06","ios":"levelo://app?vid=abde3a87-90d6-46e0-b890-3ee481ed5b06"},"vehicle_type_id":"4","last_reported":1742397013,"current_range_meters":14000,"station_id":"ce4bgs92rcd13ifvqcc0","pricing_plan_id":"cebpf4jnsgd1na2vs0mg"},{"bike_id":"4d2af754-dfb8-45a2-bdc5-53d778f350a8","system_id":"levelo_inurba_marseille","lat":43.30893,"lon":5.37193,"is_reserved":false,"is_disabled":false,"rental_uris":{"android":"levelo://app?vid=4d2af754-dfb8-45a2-bdc5-53d778f350a8","ios":"levelo://app?vid=4d2af754-dfb8-45a2-bdc5-53d778f350a8"},"vehicle_type_id":"4","last_reported":1742397013,"current_range_meters":13600,"station_id":"ce4bguh2rcd13ifvqckg","pricing_plan_id":"cebpf4jnsgd1na2vs0mg"},{"bike_id":"ac407891-5bee-48c0-a426-13d0960582c8","system_id":"levelo_inurba_marseille","lat":43.27182,"lon":5.40983,"is_reserved":false,"is_disabled":false,"rental_uris":{"android":"levelo://app?vid=ac407891-5bee-48c0-a426-13d0960582c8","ios":"levelo://app?vid=ac407891-5bee-48c0-a426-13d0960582c8"},"vehicle_type_id":"4","last_reported":1742397013,"current_range_meters":14000,"station_id":"ce4bhl12rcd13ifvqgf0","pricing_plan_id":"cebpf4jnsgd1na2vs0mg"},{"bike_id":"9205ed95-5376-4387-a7c2-f7f75645f053","system_id":"levelo_inurba_marseille","lat":43.31222,"lon":5.36851,"is_reserved":false,"is_disabled":false,"rental_uris":{"android":"levelo://app?vid=9205ed95-5376-4387-a7c2-f7f75645f053","ios":"levelo://app?vid=9205ed95-5376-4387-a7c2-f7f75645f053"},"vehicle_type_id":"4","last_reported":1742397013,"current_range_meters":14000,"station_id":"ce4bgl92rcd13ifvqbq0","pricing_plan_id":"cebpf4jnsgd1na2vs0mg"},{"bike_id":"c405ab68-223f-47db-99ed-c18c10d1f19e","system_id":"levelo_inurba_marseille","lat":43.28614,"lon":5.35103,"is_reserved":false,"is_disabled":false,"rental_uris":{"android":"levelo://app?vid=c405ab68-223f-47db-99ed-c18c10d1f19e","ios":"levelo://app?vid=c405ab68-223f-47db-99ed-c18c10d1f19e"},"vehicle_type_id":"4","last_reported":1742397013,"current_range_meters":14000,"station_id":"ce4bhch2rcd13ifvqeug","pricing_plan_id":"cebpf4jnsgd1na2vs0mg"},{"bike_id":"25071558-cbf6-4578-8098-7ac58b57cb1e","system_id":"levelo_inurba_marseille","lat":43.27376,"lon":5.36283,"is_reserved":false,"is_disabled":false,"rental_uris":{"android":"levelo://app?vid=25071558-cbf6-4578-8098-7ac58b57cb1e","ios":"levelo://app?vid=25071558-cbf6-4578-8098-7ac58b57cb1e"},"vehicle_type_id":"4","last_reported":1742397013,"current_range_meters":14000,"station_id":"ce4bhbh2rcd13ifvqeo0","pricing_plan_id":"cebpf4jnsgd1na2vs0mg"},{"bike_id":"d7645557-54c5-44ed-8c44-41e433a350da","system_id":"levelo_inurba_marseille","lat":43.29484,"lon":5.35581,"is_reserved":false,"is_disabled":false,"rental_uris":{"android":"levelo://app?vid=d7645557-54c5-44ed-8c44-41e433a350da","ios":"levelo://app?vid=d7645557-54c5-44ed-8c44-41e433a350da"},"vehicle_type_id":"4","last_reported":1742397013,"current_range_meters":14000,"station_id":"","pricing_plan_id":"cebpf4jnsgd1na2vs0mg"},{"bike_id":"6088a1ab-4361-4650-98c1-077152334f4d","system_id":"levelo_inurba_marseille","lat":43.30468,"lon":5.37913,"is_reserved":false,"is_disabled":false,"rental_uris":{"android":"levelo://app?vid=6088a1ab-4361-4650-98c1-077152334f4d","ios":"levelo://app?vid=6088a1ab-4361-4650-98c1-077152334f4d"},"vehicle_type_id":"4","last_reported":1742397013,"current_range_meters":14400,"station_id":"ce4bgup2rcd13ifvqcn0","pricing_plan_id":"cebpf4jnsgd1na2vs0mg"},{"bike_id":"973c0ebb-6773-40e0-972a-ac80c64d7bd2","system_id":"levelo_inurba_marseille","lat":43.2649,"lon":5.39555,"is_reserved":false,"is_disabled":false,"rental_uris":{"android":"levelo://app?vid=973c0ebb-6773-40e0-972a-ac80c64d7bd2","ios":"levelo://app?vid=973c0ebb-6773-40e0-972a-ac80c64d7bd2"},"vehicle_type_id":"4","last_reported":1742397013,"current_range_meters":14400,"station_id":"ce4bhi12rcd13ifvqfq0","pricing_plan_id":"cebpf4jnsgd1na2vs0mg"},{"bike_id":"23dd9309-eae1-47dc-809c-1c06396b1120","system_id":"levelo_inurba_marseille","lat":43.28937,"lon":5.36628,"is_reserved":false,"is_disabled":false,"rental_uris":{"android":"levelo://app?vid=23dd9309-eae1-47dc-809c-1c06396b1120","ios":"levelo://app?vid=23dd9309-eae1-47dc-809c-1c06396b1120"},"vehicle_type_id":"4","last_reported":1742397013,"current_range_meters":14400,"station_id":"ce4bhap2rcd13ifvqek0","pricing_plan_id":"cebpf4jnsgd1na2vs0mg"},{"bike_id":"d412c95b-dfbb-4a2b-937b-9fc27d532cd3","system_id":"levelo_inurba_marseille","lat":43.25584,"lon":5.38234,"is_reserved":false,"is_disabled":false,"rental_uris":{"android":"levelo://app?vid=d412c95b-dfbb-4a2b-937b-9fc27d532cd3","ios":"levelo://app?vid=d412c95b-dfbb-4a2b-937b-9fc27d532cd3"},"vehicle_type_id":"4","last_reported":1742397013,"current_range_meters":14400,"station_id":"ce4bhih2rcd13ifvqfs0","pricing_plan_id":"cebpf4jnsgd1na2vs0mg"},{"bike_id":"340dedba-26a8-4f48-b083-868a7833daf0","system_id":"levelo_inurba_marseille","lat":43.32291,"lon":5.38288,"is_reserved":false,"is_disabled":false,"rental_uris":{"android":"levelo://app?vid=340dedba-26a8-4f48-b083-868a7833daf0","ios":"levelo://app?vid=340dedba-26a8-4f48-b083-868a7833daf0"},"vehicle_type_id":"4","last_reported":1742397013,"current_range_meters":14400,"station_id":"ce4bhr12rcd13ifvqhqg","pricing_plan_id":"cebpf4jnsgd1na2vs0mg"},{"bike_id":"d450fbe3-d622-4428-9537-2b7581ddcd09","system_id":"levelo_inurba_marseille","lat":43.30788,"lon":5.37651,"is_reserved":false,"is_disabled":false,"rental_uris":{"android":"levelo://app?vid=d450fbe3-d622-4428-9537-2b7581ddcd09","ios":"levelo://app?vid=d450fbe3-d622-4428-9537-2b7581ddcd09"},"vehicle_type_id":"4","last_reported":1742397013,"current_range_meters":14000,"station_id":"ce4bgv92rcd13ifvqcq0","pricing_plan_id":"cebpf4jnsgd1na2vs0mg"},{"bike_id":"694e493f-601b-44b4-b612-6aa7830052ab","system_id":"levelo_inurba_marseille","lat":43.29556,"lon":5.42295,"is_reserved":false,"is_disabled":false,"rental_uris":{"android":"levelo://app?vid=694e493f-601b-44b4-b612-6aa7830052ab","ios":"levelo://app?vid=694e493f-601b-44b4-b612-6aa7830052ab"},"vehicle_type_id":"4","last_reported":1742397013,"current_range_meters":14400,"station_id":"ce4bhph2rcd13ifvqhdg","pricing_plan_id":"cebpf4jnsgd1na2vs0mg"},{"bike_id":"50052a34-cd4d-455e-89a2-d030d8c6c1ad","system_id":"levelo_inurba_marseille","lat":43.24201,"lon":5.38989,"is_reserved":false,"is_disabled":false,"rental_uris":{"android":"levelo://app?vid=50052a34-cd4d-455e-89a2-d030d8c6c1ad","ios":"levelo://app?vid=50052a34-cd4d-455e-89a2-d030d8c6c1ad"},"vehicle_type_id":"4","last_reported":1742397013,"current_range_meters":14800,"station_id":"","pricing_plan_id":"cebpf4jnsgd1na2vs0mg"},{"bike_id":"580d0e41-9a36-4a19-b63b-7f8f13e12a02","system_id":"levelo_inurba_marseille","lat":43.28723,"lon":5.36091,"is_reserved":false,"is_disabled":false,"rental_uris":{"android":"levelo://app?vid=580d0e41-9a36-4a19-b63b-7f8f13e12a02","ios":"levelo://app?vid=580d0e41-9a36-4a19-b63b-7f8f13e12a02"},"vehicle_type_id":"4","last_reported":1742397013,"current_range_meters":14800,"station_id":"cki0cbj6b192h4jlfktg","pricing_plan_id":"cebpf4jnsgd1na2vs0mg"},{"bike_id":"3fa3724e-562d-492f-94d8-0e92404890d4","system_id":"levelo_inurba_marseille","lat":43.32699,"lon":5.39221,"is_reserved":false,"is_disabled":false,"rental_uris":{"android":"levelo://app?vid=3fa3724e-562d-492f-94d8-0e92404890d4","ios":"levelo://app?vid=3fa3724e-562d-492f-94d8-0e92404890d4"},"vehicle_type_id":"4","last_reported":1742397013,"current_range_meters":14800,"station_id":"","pricing_plan_id":"cebpf4jnsgd1na2vs0mg"},{"bike_id":"f90a459c-029a-440d-9560-fa7b043127d1","system_id":"levelo_inurba_marseille","lat":43.29907,"lon":5.38134,"is_reserved":false,"is_disabled":false,"rental_uris":{"android":"levelo://app?vid=f90a459c-029a-440d-9560-fa7b043127d1","ios":"levelo://app?vid=f90a459c-029a-440d-9560-fa7b043127d1"},"vehicle_type_id":"4","last_reported":1742397013,"current_range_meters":14800,"station_id":"ce4bgj12rcd13ifvqbc0","pricing_plan_id":"cebpf4jnsgd1na2vs0mg"},{"bike_id":"7b775ad9-71a0-458f-aca8-75e92370afa5","system_id":"levelo_inurba_marseille","lat":43.30798,"lon":5.38162,"is_reserved":false,"is_disabled":false,"rental_uris":{"android":"levelo://app?vid=7b775ad9-71a0-458f-aca8-75e92370afa5","ios":"levelo://app?vid=7b775ad9-71a0-458f-aca8-75e92370afa5"},"vehicle_type_id":"4","last_reported":1742397013,"current_range_meters":14400,"station_id":"ce4bgt12rcd13ifvqce0","pricing_plan_id":"cebpf4jnsgd1na2vs0mg"},{"bike_id":"d031cedf-9e75-43de-a6ba-36669d1a46bd","system_id":"levelo_inurba_marseille","lat":43.34145,"lon":5.40904,"is_reserved":false,"is_disabled":false,"rental_uris":{"android":"levelo://app?vid=d031cedf-9e75-43de-a6ba-36669d1a46bd","ios":"levelo://app?vid=d031cedf-9e75-43de-a6ba-36669d1a46bd"},"vehicle_type_id":"4","last_reported":1742397013,"current_range_meters":14800,"station_id":"ce4bhqh2rcd13ifvqhlg","pricing_plan_id":"cebpf4jnsgd1na2vs0mg"},{"bike_id":"0c0f9ca9-cce7-4164-908d-02ee0e4973df","system_id":"levelo_inurba_marseille","lat":43.29371,"lon":5.37862,"is_reserved":false,"is_disabled":false,"rental_uris":{"android":"levelo://app?vid=0c0f9ca9-cce7-4164-908d-02ee0e4973df","ios":"levelo://app?vid=0c0f9ca9-cce7-4164-908d-02ee0e4973df"},"vehicle_type_id":"4","last_reported":1742397013,"current_range_meters":14800,"station_id":"ce4bgjh2rcd13ifvqbf0","pricing_plan_id":"cebpf4jnsgd1na2vs0mg"},{"bike_id":"e0358a08-5f7e-4638-a25a-280d4cbd1eec","system_id":"levelo_inurba_marseille","lat":43.26682,"lon":5.38271,"is_reserved":false,"is_disabled":false,"rental_uris":{"android":"levelo://app?vid=e0358a08-5f7e-4638-a25a-280d4cbd1eec","ios":"levelo://app?vid=e0358a08-5f7e-4638-a25a-280d4cbd1eec"},"vehicle_type_id":"4","last_reported":1742397013,"current_range_meters":14800,"station_id":"ce4bhg92rcd13ifvqf90","pricing_plan_id":"cebpf4jnsgd1na2vs0mg"},{"bike_id":"9e6b732c-593e-433a-a8d1-2d8525fc7abe","system_id":"levelo_inurba_marseille","lat":43.30095,"lon":5.3908,"is_reserved":false,"is_disabled":false,"rental_uris":{"android":"levelo://app?vid=9e6b732c-593e-433a-a8d1-2d8525fc7abe","ios":"levelo://app?vid=9e6b732c-593e-433a-a8d1-2d8525fc7abe"},"vehicle_type_id":"4","last_reported":1742397013,"current_range_meters":15200,"station_id":"ce4bh192rcd13ifvqdb0","pricing_plan_id":"cebpf4jnsgd1na2vs0mg"},{"bike_id":"e3b5a094-a862-4c3f-9404-c3124867ee5b","system_id":"levelo_inurba_marseille","lat":43.29633,"lon":5.40599,"is_reserved":false,"is_disabled":false,"rental_uris":{"android":"levelo://app?vid=e3b5a094-a862-4c3f-9404-c3124867ee5b","ios":"levelo://app?vid=e3b5a094-a862-4c3f-9404-c3124867ee5b"},"vehicle_type_id":"4","last_reported":1742397013,"current_range_meters":15200,"station_id":"ce4bh0h2rcd13ifvqd60","pricing_plan_id":"cebpf4jnsgd1na2vs0mg"},{"bike_id":"33986e77-8879-4531-9acd-5b9e8907d887","system_id":"levelo_inurba_marseille","lat":43.29969,"lon":5.38501,"is_reserved":false,"is_disabled":false,"rental_uris":{"android":"levelo://app?vid=33986e77-8879-4531-9acd-5b9e8907d887","ios":"levelo://app?vid=33986e77-8879-4531-9acd-5b9e8907d887"},"vehicle_type_id":"4","last_reported":1742397013,"current_range_meters":15200,"station_id":"ce4bgj92rcd13ifvqbd0","pricing_plan_id":"cebpf4jnsgd1na2vs0mg"},{"bike_id":"d92eafa2-1766-4e1a-a9a3-7da978303fe5","system_id":"levelo_inurba_marseille","lat":43.3302,"lon":5.39015,"is_reserved":false,"is_disabled":false,"rental_uris":{"android":"levelo://app?vid=d92eafa2-1766-4e1a-a9a3-7da978303fe5","ios":"levelo://app?vid=d92eafa2-1766-4e1a-a9a3-7da978303fe5"},"vehicle_type_id":"4","last_reported":1742397013,"current_range_meters":15200,"station_id":"ce4bhr92rcd13ifvqhrg","pricing_plan_id":"cebpf4jnsgd1na2vs0mg"},{"bike_id":"e5aa24d2-d64a-4879-9c13-ecb1444065ef","system_id":"levelo_inurba_marseille","lat":43.27821,"lon":5.40703,"is_reserved":false,"is_disabled":false,"rental_uris":{"android":"levelo://app?vid=e5aa24d2-d64a-4879-9c13-ecb1444065ef","ios":"levelo://app?vid=e5aa24d2-d64a-4879-9c13-ecb1444065ef"},"vehicle_type_id":"4","last_reported":1742397013,"current_range_meters":15200,"station_id":"ce4bhnh2rcd13ifvqgtg","pricing_plan_id":"cebpf4jnsgd1na2vs0mg"},{"bike_id":"3c1b63a2-1992-4000-95d9-a784cf5373c7","system_id":"levelo_inurba_marseille","lat":43.30611,"lon":5.37235,"is_reserved":false,"is_disabled":false,"rental_uris":{"android":"levelo://app?vid=3c1b63a2-1992-4000-95d9-a784cf5373c7","ios":"levelo://app?vid=3c1b63a2-1992-4000-95d9-a784cf5373c7"},"vehicle_type_id":"4","last_reported":1742397013,"current_range_meters":16000,"station_id":"ce4bgqh2rcd13ifvqc4g","pricing_plan_id":"cebpf4jnsgd1na2vs0mg"},{"bike_id":"531ca670-f906-43d4-b103-7a1e042f1f13","system_id":"levelo_inurba_marseille","lat":43.30585,"lon":5.36514,"is_reserved":false,"is_disabled":false,"rental_uris":{"android":"levelo://app?vid=531ca670-f906-43d4-b103-7a1e042f1f13","ios":"levelo://app?vid=531ca670-f906-43d4-b103-7a1e042f1f13"},"vehicle_type_id":"4","last_reported":1742397013,"current_range_meters":16000,"station_id":"ce4bgs12rcd13ifvqcag","pricing_plan_id":"cebpf4jnsgd1na2vs0mg"},{"bike_id":"05804281-d080-4e93-83ca-295c470fde98","system_id":"levelo_inurba_marseille","lat":43.29569,"lon":5.37512,"is_reserved":false,"is_disabled":false,"rental_uris":{"android":"levelo://app?vid=05804281-d080-4e93-83ca-295c470fde98","ios":"levelo://app?vid=05804281-d080-4e93-83ca-295c470fde98"},"vehicle_type_id":"4","last_reported":1742397013,"current_range_meters":16000,"station_id":"ce4bgh92rcd13ifvqb50","pricing_plan_id":"cebpf4jnsgd1na2vs0mg"},{"bike_id":"f1df6d1e-0c03-474f-bfb1-8814c23e889e","system_id":"levelo_inurba_marseille","lat":43.31713,"lon":5.4371,"is_reserved":false,"is_disabled":false,"rental_uris":{"android":"levelo://app?vid=f1df6d1e-0c03-474f-bfb1-8814c23e889e","ios":"levelo://app?vid=f1df6d1e-0c03-474f-bfb1-8814c23e889e"},"vehicle_type_id":"4","last_reported":1742397013,"current_range_meters":16000,"station_id":"ce4bhp92rcd13ifvqhcg","pricing_plan_id":"cebpf4jnsgd1na2vs0mg"},{"bike_id":"0bbd6796-64b2-4395-8176-d81c11a38448","system_id":"levelo_inurba_marseille","lat":43.2928,"lon":5.36854,"is_reserved":false,"is_disabled":false,"rental_uris":{"android":"levelo://app?vid=0bbd6796-64b2-4395-8176-d81c11a38448","ios":"levelo://app?vid=0bbd6796-64b2-4395-8176-d81c11a38448"},"vehicle_type_id":"4","last_reported":1742397013,"current_range_meters":16000,"station_id":"ce4bhbp2rcd13ifvqesg","pricing_plan_id":"cebpf4jnsgd1na2vs0mg"},{"bike_id":"07e5f3fd-2da2-4c71-bccd-96a631bd8fbf","system_id":"levelo_inurba_marseille","lat":43.30094,"lon":5.39867,"is_reserved":false,"is_disabled":false,"rental_uris":{"android":"levelo://app?vid=07e5f3fd-2da2-4c71-bccd-96a631bd8fbf","ios":"levelo://app?vid=07e5f3fd-2da2-4c71-bccd-96a631bd8fbf"},"vehicle_type_id":"4","last_reported":1742397013,"current_range_meters":16000,"station_id":"ce4bh0h2rcd13ifvqd40","pricing_plan_id":"cebpf4jnsgd1na2vs0mg"},{"bike_id":"0d847fbd-0f2a-468b-8e52-023c28901252","system_id":"levelo_inurba_marseille","lat":43.31497,"lon":5.37296,"is_reserved":false,"is_disabled":false,"rental_uris":{"android":"levelo://app?vid=0d847fbd-0f2a-468b-8e52-023c28901252","ios":"levelo://app?vid=0d847fbd-0f2a-468b-8e52-023c28901252"},"vehicle_type_id":"4","last_reported":1742397013,"current_range_meters":16000,"station_id":"ce4bgt12rcd13ifvqcd0","pricing_plan_id":"cebpf4jnsgd1na2vs0mg"},{"bike_id":"3f46a6b3-283f-49da-a38b-6db8815fa5ad","system_id":"levelo_inurba_marseille","lat":43.2582,"lon":5.39438,"is_reserved":false,"is_disabled":false,"rental_uris":{"android":"levelo://app?vid=3f46a6b3-283f-49da-a38b-6db8815fa5ad","ios":"levelo://app?vid=3f46a6b3-283f-49da-a38b-6db8815fa5ad"},"vehicle_type_id":"4","last_reported":1742397013,"current_range_meters":16000,"station_id":"ce4bhip2rcd13ifvqft0","pricing_plan_id":"cebpf4jnsgd1na2vs0mg"},{"bike_id":"b684f31a-40c8-4403-9a6e-2d11f32364dd","system_id":"levelo_inurba_marseille","lat":43.23151,"lon":5.43715,"is_reserved":false,"is_disabled":false,"rental_uris":{"android":"levelo://app?vid=b684f31a-40c8-4403-9a6e-2d11f32364dd","ios":"levelo://app?vid=b684f31a-40c8-4403-9a6e-2d11f32364dd"},