{"last_updated":1727176043,"ttl":60,"version":"2.2","data":{"bikes":[{"bike_id":"94974735-9e09-4ce4-8c77-f4714a151daf","system_id":"levelo_inurba_marseille","lat":43.22929,"lon":5.35373,"is_reserved":false,"is_disabled":false,"rental_uris":{"android":"levelo://app?vid=94974735-9e09-4ce4-8c77-f4714a151daf","ios":"levelo://app?vid=94974735-9e09-4ce4-8c77-f4714a151daf"},"vehicle_type_id":"4","last_reported":1727176043,"current_range_meters":37600,"station_id":"cpo3532slgdg3j2ikp40","pricing_plan_id":"cebpf4jnsgd1na2vs0mg"},{"bike_id":"be8822b3-9edb-4359-9ba6-1ebccccba435","system_id":"levelo_inurba_marseille","lat":43.30281,"lon":5.37698,"is_reserved":false,"is_disabled":false,"rental_uris":{"android":"levelo://app?vid=be8822b3-9edb-4359-9ba6-1ebccccba435","ios":"levelo://app?vid=be8822b3-9edb-4359-9ba6-1ebccccba435"},"vehicle_type_id":"4","last_reported":1727176043,"current_range_meters":33200,"station_id":"ce4bguh2rcd13ifvqcj0","pricing_plan_id":"cebpf4jnsgd1na2vs0mg"},{"bike_id":"2200d9de-eab9-4f82-a98f-84d47f405602","system_id":"levelo_inurba_marseille","lat":43.30469,"lon":5.37895,"is_reserved":false,"is_disabled":false,"rental_uris":{"android":"levelo://app?vid=2200d9de-eab9-4f82-a98f-84d47f405602","ios":"levelo://app?vid=2200d9de-eab9-4f82-a98f-84d47f405602"},"vehicle_type_id":"4","last_reported":1727176043,"current_range_meters":38400,"station_id":"ce4bgup2rcd13ifvqcn0","pricing_plan_id":"cebpf4jnsgd1na2vs0mg"},{"bike_id":"f0559f64-2dd1-426c-aa70-5982621f4cf2","system_id":"levelo_inurba_marseille","lat":43.33764,"lon":5.37429,"is_reserved":false,"is_disabled":false,"rental_uris":{"android":"levelo://app?vid=f0559f64-2dd1-426c-aa70-5982621f4cf2","ios":"levelo://app?vid=f0559f64-2dd1-426c-aa70-5982621f4cf2"},"vehicle_type_id":"4","last_reported":1727176043,"current_range_meters":38000,"station_id":"","pricing_plan_id":"cebpf4jnsgd1na2vs0mg"},{"bike_id":"89477c9b-899d-4e11-a6be-74f4b8898f6f","system_id":"levelo_inurba_marseille","lat":43.29045,"lon":5.39941,"is_reserved":false,"is_disabled":false,"rental_uris":{"android":"levelo://app?vid=89477c9b-899d-4e11-a6be-74f4b8898f6f","ios":"levelo://app?vid=89477c9b-899d-4e11-a6be-74f4b8898f6f"},"vehicle_type_id":"4","last_reported":1727176043,"current_range_meters":38400,"station_id":"ce4bh392rcd13ifvqdm0","pricing_plan_id":"cebpf4jnsgd1na2vs0mg"},{"bike_id":"5d3d257f-bb51-4bce-a465-c8d6a178e971","system_id":"levelo_inurba_marseille","lat":43.32658,"lon":5.40988,"is_reserved":false,"is_disabled":false,"rental_uris":{"android":"levelo://app?vid=5d3d257f-bb51-4bce-a465-c8d6a178e971","ios":"levelo://app?vid=5d3d257f-bb51-4bce-a465-c8d6a178e971"},"vehicle_type_id":"4","last_reported":1727176043,"current_range_meters":36800,"station_id":"ce4bhpp2rcd13ifvqhgg","pricing_plan_id":"cebpf4jnsgd1na2vs0mg"},{"bike_id":"a3205268-0a66-4403-b78e-c9e5b2e714fb","system_id":"levelo_inurba_marseille","lat":43.2696,"lon":5.38636,"is_reserved":false,"is_disabled":false,"rental_uris":{"android":"levelo://app?vid=a3205268-0a66-4403-b78e-c9e5b2e714fb","ios":"levelo://app?vid=a3205268-0a66-4403-b78e-c9e5b2e714fb"},"vehicle_type_id":"4","last_reported":1727176043,"current_range_meters":21600,"station_id":"ce4bhh92rcd13ifvqfh0","pricing_plan_id":"cebpf4jnsgd1na2vs0mg"},{"bike_id":"b14d0afd-356c-4c20-b93f-06a170749a0f","system_id":"levelo_inurba_marseille","lat":43.33752,"lon":5.37437,"is_reserved":false,"is_disabled":false,"rental_uris":{"android":"levelo://app?vid=b14d0afd-356c-4c20-b93f-06a170749a0f","ios":"levelo://app?vid=b14d0afd-356c-4c20-b93f-06a170749a0f"},"vehicle_type_id":"4","last_reported":1727176043,"current_range_meters":35200,"station_id":"","pricing_plan_id":"cebpf4jnsgd1na2vs0mg"},{"bike_id":"05fd7f7c-e08a-4007-b566-3c06c7aab83d","system_id":"levelo_inurba_marseille","lat":43.303314,"lon":5.404374,"is_reserved":false,"is_disabled":false,"rental_uris":{"android":"levelo://app?vid=05fd7f7c-e08a-4007-b566-3c06c7aab83d","ios":"levelo://app?vid=05fd7f7c-e08a-4007-b566-3c06c7aab83d"},"vehicle_type_id":"4","last_reported":1727176043,"current_range_meters":31200,"station_id":"ce4bhop2rcd13ifvqh7g","pricing_plan_id":"cebpf4jnsgd1na2vs0mg"},{"bike_id":"cec702f9-6429-493f-a263-782f4419d3a6","system_id":"levelo_inurba_marseille","lat":43.25853,"lon":5.39915,"is_reserved":false,"is_disabled":false,"rental_uris":{"android":"levelo://app?vid=cec702f9-6429-493f-a263-782f4419d3a6","ios":"levelo://app?vid=cec702f9-6429-493f-a263-782f4419d3a6"},"vehicle_type_id":"4","last_reported":1727176043,"current_range_meters":28800,"station_id":"ce4bhl92rcd13ifvqghg","pricing_plan_id":"cebpf4jnsgd1na2vs0mg"},{"bike_id":"0d42b10a-3b15-482b-bbe9-82d3ea517263","system_id":"levelo_inurba_marseille","lat":43.25939,"lon":5.40904,"is_reserved":false,"is_disabled":false,"rental_uris":{"android":"levelo://app?vid=0d42b10a-3b15-482b-bbe9-82d3ea517263","ios":"levelo://app?vid=0d42b10a-3b15-482b-bbe9-82d3ea517263"},"vehicle_type_id":"4","last_reported":1727176043,"current_range_meters":28800,"station_id":"ce4bhm92rcd13ifvqglg","pricing_plan_id":"cebpf4jnsgd1na2vs0mg"},{"bike_id":"fe69611f-6ed0-4350-9cf0-f719ab4012ce","system_id":"levelo_inurba_marseille","lat":43.3028,"lon":5.37691,"is_reserved":false,"is_disabled":false,"rental_uris":{"android":"levelo://app?vid=fe69611f-6ed0-4350-9cf0-f719ab4012ce","ios":"levelo://app?vid=fe69611f-6ed0-4350-9cf0-f719ab4012ce"},"vehicle_type_id":"4","last_reported":1727176043,"current_range_meters":38800,"station_id":"ce4bguh2rcd13ifvqcj0","pricing_plan_id":"cebpf4jnsgd1na2vs0mg"},{"bike_id":"e97636b7-9782-4ef2-9018-2aee44ab8ee7","system_id":"levelo_inurba_marseille","lat":43.29277,"lon":5.40123,"is_reserved":false,"is_disabled":false,"rental_uris":{"android":"levelo://app?vid=e97636b7-9782-4ef2-9018-2aee44ab8ee7","ios":"levelo://app?vid=e97636b7-9782-4ef2-9018-2aee44ab8ee7"},"vehicle_type_id":"4","last_reported":1727176043,"current_range_meters":12400,"station_id":"ce4bh312rcd13ifvqdk0","pricing_plan_id":"cebpf4jnsgd1na2vs0mg"},{"bike_id":"03a3d6e2-992e-47df-a362-63da52ff6ce7","system_id":"levelo_inurba_marseille","lat":43.30546,"lon":5.36534,"is_reserved":false,"is_disabled":false,"rental_uris":{"android":"levelo://app?vid=03a3d6e2-992e-47df-a362-63da52ff6ce7","ios":"levelo://app?vid=03a3d6e2-992e-47df-a362-63da52ff6ce7"},"vehicle_type_id":"4","last_reported":1727176043,"current_range_meters":7200,"station_id":"ce4bgs12rcd13ifvqcag","pricing_plan_id":"cebpf4jnsgd1na2vs0mg"},{"bike_id":"7f34c370-5f95-43b1-ac2a-d78c61294077","system_id":"levelo_inurba_marseille","lat":43.26935,"lon":5.40253,"is_reserved":false,"is_disabled":false,"rental_uris":{"android":"levelo://app?vid=7f34c370-5f95-43b1-ac2a-d78c61294077","ios":"levelo://app?vid=7f34c370-5f95-43b1-ac2a-d78c61294077"},"vehicle_type_id":"4","last_reported":1727176043,"current_range_meters":18000,"station_id":"cjm6bp8fraef2m0cb0m0","pricing_plan_id":"cebpf4jnsgd1na2vs0mg"},{"bike_id":"7737b815-6daf-41f0-8354-4b28ba75917f","system_id":"levelo_inurba_marseille","lat":43.30186,"lon":5.39854,"is_reserved":false,"is_disabled":false,"rental_uris":{"android":"levelo://app?vid=7737b815-6daf-41f0-8354-4b28ba75917f","ios":"levelo://app?vid=7737b815-6daf-41f0-8354-4b28ba75917f"},"vehicle_type_id":"4","last_reported":1727176043,"current_range_meters":24000,"station_id":"ce4bgvp2rcd13ifvqct0","pricing_plan_id":"cebpf4jnsgd1na2vs0mg"},{"bike_id":"6af05b22-7037-4454-861c-3b90a9d37c6e","system_id":"levelo_inurba_marseille","lat":43.23155,"lon":5.43705,"is_reserved":false,"is_disabled":false,"rental_uris":{"android":"levelo://app?vid=6af05b22-7037-4454-861c-3b90a9d37c6e","ios":"levelo://app?vid=6af05b22-7037-4454-861c-3b90a9d37c6e"},"vehicle_type_id":"4","last_reported":1727176043,"current_range_meters":20400,"station_id":"ce4bhmp2rcd13ifvqgog","pricing_plan_id":"cebpf4jnsgd1na2vs0mg"},{"bike_id":"ba7a3d20-6e55-413e-9473-fbce90da0acf","system_id":"levelo_inurba_marseille","lat":43.27437,"lon":5.3941,"is_reserved":false,"is_disabled":false,"rental_uris":{"android":"levelo://app?vid=ba7a3d20-6e55-413e-9473-fbce90da0acf","ios":"levelo://app?vid=ba7a3d20-6e55-413e-9473-fbce90da0acf"},"vehicle_type_id":"4","last_reported":1727176043,"current_range_meters":4400,"station_id":"ce4bhdp2rcd13ifvqf20","pricing_plan_id":"cebpf4jnsgd1na2vs0mg"},{"bike_id":"203232da-cb2d-4a12-99f8-36d7610c05e0","system_id":"levelo_inurba_marseille","lat":43.337444,"lon":5.374475,"is_reserved":false,"is_disabled":false,"rental_uris":{"android":"levelo://app?vid=203232da-cb2d-4a12-99f8-36d7610c05e0","ios":"levelo://app?vid=203232da-cb2d-4a12-99f8-36d7610c05e0"},"vehicle_type_id":"4","last_reported":1727176043,"current_range_meters":34800,"station_id":"","pricing_plan_id":"cebpf4jnsgd1na2vs0mg"},{"bike_id":"a0d707e1-1962-44ea-871d-1343e49e7758","system_id":"levelo_inurba_marseille","lat":43.27498,"lon":5.42462,"is_reserved":false,"is_disabled":false,"rental_uris":{"android":"levelo://app?vid=a0d707e1-1962-44ea-871d-1343e49e7758","ios":"levelo://app?vid=a0d707e1-1962-44ea-871d-1343e49e7758"},"vehicle_type_id":"4","last_reported":1727176043,"current_range_meters":33600,"station_id":"ce4bhn92rcd13ifvqgrg","pricing_plan_id":"cebpf4jnsgd1na2vs0mg"},{"bike_id":"d4af3188-051f-4a7d-a203-31b3728fca1e","system_id":"levelo_inurba_marseille","lat":43.2707,"lon":5.42279,"is_reserved":false,"is_disabled":false,"rental_uris":{"android":"levelo://app?vid=d4af3188-051f-4a7d-a203-31b3728fca1e","ios":"levelo://app?vid=d4af3188-051f-4a7d-a203-31b3728fca1e"},"vehicle_type_id":"4","last_reported":1727176043,"current_range_meters":36800,"station_id":"ce4bhk92rcd13ifvqgb0","pricing_plan_id":"cebpf4jnsgd1na2vs0mg"},{"bike_id":"5df992a1-06bf-40f9-ada9-66f2bafad7fd","system_id":"levelo_inurba_marseille","lat":43.31884,"lon":5.40736,"is_reserved":false,"is_disabled":false,"rental_uris":{"android":"levelo://app?vid=5df992a1-06bf-40f9-ada9-66f2bafad7fd","ios":"levelo://app?vid=5df992a1-06bf-40f9-ada9-66f2bafad7fd"},"vehicle_type_id":"4","last_reported":1727176043,"current_range_meters":38000,"station_id":"ce4bhq12rcd13ifvqhig","pricing_plan_id":"cebpf4jnsgd1na2vs0mg"},{"bike_id":"d5c35e12-a7b5-4ad8-a819-0879062b2dc0","system_id":"levelo_inurba_marseille","lat":43.29263,"lon":5.38438,"is_reserved":false,"is_disabled":false,"rental_uris":{"android":"levelo://app?vid=d5c35e12-a7b5-4ad8-a819-0879062b2dc0","ios":"levelo://app?vid=d5c35e12-a7b5-4ad8-a819-0879062b2dc0"},"vehicle_type_id":"4","last_reported":1727176043,"current_range_meters":38400,"station_id":"ce4bh692rcd13ifvqea0","pricing_plan_id":"cebpf4jnsgd1na2vs0mg"},{"bike_id":"9ae27bf6-f242-47c4-8011-a85e1eba32a4","system_id":"levelo_inurba_marseille","lat":43.28406,"lon":5.38186,"is_reserved":false,"is_disabled":false,"rental_uris":{"android":"levelo://app?vid=9ae27bf6-f242-47c4-8011-a85e1eba32a4","ios":"levelo://app?vid=9ae27bf6-f242-47c4-8011-a85e1eba32a4"},"vehicle_type_id":"4","last_reported":1727176043,"current_range_meters":36800,"station_id":"ce4bh412rcd13ifvqdr0","pricing_plan_id":"cebpf4jnsgd1na2vs0mg"},{"bike_id":"f8c704cc-636c-4268-80af-5309e4b09904","system_id":"levelo_inurba_marseille","lat":43.24175,"lon":5.39711,"is_reserved":false,"is_disabled":false,"rental_uris":{"android":"levelo://app?vid=f8c704cc-636c-4268-80af-5309e4b09904","ios":"levelo://app?vid=f8c704cc-636c-4268-80af-5309e4b09904"},"vehicle_type_id":"4","last_reported":1727176043,"current_range_meters":37600,"station_id":"ce4bhn12rcd13ifvqgpg","pricing_plan_id":"cebpf4jnsgd1na2vs0mg"},{"bike_id":"5453ff63-c479-4c4f-90a6-2244bf56c8f3","system_id":"levelo_inurba_marseille","lat":43.2707,"lon":5.42278,"is_reserved":false,"is_disabled":false,"rental_uris":{"android":"levelo://app?vid=5453ff63-c479-4c4f-90a6-2244bf56c8f3","ios":"levelo://app?vid=5453ff63-c479-4c4f-90a6-2244bf56c8f3"},"vehicle_type_id":"4","last_reported":1727176043,"current_range_meters":38800,"station_id":"ce4bhk92rcd13ifvqgb0","pricing_plan_id":"cebpf4jnsgd1na2vs0mg"},{"bike_id":"dcd5dd3a-08f1-4512-8a68-f014a90e785b","system_id":"levelo_inurba_marseille","lat":43.29794,"lon":5.3811,"is_reserved":false,"is_disabled":false,"rental_uris":{"android":"levelo://app?vid=dcd5dd3a-08f1-4512-8a68-f014a90e785b","ios":"levelo://app?vid=dcd5dd3a-08f1-4512-8a68-f014a90e785b"},"vehicle_type_id":"4","last_reported":1727176043,"current_range_meters":17200,"station_id":"ce4bgip2rcd13ifvqbb0","pricing_plan_id":"cebpf4jnsgd1na2vs0mg"},{"bike_id":"4b6cc228-d3e6-44a3-bee8-b0056aed30bf","system_id":"levelo_inurba_marseille","lat":43.23142,"lon":5.43713,"is_reserved":false,"is_disabled":false,"rental_uris":{"android":"levelo://app?vid=4b6cc228-d3e6-44a3-bee8-b0056aed30bf","ios":"levelo://app?vid=4b6cc228-d3e6-44a3-bee8-b0056aed30bf"},"vehicle_type_id":"4","last_reported":1727176043,"current_range_meters":40000,"station_id":"ce4bhmp2rcd13ifvqgog","pricing_plan_id":"cebpf4jnsgd1na2vs0mg"},{"bike_id":"55b0b36c-3077-4a8a-b159-241d1faaea14","system_id":"levelo_inurba_marseille","lat":43.30289,"lon":5.39608,"is_reserved":false,"is_disabled":false,"rental_uris":{"android":"levelo://app?vid=55b0b36c-3077-4a8a-b159-241d1faaea14","ios":"levelo://app?vid=55b0b36c-3077-4a8a-b159-241d1faaea14"},"vehicle_type_id":"4","last_reported":1727176043,"current_range_meters":36000,"station_id":"ce4bh0p2rcd13ifvqd70","pricing_plan_id":"cebpf4jnsgd1na2vs0mg"},{"bike_id":"8cd2232a-9b2c-420f-bcbf-dedebf61565f","system_id":"levelo_inurba_marseille","lat":43.2784,"lon":5.39208,"is_reserved":false,"is_disabled":false,"rental_uris":{"android":"levelo://app?vid=8cd2232a-9b2c-420f-bcbf-dedebf61565f","ios":"levelo://app?vid=8cd2232a-9b2c-420f-bcbf-dedebf61565f"},"vehicle_type_id":"4","last_reported":1727176043,"current_range_meters":19600,"station_id":"ce4bhjp2rcd13ifvqga0","pricing_plan_id":"cebpf4jnsgd1na2vs0mg"},{"bike_id":"7a8458d5-44ac-4f2e-abef-3f01eb31f7ca","system_id":"levelo_inurba_marseille","lat":43.337444,"lon":5.374475,"is_reserved":false,"is_disabled":false,"rental_uris":{"android":"levelo://app?vid=7a8458d5-44ac-4f2e-abef-3f01eb31f7ca","ios":"levelo://app?vid=7a8458d5-44ac-4f2e-abef-3f01eb31f7ca"},"vehicle_type_id":"4","last_reported":1727176043,"current_range_meters":22000,"station_id":"","pricing_plan_id":"cebpf4jnsgd1na2vs0mg"},{"bike_id":"ef1087a3-2aa8-49da-a1ea-c5c69068f32c","system_id":"levelo_inurba_marseille","lat":43.26687,"lon":5.38268,"is_reserved":false,"is_disabled":false,"rental_uris":{"android":"levelo://app?vid=ef1087a3-2aa8-49da-a1ea-c5c69068f32c","ios":"levelo://app?vid=ef1087a3-2aa8-49da-a1ea-c5c69068f32c"},"vehicle_type_id":"4","last_reported":1727176043,"current_range_meters":24400,"station_id":"ce4bhg92rcd13ifvqf90","pricing_plan_id":"cebpf4jnsgd1na2vs0mg"},{"bike_id":"c9b5ec6f-9235-414f-8086-a847b21c71d9","system_id":"levelo_inurba_marseille","lat":43.30298,"lon":5.36909,"is_reserved":false,"is_disabled":false,"rental_uris":{"android":"levelo://app?vid=c9b5ec6f-9235-414f-8086-a847b21c71d9","ios":"levelo://app?vid=c9b5ec6f-9235-414f-8086-a847b21c71d9"},"vehicle_type_id":"4","last_reported":1727176043,"current_range_meters":30400,"station_id":"ce4bgqh2rcd13ifvqc5g","pricing_plan_id":"cebpf4jnsgd1na2vs0mg"},{"bike_id":"6cb0483f-8d7b-4ccb-82ca-c4142e2a4ff9","system_id":"levelo_inurba_marseille","lat":43.30433,"lon":5.38894,"is_reserved":false,"is_disabled":false,"rental_uris":{"android":"levelo://app?vid=6cb0483f-8d7b-4ccb-82ca-c4142e2a4ff9","ios":"levelo://app?vid=6cb0483f-8d7b-4ccb-82ca-c4142e2a4ff9"},"vehicle_type_id":"4","last_reported":1727176043,"current_range_meters":38800,"station_id":"ce4bgk12rcd13ifvqbi0","pricing_plan_id":"cebpf4jnsgd1na2vs0mg"},{"bike_id":"ebf5c734-b1fe-4fcc-88dc-f9132da6918b","system_id":"levelo_inurba_marseille","lat":43.304679,"lon":5.378967,"is_reserved":false,"is_disabled":false,"rental_uris":{"android":"levelo://app?vid=ebf5c734-b1fe-4fcc-88dc-f9132da6918b","ios":"levelo://app?vid=ebf5c734-b1fe-4fcc-88dc-f9132da6918b"},"vehicle_type_id":"4","last_reported":1727176043,"current_range_meters":37600,"station_id":"ce4bgup2rcd13ifvqcn0","pricing_plan_id":"cebpf4jnsgd1na2vs0mg"},{"bike_id":"3a9fadd1-d72d-4760-95a7-ef922057e449","system_id":"levelo_inurba_marseille","lat":43.24544,"lon":5.39521,"is_reserved":false,"is_disabled":false,"rental_uris":{"android":"levelo://app?vid=3a9fadd1-d72d-4760-95a7-ef922057e449","ios":"levelo://app?vid=3a9fadd1-d72d-4760-95a7-ef922057e449"},"vehicle_type_id":"4","last_reported":1727176043,"current_range_meters":14400,"station_id":"ce4bhlp2rcd13ifvqgjg","pricing_plan_id":"cebpf4jnsgd1na2vs0mg"},{"bike_id":"52c997c6-dd4a-4a8c-bbcf-dbeed832e0a2","system_id":"levelo_inurba_marseille","lat":43.32657,"lon":5.40994,"is_reserved":false,"is_disabled":false,"rental_uris":{"android":"levelo://app?vid=52c997c6-dd4a-4a8c-bbcf-dbeed832e0a2","ios":"levelo://app?vid=52c997c6-dd4a-4a8c-bbcf-dbeed832e0a2"},"vehicle_type_id":"4","last_reported":1727176043,"current_range_meters":38800,"station_id":"ce4bhpp2rcd13ifvqhgg","pricing_plan_id":"cebpf4jnsgd1na2vs0mg"},{"bike_id":"7b6a2ec7-28cf-4cf5-b945-8e6dca0b3076","system_id":"levelo_inurba_marseille","lat":43.30533,"lon":5.3671,"is_reserved":false,"is_disabled":false,"rental_uris":{"android":"levelo://app?vid=7b6a2ec7-28cf-4cf5-b945-8e6dca0b3076","ios":"levelo://app?vid=7b6a2ec7-28cf-4cf5-b945-8e6dca0b3076"},"vehicle_type_id":"4","last_reported":1727176043,"current_range_meters":32400,"station_id":"ce4bgrp2rcd13ifvqc9g","pricing_plan_id":"cebpf4jnsgd1na2vs0mg"},{"bike_id":"b61bae46-a2da-4d02-9e04-485886ec0612","system_id":"levelo_inurba_marseille","lat":43.25003,"lon":5.38928,"is_reserved":false,"is_disabled":false,"rental_uris":{"android":"levelo://app?vid=b61bae46-a2da-4d02-9e04-485886ec0612","ios":"levelo://app?vid=b61bae46-a2da-4d02-9e04-485886ec0612"},"vehicle_type_id":"4","last_reported":1727176043,"current_range_meters":3200,"station_id":"ce4bhgp2rcd13ifvqfd0","pricing_plan_id":"cebpf4jnsgd1na2vs0mg"},{"bike_id":"c8243bdf-7063-48e0-83f5-bba459ffe98b","system_id":"levelo_inurba_marseille","lat":43.24077,"lon":5.37754,"is_reserved":false,"is_disabled":false,"rental_uris":{"android":"levelo://app?vid=c8243bdf-7063-48e0-83f5-bba459ffe98b","ios":"levelo://app?vid=c8243bdf-7063-48e0-83f5-bba459ffe98b"},"vehicle_type_id":"4","last_reported":1727176043,"current_range_meters":36800,"station_id":"ce4bhnp2rcd13ifvqgvg","pricing_plan_id":"cebpf4jnsgd1na2vs0mg"},{"bike_id":"2bb34e6d-f037-4009-aa61-80dd39e322b7","system_id":"levelo_inurba_marseille","lat":43.31266,"lon":5.40182,"is_reserved":false,"is_disabled":false,"rental_uris":{"android":"levelo://app?vid=2bb34e6d-f037-4009-aa61-80dd39e322b7","ios":"levelo://app?vid=2bb34e6d-f037-4009-aa61-80dd39e322b7"},"vehicle_type_id":"4","last_reported":1727176043,"current_range_meters":36800,"station_id":"ce4bh092rcd13ifvqd30","pricing_plan_id":"cebpf4jnsgd1na2vs0mg"},{"bike_id":"03409d1a-a416-4d64-af15-2f1fc04e5663","system_id":"levelo_inurba_marseille","lat":43.23148,"lon":5.43725,"is_reserved":false,"is_disabled":false,"rental_uris":{"android":"levelo://app?vid=03409d1a-a416-4d64-af15-2f1fc04e5663","ios":"levelo://app?vid=03409d1a-a416-4d64-af15-2f1fc04e5663"},"vehicle_type_id":"4","last_reported":1727176043,"current_range_meters":25600,"station_id":"ce4bhmp2rcd13ifvqgog","pricing_plan_id":"cebpf4jnsgd1na2vs0mg"},{"bike_id":"6979d0b4-a1f3-4e96-a880-9fd4f35bf761","system_id":"levelo_inurba_marseille","lat":43.301516,"lon":5.380786,"is_reserved":false,"is_disabled":false,"rental_uris":{"android":"levelo://app?vid=6979d0b4-a1f3-4e96-a880-9fd4f35bf761","ios":"levelo://app?vid=6979d0b4-a1f3-4e96-a880-9fd4f35bf761"},"vehicle_type_id":"4","last_reported":1727176043,"current_range_meters":31200,"station_id":"ce4bgjp2rcd13ifvqbh0","pricing_plan_id":"cebpf4jnsgd1na2vs0mg"},{"bike_id":"0187dbe4-866c-4031-9cbb-94cdd92f6a82","system_id":"levelo_inurba_marseille","lat":43.29258,"lon":5.36662,"is_reserved":false,"is_disabled":false,"rental_uris":{"android":"levelo://app?vid=0187dbe4-866c-4031-9cbb-94cdd92f6a82","ios":"levelo://app?vid=0187dbe4-866c-4031-9cbb-94cdd92f6a82"},"vehicle_type_id":"4","last_reported":1727176043,"current_range_meters":4400,"station_id":"","pricing_plan_id":"cebpf4jnsgd1na2vs0mg"},{"bike_id":"9fadec36-32c2-40ce-86e3-222ef791ca3d","system_id":"levelo_inurba_marseille","lat":43.29849,"lon":5.36263,"is_reserved":false,"is_disabled":false,"rental_uris":{"android":"levelo://app?vid=9fadec36-32c2-40ce-86e3-222ef791ca3d","ios":"levelo://app?vid=9fadec36-32c2-40ce-86e3-222ef791ca3d"},"vehicle_type_id":"4","last_reported":1727176043,"current_range_meters":24800,"station_id":"ce4bgpp2rcd13ifvqc3g","pricing_plan_id":"cebpf4jnsgd1na2vs0mg"},{"bike_id":"c29db812-a2ba-4b10-8014-dfbcc2e5e72c","system_id":"levelo_inurba_marseille","lat":43.26019,"lon":5.37586,"is_reserved":false,"is_disabled":false,"rental_uris":{"android":"levelo://app?vid=c29db812-a2ba-4b10-8014-dfbcc2e5e72c","ios":"levelo://app?vid=c29db812-a2ba-4b10-8014-dfbcc2e5e72c"},"vehicle_type_id":"4","last_reported":1727176043,"current_range_meters":3200,"station_id":"ce4bhgh2rcd13ifvqfa0","pricing_plan_id":"cebpf4jnsgd1na2vs0mg"},{"bike_id":"17ef1c59-b03c-4384-89d2-7ffab92f7c8a","system_id":"levelo_inurba_marseille","lat":43.274597,"lon":5.394549,"is_reserved":false,"is_disabled":false,"rental_uris":{"android":"levelo://app?vid=17ef1c59-b03c-4384-89d2-7ffab92f7c8a","ios":"levelo://app?vid=17ef1c59-b03c-4384-89d2-7ffab92f7c8a"},"vehicle_type_id":"4","last_reported":1727176043,"current_range_meters":25200,"station_id":"ce4bhdp2rcd13ifvqf20","pricing_plan_id":"cebpf4jnsgd1na2vs0mg"},{"bike_id":"d513174b-a0e7-45e1-b7f5-fd5c13bff9f9","system_id":"levelo_inurba_marseille","lat":43.28663,"lon":5.38614,"is_reserved":false,"is_disabled":false,"rental_uris":{"android":"levelo://app?vid=d513174b-a0e7-45e1-b7f5-fd5c13bff9f9","ios":"levelo://app?vid=d513174b-a0e7-45e1-b7f5-fd5c13bff9f9"},"vehicle_type_id":"4","last_reported":1727176043,"current_range_meters":33200,"station_id":"ce4bh492rcd13ifvqdug","pricing_plan_id":"cebpf4jnsgd1na2vs0mg"},{"bike_id":"44a8a61c-997b-400e-8a2b-961413edaa1d","system_id":"levelo_inurba_marseille","lat":43.29853,"lon":5.36274,"is_reserved":false,"is_disabled":false,"rental_uris":{"android":"levelo://app?vid=44a8a61c-997b-400e-8a2b-961413edaa1d","ios":"levelo://app?vid=44a8a61c-997b-400e-8a2b-961413edaa1d"},"vehicle_type_id":"4","last_reported":1727176043,"current_range_meters":38800,"station_id":"ce4bgpp2rcd13ifvqc3g","pricing_plan_id":"cebpf4jnsgd1na2vs0mg"},{"bike_id":"cbfdac44-048a-45fc-a15a-fc4f9adac39a","system_id":"levelo_inurba_marseille","lat":43.305942,"lon":5.393626,"is_reserved":false,"is_disabled":false,"rental_uris":{"android":"levelo://app?vid=cbfdac44-048a-45fc-a15a-fc4f9adac39a","ios":"levelo://app?vid=cbfdac44-048a-45fc-a15a-fc4f9adac39a"},"vehicle_type_id":"4","last_reported":1727176043,"current_range_meters":25200,"station_id":"ce4bh0p2rcd13ifvqd80","pricing_plan_id":"cebpf4jnsgd1na2vs0mg"},{"bike_id":"87da5202-59d4-4e9d-a627-50c812ca8ee2","system_id":"levelo_inurba_marseille","lat":43.25902,"lon":5.40867,"is_reserved":false,"is_disabled":false,"rental_uris":{"android":"levelo://app?vid=87da5202-59d4-4e9d-a627-50c812ca8ee2","ios":"levelo://app?vid=87da5202-59d4-4e9d-a627-50c812ca8ee2"},"vehicle_type_id":"4","last_reported":1727176043,"current_range_meters":28800,"station_id":"ce4bhm92rcd13ifvqglg","pricing_plan_id":"cebpf4jnsgd1na2vs0mg"},{"bike_id":"10fe78bb-3c1f-4260-bc5b-42d62e46c324","system_id":"levelo_inurba_marseille","lat":43.29156,"lon":5.38605,"is_reserved":false,"is_disabled":false,"rental_uris":{"android":"levelo://app?vid=10fe78bb-3c1f-4260-bc5b-42d62e46c324","ios":"levelo://app?vid=10fe78bb-3c1f-4260-bc5b-42d62e46c324"},"vehicle_type_id":"4","last_reported":1727176043,"current_range_meters":36800,"station_id":"","pricing_plan_id":"cebpf4jnsgd1na2vs0mg"},{"bike_id":"82485995-fe24-4e7e-8681-27eeb66115bf","system_id":"levelo_inurba_marseille","lat":43.32527,"lon":5.41449,"is_reserved":false,"is_disabled":false,"rental_uris":{"android":"levelo://app?vid=82485995-fe24-4e7e-8681-27eeb66115bf","ios":"levelo://app?vid=82485995-fe24-4e7e-8681-27eeb66115bf"},"vehicle_type_id":"4","last_reported":1727176043,"current_range_meters":16000,"station_id":"ce4bhq12rcd13ifvqhhg","pricing_plan_id":"cebpf4jnsgd1na2vs0mg"},{"bike_id":"cfb76313-aeda-42a6-aa7a-6136e23cfa03","system_id":"levelo_inurba_marseille","lat":43.312218,"lon":5.368613,"is_reserved":false,"is_disabled":false,"rental_uris":{"android":"levelo://app?vid=cfb76313-aeda-42a6-aa7a-6136e23cfa03","ios":"levelo://app?vid=cfb76313-aeda-42a6-aa7a-6136e23cfa03"},"vehicle_type_id":"4","last_reported":1727176043,"current_range_meters":37600,"station_id":"ce4bgl92rcd13ifvqbq0","pricing_plan_id":"cebpf4jnsgd1na2vs0mg"},{"bike_id":"00cd35ef-952b-4788-94fe-dbb3cb5fa024","system_id":"levelo_inurba_marseille","lat":43.24547,"lon":5.39525,"is_reserved":false,"is_disabled":false,"rental_uris":{"android":"levelo://app?vid=00cd35ef-952b-4788-94fe-dbb3cb5fa024","ios":"levelo://app?vid=00cd35ef-952b-4788-94fe-dbb3cb5fa024"},"vehicle_type_id":"4","last_reported":1727176043,"current_range_meters":26800,"station_id":"ce4bhlp2rcd13ifvqgjg","pricing_plan_id":"cebpf4jnsgd1na2vs0mg"},{"bike_id":"ddde8305-71d0-45bc-92bc-fb043a21c1e8","system_id":"levelo_inurba_marseille","lat":43.301819,"lon":5.411829,"is_reserved":false,"is_disabled":false,"rental_uris":{"android":"levelo://app?vid=ddde8305-71d0-45bc-92bc-fb043a21c1e8","ios":"levelo://app?vid=ddde8305-71d0-45bc-92bc-fb043a21c1e8"},"vehicle_type_id":"4","last_reported":1727176043,"current_range_meters":28000,"station_id":"ce4bhp12rcd13ifvqh9g","pricing_plan_id":"cebpf4jnsgd1na2vs0mg"},{"bike_id":"c35ced23-7af7-4bee-aa1c-f7b5e7924ca7","system_id":"levelo_inurba_marseille","lat":43.29236,"lon":5.3613,"is_reserved":false,"is_disabled":false,"rental_uris":{"android":"levelo://app?vid=c35ced23-7af7-4bee-aa1c-f7b5e7924ca7","ios":"levelo://app?vid=c35ced23-7af7-4bee-aa1c-f7b5e7924ca7"},"vehicle_type_id":"4","last_reported":1727176043,"current_range_meters":29600,"station_id":"","pricing_plan_id":"cebpf4jnsgd1na2vs0mg"},{"bike_id":"5acb3404-4be0-4bc6-9e6e-5541e9ec50c5","system_id":"levelo_inurba_marseille","lat":43.31683,"lon":5.40477,"is_reserved":false,"is_disabled":false,"rental_uris":{"android":"levelo://app?vid=5acb3404-4be0-4bc6-9e6e-5541e9ec50c5","ios":"levelo://app?vid=5acb3404-4be0-4bc6-9e6e-5541e9ec50c5"},"vehicle_type_id":"4","last_reported":1727176043,"current_range_meters":17200,"station_id":"ce4bh012rcd13ifvqd00","pricing_plan_id":"cebpf4jnsgd1na2vs0mg"},{"bike_id":"3c8b0282-d0f9-46f6-8aeb-03cabe2a4232","system_id":"levelo_inurba_marseille","lat":43.30948,"lon":5.39045,"is_reserved":false,"is_disabled":false,"rental_uris":{"android":"levelo://app?vid=3c8b0282-d0f9-46f6-8aeb-03cabe2a4232","ios":"levelo://app?vid=3c8b0282-d0f9-46f6-8aeb-03cabe2a4232"},"vehicle_type_id":"4","last_reported":1727176043,"current_range_meters":17600,"station_id":"ce4bgup2rcd13ifvqco0","pricing_plan_id":"cebpf4jnsgd1na2vs0mg"},{"bike_id":"b17b06ae-c6b3-4f34-800e-9956af17fe98","system_id":"levelo_inurba_marseille","lat":43.28569,"lon":5.3949,"is_reserved":false,"is_disabled":false,"rental_uris":{"android":"levelo://app?vid=b17b06ae-c6b3-4f34-800e-9956af17fe98","ios":"levelo://app?vid=b17b06ae-c6b3-4f34-800e-9956af17fe98"},"vehicle_type_id":"4","last_reported":1727176043,"current_range_meters":30400,"station_id":"ce4bh292rcd13ifvqdg0","pricing_plan_id":"cebpf4jnsgd1na2vs0mg"},{"bike_id":"a57c0cca-328a-4f0a-b679-e1aacee7d643","system_id":"levelo_inurba_marseille","lat":43.27985,"lon":5.41659,"is_reserved":false,"is_disabled":false,"rental_uris":{"android":"levelo://app?vid=a57c0cca-328a-4f0a-b679-e1aacee7d643","ios":"levelo://app?vid=a57c0cca-328a-4f0a-b679-e1aacee7d643"},"vehicle_type_id":"4","last_reported":1727176043,"current_range_meters":10000,"station_id":"ce4bho12rcd13ifvqh1g","pricing_plan_id":"cebpf4jnsgd1na2vs0mg"},{"bike_id":"3aabf19b-419b-4a5d-9dba-c459214ecaa6","system_id":"levelo_inurba_marseille","lat":43.279112,"lon":5.395683,"is_reserved":false,"is_disabled":false,"rental_uris":{"android":"levelo://app?vid=3aabf19b-419b-4a5d-9dba-c459214ecaa6","ios":"levelo://app?vid=3aabf19b-419b-4a5d-9dba-c459214ecaa6"},"vehicle_type_id":"4","last_reported":1727176043,"current_range_meters":37600,"station_id":"ce4bhf92rcd13ifvqf40","pricing_plan_id":"cebpf4jnsgd1na2vs0mg"},{"bike_id":"d3f33bc2-ec01-44e1-8624-72c29089e848","system_id":"levelo_inurba_marseille","lat":43.3055,"lon":5.36536,"is_reserved":false,"is_disabled":false,"rental_uris":{"android":"levelo://app?vid=d3f33bc2-ec01-44e1-8624-72c29089e848","ios":"levelo://app?vid=d3f33bc2-ec01-44e1-8624-72c29089e848"},"vehicle_type_id":"4","last_reported":1727176043,"current_range_meters":29600,"station_id":"ce4bgs12rcd13ifvqcag","pricing_plan_id":"cebpf4jnsgd1na2vs0mg"},{"bike_id":"e7efd04e-d977-48fe-9416-f096aaf29bbf","system_id":"levelo_inurba_marseille","lat":43.23197,"lon":5.35555,"is_reserved":false,"is_disabled":false,"rental_uris":{"android":"levelo://app?vid=e7efd04e-d977-48fe-9416-f096aaf29bbf","ios":"levelo://app?vid=e7efd04e-d977-48fe-9416-f096aaf29bbf"},"vehicle_type_id":"4","last_reported":1727176043,"current_range_meters":26800,"station_id":"ce4bhu92rcd13ifvqi70","pricing_plan_id":"cebpf4jnsgd1na2vs0mg"},{"bike_id":"a578be38-e360-4614-972e-bddd8629f052","system_id":"levelo_inurba_marseille","lat":43.337444,"lon":5.374475,"is_reserved":false,"is_disabled":false,"rental_uris":{"android":"levelo://app?vid=a578be38-e360-4614-972e-bddd8629f052","ios":"levelo://app?vid=a578be38-e360-4614-972e-bddd8629f052"},"vehicle_type_id":"4","last_reported":1727176043,"current_range_meters":19600,"station_id":"","pricing_plan_id":"cebpf4jnsgd1na2vs0mg"},{"bike_id":"c00cbaf3-673a-41dc-aefd-e91c0d90b257","system_id":"levelo_inurba_marseille","lat":43.23063,"lon":5.35493,"is_reserved":false,"is_disabled":false,"rental_uris":{"android":"levelo://app?vid=c00cbaf3-673a-41dc-aefd-e91c0d90b257","ios":"levelo://app?vid=c00cbaf3-673a-41dc-aefd-e91c0d90b257"},"vehicle_type_id":"4","last_reported":1727176043,"current_range_meters":28800,"station_id":"cpo3342slgdg3j2ifvpg","pricing_plan_id":"cebpf4jnsgd1na2vs0mg"},{"bike_id":"76a852ec-e60b-49c4-a0c5-0eb314c5c3be","system_id":"levelo_inurba_marseille","lat":43.30267,"lon":5.37707,"is_reserved":false,"is_disabled":false,"rental_uris":{"android":"levelo://app?vid=76a852ec-e60b-49c4-a0c5-0eb314c5c3be","ios":"levelo://app?vid=76a852ec-e60b-49c4-a0c5-0eb314c5c3be"},"vehicle_type_id":"4","last_reported":1727176043,"current_range_meters":28400,"station_id":"ce4bguh2rcd13ifvqcj0","pricing_plan_id":"cebpf4jnsgd1na2vs0mg"},{"bike_id":"0206f0db-0077-454e-ac41-48c62a7ceaf0","system_id":"levelo_inurba_marseille","lat":43.30311,"lon":5.36895,"is_reserved":false,"is_disabled":false,"rental_uris":{"android":"levelo://app?vid=0206f0db-0077-454e-ac41-48c62a7ceaf0","ios":"levelo://app?vid=0206f0db-0077-454e-ac41-48c62a7ceaf0"},"vehicle_type_id":"4","last_reported":1727176043,"current_range_meters":20800,"station_id":"ce4bgqh2rcd13ifvqc5g","pricing_plan_id":"cebpf4jnsgd1na2vs0mg"},{"bike_id":"1cf9c6ad-a18e-4581-966a-e4580ac983e8","system_id":"levelo_inurba_marseille","lat":43.30159,"lon":5.38076,"is_reserved":false,"is_disabled":false,"rental_uris":{"android":"levelo://app?vid=1cf9c6ad-a18e-4581-966a-e4580ac983e8","ios":"levelo://app?vid=1cf9c6ad-a18e-4581-966a-e4580ac983e8"},"vehicle_type_id":"4","last_reported":1727176043,"current_range_meters":36800,"station_id":"ce4bgjp2rcd13ifvqbh0","pricing_plan_id":"cebpf4jnsgd1na2vs0mg"},{"bike_id":"ecb70881-b110-48a8-b751-24b4690d4031","system_id":"levelo_inurba_marseille","lat":43.23204,"lon":5.39971,"is_reserved":false,"is_disabled":false,"rental_uris":{"android":"levelo://app?vid=ecb70881-b110-48a8-b751-24b4690d4031","ios":"levelo://app?vid=ecb70881-b110-48a8-b751-24b4690d4031"},"vehicle_type_id":"4","last_reported":1727176043,"current_range_meters":16400,"station_id":"ce4bhn12rcd13ifvqgqg","pricing_plan_id":"cebpf4jnsgd1na2vs0mg"},{"bike_id":"30636caa-8492-4c19-b136-588f8dc8d9f6","system_id":"levelo_inurba_marseille","lat":43.2962,"lon":5.37151,"is_reserved":false,"is_disabled":false,"rental_uris":{"android":"levelo://app?vid=30636caa-8492-4c19-b136-588f8dc8d9f6","ios":"levelo://app?vid=30636caa-8492-4c19-b136-588f8dc8d9f6"},"vehicle_type_id":"4","last_reported":1727176043,"current_range_meters":37600,"station_id":"ce4bgnh2rcd13ifvqc0g","pricing_plan_id":"cebpf4jnsgd1na2vs0mg"},{"bike_id":"bf6594ca-d169-4d1a-b54d-a6f48e526e35","system_id":"levelo_inurba_marseille","lat":43.29567,"lon":5.3754,"is_reserved":false,"is_disabled":false,"rental_uris":{"android":"levelo://app?vid=bf6594ca-d169-4d1a-b54d-a6f48e526e35","ios":"levelo://app?vid=bf6594ca-d169-4d1a-b54d-a6f48e526e35"},"vehicle_type_id":"4","last_reported":1727176043,"current_range_meters":10000,"station_id":"ce4bgh92rcd13ifvqb50","pricing_plan_id":"cebpf4jnsgd1na2vs0mg"},{"bike_id":"25bd7405-be80-4a77-a761-8a1efed52652","system_id":"levelo_inurba_marseille","lat":43.298979,"lon":5.436602,"is_reserved":false,"is_disabled":false,"rental_uris":{"android":"levelo://app?vid=25bd7405-be80-4a77-a761-8a1efed52652","ios":"levelo://app?vid=25bd7405-be80-4a77-a761-8a1efed52652"},"vehicle_type_id":"4","last_reported":1727176043,"current_range_meters":4800,"station_id":"ce4bhpp2rcd13ifvqhfg","pricing_plan_id":"cebpf4jnsgd1na2vs0mg"},{"bike_id":"96086254-c636-4e5b-8975-25742631d3ee","system_id":"levelo_inurba_marseille","lat":43.23154,"lon":5.4371,"is_reserved":false,"is_disabled":false,"rental_uris":{"android":"levelo://app?vid=96086254-c636-4e5b-8975-25742631d3ee","ios":"levelo://app?vid=96086254-c636-4e5b-8975-25742631d3ee"},"vehicle_type_id":"4","last_reported":1727176043,"current_range_meters":17200,"station_id":"ce4bhmp2rcd13ifvqgog","pricing_plan_id":"cebpf4jnsgd1na2vs0mg"},{"bike_id":"96b51b96-9548-4c96-b641-9b1d1511195a","system_id":"levelo_inurba_marseille","lat":43.31369,"lon":5.38498,"is_reserved":false,"is_disabled":false,"rental_uris":{"android":"levelo://app?vid=96b51b96-9548-4c96-b641-9b1d1511195a","ios":"levelo://app?vid=96b51b96-9548-4c96-b641-9b1d1511195a"},"vehicle_type_id":"4","last_reported":1727176043,"current_range_meters":11600,"station_id":"ce4bgt92rcd13ifvqcf0","pricing_plan_id":"cebpf4jnsgd1na2vs0mg"},{"bike_id":"a1dacc97-ea0d-4276-a0fd-f91a0191cd9e","system_id":"levelo_inurba_marseille","lat":43.303104,"lon":5.368942,"is_reserved":false,"is_disabled":false,"rental_uris":{"android":"levelo://app?vid=a1dacc97-ea0d-4276-a0fd-f91a0191cd9e","ios":"levelo://app?vid=a1dacc97-ea0d-4276-a0fd-f91a0191cd9e"},"vehicle_type_id":"4","last_reported":1727176043,"current_range_meters":29600,"station_id":"ce4bgqh2rcd13ifvqc5g","pricing_plan_id":"cebpf4jnsgd1na2vs0mg"},{"bike_id":"bef6f3d4-9361-4b01-9bec-038db382c46f","system_id":"levelo_inurba_marseille","lat":43.306065,"lon":5.393659,"is_reserved":false,"is_disabled":false,"rental_uris":{"android":"levelo://app?vid=bef6f3d4-9361-4b01-9bec-038db382c46f","ios":"levelo://app?vid=bef6f3d4-9361-4b01-9bec-038db382c46f"},"vehicle_type_id":"4","last_reported":1727176043,"current_range_meters":20000,"station_id":"ce4bh0p2rcd13ifvqd80","pricing_plan_id":"cebpf4jnsgd1na2vs0mg"},{"bike_id":"633f2106-a60c-40e6-8cfb-64f986a9b453","system_id":"levelo_inurba_marseille","lat":43.30905,"lon":5.36854,"is_reserved":false,"is_disabled":false,"rental_uris":{"android":"levelo://app?vid=633f2106-a60c-40e6-8cfb-64f986a9b453","ios":"levelo://app?vid=633f2106-a60c-40e6-8cfb-64f986a9b453"},"vehicle_type_id":"4","last_reported":1727176043,"current_range_meters":32000,"station_id":"ce4bgn92rcd13ifvqbvg","pricing_plan_id":"cebpf4jnsgd1na2vs0mg"},{"bike_id":"1d40bd7e-43b4-4461-8cbc-00869ab06248","system_id":"levelo_inurba_marseille","lat":43.301475,"lon":5.387855,"is_reserved":false,"is_disabled":false,"rental_uris":{"android":"levelo://app?vid=1d40bd7e-43b4-4461-8cbc-00869ab06248","ios":"levelo://app?vid=1d40bd7e-43b4-4461-8cbc-00869ab06248"},"vehicle_type_id":"4","last_reported":1727176043,"current_range_meters":36800,"station_id":"ce4bghh2rcd13ifvqb60","pricing_plan_id":"cebpf4jnsgd1na2vs0mg"},{"bike_id":"eea2cd5a-ea70-49e4-b38f-c464fb6c5cc3","system_id":"levelo_inurba_marseille","lat":43.337444,"lon":5.374475,"is_reserved":false,"is_disabled":false,"rental_uris":{"android":"levelo://app?vid=eea2cd5a-ea70-49e4-b38f-c464fb6c5cc3","ios":"levelo://app?vid=eea2cd5a-ea70-49e4-b38f-c464fb6c5cc3"},"vehicle_type_id":"4","last_reported":1727176043,"current_range_meters":35200,"station_id":"","pricing_plan_id":"cebpf4jnsgd1na2vs0mg"},{"bike_id":"56ca6ae0-f5c2-4073-bc76-be3067eed049","system_id":"levelo_inurba_marseille","lat":43.29555,"lon":5.42292,"is_reserved":false,"is_disabled":false,"rental_uris":{"android":"levelo://app?vid=56ca6ae0-f5c2-4073-bc76-be3067eed049","ios":"levelo://app?vid=56ca6ae0-f5c2-4073-bc76-be3067eed049"},"vehicle_type_id":"4","last_reported":1727176043,"current_range_meters":18800,"station_id":"ce4bhph2rcd13ifvqhdg","pricing_plan_id":"cebpf4jnsgd1na2vs0mg"},{"bike_id":"c378e95a-456f-4ddd-9050-c5310c739cd2","system_id":"levelo_inurba_marseille","lat":43.25118,"lon":5.40317,"is_reserved":false,"is_disabled":false,"rental_uris":{"android":"levelo://app?vid=c378e95a-456f-4ddd-9050-c5310c739cd2","ios":"levelo://app?vid=c378e95a-456f-4ddd-9050-c5310c739cd2"},"vehicle_type_id":"4","last_reported":1727176043,"current_range_meters":10000,"station_id":"ce4bhlh2rcd13ifvqgig","pricing_plan_id":"cebpf4jnsgd1na2vs0mg"},{"bike_id":"1da69dba-953c-4d21-af9a-699bd6b421bd","system_id":"levelo_inurba_marseille","lat":43.31346,"lon":5.36713,"is_reserved":false,"is_disabled":false,"rental_uris":{"android":"levelo://app?vid=1da69dba-953c-4d21-af9a-699bd6b421bd","ios":"levelo://app?vid=1da69dba-953c-4d21-af9a-699bd6b421bd"},"vehicle_type_id":"4","last_reported":1727176043,"current_range_meters":38800,"station_id":"ce4bgr92rcd13ifvqc6g","pricing_plan_id":"cebpf4jnsgd1na2vs0mg"},{"bike_id":"b75a1aa6-99dc-497c-84d8-2917958ec05e","system_id":"levelo_inurba_marseille","lat":43.26958,"lon":5.38636,"is_reserved":false,"is_disabled":false,"rental_uris":{"android":"levelo://app?vid=b75a1aa6-99dc-497c-84d8-2917958ec05e","ios":"levelo://app?vid=b75a1aa6-99dc-497c-84d8-2917958ec05e"},"vehicle_type_id":"4","last_reported":1727176043,"current_range_meters":30400,"station_id":"ce4bhh92rcd13ifvqfh0","pricing_plan_id":"cebpf4jnsgd1na2vs0mg"},{"bike_id":"929a92e2-2c06-4bee-bf0d-0fb22e0837a1","system_id":"levelo_inurba_marseille","lat":43.273111,"lon":5.390864,"is_reserved":false,"is_disabled":false,"rental_uris":{"android":"levelo://app?vid=929a92e2-2c06-4bee-bf0d-0fb22e0837a1","ios":"levelo://app?vid=929a92e2-2c06-4bee-bf0d-0fb22e0837a1"},"vehicle_type_id":"4","last_reported":1727176043,"current_range_meters":26000,"station_id":"ce4bhgp2rcd13ifvqfe0","pricing_plan_id":"cebpf4jnsgd1na2vs0mg"},{"bike_id":"11792274-c4e1-4dcb-b2a1-424fa6a64f5a","system_id":"levelo_inurba_marseille","lat":43.25939,"lon":5.40907,"is_reserved":false,"is_disabled":false,"rental_uris":{"android":"levelo://app?vid=11792274-c4e1-4dcb-b2a1-424fa6a64f5a","ios":"levelo://app?vid=11792274-c4e1-4dcb-b2a1-424fa6a64f5a"},"vehicle_type_id":"4","last_reported":1727176043,"current_range_meters":14800,"station_id":"ce4bhm92rcd13ifvqglg","pricing_plan_id":"cebpf4jnsgd1na2vs0mg"},{"bike_id":"e59a9260-c0b5-4ade-b8d9-6965b1134efc","system_id":"levelo_inurba_marseille","lat":43.27431,"lon":5.39417,"is_reserved":false,"is_disabled":false,"rental_uris":{"android":"levelo://app?vid=e59a9260-c0b5-4ade-b8d9-6965b1134efc","ios":"levelo://app?vid=e59a9260-c0b5-4ade-b8d9-6965b1134efc"},"vehicle_type_id":"4","last_reported":1727176043,"current_range_meters":38400,"station_id":"ce4bhdp2rcd13ifvqf20","pricing_plan_id":"cebpf4jnsgd1na2vs0mg"},{"bike_id":"487537f2-89c2-4030-a61c-a25bc2c893bb","system_id":"levelo_inurba_marseille","lat":43.2318,"lon":5.39992,"is_reserved":false,"is_disabled":false,"rental_uris":{"android":"levelo://app?vid=487537f2-89c2-4030-a61c-a25bc2c893bb","ios":"levelo://app?vid=487537f2-89c2-4030-a61c-a25bc2c893bb"},"vehicle_type_id":"4","last_reported":1727176043,"current_range_meters":3200,"station_id":"ce4bhn12rcd13ifvqgqg","pricing_plan_id":"cebpf4jnsgd1na2vs0mg"},{"bike_id":"535244bd-764a-44d0-b71a-dcceb073c8f2","system_id":"levelo_inurba_marseille","lat":43.30151,"lon":5.38087,"is_reserved":false,"is_disabled":false,"rental_uris":{"android":"levelo://app?vid=535244bd-764a-44d0-b71a-dcceb073c8f2","ios":"levelo://app?vid=535244bd-764a-44d0-b71a-dcceb073c8f2"},"vehicle_type_id":"4","last_reported":1727176043,"current_range_meters":33200,"station_id":"ce4bgjp2rcd13ifvqbh0","pricing_plan_id":"cebpf4jnsgd1na2vs0mg"},{"bike_id":"18763c19-edf4-43f4-a09b-588756fbcdcb","system_id":"levelo_inurba_marseille","lat":43.30467,"lon":5.379,"is_reserved":false,"is_disabled":false,"rental_uris":{"android":"levelo://app?vid=18763c19-edf4-43f4-a09b-588756fbcdcb","ios":"levelo://app?vid=18763c19-edf4-43f4-a09b-588756fbcdcb"},"vehicle_type_id":"4","last_reported":1727176043,"current_range_meters":32800,"station_id":"ce4bgup2rcd13ifvqcn0","pricing_plan_id":"cebpf4jnsgd1na2vs0mg"},{"bike_id":"3e9bdb3f-f70c-43af-9d90-e67f982e8cfd","system_id":"levelo_inurba_marseille","lat":43.33026,"lon":5.39038,"is_reserved":false,"is_disabled":false,"rental_uris":{"android":"levelo://app?vid=3e9bdb3f-f70c-43af-9d90-e67f982e8cfd","ios":"levelo://app?vid=3e9bdb3f-f70c-43af-9d90-e67f982e8cfd"},"vehicle_type_id":"4","last_reported":1727176043,"current_range_meters":6000,"station_id":"ce4bhr92rcd13ifvqhrg","pricing_plan_id":"cebpf4jnsgd1na2vs0mg"},{"bike_id":"01328d1a-46e2-4abc-b12b-32bf41357606","system_id":"levelo_inurba_marseille","lat":43.30548,"lon":5.3671,"is_reserved":false,"is_disabled":false,"rental_uris":{"android":"levelo://app?vid=01328d1a-46e2-4abc-b12b-32bf41357606","ios":"levelo://app?vid=01328d1a-46e2-4abc-b12b-32bf41357606"},"vehicle_type_id":"4","last_reported":1727176043,"current_range_meters":28000,"station_id":"ce4bgrp2rcd13ifvqc9g","pricing_plan_id":"cebpf4jnsgd1na2vs0mg"},{"bike_id":"4cf73a5f-051f-4e6d-993c-cd62440035ab","system_id":"levelo_inurba_marseille","lat":43.28667,"lon":5.3636,"is_reserved":false,"is_disabled":false,"rental_uris":{"android":"levelo://app?vid=4cf73a5f-051f-4e6d-993c-cd62440035ab","ios":"levelo://app?vid=4cf73a5f-051f-4e6d-993c-cd62440035ab"},"vehicle_type_id":"4","last_reported":1727176043,"current_range_meters":27600,"station_id":"ce4bhah2rcd13ifvqej0","pricing_plan_id":"cebpf4jnsgd1na2vs0mg"},{"bike_id":"495c8f04-baa0-4d04-b6e9-fa5581cfae30","system_id":"levelo_inurba_marseille","lat":43.301488,"lon":5.380803,"is_reserved":false,"is_disabled":false,"rental_uris":{"android":"levelo://app?vid=495c8f04-baa0-4d04-b6e9-fa5581cfae30","ios":"levelo://app?vid=495c8f04-baa0-4d04-b6e9-fa5581cfae30"},"vehicle_type_id":"4","last_reported":1727176043,"current_range_meters":38800,"station_id":"ce4bgjp2rcd13ifvqbh0","pricing_plan_id":"cebpf4jnsgd1na2vs0mg"},{"bike_id":"37aa31e2-23a7-4d4d-aa1e-19037c5f0a74","system_id":"levelo_inurba_marseille","lat":43.28155,"lon":5.42646,"is_reserved":false,"is_disabled":false,"rental_uris":{"android":"levelo://app?vid=37aa31e2-23a7-4d4d-aa1e-19037c5f0a74","ios":"levelo://app?vid=37aa31e2-23a7-4d4d-aa1e-19037c5f0a74"},"vehicle_type_id":"4","last_reported":1727176043,"current_range_meters":38400,"station_id":"ce4bhnh2rcd13ifvqgug","pricing_plan_id":"cebpf4jnsgd1na2vs0mg"},{"bike_id":"84f0e2bf-ec77-43e1-ac6e-d2df4cdab65b","system_id":"levelo_inurba_marseille","lat":43.26681,"lon":5.38271,"is_reserved":false,"is_disabled":false,"rental_uris":{"android":"levelo://app?vid=84f0e2bf-ec77-43e1-ac6e-d2df4cdab65b","ios":"levelo://app?vid=84f0e2bf-ec77-43e1-ac6e-d2df4cdab65b"},"vehicle_type_id":"4","last_reported":1727176043,"current_range_meters":28000,"station_id":"ce4bhg92rcd13ifvqf90","pricing_plan_id":"cebpf4jnsgd1na2vs0mg"},{"bike_id":"63661cf2-6693-428d-a1ba-fc90537c8eba","system_id":"levelo_inurba_marseille","lat":43.30157,"lon":5.3809,"is_reserved":false,"is_disabled":false,"rental_uris":{"android":"levelo://app?vid=63661cf2-6693-428d-a1ba-fc90537c8eba","ios":"levelo://app?vid=63661cf2-6693-428d-a1ba-fc90537c8eba"},"vehicle_type_id":"4","last_reported":1727176043,"current_range_meters":9600,"station_id":"ce4bgjp2rcd13ifvqbh0","pricing_plan_id":"cebpf4jnsgd1na2vs0mg"},{"bike_id":"e9ecddf9-5c7c-4b1d-b61b-e6f2cb758e87","system_id":"levelo_inurba_marseille","lat":43.24092,"lon":5.37748,"is_reserved":false,"is_disabled":false,"rental_uris":{"android":"levelo://app?vid=e9ecddf9-5c7c-4b1d-b61b-e6f2cb758e87","ios":"levelo://app?vid=e9ecddf9-5c7c-4b1d-b61b-e6f2cb758e87"},"vehicle_type_id":"4","last_reported":1727176043,"current_range_meters":29600,"station_id":"ce4bhnp2rcd13ifvqgvg","pricing_plan_id":"cebpf4jnsgd1na2vs0mg"},{"bike_id":"cb582a3a-b9db-4e1d-bed8-998e91871868","system_id":"levelo_inurba_marseille","lat":43.24546,"lon":5.39513,"is_reserved":false,"is_disabled":false,"rental_uris":{"android":"levelo://app?vid=cb582a3a-b9db-4e1d-bed8-998e91871868","ios":"levelo://app?vid=cb582a3a-b9db-4e1d-bed8-998e91871868"},"vehicle_type_id":"4","last_reported":1727176043,"current_range_meters":2800,"station_id":"ce4bhlp2rcd13ifvqgjg","pricing_plan_id":"cebpf4jnsgd1na2vs0mg"},{"bike_id":"664c1492-4c06-4350-b400-91571a357f51","system_id":"levelo_inurba_marseille","lat":43.29839,"lon":5.36261,"is_reserved":false,"is_disabled":false,"rental_uris":{"android":"levelo://app?vid=664c1492-4c06-4350-b400-91571a357f51","ios":"levelo://app?vid=664c1492-4c06-4350-b400-91571a357f51"},"vehicle_type_id":"4","last_reported":1727176043,"current_range_meters":38000,"station_id":"ce4bgpp2rcd13ifvqc3g","pricing_plan_id":"cebpf4jnsgd1na2vs0mg"},{"bike_id":"36cb8b96-8e62-40ea-ba82-e03d4a0acffb","system_id":"levelo_inurba_marseille","lat":43.292236,"lon":5.392278,"is_reserved":false,"is_disabled":false,"rental_uris":{"android":"levelo://app?vid=36cb8b96-8e62-40ea-ba82-e03d4a0acffb","ios":"levelo://app?vid=36cb8b96-8e62-40ea-ba82-e03d4a0acffb"},"vehicle_type_id":"4","last_reported":1727176043,"current_range_meters":20000,"station_id":"ce4bh192rcd13ifvqdd0","pricing_plan_id":"cebpf4jnsgd1na2vs0mg"},{"bike_id":"7188cc5d-7fd6-4e78-8d4e-521d4d1d865a","system_id":"levelo_inurba_marseille","lat":43.30297,"lon":5.36906,"is_reserved":false,"is_disabled":false,"rental_uris":{"android":"levelo://app?vid=7188cc5d-7fd6-4e78-8d4e-521d4d1d865a","ios":"levelo://app?vid=7188cc5d-7fd6-4e78-8d4e-521d4d1d865a"},"vehicle_type_id":"4","last_reported":1727176043,"current_range_meters":38400,"station_id":"ce4bgqh2rcd13ifvqc5g","pricing_plan_id":"cebpf4jnsgd1na2vs0mg"},{"bike_id":"d1ab807e-1dc5-4ea4-8db6-1a78b4144dc1","system_id":"levelo_inurba_marseille","lat":43.3171,"lon":5.37738,"is_reserved":false,"is_disabled":false,"rental_uris":{"android":"levelo://app?vid=d1ab807e-1dc5-4ea4-8db6-1a78b4144dc1","ios":"levelo://app?vid=d1ab807e-1dc5-4ea4-8db6-1a78b4144dc1"},"vehicle_type_id":"4","last_reported":1727176043,"current_range_meters":25200,"station_id":"ce4bgth2rcd13ifvqch0","pricing_plan_id":"cebpf4jnsgd1na2vs0mg"},{"bike_id":"d7b7bccd-e5f7-43bd-b25a-bfa859fb9064","system_id":"levelo_inurba_marseille","lat":43.29576,"lon":5.3997,"is_reserved":false,"is_disabled":false,"rental_uris":{"android":"levelo://app?vid=d7b7bccd-e5f7-43bd-b25a-bfa859fb9064","ios":"levelo://app?vid=d7b7bccd-e5f7-43bd-b25a-bfa859fb9064"},"vehicle_type_id":"4","last_reported":1727176043,"current_range_meters":17200,"station_id":"ce4bh312rcd13ifvqdj0","pricing_plan_id":"cebpf4jnsgd1na2vs0mg"},{"bike_id":"703a83c6-041e-4688-bc8d-9a1eed2c00e1","system_id":"levelo_inurba_marseille","lat":43.27219,"lon":5.39182,"is_reserved":false,"is_disabled":false,"rental_uris":{"android":"levelo://app?vid=703a83c6-041e-4688-bc8d-9a1eed2c00e1","ios":"levelo://app?vid=703a83c6-041e-4688-bc8d-9a1eed2c00e1"},"vehicle_type_id":"4","last_reported":1727176043,"current_range_meters":9200,"station_id":"ce4bhhp2rcd13ifvqfm0","pricing_plan_id":"cebpf4jnsgd1na2vs0mg"},{"bike_id":"445ab112-1d78-470c-83c0-bb9f52ccf0ad","system_id":"levelo_inurba_marseille","lat":43.24073,"lon":5.37764,"is_reserved":false,"is_disabled":false,"rental_uris":{"android":"levelo://app?vid=445ab112-1d78-470c-83c0-bb9f52ccf0ad","ios":"levelo://app?vid=445ab112-1d78-470c-83c0-bb9f52ccf0ad"},"vehicle_type_id":"4","last_reported":1727176043,"current_range_meters":3200,"station_id":"ce4bhnp2rcd13ifvqgvg","pricing_plan_id":"cebpf4jnsgd1na2vs0mg"},{"bike_id":"b3d0d2bc-1bb7-48d0-99e1-5eb8c65fa48f","system_id":"levelo_inurba_marseille","lat":43.28719,"lon":5.36084,"is_reserved":false,"is_disabled":false,"rental_uris":{"android":"levelo://app?vid=b3d0d2bc-1bb7-48d0-99e1-5eb8c65fa48f","ios":"levelo://app?vid=b3d0d2bc-1bb7-48d0-99e1-5eb8c65fa48f"},"vehicle_type_id":"4","last_reported":1727176043,"current_range_meters":24400,"station_id":"cki0cbj6b192h4jlfktg","pricing_plan_id":"cebpf4jnsgd1na2vs0mg"},{"bike_id":"215aa121-54a7-4a19-a1be-428183585b05","system_id":"levelo_inurba_marseille","lat":43.27992,"lon":5.41662,"is_reserved":false,"is_disabled":false,"rental_uris":{"android":"levelo://app?vid=215aa121-54a7-4a19-a1be-428183585b05","ios":"levelo://app?vid=215aa121-54a7-4a19-a1be-428183585b05"},"vehicle_type_id":"4","last_reported":1727176043,"current_range_meters":26000,"station_id":"ce4bho12rcd13ifvqh1g","pricing_plan_id":"cebpf4jnsgd1na2vs0mg"},{"bike_id":"cbe36be7-9053-4c45-a36b-767ae2157a16","system_id":"levelo_inurba_marseille","lat":43.2927,"lon":5.38456,"is_reserved":false,"is_disabled":false,"rental_uris":{"android":"levelo://app?vid=cbe36be7-9053-4c45-a36b-767ae2157a16","ios":"levelo://app?vid=cbe36be7-9053-4c45-a36b-767ae2157a16"},"vehicle_type_id":"4","last_reported":1727176043,"current_range_meters":6800,"station_id":"ce4bh692rcd13ifvqea0","pricing_plan_id":"cebpf4jnsgd1na2vs0mg"},{"bike_id":"6c402720-31ce-4eca-a8e3-0f608a9b2ce5","system_id":"levelo_inurba_marseille","lat":43.25121,"lon":5.40317,"is_reserved":false,"is_disabled":false,"rental_uris":{"android":"levelo://app?vid=6c402720-31ce-4eca-a8e3-0f608a9b2ce5","ios":"levelo://app?vid=6c402720-31ce-4eca-a8e3-0f608a9b2ce5"},"vehicle_type_id":"4","last_reported":1727176043,"current_range_meters":27200,"station_id":"ce4bhlh2rcd13ifvqgig","pricing_plan_id":"cebpf4jnsgd1na2vs0mg"},{"bike_id":"fc2644bf-dcb8-42e2-a726-fafbe0bfad12","system_id":"levelo_inurba_marseille","lat":43.27499,"lon":5.4245,"is_reserved":false,"is_disabled":false,"rental_uris":{"android":"levelo://app?vid=fc2644bf-dcb8-42e2-a726-fafbe0bfad12","ios":"levelo://app?vid=fc2644bf-dcb8-42e2-a726-fafbe0bfad12"},"vehicle_type_id":"4","last_reported":1727176043,"current_range_meters":22800,"station_id":"ce4bhn92rcd13ifvqgrg","pricing_plan_id":"cebpf4jnsgd1na2vs0mg"},{"bike_id":"7a907bd8-a31c-44f5-ae26-4d359cad6743","system_id":"levelo_inurba_marseille","lat":43.23061,"lon":5.35489,"is_reserved":false,"is_disabled":false,"rental_uris":{"android":"levelo://app?vid=7a907bd8-a31c-44f5-ae26-4d359cad6743","ios":"levelo://app?vid=7a907bd8-a31c-44f5-ae26-4d359cad6743"},"vehicle_type_id":"4","last_reported":1727176043,"current_range_meters":9200,"station_id":"cpo3342slgdg3j2ifvpg","pricing_plan_id":"cebpf4jnsgd1na2vs0mg"},{"bike_id":"5482bd4a-24f1-48af-a1e0-b401203b5708","system_id":"levelo_inurba_marseille","lat":43.24394,"lon":5.37061,"is_reserved":false,"is_disabled":false,"rental_uris":{"android":"levelo://app?vid=5482bd4a-24f1-48af-a1e0-b401203b5708","ios":"levelo://app?vid=5482bd4a-24f1-48af-a1e0-b401203b5708"},"vehicle_type_id":"4","last_reported":1727176043,"current_range_meters":4800,"station_id":"ce4bhhh2rcd13ifvqfk0","pricing_plan_id":"cebpf4jnsgd1na2vs0mg"},{"bike_id":"40ced7d8-d947-4602-b785-b792922bf0f2","system_id":"levelo_inurba_marseille","lat":43.32034,"lon":5.4157,"is_reserved":false,"is_disabled":false,"rental_uris":{"android":"levelo://app?vid=40ced7d8-d947-4602-b785-b792922bf0f2","ios":"levelo://app?vid=40ced7d8-d947-4602-b785-b792922bf0f2"},"vehicle_type_id":"4","last_reported":1727176043,"current_range_meters":38800,"station_id":"ce4bhq92rcd13ifvqhkg","pricing_plan_id":"cebpf4jnsgd1na2vs0mg"},{"bike_id":"52751f15-53a4-480e-807e-1610b43cff0f","system_id":"levelo_inurba_marseille","lat":43.29615,"lon":5.37717,"is_reserved":false,"is_disabled":false,"rental_uris":{"android":"levelo://app?vid=52751f15-53a4-480e-807e-1610b43cff0f","ios":"levelo://app?vid=52751f15-53a4-480e-807e-1610b43cff0f"},"vehicle_type_id":"4","last_reported":1727176043,"current_range_meters":22800,"station_id":"ce4bgi92rcd13ifvqb90","pricing_plan_id":"cebpf4jnsgd1na2vs0mg"},{"bike_id":"d84c15ee-be95-4cc9-b655-f412bf3cbfd1","system_id":"levelo_inurba_marseille","lat":43.24081,"lon":5.37748,"is_reserved":false,"is_disabled":false,"rental_uris":{"android":"levelo://app?vid=d84c15ee-be95-4cc9-b655-f412bf3cbfd1","ios":"levelo://app?vid=d84c15ee-be95-4cc9-b655-f412bf3cbfd1"},"vehicle_type_id":"4","last_reported":1727176043,"current_range_meters":12000,"station_id":"ce4bhnp2rcd13ifvqgvg","pricing_plan_id":"cebpf4jnsgd1na2vs0mg"},{"bike_id":"2d73ded3-7ec2-4dbc-8b61-eb74d0231a9e","system_id":"levelo_inurba_marseille","lat":43.30151,"lon":5.38087,"is_reserved":false,"is_disabled":false,"rental_uris":{"android":"levelo://app?vid=2d73ded3-7ec2-4dbc-8b61-eb74d0231a9e","ios":"levelo://app?vid=2d73ded3-7ec2-4dbc-8b61-eb74d0231a9e"},"vehicle_type_id":"4","last_reported":1727176043,"current_range_meters":25600,"station_id":"ce4bgjp2rcd13ifvqbh0","pricing_plan_id":"cebpf4jnsgd1na2vs0mg"},{"bike_id":"28d820f0-61cb-4262-bd8a-e61bb4df662f","system_id":"levelo_inurba_marseille","lat":43.29905,"lon":5.38155,"is_reserved":false,"is_disabled":false,"rental_uris":{"android":"levelo://app?vid=28d820f0-61cb-4262-bd8a-e61bb4df662f","ios":"levelo://app?vid=28d820f0-61cb-4262-bd8a-e61bb4df662f"},"vehicle_type_id":"4","last_reported":1727176043,"current_range_meters":19200,"station_id":"ce4bgj12rcd13ifvqbc0","pricing_plan_id":"cebpf4jnsgd1na2vs0mg"},{"bike_id":"cfdf58c5-f7ee-4bf8-b56c-0e8db1592002","system_id":"levelo_inurba_marseille","lat":43.31709,"lon":5.37745,"is_reserved":false,"is_disabled":false,"rental_uris":{"android":"levelo://app?vid=cfdf58c5-f7ee-4bf8-b56c-0e8db1592002","ios":"levelo://app?vid=cfdf58c5-f7ee-4bf8-b56c-0e8db1592002"},"vehicle_type_id":"4","last_reported":1727176043,"current_range_meters":24400,"station_id":"ce4bgth2rcd13ifvqch0","pricing_plan_id":"cebpf4jnsgd1na2vs0mg"},{"bike_id":"90e4f5cf-76b7-4f63-b9d0-430673bc5974","system_id":"levelo_inurba_marseille","lat":43.27921,"lon":5.39581,"is_reserved":false,"is_disabled":false,"rental_uris":{"android":"levelo://app?vid=90e4f5cf-76b7-4f63-b9d0-430673bc5974","ios":"levelo://app?vid=90e4f5cf-76b7-4f63-b9d0-430673bc5974"},"vehicle_type_id":"4","last_reported":1727176043,"current_range_meters":36400,"station_id":"ce4bhf92rcd13ifvqf40","pricing_plan_id":"cebpf4jnsgd1na2vs0mg"},{"bike_id":"545d2306-89b9-4a7e-9e83-0ff624d6e664","system_id":"levelo_inurba_marseille","lat":43.337612,"lon":5.374702,"is_reserved":false,"is_disabled":false,"rental_uris":{"android":"levelo://app?vid=545d2306-89b9-4a7e-9e83-0ff624d6e664","ios":"levelo://app?vid=545d2306-89b9-4a7e-9e83-0ff624d6e664"},"vehicle_type_id":"4","last_reported":1727176043,"current_range_meters":35600,"station_id":"","pricing_plan_id":"cebpf4jnsgd1na2vs0mg"},{"bike_id":"2e772849-a2ef-44a8-ac1e-92baa03e5c0c","system_id":"levelo_inurba_marseille","lat":43.2694,"lon":5.40255,"is_reserved":false,"is_disabled":false,"rental_uris":{"android":"levelo://app?vid=2e772849-a2ef-44a8-ac1e-92baa03e5c0c","ios":"levelo://app?vid=2e772849-a2ef-44a8-ac1e-92baa03e5c0c"},"vehicle_type_id":"4","last_reported":1727176043,"current_range_meters":35200,"station_id":"cjm6bp8fraef2m0cb0m0","pricing_plan_id":"cebpf4jnsgd1na2vs0mg"},{"bike_id":"157f2d5a-bff3-4f2f-9a86-bf4f4b111a45","system_id":"levelo_inurba_marseille","lat":43.30139,"lon":5.3877,"is_reserved":false,"is_disabled":false,"rental_uris":{"android":"levelo://app?vid=157f2d5a-bff3-4f2f-9a86-bf4f4b111a45","ios":"levelo://app?vid=157f2d5a-bff3-4f2f-9a86-bf4f4b111a45"},"vehicle_type_id":"4","last_reported":1727176043,"current_range_meters":30400,"station_id":"ce4bghh2rcd13ifvqb60","pricing_plan_id":"cebpf4jnsgd1na2vs0mg"},{"bike_id":"514f7f6f-039f-4ec8-bc9c-4ce20b42dbb7","system_id":"levelo_inurba_marseille","lat":43.30467,"lon":5.37913,"is_reserved":false,"is_disabled":false,"rental_uris":{"android":"levelo://app?vid=514f7f6f-039f-4ec8-bc9c-4ce20b42dbb7","ios":"levelo://app?vid=514f7f6f-039f-4ec8-bc9c-4ce20b42dbb7"},"vehicle_type_id":"4","last_reported":1727176043,"current_range_meters":36000,"station_id":"ce4bgup2rcd13ifvqcn0","pricing_plan_id":"cebpf4jnsgd1na2vs0mg"},{"bike_id":"3835d0d1-7923-4bd9-a42b-8fe2876d3225","system_id":"levelo_inurba_marseille","lat":43.30956,"lon":5.39041,"is_reserved":false,"is_disabled":false,"rental_uris":{"android":"levelo://app?vid=3835d0d1-7923-4bd9-a42b-8fe2876d3225","ios":"levelo://app?vid=3835d0d1-7923-4bd9-a42b-8fe2876d3225"},"vehicle_type_id":"4","last_reported":1727176043,"current_range_meters":16400,"station_id":"ce4bgup2rcd13ifvqco0","pricing_plan_id":"cebpf4jnsgd1na2vs0mg"},{"bike_id":"9f92bf8f-7756-4ffd-ac07-bf9236417f30","system_id":"levelo_inurba_marseille","lat":43.30911,"lon":5.36849,"is_reserved":false,"is_disabled":false,"rental_uris":{"android":"levelo://app?vid=9f92bf8f-7756-4ffd-ac07-bf9236417f30","ios":"levelo://app?vid=9f92bf8f-7756-4ffd-ac07-bf9236417f30"},"vehicle_type_id":"4","last_reported":1727176043,"current_range_meters":38800,"station_id":"ce4bgn92rcd13ifvqbvg","pricing_plan_id":"cebpf4jnsgd1na2vs0mg"},{"bike_id":"8ed5c83d-64be-4a3b-8477-12a6e25acfd4","system_id":"levelo_inurba_marseille","lat":43.29169,"lon":5.37165,"is_reserved":false,"is_disabled":false,"rental_uris":{"android":"levelo://app?vid=8ed5c83d-64be-4a3b-8477-12a6e25acfd4","ios":"levelo://app?vid=8ed5c83d-64be-4a3b-8477-12a6e25acfd4"},"vehicle_type_id":"4","last_reported":1727176043,"current_range_meters":28800,"station_id":"ce4bha92rcd13ifvqeh0","pricing_plan_id":"cebpf4jnsgd1na2vs0mg"},{"bike_id":"ebec7cd5-5fed-46ce-abdb-3cd659f607ac","system_id":"levelo_inurba_marseille","lat":43.2955,"lon":5.42283,"is_reserved":false,"is_disabled":false,"rental_uris":{"android":"levelo://app?vid=ebec7cd5-5fed-46ce-abdb-3cd659f607ac","ios":"levelo://app?vid=ebec7cd5-5fed-46ce-abdb-3cd659f607ac"},"vehicle_type_id":"4","last_reported":1727176043,"current_range_meters":38000,"station_id":"ce4bhph2rcd13ifvqhdg","pricing_plan_id":"cebpf4jnsgd1na2vs0mg"},{"bike_id":"5076b31b-7c6f-4fd3-b9f9-8ee363638f1a","system_id":"levelo_inurba_marseille","lat":43.31168,"lon":5.38729,"is_reserved":false,"is_disabled":false,"rental_uris":{"android":"levelo://app?vid=5076b31b-7c6f-4fd3-b9f9-8ee363638f1a","ios":"levelo://app?vid=5076b31b-7c6f-4fd3-b9f9-8ee363638f1a"},"vehicle_type_id":"4","last_reported":1727176043,"current_range_meters":20400,"station_id":"ce4bgv12rcd13ifvqcp0","pricing_plan_id":"cebpf4jnsgd1na2vs0mg"},{"bike_id":"071befd9-f402-4543-9b0c-47aedc783ff3","system_id":"levelo_inurba_marseille","lat":43.30912,"lon":5.36853,"is_reserved":false,"is_disabled":false,"rental_uris":{"android":"levelo://app?vid=071befd9-f402-4543-9b0c-47aedc783ff3","ios":"levelo://app?vid=071befd9-f402-4543-9b0c-47aedc783ff3"},"vehicle_type_id":"4","last_reported":1727176043,"current_range_meters":35200,"station_id":"ce4bgn92rcd13ifvqbvg","pricing_plan_id":"cebpf4jnsgd1na2vs0mg"},{"bike_id":"6d6065cc-15d1-48a2-aa33-8bac2101b02a","system_id":"levelo_inurba_marseille","lat":43.22928,"lon":5.35377,"is_reserved":false,"is_disabled":false,"rental_uris":{"android":"levelo://app?vid=6d6065cc-15d1-48a2-aa33-8bac2101b02a","ios":"levelo://app?vid=6d6065cc-15d1-48a2-aa33-8bac2101b02a"},"vehicle_type_id":"4","last_reported":1727176043,"current_range_meters":27200,"station_id":"cpo3532slgdg3j2ikp40","pricing_plan_id":"cebpf4jnsgd1na2vs0mg"},{"bike_id":"09db2183-b1d3-473b-aba6-b7133ce3cf60","system_id":"levelo_inurba_marseille","lat":43.303113,"lon":5.369027,"is_reserved":false,"is_disabled":false,"rental_uris":{"android":"levelo://app?vid=09db2183-b1d3-473b-aba6-b7133ce3cf60","ios":"levelo://app?vid=09db2183-b1d3-473b-aba6-b7133ce3cf60"},"vehicle_type_id":"4","last_reported":1727176043,"current_range_meters":33200,"station_id":"ce4bgqh2rcd13ifvqc5g","pricing_plan_id":"cebpf4jnsgd1na2vs0mg"},{"bike_id":"df5b38d2-64cb-4df0-856f-ea9bd22c082c","system_id":"levelo_inurba_marseille","lat":43.23189,"lon":5.35564,"is_reserved":false,"is_disabled":false,"rental_uris":{"android":"levelo://app?vid=df5b38d2-64cb-4df0-856f-ea9bd22c082c","ios":"levelo://app?vid=df5b38d2-64cb-4df0-856f-ea9bd22c082c"},"vehicle_type_id":"4","last_reported":1727176043,"current_range_meters":12400,"station_id":"ce4bhu92rcd13ifvqi70","pricing_plan_id":"cebpf4jnsgd1na2vs0mg"},{"bike_id":"ad34aab0-3836-430e-9e45-edc0005fcddc","system_id":"levelo_inurba_marseille","lat":43.29075,"lon":5.3716,"is_reserved":false,"is_disabled":false,"rental_uris":{"android":"levelo://app?vid=ad34aab0-3836-430e-9e45-edc0005fcddc","ios":"levelo://app?vid=ad34aab0-3836-430e-9e45-edc0005fcddc"},"vehicle_type_id":"4","last_reported":1727176043,"current_range_meters":23200,"station_id":"ce4bh5p2rcd13ifvqe4g","pricing_plan_id":"cebpf4jnsgd1na2vs0mg"},{"bike_id":"021574db-63b8-4485-9980-f1ed15abf85e","system_id":"levelo_inurba_marseille","lat":43.30602,"lon":5.39355,"is_reserved":false,"is_disabled":false,"rental_uris":{"android":"levelo://app?vid=021574db-63b8-4485-9980-f1ed15abf85e","ios":"levelo://app?vid=021574db-63b8-4485-9980-f1ed15abf85e"},"vehicle_type_id":"4","last_reported":1727176043,"current_range_meters":36800,"station_id":"ce4bh0p2rcd13ifvqd80","pricing_plan_id":"cebpf4jnsgd1na2vs0mg"},{"bike_id":"27ba0d9b-4317-46dc-ae51-f59ab8e53980","system_id":"levelo_inurba_marseille","lat":43.29938,"lon":5.36546,"is_reserved":false,"is_disabled":false,"rental_uris":{"android":"levelo://app?vid=27ba0d9b-4317-46dc-ae51-f59ab8e53980","ios":"levelo://app?vid=27ba0d9b-4317-46dc-ae51-f59ab8e53980"},"vehicle_type_id":"4","last_reported":1727176043,"current_range_meters":12000,"station_id":"ce4bgm92rcd13ifvqbr0","pricing_plan_id":"cebpf4jnsgd1na2vs0mg"},{"bike_id":"53181243-584b-481a-b414-e5a2f22d8a3c","system_id":"levelo_inurba_marseille","lat":43.27246,"lon":5.41113,"is_reserved":false,"is_disabled":false,"rental_uris":{"android":"levelo://app?vid=53181243-584b-481a-b414-e5a2f22d8a3c","ios":"levelo://app?vid=53181243-584b-481a-b414-e5a2f22d8a3c"},"vehicle_type_id":"4","last_reported":1727176043,"current_range_meters":16400,"station_id":"ce4bhn92rcd13ifvqgrg","pricing_plan_id":"cebpf4jnsgd1na2vs0mg"},{"bike_id":"3fef6b8a-d108-456b-9b02-531fa3537d1e","system_id":"levelo_inurba_marseille","lat":43.28845,"lon":5.39312,"is_reserved":false,"is_disabled":false,"rental_uris":{"android":"levelo://app?vid=3fef6b8a-d108-456b-9b02-531fa3537d1e","ios":"levelo://app?vid=3fef6b8a-d108-456b-9b02-531fa3537d1e"},"vehicle_type_id":"4","last_reported":1727176043,"current_range_meters":3200,"station_id":"ce4bh2p2rcd13ifvqdi0","pricing_plan_id":"cebpf4jnsgd1na2vs0mg"},{"bike_id":"17b1cd1a-7803-4ca9-91f3-73c4fa44f09e","system_id":"levelo_inurba_marseille","lat":43.29556,"lon":5.42287,"is_reserved":false,"is_disabled":false,"rental_uris":{"android":"levelo://app?vid=17b1cd1a-7803-4ca9-91f3-73c4fa44f09e","ios":"levelo://app?vid=17b1cd1a-7803-4ca9-91f3-73c4fa44f09e"},"vehicle_type_id":"4","last_reported":1727176043,"current_range_meters":8800,"station_id":"ce4bhph2rcd13ifvqhdg","pricing_plan_id":"cebpf4jnsgd1na2vs0mg"},{"bike_id":"2c43c88e-ad28-4001-9314-af5e9a95dd6d","system_id":"levelo_inurba_marseille","lat":43.24074,"lon":5.37763,"is_reserved":false,"is_disabled":false,"rental_uris":{"android":"levelo://app?vid=2c43c88e-ad28-4001-9314-af5e9a95dd6d","ios":"levelo://app?vid=2c43c88e-ad28-4001-9314-af5e9a95dd6d"},"vehicle_type_id":"4","last_reported":1727176043,"current_range_meters":8800,"station_id":"ce4bhnp2rcd13ifvqgvg","pricing_plan_id":"cebpf4jnsgd1na2vs0mg"},{"bike_id":"4512f26d-3c8d-4ebc-a9cb-e14d86d43223","system_id":"levelo_inurba_marseille","lat":43.30426,"lon":5.39748,"is_reserved":false,"is_disabled":false,"rental_uris":{"android":"levelo://app?vid=4512f26d-3c8d-4ebc-a9cb-e14d86d43223","ios":"levelo://app?vid=4512f26d-3c8d-4ebc-a9cb-e14d86d43223"},"vehicle_type_id":"4","last_reported":1727176043,"current_range_meters":22000,"station_id":"ce4bh092rcd13ifvqd20","pricing_plan_id":"cebpf4jnsgd1na2vs0mg"},{"bike_id":"c3c32305-0f6e-4de8-807c-e30199904187","system_id":"levelo_inurba_marseille","lat":43.30467,"lon":5.37899,"is_reserved":false,"is_disabled":false,"rental_uris":{"android":"levelo://app?vid=c3c32305-0f6e-4de8-807c-e30199904187","ios":"levelo://app?vid=c3c32305-0f6e-4de8-807c-e30199904187"},"vehicle_type_id":"4","last_reported":1727176043,"current_range_meters":25600,"station_id":"ce4bgup2rcd13ifvqcn0","pricing_plan_id":"cebpf4jnsgd1na2vs0mg"},{"bike_id":"63a16492-fc08-4919-93e5-db0aa1a3c3fe","system_id":"levelo_inurba_marseille","lat":43.25582,"lon":5.38223,"is_reserved":false,"is_disabled":false,"rental_uris":{"android":"levelo://app?vid=63a16492-fc08-4919-93e5-db0aa1a3c3fe","ios":"levelo://app?vid=63a16492-fc08-4919-93e5-db0aa1a3c3fe"},"vehicle_type_id":"4","last_reported":1727176043,"current_range_meters":38000,"station_id":"ce4bhih2rcd13ifvqfs0","pricing_plan_id":"cebpf4jnsgd1na2vs0mg"},{"bike_id":"7b3dbfe5-5399-4cd5-b38b-fbf7f81c035d","system_id":"levelo_inurba_marseille","lat":43.29094,"lon":5.38143,"is_reserved":false,"is_disabled":false,"rental_uris":{"android":"levelo://app?vid=7b3dbfe5-5399-4cd5-b38b-fbf7f81c035d","ios":"levelo://app?vid=7b3dbfe5-5399-4cd5-b38b-fbf7f81c035d"},"vehicle_type_id":"4","last_reported":1727176043,"current_range_meters":17200,"station_id":"ce4bh512rcd13ifvqe2g","pricing_plan_id":"cebpf4jnsgd1na2vs0mg"},{"bike_id":"b6eee498-fb15-4e3b-9eef-2538446e40a3","system_id":"levelo_inurba_marseille","lat":43.3055,"lon":5.36709,"is_reserved":false,"is_disabled":false,"rental_uris":{"android":"levelo://app?vid=b6eee498-fb15-4e3b-9eef-2538446e40a3","ios":"levelo://app?vid=b6eee498-fb15-4e3b-9eef-2538446e40a3"},"vehicle_type_id":"4","last_reported":1727176043,"current_range_meters":20800,"station_id":"ce4bgrp2rcd13ifvqc9g","pricing_plan_id":"cebpf4jnsgd1na2vs0mg"},{"bike_id":"9822d0ae-a774-411b-a6b1-a761f3951669","system_id":"levelo_inurba_marseille","lat":43.27369,"lon":5.36258,"is_reserved":false,"is_disabled":false,"rental_uris":{"android":"levelo://app?vid=9822d0ae-a774-411b-a6b1-a761f3951669","ios":"levelo://app?vid=9822d0ae-a774-411b-a6b1-a761f3951669"},"vehicle_type_id":"4","last_reported":1727176043,"current_range_meters":19600,"station_id":"ce4bhbh2rcd13ifvqeo0","pricing_plan_id":"cebpf4jnsgd1na2vs0mg"},{"bike_id":"2e32221a-4218-4289-8fae-5330aea4ff4b","system_id":"levelo_inurba_marseille","lat":43.29574,"lon":5.39974,"is_reserved":false,"is_disabled":false,"rental_uris":{"android":"levelo://app?vid=2e32221a-4218-4289-8fae-5330aea4ff4b","ios":"levelo://app?vid=2e32221a-4218-4289-8fae-5330aea4ff4b"},"vehicle_type_id":"4","last_reported":1727176043,"current_range_meters":9200,"station_id":"ce4bh312rcd13ifvqdj0","pricing_plan_id":"cebpf4jnsgd1na2vs0mg"},{"bike_id":"f5b1128c-7029-4130-89ca-a009ee88473a","system_id":"levelo_inurba_marseille","lat":43.24663,"lon":5.38164,"is_reserved":false,"is_disabled":false,"rental_uris":{"android":"levelo://app?vid=f5b1128c-7029-4130-89ca-a009ee88473a","ios":"levelo://app?vid=f5b1128c-7029-4130-89ca-a009ee88473a"},"vehicle_type_id":"4","last_reported":1727176043,"current_range_meters":8800,"station_id":"ce4bhih2rcd13ifvqfr0","pricing_plan_id":"cebpf4jnsgd1na2vs0mg"},{"bike_id":"74371e4c-2218-4397-9345-b9f878db7dd5","system_id":"levelo_inurba_marseille","lat":43.33761,"lon":5.3743,"is_reserved":false,"is_disabled":false,"rental_uris":{"android":"levelo://app?vid=74371e4c-2218-4397-9345-b9f878db7dd5","ios":"levelo://app?vid=74371e4c-2218-4397-9345-b9f878db7dd5"},"vehicle_type_id":"4","last_reported":1727176043,"current_range_meters":37600,"station_id":"","pricing_plan_id":"cebpf4jnsgd1na2vs0mg"},{"bike_id":"3073410f-7845-4cda-8ebb-ea5392e49bcf","system_id":"levelo_inurba_marseille","lat":43.29844,"lon":5.36267,"is_reserved":false,"is_disabled":false,"rental_uris":{"android":"levelo://app?vid=3073410f-7845-4cda-8ebb-ea5392e49bcf","ios":"levelo://app?vid=3073410f-7845-4cda-8ebb-ea5392e49bcf"},"vehicle_type_id":"4","last_reported":1727176043,"current_range_meters":29600,"station_id":"ce4bgpp2rcd13ifvqc3g","pricing_plan_id":"cebpf4jnsgd1na2vs0mg"},{"bike_id":"45aa4500-f2ca-4428-8b3c-13971a47fcbb","system_id":"levelo_inurba_marseille","lat":43.30158,"lon":5.38084,"is_reserved":false,"is_disabled":false,"rental_uris":{"android":"levelo://app?vid=45aa4500-f2ca-4428-8b3c-13971a47fcbb","ios":"levelo://app?vid=45aa4500-f2ca-4428-8b3c-13971a47fcbb"},"vehicle_type_id":"4","last_reported":1727176043,"current_range_meters":35600,"station_id":"ce4bgjp2rcd13ifvqbh0","pricing_plan_id":"cebpf4jnsgd1na2vs0mg"},{"bike_id":"124543fe-b791-4047-97dc-3b38ba1277b8","system_id":"levelo_inurba_marseille","lat":43.27071,"lon":5.42277,"is_reserved":false,"is_disabled":false,"rental_uris":{"android":"levelo://app?vid=124543fe-b791-4047-97dc-3b38ba1277b8","ios":"levelo://app?vid=124543fe-b791-4047-97dc-3b38ba1277b8"},"vehicle_type_id":"4","last_reported":1727176043,"current_range_meters":24800,"station_id":"ce4bhk92rcd13ifvqgb0","pricing_plan_id":"cebpf4jnsgd1na2vs0mg"},{"bike_id":"70dcefbd-4b07-404e-b4c6-04f06b54c398","system_id":"levelo_inurba_marseille","lat":43.30136,"lon":5.37419,"is_reserved":false,"is_disabled":false,"rental_uris":{"android":"levelo://app?vid=70dcefbd-4b07-404e-b4c6-04f06b54c398","ios":"levelo://app?vid=70dcefbd-4b07-404e-b4c6-04f06b54c398"},"vehicle_type_id":"4","last_reported":1727176043,"current_range_meters":39200,"station_id":"ce4bgs92rcd13ifvqcc0","pricing_plan_id":"cebpf4jnsgd1na2vs0mg"},{"bike_id":"b1f73128-5271-43d8-af34-94e10e3b804a","system_id":"levelo_inurba_marseille","lat":43.33023,"lon":5.39042,"is_reserved":false,"is_disabled":false,"rental_uris":{"android":"levelo://app?vid=b1f73128-5271-43d8-af34-94e10e3b804a","ios":"levelo://app?vid=b1f73128-5271-43d8-af34-94e10e3b804a"},"vehicle_type_id":"4","last_reported":1727176043,"current_range_meters":38800,"station_id":"ce4bhr92rcd13ifvqhrg","pricing_plan_id":"cebpf4jnsgd1na2vs0mg"},{"bike_id":"8a98e2ce-aee1-4d77-8b6d-16aec9fb6e85","system_id":"levelo_inurba_marseille","lat":43.30607,"lon":5.37232,"is_reserved":false,"is_disabled":false,"rental_uris":{"android":"levelo://app?vid=8a98e2ce-aee1-4d77-8b6d-16aec9fb6e85","ios":"levelo://app?vid=8a98e2ce-aee1-4d77-8b6d-16aec9fb6e85"},"vehicle_type_id":"4","last_reported":1727176043,"current_range_meters":38800,"station_id":"ce4bgqh2rcd13ifvqc4g","pricing_plan_id":"cebpf4jnsgd1na2vs0mg"},{"bike_id":"d1d47486-1c37-4693-89cd-19a90e5cdde0","system_id":"levelo_inurba_marseille","lat":43.262,"lon":5.37936,"is_reserved":false,"is_disabled":false,"rental_uris":{"android":"levelo://app?vid=d1d47486-1c37-4693-89cd-19a90e5cdde0","ios":"levelo://app?vid=d1d47486-1c37-4693-89cd-19a90e5cdde0"},"vehicle_type_id":"4","last_reported":1727176043,"current_range_meters":38800,"station_id":"ce4bhjp2rcd13ifvqg90","pricing_plan_id":"cebpf4jnsgd1na2vs0mg"},{"bike_id":"e1161fb6-04f8-49d2-bfcb-45a6908c7773","system_id":"levelo_inurba_marseille","lat":43.2719,"lon":5.40979,"is_reserved":false,"is_disabled":false,"rental_uris":{"android":"levelo://app?vid=e1161fb6-04f8-49d2-bfcb-45a6908c7773","ios":"levelo://app?vid=e1161fb6-04f8-49d2-bfcb-45a6908c7773"},"vehicle_type_id":"4","last_reported":1727176043,"current_range_meters":20400,"station_id":"ce4bhl12rcd13ifvqgf0","pricing_plan_id":"cebpf4jnsgd1na2vs0mg"},{"bike_id":"d1f6e7ee-107b-4123-a25a-9db115b23083","system_id":"levelo_inurba_marseille","lat":43.26957,"lon":5.38634,"is_reserved":false,"is_disabled":false,"rental_uris":{"android":"levelo://app?vid=d1f6e7ee-107b-4123-a25a-9db115b23083","ios":"levelo://app?vid=d1f6e7ee-107b-4123-a25a-9db115b23083"},"vehicle_type_id":"4","last_reported":1727176043,"current_range_meters":37600,"station_id":"ce4bhh92rcd13ifvqfh0","pricing_plan_id":"cebpf4jnsgd1na2vs0mg"},{"bike_id":"22d8b226-bdcd-4ae0-a051-a71868a6939f","system_id":"levelo_inurba_marseille","lat":43.29175,"lon":5.37151,"is_reserved":false,"is_disabled":false,"rental_uris":{"android":"levelo://app?vid=22d8b226-bdcd-4ae0-a051-a71868a6939f","ios":"levelo://app?vid=22d8b226-bdcd-4ae0-a051-a71868a6939f"},"vehicle_type_id":"4","last_reported":1727176043,"current_range_meters":24000,"station_id":"ce4bha92rcd13ifvqeh0","pricing_plan_id":"cebpf4jnsgd1na2vs0mg"},{"bike_id":"4b770073-7726-4e78-b34f-a257261dc7d3","system_id":"levelo_inurba_marseille","lat":43.29559,"lon":5.42288,"is_reserved":false,"is_disabled":false,"rental_uris":{"android":"levelo://app?vid=4b770073-7726-4e78-b34f-a257261dc7d3","ios":"levelo://app?vid=4b770073-7726-4e78-b34f-a257261dc7d3"},"vehicle_type_id":"4","last_reported":1727176043,"current_range_meters":29600,"station_id":"ce4bhph2rcd13ifvqhdg","pricing_plan_id":"cebpf4jnsgd1na2vs0mg"},{"bike_id":"1166f6b1-5b87-4bc1-b21d-c61655b2fee0","system_id":"levelo_inurba_marseille","lat":43.29447,"lon":5.38058,"is_reserved":false,"is_disabled":false,"rental_uris":{"android":"levelo://app?vid=1166f6b1-5b87-4bc1-b21d-c61655b2fee0","ios":"levelo://app?vid=1166f6b1-5b87-4bc1-b21d-c61655b2fee0"},"vehicle_type_id":"4","last_reported":1727176043,"current_range_meters":38800,"station_id":"","pricing_plan_id":"cebpf4jnsgd1na2vs0mg"},{"bike_id":"d8652924-2187-42bf-848a-1f35c66a4826","system_id":"levelo_inurba_marseille","lat":43.24071,"lon":5.37764,"is_reserved":false,"is_disabled":false,"rental_uris":{"android":"levelo://app?vid=d8652924-2187-42bf-848a-1f35c66a4826","ios":"levelo://app?vid=d8652924-2187-42bf-848a-1f35c66a4826"},"vehicle_type_id":"4","last_reported":1727176043,"current_range_meters":14800,"station_id":"ce4bhnp2rcd13ifvqgvg","pricing_plan_id":"cebpf4jnsgd1na2vs0mg"},{"bike_id":"b9927a7a-6a68-4fdd-a9cf-21f3191cee64","system_id":"levelo_inurba_marseille","lat":43.28319,"lon":5.37868,"is_reserved":false,"is_disabled":false,"rental_uris":{"android":"levelo://app?vid=b9927a7a-6a68-4fdd-a9cf-21f3191cee64","ios":"levelo://app?vid=b9927a7a-6a68-4fdd-a9cf-21f3191cee64"},"vehicle_type_id":"4","last_reported":1727176043,"current_range_meters":36400,"station_id":"ce4bha12rcd13ifvqee0","pricing_plan_id":"cebpf4jnsgd1na2vs0mg"},{"bike_id":"9768603a-3105-42be-a49d-bc9bc42fe3f7","system_id":"levelo_inurba_marseille","lat":43.34144,"lon":5.40901,"is_reserved":false,"is_disabled":false,"rental_uris":{"android":"levelo://app?vid=9768603a-3105-42be-a49d-bc9bc42fe3f7","ios":"levelo://app?vid=9768603a-3105-42be-a49d-bc9bc42fe3f7"},"vehicle_type_id":"4","last_reported":1727176043,"current_range_meters":11600,"station_id":"ce4bhqh2rcd13ifvqhlg","pricing_plan_id":"cebpf4jnsgd1na2vs0mg"},{"bike_id":"efcab10f-f8b5-4015-93f2-6e1654482c73","system_id":"levelo_inurba_marseille","lat":43.24076,"lon":5.37766,"is_reserved":false,"is_disabled":false,"rental_uris":{"android":"levelo://app?vid=efcab10f-f8b5-4015-93f2-6e1654482c73","ios":"levelo://app?vid=efcab10f-f8b5-4015-93f2-6e1654482c73"},"vehicle_type_id":"4","last_reported":1727176043,"current_range_meters":33200,"station_id":"ce4bhnp2rcd13ifvqgvg","pricing_plan_id":"cebpf4jnsgd1na2vs0mg"},{"bike_id":"49d80325-faab-4d79-8ece-643304efb99e","system_id":"levelo_inurba_marseille","lat":43.26682,"lon":5.38267,"is_reserved":false,"is_disabled":false,"rental_uris":{"android":"levelo://app?vid=49d80325-faab-4d79-8ece-643304efb99e","ios":"levelo://app?vid=49d80325-faab-4d79-8ece-643304efb99e"},"vehicle_type_id":"4","last_reported":1727176043,"current_range_meters":38000,"station_id":"ce4bhg92rcd13ifvqf90","pricing_plan_id":"cebpf4jnsgd1na2vs0mg"},{"bike_id":"f217b67f-574c-4d4b-8797-8073266af066","system_id":"levelo_inurba_marseille","lat":43.26966,"lon":5.38625,"is_reserved":false,"is_disabled":false,"rental_uris":{"android":"levelo://app?vid=f217b67f-574c-4d4b-8797-8073266af066","ios":"levelo://app?vid=f217b67f-574c-4d4b-8797-8073266af066"},"vehicle_type_id":"4","last_reported":1727176043,"current_range_meters":38800,"station_id":"ce4bhh92rcd13ifvqfh0","pricing_plan_id":"cebpf4jnsgd1na2vs0mg"},{"bike_id":"1e167f08-7613-4969-a659-bccbf05807a9","system_id":"levelo_inurba_marseille","lat":43.31714,"lon":5.37757,"is_reserved":false,"is_disabled":false,"rental_uris":{"android":"levelo://app?vid=1e167f08-7613-4969-a659-bccbf05807a9","ios":"levelo://app?vid=1e167f08-7613-4969-a659-bccbf05807a9"},"vehicle_type_id":"4","last_reported":1727176043,"current_range_meters":20400,"station_id":"ce4bgth2rcd13ifvqch0","pricing_plan_id":"cebpf4jnsgd1na2vs0mg"},{"bike_id":"e59b0fcb-9ec1-4e05-a6bd-12eb54ed61ec","system_id":"levelo_inurba_marseille","lat":43.2668,"lon":5.38263,"is_reserved":false,"is_disabled":false,"rental_uris":{"android":"levelo://app?vid=e59b0fcb-9ec1-4e05-a6bd-12eb54ed61ec","ios":"levelo://app?vid=e59b0fcb-9ec1-4e05-a6bd-12eb54ed61ec"},"vehicle_type_id":"4","last_reported":1727176043,"current_range_meters":35600,"station_id":"ce4bhg92rcd13ifvqf90","pricing_plan_id":"cebpf4jnsgd1na2vs0mg"},{"bike_id":"48557990-4eb5-4fa2-b998-12748800b44a","system_id":"levelo_inurba_marseille","lat":43.27069,"lon":5.42282,"is_reserved":false,"is_disabled":false,"rental_uris":{"android":"levelo://app?vid=48557990-4eb5-4fa2-b998-12748800b44a","ios":"levelo://app?vid=48557990-4eb5-4fa2-b998-12748800b44a"},"vehicle_type_id":"4","last_reported":1727176043,"current_range_meters":33600,"station_id":"ce4bhk92rcd13ifvqgb0","pricing_plan_id":"cebpf4jnsgd1na2vs0mg"},{"bike_id":"2c567e6d-9516-43a8-a805-6a796053112e","system_id":"levelo_inurba_marseille","lat":43.32476,"lon":5.36573,"is_reserved":false,"is_disabled":false,"rental_uris":{"android":"levelo://app?vid=2c567e6d-9516-43a8-a805-6a796053112e","ios":"levelo://app?vid=2c567e6d-9516-43a8-a805-6a796053112e"},"vehicle_type_id":"4","last_reported":1727176043,"current_range_meters":38800,"station_id":"ce4bhs12rcd13ifvqhvg","pricing_plan_id":"cebpf4jnsgd1na2vs0mg"},{"bike_id":"986694a0-e5ed-4553-8ab5-dfe78678ad95","system_id":"levelo_inurba_marseille","lat":43.32473,"lon":5.36572,"is_reserved":false,"is_disabled":false,"rental_uris":{"android":"levelo://app?vid=986694a0-e5ed-4553-8ab5-dfe78678ad95","ios":"levelo://app?vid=986694a0-e5ed-4553-8ab5-dfe78678ad95"},"vehicle_type_id":"4","last_reported":1727176043,"current_range_meters":27600,"station_id":"ce4bhs12rcd13ifvqhvg","pricing_plan_id":"cebpf4jnsgd1na2vs0mg"},{"bike_id":"3741c135-6583-410d-87b9-b4310a4bf662","system_id":"levelo_inurba_marseille","lat":43.26685,"lon":5.38265,"is_reserved":false,"is_disabled":false,"rental_uris":{"android":"levelo://app?vid=3741c135-6583-410d-87b9-b4310a4bf662","ios":"levelo://app?vid=3741c135-6583-410d-87b9-b4310a4bf662"},"vehicle_type_id":"4","last_reported":1727176043,"current_range_meters":38800,"station_id":"ce4bhg92rcd13ifvqf90","pricing_plan_id":"cebpf4jnsgd1na2vs0mg"},{"bike_id":"c64777d0-3386-46fc-ae9f-61f8beeade07","system_id":"levelo_inurba_marseille","lat":43.28268,"lon":5.35071,"is_reserved":false,"is_disabled":false,"rental_uris":{"android":"levelo://app?vid=c64777d0-3386-46fc-ae9f-61f8beeade07","ios":"levelo://app?vid=c64777d0-3386-46fc-ae9f-61f8beeade07"},"vehicle_type_id":"4","last_reported":1727176043,"current_range_meters":27600,"station_id":"ce4bhbp2rcd13ifvqerg","pricing_plan_id":"cebpf4jnsgd1na2vs0mg"},{"bike_id":"cb037699-9180-4cca-9257-9699aba3381e","system_id":"levelo_inurba_marseille","lat":43.24995,"lon":5.3892,"is_reserved":false,"is_disabled":false,"rental_uris":{"android":"levelo://app?vid=cb037699-9180-4cca-9257-9699aba3381e","ios":"levelo://app?vid=cb037699-9180-4cca-9257-9699aba3381e"},"vehicle_type_id":"4","last_reported":1727176043,"current_range_meters":39200,"station_id":"ce4bhgp2rcd13ifvqfd0","pricing_plan_id":"cebpf4jnsgd1na2vs0mg"},{"bike_id":"17701005-77c3-4e4f-a0b4-b2ece630517d","system_id":"levelo_inurba_marseille","lat":43.23962,"lon":5.36624,"is_reserved":false,"is_disabled":false,"rental_uris":{"android":"levelo://app?vid=17701005-77c3-4e4f-a0b4-b2ece630517d","ios":"levelo://app?vid=17701005-77c3-4e4f-a0b4-b2ece630517d"},"vehicle_type_id":"4","last_reported":1727176043,"current_range_meters":38800,"station_id":"ce4bhi12rcd13ifvqfp0","pricing_plan_id":"cebpf4jnsgd1na2vs0mg"},{"bike_id":"e5ecb953-43b6-40e6-9f73-99c952f50042","system_id":"levelo_inurba_marseille","lat":43.23146,"lon":5.43719,"is_reserved":false,"is_disabled":false,"rental_uris":{"android":"levelo://app?vid=e5ecb953-43b6-40e6-9f73-99c952f50042","ios":"levelo://app?vid=e5ecb953-43b6-40e6-9f73-99c952f50042"},"vehicle_type_id":"4","last_reported":1727176043,"current_range_meters":24800,"station_id":"ce4bhmp2rcd13ifvqgog","pricing_plan_id":"cebpf4jnsgd1na2vs0mg"},{"bike_id":"fe57e638-2e32-4de9-a694-726eae663078","system_id":"levelo_inurba_marseille","lat":43.30543,"lon":5.36535,"is_reserved":false,"is_disabled":false,"rental_uris":{"android":"levelo://app?vid=fe57e638-2e32-4de9-a694-726eae663078","ios":"levelo://app?vid=fe57e638-2e32-4de9-a694-726eae663078"},"vehicle_type_id":"4","last_reported":1727176043,"current_range_meters":28800,"station_id":"ce4bgs12rcd13ifvqcag","pricing_plan_id":"cebpf4jnsgd1na2vs0mg"},{"bike_id":"aae46356-2136-4e01-9b14-d77dfe3dbbd3","system_id":"levelo_inurba_marseille","lat":43.28135,"lon":5.378595,"is_reserved":false,"is_disabled":false,"rental_uris":{"android":"levelo://app?vid=aae46356-2136-4e01-9b14-d77dfe3dbbd3","ios":"levelo://app?vid=aae46356-2136-4e01-9b14-d77dfe3dbbd3"},"vehicle_type_id":"4","last_reported":1727176043,"current_range_meters":16800,"station_id":"ce4bha12rcd13ifvqee0","pricing_plan_id":"cebpf4jnsgd1na2vs0mg"},{"bike_id":"5f0bbf15-234c-4d10-8d49-5e13abf3af54","system_id":"levelo_inurba_marseille","lat":43.26939,"lon":5.40256,"is_reserved":false,"is_disabled":false,"rental_uris":{"android":"levelo://app?vid=5f0bbf15-234c-4d10-8d49-5e13abf3af54","ios":"levelo://app?vid=5f0bbf15-234c-4d10-8d49-5e13abf3af54"},"vehicle_type_id":"4","last_reported":1727176043,"current_range_meters":38400,"station_id":"cjm6bp8fraef2m0cb0m0","pricing_plan_id":"cebpf4jnsgd1na2vs0mg"},{"bike_id":"82d55f38-6d29-4563-a1ea-f73ae6303d44","system_id":"levelo_inurba_marseille","lat":43.28476,"lon":5.38414,"is_reserved":false,"is_disabled":false,"rental_uris":{"android":"levelo://app?vid=82d55f38-6d29-4563-a1ea-f73ae6303d44","ios":"levelo://app?vid=82d55f38-6d29-4563-a1ea-f73ae6303d44"},"vehicle_type_id":"4","last_reported":1727176043,"current_range_meters":25600,"station_id":"ce4bh512rcd13ifvqe3g","pricing_plan_id":"cebpf4jnsgd1na2vs0mg"},{"bike_id":"63ac3f3b-affc-4ed0-ad00-6c7dc2e92a73","system_id":"levelo_inurba_marseille","lat":43.30531,"lon":5.36722,"is_reserved":false,"is_disabled":false,"rental_uris":{"android":"levelo://app?vid=63ac3f3b-affc-4ed0-ad00-6c7dc2e92a73","ios":"levelo://app?vid=63ac3f3b-affc-4ed0-ad00-6c7dc2e92a73"},"vehicle_type_id":"4","last_reported":1727176043,"current_range_meters":20400,"station_id":"ce4bgrp2rcd13ifvqc9g","pricing_plan_id":"cebpf4jnsgd1na2vs0mg"},{"bike_id":"dc3d9ce9-dff9-429a-81c6-d6bfbf76b300","system_id":"levelo_inurba_marseille","lat":43.2872,"lon":5.37941,"is_reserved":false,"is_disabled":false,"rental_uris":{"android":"levelo://app?vid=dc3d9ce9-dff9-429a-81c6-d6bfbf76b300","ios":"levelo://app?vid=dc3d9ce9-dff9-429a-81c6-d6bfbf76b300"},"vehicle_type_id":"4","last_reported":1727176043,"current_range_meters":18800,"station_id":"ce4bh9p2rcd13ifvqec0","pricing_plan_id":"cebpf4jnsgd1na2vs0mg"},{"bike_id":"416706c5-d773-45e5-94db-ca09c7d3cb41","system_id":"levelo_inurba_marseille","lat":43.270365,"lon":5.39211,"is_reserved":false,"is_disabled":false,"rental_uris":{"android":"levelo://app?vid=416706c5-d773-45e5-94db-ca09c7d3cb41","ios":"levelo://app?vid=416706c5-d773-45e5-94db-ca09c7d3cb41"},"vehicle_type_id":"4","last_reported":1727176043,"current_range_meters":34000,"station_id":"ce4bhhh2rcd13ifvqfl0","pricing_plan_id":"cebpf4jnsgd1na2vs0mg"},{"bike_id":"01e3177f-2980-42c0-bc79-421123d82f75","system_id":"levelo_inurba_marseille","lat":43.25936,"lon":5.40899,"is_reserved":false,"is_disabled":false,"rental_uris":{"android":"levelo://app?vid=01e3177f-2980-42c0-bc79-421123d82f75","ios":"levelo://app?vid=01e3177f-2980-42c0-bc79-421123d82f75"},"vehicle_type_id":"4","last_reported":1727176043,"current_range_meters":9200,"station_id":"ce4bhm92rcd13ifvqglg","pricing_plan_id":"cebpf4jnsgd1na2vs0mg"},{"bike_id":"ef462b40-5abb-456e-ae03-2b347f34b8dc","system_id":"levelo_inurba_marseille","lat":43.30467,"lon":5.37911,"is_reserved":false,"is_disabled":false,"rental_uris":{"android":"levelo://app?vid=ef462b40-5abb-456e-ae03-2b347f34b8dc","ios":"levelo://app?vid=ef462b40-5abb-456e-ae03-2b347f34b8dc"},"vehicle_type_id":"4","last_reported":1727176043,"current_range_meters":23200,"station_id":"ce4bgup2rcd13ifvqcn0","pricing_plan_id":"cebpf4jnsgd1na2vs0mg"},{"bike_id":"7a8bb622-0521-4ace-a01e-aea340970ff6","system_id":"levelo_inurba_marseille","lat":43.24661,"lon":5.38162,"is_reserved":false,"is_disabled":false,"rental_uris":{"android":"levelo://app?vid=7a8bb622-0521-4ace-a01e-aea340970ff6","ios":"levelo://app?vid=7a8bb622-0521-4ace-a01e-aea340970ff6"},"vehicle_type_id":"4","last_reported":1727176043,"current_range_meters":24000,"station_id":"ce4bhih2rcd13ifvqfr0","pricing_plan_id":"cebpf4jnsgd1na2vs0mg"},{"bike_id":"87bc3c3a-5b0d-4d32-b107-ce17692bf59d","system_id":"levelo_inurba_marseille","lat":43.2315,"lon":5.43705,"is_reserved":false,"is_disabled":false,"rental_uris":{"android":"levelo://app?vid=87bc3c3a-5b0d-4d32-b107-ce17692bf59d","ios":"levelo://app?vid=87bc3c3a-5b0d-4d32-b107-ce17692bf59d"},"vehicle_type_id":"4","last_reported":1727176043,"current_range_meters":4000,"station_id":"ce4bhmp2rcd13ifvqgog","pricing_plan_id":"cebpf4jnsgd1na2vs0mg"},{"bike_id":"3788a178-e27a-49dc-b146-85410c0cb6ca","system_id":"levelo_inurba_marseille","lat":43.30597,"lon":5.39364,"is_reserved":false,"is_disabled":false,"rental_uris":{"android":"levelo://app?vid=3788a178-e27a-49dc-b146-85410c0cb6ca","ios":"levelo://app?vid=3788a178-e27a-49dc-b146-85410c0cb6ca"},"vehicle_type_id":"4","last_reported":1727176043,"current_range_meters":36800,"station_id":"ce4bh0p2rcd13ifvqd80","pricing_plan_id":"cebpf4jnsgd1na2vs0mg"},{"bike_id":"feb7e672-20ed-4429-a9fd-1f3290550401","system_id":"levelo_inurba_marseille","lat":43.337444,"lon":5.374475,"is_reserved":false,"is_disabled":false,"rental_uris":{"android":"levelo://app?vid=feb7e672-20ed-4429-a9fd-1f3290550401","ios":"levelo://app?vid=feb7e672-20ed-4429-a9fd-1f3290550401"},"vehicle_type_id":"4","last_reported":1727176043,"current_range_meters":30400,"station_id":"","pricing_plan_id":"cebpf4jnsgd1na2vs0mg"},{"bike_id":"f16f0152-cd0d-4d76-b6ce-95579f5df0b4","system_id":"levelo_inurba_marseille","lat":43.29934,"lon":5.36546,"is_reserved":false,"is_disabled":false,"rental_uris":{"android":"levelo://app?vid=f16f0152-cd0d-4d76-b6ce-95579f5df0b4","ios":"levelo://app?vid=f16f0152-cd0d-4d76-b6ce-95579f5df0b4"},"vehicle_type_id":"4","last_reported":1727176043,"current_range_meters":21600,"station_id":"ce4bgm92rcd13ifvqbr0","pricing_plan_id":"cebpf4jnsgd1na2vs0mg"},{"bike_id":"a0c97515-3c94-4a97-8379-f7b7767cc614","system_id":"levelo_inurba_marseille","lat":43.24078,"lon":5.37757,"is_reserved":false,"is_disabled":false,"rental_uris":{"android":"levelo://app?vid=a0c97515-3c94-4a97-8379-f7b7767cc614","ios":"levelo://app?vid=a0c97515-3c94-4a97-8379-f7b7767cc614"},"vehicle_type_id":"4","last_reported":1727176043,"current_range_meters":25200,"station_id":"ce4bhnp2rcd13ifvqgvg","pricing_plan_id":"cebpf4jnsgd1na2vs0mg"},{"bike_id":"c05070be-a82a-421e-9331-c79460f91b86","system_id":"levelo_inurba_marseille","lat":43.31166,"lon":5.38724,"is_reserved":false,"is_disabled":false,"rental_uris":{"android":"levelo://app?vid=c05070be-a82a-421e-9331-c79460f91b86","ios":"levelo://app?vid=c05070be-a82a-421e-9331-c79460f91b86"},"vehicle_type_id":"4","last_reported":1727176043,"current_range_meters":33600,"station_id":"ce4bgv12rcd13ifvqcp0","pricing_plan_id":"cebpf4jnsgd1na2vs0mg"},{"bike_id":"7c6ec264-7013-498d-b486-94611ea4274a","system_id":"levelo_inurba_marseille","lat":43.264955,"lon":5.395418,"is_reserved":false,"is_disabled":false,"rental_uris":{"android":"levelo://app?vid=7c6ec264-7013-498d-b486-94611ea4274a","ios":"levelo://app?vid=7c6ec264-7013-498d-b486-94611ea4274a"},"vehicle_type_id":"4","last_reported":1727176043,"current_range_meters":20400,"station_id":"ce4bhi12rcd13ifvqfq0","pricing_plan_id":"cebpf4jnsgd1na2vs0mg"},{"bike_id":"68536a3b-9d4c-4778-842d-bec797c06af3","system_id":"levelo_inurba_marseille","lat":43.29107,"lon":5.38099,"is_reserved":false,"is_disabled":false,"rental_uris":{"android":"levelo://app?vid=68536a3b-9d4c-4778-842d-bec797c06af3","ios":"levelo://app?vid=68536a3b-9d4c-4778-842d-bec797c06af3"},"vehicle_type_id":"4","last_reported":1727176043,"current_range_meters":36800,"station_id":"ce4bh512rcd13ifvqe2g","pricing_plan_id":"cebpf4jnsgd1na2vs0mg"},{"bike_id":"337d797f-5bad-4e42-a3a9-741eceae0aa0","system_id":"levelo_inurba_marseille","lat":43.33723,"lon":5.39183,"is_reserved":false,"is_disabled":false,"rental_uris":{"android":"levelo://app?vid=337d797f-5bad-4e42-a3a9-741eceae0aa0","ios":"levelo://app?vid=337d797f-5bad-4e42-a3a9-741eceae0aa0"},"vehicle_type_id":"4","last_reported":1727176043,"current_range_meters":38000,"station_id":"ce4bhr92rcd13ifvqhsg","pricing_plan_id":"cebpf4jnsgd1na2vs0mg"},{"bike_id":"4d248d67-7876-4d4b-a4d0-58c880f6e169","system_id":"levelo_inurba_marseille","lat":43.3014,"lon":5.37424,"is_reserved":false,"is_disabled":false,"rental_uris":{"android":"levelo://app?vid=4d248d67-7876-4d4b-a4d0-58c880f6e169","ios":"levelo://app?vid=4d248d67-7876-4d4b-a4d0-58c880f6e169"},"vehicle_type_id":"4","last_reported":1727176043,"current_range_meters":36800,"station_id":"ce4bgs92rcd13ifvqcc0","pricing_plan_id":"cebpf4jnsgd1na2vs0mg"},{"bike_id":"ebabd93c-8308-4f8a-93ac-d572213397f7","system_id":"levelo_inurba_marseille","lat":43.27484,"lon":5.42465,"is_reserved":false,"is_disabled":false,"rental_uris":{"android":"levelo://app?vid=ebabd93c-8308-4f8a-93ac-d572213397f7","ios":"levelo://app?vid=ebabd93c-8308-4f8a-93ac-d572213397f7"},"vehicle_type_id":"4","last_reported":1727176043,"current_range_meters":2800,"station_id":"ce4bhn92rcd13ifvqgrg","pricing_plan_id":"cebpf4jnsgd1na2vs0mg"},{"bike_id":"313886ea-d7e6-4f46-88c2-d20fced15e63","system_id":"levelo_inurba_marseille","lat":43.27496,"lon":5.42451,"is_reserved":false,"is_disabled":false,"rental_uris":{"android":"levelo://app?vid=313886ea-d7e6-4f46-88c2-d20fced15e63","ios":"levelo://app?vid=313886ea-d7e6-4f46-88c2-d20fced15e63"},"vehicle_type_id":"4","last_reported":1727176043,"current_range_meters":8000,"station_id":"ce4bhn92rcd13ifvqgrg","pricing_plan_id":"cebpf4jnsgd1na2vs0mg"},{"bike_id":"27b024c7-ffc8-4dd2-8dcf-4f6767cacc7c","system_id":"levelo_inurba_marseille","lat":43.27811,"lon":5.40712,"is_reserved":false,"is_disabled":false,"rental_uris":{"android":"levelo://app?vid=27b024c7-ffc8-4dd2-8dcf-4f6767cacc7c","ios":"levelo://app?vid=27b024c7-ffc8-4dd2-8dcf-4f6767cacc7c"},"vehicle_type_id":"4","last_reported":1727176043,"current_range_meters":30000,"station_id":"ce4bhnh2rcd13ifvqgtg","pricing_plan_id":"cebpf4jnsgd1na2vs0mg"},{"bike_id":"4a4bfd88-bdfc-4802-b3a8-e798e4274727","system_id":"levelo_inurba_marseille","lat":43.32292,"lon":5.38249,"is_reserved":false,"is_disabled":false,"rental_uris":{"android":"levelo://app?vid=4a4bfd88-bdfc-4802-b3a8-e798e4274727","ios":"levelo://app?vid=4a4bfd88-bdfc-4802-b3a8-e798e4274727"},"vehicle_type_id":"4","last_reported":1727176043,"current_range_meters":33600,"station_id":"ce4bhr12rcd13ifvqhqg","pricing_plan_id":"cebpf4jnsgd1na2vs0mg"},{"bike_id":"fe9291c0-c1e0-47d3-902d-7bd90e99bf30","system_id":"levelo_inurba_marseille","lat":43.25935,"lon":5.40912,"is_reserved":false,"is_disabled":false,"rental_uris":{"android":"levelo://app?vid=fe9291c0-c1e0-47d3-902d-7bd90e99bf30","ios":"levelo://app?vid=fe9291c0-c1e0-47d3-902d-7bd90e99bf30"},"vehicle_type_id":"4","last_reported":1727176043,"current_range_meters":36000,"station_id":"ce4bhm92rcd13ifvqglg","pricing_plan_id":"cebpf4jnsgd1na2vs0mg"},{"bike_id":"3645aabc-25c4-4509-879c-cf8db9f5f469","system_id":"levelo_inurba_marseille","lat":43.26041,"lon":5.4074,"is_reserved":false,"is_disabled":false,"rental_uris":{"android":"levelo://app?vid=3645aabc-25c4-4509-879c-cf8db9f5f469","ios":"levelo://app?vid=3645aabc-25c4-4509-879c-cf8db9f5f469"},"vehicle_type_id":"4","last_reported":1727176043,"current_range_meters":30000,"station_id":"","pricing_plan_id":"cebpf4jnsgd1na2vs0mg"},{"bike_id":"e2e5f22e-2a2c-49b9-bf5f-2ef0de4b455d","system_id":"levelo_inurba_marseille","lat":43.29257,"lon":5.40906,"is_reserved":false,"is_disabled":false,"rental_uris":{"android":"levelo://app?vid=e2e5f22e-2a2c-49b9-bf5f-2ef0de4b455d","ios":"levelo://app?vid=e2e5f22e-2a2c-49b9-bf5f-2ef0de4b455d"},"vehicle_type_id":"4","last_reported":1727176043,"current_range_meters":38800,"station_id":"ce4bh192rcd13ifvqdc0","pricing_plan_id":"cebpf4jnsgd1na2vs0mg"},{"bike_id":"18da4ebd-d367-4c55-b156-dabc68113dce","system_id":"levelo_inurba_marseille","lat":43.25867,"lon":5.39896,"is_reserved":false,"is_disabled":false,"rental_uris":{"android":"levelo://app?vid=18da4ebd-d367-4c55-b156-dabc68113dce","ios":"levelo://app?vid=18da4ebd-d367-4c55-b156-dabc68113dce"},"vehicle_type_id":"4","last_reported":1727176043,"current_range_meters":26000,"station_id":"ce4bhl92rcd13ifvqghg","pricing_plan_id":"cebpf4jnsgd1na2vs0mg"},{"bike_id":"6a234ea4-e692-42a3-ac3e-9d89c87610c4","system_id":"levelo_inurba_marseille","lat":43.2742,"lon":5.39415,"is_reserved":false,"is_disabled":false,"rental_uris":{"android":"levelo://app?vid=6a234ea4-e692-42a3-ac3e-9d89c87610c4","ios":"levelo://app?vid=6a234ea4-e692-42a3-ac3e-9d89c87610c4"},"vehicle_type_id":"4","last_reported":1727176043,"current_range_meters":21600,"station_id":"ce4bhdp2rcd13ifvqf20","pricing_plan_id":"cebpf4jnsgd1na2vs0mg"},{"bike_id":"dfa81c4a-d73e-4fa2-8f3d-b814bf574f22","system_id":"levelo_inurba_marseille","lat":43.26957,"lon":5.38634,"is_reserved":false,"is_disabled":false,"rental_uris":{"android":"levelo://app?vid=dfa81c4a-d73e-4fa2-8f3d-b814bf574f22","ios":"levelo://app?vid=dfa81c4a-d73e-4fa2-8f3d-b814bf574f22"},"vehicle_type_id":"4","last_reported":1727176043,"current_range_meters":36400,"station_id":"ce4bhh92rcd13ifvqfh0","pricing_plan_id":"cebpf4jnsgd1na2vs0mg"},{"bike_id":"e4265ef0-80ea-47a1-8371-4393c7a7e3cc","system_id":"levelo_inurba_marseille","lat":43.292622,"lon":5.408983,"is_reserved":false,"is_disabled":false,"rental_uris":{"android":"levelo://app?vid=e4265ef0-80ea-47a1-8371-4393c7a7e3cc","ios":"levelo://app?vid=e4265ef0-80ea-47a1-8371-4393c7a7e3cc"},"vehicle_type_id":"4","last_reported":1727176043,"current_range_meters":14800,"station_id":"ce4bh192rcd13ifvqdc0","pricing_plan_id":"cebpf4jnsgd1na2vs0mg"},{"bike_id":"b04a5423-964d-4633-8134-81e1c0df61ef","system_id":"levelo_inurba_marseille","lat":43.3248,"lon":5.36579,"is_reserved":false,"is_disabled":false,"rental_uris":{"android":"levelo://app?vid=b04a5423-964d-4633-8134-81e1c0df61ef","ios":"levelo://app?vid=b04a5423-964d-4633-8134-81e1c0df61ef"},"vehicle_type_id":"4","last_reported":1727176043,"current_range_meters":8000,"station_id":"ce4bhs12rcd13ifvqhvg","pricing_plan_id":"cebpf4jnsgd1na2vs0mg"},{"bike_id":"18c4ac1f-fb8e-4c20-a027-05a5e4c6d309","system_id":"levelo_inurba_marseille","lat":43.30277,"lon":5.37701,"is_reserved":false,"is_disabled":false,"rental_uris":{"android":"levelo://app?vid=18c4ac1f-fb8e-4c20-a027-05a5e4c6d309","ios":"levelo://app?vid=18c4ac1f-fb8e-4c20-a027-05a5e4c6d309"},"vehicle_type_id":"4","last_reported":1727176043,"current_range_meters":30000,"station_id":"ce4bguh2rcd13ifvqcj0","pricing_plan_id":"cebpf4jnsgd1na2vs0mg"},{"bike_id":"78c9fbae-a517-464c-b731-5a53c1656251","system_id":"levelo_inurba_marseille","lat":43.32472,"lon":5.36576,"is_reserved":false,"is_disabled":false,"rental_uris":{"android":"levelo://app?vid=78c9fbae-a517-464c-b731-5a53c1656251","ios":"levelo://app?vid=78c9fbae-a517-464c-b731-5a53c1656251"},"vehicle_type_id":"4","last_reported":1727176043,"current_range_meters":22800,"station_id":"ce4bhs12rcd13ifvqhvg","pricing_plan_id":"cebpf4jnsgd1na2vs0mg"},{"bike_id":"80c09bcd-f591-4f57-827d-58dd1b44e8f1","system_id":"levelo_inurba_marseille","lat":43.23967,"lon":5.36628,"is_reserved":false,"is_disabled":false,"rental_uris":{"android":"levelo://app?vid=80c09bcd-f591-4f57-827d-58dd1b44e8f1","ios":"levelo://app?vid=80c09bcd-f591-4f57-827d-58dd1b44e8f1"},"vehicle_type_id":"4","last_reported":1727176043,"current_range_meters":38800,"station_id":"ce4bhi12rcd13ifvqfp0","pricing_plan_id":"cebpf4jnsgd1na2vs0mg"},{"bike_id":"f57a687d-6e59-440f-a32c-db5cd432a50f","system_id":"levelo_inurba_marseille","lat":43.27063,"lon":5.42271,"is_reserved":false,"is_disabled":false,"rental_uris":{"android":"levelo://app?vid=f57a687d-6e59-440f-a32c-db5cd432a50f","ios":"levelo://app?vid=f57a687d-6e59-440f-a32c-db5cd432a50f"},"vehicle_type_id":"4","last_reported":1727176043,"current_range_meters":14800,"station_id":"ce4bhk92rcd13ifvqgb0","pricing_plan_id":"cebpf4jnsgd1na2vs0mg"},{"bike_id":"bb27c8e9-81b1-486a-9fb0-f67919481a1f","system_id":"levelo_inurba_marseille","lat":43.30466,"lon":5.37908,"is_reserved":false,"is_disabled":false,"rental_uris":{"android":"levelo://app?vid=bb27c8e9-81b1-486a-9fb0-f67919481a1f","ios":"levelo://app?vid=bb27c8e9-81b1-486a-9fb0-f67919481a1f"},"vehicle_type_id":"4","last_reported":1727176043,"current_range_meters":30800,"station_id":"ce4bgup2rcd13ifvqcn0","pricing_plan_id":"cebpf4jnsgd1na2vs0mg"},{"bike_id":"10b468c0-9a66-42db-b336-2aaa7a88cf15","system_id":"levelo_inurba_marseille","lat":43.32045,"lon":5.41567,"is_reserved":false,"is_disabled":false,"rental_uris":{"android":"levelo://app?vid=10b468c0-9a66-42db-b336-2aaa7a88cf15","ios":"levelo://app?vid=10b468c0-9a66-42db-b336-2aaa7a88cf15"},"vehicle_type_id":"4","last_reported":1727176043,"current_range_meters":38800,"station_id":"ce4bhq92rcd13ifvqhkg","pricing_plan_id":"cebpf4jnsgd1na2vs0mg"},{"bike_id":"ede37da0-431f-462e-af97-45c71435ab2a","system_id":"levelo_inurba_marseille","lat":43.24175,"lon":5.39714,"is_reserved":false,"is_disabled":false,"rental_uris":{"android":"levelo://app?vid=ede37da0-431f-462e-af97-45c71435ab2a","ios":"levelo://app?vid=ede37da0-431f-462e-af97-45c71435ab2a"},"vehicle_type_id":"4","last_reported":1727176043,"current_range_meters":26800,"station_id":"ce4bhn12rcd13ifvqgpg","pricing_plan_id":"cebpf4jnsgd1na2vs0mg"},{"bike_id":"3c5abc47-ec0e-4fb1-9d63-a70ffbf47084","system_id":"levelo_inurba_marseille","lat":43.26684,"lon":5.38264,"is_reserved":false,"is_disabled":false,"rental_uris":{"android":"levelo://app?vid=3c5abc47-ec0e-4fb1-9d63-a70ffbf47084","ios":"levelo://app?vid=3c5abc47-ec0e-4fb1-9d63-a70ffbf47084"},"vehicle_type_id":"4","last_reported":1727176043,"current_range_meters":14400,"station_id":"ce4bhg92rcd13ifvqf90","pricing_plan_id":"cebpf4jnsgd1na2vs0mg"},{"bike_id":"60c3d408-37fd-4331-8912-513e774f28d8","system_id":"levelo_inurba_marseille","lat":43.306,"lon":5.39365,"is_reserved":false,"is_disabled":false,"rental_uris":{"android":"levelo://app?vid=60c3d408-37fd-4331-8912-513e774f28d8","ios":"levelo://app?vid=60c3d408-37fd-4331-8912-513e774f28d8"},"vehicle_type_id":"4","last_reported":1727176043,"current_range_meters":25200,"station_id":"ce4bh0p2rcd13ifvqd80","pricing_plan_id":"cebpf4jnsgd1na2vs0mg"},{"bike_id":"f13456bb-d149-479a-a931-01c4c05cb556","system_id":"levelo_inurba_marseille","lat":43.27839,"lon":5.39214,"is_reserved":false,"is_disabled":false,"rental_uris":{"android":"levelo://app?vid=f13456bb-d149-479a-a931-01c4c05cb556","ios":"levelo://app?vid=f13456bb-d149-479a-a931-01c4c05cb556"},"vehicle_type_id":"4","last_reported":1727176043,"current_range_meters":32000,"station_id":"ce4bhjp2rcd13ifvqga0","pricing_plan_id":"cebpf4jnsgd1na2vs0mg"},