{"last_updated":1739672135,"ttl":60,"version":"2.2","data":{"bikes":[{"bike_id":"07f58983-6258-4a7e-b3e1-a023b84e70e2","system_id":"levelo_inurba_marseille","lat":43.3138,"lon":5.38504,"is_reserved":false,"is_disabled":false,"rental_uris":{"android":"levelo://app?vid=07f58983-6258-4a7e-b3e1-a023b84e70e2","ios":"levelo://app?vid=07f58983-6258-4a7e-b3e1-a023b84e70e2"},"vehicle_type_id":"4","last_reported":1739672136,"current_range_meters":38400,"station_id":"ce4bgt92rcd13ifvqcf0","pricing_plan_id":"cebpf4jnsgd1na2vs0mg"},{"bike_id":"b1589c62-efb6-4964-ade1-e2ad8e9b6ead","system_id":"levelo_inurba_marseille","lat":43.23149,"lon":5.43707,"is_reserved":false,"is_disabled":false,"rental_uris":{"android":"levelo://app?vid=b1589c62-efb6-4964-ade1-e2ad8e9b6ead","ios":"levelo://app?vid=b1589c62-efb6-4964-ade1-e2ad8e9b6ead"},"vehicle_type_id":"4","last_reported":1739672136,"current_range_meters":38400,"station_id":"ce4bhmp2rcd13ifvqgog","pricing_plan_id":"cebpf4jnsgd1na2vs0mg"},{"bike_id":"5a7b9fda-fcf7-4f0d-b371-842def3cdff7","system_id":"levelo_inurba_marseille","lat":43.29297,"lon":5.40161,"is_reserved":false,"is_disabled":true,"rental_uris":{"android":"levelo://app?vid=5a7b9fda-fcf7-4f0d-b371-842def3cdff7","ios":"levelo://app?vid=5a7b9fda-fcf7-4f0d-b371-842def3cdff7"},"vehicle_type_id":"4","last_reported":1739672136,"current_range_meters":35600,"station_id":"ce4bh312rcd13ifvqdk0","pricing_plan_id":"cebpf4jnsgd1na2vs0mg"},{"bike_id":"314ecb77-8b90-4fdb-aaf3-bbba8b437b8a","system_id":"levelo_inurba_marseille","lat":43.29089,"lon":5.38033,"is_reserved":false,"is_disabled":false,"rental_uris":{"android":"levelo://app?vid=314ecb77-8b90-4fdb-aaf3-bbba8b437b8a","ios":"levelo://app?vid=314ecb77-8b90-4fdb-aaf3-bbba8b437b8a"},"vehicle_type_id":"4","last_reported":1739672136,"current_range_meters":6400,"station_id":"","pricing_plan_id":"cebpf4jnsgd1na2vs0mg"},{"bike_id":"12c3694c-32df-46ed-95f2-cdd3b6575844","system_id":"levelo_inurba_marseille","lat":43.27177,"lon":5.40994,"is_reserved":false,"is_disabled":false,"rental_uris":{"android":"levelo://app?vid=12c3694c-32df-46ed-95f2-cdd3b6575844","ios":"levelo://app?vid=12c3694c-32df-46ed-95f2-cdd3b6575844"},"vehicle_type_id":"4","last_reported":1739672136,"current_range_meters":24000,"station_id":"ce4bhl12rcd13ifvqgf0","pricing_plan_id":"cebpf4jnsgd1na2vs0mg"},{"bike_id":"48a00b36-c772-4089-a1d7-3835b3c473bc","system_id":"levelo_inurba_marseille","lat":43.29784,"lon":5.36477,"is_reserved":false,"is_disabled":false,"rental_uris":{"android":"levelo://app?vid=48a00b36-c772-4089-a1d7-3835b3c473bc","ios":"levelo://app?vid=48a00b36-c772-4089-a1d7-3835b3c473bc"},"vehicle_type_id":"4","last_reported":1739672136,"current_range_meters":38800,"station_id":"ce4bgn12rcd13ifvqbt0","pricing_plan_id":"cebpf4jnsgd1na2vs0mg"},{"bike_id":"62f3880f-9989-4de6-98f7-905a65a8a1c8","system_id":"levelo_inurba_marseille","lat":43.301337,"lon":5.387773,"is_reserved":false,"is_disabled":false,"rental_uris":{"android":"levelo://app?vid=62f3880f-9989-4de6-98f7-905a65a8a1c8","ios":"levelo://app?vid=62f3880f-9989-4de6-98f7-905a65a8a1c8"},"vehicle_type_id":"4","last_reported":1739672136,"current_range_meters":32400,"station_id":"ce4bghh2rcd13ifvqb60","pricing_plan_id":"cebpf4jnsgd1na2vs0mg"},{"bike_id":"4f45f8e9-0c7b-4084-8dd3-4de8e3df7577","system_id":"levelo_inurba_marseille","lat":43.25115,"lon":5.40318,"is_reserved":false,"is_disabled":false,"rental_uris":{"android":"levelo://app?vid=4f45f8e9-0c7b-4084-8dd3-4de8e3df7577","ios":"levelo://app?vid=4f45f8e9-0c7b-4084-8dd3-4de8e3df7577"},"vehicle_type_id":"4","last_reported":1739672136,"current_range_meters":39200,"station_id":"ce4bhlh2rcd13ifvqgig","pricing_plan_id":"cebpf4jnsgd1na2vs0mg"},{"bike_id":"0ae73e20-3ba2-4a20-bef5-04dff4cd870f","system_id":"levelo_inurba_marseille","lat":43.29879,"lon":5.38914,"is_reserved":false,"is_disabled":false,"rental_uris":{"android":"levelo://app?vid=0ae73e20-3ba2-4a20-bef5-04dff4cd870f","ios":"levelo://app?vid=0ae73e20-3ba2-4a20-bef5-04dff4cd870f"},"vehicle_type_id":"4","last_reported":1739672136,"current_range_meters":11200,"station_id":"ce4bh392rcd13ifvqdl0","pricing_plan_id":"cebpf4jnsgd1na2vs0mg"},{"bike_id":"7c247a35-884c-42c8-b096-04ee8cdacc84","system_id":"levelo_inurba_marseille","lat":43.29872,"lon":5.38916,"is_reserved":false,"is_disabled":false,"rental_uris":{"android":"levelo://app?vid=7c247a35-884c-42c8-b096-04ee8cdacc84","ios":"levelo://app?vid=7c247a35-884c-42c8-b096-04ee8cdacc84"},"vehicle_type_id":"4","last_reported":1739672136,"current_range_meters":39200,"station_id":"ce4bh392rcd13ifvqdl0","pricing_plan_id":"cebpf4jnsgd1na2vs0mg"},{"bike_id":"56851809-1ddb-4244-9921-277fa67ca171","system_id":"levelo_inurba_marseille","lat":43.28825,"lon":5.35845,"is_reserved":false,"is_disabled":false,"rental_uris":{"android":"levelo://app?vid=56851809-1ddb-4244-9921-277fa67ca171","ios":"levelo://app?vid=56851809-1ddb-4244-9921-277fa67ca171"},"vehicle_type_id":"4","last_reported":1739672136,"current_range_meters":8800,"station_id":"ce4bhb12rcd13ifvqem0","pricing_plan_id":"cebpf4jnsgd1na2vs0mg"},{"bike_id":"ff426081-3726-4b6c-aa9f-0d0db0cbc7e6","system_id":"levelo_inurba_marseille","lat":43.28033,"lon":5.36956,"is_reserved":false,"is_disabled":false,"rental_uris":{"android":"levelo://app?vid=ff426081-3726-4b6c-aa9f-0d0db0cbc7e6","ios":"levelo://app?vid=ff426081-3726-4b6c-aa9f-0d0db0cbc7e6"},"vehicle_type_id":"4","last_reported":1739672136,"current_range_meters":38000,"station_id":"ce4bha12rcd13ifvqef0","pricing_plan_id":"cebpf4jnsgd1na2vs0mg"},{"bike_id":"58558eec-a927-4202-aa3d-c8ad7d804276","system_id":"levelo_inurba_marseille","lat":43.33027,"lon":5.39039,"is_reserved":false,"is_disabled":false,"rental_uris":{"android":"levelo://app?vid=58558eec-a927-4202-aa3d-c8ad7d804276","ios":"levelo://app?vid=58558eec-a927-4202-aa3d-c8ad7d804276"},"vehicle_type_id":"4","last_reported":1739672136,"current_range_meters":38800,"station_id":"ce4bhr92rcd13ifvqhrg","pricing_plan_id":"cebpf4jnsgd1na2vs0mg"},{"bike_id":"b2b69db9-a41c-4d37-b7e5-2536d9067581","system_id":"levelo_inurba_marseille","lat":43.279068,"lon":5.380094,"is_reserved":false,"is_disabled":false,"rental_uris":{"android":"levelo://app?vid=b2b69db9-a41c-4d37-b7e5-2536d9067581","ios":"levelo://app?vid=b2b69db9-a41c-4d37-b7e5-2536d9067581"},"vehicle_type_id":"4","last_reported":1739672136,"current_range_meters":26000,"station_id":"ce4bhf92rcd13ifvqf50","pricing_plan_id":"cebpf4jnsgd1na2vs0mg"},{"bike_id":"8c76a68a-1681-44e1-9c07-f9fb5ba2aeb9","system_id":"levelo_inurba_marseille","lat":43.25566,"lon":5.39782,"is_reserved":false,"is_disabled":false,"rental_uris":{"android":"levelo://app?vid=8c76a68a-1681-44e1-9c07-f9fb5ba2aeb9","ios":"levelo://app?vid=8c76a68a-1681-44e1-9c07-f9fb5ba2aeb9"},"vehicle_type_id":"4","last_reported":1739672136,"current_range_meters":32000,"station_id":"","pricing_plan_id":"cebpf4jnsgd1na2vs0mg"},{"bike_id":"5d583a39-7c00-40c3-8b46-b565e7717844","system_id":"levelo_inurba_marseille","lat":43.29515,"lon":5.39054,"is_reserved":false,"is_disabled":false,"rental_uris":{"android":"levelo://app?vid=5d583a39-7c00-40c3-8b46-b565e7717844","ios":"levelo://app?vid=5d583a39-7c00-40c3-8b46-b565e7717844"},"vehicle_type_id":"4","last_reported":1739672136,"current_range_meters":36400,"station_id":"ce4bh3p2rcd13ifvqdp0","pricing_plan_id":"cebpf4jnsgd1na2vs0mg"},{"bike_id":"f5f8dc66-64c5-4881-82b1-6414e53b43d4","system_id":"levelo_inurba_marseille","lat":43.28622,"lon":5.35096,"is_reserved":false,"is_disabled":false,"rental_uris":{"android":"levelo://app?vid=f5f8dc66-64c5-4881-82b1-6414e53b43d4","ios":"levelo://app?vid=f5f8dc66-64c5-4881-82b1-6414e53b43d4"},"vehicle_type_id":"4","last_reported":1739672136,"current_range_meters":8800,"station_id":"ce4bhch2rcd13ifvqeug","pricing_plan_id":"cebpf4jnsgd1na2vs0mg"},{"bike_id":"c7322498-81a4-46c8-b4c9-ec796bfac1e6","system_id":"levelo_inurba_marseille","lat":43.24171,"lon":5.36385,"is_reserved":false,"is_disabled":false,"rental_uris":{"android":"levelo://app?vid=c7322498-81a4-46c8-b4c9-ec796bfac1e6","ios":"levelo://app?vid=c7322498-81a4-46c8-b4c9-ec796bfac1e6"},"vehicle_type_id":"4","last_reported":1739672136,"current_range_meters":37600,"station_id":"cpo36qri1sfpv3e86is0","pricing_plan_id":"cebpf4jnsgd1na2vs0mg"},{"bike_id":"cfa076b0-f163-40aa-aaeb-78353d7f40ed","system_id":"levelo_inurba_marseille","lat":43.27665,"lon":5.38904,"is_reserved":false,"is_disabled":false,"rental_uris":{"android":"levelo://app?vid=cfa076b0-f163-40aa-aaeb-78353d7f40ed","ios":"levelo://app?vid=cfa076b0-f163-40aa-aaeb-78353d7f40ed"},"vehicle_type_id":"4","last_reported":1739672136,"current_range_meters":38000,"station_id":"ce4bhi12rcd13ifvqfo0","pricing_plan_id":"cebpf4jnsgd1na2vs0mg"},{"bike_id":"90f3e139-bace-4d38-b0a9-483c2a21ef01","system_id":"levelo_inurba_marseille","lat":43.2795,"lon":5.41035,"is_reserved":false,"is_disabled":false,"rental_uris":{"android":"levelo://app?vid=90f3e139-bace-4d38-b0a9-483c2a21ef01","ios":"levelo://app?vid=90f3e139-bace-4d38-b0a9-483c2a21ef01"},"vehicle_type_id":"4","last_reported":1739672136,"current_range_meters":8400,"station_id":"ce4bhnp2rcd13ifvqh0g","pricing_plan_id":"cebpf4jnsgd1na2vs0mg"},{"bike_id":"6514792d-95f6-4e90-8aa8-7a4ddadd975b","system_id":"levelo_inurba_marseille","lat":43.30783,"lon":5.37654,"is_reserved":false,"is_disabled":false,"rental_uris":{"android":"levelo://app?vid=6514792d-95f6-4e90-8aa8-7a4ddadd975b","ios":"levelo://app?vid=6514792d-95f6-4e90-8aa8-7a4ddadd975b"},"vehicle_type_id":"4","last_reported":1739672136,"current_range_meters":22000,"station_id":"ce4bgv92rcd13ifvqcq0","pricing_plan_id":"cebpf4jnsgd1na2vs0mg"},{"bike_id":"78a75ae7-614a-44b0-9497-a54a4d375fae","system_id":"levelo_inurba_marseille","lat":43.26203,"lon":5.37925,"is_reserved":false,"is_disabled":false,"rental_uris":{"android":"levelo://app?vid=78a75ae7-614a-44b0-9497-a54a4d375fae","ios":"levelo://app?vid=78a75ae7-614a-44b0-9497-a54a4d375fae"},"vehicle_type_id":"4","last_reported":1739672136,"current_range_meters":38800,"station_id":"ce4bhjp2rcd13ifvqg90","pricing_plan_id":"cebpf4jnsgd1na2vs0mg"},{"bike_id":"535c2beb-f240-4c65-b159-9bc48228c01d","system_id":"levelo_inurba_marseille","lat":43.28715,"lon":5.37929,"is_reserved":false,"is_disabled":false,"rental_uris":{"android":"levelo://app?vid=535c2beb-f240-4c65-b159-9bc48228c01d","ios":"levelo://app?vid=535c2beb-f240-4c65-b159-9bc48228c01d"},"vehicle_type_id":"4","last_reported":1739672136,"current_range_meters":38000,"station_id":"ce4bh9p2rcd13ifvqec0","pricing_plan_id":"cebpf4jnsgd1na2vs0mg"},{"bike_id":"12b446d5-f76b-4158-af75-29a23d10c68e","system_id":"levelo_inurba_marseille","lat":43.30651,"lon":5.40068,"is_reserved":false,"is_disabled":false,"rental_uris":{"android":"levelo://app?vid=12b446d5-f76b-4158-af75-29a23d10c68e","ios":"levelo://app?vid=12b446d5-f76b-4158-af75-29a23d10c68e"},"vehicle_type_id":"4","last_reported":1739672136,"current_range_meters":28000,"station_id":"ce4bh112rcd13ifvqda0","pricing_plan_id":"cebpf4jnsgd1na2vs0mg"},{"bike_id":"b34c6303-752a-46a1-93ad-ddbc991e20b6","system_id":"levelo_inurba_marseille","lat":43.23064,"lon":5.35498,"is_reserved":false,"is_disabled":false,"rental_uris":{"android":"levelo://app?vid=b34c6303-752a-46a1-93ad-ddbc991e20b6","ios":"levelo://app?vid=b34c6303-752a-46a1-93ad-ddbc991e20b6"},"vehicle_type_id":"4","last_reported":1739672136,"current_range_meters":36400,"station_id":"cpo3342slgdg3j2ifvpg","pricing_plan_id":"cebpf4jnsgd1na2vs0mg"},{"bike_id":"f7abcf74-16eb-4369-b6b8-ac0e795f9129","system_id":"levelo_inurba_marseille","lat":43.28159,"lon":5.4263,"is_reserved":false,"is_disabled":false,"rental_uris":{"android":"levelo://app?vid=f7abcf74-16eb-4369-b6b8-ac0e795f9129","ios":"levelo://app?vid=f7abcf74-16eb-4369-b6b8-ac0e795f9129"},"vehicle_type_id":"4","last_reported":1739672136,"current_range_meters":30000,"station_id":"ce4bhnh2rcd13ifvqgug","pricing_plan_id":"cebpf4jnsgd1na2vs0mg"},{"bike_id":"58f90898-7499-443b-a458-e2c59058430b","system_id":"levelo_inurba_marseille","lat":43.24078,"lon":5.37742,"is_reserved":false,"is_disabled":false,"rental_uris":{"android":"levelo://app?vid=58f90898-7499-443b-a458-e2c59058430b","ios":"levelo://app?vid=58f90898-7499-443b-a458-e2c59058430b"},"vehicle_type_id":"4","last_reported":1739672136,"current_range_meters":38800,"station_id":"ce4bhnp2rcd13ifvqgvg","pricing_plan_id":"cebpf4jnsgd1na2vs0mg"},{"bike_id":"bed4de35-ef09-4f9f-a13d-845fdf520d58","system_id":"levelo_inurba_marseille","lat":43.27502,"lon":5.41526,"is_reserved":false,"is_disabled":false,"rental_uris":{"android":"levelo://app?vid=bed4de35-ef09-4f9f-a13d-845fdf520d58","ios":"levelo://app?vid=bed4de35-ef09-4f9f-a13d-845fdf520d58"},"vehicle_type_id":"4","last_reported":1739672136,"current_range_meters":9200,"station_id":"","pricing_plan_id":"cebpf4jnsgd1na2vs0mg"},{"bike_id":"2821d2ff-3fc8-480e-81a3-1928b04e4a1d","system_id":"levelo_inurba_marseille","lat":43.31474,"lon":5.37538,"is_reserved":false,"is_disabled":false,"rental_uris":{"android":"levelo://app?vid=2821d2ff-3fc8-480e-81a3-1928b04e4a1d","ios":"levelo://app?vid=2821d2ff-3fc8-480e-81a3-1928b04e4a1d"},"vehicle_type_id":"4","last_reported":1739672136,"current_range_meters":8400,"station_id":"","pricing_plan_id":"cebpf4jnsgd1na2vs0mg"},{"bike_id":"ed72e317-b0f2-47df-a27f-f0a79f848886","system_id":"levelo_inurba_marseille","lat":43.27901,"lon":5.3801,"is_reserved":false,"is_disabled":false,"rental_uris":{"android":"levelo://app?vid=ed72e317-b0f2-47df-a27f-f0a79f848886","ios":"levelo://app?vid=ed72e317-b0f2-47df-a27f-f0a79f848886"},"vehicle_type_id":"4","last_reported":1739672136,"current_range_meters":38800,"station_id":"ce4bhf92rcd13ifvqf50","pricing_plan_id":"cebpf4jnsgd1na2vs0mg"},{"bike_id":"733b5e87-b364-4f07-9fd3-5df8261cb7c5","system_id":"levelo_inurba_marseille","lat":43.28852,"lon":5.39325,"is_reserved":false,"is_disabled":false,"rental_uris":{"android":"levelo://app?vid=733b5e87-b364-4f07-9fd3-5df8261cb7c5","ios":"levelo://app?vid=733b5e87-b364-4f07-9fd3-5df8261cb7c5"},"vehicle_type_id":"4","last_reported":1739672136,"current_range_meters":22800,"station_id":"ce4bh2p2rcd13ifvqdi0","pricing_plan_id":"cebpf4jnsgd1na2vs0mg"},{"bike_id":"822776da-dd10-4911-a8fe-e809a5143adb","system_id":"levelo_inurba_marseille","lat":43.28461,"lon":5.35891,"is_reserved":false,"is_disabled":false,"rental_uris":{"android":"levelo://app?vid=822776da-dd10-4911-a8fe-e809a5143adb","ios":"levelo://app?vid=822776da-dd10-4911-a8fe-e809a5143adb"},"vehicle_type_id":"4","last_reported":1739672136,"current_range_meters":38800,"station_id":"ce4bhah2rcd13ifvqei0","pricing_plan_id":"cebpf4jnsgd1na2vs0mg"},{"bike_id":"d83e1313-94c7-467f-8948-185608bcc6a3","system_id":"levelo_inurba_marseille","lat":43.279,"lon":5.38006,"is_reserved":false,"is_disabled":false,"rental_uris":{"android":"levelo://app?vid=d83e1313-94c7-467f-8948-185608bcc6a3","ios":"levelo://app?vid=d83e1313-94c7-467f-8948-185608bcc6a3"},"vehicle_type_id":"4","last_reported":1739672136,"current_range_meters":38800,"station_id":"ce4bhf92rcd13ifvqf50","pricing_plan_id":"cebpf4jnsgd1na2vs0mg"},{"bike_id":"bcaf8af6-c642-49c0-a3a2-1964c4eaa3d3","system_id":"levelo_inurba_marseille","lat":43.25113,"lon":5.4032,"is_reserved":false,"is_disabled":false,"rental_uris":{"android":"levelo://app?vid=bcaf8af6-c642-49c0-a3a2-1964c4eaa3d3","ios":"levelo://app?vid=bcaf8af6-c642-49c0-a3a2-1964c4eaa3d3"},"vehicle_type_id":"4","last_reported":1739672136,"current_range_meters":10800,"station_id":"ce4bhlh2rcd13ifvqgig","pricing_plan_id":"cebpf4jnsgd1na2vs0mg"},{"bike_id":"940ffad1-8d03-466c-a361-1bdb8859eb0e","system_id":"levelo_inurba_marseille","lat":43.28621,"lon":5.35111,"is_reserved":false,"is_disabled":true,"rental_uris":{"android":"levelo://app?vid=940ffad1-8d03-466c-a361-1bdb8859eb0e","ios":"levelo://app?vid=940ffad1-8d03-466c-a361-1bdb8859eb0e"},"vehicle_type_id":"4","last_reported":1739672136,"current_range_meters":0,"station_id":"ce4bhch2rcd13ifvqeug","pricing_plan_id":"cebpf4jnsgd1na2vs0mg"},{"bike_id":"71ee7552-6225-4f21-8301-72c964ebec2d","system_id":"levelo_inurba_marseille","lat":43.2667,"lon":5.38251,"is_reserved":false,"is_disabled":true,"rental_uris":{"android":"levelo://app?vid=71ee7552-6225-4f21-8301-72c964ebec2d","ios":"levelo://app?vid=71ee7552-6225-4f21-8301-72c964ebec2d"},"vehicle_type_id":"4","last_reported":1739672136,"current_range_meters":6000,"station_id":"ce4bhg92rcd13ifvqf90","pricing_plan_id":"cebpf4jnsgd1na2vs0mg"},{"bike_id":"7dbd5b9a-43cb-483c-a00a-ce13856c7714","system_id":"levelo_inurba_marseille","lat":43.2945,"lon":5.39745,"is_reserved":false,"is_disabled":false,"rental_uris":{"android":"levelo://app?vid=7dbd5b9a-43cb-483c-a00a-ce13856c7714","ios":"levelo://app?vid=7dbd5b9a-43cb-483c-a00a-ce13856c7714"},"vehicle_type_id":"4","last_reported":1739672136,"current_range_meters":38800,"station_id":"ce4bh3h2rcd13ifvqdo0","pricing_plan_id":"cebpf4jnsgd1na2vs0mg"},{"bike_id":"8be46145-756e-423a-8bc4-f7f673389b25","system_id":"levelo_inurba_marseille","lat":43.30305,"lon":5.36895,"is_reserved":false,"is_disabled":false,"rental_uris":{"android":"levelo://app?vid=8be46145-756e-423a-8bc4-f7f673389b25","ios":"levelo://app?vid=8be46145-756e-423a-8bc4-f7f673389b25"},"vehicle_type_id":"4","last_reported":1739672136,"current_range_meters":37600,"station_id":"ce4bgqh2rcd13ifvqc5g","pricing_plan_id":"cebpf4jnsgd1na2vs0mg"},{"bike_id":"1f0657bb-7196-41de-84fc-c834bbf90b28","system_id":"levelo_inurba_marseille","lat":43.28084,"lon":5.39653,"is_reserved":false,"is_disabled":true,"rental_uris":{"android":"levelo://app?vid=1f0657bb-7196-41de-84fc-c834bbf90b28","ios":"levelo://app?vid=1f0657bb-7196-41de-84fc-c834bbf90b28"},"vehicle_type_id":"4","last_reported":1739672136,"current_range_meters":38800,"station_id":"ce4bho12rcd13ifvqh2g","pricing_plan_id":"cebpf4jnsgd1na2vs0mg"},{"bike_id":"4085957e-a34f-48ec-8023-d0e7a9e56b71","system_id":"levelo_inurba_marseille","lat":43.23066,"lon":5.35498,"is_reserved":false,"is_disabled":false,"rental_uris":{"android":"levelo://app?vid=4085957e-a34f-48ec-8023-d0e7a9e56b71","ios":"levelo://app?vid=4085957e-a34f-48ec-8023-d0e7a9e56b71"},"vehicle_type_id":"4","last_reported":1739672136,"current_range_meters":38400,"station_id":"cpo3342slgdg3j2ifvpg","pricing_plan_id":"cebpf4jnsgd1na2vs0mg"},{"bike_id":"f2109cf1-8d49-4b78-bee1-4b30300bad2d","system_id":"levelo_inurba_marseille","lat":43.30174,"lon":5.36617,"is_reserved":false,"is_disabled":false,"rental_uris":{"android":"levelo://app?vid=f2109cf1-8d49-4b78-bee1-4b30300bad2d","ios":"levelo://app?vid=f2109cf1-8d49-4b78-bee1-4b30300bad2d"},"vehicle_type_id":"4","last_reported":1739672136,"current_range_meters":39200,"station_id":"ce4bgrh2rcd13ifvqc8g","pricing_plan_id":"cebpf4jnsgd1na2vs0mg"},{"bike_id":"0c82c4f0-7da7-4c65-a009-e8a5b9fc5c53","system_id":"levelo_inurba_marseille","lat":43.29575,"lon":5.4227,"is_reserved":false,"is_disabled":false,"rental_uris":{"android":"levelo://app?vid=0c82c4f0-7da7-4c65-a009-e8a5b9fc5c53","ios":"levelo://app?vid=0c82c4f0-7da7-4c65-a009-e8a5b9fc5c53"},"vehicle_type_id":"4","last_reported":1739672136,"current_range_meters":37600,"station_id":"ce4bhph2rcd13ifvqhdg","pricing_plan_id":"cebpf4jnsgd1na2vs0mg"},{"bike_id":"8172451f-620b-4bb8-91b1-1e4678991019","system_id":"levelo_inurba_marseille","lat":43.2815,"lon":5.42651,"is_reserved":false,"is_disabled":false,"rental_uris":{"android":"levelo://app?vid=8172451f-620b-4bb8-91b1-1e4678991019","ios":"levelo://app?vid=8172451f-620b-4bb8-91b1-1e4678991019"},"vehicle_type_id":"4","last_reported":1739672136,"current_range_meters":38400,"station_id":"ce4bhnh2rcd13ifvqgug","pricing_plan_id":"cebpf4jnsgd1na2vs0mg"},{"bike_id":"d6fdeac0-7252-460c-9b91-9ee63ef09f4e","system_id":"levelo_inurba_marseille","lat":43.29281,"lon":5.40136,"is_reserved":false,"is_disabled":false,"rental_uris":{"android":"levelo://app?vid=d6fdeac0-7252-460c-9b91-9ee63ef09f4e","ios":"levelo://app?vid=d6fdeac0-7252-460c-9b91-9ee63ef09f4e"},"vehicle_type_id":"4","last_reported":1739672136,"current_range_meters":17200,"station_id":"ce4bh312rcd13ifvqdk0","pricing_plan_id":"cebpf4jnsgd1na2vs0mg"},{"bike_id":"1bb282de-7a9b-4949-a763-e4305f74cf66","system_id":"levelo_inurba_marseille","lat":43.23489,"lon":5.37973,"is_reserved":false,"is_disabled":false,"rental_uris":{"android":"levelo://app?vid=1bb282de-7a9b-4949-a763-e4305f74cf66","ios":"levelo://app?vid=1bb282de-7a9b-4949-a763-e4305f74cf66"},"vehicle_type_id":"4","last_reported":1739672136,"current_range_meters":22400,"station_id":"","pricing_plan_id":"cebpf4jnsgd1na2vs0mg"},{"bike_id":"b4501870-b8ed-41e7-9c02-cfe959070884","system_id":"levelo_inurba_marseille","lat":43.24067,"lon":5.37757,"is_reserved":false,"is_disabled":false,"rental_uris":{"android":"levelo://app?vid=b4501870-b8ed-41e7-9c02-cfe959070884","ios":"levelo://app?vid=b4501870-b8ed-41e7-9c02-cfe959070884"},"vehicle_type_id":"4","last_reported":1739672136,"current_range_meters":30000,"station_id":"ce4bhnp2rcd13ifvqgvg","pricing_plan_id":"cebpf4jnsgd1na2vs0mg"},{"bike_id":"2273173b-e999-4526-9d03-89211370d8ce","system_id":"levelo_inurba_marseille","lat":43.28997,"lon":5.3813,"is_reserved":false,"is_disabled":false,"rental_uris":{"android":"levelo://app?vid=2273173b-e999-4526-9d03-89211370d8ce","ios":"levelo://app?vid=2273173b-e999-4526-9d03-89211370d8ce"},"vehicle_type_id":"4","last_reported":1739672136,"current_range_meters":38800,"station_id":"ce4bh4p2rcd13ifvqe1g","pricing_plan_id":"cebpf4jnsgd1na2vs0mg"},{"bike_id":"e60ad64c-d354-4cc9-b4c4-430dc10bce79","system_id":"levelo_inurba_marseille","lat":43.28479,"lon":5.35848,"is_reserved":false,"is_disabled":false,"rental_uris":{"android":"levelo://app?vid=e60ad64c-d354-4cc9-b4c4-430dc10bce79","ios":"levelo://app?vid=e60ad64c-d354-4cc9-b4c4-430dc10bce79"},"vehicle_type_id":"4","last_reported":1739672136,"current_range_meters":6400,"station_id":"ce4bhah2rcd13ifvqei0","pricing_plan_id":"cebpf4jnsgd1na2vs0mg"},{"bike_id":"f92e748a-9f9b-4e54-8084-07e33515f3d5","system_id":"levelo_inurba_marseille","lat":43.27071,"lon":5.39347,"is_reserved":false,"is_disabled":true,"rental_uris":{"android":"levelo://app?vid=f92e748a-9f9b-4e54-8084-07e33515f3d5","ios":"levelo://app?vid=f92e748a-9f9b-4e54-8084-07e33515f3d5"},"vehicle_type_id":"4","last_reported":1739672136,"current_range_meters":0,"station_id":"","pricing_plan_id":"cebpf4jnsgd1na2vs0mg"},{"bike_id":"68724876-24ef-4b6d-a1c6-6ee32f666069","system_id":"levelo_inurba_marseille","lat":43.30951,"lon":5.40145,"is_reserved":false,"is_disabled":false,"rental_uris":{"android":"levelo://app?vid=68724876-24ef-4b6d-a1c6-6ee32f666069","ios":"levelo://app?vid=68724876-24ef-4b6d-a1c6-6ee32f666069"},"vehicle_type_id":"4","last_reported":1739672136,"current_range_meters":16800,"station_id":"ce4bgvp2rcd13ifvqct0","pricing_plan_id":"cebpf4jnsgd1na2vs0mg"},{"bike_id":"19388144-0dd5-4ead-94fb-9bd26884db19","system_id":"levelo_inurba_marseille","lat":43.31182,"lon":5.38725,"is_reserved":false,"is_disabled":false,"rental_uris":{"android":"levelo://app?vid=19388144-0dd5-4ead-94fb-9bd26884db19","ios":"levelo://app?vid=19388144-0dd5-4ead-94fb-9bd26884db19"},"vehicle_type_id":"4","last_reported":1739672136,"current_range_meters":30000,"station_id":"ce4bgv12rcd13ifvqcp0","pricing_plan_id":"cebpf4jnsgd1na2vs0mg"},{"bike_id":"a41bc1c5-d238-43e3-abb3-4fcf0a480bdc","system_id":"levelo_inurba_marseille","lat":43.28924,"lon":5.36379,"is_reserved":false,"is_disabled":false,"rental_uris":{"android":"levelo://app?vid=a41bc1c5-d238-43e3-abb3-4fcf0a480bdc","ios":"levelo://app?vid=a41bc1c5-d238-43e3-abb3-4fcf0a480bdc"},"vehicle_type_id":"4","last_reported":1739672136,"current_range_meters":29600,"station_id":"ce4bhc92rcd13ifvqetg","pricing_plan_id":"cebpf4jnsgd1na2vs0mg"},{"bike_id":"99c4c5b0-43b8-4473-9c97-42d51a31c13a","system_id":"levelo_inurba_marseille","lat":43.30911,"lon":5.40163,"is_reserved":false,"is_disabled":false,"rental_uris":{"android":"levelo://app?vid=99c4c5b0-43b8-4473-9c97-42d51a31c13a","ios":"levelo://app?vid=99c4c5b0-43b8-4473-9c97-42d51a31c13a"},"vehicle_type_id":"4","last_reported":1739672136,"current_range_meters":30000,"station_id":"ce4bgvp2rcd13ifvqct0","pricing_plan_id":"cebpf4jnsgd1na2vs0mg"},{"bike_id":"bbf61ba2-9a30-4f5a-adfe-4249783a75be","system_id":"levelo_inurba_marseille","lat":43.27991,"lon":5.41665,"is_reserved":false,"is_disabled":false,"rental_uris":{"android":"levelo://app?vid=bbf61ba2-9a30-4f5a-adfe-4249783a75be","ios":"levelo://app?vid=bbf61ba2-9a30-4f5a-adfe-4249783a75be"},"vehicle_type_id":"4","last_reported":1739672136,"current_range_meters":26800,"station_id":"ce4bho12rcd13ifvqh1g","pricing_plan_id":"cebpf4jnsgd1na2vs0mg"},{"bike_id":"542db65b-4c63-46f9-87df-aed33986fb69","system_id":"levelo_inurba_marseille","lat":43.30649,"lon":5.40116,"is_reserved":false,"is_disabled":false,"rental_uris":{"android":"levelo://app?vid=542db65b-4c63-46f9-87df-aed33986fb69","ios":"levelo://app?vid=542db65b-4c63-46f9-87df-aed33986fb69"},"vehicle_type_id":"4","last_reported":1739672136,"current_range_meters":7200,"station_id":"ce4bh112rcd13ifvqda0","pricing_plan_id":"cebpf4jnsgd1na2vs0mg"},{"bike_id":"4dd9a4e0-c137-4560-8761-8f56d3f447a7","system_id":"levelo_inurba_marseille","lat":43.30885,"lon":5.39641,"is_reserved":false,"is_disabled":false,"rental_uris":{"android":"levelo://app?vid=4dd9a4e0-c137-4560-8761-8f56d3f447a7","ios":"levelo://app?vid=4dd9a4e0-c137-4560-8761-8f56d3f447a7"},"vehicle_type_id":"4","last_reported":1739672136,"current_range_meters":22000,"station_id":"ce4bh012rcd13ifvqcv0","pricing_plan_id":"cebpf4jnsgd1na2vs0mg"},{"bike_id":"9cf8e6d9-67b8-441b-8ab4-08ef8560d2b0","system_id":"levelo_inurba_marseille","lat":43.33514,"lon":5.35585,"is_reserved":false,"is_disabled":true,"rental_uris":{"android":"levelo://app?vid=9cf8e6d9-67b8-441b-8ab4-08ef8560d2b0","ios":"levelo://app?vid=9cf8e6d9-67b8-441b-8ab4-08ef8560d2b0"},"vehicle_type_id":"4","last_reported":1739672136,"current_range_meters":0,"station_id":"","pricing_plan_id":"cebpf4jnsgd1na2vs0mg"},{"bike_id":"08531344-5311-475d-9386-429ff29517a0","system_id":"levelo_inurba_marseille","lat":43.28663,"lon":5.36354,"is_reserved":false,"is_disabled":false,"rental_uris":{"android":"levelo://app?vid=08531344-5311-475d-9386-429ff29517a0","ios":"levelo://app?vid=08531344-5311-475d-9386-429ff29517a0"},"vehicle_type_id":"4","last_reported":1739672136,"current_range_meters":37600,"station_id":"ce4bhah2rcd13ifvqej0","pricing_plan_id":"cebpf4jnsgd1na2vs0mg"},{"bike_id":"0c02c842-4f61-4404-a07d-57e5e1b07bc3","system_id":"levelo_inurba_marseille","lat":43.25949,"lon":5.41375,"is_reserved":false,"is_disabled":false,"rental_uris":{"android":"levelo://app?vid=0c02c842-4f61-4404-a07d-57e5e1b07bc3","ios":"levelo://app?vid=0c02c842-4f61-4404-a07d-57e5e1b07bc3"},"vehicle_type_id":"4","last_reported":1739672136,"current_range_meters":24800,"station_id":"","pricing_plan_id":"cebpf4jnsgd1na2vs0mg"},{"bike_id":"4227845b-6aba-4220-8f81-4ad22996427e","system_id":"levelo_inurba_marseille","lat":43.27997,"lon":5.41657,"is_reserved":false,"is_disabled":false,"rental_uris":{"android":"levelo://app?vid=4227845b-6aba-4220-8f81-4ad22996427e","ios":"levelo://app?vid=4227845b-6aba-4220-8f81-4ad22996427e"},"vehicle_type_id":"4","last_reported":1739672136,"current_range_meters":24400,"station_id":"ce4bho12rcd13ifvqh1g","pricing_plan_id":"cebpf4jnsgd1na2vs0mg"},{"bike_id":"843c1cdc-a175-42b5-be19-e1b9d6757ae2","system_id":"levelo_inurba_marseille","lat":43.24646,"lon":5.38902,"is_reserved":false,"is_disabled":false,"rental_uris":{"android":"levelo://app?vid=843c1cdc-a175-42b5-be19-e1b9d6757ae2","ios":"levelo://app?vid=843c1cdc-a175-42b5-be19-e1b9d6757ae2"},"vehicle_type_id":"4","last_reported":1739672136,"current_range_meters":38800,"station_id":"ce4bhg12rcd13ifvqf60","pricing_plan_id":"cebpf4jnsgd1na2vs0mg"},{"bike_id":"a47a49ff-3d8c-459e-91ff-bddc8c1b5078","system_id":"levelo_inurba_marseille","lat":43.29579,"lon":5.3997,"is_reserved":false,"is_disabled":false,"rental_uris":{"android":"levelo://app?vid=a47a49ff-3d8c-459e-91ff-bddc8c1b5078","ios":"levelo://app?vid=a47a49ff-3d8c-459e-91ff-bddc8c1b5078"},"vehicle_type_id":"4","last_reported":1739672136,"current_range_meters":38000,"station_id":"ce4bh312rcd13ifvqdj0","pricing_plan_id":"cebpf4jnsgd1na2vs0mg"},{"bike_id":"f2cf9381-727b-4085-9440-9f3c94f60922","system_id":"levelo_inurba_marseille","lat":43.245423,"lon":5.395167,"is_reserved":false,"is_disabled":false,"rental_uris":{"android":"levelo://app?vid=f2cf9381-727b-4085-9440-9f3c94f60922","ios":"levelo://app?vid=f2cf9381-727b-4085-9440-9f3c94f60922"},"vehicle_type_id":"4","last_reported":1739672136,"current_range_meters":32000,"station_id":"","pricing_plan_id":"cebpf4jnsgd1na2vs0mg"},{"bike_id":"46252e49-398c-407a-8202-f65c1512c035","system_id":"levelo_inurba_marseille","lat":43.284123,"lon":5.375145,"is_reserved":false,"is_disabled":false,"rental_uris":{"android":"levelo://app?vid=46252e49-398c-407a-8202-f65c1512c035","ios":"levelo://app?vid=46252e49-398c-407a-8202-f65c1512c035"},"vehicle_type_id":"4","last_reported":1739672136,"current_range_meters":38800,"station_id":"ce4bh412rcd13ifvqds0","pricing_plan_id":"cebpf4jnsgd1na2vs0mg"},{"bike_id":"540bf5a8-5786-4431-b160-b1b1e0ba365f","system_id":"levelo_inurba_marseille","lat":43.29964,"lon":5.40071,"is_reserved":false,"is_disabled":false,"rental_uris":{"android":"levelo://app?vid=540bf5a8-5786-4431-b160-b1b1e0ba365f","ios":"levelo://app?vid=540bf5a8-5786-4431-b160-b1b1e0ba365f"},"vehicle_type_id":"4","last_reported":1739672136,"current_range_meters":37600,"station_id":"","pricing_plan_id":"cebpf4jnsgd1na2vs0mg"},{"bike_id":"98cda1ee-64ab-4524-be3c-951477745525","system_id":"levelo_inurba_marseille","lat":43.288435,"lon":5.393131,"is_reserved":false,"is_disabled":false,"rental_uris":{"android":"levelo://app?vid=98cda1ee-64ab-4524-be3c-951477745525","ios":"levelo://app?vid=98cda1ee-64ab-4524-be3c-951477745525"},"vehicle_type_id":"4","last_reported":1739672136,"current_range_meters":24000,"station_id":"ce4bh2p2rcd13ifvqdi0","pricing_plan_id":"cebpf4jnsgd1na2vs0mg"},{"bike_id":"51ab7186-5043-4bed-baca-73708608a302","system_id":"levelo_inurba_marseille","lat":43.29584,"lon":5.37026,"is_reserved":false,"is_disabled":true,"rental_uris":{"android":"levelo://app?vid=51ab7186-5043-4bed-baca-73708608a302","ios":"levelo://app?vid=51ab7186-5043-4bed-baca-73708608a302"},"vehicle_type_id":"4","last_reported":1739672136,"current_range_meters":0,"station_id":"","pricing_plan_id":"cebpf4jnsgd1na2vs0mg"},{"bike_id":"1ca59d1e-3e75-42bc-85c8-0d36902e9067","system_id":"levelo_inurba_marseille","lat":43.29373,"lon":5.37849,"is_reserved":false,"is_disabled":false,"rental_uris":{"android":"levelo://app?vid=1ca59d1e-3e75-42bc-85c8-0d36902e9067","ios":"levelo://app?vid=1ca59d1e-3e75-42bc-85c8-0d36902e9067"},"vehicle_type_id":"4","last_reported":1739672136,"current_range_meters":36800,"station_id":"ce4bgjh2rcd13ifvqbf0","pricing_plan_id":"cebpf4jnsgd1na2vs0mg"},{"bike_id":"9fdb08b8-1ceb-474a-abf2-04c699884b4a","system_id":"levelo_inurba_marseille","lat":43.23175,"lon":5.35565,"is_reserved":false,"is_disabled":false,"rental_uris":{"android":"levelo://app?vid=9fdb08b8-1ceb-474a-abf2-04c699884b4a","ios":"levelo://app?vid=9fdb08b8-1ceb-474a-abf2-04c699884b4a"},"vehicle_type_id":"4","last_reported":1739672136,"current_range_meters":38400,"station_id":"ce4bhu92rcd13ifvqi70","pricing_plan_id":"cebpf4jnsgd1na2vs0mg"},{"bike_id":"485502f3-3b80-4687-aac8-10dc57118684","system_id":"levelo_inurba_marseille","lat":43.2622,"lon":5.40465,"is_reserved":false,"is_disabled":false,"rental_uris":{"android":"levelo://app?vid=485502f3-3b80-4687-aac8-10dc57118684","ios":"levelo://app?vid=485502f3-3b80-4687-aac8-10dc57118684"},"vehicle_type_id":"4","last_reported":1739672136,"current_range_meters":11200,"station_id":"ce4bhmh2rcd13ifvqgmg","pricing_plan_id":"cebpf4jnsgd1na2vs0mg"},{"bike_id":"e16b3a6b-3656-461f-bbf9-195601822b7e","system_id":"levelo_inurba_marseille","lat":43.30948,"lon":5.39067,"is_reserved":false,"is_disabled":false,"rental_uris":{"android":"levelo://app?vid=e16b3a6b-3656-461f-bbf9-195601822b7e","ios":"levelo://app?vid=e16b3a6b-3656-461f-bbf9-195601822b7e"},"vehicle_type_id":"4","last_reported":1739672136,"current_range_meters":38800,"station_id":"ce4bgup2rcd13ifvqco0","pricing_plan_id":"cebpf4jnsgd1na2vs0mg"},{"bike_id":"8691c17d-836c-47cd-9e2a-09cf1406b8ec","system_id":"levelo_inurba_marseille","lat":43.24072,"lon":5.37759,"is_reserved":false,"is_disabled":false,"rental_uris":{"android":"levelo://app?vid=8691c17d-836c-47cd-9e2a-09cf1406b8ec","ios":"levelo://app?vid=8691c17d-836c-47cd-9e2a-09cf1406b8ec"},"vehicle_type_id":"4","last_reported":1739672136,"current_range_meters":38800,"station_id":"ce4bhnp2rcd13ifvqgvg","pricing_plan_id":"cebpf4jnsgd1na2vs0mg"},{"bike_id":"747738f1-db73-4ea5-8dc8-39e0154843fb","system_id":"levelo_inurba_marseille","lat":43.30929,"lon":5.40154,"is_reserved":false,"is_disabled":false,"rental_uris":{"android":"levelo://app?vid=747738f1-db73-4ea5-8dc8-39e0154843fb","ios":"levelo://app?vid=747738f1-db73-4ea5-8dc8-39e0154843fb"},"vehicle_type_id":"4","last_reported":1739672136,"current_range_meters":30800,"station_id":"ce4bgvp2rcd13ifvqct0","pricing_plan_id":"cebpf4jnsgd1na2vs0mg"},{"bike_id":"2d744cd1-8083-459a-b942-57bd28387959","system_id":"levelo_inurba_marseille","lat":43.25582,"lon":5.38227,"is_reserved":false,"is_disabled":false,"rental_uris":{"android":"levelo://app?vid=2d744cd1-8083-459a-b942-57bd28387959","ios":"levelo://app?vid=2d744cd1-8083-459a-b942-57bd28387959"},"vehicle_type_id":"4","last_reported":1739672136,"current_range_meters":22800,"station_id":"ce4bhih2rcd13ifvqfs0","pricing_plan_id":"cebpf4jnsgd1na2vs0mg"},{"bike_id":"c40e2cb9-b89c-4dbd-956b-535ef79f1d37","system_id":"levelo_inurba_marseille","lat":43.24815,"lon":5.37461,"is_reserved":false,"is_disabled":false,"rental_uris":{"android":"levelo://app?vid=c40e2cb9-b89c-4dbd-956b-535ef79f1d37","ios":"levelo://app?vid=c40e2cb9-b89c-4dbd-956b-535ef79f1d37"},"vehicle_type_id":"4","last_reported":1739672136,"current_range_meters":22000,"station_id":"ce4bhgh2rcd13ifvqfb0","pricing_plan_id":"cebpf4jnsgd1na2vs0mg"},{"bike_id":"621aa48b-6d99-46c4-b886-2c6eb903854e","system_id":"levelo_inurba_marseille","lat":43.29279,"lon":5.36852,"is_reserved":false,"is_disabled":true,"rental_uris":{"android":"levelo://app?vid=621aa48b-6d99-46c4-b886-2c6eb903854e","ios":"levelo://app?vid=621aa48b-6d99-46c4-b886-2c6eb903854e"},"vehicle_type_id":"4","last_reported":1739672136,"current_range_meters":30000,"station_id":"ce4bhbp2rcd13ifvqesg","pricing_plan_id":"cebpf4jnsgd1na2vs0mg"},{"bike_id":"460e673d-f39f-4b14-a48a-f584a9ac2195","system_id":"levelo_inurba_marseille","lat":43.25724,"lon":5.41114,"is_reserved":false,"is_disabled":false,"rental_uris":{"android":"levelo://app?vid=460e673d-f39f-4b14-a48a-f584a9ac2195","ios":"levelo://app?vid=460e673d-f39f-4b14-a48a-f584a9ac2195"},"vehicle_type_id":"4","last_reported":1739672136,"current_range_meters":37600,"station_id":"ce4bhkp2rcd13ifvqgd0","pricing_plan_id":"cebpf4jnsgd1na2vs0mg"},{"bike_id":"52f0172c-5485-4234-ab72-828fe4e1e6ea","system_id":"levelo_inurba_marseille","lat":43.32646,"lon":5.41007,"is_reserved":false,"is_disabled":false,"rental_uris":{"android":"levelo://app?vid=52f0172c-5485-4234-ab72-828fe4e1e6ea","ios":"levelo://app?vid=52f0172c-5485-4234-ab72-828fe4e1e6ea"},"vehicle_type_id":"4","last_reported":1739672136,"current_range_meters":38000,"station_id":"ce4bhpp2rcd13ifvqhgg","pricing_plan_id":"cebpf4jnsgd1na2vs0mg"},{"bike_id":"8ea8a511-fb9d-427a-9d43-0669507fa2be","system_id":"levelo_inurba_marseille","lat":43.32494,"lon":5.36582,"is_reserved":false,"is_disabled":false,"rental_uris":{"android":"levelo://app?vid=8ea8a511-fb9d-427a-9d43-0669507fa2be","ios":"levelo://app?vid=8ea8a511-fb9d-427a-9d43-0669507fa2be"},"vehicle_type_id":"4","last_reported":1739672136,"current_range_meters":39200,"station_id":"ce4bhs12rcd13ifvqhvg","pricing_plan_id":"cebpf4jnsgd1na2vs0mg"},{"bike_id":"4afd05b5-41e1-4012-b907-304d88773920","system_id":"levelo_inurba_marseille","lat":43.239649,"lon":5.366356,"is_reserved":false,"is_disabled":false,"rental_uris":{"android":"levelo://app?vid=4afd05b5-41e1-4012-b907-304d88773920","ios":"levelo://app?vid=4afd05b5-41e1-4012-b907-304d88773920"},"vehicle_type_id":"4","last_reported":1739672136,"current_range_meters":37600,"station_id":"ce4bhi12rcd13ifvqfp0","pricing_plan_id":"cebpf4jnsgd1na2vs0mg"},{"bike_id":"7602c479-3deb-4b9a-b97f-70de792161cd","system_id":"levelo_inurba_marseille","lat":43.28107,"lon":5.3783,"is_reserved":false,"is_disabled":false,"rental_uris":{"android":"levelo://app?vid=7602c479-3deb-4b9a-b97f-70de792161cd","ios":"levelo://app?vid=7602c479-3deb-4b9a-b97f-70de792161cd"},"vehicle_type_id":"4","last_reported":1739672136,"current_range_meters":30000,"station_id":"ce4bha12rcd13ifvqee0","pricing_plan_id":"cebpf4jnsgd1na2vs0mg"},{"bike_id":"af02ac68-734a-4337-a76f-2d6f15936fdf","system_id":"levelo_inurba_marseille","lat":43.28157,"lon":5.42637,"is_reserved":false,"is_disabled":false,"rental_uris":{"android":"levelo://app?vid=af02ac68-734a-4337-a76f-2d6f15936fdf","ios":"levelo://app?vid=af02ac68-734a-4337-a76f-2d6f15936fdf"},"vehicle_type_id":"4","last_reported":1739672136,"current_range_meters":38400,"station_id":"ce4bhnh2rcd13ifvqgug","pricing_plan_id":"cebpf4jnsgd1na2vs0mg"},{"bike_id":"3d3a1b8e-9ac6-4dbd-9886-9c9cf6ac4982","system_id":"levelo_inurba_marseille","lat":43.31325,"lon":5.39691,"is_reserved":false,"is_disabled":false,"rental_uris":{"android":"levelo://app?vid=3d3a1b8e-9ac6-4dbd-9886-9c9cf6ac4982","ios":"levelo://app?vid=3d3a1b8e-9ac6-4dbd-9886-9c9cf6ac4982"},"vehicle_type_id":"4","last_reported":1739672136,"current_range_meters":39200,"station_id":"ce4bgvp2rcd13ifvqcu0","pricing_plan_id":"cebpf4jnsgd1na2vs0mg"},{"bike_id":"27ca0e2c-050e-45fc-ba69-4e99735ad910","system_id":"levelo_inurba_marseille","lat":43.24552,"lon":5.39531,"is_reserved":false,"is_disabled":false,"rental_uris":{"android":"levelo://app?vid=27ca0e2c-050e-45fc-ba69-4e99735ad910","ios":"levelo://app?vid=27ca0e2c-050e-45fc-ba69-4e99735ad910"},"vehicle_type_id":"4","last_reported":1739672136,"current_range_meters":38400,"station_id":"ce4bhlp2rcd13ifvqgjg","pricing_plan_id":"cebpf4jnsgd1na2vs0mg"},{"bike_id":"2229140b-0040-47ab-b57a-ad864d16aba9","system_id":"levelo_inurba_marseille","lat":43.28701,"lon":5.39985,"is_reserved":false,"is_disabled":false,"rental_uris":{"android":"levelo://app?vid=2229140b-0040-47ab-b57a-ad864d16aba9","ios":"levelo://app?vid=2229140b-0040-47ab-b57a-ad864d16aba9"},"vehicle_type_id":"4","last_reported":1739672136,"current_range_meters":27200,"station_id":"ce4bho92rcd13ifvqh3g","pricing_plan_id":"cebpf4jnsgd1na2vs0mg"},{"bike_id":"6e748d22-f0ab-476c-b95d-732ac11278ef","system_id":"levelo_inurba_marseille","lat":43.29169,"lon":5.35812,"is_reserved":false,"is_disabled":false,"rental_uris":{"android":"levelo://app?vid=6e748d22-f0ab-476c-b95d-732ac11278ef","ios":"levelo://app?vid=6e748d22-f0ab-476c-b95d-732ac11278ef"},"vehicle_type_id":"4","last_reported":1739672136,"current_range_meters":36400,"station_id":"ce4bhb12rcd13ifvqel0","pricing_plan_id":"cebpf4jnsgd1na2vs0mg"},{"bike_id":"3ce3dae2-ed5f-43cb-bad9-b317ce2471d9","system_id":"levelo_inurba_marseille","lat":43.24814,"lon":5.37459,"is_reserved":false,"is_disabled":false,"rental_uris":{"android":"levelo://app?vid=3ce3dae2-ed5f-43cb-bad9-b317ce2471d9","ios":"levelo://app?vid=3ce3dae2-ed5f-43cb-bad9-b317ce2471d9"},"vehicle_type_id":"4","last_reported":1739672136,"current_range_meters":38400,"station_id":"ce4bhgh2rcd13ifvqfb0","pricing_plan_id":"cebpf4jnsgd1na2vs0mg"},{"bike_id":"64325e8b-7753-4bef-8a98-b9529ac8a10d","system_id":"levelo_inurba_marseille","lat":43.30658,"lon":5.40064,"is_reserved":false,"is_disabled":false,"rental_uris":{"android":"levelo://app?vid=64325e8b-7753-4bef-8a98-b9529ac8a10d","ios":"levelo://app?vid=64325e8b-7753-4bef-8a98-b9529ac8a10d"},"vehicle_type_id":"4","last_reported":1739672136,"current_range_meters":38800,"station_id":"ce4bh112rcd13ifvqda0","pricing_plan_id":"cebpf4jnsgd1na2vs0mg"},{"bike_id":"397f7144-3e20-4f61-9149-2720265fc375","system_id":"levelo_inurba_marseille","lat":43.24058,"lon":5.37726,"is_reserved":false,"is_disabled":false,"rental_uris":{"android":"levelo://app?vid=397f7144-3e20-4f61-9149-2720265fc375","ios":"levelo://app?vid=397f7144-3e20-4f61-9149-2720265fc375"},"vehicle_type_id":"4","last_reported":1739672136,"current_range_meters":36400,"station_id":"ce4bhnp2rcd13ifvqgvg","pricing_plan_id":"cebpf4jnsgd1na2vs0mg"},{"bike_id":"93769704-c715-4594-9440-514b2b83cfe6","system_id":"levelo_inurba_marseille","lat":43.303183,"lon":5.404427,"is_reserved":false,"is_disabled":false,"rental_uris":{"android":"levelo://app?vid=93769704-c715-4594-9440-514b2b83cfe6","ios":"levelo://app?vid=93769704-c715-4594-9440-514b2b83cfe6"},"vehicle_type_id":"4","last_reported":1739672136,"current_range_meters":30400,"station_id":"ce4bh012rcd13ifvqd10","pricing_plan_id":"cebpf4jnsgd1na2vs0mg"},{"bike_id":"250900ec-3e6f-4975-890e-789c58778710","system_id":"levelo_inurba_marseille","lat":43.32481,"lon":5.3657,"is_reserved":false,"is_disabled":false,"rental_uris":{"android":"levelo://app?vid=250900ec-3e6f-4975-890e-789c58778710","ios":"levelo://app?vid=250900ec-3e6f-4975-890e-789c58778710"},"vehicle_type_id":"4","last_reported":1739672136,"current_range_meters":22400,"station_id":"ce4bhs12rcd13ifvqhvg","pricing_plan_id":"cebpf4jnsgd1na2vs0mg"},{"bike_id":"561c6c76-a6da-48c4-9ca0-fc5f4ea5945b","system_id":"levelo_inurba_marseille","lat":43.29747,"lon":5.38102,"is_reserved":false,"is_disabled":true,"rental_uris":{"android":"levelo://app?vid=561c6c76-a6da-48c4-9ca0-fc5f4ea5945b","ios":"levelo://app?vid=561c6c76-a6da-48c4-9ca0-fc5f4ea5945b"},"vehicle_type_id":"4","last_reported":1739672136,"current_range_meters":0,"station_id":"","pricing_plan_id":"cebpf4jnsgd1na2vs0mg"},{"bike_id":"391408fa-4661-4fa3-8f76-e7bcc0045315","system_id":"levelo_inurba_marseille","lat":43.28149,"lon":5.42662,"is_reserved":false,"is_disabled":false,"rental_uris":{"android":"levelo://app?vid=391408fa-4661-4fa3-8f76-e7bcc0045315","ios":"levelo://app?vid=391408fa-4661-4fa3-8f76-e7bcc0045315"},"vehicle_type_id":"4","last_reported":1739672136,"current_range_meters":38800,"station_id":"ce4bhnh2rcd13ifvqgug","pricing_plan_id":"cebpf4jnsgd1na2vs0mg"},{"bike_id":"fca13a97-260e-4b7d-93d2-a525c063c174","system_id":"levelo_inurba_marseille","lat":43.28433,"lon":5.39181,"is_reserved":false,"is_disabled":false,"rental_uris":{"android":"levelo://app?vid=fca13a97-260e-4b7d-93d2-a525c063c174","ios":"levelo://app?vid=fca13a97-260e-4b7d-93d2-a525c063c174"},"vehicle_type_id":"4","last_reported":1739672136,"current_range_meters":22400,"station_id":"ce4bhoh2rcd13ifvqh5g","pricing_plan_id":"cebpf4jnsgd1na2vs0mg"},{"bike_id":"9d7c84b1-5e85-40b5-9214-0ea5f354ecac","system_id":"levelo_inurba_marseille","lat":43.28542,"lon":5.38554,"is_reserved":false,"is_disabled":false,"rental_uris":{"android":"levelo://app?vid=9d7c84b1-5e85-40b5-9214-0ea5f354ecac","ios":"levelo://app?vid=9d7c84b1-5e85-40b5-9214-0ea5f354ecac"},"vehicle_type_id":"4","last_reported":1739672136,"current_range_meters":11600,"station_id":"","pricing_plan_id":"cebpf4jnsgd1na2vs0mg"},{"bike_id":"022c45bb-24ec-40e4-96c1-c93674470ea9","system_id":"levelo_inurba_marseille","lat":43.30916,"lon":5.4016,"is_reserved":false,"is_disabled":false,"rental_uris":{"android":"levelo://app?vid=022c45bb-24ec-40e4-96c1-c93674470ea9","ios":"levelo://app?vid=022c45bb-24ec-40e4-96c1-c93674470ea9"},"vehicle_type_id":"4","last_reported":1739672136,"current_range_meters":31200,"station_id":"ce4bgvp2rcd13ifvqct0","pricing_plan_id":"cebpf4jnsgd1na2vs0mg"},{"bike_id":"d505ae6b-8401-49d2-a7e3-85c98bc77f1c","system_id":"levelo_inurba_marseille","lat":43.32358,"lon":5.40623,"is_reserved":false,"is_disabled":false,"rental_uris":{"android":"levelo://app?vid=d505ae6b-8401-49d2-a7e3-85c98bc77f1c","ios":"levelo://app?vid=d505ae6b-8401-49d2-a7e3-85c98bc77f1c"},"vehicle_type_id":"4","last_reported":1739672136,"current_range_meters":22000,"station_id":"ce4bhq92rcd13ifvqhjg","pricing_plan_id":"cebpf4jnsgd1na2vs0mg"},{"bike_id":"d4d36247-2aab-4add-8265-c91892033971","system_id":"levelo_inurba_marseille","lat":43.27812,"lon":5.40715,"is_reserved":false,"is_disabled":false,"rental_uris":{"android":"levelo://app?vid=d4d36247-2aab-4add-8265-c91892033971","ios":"levelo://app?vid=d4d36247-2aab-4add-8265-c91892033971"},"vehicle_type_id":"4","last_reported":1739672136,"current_range_meters":19600,"station_id":"ce4bhnh2rcd13ifvqgtg","pricing_plan_id":"cebpf4jnsgd1na2vs0mg"},{"bike_id":"6408b994-ae56-4e32-95b9-cb0502299b0f","system_id":"levelo_inurba_marseille","lat":43.29553,"lon":5.42297,"is_reserved":false,"is_disabled":false,"rental_uris":{"android":"levelo://app?vid=6408b994-ae56-4e32-95b9-cb0502299b0f","ios":"levelo://app?vid=6408b994-ae56-4e32-95b9-cb0502299b0f"},"vehicle_type_id":"4","last_reported":1739672136,"current_range_meters":38800,"station_id":"ce4bhph2rcd13ifvqhdg","pricing_plan_id":"cebpf4jnsgd1na2vs0mg"},{"bike_id":"aba3ce08-62d6-43ae-affc-bdc6904c40f3","system_id":"levelo_inurba_marseille","lat":43.27566,"lon":5.38419,"is_reserved":false,"is_disabled":false,"rental_uris":{"android":"levelo://app?vid=aba3ce08-62d6-43ae-affc-bdc6904c40f3","ios":"levelo://app?vid=aba3ce08-62d6-43ae-affc-bdc6904c40f3"},"vehicle_type_id":"4","last_reported":1739672136,"current_range_meters":20800,"station_id":"ce4bhh92rcd13ifvqfi0","pricing_plan_id":"cebpf4jnsgd1na2vs0mg"},{"bike_id":"581c5c59-f537-41ef-b7c4-7102886ff8f8","system_id":"levelo_inurba_marseille","lat":43.24803,"lon":5.37448,"is_reserved":false,"is_disabled":false,"rental_uris":{"android":"levelo://app?vid=581c5c59-f537-41ef-b7c4-7102886ff8f8","ios":"levelo://app?vid=581c5c59-f537-41ef-b7c4-7102886ff8f8"},"vehicle_type_id":"4","last_reported":1739672136,"current_range_meters":38800,"station_id":"ce4bhgh2rcd13ifvqfb0","pricing_plan_id":"cebpf4jnsgd1na2vs0mg"},{"bike_id":"98f62326-8a26-4889-8233-3fa661e57e03","system_id":"levelo_inurba_marseille","lat":43.25124,"lon":5.40318,"is_reserved":false,"is_disabled":false,"rental_uris":{"android":"levelo://app?vid=98f62326-8a26-4889-8233-3fa661e57e03","ios":"levelo://app?vid=98f62326-8a26-4889-8233-3fa661e57e03"},"vehicle_type_id":"4","last_reported":1739672136,"current_range_meters":9200,"station_id":"ce4bhlh2rcd13ifvqgig","pricing_plan_id":"cebpf4jnsgd1na2vs0mg"},{"bike_id":"e539d681-89ef-4c24-ac1a-614f83b770b2","system_id":"levelo_inurba_marseille","lat":43.28927,"lon":5.38395,"is_reserved":false,"is_disabled":false,"rental_uris":{"android":"levelo://app?vid=e539d681-89ef-4c24-ac1a-614f83b770b2","ios":"levelo://app?vid=e539d681-89ef-4c24-ac1a-614f83b770b2"},"vehicle_type_id":"4","last_reported":1739672136,"current_range_meters":38800,"station_id":"ce4bh612rcd13ifvqe6g","pricing_plan_id":"cebpf4jnsgd1na2vs0mg"},{"bike_id":"f9fc2722-ba6d-4851-8b9d-39a96c48947c","system_id":"levelo_inurba_marseille","lat":43.28408,"lon":5.37511,"is_reserved":false,"is_disabled":false,"rental_uris":{"android":"levelo://app?vid=f9fc2722-ba6d-4851-8b9d-39a96c48947c","ios":"levelo://app?vid=f9fc2722-ba6d-4851-8b9d-39a96c48947c"},"vehicle_type_id":"4","last_reported":1739672136,"current_range_meters":30000,"station_id":"ce4bh412rcd13ifvqds0","pricing_plan_id":"cebpf4jnsgd1na2vs0mg"},{"bike_id":"dcd0833b-0488-4d67-8863-5b0c595280f9","system_id":"levelo_inurba_marseille","lat":43.30216,"lon":5.39476,"is_reserved":false,"is_disabled":false,"rental_uris":{"android":"levelo://app?vid=dcd0833b-0488-4d67-8863-5b0c595280f9","ios":"levelo://app?vid=dcd0833b-0488-4d67-8863-5b0c595280f9"},"vehicle_type_id":"4","last_reported":1739672136,"current_range_meters":18000,"station_id":"ce4bh0p2rcd13ifvqd70","pricing_plan_id":"cebpf4jnsgd1na2vs0mg"},{"bike_id":"265ccf22-a162-4f39-8e8c-a647f59c9078","system_id":"levelo_inurba_marseille","lat":43.24662,"lon":5.38161,"is_reserved":false,"is_disabled":false,"rental_uris":{"android":"levelo://app?vid=265ccf22-a162-4f39-8e8c-a647f59c9078","ios":"levelo://app?vid=265ccf22-a162-4f39-8e8c-a647f59c9078"},"vehicle_type_id":"4","last_reported":1739672136,"current_range_meters":28000,"station_id":"ce4bhih2rcd13ifvqfr0","pricing_plan_id":"cebpf4jnsgd1na2vs0mg"},{"bike_id":"4e1f36bf-920b-407f-bd8e-e12200457304","system_id":"levelo_inurba_marseille","lat":43.27817,"lon":5.40694,"is_reserved":false,"is_disabled":false,"rental_uris":{"android":"levelo://app?vid=4e1f36bf-920b-407f-bd8e-e12200457304","ios":"levelo://app?vid=4e1f36bf-920b-407f-bd8e-e12200457304"},"vehicle_type_id":"4","last_reported":1739672136,"current_range_meters":38800,"station_id":"ce4bhnh2rcd13ifvqgtg","pricing_plan_id":"cebpf4jnsgd1na2vs0mg"},{"bike_id":"7df33989-9cd1-4583-a90f-25c190f648b5","system_id":"levelo_inurba_marseille","lat":43.29384,"lon":5.38612,"is_reserved":false,"is_disabled":false,"rental_uris":{"android":"levelo://app?vid=7df33989-9cd1-4583-a90f-25c190f648b5","ios":"levelo://app?vid=7df33989-9cd1-4583-a90f-25c190f648b5"},"vehicle_type_id":"4","last_reported":1739672136,"current_range_meters":31200,"station_id":"ce4bh2h2rcd13ifvqdh0","pricing_plan_id":"cebpf4jnsgd1na2vs0mg"},{"bike_id":"cc85b5db-b7bb-415b-a4fe-6b7e1c8bef4f","system_id":"levelo_inurba_marseille","lat":43.28049,"lon":5.36915,"is_reserved":false,"is_disabled":false,"rental_uris":{"android":"levelo://app?vid=cc85b5db-b7bb-415b-a4fe-6b7e1c8bef4f","ios":"levelo://app?vid=cc85b5db-b7bb-415b-a4fe-6b7e1c8bef4f"},"vehicle_type_id":"4","last_reported":1739672136,"current_range_meters":38800,"station_id":"ce4bha12rcd13ifvqef0","pricing_plan_id":"cebpf4jnsgd1na2vs0mg"},{"bike_id":"20dca62c-279f-4d77-befc-f9aa410b4d31","system_id":"levelo_inurba_marseille","lat":43.24683,"lon":5.38164,"is_reserved":false,"is_disabled":false,"rental_uris":{"android":"levelo://app?vid=20dca62c-279f-4d77-befc-f9aa410b4d31","ios":"levelo://app?vid=20dca62c-279f-4d77-befc-f9aa410b4d31"},"vehicle_type_id":"4","last_reported":1739672136,"current_range_meters":38000,"station_id":"ce4bhih2rcd13ifvqfr0","pricing_plan_id":"cebpf4jnsgd1na2vs0mg"},{"bike_id":"3d1a536f-25df-4558-adac-2acd527a301f","system_id":"levelo_inurba_marseille","lat":43.28467,"lon":5.35889,"is_reserved":false,"is_disabled":false,"rental_uris":{"android":"levelo://app?vid=3d1a536f-25df-4558-adac-2acd527a301f","ios":"levelo://app?vid=3d1a536f-25df-4558-adac-2acd527a301f"},"vehicle_type_id":"4","last_reported":1739672136,"current_range_meters":7200,"station_id":"ce4bhah2rcd13ifvqei0","pricing_plan_id":"cebpf4jnsgd1na2vs0mg"},{"bike_id":"79a57b21-23b7-447f-83f0-64e3d3abb302","system_id":"levelo_inurba_marseille","lat":43.28343,"lon":5.38117,"is_reserved":false,"is_disabled":false,"rental_uris":{"android":"levelo://app?vid=79a57b21-23b7-447f-83f0-64e3d3abb302","ios":"levelo://app?vid=79a57b21-23b7-447f-83f0-64e3d3abb302"},"vehicle_type_id":"4","last_reported":1739672136,"current_range_meters":34800,"station_id":"ce4bh412rcd13ifvqdr0","pricing_plan_id":"cebpf4jnsgd1na2vs0mg"},{"bike_id":"c7181c01-5767-4206-a2d3-43368915c75f","system_id":"levelo_inurba_marseille","lat":43.29793,"lon":5.39345,"is_reserved":false,"is_disabled":false,"rental_uris":{"android":"levelo://app?vid=c7181c01-5767-4206-a2d3-43368915c75f","ios":"levelo://app?vid=c7181c01-5767-4206-a2d3-43368915c75f"},"vehicle_type_id":"4","last_reported":1739672136,"current_range_meters":38400,"station_id":"chh1huq6cuj3fo74tm60","pricing_plan_id":"cebpf4jnsgd1na2vs0mg"},{"bike_id":"259f823b-ac4e-4efb-8198-41500c8f8e80","system_id":"levelo_inurba_marseille","lat":43.3044,"lon":5.38884,"is_reserved":false,"is_disabled":false,"rental_uris":{"android":"levelo://app?vid=259f823b-ac4e-4efb-8198-41500c8f8e80","ios":"levelo://app?vid=259f823b-ac4e-4efb-8198-41500c8f8e80"},"vehicle_type_id":"4","last_reported":1739672136,"current_range_meters":39200,"station_id":"ce4bgk12rcd13ifvqbi0","pricing_plan_id":"cebpf4jnsgd1na2vs0mg"},{"bike_id":"7ed8e48f-d577-4271-af08-371957dffd30","system_id":"levelo_inurba_marseille","lat":43.31161,"lon":5.38725,"is_reserved":false,"is_disabled":false,"rental_uris":{"android":"levelo://app?vid=7ed8e48f-d577-4271-af08-371957dffd30","ios":"levelo://app?vid=7ed8e48f-d577-4271-af08-371957dffd30"},"vehicle_type_id":"4","last_reported":1739672136,"current_range_meters":38800,"station_id":"ce4bgv12rcd13ifvqcp0","pricing_plan_id":"cebpf4jnsgd1na2vs0mg"},{"bike_id":"72526c7a-bad2-48be-9eb5-30027376ec95","system_id":"levelo_inurba_marseille","lat":43.23204,"lon":5.35547,"is_reserved":false,"is_disabled":false,"rental_uris":{"android":"levelo://app?vid=72526c7a-bad2-48be-9eb5-30027376ec95","ios":"levelo://app?vid=72526c7a-bad2-48be-9eb5-30027376ec95"},"vehicle_type_id":"4","last_reported":1739672136,"current_range_meters":38800,"station_id":"ce4bhu92rcd13ifvqi70","pricing_plan_id":"cebpf4jnsgd1na2vs0mg"},{"bike_id":"556c1d6d-667a-404b-9e60-1953c9298af3","system_id":"levelo_inurba_marseille","lat":43.28631,"lon":5.35095,"is_reserved":false,"is_disabled":false,"rental_uris":{"android":"levelo://app?vid=556c1d6d-667a-404b-9e60-1953c9298af3","ios":"levelo://app?vid=556c1d6d-667a-404b-9e60-1953c9298af3"},"vehicle_type_id":"4","last_reported":1739672136,"current_range_meters":8400,"station_id":"ce4bhch2rcd13ifvqeug","pricing_plan_id":"cebpf4jnsgd1na2vs0mg"},{"bike_id":"208f6fa9-d018-4d26-9e12-c220cc22c78a","system_id":"levelo_inurba_marseille","lat":43.29791,"lon":5.39341,"is_reserved":false,"is_disabled":false,"rental_uris":{"android":"levelo://app?vid=208f6fa9-d018-4d26-9e12-c220cc22c78a","ios":"levelo://app?vid=208f6fa9-d018-4d26-9e12-c220cc22c78a"},"vehicle_type_id":"4","last_reported":1739672136,"current_range_meters":38000,"station_id":"chh1huq6cuj3fo74tm60","pricing_plan_id":"cebpf4jnsgd1na2vs0mg"},{"bike_id":"3a029882-9888-4e4f-a670-8e87d78d0aec","system_id":"levelo_inurba_marseille","lat":43.24549,"lon":5.39526,"is_reserved":false,"is_disabled":false,"rental_uris":{"android":"levelo://app?vid=3a029882-9888-4e4f-a670-8e87d78d0aec","ios":"levelo://app?vid=3a029882-9888-4e4f-a670-8e87d78d0aec"},"vehicle_type_id":"4","last_reported":1739672136,"current_range_meters":38800,"station_id":"ce4bhlp2rcd13ifvqgjg","pricing_plan_id":"cebpf4jnsgd1na2vs0mg"},{"bike_id":"2b7d17ab-bb95-4037-a00b-4191eb309f80","system_id":"levelo_inurba_marseille","lat":43.308,"lon":5.38197,"is_reserved":false,"is_disabled":false,"rental_uris":{"android":"levelo://app?vid=2b7d17ab-bb95-4037-a00b-4191eb309f80","ios":"levelo://app?vid=2b7d17ab-bb95-4037-a00b-4191eb309f80"},"vehicle_type_id":"4","last_reported":1739672136,"current_range_meters":26000,"station_id":"ce4bgt12rcd13ifvqce0","pricing_plan_id":"cebpf4jnsgd1na2vs0mg"},{"bike_id":"7025fbac-f827-45dc-9a23-bda3e303efef","system_id":"levelo_inurba_marseille","lat":43.2871,"lon":5.39982,"is_reserved":false,"is_disabled":false,"rental_uris":{"android":"levelo://app?vid=7025fbac-f827-45dc-9a23-bda3e303efef","ios":"levelo://app?vid=7025fbac-f827-45dc-9a23-bda3e303efef"},"vehicle_type_id":"4","last_reported":1739672136,"current_range_meters":38000,"station_id":"ce4bho92rcd13ifvqh3g","pricing_plan_id":"cebpf4jnsgd1na2vs0mg"},{"bike_id":"ee6d22f4-e917-462d-a23e-d6fac04f27f3","system_id":"levelo_inurba_marseille","lat":43.31121,"lon":5.37765,"is_reserved":false,"is_disabled":false,"rental_uris":{"android":"levelo://app?vid=ee6d22f4-e917-462d-a23e-d6fac04f27f3","ios":"levelo://app?vid=ee6d22f4-e917-462d-a23e-d6fac04f27f3"},"vehicle_type_id":"4","last_reported":1739672136,"current_range_meters":10000,"station_id":"ce4bgt92rcd13ifvqcg0","pricing_plan_id":"cebpf4jnsgd1na2vs0mg"},{"bike_id":"03eba1d0-92c1-4e6e-a4d0-7c546f2439c0","system_id":"levelo_inurba_marseille","lat":43.337444,"lon":5.374475,"is_reserved":false,"is_disabled":true,"rental_uris":{"android":"levelo://app?vid=03eba1d0-92c1-4e6e-a4d0-7c546f2439c0","ios":"levelo://app?vid=03eba1d0-92c1-4e6e-a4d0-7c546f2439c0"},"vehicle_type_id":"4","last_reported":1739672136,"current_range_meters":0,"station_id":"","pricing_plan_id":"cebpf4jnsgd1na2vs0mg"},{"bike_id":"2b51a041-a600-4f69-92f9-b5941fc7c79e","system_id":"levelo_inurba_marseille","lat":43.284473,"lon":5.391977,"is_reserved":false,"is_disabled":true,"rental_uris":{"android":"levelo://app?vid=2b51a041-a600-4f69-92f9-b5941fc7c79e","ios":"levelo://app?vid=2b51a041-a600-4f69-92f9-b5941fc7c79e"},"vehicle_type_id":"4","last_reported":1739672136,"current_range_meters":30000,"station_id":"ce4bhoh2rcd13ifvqh5g","pricing_plan_id":"cebpf4jnsgd1na2vs0mg"},{"bike_id":"653b3681-8d49-4063-97bd-177fe11162f9","system_id":"levelo_inurba_marseille","lat":43.25481,"lon":5.37646,"is_reserved":false,"is_disabled":true,"rental_uris":{"android":"levelo://app?vid=653b3681-8d49-4063-97bd-177fe11162f9","ios":"levelo://app?vid=653b3681-8d49-4063-97bd-177fe11162f9"},"vehicle_type_id":"4","last_reported":1739672136,"current_range_meters":35200,"station_id":"ce4bhh12rcd13ifvqff0","pricing_plan_id":"cebpf4jnsgd1na2vs0mg"},{"bike_id":"ae0a2ea6-d706-4318-97ba-a7f9fea3e22c","system_id":"levelo_inurba_marseille","lat":43.29029,"lon":5.38622,"is_reserved":false,"is_disabled":false,"rental_uris":{"android":"levelo://app?vid=ae0a2ea6-d706-4318-97ba-a7f9fea3e22c","ios":"levelo://app?vid=ae0a2ea6-d706-4318-97ba-a7f9fea3e22c"},"vehicle_type_id":"4","last_reported":1739672136,"current_range_meters":38400,"station_id":"ce4bh4p2rcd13ifvqe0g","pricing_plan_id":"cebpf4jnsgd1na2vs0mg"},{"bike_id":"561fd983-a1c7-43b8-8f57-a73d312cb67a","system_id":"levelo_inurba_marseille","lat":43.32073,"lon":5.4153,"is_reserved":false,"is_disabled":false,"rental_uris":{"android":"levelo://app?vid=561fd983-a1c7-43b8-8f57-a73d312cb67a","ios":"levelo://app?vid=561fd983-a1c7-43b8-8f57-a73d312cb67a"},"vehicle_type_id":"4","last_reported":1739672136,"current_range_meters":38400,"station_id":"ce4bhq92rcd13ifvqhkg","pricing_plan_id":"cebpf4jnsgd1na2vs0mg"},{"bike_id":"3341758d-d181-4d02-b02c-6161e8816e88","system_id":"levelo_inurba_marseille","lat":43.318978,"lon":5.407371,"is_reserved":false,"is_disabled":false,"rental_uris":{"android":"levelo://app?vid=3341758d-d181-4d02-b02c-6161e8816e88","ios":"levelo://app?vid=3341758d-d181-4d02-b02c-6161e8816e88"},"vehicle_type_id":"4","last_reported":1739672136,"current_range_meters":19600,"station_id":"ce4bhq12rcd13ifvqhig","pricing_plan_id":"cebpf4jnsgd1na2vs0mg"},{"bike_id":"dbf220bb-131a-4509-b32e-690ce6030049","system_id":"levelo_inurba_marseille","lat":43.32397,"lon":5.40668,"is_reserved":false,"is_disabled":false,"rental_uris":{"android":"levelo://app?vid=dbf220bb-131a-4509-b32e-690ce6030049","ios":"levelo://app?vid=dbf220bb-131a-4509-b32e-690ce6030049"},"vehicle_type_id":"4","last_reported":1739672136,"current_range_meters":27600,"station_id":"","pricing_plan_id":"cebpf4jnsgd1na2vs0mg"},{"bike_id":"d7bb91c7-1e6c-4011-85a2-08678dbfba66","system_id":"levelo_inurba_marseille","lat":43.24394,"lon":5.37063,"is_reserved":false,"is_disabled":false,"rental_uris":{"android":"levelo://app?vid=d7bb91c7-1e6c-4011-85a2-08678dbfba66","ios":"levelo://app?vid=d7bb91c7-1e6c-4011-85a2-08678dbfba66"},"vehicle_type_id":"4","last_reported":1739672136,"current_range_meters":38800,"station_id":"ce4bhhh2rcd13ifvqfk0","pricing_plan_id":"cebpf4jnsgd1na2vs0mg"},{"bike_id":"1d3fd0e3-562b-48cd-81dd-f62ec7ce0aaf","system_id":"levelo_inurba_marseille","lat":43.3052,"lon":5.36452,"is_reserved":false,"is_disabled":false,"rental_uris":{"android":"levelo://app?vid=1d3fd0e3-562b-48cd-81dd-f62ec7ce0aaf","ios":"levelo://app?vid=1d3fd0e3-562b-48cd-81dd-f62ec7ce0aaf"},"vehicle_type_id":"4","last_reported":1739672136,"current_range_meters":38000,"station_id":"ce4bgs12rcd13ifvqcag","pricing_plan_id":"cebpf4jnsgd1na2vs0mg"},{"bike_id":"1163f4f7-255b-46d1-8012-6cca3151d589","system_id":"levelo_inurba_marseille","lat":43.308,"lon":5.38153,"is_reserved":false,"is_disabled":false,"rental_uris":{"android":"levelo://app?vid=1163f4f7-255b-46d1-8012-6cca3151d589","ios":"levelo://app?vid=1163f4f7-255b-46d1-8012-6cca3151d589"},"vehicle_type_id":"4","last_reported":1739672136,"current_range_meters":26000,"station_id":"ce4bgt12rcd13ifvqce0","pricing_plan_id":"cebpf4jnsgd1na2vs0mg"},{"bike_id":"1f52f3b3-3e4c-4076-9fe5-f4b3bb4b252a","system_id":"levelo_inurba_marseille","lat":43.27518,"lon":5.43607,"is_reserved":false,"is_disabled":true,"rental_uris":{"android":"levelo://app?vid=1f52f3b3-3e4c-4076-9fe5-f4b3bb4b252a","ios":"levelo://app?vid=1f52f3b3-3e4c-4076-9fe5-f4b3bb4b252a"},"vehicle_type_id":"4","last_reported":1739672136,"current_range_meters":1200,"station_id":"","pricing_plan_id":"cebpf4jnsgd1na2vs0mg"},{"bike_id":"36e9626a-f0c0-42ed-9b51-b652c3621f49","system_id":"levelo_inurba_marseille","lat":43.2418,"lon":5.39735,"is_reserved":false,"is_disabled":false,"rental_uris":{"android":"levelo://app?vid=36e9626a-f0c0-42ed-9b51-b652c3621f49","ios":"levelo://app?vid=36e9626a-f0c0-42ed-9b51-b652c3621f49"},"vehicle_type_id":"4","last_reported":1739672136,"current_range_meters":19600,"station_id":"ce4bhn12rcd13ifvqgpg","pricing_plan_id":"cebpf4jnsgd1na2vs0mg"},{"bike_id":"7810399a-aba8-4931-8563-2a4f4266c078","system_id":"levelo_inurba_marseille","lat":43.25106,"lon":5.40335,"is_reserved":false,"is_disabled":false,"rental_uris":{"android":"levelo://app?vid=7810399a-aba8-4931-8563-2a4f4266c078","ios":"levelo://app?vid=7810399a-aba8-4931-8563-2a4f4266c078"},"vehicle_type_id":"4","last_reported":1739672136,"current_range_meters":10800,"station_id":"ce4bhlh2rcd13ifvqgig","pricing_plan_id":"cebpf4jnsgd1na2vs0mg"},{"bike_id":"c02630e4-0321-47b6-ac2b-aeaf7b2a8056","system_id":"levelo_inurba_marseille","lat":43.29883,"lon":5.39732,"is_reserved":false,"is_disabled":false,"rental_uris":{"android":"levelo://app?vid=c02630e4-0321-47b6-ac2b-aeaf7b2a8056","ios":"levelo://app?vid=c02630e4-0321-47b6-ac2b-aeaf7b2a8056"},"vehicle_type_id":"4","last_reported":1739672136,"current_range_meters":8800,"station_id":"ce4bh0h2rcd13ifvqd50","pricing_plan_id":"cebpf4jnsgd1na2vs0mg"},{"bike_id":"bd1fbd17-5ecd-4c2a-9290-d1ffd1a70214","system_id":"levelo_inurba_marseille","lat":43.295517,"lon":5.422854,"is_reserved":false,"is_disabled":false,"rental_uris":{"android":"levelo://app?vid=bd1fbd17-5ecd-4c2a-9290-d1ffd1a70214","ios":"levelo://app?vid=bd1fbd17-5ecd-4c2a-9290-d1ffd1a70214"},"vehicle_type_id":"4","last_reported":1739672136,"current_range_meters":30000,"station_id":"ce4bhph2rcd13ifvqhdg","pricing_plan_id":"cebpf4jnsgd1na2vs0mg"},{"bike_id":"6127f497-466e-4a0c-8551-3df79a118870","system_id":"levelo_inurba_marseille","lat":43.30798,"lon":5.38154,"is_reserved":false,"is_disabled":false,"rental_uris":{"android":"levelo://app?vid=6127f497-466e-4a0c-8551-3df79a118870","ios":"levelo://app?vid=6127f497-466e-4a0c-8551-3df79a118870"},"vehicle_type_id":"4","last_reported":1739672136,"current_range_meters":39200,"station_id":"ce4bgt12rcd13ifvqce0","pricing_plan_id":"cebpf4jnsgd1na2vs0mg"},{"bike_id":"25515edf-cc9e-4e85-becb-3fd8e850755e","system_id":"levelo_inurba_marseille","lat":43.2815,"lon":5.42648,"is_reserved":false,"is_disabled":false,"rental_uris":{"android":"levelo://app?vid=25515edf-cc9e-4e85-becb-3fd8e850755e","ios":"levelo://app?vid=25515edf-cc9e-4e85-becb-3fd8e850755e"},"vehicle_type_id":"4","last_reported":1739672136,"current_range_meters":8000,"station_id":"ce4bhnh2rcd13ifvqgug","pricing_plan_id":"cebpf4jnsgd1na2vs0mg"},{"bike_id":"b9ff6eec-0a38-4789-a15e-f3855db0e022","system_id":"levelo_inurba_marseille","lat":43.25112,"lon":5.4032,"is_reserved":false,"is_disabled":false,"rental_uris":{"android":"levelo://app?vid=b9ff6eec-0a38-4789-a15e-f3855db0e022","ios":"levelo://app?vid=b9ff6eec-0a38-4789-a15e-f3855db0e022"},"vehicle_type_id":"4","last_reported":1739672136,"current_range_meters":12000,"station_id":"ce4bhlh2rcd13ifvqgig","pricing_plan_id":"cebpf4jnsgd1na2vs0mg"},{"bike_id":"4f34ac20-13f8-4bff-8fa6-5425328bb98e","system_id":"levelo_inurba_marseille","lat":43.30203,"lon":5.40054,"is_reserved":false,"is_disabled":true,"rental_uris":{"android":"levelo://app?vid=4f34ac20-13f8-4bff-8fa6-5425328bb98e","ios":"levelo://app?vid=4f34ac20-13f8-4bff-8fa6-5425328bb98e"},"vehicle_type_id":"4","last_reported":1739672136,"current_range_meters":26000,"station_id":"","pricing_plan_id":"cebpf4jnsgd1na2vs0mg"},{"bike_id":"6ebbedc7-a203-43c1-be28-2b5d0c0af955","system_id":"levelo_inurba_marseille","lat":43.2795,"lon":5.41033,"is_reserved":false,"is_disabled":false,"rental_uris":{"android":"levelo://app?vid=6ebbedc7-a203-43c1-be28-2b5d0c0af955","ios":"levelo://app?vid=6ebbedc7-a203-43c1-be28-2b5d0c0af955"},"vehicle_type_id":"4","last_reported":1739672136,"current_range_meters":19600,"station_id":"ce4bhnp2rcd13ifvqh0g","pricing_plan_id":"cebpf4jnsgd1na2vs0mg"},{"bike_id":"74aa5fc9-61c3-4bce-bf4c-32aab1dd6ff1","system_id":"levelo_inurba_marseille","lat":43.30888,"lon":5.39635,"is_reserved":false,"is_disabled":false,"rental_uris":{"android":"levelo://app?vid=74aa5fc9-61c3-4bce-bf4c-32aab1dd6ff1","ios":"levelo://app?vid=74aa5fc9-61c3-4bce-bf4c-32aab1dd6ff1"},"vehicle_type_id":"4","last_reported":1739672136,"current_range_meters":30800,"station_id":"ce4bh012rcd13ifvqcv0","pricing_plan_id":"cebpf4jnsgd1na2vs0mg"},{"bike_id":"68e091eb-0298-4cb5-b5eb-8dfc36218da6","system_id":"levelo_inurba_marseille","lat":43.23195,"lon":5.40001,"is_reserved":false,"is_disabled":false,"rental_uris":{"android":"levelo://app?vid=68e091eb-0298-4cb5-b5eb-8dfc36218da6","ios":"levelo://app?vid=68e091eb-0298-4cb5-b5eb-8dfc36218da6"},"vehicle_type_id":"4","last_reported":1739672136,"current_range_meters":38800,"station_id":"ce4bhn12rcd13ifvqgqg","pricing_plan_id":"cebpf4jnsgd1na2vs0mg"},{"bike_id":"d63b7867-53a4-4bca-be72-b856d1cbea50","system_id":"levelo_inurba_marseille","lat":43.23938,"lon":5.36648,"is_reserved":false,"is_disabled":false,"rental_uris":{"android":"levelo://app?vid=d63b7867-53a4-4bca-be72-b856d1cbea50","ios":"levelo://app?vid=d63b7867-53a4-4bca-be72-b856d1cbea50"},"vehicle_type_id":"4","last_reported":1739672136,"current_range_meters":22400,"station_id":"ce4bhi12rcd13ifvqfp0","pricing_plan_id":"cebpf4jnsgd1na2vs0mg"},{"bike_id":"67b9e083-4966-492b-9ec6-8c76d84bc7cc","system_id":"levelo_inurba_marseille","lat":43.298743,"lon":5.397364,"is_reserved":false,"is_disabled":false,"rental_uris":{"android":"levelo://app?vid=67b9e083-4966-492b-9ec6-8c76d84bc7cc","ios":"levelo://app?vid=67b9e083-4966-492b-9ec6-8c76d84bc7cc"},"vehicle_type_id":"4","last_reported":1739672136,"current_range_meters":17200,"station_id":"ce4bh0h2rcd13ifvqd50","pricing_plan_id":"cebpf4jnsgd1na2vs0mg"},{"bike_id":"c47616ba-4408-41b4-bfef-d41e880abc31","system_id":"levelo_inurba_marseille","lat":43.23168,"lon":5.39981,"is_reserved":false,"is_disabled":false,"rental_uris":{"android":"levelo://app?vid=c47616ba-4408-41b4-bfef-d41e880abc31","ios":"levelo://app?vid=c47616ba-4408-41b4-bfef-d41e880abc31"},"vehicle_type_id":"4","last_reported":1739672136,"current_range_meters":16400,"station_id":"ce4bhn12rcd13ifvqgqg","pricing_plan_id":"cebpf4jnsgd1na2vs0mg"},{"bike_id":"6382956e-65a4-428f-8fcc-ca6196def756","system_id":"levelo_inurba_marseille","lat":43.30934,"lon":5.40143,"is_reserved":false,"is_disabled":false,"rental_uris":{"android":"levelo://app?vid=6382956e-65a4-428f-8fcc-ca6196def756","ios":"levelo://app?vid=6382956e-65a4-428f-8fcc-ca6196def756"},"vehicle_type_id":"4","last_reported":1739672136,"current_range_meters":35600,"station_id":"ce4bgvp2rcd13ifvqct0","pricing_plan_id":"cebpf4jnsgd1na2vs0mg"},{"bike_id":"6a60b370-3de6-430b-8c22-810750479d92","system_id":"levelo_inurba_marseille","lat":43.30327,"lon":5.40448,"is_reserved":false,"is_disabled":false,"rental_uris":{"android":"levelo://app?vid=6a60b370-3de6-430b-8c22-810750479d92","ios":"levelo://app?vid=6a60b370-3de6-430b-8c22-810750479d92"},"vehicle_type_id":"4","last_reported":1739672136,"current_range_meters":38800,"station_id":"ce4bh012rcd13ifvqd10","pricing_plan_id":"cebpf4jnsgd1na2vs0mg"},{"bike_id":"1a70beae-318b-417c-9b69-06b61a7df44a","system_id":"levelo_inurba_marseille","lat":43.298886,"lon":5.397485,"is_reserved":false,"is_disabled":false,"rental_uris":{"android":"levelo://app?vid=1a70beae-318b-417c-9b69-06b61a7df44a","ios":"levelo://app?vid=1a70beae-318b-417c-9b69-06b61a7df44a"},"vehicle_type_id":"4","last_reported":1739672136,"current_range_meters":26000,"station_id":"ce4bh0h2rcd13ifvqd50","pricing_plan_id":"cebpf4jnsgd1na2vs0mg"},{"bike_id":"02db7a28-fc2d-4a4a-92a0-cec040e64718","system_id":"levelo_inurba_marseille","lat":43.23961,"lon":5.36637,"is_reserved":false,"is_disabled":false,"rental_uris":{"android":"levelo://app?vid=02db7a28-fc2d-4a4a-92a0-cec040e64718","ios":"levelo://app?vid=02db7a28-fc2d-4a4a-92a0-cec040e64718"},"vehicle_type_id":"4","last_reported":1739672136,"current_range_meters":6800,"station_id":"ce4bhi12rcd13ifvqfp0","pricing_plan_id":"cebpf4jnsgd1na2vs0mg"},{"bike_id":"84718404-9f2e-42cc-aceb-1455c391af4a","system_id":"levelo_inurba_marseille","lat":43.28411,"lon":5.37513,"is_reserved":false,"is_disabled":false,"rental_uris":{"android":"levelo://app?vid=84718404-9f2e-42cc-aceb-1455c391af4a","ios":"levelo://app?vid=84718404-9f2e-42cc-aceb-1455c391af4a"},"vehicle_type_id":"4","last_reported":1739672136,"current_range_meters":20800,"station_id":"ce4bh412rcd13ifvqds0","pricing_plan_id":"cebpf4jnsgd1na2vs0mg"},{"bike_id":"259f324e-495d-4777-af78-e80f0b68ae0a","system_id":"levelo_inurba_marseille","lat":43.263313,"lon":5.374817,"is_reserved":false,"is_disabled":false,"rental_uris":{"android":"levelo://app?vid=259f324e-495d-4777-af78-e80f0b68ae0a","ios":"levelo://app?vid=259f324e-495d-4777-af78-e80f0b68ae0a"},"vehicle_type_id":"4","last_reported":1739672136,"current_range_meters":38000,"station_id":"ce4bh692rcd13ifvqea0","pricing_plan_id":"cebpf4jnsgd1na2vs0mg"},{"bike_id":"9671bb75-5099-4000-a2c9-73cddae185bf","system_id":"levelo_inurba_marseille","lat":43.29557,"lon":5.42291,"is_reserved":false,"is_disabled":false,"rental_uris":{"android":"levelo://app?vid=9671bb75-5099-4000-a2c9-73cddae185bf","ios":"levelo://app?vid=9671bb75-5099-4000-a2c9-73cddae185bf"},"vehicle_type_id":"4","last_reported":1739672136,"current_range_meters":11200,"station_id":"ce4bhph2rcd13ifvqhdg","pricing_plan_id":"cebpf4jnsgd1na2vs0mg"},{"bike_id":"09f52ef9-a426-4823-88cd-5e80e1124dc6","system_id":"levelo_inurba_marseille","lat":43.28858,"lon":5.35852,"is_reserved":false,"is_disabled":false,"rental_uris":{"android":"levelo://app?vid=09f52ef9-a426-4823-88cd-5e80e1124dc6","ios":"levelo://app?vid=09f52ef9-a426-4823-88cd-5e80e1124dc6"},"vehicle_type_id":"4","last_reported":1739672136,"current_range_meters":28400,"station_id":"ce4bhb12rcd13ifvqem0","pricing_plan_id":"cebpf4jnsgd1na2vs0mg"},{"bike_id":"a3b76a23-e719-4cac-9132-63d31b15a8de","system_id":"levelo_inurba_marseille","lat":43.2415,"lon":5.36404,"is_reserved":false,"is_disabled":false,"rental_uris":{"android":"levelo://app?vid=a3b76a23-e719-4cac-9132-63d31b15a8de","ios":"levelo://app?vid=a3b76a23-e719-4cac-9132-63d31b15a8de"},"vehicle_type_id":"4","last_reported":1739672136,"current_range_meters":27200,"station_id":"cpo36qri1sfpv3e86is0","pricing_plan_id":"cebpf4jnsgd1na2vs0mg"},{"bike_id":"9769b69e-538d-40a3-8256-515928e1b590","system_id":"levelo_inurba_marseille","lat":43.30882,"lon":5.372,"is_reserved":false,"is_disabled":false,"rental_uris":{"android":"levelo://app?vid=9769b69e-538d-40a3-8256-515928e1b590","ios":"levelo://app?vid=9769b69e-538d-40a3-8256-515928e1b590"},"vehicle_type_id":"4","last_reported":1739672136,"current_range_meters":8000,"station_id":"ce4bguh2rcd13ifvqckg","pricing_plan_id":"cebpf4jnsgd1na2vs0mg"},{"bike_id":"dddaf751-f1e8-4dc8-870c-555f430eb72d","system_id":"levelo_inurba_marseille","lat":43.30088,"lon":5.39084,"is_reserved":false,"is_disabled":false,"rental_uris":{"android":"levelo://app?vid=dddaf751-f1e8-4dc8-870c-555f430eb72d","ios":"levelo://app?vid=dddaf751-f1e8-4dc8-870c-555f430eb72d"},"vehicle_type_id":"4","last_reported":1739672136,"current_range_meters":38400,"station_id":"ce4bh192rcd13ifvqdb0","pricing_plan_id":"cebpf4jnsgd1na2vs0mg"},{"bike_id":"fe0f12a8-8d62-4d79-b629-bda6901e6297","system_id":"levelo_inurba_marseille","lat":43.269357,"lon":5.402706,"is_reserved":false,"is_disabled":true,"rental_uris":{"android":"levelo://app?vid=fe0f12a8-8d62-4d79-b629-bda6901e6297","ios":"levelo://app?vid=fe0f12a8-8d62-4d79-b629-bda6901e6297"},"vehicle_type_id":"4","last_reported":1739672136,"current_range_meters":28800,"station_id":"cjm6bp8fraef2m0cb0m0","pricing_plan_id":"cebpf4jnsgd1na2vs0mg"},{"bike_id":"14e294d3-6345-4869-b4d4-4ce0e5d652c9","system_id":"levelo_inurba_marseille","lat":43.2799,"lon":5.4166,"is_reserved":false,"is_disabled":false,"rental_uris":{"android":"levelo://app?vid=14e294d3-6345-4869-b4d4-4ce0e5d652c9","ios":"levelo://app?vid=14e294d3-6345-4869-b4d4-4ce0e5d652c9"},"vehicle_type_id":"4","last_reported":1739672136,"current_range_meters":18000,"station_id":"ce4bho12rcd13ifvqh1g","pricing_plan_id":"cebpf4jnsgd1na2vs0mg"},{"bike_id":"466babc0-124c-418f-8013-0bdd9593df0f","system_id":"levelo_inurba_marseille","lat":43.24396,"lon":5.3704,"is_reserved":false,"is_disabled":false,"rental_uris":{"android":"levelo://app?vid=466babc0-124c-418f-8013-0bdd9593df0f","ios":"levelo://app?vid=466babc0-124c-418f-8013-0bdd9593df0f"},"vehicle_type_id":"4","last_reported":1739672136,"current_range_meters":38800,"station_id":"ce4bhhh2rcd13ifvqfk0","pricing_plan_id":"cebpf4jnsgd1na2vs0mg"},{"bike_id":"cfbe67cf-6420-4945-9471-2d464aa6fcd4","system_id":"levelo_inurba_marseille","lat":43.278283,"lon":5.392053,"is_reserved":false,"is_disabled":true,"rental_uris":{"android":"levelo://app?vid=cfbe67cf-6420-4945-9471-2d464aa6fcd4","ios":"levelo://app?vid=cfbe67cf-6420-4945-9471-2d464aa6fcd4"},"vehicle_type_id":"4","last_reported":1739672136,"current_range_meters":7200,"station_id":"ce4bhjp2rcd13ifvqga0","pricing_plan_id":"cebpf4jnsgd1na2vs0mg"},{"bike_id":"168c41a1-aa17-40ae-aac7-dd02a7e23b9b","system_id":"levelo_inurba_marseille","lat":43.25119,"lon":5.40325,"is_reserved":false,"is_disabled":false,"rental_uris":{"android":"levelo://app?vid=168c41a1-aa17-40ae-aac7-dd02a7e23b9b","ios":"levelo://app?vid=168c41a1-aa17-40ae-aac7-dd02a7e23b9b"},"vehicle_type_id":"4","last_reported":1739672136,"current_range_meters":6000,"station_id":"ce4bhlh2rcd13ifvqgig","pricing_plan_id":"cebpf4jnsgd1na2vs0mg"},{"bike_id":"dc5294ff-c647-4cc8-9ff2-9cfe7a38b888","system_id":"levelo_inurba_marseille","lat":43.31459,"lon":5.37394,"is_reserved":false,"is_disabled":false,"rental_uris":{"android":"levelo://app?vid=dc5294ff-c647-4cc8-9ff2-9cfe7a38b888","ios":"levelo://app?vid=dc5294ff-c647-4cc8-9ff2-9cfe7a38b888"},"vehicle_type_id":"4","last_reported":1739672136,"current_range_meters":24000,"station_id":"","pricing_plan_id":"cebpf4jnsgd1na2vs0mg"},{"bike_id":"2d1a0294-4315-4a6d-9042-006493c526cd","system_id":"levelo_inurba_marseille","lat":43.29564,"lon":5.40628,"is_reserved":false,"is_disabled":false,"rental_uris":{"android":"levelo://app?vid=2d1a0294-4315-4a6d-9042-006493c526cd","ios":"levelo://app?vid=2d1a0294-4315-4a6d-9042-006493c526cd"},"vehicle_type_id":"4","last_reported":1739672136,"current_range_meters":5600,"station_id":"","pricing_plan_id":"cebpf4jnsgd1na2vs0mg"},{"bike_id":"7c28b49d-2bb8-49b8-a306-a83a8e70e81e","system_id":"levelo_inurba_marseille","lat":43.28103,"lon":5.37841,"is_reserved":false,"is_disabled":false,"rental_uris":{"android":"levelo://app?vid=7c28b49d-2bb8-49b8-a306-a83a8e70e81e","ios":"levelo://app?vid=7c28b49d-2bb8-49b8-a306-a83a8e70e81e"},"vehicle_type_id":"4","last_reported":1739672136,"current_range_meters":38800,"station_id":"ce4bha12rcd13ifvqee0","pricing_plan_id":"cebpf4jnsgd1na2vs0mg"},{"bike_id":"dccc5a5d-b07c-4f74-b4cb-6d186421c5e4","system_id":"levelo_inurba_marseille","lat":43.28661,"lon":5.36368,"is_reserved":false,"is_disabled":false,"rental_uris":{"android":"levelo://app?vid=dccc5a5d-b07c-4f74-b4cb-6d186421c5e4","ios":"levelo://app?vid=dccc5a5d-b07c-4f74-b4cb-6d186421c5e4"},"vehicle_type_id":"4","last_reported":1739672136,"current_range_meters":38000,"station_id":"ce4bhah2rcd13ifvqej0","pricing_plan_id":"cebpf4jnsgd1na2vs0mg"},{"bike_id":"95a0c179-9678-4626-bcf6-57c11dc20a09","system_id":"levelo_inurba_marseille","lat":43.25107,"lon":5.40319,"is_reserved":false,"is_disabled":false,"rental_uris":{"android":"levelo://app?vid=95a0c179-9678-4626-bcf6-57c11dc20a09","ios":"levelo://app?vid=95a0c179-9678-4626-bcf6-57c11dc20a09"},"vehicle_type_id":"4","last_reported":1739672136,"current_range_meters":39200,"station_id":"ce4bhlh2rcd13ifvqgig","pricing_plan_id":"cebpf4jnsgd1na2vs0mg"},{"bike_id":"9163e481-f89a-48ef-a201-33eebb95fd14","system_id":"levelo_inurba_marseille","lat":43.29884,"lon":5.36607,"is_reserved":false,"is_disabled":false,"rental_uris":{"android":"levelo://app?vid=9163e481-f89a-48ef-a201-33eebb95fd14","ios":"levelo://app?vid=9163e481-f89a-48ef-a201-33eebb95fd14"},"vehicle_type_id":"4","last_reported":1739672136,"current_range_meters":26000,"station_id":"","pricing_plan_id":"cebpf4jnsgd1na2vs0mg"},{"bike_id":"9f912eed-51aa-49cb-84a4-977637263173","system_id":"levelo_inurba_marseille","lat":43.29907,"lon":5.3804,"is_reserved":false,"is_disabled":false,"rental_uris":{"android":"levelo://app?vid=9f912eed-51aa-49cb-84a4-977637263173","ios":"levelo://app?vid=9f912eed-51aa-49cb-84a4-977637263173"},"vehicle_type_id":"4","last_reported":1739672136,"current_range_meters":24400,"station_id":"","pricing_plan_id":"cebpf4jnsgd1na2vs0mg"},{"bike_id":"f76de03d-d754-4d8b-97a4-7811084bfc95","system_id":"levelo_inurba_marseille","lat":43.26503,"lon":5.39551,"is_reserved":false,"is_disabled":false,"rental_uris":{"android":"levelo://app?vid=f76de03d-d754-4d8b-97a4-7811084bfc95","ios":"levelo://app?vid=f76de03d-d754-4d8b-97a4-7811084bfc95"},"vehicle_type_id":"4","last_reported":1739672136,"current_range_meters":36400,"station_id":"ce4bhi12rcd13ifvqfq0","pricing_plan_id":"cebpf4jnsgd1na2vs0mg"},{"bike_id":"d5826661-b84d-4b4b-b3f7-a7ea968c0b1e","system_id":"levelo_inurba_marseille","lat":43.28488,"lon":5.38458,"is_reserved":false,"is_disabled":false,"rental_uris":{"android":"levelo://app?vid=d5826661-b84d-4b4b-b3f7-a7ea968c0b1e","ios":"levelo://app?vid=d5826661-b84d-4b4b-b3f7-a7ea968c0b1e"},"vehicle_type_id":"4","last_reported":1739672136,"current_range_meters":33600,"station_id":"ce4bh512rcd13ifvqe3g","pricing_plan_id":"cebpf4jnsgd1na2vs0mg"},{"bike_id":"e9e4e10c-18cc-446a-9084-4db10dfe007c","system_id":"levelo_inurba_marseille","lat":43.281,"lon":5.37848,"is_reserved":false,"is_disabled":false,"rental_uris":{"android":"levelo://app?vid=e9e4e10c-18cc-446a-9084-4db10dfe007c","ios":"levelo://app?vid=e9e4e10c-18cc-446a-9084-4db10dfe007c"},"vehicle_type_id":"4","last_reported":1739672136,"current_range_meters":26000,"station_id":"ce4bha12rcd13ifvqee0","pricing_plan_id":"cebpf4jnsgd1na2vs0mg"},{"bike_id":"2387448a-ad1e-4d92-8739-0eed7ccd6f1a","system_id":"levelo_inurba_marseille","lat":43.32656,"lon":5.40989,"is_reserved":false,"is_disabled":false,"rental_uris":{"android":"levelo://app?vid=2387448a-ad1e-4d92-8739-0eed7ccd6f1a","ios":"levelo://app?vid=2387448a-ad1e-4d92-8739-0eed7ccd6f1a"},"vehicle_type_id":"4","last_reported":1739672136,"current_range_meters":38400,"station_id":"ce4bhpp2rcd13ifvqhgg","pricing_plan_id":"cebpf4jnsgd1na2vs0mg"},{"bike_id":"f1db9771-94dd-4030-914e-070bbe85d4cc","system_id":"levelo_inurba_marseille","lat":43.32277,"lon":5.38252,"is_reserved":false,"is_disabled":false,"rental_uris":{"android":"levelo://app?vid=f1db9771-94dd-4030-914e-070bbe85d4cc","ios":"levelo://app?vid=f1db9771-94dd-4030-914e-070bbe85d4cc"},"vehicle_type_id":"4","last_reported":1739672136,"current_range_meters":38800,"station_id":"ce4bhr12rcd13ifvqhqg","pricing_plan_id":"cebpf4jnsgd1na2vs0mg"},{"bike_id":"388c593f-91de-4783-ba97-3dc258b92891","system_id":"levelo_inurba_marseille","lat":43.28566,"lon":5.3949,"is_reserved":false,"is_disabled":false,"rental_uris":{"android":"levelo://app?vid=388c593f-91de-4783-ba97-3dc258b92891","ios":"levelo://app?vid=388c593f-91de-4783-ba97-3dc258b92891"},"vehicle_type_id":"4","last_reported":1739672136,"current_range_meters":6400,"station_id":"ce4bh292rcd13ifvqdg0","pricing_plan_id":"cebpf4jnsgd1na2vs0mg"},{"bike_id":"56a0c045-2888-4b4e-9ed6-3ea77c30289d","system_id":"levelo_inurba_marseille","lat":43.2902,"lon":5.38634,"is_reserved":false,"is_disabled":false,"rental_uris":{"android":"levelo://app?vid=56a0c045-2888-4b4e-9ed6-3ea77c30289d","ios":"levelo://app?vid=56a0c045-2888-4b4e-9ed6-3ea77c30289d"},"vehicle_type_id":"4","last_reported":1739672136,"current_range_meters":36800,"station_id":"ce4bh4p2rcd13ifvqe0g","pricing_plan_id":"cebpf4jnsgd1na2vs0mg"},{"bike_id":"420f85fb-df53-484b-b0f5-ee8897a490a2","system_id":"levelo_inurba_marseille","lat":43.28458,"lon":5.35896,"is_reserved":false,"is_disabled":false,"rental_uris":{"android":"levelo://app?vid=420f85fb-df53-484b-b0f5-ee8897a490a2","ios":"levelo://app?vid=420f85fb-df53-484b-b0f5-ee8897a490a2"},"vehicle_type_id":"4","last_reported":1739672136,"current_range_meters":38800,"station_id":"ce4bhah2rcd13ifvqei0","pricing_plan_id":"cebpf4jnsgd1na2vs0mg"},{"bike_id":"53b5f8d9-591b-4722-8b93-d03568f78034","system_id":"levelo_inurba_marseille","lat":43.28458,"lon":5.35898,"is_reserved":false,"is_disabled":false,"rental_uris":{"android":"levelo://app?vid=53b5f8d9-591b-4722-8b93-d03568f78034","ios":"levelo://app?vid=53b5f8d9-591b-4722-8b93-d03568f78034"},"vehicle_type_id":"4","last_reported":1739672136,"current_range_meters":22800,"station_id":"ce4bhah2rcd13ifvqei0","pricing_plan_id":"cebpf4jnsgd1na2vs0mg"},{"bike_id":"d511c3fa-d5f4-4a0f-91ee-268d02b5310f","system_id":"levelo_inurba_marseille","lat":43.28621,"lon":5.35093,"is_reserved":false,"is_disabled":true,"rental_uris":{"android":"levelo://app?vid=d511c3fa-d5f4-4a0f-91ee-268d02b5310f","ios":"levelo://app?vid=d511c3fa-d5f4-4a0f-91ee-268d02b5310f"},"vehicle_type_id":"4","last_reported":1739672136,"current_range_meters":18000,"station_id":"","pricing_plan_id":"cebpf4jnsgd1na2vs0mg"},{"bike_id":"0b449e12-31cd-4bd1-8f80-a7c11c3a34ac","system_id":"levelo_inurba_marseille","lat":43.31527,"lon":5.38041,"is_reserved":false,"is_disabled":false,"rental_uris":{"android":"levelo://app?vid=0b449e12-31cd-4bd1-8f80-a7c11c3a34ac","ios":"levelo://app?vid=0b449e12-31cd-4bd1-8f80-a7c11c3a34ac"},"vehicle_type_id":"4","last_reported":1739672136,"current_range_meters":38000,"station_id":"ce4bhsp2rcd13ifvqi50","pricing_plan_id":"cebpf4jnsgd1na2vs0mg"},{"bike_id":"81c837a5-f048-4995-ae64-6459b1e67ecc","system_id":"levelo_inurba_marseille","lat":43.27831,"lon":5.392157,"is_reserved":false,"is_disabled":false,"rental_uris":{"android":"levelo://app?vid=81c837a5-f048-4995-ae64-6459b1e67ecc","ios":"levelo://app?vid=81c837a5-f048-4995-ae64-6459b1e67ecc"},"vehicle_type_id":"4","last_reported":1739672136,"current_range_meters":26000,"station_id":"ce4bhjp2rcd13ifvqga0","pricing_plan_id":"cebpf4jnsgd1na2vs0mg"},{"bike_id":"ce839b1e-20f4-4e44-b0c5-1c528235bce0","system_id":"levelo_inurba_marseille","lat":43.28456,"lon":5.3589,"is_reserved":false,"is_disabled":false,"rental_uris":{"android":"levelo://app?vid=ce839b1e-20f4-4e44-b0c5-1c528235bce0","ios":"levelo://app?vid=ce839b1e-20f4-4e44-b0c5-1c528235bce0"},"vehicle_type_id":"4","last_reported":1739672136,"current_range_meters":39200,"station_id":"ce4bhah2rcd13ifvqei0","pricing_plan_id":"cebpf4jnsgd1na2vs0mg"},{"bike_id":"f00620ae-2110-4dbd-a2e7-cd7bf13fe429","system_id":"levelo_inurba_marseille","lat":43.2319,"lon":5.39992,"is_reserved":false,"is_disabled":true,"rental_uris":{"android":"levelo://app?vid=f00620ae-2110-4dbd-a2e7-cd7bf13fe429","ios":"levelo://app?vid=f00620ae-2110-4dbd-a2e7-cd7bf13fe429"},"vehicle_type_id":"4","last_reported":1739672136,"current_range_meters":38400,"station_id":"ce4bhn12rcd13ifvqgqg","pricing_plan_id":"cebpf4jnsgd1na2vs0mg"},{"bike_id":"ab4c4cd5-ed4c-4a24-adbc-1e77e06a1fbe","system_id":"levelo_inurba_marseille","lat":43.295576,"lon":5.422896,"is_reserved":false,"is_disabled":false,"rental_uris":{"android":"levelo://app?vid=ab4c4cd5-ed4c-4a24-adbc-1e77e06a1fbe","ios":"levelo://app?vid=ab4c4cd5-ed4c-4a24-adbc-1e77e06a1fbe"},"vehicle_type_id":"4","last_reported":1739672136,"current_range_meters":28400,"station_id":"ce4bhph2rcd13ifvqhdg","pricing_plan_id":"cebpf4jnsgd1na2vs0mg"},{"bike_id":"44fb5291-fc4e-4904-a870-fe6008ca4617","system_id":"levelo_inurba_marseille","lat":43.31113,"lon":5.37765,"is_reserved":false,"is_disabled":false,"rental_uris":{"android":"levelo://app?vid=44fb5291-fc4e-4904-a870-fe6008ca4617","ios":"levelo://app?vid=44fb5291-fc4e-4904-a870-fe6008ca4617"},"vehicle_type_id":"4","last_reported":1739672136,"current_range_meters":8400,"station_id":"ce4bgt92rcd13ifvqcg0","pricing_plan_id":"cebpf4jnsgd1na2vs0mg"},{"bike_id":"59b279cd-9bb0-4e91-a9ed-cd7da0f24062","system_id":"levelo_inurba_marseille","lat":43.30467,"lon":5.36911,"is_reserved":false,"is_disabled":false,"rental_uris":{"android":"levelo://app?vid=59b279cd-9bb0-4e91-a9ed-cd7da0f24062","ios":"levelo://app?vid=59b279cd-9bb0-4e91-a9ed-cd7da0f24062"},"vehicle_type_id":"4","last_reported":1739672136,"current_range_meters":16800,"station_id":"","pricing_plan_id":"cebpf4jnsgd1na2vs0mg"},{"bike_id":"ddf1d674-41d6-443f-b0f1-1da7df267862","system_id":"levelo_inurba_marseille","lat":43.230529,"lon":5.354938,"is_reserved":false,"is_disabled":false,"rental_uris":{"android":"levelo://app?vid=ddf1d674-41d6-443f-b0f1-1da7df267862","ios":"levelo://app?vid=ddf1d674-41d6-443f-b0f1-1da7df267862"},"vehicle_type_id":"4","last_reported":1739672136,"current_range_meters":18000,"station_id":"cpo3342slgdg3j2ifvpg","pricing_plan_id":"cebpf4jnsgd1na2vs0mg"},{"bike_id":"94729826-cfa5-4ed9-8abd-5e8e49cce84e","system_id":"levelo_inurba_marseille","lat":43.29073,"lon":5.4326,"is_reserved":false,"is_disabled":false,"rental_uris":{"android":"levelo://app?vid=94729826-cfa5-4ed9-8abd-5e8e49cce84e","ios":"levelo://app?vid=94729826-cfa5-4ed9-8abd-5e8e49cce84e"},"vehicle_type_id":"4","last_reported":1739672136,"current_range_meters":3200,"station_id":"","pricing_plan_id":"cebpf4jnsgd1na2vs0mg"},{"bike_id":"59897d86-c0b3-4acb-bf89-133a9364e1f4","system_id":"levelo_inurba_marseille","lat":43.230533,"lon":5.354908,"is_reserved":false,"is_disabled":true,"rental_uris":{"android":"levelo://app?vid=59897d86-c0b3-4acb-bf89-133a9364e1f4","ios":"levelo://app?vid=59897d86-c0b3-4acb-bf89-133a9364e1f4"},"vehicle_type_id":"4","last_reported":1739672136,"current_range_meters":38400,"station_id":"cpo3342slgdg3j2ifvpg","pricing_plan_id":"cebpf4jnsgd1na2vs0mg"},{"bike_id":"6b341882-bf93-4fac-92f7-aa4fae3a7ca8","system_id":"levelo_inurba_marseille","lat":43.31989,"lon":5.38136,"is_reserved":false,"is_disabled":false,"rental_uris":{"android":"levelo://app?vid=6b341882-bf93-4fac-92f7-aa4fae3a7ca8","ios":"levelo://app?vid=6b341882-bf93-4fac-92f7-aa4fae3a7ca8"},"vehicle_type_id":"4","last_reported":1739672136,"current_range_meters":25200,"station_id":"ce4bhr12rcd13ifvqhpg","pricing_plan_id":"cebpf4jnsgd1na2vs0mg"},{"bike_id":"799cb367-f74c-4b90-ab8e-e13e0e89b122","system_id":"levelo_inurba_marseille","lat":43.29563,"lon":5.39978,"is_reserved":false,"is_disabled":false,"rental_uris":{"android":"levelo://app?vid=799cb367-f74c-4b90-ab8e-e13e0e89b122","ios":"levelo://app?vid=799cb367-f74c-4b90-ab8e-e13e0e89b122"},"vehicle_type_id":"4","last_reported":1739672136,"current_range_meters":38000,"station_id":"ce4bh312rcd13ifvqdj0","pricing_plan_id":"cebpf4jnsgd1na2vs0mg"},{"bike_id":"3657cb3a-8308-44c8-971b-092680d319de","system_id":"levelo_inurba_marseille","lat":43.23191,"lon":5.35539,"is_reserved":false,"is_disabled":false,"rental_uris":{"android":"levelo://app?vid=3657cb3a-8308-44c8-971b-092680d319de","ios":"levelo://app?vid=3657cb3a-8308-44c8-971b-092680d319de"},"vehicle_type_id":"4","last_reported":1739672136,"current_range_meters":10800,"station_id":"ce4bhu92rcd13ifvqi70","pricing_plan_id":"cebpf4jnsgd1na2vs0mg"},{"bike_id":"f635a801-2671-4306-9268-68edf1b8a251","system_id":"levelo_inurba_marseille","lat":43.29865,"lon":5.39727,"is_reserved":false,"is_disabled":false,"rental_uris":{"android":"levelo://app?vid=f635a801-2671-4306-9268-68edf1b8a251","ios":"levelo://app?vid=f635a801-2671-4306-9268-68edf1b8a251"},"vehicle_type_id":"4","last_reported":1739672136,"current_range_meters":35600,"station_id":"ce4bh0h2rcd13ifvqd50","pricing_plan_id":"cebpf4jnsgd1na2vs0mg"},{"bike_id":"fddf9633-377f-489e-9c7d-38f1665ca695","system_id":"levelo_inurba_marseille","lat":43.2959,"lon":5.38098,"is_reserved":false,"is_disabled":true,"rental_uris":{"android":"levelo://app?vid=fddf9633-377f-489e-9c7d-38f1665ca695","ios":"levelo://app?vid=fddf9633-377f-489e-9c7d-38f1665ca695"},"vehicle_type_id":"4","last_reported":1739672136,"current_range_meters":24400,"station_id":"ce4bgl12rcd13ifvqbo0","pricing_plan_id":"cebpf4jnsgd1na2vs0mg"},{"bike_id":"40c4421e-be80-49b9-9035-ec8bd05923a2","system_id":"levelo_inurba_marseille","lat":43.28856,"lon":5.393301,"is_reserved":false,"is_disabled":true,"rental_uris":{"android":"levelo://app?vid=40c4421e-be80-49b9-9035-ec8bd05923a2","ios":"levelo://app?vid=40c4421e-be80-49b9-9035-ec8bd05923a2"},"vehicle_type_id":"4","last_reported":1739672136,"current_range_meters":20400,"station_id":"ce4bh2p2rcd13ifvqdi0","pricing_plan_id":"cebpf4jnsgd1na2vs0mg"},{"bike_id":"4bc50c17-9aeb-4487-a054-afb81c6c63dc","system_id":"levelo_inurba_marseille","lat":43.27593,"lon":5.36132,"is_reserved":false,"is_disabled":true,"rental_uris":{"android":"levelo://app?vid=4bc50c17-9aeb-4487-a054-afb81c6c63dc","ios":"levelo://app?vid=4bc50c17-9aeb-4487-a054-afb81c6c63dc"},"vehicle_type_id":"4","last_reported":1739672136,"current_range_meters":30000,"station_id":"ce4bgj92rcd13ifvqbe0","pricing_plan_id":"cebpf4jnsgd1na2vs0mg"},{"bike_id":"84eefdcb-a410-4560-ac5c-e1fcb717b9f7","system_id":"levelo_inurba_marseille","lat":43.28932,"lon":5.3663,"is_reserved":false,"is_disabled":false,"rental_uris":{"android":"levelo://app?vid=84eefdcb-a410-4560-ac5c-e1fcb717b9f7","ios":"levelo://app?vid=84eefdcb-a410-4560-ac5c-e1fcb717b9f7"},"vehicle_type_id":"4","last_reported":1739672136,"current_range_meters":37600,"station_id":"ce4bhap2rcd13ifvqek0","pricing_plan_id":"cebpf4jnsgd1na2vs0mg"},{"bike_id":"2c8b8a41-5401-4b3a-be72-574e3bbf0407","system_id":"levelo_inurba_marseille","lat":43.30627,"lon":5.36591,"is_reserved":false,"is_disabled":false,"rental_uris":{"android":"levelo://app?vid=2c8b8a41-5401-4b3a-be72-574e3bbf0407","ios":"levelo://app?vid=2c8b8a41-5401-4b3a-be72-574e3bbf0407"},"vehicle_type_id":"4","last_reported":1739672136,"current_range_meters":6800,"station_id":"","pricing_plan_id":"cebpf4jnsgd1na2vs0mg"},{"bike_id":"6c4e18f7-9485-4121-8099-cbc5b94b4114","system_id":"levelo_inurba_marseille","lat":43.27563,"lon":5.38423,"is_reserved":false,"is_disabled":false,"rental_uris":{"android":"levelo://app?vid=6c4e18f7-9485-4121-8099-cbc5b94b4114","ios":"levelo://app?vid=6c4e18f7-9485-4121-8099-cbc5b94b4114"},"vehicle_type_id":"4","last_reported":1739672136,"current_range_meters":12400,"station_id":"ce4bhh92rcd13ifvqfi0","pricing_plan_id":"cebpf4jnsgd1na2vs0mg"},{"bike_id":"76e9689a-c738-4ae0-88ce-a636639e49f8","system_id":"levelo_inurba_marseille","lat":43.25569,"lon":5.38249,"is_reserved":false,"is_disabled":false,"rental_uris":{"android":"levelo://app?vid=76e9689a-c738-4ae0-88ce-a636639e49f8","ios":"levelo://app?vid=76e9689a-c738-4ae0-88ce-a636639e49f8"},"vehicle_type_id":"4","last_reported":1739672136,"current_range_meters":38800,"station_id":"ce4bhih2rcd13ifvqfs0","pricing_plan_id":"cebpf4jnsgd1na2vs0mg"},{"bike_id":"3625836a-8a03-4572-80d5-fadff11603e7","system_id":"levelo_inurba_marseille","lat":43.28028,"lon":5.36937,"is_reserved":false,"is_disabled":false,"rental_uris":{"android":"levelo://app?vid=3625836a-8a03-4572-80d5-fadff11603e7","ios":"levelo://app?vid=3625836a-8a03-4572-80d5-fadff11603e7"},"vehicle_type_id":"4","last_reported":1739672136,"current_range_meters":38800,"station_id":"ce4bha12rcd13ifvqef0","pricing_plan_id":"cebpf4jnsgd1na2vs0mg"},{"bike_id":"43dc5574-eed0-4b1d-9289-f32002400d84","system_id":"levelo_inurba_marseille","lat":43.24162,"lon":5.36421,"is_reserved":false,"is_disabled":false,"rental_uris":{"android":"levelo://app?vid=43dc5574-eed0-4b1d-9289-f32002400d84","ios":"levelo://app?vid=43dc5574-eed0-4b1d-9289-f32002400d84"},"vehicle_type_id":"4","last_reported":1739672136,"current_range_meters":9200,"station_id":"cpo36qri1sfpv3e86is0","pricing_plan_id":"cebpf4jnsgd1na2vs0mg"},{"bike_id":"b7675672-ea91-4212-a3c2-1e75ea117425","system_id":"levelo_inurba_marseille","lat":43.2816,"lon":5.42623,"is_reserved":false,"is_disabled":true,"rental_uris":{"android":"levelo://app?vid=b7675672-ea91-4212-a3c2-1e75ea117425","ios":"levelo://app?vid=b7675672-ea91-4212-a3c2-1e75ea117425"},"vehicle_type_id":"4","last_reported":1739672136,"current_range_meters":0,"station_id":"ce4bhnh2rcd13ifvqgug","pricing_plan_id":"cebpf4jnsgd1na2vs0mg"},{"bike_id":"341233b9-46bb-4a96-9a0a-89637d9195a8","system_id":"levelo_inurba_marseille","lat":43.298799,"lon":5.389129,"is_reserved":false,"is_disabled":false,"rental_uris":{"android":"levelo://app?vid=341233b9-46bb-4a96-9a0a-89637d9195a8","ios":"levelo://app?vid=341233b9-46bb-4a96-9a0a-89637d9195a8"},"vehicle_type_id":"4","last_reported":1739672136,"current_range_meters":38400,"station_id":"ce4bh392rcd13ifvqdl0","pricing_plan_id":"cebpf4jnsgd1na2vs0mg"},{"bike_id":"91e27922-e676-45ea-94da-baf83d9c520d","system_id":"levelo_inurba_marseille","lat":43.28063,"lon":5.36932,"is_reserved":false,"is_disabled":true,"rental_uris":{"android":"levelo://app?vid=91e27922-e676-45ea-94da-baf83d9c520d","ios":"levelo://app?vid=91e27922-e676-45ea-94da-baf83d9c520d"},"vehicle_type_id":"4","last_reported":1739672136,"current_range_meters":36400,"station_id":"ce4bha12rcd13ifvqef0","pricing_plan_id":"cebpf4jnsgd1na2vs0mg"},{"bike_id":"2b5b06ea-d85f-454f-896e-896511cd31ef","system_id":"levelo_inurba_marseille","lat":43.31172,"lon":5.38723,"is_reserved":false,"is_disabled":false,"rental_uris":{"android":"levelo://app?vid=2b5b06ea-d85f-454f-896e-896511cd31ef","ios":"levelo://app?vid=2b5b06ea-d85f-454f-896e-896511cd31ef"},"vehicle_type_id":"4","last_reported":1739672136,"current_range_meters":38400,"station_id":"ce4bgv12rcd13ifvqcp0","pricing_plan_id":"cebpf4jnsgd1na2vs0mg"},{"bike_id":"3267b8a7-1e4e-443c-a66a-46725243df34","system_id":"levelo_inurba_marseille","lat":43.30231,"lon":5.39686,"is_reserved":false,"is_disabled":false,"rental_uris":{"android":"levelo://app?vid=3267b8a7-1e4e-443c-a66a-46725243df34","ios":"levelo://app?vid=3267b8a7-1e4e-443c-a66a-46725243df34"},"vehicle_type_id":"4","last_reported":1739672136,"current_range_meters":37600,"station_id":"","pricing_plan_id":"cebpf4jnsgd1na2vs0mg"},{"bike_id":"39f0fa43-2961-47d0-8e28-d6ced3bcb1a4","system_id":"levelo_inurba_marseille","lat":43.26805,"lon":5.402627,"is_reserved":false,"is_disabled":true,"rental_uris":{"android":"levelo://app?vid=39f0fa43-2961-47d0-8e28-d6ced3bcb1a4","ios":"levelo://app?vid=39f0fa43-2961-47d0-8e28-d6ced3bcb1a4"},"vehicle_type_id":"4","last_reported":1739672136,"current_range_meters":31200,"station_id":"ce501612rcd8frsf0b60","pricing_plan_id":"cebpf4jnsgd1na2vs0mg"},{"bike_id":"4e814ba9-7f7f-413c-81c5-6cae18c64ff7","system_id":"levelo_inurba_marseille","lat":43.31324,"lon":5.39716,"is_reserved":false,"is_disabled":false,"rental_uris":{"android":"levelo://app?vid=4e814ba9-7f7f-413c-81c5-6cae18c64ff7","ios":"levelo://app?vid=4e814ba9-7f7f-413c-81c5-6cae18c64ff7"},"vehicle_type_id":"4","last_reported":1739672136,"current_range_meters":36000,"station_id":"ce4bgvp2rcd13ifvqcu0","pricing_plan_id":"cebpf4jnsgd1na2vs0mg"},{"bike_id":"9bcc3779-160f-4f11-a908-15bc41b1ac43","system_id":"levelo_inurba_marseille","lat":43.2799,"lon":5.40012,"is_reserved":false,"is_disabled":true,"rental_uris":{"android":"levelo://app?vid=9bcc3779-160f-4f11-a908-15bc41b1ac43","ios":"levelo://app?vid=9bcc3779-160f-4f11-a908-15bc41b1ac43"},"vehicle_type_id":"4","last_reported":1739672136,"current_range_meters":5600,"station_id":"ce4bho92rcd13ifvqh4g","pricing_plan_id":"cebpf4jnsgd1na2vs0mg"},{"bike_id":"3c64c24f-16f7-46ec-b068-15fe4ebda356","system_id":"levelo_inurba_marseille","lat":43.29493,"lon":5.36395,"is_reserved":false,"is_disabled":true,"rental_uris":{"android":"levelo://app?vid=3c64c24f-16f7-46ec-b068-15fe4ebda356","ios":"levelo://app?vid=3c64c24f-16f7-46ec-b068-15fe4ebda356"},"vehicle_type_id":"4","last_reported":1739672136,"current_range_meters":19600,"station_id":"","pricing_plan_id":"cebpf4jnsgd1na2vs0mg"},{"bike_id":"07103950-cfc8-4b51-a67a-cac3df3ef5e7","system_id":"levelo_inurba_marseille","lat":43.24087,"lon":5.37762,"is_reserved":false,"is_disabled":false,"rental_uris":{"android":"levelo://app?vid=07103950-cfc8-4b51-a67a-cac3df3ef5e7","ios":"levelo://app?vid=07103950-cfc8-4b51-a67a-cac3df3ef5e7"},"vehicle_type_id":"4","last_reported":1739672136,"current_range_meters":39200,"station_id":"ce4bhnp2rcd13ifvqgvg","pricing_plan_id":"cebpf4jnsgd1na2vs0mg"},{"bike_id":"ddade70e-450b-459c-901d-c8d7b6e39c7e","system_id":"levelo_inurba_marseille","lat":43.25721,"lon":5.41076,"is_reserved":false,"is_disabled":false,"rental_uris":{"android":"levelo://app?vid=ddade70e-450b-459c-901d-c8d7b6e39c7e","ios":"levelo://app?vid=ddade70e-450b-459c-901d-c8d7b6e39c7e"},"vehicle_type_id":"4","last_reported":1739672136,"current_range_meters":30400,"station_id":"ce4bhkp2rcd13ifvqgd0","pricing_plan_id":"cebpf4jnsgd1na2vs0mg"},{"bike_id":"16d1809d-00d7-4d71-a175-3b9d57df7771","system_id":"levelo_inurba_marseille","lat":43.292,"lon":5.39322,"is_reserved":false,"is_disabled":false,"rental_uris":{"android":"levelo://app?vid=16d1809d-00d7-4d71-a175-3b9d57df7771","ios":"levelo://app?vid=16d1809d-00d7-4d71-a175-3b9d57df7771"},"vehicle_type_id":"4","last_reported":1739672136,"current_range_meters":28000,"station_id":"ce4bh192rcd13ifvqdd0","pricing_plan_id":"cebpf4jnsgd1na2vs0mg"},{"bike_id":"5a8dc036-4b47-4879-bb8b-ef5e8b125f88","system_id":"levelo_inurba_marseille","lat":43.313731,"lon":5.384949,"is_reserved":false,"is_disabled":false,"rental_uris":{"android":"levelo://app?vid=5a8dc036-4b47-4879-bb8b-ef5e8b125f88","ios":"levelo://app?vid=5a8dc036-4b47-4879-bb8b-ef5e8b125f88"},"vehicle_type_id":"4","last_reported":1739672136,"current_range_meters":36000,"station_id":"ce4bgt92rcd13ifvqcf0","pricing_plan_id":"cebpf4jnsgd1na2vs0mg"},{"bike_id":"1f034b1d-42a0-4ed6-a02a-836cc5d73963","system_id":"levelo_inurba_marseille","lat":43.28502,"lon":5.3844,"is_reserved":false,"is_disabled":false,"rental_uris":{"android":"levelo://app?vid=1f034b1d-42a0-4ed6-a02a-836cc5d73963","ios":"levelo://app?vid=1f034b1d-42a0-4ed6-a02a-836cc5d73963"},"vehicle_type_id":"4","last_reported":1739672136,"current_range_meters":36800,"station_id":"ce4bh512rcd13ifvqe3g","pricing_plan_id":"cebpf4jnsgd1na2vs0mg"},{"bike_id":"26ef4db8-d373-4e80-8b1e-f98947cb367b","system_id":"levelo_inurba_marseille","lat":43.23195,"lon":5.39954,"is_reserved":false,"is_disabled":false,"rental_uris":{"android":"levelo://app?vid=26ef4db8-d373-4e80-8b1e-f98947cb367b","ios":"levelo://app?vid=26ef4db8-d373-4e80-8b1e-f98947cb367b"},"vehicle_type_id":"4","last_reported":1739672136,"current_range_meters":37600,"station_id":"ce4bhn12rcd13ifvqgqg","pricing_plan_id":"cebpf4jnsgd1na2vs0mg"},{"bike_id":"39ee4101-ed11-46d5-b8b8-48ae3dde17e4","system_id":"levelo_inurba_marseille","lat":43.30893,"lon":5.39653,"is_reserved":false,"is_disabled":true,"rental_uris":{"android":"levelo://app?vid=39ee4101-ed11-46d5-b8b8-48ae3dde17e4","ios":"levelo://app?vid=39ee4101-ed11-46d5-b8b8-48ae3dde17e4"},"vehicle_type_id":"4","last_reported":1739672136,"current_range_meters":0,"station_id":"ce4bh012rcd13ifvqcv0","pricing_plan_id":"cebpf4jnsgd1na2vs0mg"},{"bike_id":"a84d6bd5-1959-4d5e-88b3-58013a825c9f","system_id":"levelo_inurba_marseille","lat":43.2895,"lon":5.36396,"is_reserved":false,"is_disabled":false,"rental_uris":{"android":"levelo://app?vid=a84d6bd5-1959-4d5e-88b3-58013a825c9f","ios":"levelo://app?vid=a84d6bd5-1959-4d5e-88b3-58013a825c9f"},"vehicle_type_id":"4","last_reported":1739672136,"current_range_meters":38800,"station_id":"ce4bhc92rcd13ifvqetg","pricing_plan_id":"cebpf4jnsgd1na2vs0mg"},