{"last_updated":1753677476,"ttl":60,"version":"2.2","data":{"bikes":[{"bike_id":"ac9f84a1-13bc-491d-a290-ad7ae19ef882","system_id":"levelo_inurba_marseille","lat":43.225068,"lon":5.347762,"is_reserved":false,"is_disabled":false,"rental_uris":{"android":"levelo://app?vid=ac9f84a1-13bc-491d-a290-ad7ae19ef882","ios":"levelo://app?vid=ac9f84a1-13bc-491d-a290-ad7ae19ef882"},"vehicle_type_id":"4","last_reported":1753677476,"current_range_meters":2800,"station_id":"st_cvj5dfep6f1abm77gieg","pricing_plan_id":"cebpf4jnsgd1na2vs0mg"},{"bike_id":"498dcc09-27a9-4fa8-929f-6ea72a694d64","system_id":"levelo_inurba_marseille","lat":43.29514,"lon":5.3904,"is_reserved":false,"is_disabled":false,"rental_uris":{"android":"levelo://app?vid=498dcc09-27a9-4fa8-929f-6ea72a694d64","ios":"levelo://app?vid=498dcc09-27a9-4fa8-929f-6ea72a694d64"},"vehicle_type_id":"4","last_reported":1753677476,"current_range_meters":2800,"station_id":"ce4bh3p2rcd13ifvqdp0","pricing_plan_id":"cebpf4jnsgd1na2vs0mg"},{"bike_id":"0ed53f46-29e9-4af6-be43-1bb7fa322a9b","system_id":"levelo_inurba_marseille","lat":43.30941,"lon":5.4015,"is_reserved":false,"is_disabled":true,"rental_uris":{"android":"levelo://app?vid=0ed53f46-29e9-4af6-be43-1bb7fa322a9b","ios":"levelo://app?vid=0ed53f46-29e9-4af6-be43-1bb7fa322a9b"},"vehicle_type_id":"4","last_reported":1753677476,"current_range_meters":3200,"station_id":"ce4bgvp2rcd13ifvqct0","pricing_plan_id":"cebpf4jnsgd1na2vs0mg"},{"bike_id":"83a67c65-7f9b-4a81-a80c-c007cd448d24","system_id":"levelo_inurba_marseille","lat":43.292531,"lon":5.384314,"is_reserved":false,"is_disabled":false,"rental_uris":{"android":"levelo://app?vid=83a67c65-7f9b-4a81-a80c-c007cd448d24","ios":"levelo://app?vid=83a67c65-7f9b-4a81-a80c-c007cd448d24"},"vehicle_type_id":"4","last_reported":1753677476,"current_range_meters":3200,"station_id":"","pricing_plan_id":"cebpf4jnsgd1na2vs0mg"},{"bike_id":"b12dbb31-5c75-4551-bc03-29f3c4082217","system_id":"levelo_inurba_marseille","lat":43.21202,"lon":5.35066,"is_reserved":false,"is_disabled":false,"rental_uris":{"android":"levelo://app?vid=b12dbb31-5c75-4551-bc03-29f3c4082217","ios":"levelo://app?vid=b12dbb31-5c75-4551-bc03-29f3c4082217"},"vehicle_type_id":"4","last_reported":1753677476,"current_range_meters":3600,"station_id":"st_cvj6sg6p6f1abm77japg","pricing_plan_id":"cebpf4jnsgd1na2vs0mg"},{"bike_id":"22dca147-1260-44d8-822d-d9d1d50cce31","system_id":"levelo_inurba_marseille","lat":43.27475,"lon":5.39602,"is_reserved":false,"is_disabled":true,"rental_uris":{"android":"levelo://app?vid=22dca147-1260-44d8-822d-d9d1d50cce31","ios":"levelo://app?vid=22dca147-1260-44d8-822d-d9d1d50cce31"},"vehicle_type_id":"4","last_reported":1753677476,"current_range_meters":4000,"station_id":"","pricing_plan_id":"cebpf4jnsgd1na2vs0mg"},{"bike_id":"990eb3e5-15e9-44a1-85d5-1f979e53a5bd","system_id":"levelo_inurba_marseille","lat":43.239635,"lon":5.366254,"is_reserved":false,"is_disabled":true,"rental_uris":{"android":"levelo://app?vid=990eb3e5-15e9-44a1-85d5-1f979e53a5bd","ios":"levelo://app?vid=990eb3e5-15e9-44a1-85d5-1f979e53a5bd"},"vehicle_type_id":"4","last_reported":1753677476,"current_range_meters":4000,"station_id":"ce4bhi12rcd13ifvqfp0","pricing_plan_id":"cebpf4jnsgd1na2vs0mg"},{"bike_id":"a3fe9995-2e3e-423b-9540-429a92fa997e","system_id":"levelo_inurba_marseille","lat":43.301989,"lon":5.37168,"is_reserved":false,"is_disabled":false,"rental_uris":{"android":"levelo://app?vid=a3fe9995-2e3e-423b-9540-429a92fa997e","ios":"levelo://app?vid=a3fe9995-2e3e-423b-9540-429a92fa997e"},"vehicle_type_id":"4","last_reported":1753677476,"current_range_meters":4400,"station_id":"","pricing_plan_id":"cebpf4jnsgd1na2vs0mg"},{"bike_id":"8e878e8f-5d80-490d-b86c-324c23d42717","system_id":"levelo_inurba_marseille","lat":43.291953,"lon":5.407354,"is_reserved":false,"is_disabled":false,"rental_uris":{"android":"levelo://app?vid=8e878e8f-5d80-490d-b86c-324c23d42717","ios":"levelo://app?vid=8e878e8f-5d80-490d-b86c-324c23d42717"},"vehicle_type_id":"4","last_reported":1753677476,"current_range_meters":4800,"station_id":"","pricing_plan_id":"cebpf4jnsgd1na2vs0mg"},{"bike_id":"de99b14c-9afd-4bdd-bc56-50354c110c3d","system_id":"levelo_inurba_marseille","lat":43.25467,"lon":5.37687,"is_reserved":false,"is_disabled":false,"rental_uris":{"android":"levelo://app?vid=de99b14c-9afd-4bdd-bc56-50354c110c3d","ios":"levelo://app?vid=de99b14c-9afd-4bdd-bc56-50354c110c3d"},"vehicle_type_id":"4","last_reported":1753677476,"current_range_meters":4800,"station_id":"","pricing_plan_id":"cebpf4jnsgd1na2vs0mg"},{"bike_id":"57755280-973c-4ff3-9c25-8f15e2c5b510","system_id":"levelo_inurba_marseille","lat":43.31872,"lon":5.37373,"is_reserved":false,"is_disabled":true,"rental_uris":{"android":"levelo://app?vid=57755280-973c-4ff3-9c25-8f15e2c5b510","ios":"levelo://app?vid=57755280-973c-4ff3-9c25-8f15e2c5b510"},"vehicle_type_id":"4","last_reported":1753677476,"current_range_meters":4800,"station_id":"","pricing_plan_id":"cebpf4jnsgd1na2vs0mg"},{"bike_id":"495ce505-fe21-484e-b250-32794578b32c","system_id":"levelo_inurba_marseille","lat":43.3064,"lon":5.385126,"is_reserved":false,"is_disabled":false,"rental_uris":{"android":"levelo://app?vid=495ce505-fe21-484e-b250-32794578b32c","ios":"levelo://app?vid=495ce505-fe21-484e-b250-32794578b32c"},"vehicle_type_id":"4","last_reported":1753677476,"current_range_meters":5600,"station_id":"","pricing_plan_id":"cebpf4jnsgd1na2vs0mg"},{"bike_id":"1e555c6b-044c-4bd1-a690-5b7bdd1ff5ab","system_id":"levelo_inurba_marseille","lat":43.30958,"lon":5.39024,"is_reserved":false,"is_disabled":true,"rental_uris":{"android":"levelo://app?vid=1e555c6b-044c-4bd1-a690-5b7bdd1ff5ab","ios":"levelo://app?vid=1e555c6b-044c-4bd1-a690-5b7bdd1ff5ab"},"vehicle_type_id":"4","last_reported":1753677476,"current_range_meters":6000,"station_id":"ce4bgup2rcd13ifvqco0","pricing_plan_id":"cebpf4jnsgd1na2vs0mg"},{"bike_id":"9188366a-c6a3-4354-b558-553177316347","system_id":"levelo_inurba_marseille","lat":43.26237,"lon":5.37429,"is_reserved":false,"is_disabled":true,"rental_uris":{"android":"levelo://app?vid=9188366a-c6a3-4354-b558-553177316347","ios":"levelo://app?vid=9188366a-c6a3-4354-b558-553177316347"},"vehicle_type_id":"4","last_reported":1753677476,"current_range_meters":6000,"station_id":"","pricing_plan_id":"cebpf4jnsgd1na2vs0mg"},{"bike_id":"7a70bfb7-375d-4b4d-81de-8e894d8133b9","system_id":"levelo_inurba_marseille","lat":43.28449,"lon":5.37541,"is_reserved":false,"is_disabled":false,"rental_uris":{"android":"levelo://app?vid=7a70bfb7-375d-4b4d-81de-8e894d8133b9","ios":"levelo://app?vid=7a70bfb7-375d-4b4d-81de-8e894d8133b9"},"vehicle_type_id":"4","last_reported":1753677476,"current_range_meters":6400,"station_id":"","pricing_plan_id":"cebpf4jnsgd1na2vs0mg"},{"bike_id":"b1cb800f-1267-4b0c-b3fb-be1d297205ee","system_id":"levelo_inurba_marseille","lat":43.283527,"lon":5.381019,"is_reserved":false,"is_disabled":false,"rental_uris":{"android":"levelo://app?vid=b1cb800f-1267-4b0c-b3fb-be1d297205ee","ios":"levelo://app?vid=b1cb800f-1267-4b0c-b3fb-be1d297205ee"},"vehicle_type_id":"4","last_reported":1753677476,"current_range_meters":6400,"station_id":"ce4bh412rcd13ifvqdr0","pricing_plan_id":"cebpf4jnsgd1na2vs0mg"},{"bike_id":"0b6e37e1-db39-4d64-9941-7e484c9ea038","system_id":"levelo_inurba_marseille","lat":43.30156,"lon":5.38095,"is_reserved":false,"is_disabled":true,"rental_uris":{"android":"levelo://app?vid=0b6e37e1-db39-4d64-9941-7e484c9ea038","ios":"levelo://app?vid=0b6e37e1-db39-4d64-9941-7e484c9ea038"},"vehicle_type_id":"4","last_reported":1753677476,"current_range_meters":6400,"station_id":"","pricing_plan_id":"cebpf4jnsgd1na2vs0mg"},{"bike_id":"c3c2652b-f2d7-4ed4-89ec-9559feb01451","system_id":"levelo_inurba_marseille","lat":43.29226,"lon":5.360481,"is_reserved":false,"is_disabled":true,"rental_uris":{"android":"levelo://app?vid=c3c2652b-f2d7-4ed4-89ec-9559feb01451","ios":"levelo://app?vid=c3c2652b-f2d7-4ed4-89ec-9559feb01451"},"vehicle_type_id":"4","last_reported":1753677476,"current_range_meters":6800,"station_id":"ce4bhbh2rcd13ifvqeqg","pricing_plan_id":"cebpf4jnsgd1na2vs0mg"},{"bike_id":"83ef3caf-8fc9-4a3a-be99-4533a554322f","system_id":"levelo_inurba_marseille","lat":43.29852,"lon":5.39727,"is_reserved":false,"is_disabled":false,"rental_uris":{"android":"levelo://app?vid=83ef3caf-8fc9-4a3a-be99-4533a554322f","ios":"levelo://app?vid=83ef3caf-8fc9-4a3a-be99-4533a554322f"},"vehicle_type_id":"4","last_reported":1753677476,"current_range_meters":6800,"station_id":"ce4bh0h2rcd13ifvqd50","pricing_plan_id":"cebpf4jnsgd1na2vs0mg"},{"bike_id":"4a4bbfcd-1aae-4463-9aff-1f76d43cb171","system_id":"levelo_inurba_marseille","lat":43.28576,"lon":5.39499,"is_reserved":false,"is_disabled":false,"rental_uris":{"android":"levelo://app?vid=4a4bbfcd-1aae-4463-9aff-1f76d43cb171","ios":"levelo://app?vid=4a4bbfcd-1aae-4463-9aff-1f76d43cb171"},"vehicle_type_id":"4","last_reported":1753677476,"current_range_meters":6800,"station_id":"ce4bh292rcd13ifvqdg0","pricing_plan_id":"cebpf4jnsgd1na2vs0mg"},{"bike_id":"ae63ae48-1755-434e-97d6-877f81ad1700","system_id":"levelo_inurba_marseille","lat":43.297319,"lon":5.376755,"is_reserved":false,"is_disabled":true,"rental_uris":{"android":"levelo://app?vid=ae63ae48-1755-434e-97d6-877f81ad1700","ios":"levelo://app?vid=ae63ae48-1755-434e-97d6-877f81ad1700"},"vehicle_type_id":"4","last_reported":1753677476,"current_range_meters":6800,"station_id":"ce4bgkh2rcd13ifvqbl0","pricing_plan_id":"cebpf4jnsgd1na2vs0mg"},{"bike_id":"042a8476-d3c4-476b-9557-f32c03e9d625","system_id":"levelo_inurba_marseille","lat":43.33948,"lon":5.35699,"is_reserved":false,"is_disabled":false,"rental_uris":{"android":"levelo://app?vid=042a8476-d3c4-476b-9557-f32c03e9d625","ios":"levelo://app?vid=042a8476-d3c4-476b-9557-f32c03e9d625"},"vehicle_type_id":"4","last_reported":1753677476,"current_range_meters":6800,"station_id":"","pricing_plan_id":"cebpf4jnsgd1na2vs0mg"},{"bike_id":"cd0d4afa-9de1-4afb-923d-b45a4942c9a1","system_id":"levelo_inurba_marseille","lat":43.22494,"lon":5.34786,"is_reserved":false,"is_disabled":false,"rental_uris":{"android":"levelo://app?vid=cd0d4afa-9de1-4afb-923d-b45a4942c9a1","ios":"levelo://app?vid=cd0d4afa-9de1-4afb-923d-b45a4942c9a1"},"vehicle_type_id":"4","last_reported":1753677476,"current_range_meters":6800,"station_id":"st_cvj5dfep6f1abm77gieg","pricing_plan_id":"cebpf4jnsgd1na2vs0mg"},{"bike_id":"9377d52d-7c04-4205-81e5-05265b3eabff","system_id":"levelo_inurba_marseille","lat":43.287171,"lon":5.379492,"is_reserved":false,"is_disabled":true,"rental_uris":{"android":"levelo://app?vid=9377d52d-7c04-4205-81e5-05265b3eabff","ios":"levelo://app?vid=9377d52d-7c04-4205-81e5-05265b3eabff"},"vehicle_type_id":"4","last_reported":1753677476,"current_range_meters":7200,"station_id":"ce4bh9p2rcd13ifvqec0","pricing_plan_id":"cebpf4jnsgd1na2vs0mg"},{"bike_id":"f2c0d178-a474-46a0-b002-379a7a30c411","system_id":"levelo_inurba_marseille","lat":43.29433,"lon":5.37593,"is_reserved":false,"is_disabled":false,"rental_uris":{"android":"levelo://app?vid=f2c0d178-a474-46a0-b002-379a7a30c411","ios":"levelo://app?vid=f2c0d178-a474-46a0-b002-379a7a30c411"},"vehicle_type_id":"4","last_reported":1753677476,"current_range_meters":7200,"station_id":"","pricing_plan_id":"cebpf4jnsgd1na2vs0mg"},{"bike_id":"eb61ee0d-3863-41f7-9478-740bbaeb7b8c","system_id":"levelo_inurba_marseille","lat":43.30653,"lon":5.40084,"is_reserved":false,"is_disabled":true,"rental_uris":{"android":"levelo://app?vid=eb61ee0d-3863-41f7-9478-740bbaeb7b8c","ios":"levelo://app?vid=eb61ee0d-3863-41f7-9478-740bbaeb7b8c"},"vehicle_type_id":"4","last_reported":1753677476,"current_range_meters":7200,"station_id":"ce4bh112rcd13ifvqda0","pricing_plan_id":"cebpf4jnsgd1na2vs0mg"},{"bike_id":"7e65c5ea-0429-45f5-a396-bd32e67f0744","system_id":"levelo_inurba_marseille","lat":43.334693,"lon":5.400499,"is_reserved":false,"is_disabled":false,"rental_uris":{"android":"levelo://app?vid=7e65c5ea-0429-45f5-a396-bd32e67f0744","ios":"levelo://app?vid=7e65c5ea-0429-45f5-a396-bd32e67f0744"},"vehicle_type_id":"4","last_reported":1753677476,"current_range_meters":7200,"station_id":"","pricing_plan_id":"cebpf4jnsgd1na2vs0mg"},{"bike_id":"a82a25ce-329a-4a23-af94-fd85e7088e44","system_id":"levelo_inurba_marseille","lat":43.27051,"lon":5.40269,"is_reserved":false,"is_disabled":false,"rental_uris":{"android":"levelo://app?vid=a82a25ce-329a-4a23-af94-fd85e7088e44","ios":"levelo://app?vid=a82a25ce-329a-4a23-af94-fd85e7088e44"},"vehicle_type_id":"4","last_reported":1753677476,"current_range_meters":8000,"station_id":"ce4bhk92rcd13ifvqgc0","pricing_plan_id":"cebpf4jnsgd1na2vs0mg"},{"bike_id":"d5a63dee-a415-40f6-88a8-f1d25d6ddaa1","system_id":"levelo_inurba_marseille","lat":43.290311,"lon":5.399895,"is_reserved":false,"is_disabled":true,"rental_uris":{"android":"levelo://app?vid=d5a63dee-a415-40f6-88a8-f1d25d6ddaa1","ios":"levelo://app?vid=d5a63dee-a415-40f6-88a8-f1d25d6ddaa1"},"vehicle_type_id":"4","last_reported":1753677476,"current_range_meters":8000,"station_id":"ce4bh392rcd13ifvqdm0","pricing_plan_id":"cebpf4jnsgd1na2vs0mg"},{"bike_id":"ee8f2aa2-023b-4685-a9e4-a8b3b8c06d6b","system_id":"levelo_inurba_marseille","lat":43.24961,"lon":5.3898,"is_reserved":false,"is_disabled":false,"rental_uris":{"android":"levelo://app?vid=ee8f2aa2-023b-4685-a9e4-a8b3b8c06d6b","ios":"levelo://app?vid=ee8f2aa2-023b-4685-a9e4-a8b3b8c06d6b"},"vehicle_type_id":"4","last_reported":1753677476,"current_range_meters":8000,"station_id":"ce4bhgp2rcd13ifvqfd0","pricing_plan_id":"cebpf4jnsgd1na2vs0mg"},{"bike_id":"1b46c24a-626a-4b5a-9ae5-957d12419215","system_id":"levelo_inurba_marseille","lat":43.2927,"lon":5.38437,"is_reserved":false,"is_disabled":false,"rental_uris":{"android":"levelo://app?vid=1b46c24a-626a-4b5a-9ae5-957d12419215","ios":"levelo://app?vid=1b46c24a-626a-4b5a-9ae5-957d12419215"},"vehicle_type_id":"4","last_reported":1753677476,"current_range_meters":8000,"station_id":"ce4bh692rcd13ifvqea0","pricing_plan_id":"cebpf4jnsgd1na2vs0mg"},{"bike_id":"ff6db71b-a463-4685-b650-05756d79427c","system_id":"levelo_inurba_marseille","lat":43.28602,"lon":5.37063,"is_reserved":false,"is_disabled":false,"rental_uris":{"android":"levelo://app?vid=ff6db71b-a463-4685-b650-05756d79427c","ios":"levelo://app?vid=ff6db71b-a463-4685-b650-05756d79427c"},"vehicle_type_id":"4","last_reported":1753677476,"current_range_meters":8400,"station_id":"ce4bht12rcd13ifvqi60","pricing_plan_id":"cebpf4jnsgd1na2vs0mg"},{"bike_id":"b44cc947-7746-4565-ada4-6c51c251bd1e","system_id":"levelo_inurba_marseille","lat":43.30414,"lon":5.41285,"is_reserved":false,"is_disabled":false,"rental_uris":{"android":"levelo://app?vid=b44cc947-7746-4565-ada4-6c51c251bd1e","ios":"levelo://app?vid=b44cc947-7746-4565-ada4-6c51c251bd1e"},"vehicle_type_id":"4","last_reported":1753677476,"current_range_meters":8400,"station_id":"ce4bhop2rcd13ifvqh8g","pricing_plan_id":"cebpf4jnsgd1na2vs0mg"},{"bike_id":"a05343f6-5345-451e-92c9-8d14b4ec04eb","system_id":"levelo_inurba_marseille","lat":43.314919,"lon":5.373082,"is_reserved":false,"is_disabled":true,"rental_uris":{"android":"levelo://app?vid=a05343f6-5345-451e-92c9-8d14b4ec04eb","ios":"levelo://app?vid=a05343f6-5345-451e-92c9-8d14b4ec04eb"},"vehicle_type_id":"4","last_reported":1753677476,"current_range_meters":8400,"station_id":"","pricing_plan_id":"cebpf4jnsgd1na2vs0mg"},{"bike_id":"f2876902-0402-4dca-8fa2-0ffba379c9ac","system_id":"levelo_inurba_marseille","lat":43.29077,"lon":5.37569,"is_reserved":false,"is_disabled":false,"rental_uris":{"android":"levelo://app?vid=f2876902-0402-4dca-8fa2-0ffba379c9ac","ios":"levelo://app?vid=f2876902-0402-4dca-8fa2-0ffba379c9ac"},"vehicle_type_id":"4","last_reported":1753677476,"current_range_meters":8400,"station_id":"ce4bh692rcd13ifvqe90","pricing_plan_id":"cebpf4jnsgd1na2vs0mg"},{"bike_id":"c684c4d3-4bb9-4abf-90ca-8037fb7fbdde","system_id":"levelo_inurba_marseille","lat":43.29872,"lon":5.39728,"is_reserved":false,"is_disabled":false,"rental_uris":{"android":"levelo://app?vid=c684c4d3-4bb9-4abf-90ca-8037fb7fbdde","ios":"levelo://app?vid=c684c4d3-4bb9-4abf-90ca-8037fb7fbdde"},"vehicle_type_id":"4","last_reported":1753677476,"current_range_meters":8800,"station_id":"ce4bh0h2rcd13ifvqd50","pricing_plan_id":"cebpf4jnsgd1na2vs0mg"},{"bike_id":"898d1f8e-e261-4f25-9386-a6825028d102","system_id":"levelo_inurba_marseille","lat":43.29083,"lon":5.47383,"is_reserved":false,"is_disabled":false,"rental_uris":{"android":"levelo://app?vid=898d1f8e-e261-4f25-9386-a6825028d102","ios":"levelo://app?vid=898d1f8e-e261-4f25-9386-a6825028d102"},"vehicle_type_id":"4","last_reported":1753677476,"current_range_meters":8800,"station_id":"","pricing_plan_id":"cebpf4jnsgd1na2vs0mg"},{"bike_id":"9dfdeb8a-ee13-4931-94b4-ad2b5f23aa4b","system_id":"levelo_inurba_marseille","lat":43.23193,"lon":5.39992,"is_reserved":false,"is_disabled":true,"rental_uris":{"android":"levelo://app?vid=9dfdeb8a-ee13-4931-94b4-ad2b5f23aa4b","ios":"levelo://app?vid=9dfdeb8a-ee13-4931-94b4-ad2b5f23aa4b"},"vehicle_type_id":"4","last_reported":1753677476,"current_range_meters":8800,"station_id":"ce4bhn12rcd13ifvqgqg","pricing_plan_id":"cebpf4jnsgd1na2vs0mg"},{"bike_id":"156e744b-94c9-4be0-9dfd-d007398890ce","system_id":"levelo_inurba_marseille","lat":43.32357,"lon":5.36754,"is_reserved":false,"is_disabled":false,"rental_uris":{"android":"levelo://app?vid=156e744b-94c9-4be0-9dfd-d007398890ce","ios":"levelo://app?vid=156e744b-94c9-4be0-9dfd-d007398890ce"},"vehicle_type_id":"4","last_reported":1753677476,"current_range_meters":8800,"station_id":"ce4bhsh2rcd13ifvqi2g","pricing_plan_id":"cebpf4jnsgd1na2vs0mg"},{"bike_id":"ce182887-91db-4c9c-9e27-a7fadfeb8ead","system_id":"levelo_inurba_marseille","lat":43.27616,"lon":5.36115,"is_reserved":false,"is_disabled":false,"rental_uris":{"android":"levelo://app?vid=ce182887-91db-4c9c-9e27-a7fadfeb8ead","ios":"levelo://app?vid=ce182887-91db-4c9c-9e27-a7fadfeb8ead"},"vehicle_type_id":"4","last_reported":1753677476,"current_range_meters":8800,"station_id":"ce4bgj92rcd13ifvqbe0","pricing_plan_id":"cebpf4jnsgd1na2vs0mg"},{"bike_id":"7fe8107c-aa92-49b9-a3d4-b0180595b13e","system_id":"levelo_inurba_marseille","lat":43.298235,"lon":5.376573,"is_reserved":false,"is_disabled":false,"rental_uris":{"android":"levelo://app?vid=7fe8107c-aa92-49b9-a3d4-b0180595b13e","ios":"levelo://app?vid=7fe8107c-aa92-49b9-a3d4-b0180595b13e"},"vehicle_type_id":"4","last_reported":1753677476,"current_range_meters":8800,"station_id":"","pricing_plan_id":"cebpf4jnsgd1na2vs0mg"},{"bike_id":"30db7039-e49e-4da0-b98a-6b24e071ce06","system_id":"levelo_inurba_marseille","lat":43.30816,"lon":5.3816,"is_reserved":false,"is_disabled":false,"rental_uris":{"android":"levelo://app?vid=30db7039-e49e-4da0-b98a-6b24e071ce06","ios":"levelo://app?vid=30db7039-e49e-4da0-b98a-6b24e071ce06"},"vehicle_type_id":"4","last_reported":1753677476,"current_range_meters":8800,"station_id":"ce4bgt12rcd13ifvqce0","pricing_plan_id":"cebpf4jnsgd1na2vs0mg"},{"bike_id":"9102cabb-989f-4379-b74a-7ec7bf2a44b3","system_id":"levelo_inurba_marseille","lat":43.21748,"lon":5.34606,"is_reserved":false,"is_disabled":true,"rental_uris":{"android":"levelo://app?vid=9102cabb-989f-4379-b74a-7ec7bf2a44b3","ios":"levelo://app?vid=9102cabb-989f-4379-b74a-7ec7bf2a44b3"},"vehicle_type_id":"4","last_reported":1753677476,"current_range_meters":9200,"station_id":"","pricing_plan_id":"cebpf4jnsgd1na2vs0mg"},{"bike_id":"dc04e206-05d2-4c8a-be28-5f738cdafedd","system_id":"levelo_inurba_marseille","lat":43.291187,"lon":5.355797,"is_reserved":false,"is_disabled":false,"rental_uris":{"android":"levelo://app?vid=dc04e206-05d2-4c8a-be28-5f738cdafedd","ios":"levelo://app?vid=dc04e206-05d2-4c8a-be28-5f738cdafedd"},"vehicle_type_id":"4","last_reported":1753677476,"current_range_meters":9200,"station_id":"","pricing_plan_id":"cebpf4jnsgd1na2vs0mg"},{"bike_id":"96e8f9e2-5ed4-4a64-abed-b574666ba88d","system_id":"levelo_inurba_marseille","lat":43.21205,"lon":5.35075,"is_reserved":false,"is_disabled":false,"rental_uris":{"android":"levelo://app?vid=96e8f9e2-5ed4-4a64-abed-b574666ba88d","ios":"levelo://app?vid=96e8f9e2-5ed4-4a64-abed-b574666ba88d"},"vehicle_type_id":"4","last_reported":1753677476,"current_range_meters":9200,"station_id":"st_cvj6sg6p6f1abm77japg","pricing_plan_id":"cebpf4jnsgd1na2vs0mg"},{"bike_id":"6a38ad86-92b8-4aed-98d7-3569ef9cc105","system_id":"levelo_inurba_marseille","lat":43.217467,"lon":5.346082,"is_reserved":false,"is_disabled":true,"rental_uris":{"android":"levelo://app?vid=6a38ad86-92b8-4aed-98d7-3569ef9cc105","ios":"levelo://app?vid=6a38ad86-92b8-4aed-98d7-3569ef9cc105"},"vehicle_type_id":"4","last_reported":1753677476,"current_range_meters":9200,"station_id":"st_cvj6r9ubvosntc0bgbag","pricing_plan_id":"cebpf4jnsgd1na2vs0mg"},{"bike_id":"43dbc09e-d0e4-4ddb-bafe-4f55874d23a9","system_id":"levelo_inurba_marseille","lat":43.3023,"lon":5.38255,"is_reserved":false,"is_disabled":false,"rental_uris":{"android":"levelo://app?vid=43dbc09e-d0e4-4ddb-bafe-4f55874d23a9","ios":"levelo://app?vid=43dbc09e-d0e4-4ddb-bafe-4f55874d23a9"},"vehicle_type_id":"4","last_reported":1753677476,"current_range_meters":9200,"station_id":"","pricing_plan_id":"cebpf4jnsgd1na2vs0mg"},{"bike_id":"d25570e3-87c9-4356-ba9f-96a9aa944e99","system_id":"levelo_inurba_marseille","lat":43.2834,"lon":5.38109,"is_reserved":false,"is_disabled":false,"rental_uris":{"android":"levelo://app?vid=d25570e3-87c9-4356-ba9f-96a9aa944e99","ios":"levelo://app?vid=d25570e3-87c9-4356-ba9f-96a9aa944e99"},"vehicle_type_id":"4","last_reported":1753677476,"current_range_meters":9200,"station_id":"ce4bh412rcd13ifvqdr0","pricing_plan_id":"cebpf4jnsgd1na2vs0mg"},{"bike_id":"198a8a48-9082-408a-ac7c-20dca32fbf4e","system_id":"levelo_inurba_marseille","lat":43.32085,"lon":5.40914,"is_reserved":false,"is_disabled":false,"rental_uris":{"android":"levelo://app?vid=198a8a48-9082-408a-ac7c-20dca32fbf4e","ios":"levelo://app?vid=198a8a48-9082-408a-ac7c-20dca32fbf4e"},"vehicle_type_id":"4","last_reported":1753677476,"current_range_meters":9200,"station_id":"","pricing_plan_id":"cebpf4jnsgd1na2vs0mg"},{"bike_id":"98b57ac4-75b1-431f-9349-66ba7f2cfc67","system_id":"levelo_inurba_marseille","lat":43.28933,"lon":5.3664,"is_reserved":false,"is_disabled":false,"rental_uris":{"android":"levelo://app?vid=98b57ac4-75b1-431f-9349-66ba7f2cfc67","ios":"levelo://app?vid=98b57ac4-75b1-431f-9349-66ba7f2cfc67"},"vehicle_type_id":"4","last_reported":1753677476,"current_range_meters":9200,"station_id":"ce4bhap2rcd13ifvqek0","pricing_plan_id":"cebpf4jnsgd1na2vs0mg"},{"bike_id":"cc824405-3e19-444e-b89f-36e9bb46bda9","system_id":"levelo_inurba_marseille","lat":43.2895,"lon":5.366235,"is_reserved":false,"is_disabled":false,"rental_uris":{"android":"levelo://app?vid=cc824405-3e19-444e-b89f-36e9bb46bda9","ios":"levelo://app?vid=cc824405-3e19-444e-b89f-36e9bb46bda9"},"vehicle_type_id":"4","last_reported":1753677476,"current_range_meters":9600,"station_id":"ce4bhap2rcd13ifvqek0","pricing_plan_id":"cebpf4jnsgd1na2vs0mg"},{"bike_id":"0bda9d2f-bd94-449e-9573-d95ecc586ccb","system_id":"levelo_inurba_marseille","lat":43.28676,"lon":5.40028,"is_reserved":false,"is_disabled":false,"rental_uris":{"android":"levelo://app?vid=0bda9d2f-bd94-449e-9573-d95ecc586ccb","ios":"levelo://app?vid=0bda9d2f-bd94-449e-9573-d95ecc586ccb"},"vehicle_type_id":"4","last_reported":1753677476,"current_range_meters":9600,"station_id":"","pricing_plan_id":"cebpf4jnsgd1na2vs0mg"},{"bike_id":"416acd6b-072a-494f-b869-b2b61f9cc9d7","system_id":"levelo_inurba_marseille","lat":43.22488,"lon":5.34765,"is_reserved":false,"is_disabled":false,"rental_uris":{"android":"levelo://app?vid=416acd6b-072a-494f-b869-b2b61f9cc9d7","ios":"levelo://app?vid=416acd6b-072a-494f-b869-b2b61f9cc9d7"},"vehicle_type_id":"4","last_reported":1753677476,"current_range_meters":9600,"station_id":"st_cvj5dfep6f1abm77gieg","pricing_plan_id":"cebpf4jnsgd1na2vs0mg"},{"bike_id":"da0dea9a-07a2-4249-aa7c-2489e28d40de","system_id":"levelo_inurba_marseille","lat":43.29683,"lon":5.362332,"is_reserved":false,"is_disabled":false,"rental_uris":{"android":"levelo://app?vid=da0dea9a-07a2-4249-aa7c-2489e28d40de","ios":"levelo://app?vid=da0dea9a-07a2-4249-aa7c-2489e28d40de"},"vehicle_type_id":"4","last_reported":1753677476,"current_range_meters":10000,"station_id":"","pricing_plan_id":"cebpf4jnsgd1na2vs0mg"},{"bike_id":"e5f45e86-a25f-4bde-9c89-4e7b0afd2dbd","system_id":"levelo_inurba_marseille","lat":43.28443,"lon":5.37483,"is_reserved":false,"is_disabled":false,"rental_uris":{"android":"levelo://app?vid=e5f45e86-a25f-4bde-9c89-4e7b0afd2dbd","ios":"levelo://app?vid=e5f45e86-a25f-4bde-9c89-4e7b0afd2dbd"},"vehicle_type_id":"4","last_reported":1753677476,"current_range_meters":10000,"station_id":"ce4bh412rcd13ifvqds0","pricing_plan_id":"cebpf4jnsgd1na2vs0mg"},{"bike_id":"183291e2-307f-475e-8582-2b9fc7edda3e","system_id":"levelo_inurba_marseille","lat":43.28944,"lon":5.39628,"is_reserved":false,"is_disabled":false,"rental_uris":{"android":"levelo://app?vid=183291e2-307f-475e-8582-2b9fc7edda3e","ios":"levelo://app?vid=183291e2-307f-475e-8582-2b9fc7edda3e"},"vehicle_type_id":"4","last_reported":1753677476,"current_range_meters":10000,"station_id":"ce4bh3h2rcd13ifvqdn0","pricing_plan_id":"cebpf4jnsgd1na2vs0mg"},{"bike_id":"905576ef-66ce-426e-9600-566828c3b671","system_id":"levelo_inurba_marseille","lat":43.21754,"lon":5.34599,"is_reserved":false,"is_disabled":true,"rental_uris":{"android":"levelo://app?vid=905576ef-66ce-426e-9600-566828c3b671","ios":"levelo://app?vid=905576ef-66ce-426e-9600-566828c3b671"},"vehicle_type_id":"4","last_reported":1753677476,"current_range_meters":10000,"station_id":"","pricing_plan_id":"cebpf4jnsgd1na2vs0mg"},{"bike_id":"11a04115-300b-44f5-9781-9e5fa3f7aeed","system_id":"levelo_inurba_marseille","lat":43.31206,"lon":5.36883,"is_reserved":false,"is_disabled":false,"rental_uris":{"android":"levelo://app?vid=11a04115-300b-44f5-9781-9e5fa3f7aeed","ios":"levelo://app?vid=11a04115-300b-44f5-9781-9e5fa3f7aeed"},"vehicle_type_id":"4","last_reported":1753677476,"current_range_meters":10000,"station_id":"ce4bgl92rcd13ifvqbq0","pricing_plan_id":"cebpf4jnsgd1na2vs0mg"},{"bike_id":"5b85fee1-4e26-48a6-b9ab-f25c07a3d2c2","system_id":"levelo_inurba_marseille","lat":43.292666,"lon":5.384355,"is_reserved":false,"is_disabled":false,"rental_uris":{"android":"levelo://app?vid=5b85fee1-4e26-48a6-b9ab-f25c07a3d2c2","ios":"levelo://app?vid=5b85fee1-4e26-48a6-b9ab-f25c07a3d2c2"},"vehicle_type_id":"4","last_reported":1753677476,"current_range_meters":10000,"station_id":"","pricing_plan_id":"cebpf4jnsgd1na2vs0mg"},{"bike_id":"3dac6e7a-6727-4547-a162-4acf06c4c2f5","system_id":"levelo_inurba_marseille","lat":43.24641,"lon":5.38901,"is_reserved":false,"is_disabled":false,"rental_uris":{"android":"levelo://app?vid=3dac6e7a-6727-4547-a162-4acf06c4c2f5","ios":"levelo://app?vid=3dac6e7a-6727-4547-a162-4acf06c4c2f5"},"vehicle_type_id":"4","last_reported":1753677476,"current_range_meters":10000,"station_id":"ce4bhg12rcd13ifvqf60","pricing_plan_id":"cebpf4jnsgd1na2vs0mg"},{"bike_id":"4dc37a2d-2ac4-4fe1-b1e8-9f39fe28021a","system_id":"levelo_inurba_marseille","lat":43.30149,"lon":5.38068,"is_reserved":false,"is_disabled":false,"rental_uris":{"android":"levelo://app?vid=4dc37a2d-2ac4-4fe1-b1e8-9f39fe28021a","ios":"levelo://app?vid=4dc37a2d-2ac4-4fe1-b1e8-9f39fe28021a"},"vehicle_type_id":"4","last_reported":1753677476,"current_range_meters":10000,"station_id":"ce4bgjp2rcd13ifvqbh0","pricing_plan_id":"cebpf4jnsgd1na2vs0mg"},{"bike_id":"9d67e77e-66ea-4c7d-81a0-aa6cffa0e52e","system_id":"levelo_inurba_marseille","lat":43.29302,"lon":5.40105,"is_reserved":false,"is_disabled":false,"rental_uris":{"android":"levelo://app?vid=9d67e77e-66ea-4c7d-81a0-aa6cffa0e52e","ios":"levelo://app?vid=9d67e77e-66ea-4c7d-81a0-aa6cffa0e52e"},"vehicle_type_id":"4","last_reported":1753677476,"current_range_meters":10000,"station_id":"ce4bh312rcd13ifvqdk0","pricing_plan_id":"cebpf4jnsgd1na2vs0mg"},{"bike_id":"70dd8cb2-faab-470d-9873-ed2a76b918cf","system_id":"levelo_inurba_marseille","lat":43.28695,"lon":5.38628,"is_reserved":false,"is_disabled":false,"rental_uris":{"android":"levelo://app?vid=70dd8cb2-faab-470d-9873-ed2a76b918cf","ios":"levelo://app?vid=70dd8cb2-faab-470d-9873-ed2a76b918cf"},"vehicle_type_id":"4","last_reported":1753677476,"current_range_meters":10000,"station_id":"","pricing_plan_id":"cebpf4jnsgd1na2vs0mg"},{"bike_id":"9d9cf603-e9f2-4cd8-96c8-1c6ec949cc1a","system_id":"levelo_inurba_marseille","lat":43.28703,"lon":5.39984,"is_reserved":false,"is_disabled":false,"rental_uris":{"android":"levelo://app?vid=9d9cf603-e9f2-4cd8-96c8-1c6ec949cc1a","ios":"levelo://app?vid=9d9cf603-e9f2-4cd8-96c8-1c6ec949cc1a"},"vehicle_type_id":"4","last_reported":1753677476,"current_range_meters":10000,"station_id":"ce4bho92rcd13ifvqh3g","pricing_plan_id":"cebpf4jnsgd1na2vs0mg"},{"bike_id":"f0beafc6-4f1d-406d-9b81-bf9ae37556b7","system_id":"levelo_inurba_marseille","lat":43.22905,"lon":5.35396,"is_reserved":false,"is_disabled":false,"rental_uris":{"android":"levelo://app?vid=f0beafc6-4f1d-406d-9b81-bf9ae37556b7","ios":"levelo://app?vid=f0beafc6-4f1d-406d-9b81-bf9ae37556b7"},"vehicle_type_id":"4","last_reported":1753677476,"current_range_meters":10800,"station_id":"cpo3532slgdg3j2ikp40","pricing_plan_id":"cebpf4jnsgd1na2vs0mg"},{"bike_id":"8b091c87-00a4-4e64-a058-ca35b401f679","system_id":"levelo_inurba_marseille","lat":43.248132,"lon":5.374557,"is_reserved":false,"is_disabled":true,"rental_uris":{"android":"levelo://app?vid=8b091c87-00a4-4e64-a058-ca35b401f679","ios":"levelo://app?vid=8b091c87-00a4-4e64-a058-ca35b401f679"},"vehicle_type_id":"4","last_reported":1753677476,"current_range_meters":10800,"station_id":"ce4bhgh2rcd13ifvqfb0","pricing_plan_id":"cebpf4jnsgd1na2vs0mg"},{"bike_id":"463e03fe-b9b0-4212-a764-9bd6d78e3c2e","system_id":"levelo_inurba_marseille","lat":43.31014,"lon":5.38137,"is_reserved":false,"is_disabled":false,"rental_uris":{"android":"levelo://app?vid=463e03fe-b9b0-4212-a764-9bd6d78e3c2e","ios":"levelo://app?vid=463e03fe-b9b0-4212-a764-9bd6d78e3c2e"},"vehicle_type_id":"4","last_reported":1753677476,"current_range_meters":10800,"station_id":"","pricing_plan_id":"cebpf4jnsgd1na2vs0mg"},{"bike_id":"8512b265-75e1-49d7-bb7d-bd988c357d7c","system_id":"levelo_inurba_marseille","lat":43.28712,"lon":5.39986,"is_reserved":false,"is_disabled":true,"rental_uris":{"android":"levelo://app?vid=8512b265-75e1-49d7-bb7d-bd988c357d7c","ios":"levelo://app?vid=8512b265-75e1-49d7-bb7d-bd988c357d7c"},"vehicle_type_id":"4","last_reported":1753677476,"current_range_meters":10800,"station_id":"ce4bho92rcd13ifvqh3g","pricing_plan_id":"cebpf4jnsgd1na2vs0mg"},{"bike_id":"fc17dd07-1a4a-4aa7-beb0-db0d740f1929","system_id":"levelo_inurba_marseille","lat":43.229278,"lon":5.353773,"is_reserved":false,"is_disabled":false,"rental_uris":{"android":"levelo://app?vid=fc17dd07-1a4a-4aa7-beb0-db0d740f1929","ios":"levelo://app?vid=fc17dd07-1a4a-4aa7-beb0-db0d740f1929"},"vehicle_type_id":"4","last_reported":1753677476,"current_range_meters":11200,"station_id":"cpo3532slgdg3j2ikp40","pricing_plan_id":"cebpf4jnsgd1na2vs0mg"},{"bike_id":"00ed14a9-7d08-4cc9-9b42-41f67139c4ac","system_id":"levelo_inurba_marseille","lat":43.26947,"lon":5.38642,"is_reserved":false,"is_disabled":true,"rental_uris":{"android":"levelo://app?vid=00ed14a9-7d08-4cc9-9b42-41f67139c4ac","ios":"levelo://app?vid=00ed14a9-7d08-4cc9-9b42-41f67139c4ac"},"vehicle_type_id":"4","last_reported":1753677476,"current_range_meters":11200,"station_id":"ce4bhh92rcd13ifvqfh0","pricing_plan_id":"cebpf4jnsgd1na2vs0mg"},{"bike_id":"bf3b53b2-3e96-407b-b4d4-d797204ff8bd","system_id":"levelo_inurba_marseille","lat":43.298881,"lon":5.397475,"is_reserved":false,"is_disabled":true,"rental_uris":{"android":"levelo://app?vid=bf3b53b2-3e96-407b-b4d4-d797204ff8bd","ios":"levelo://app?vid=bf3b53b2-3e96-407b-b4d4-d797204ff8bd"},"vehicle_type_id":"4","last_reported":1753677476,"current_range_meters":11200,"station_id":"ce4bh0h2rcd13ifvqd50","pricing_plan_id":"cebpf4jnsgd1na2vs0mg"},{"bike_id":"5bec5b3a-012b-4f28-8546-255407ea1b69","system_id":"levelo_inurba_marseille","lat":43.29036,"lon":5.38625,"is_reserved":false,"is_disabled":false,"rental_uris":{"android":"levelo://app?vid=5bec5b3a-012b-4f28-8546-255407ea1b69","ios":"levelo://app?vid=5bec5b3a-012b-4f28-8546-255407ea1b69"},"vehicle_type_id":"4","last_reported":1753677476,"current_range_meters":11200,"station_id":"ce4bh4p2rcd13ifvqe0g","pricing_plan_id":"cebpf4jnsgd1na2vs0mg"},{"bike_id":"e14158b4-541c-43ba-ac57-b0aeef30344c","system_id":"levelo_inurba_marseille","lat":43.23186,"lon":5.39986,"is_reserved":false,"is_disabled":false,"rental_uris":{"android":"levelo://app?vid=e14158b4-541c-43ba-ac57-b0aeef30344c","ios":"levelo://app?vid=e14158b4-541c-43ba-ac57-b0aeef30344c"},"vehicle_type_id":"4","last_reported":1753677476,"current_range_meters":11200,"station_id":"ce4bhn12rcd13ifvqgqg","pricing_plan_id":"cebpf4jnsgd1na2vs0mg"},{"bike_id":"9306cb98-ff63-47ed-9064-9c9a8b611a79","system_id":"levelo_inurba_marseille","lat":43.296273,"lon":5.373158,"is_reserved":false,"is_disabled":false,"rental_uris":{"android":"levelo://app?vid=9306cb98-ff63-47ed-9064-9c9a8b611a79","ios":"levelo://app?vid=9306cb98-ff63-47ed-9064-9c9a8b611a79"},"vehicle_type_id":"4","last_reported":1753677476,"current_range_meters":11200,"station_id":"","pricing_plan_id":"cebpf4jnsgd1na2vs0mg"},{"bike_id":"2675420e-931f-4f28-b71c-8d75405675a7","system_id":"levelo_inurba_marseille","lat":43.313863,"lon":5.385127,"is_reserved":false,"is_disabled":false,"rental_uris":{"android":"levelo://app?vid=2675420e-931f-4f28-b71c-8d75405675a7","ios":"levelo://app?vid=2675420e-931f-4f28-b71c-8d75405675a7"},"vehicle_type_id":"4","last_reported":1753677476,"current_range_meters":11200,"station_id":"ce4bgt92rcd13ifvqcf0","pricing_plan_id":"cebpf4jnsgd1na2vs0mg"},{"bike_id":"d1ee7493-1c8a-469d-8c3c-eed7b0a6afe5","system_id":"levelo_inurba_marseille","lat":43.299683,"lon":5.386239,"is_reserved":false,"is_disabled":false,"rental_uris":{"android":"levelo://app?vid=d1ee7493-1c8a-469d-8c3c-eed7b0a6afe5","ios":"levelo://app?vid=d1ee7493-1c8a-469d-8c3c-eed7b0a6afe5"},"vehicle_type_id":"4","last_reported":1753677476,"current_range_meters":11600,"station_id":"","pricing_plan_id":"cebpf4jnsgd1na2vs0mg"},{"bike_id":"31dd8732-6772-4494-9245-541c930aed04","system_id":"levelo_inurba_marseille","lat":43.24188,"lon":5.36393,"is_reserved":false,"is_disabled":false,"rental_uris":{"android":"levelo://app?vid=31dd8732-6772-4494-9245-541c930aed04","ios":"levelo://app?vid=31dd8732-6772-4494-9245-541c930aed04"},"vehicle_type_id":"4","last_reported":1753677476,"current_range_meters":11600,"station_id":"cpo36qri1sfpv3e86is0","pricing_plan_id":"cebpf4jnsgd1na2vs0mg"},{"bike_id":"710e528c-f5e2-4f10-8f2c-efcdc4d27379","system_id":"levelo_inurba_marseille","lat":43.27995,"lon":5.400033,"is_reserved":false,"is_disabled":true,"rental_uris":{"android":"levelo://app?vid=710e528c-f5e2-4f10-8f2c-efcdc4d27379","ios":"levelo://app?vid=710e528c-f5e2-4f10-8f2c-efcdc4d27379"},"vehicle_type_id":"4","last_reported":1753677476,"current_range_meters":11600,"station_id":"ce4bho92rcd13ifvqh4g","pricing_plan_id":"cebpf4jnsgd1na2vs0mg"},{"bike_id":"d7bad7a5-c225-41a3-becf-265f3cf65a3e","system_id":"levelo_inurba_marseille","lat":43.30296,"lon":5.39202,"is_reserved":false,"is_disabled":false,"rental_uris":{"android":"levelo://app?vid=d7bad7a5-c225-41a3-becf-265f3cf65a3e","ios":"levelo://app?vid=d7bad7a5-c225-41a3-becf-265f3cf65a3e"},"vehicle_type_id":"4","last_reported":1753677476,"current_range_meters":11600,"station_id":"ce4bgkh2rcd13ifvqbk0","pricing_plan_id":"cebpf4jnsgd1na2vs0mg"},{"bike_id":"655f979a-ada1-49bf-aca4-3875df2f9a8a","system_id":"levelo_inurba_marseille","lat":43.240759,"lon":5.377516,"is_reserved":false,"is_disabled":false,"rental_uris":{"android":"levelo://app?vid=655f979a-ada1-49bf-aca4-3875df2f9a8a","ios":"levelo://app?vid=655f979a-ada1-49bf-aca4-3875df2f9a8a"},"vehicle_type_id":"4","last_reported":1753677476,"current_range_meters":11600,"station_id":"ce4bhnp2rcd13ifvqgvg","pricing_plan_id":"cebpf4jnsgd1na2vs0mg"},{"bike_id":"388bc238-fad7-406c-9d22-fb5bb71926c0","system_id":"levelo_inurba_marseille","lat":43.28414,"lon":5.37528,"is_reserved":false,"is_disabled":false,"rental_uris":{"android":"levelo://app?vid=388bc238-fad7-406c-9d22-fb5bb71926c0","ios":"levelo://app?vid=388bc238-fad7-406c-9d22-fb5bb71926c0"},"vehicle_type_id":"4","last_reported":1753677476,"current_range_meters":11600,"station_id":"ce4bh412rcd13ifvqds0","pricing_plan_id":"cebpf4jnsgd1na2vs0mg"},{"bike_id":"3b29f7cd-4629-4d8d-99b4-8d6b4918d179","system_id":"levelo_inurba_marseille","lat":43.25941,"lon":5.40903,"is_reserved":false,"is_disabled":false,"rental_uris":{"android":"levelo://app?vid=3b29f7cd-4629-4d8d-99b4-8d6b4918d179","ios":"levelo://app?vid=3b29f7cd-4629-4d8d-99b4-8d6b4918d179"},"vehicle_type_id":"4","last_reported":1753677476,"current_range_meters":11600,"station_id":"ce4bhm92rcd13ifvqglg","pricing_plan_id":"cebpf4jnsgd1na2vs0mg"},{"bike_id":"8f785e69-82ae-4e1d-82c1-f85cc3f67788","system_id":"levelo_inurba_marseille","lat":43.29098,"lon":5.38147,"is_reserved":false,"is_disabled":true,"rental_uris":{"android":"levelo://app?vid=8f785e69-82ae-4e1d-82c1-f85cc3f67788","ios":"levelo://app?vid=8f785e69-82ae-4e1d-82c1-f85cc3f67788"},"vehicle_type_id":"4","last_reported":1753677476,"current_range_meters":12000,"station_id":"ce4bh512rcd13ifvqe2g","pricing_plan_id":"cebpf4jnsgd1na2vs0mg"},{"bike_id":"78a8a8f6-1cbe-48a7-afd7-d8db96ba8c71","system_id":"levelo_inurba_marseille","lat":43.30216,"lon":5.36621,"is_reserved":false,"is_disabled":true,"rental_uris":{"android":"levelo://app?vid=78a8a8f6-1cbe-48a7-afd7-d8db96ba8c71","ios":"levelo://app?vid=78a8a8f6-1cbe-48a7-afd7-d8db96ba8c71"},"vehicle_type_id":"4","last_reported":1753677476,"current_range_meters":12000,"station_id":"ce4bgrh2rcd13ifvqc8g","pricing_plan_id":"cebpf4jnsgd1na2vs0mg"},{"bike_id":"fb45cff3-08fa-4cc9-bf53-0d8295f6b8d1","system_id":"levelo_inurba_marseille","lat":43.27914,"lon":5.42798,"is_reserved":false,"is_disabled":false,"rental_uris":{"android":"levelo://app?vid=fb45cff3-08fa-4cc9-bf53-0d8295f6b8d1","ios":"levelo://app?vid=fb45cff3-08fa-4cc9-bf53-0d8295f6b8d1"},"vehicle_type_id":"4","last_reported":1753677476,"current_range_meters":12000,"station_id":"","pricing_plan_id":"cebpf4jnsgd1na2vs0mg"},{"bike_id":"d8cd6055-23c8-4622-a5bf-68f9b9ebfe53","system_id":"levelo_inurba_marseille","lat":43.270747,"lon":5.422827,"is_reserved":false,"is_disabled":true,"rental_uris":{"android":"levelo://app?vid=d8cd6055-23c8-4622-a5bf-68f9b9ebfe53","ios":"levelo://app?vid=d8cd6055-23c8-4622-a5bf-68f9b9ebfe53"},"vehicle_type_id":"4","last_reported":1753677476,"current_range_meters":12000,"station_id":"ce4bhk92rcd13ifvqgb0","pricing_plan_id":"cebpf4jnsgd1na2vs0mg"},{"bike_id":"688a04e1-05b6-4fc7-b03c-b784b8613797","system_id":"levelo_inurba_marseille","lat":43.291894,"lon":5.393265,"is_reserved":false,"is_disabled":false,"rental_uris":{"android":"levelo://app?vid=688a04e1-05b6-4fc7-b03c-b784b8613797","ios":"levelo://app?vid=688a04e1-05b6-4fc7-b03c-b784b8613797"},"vehicle_type_id":"4","last_reported":1753677476,"current_range_meters":12000,"station_id":"ce4bh192rcd13ifvqdd0","pricing_plan_id":"cebpf4jnsgd1na2vs0mg"},{"bike_id":"dd4a8cf1-7437-4a18-9dd0-bb792bdb998a","system_id":"levelo_inurba_marseille","lat":43.28397,"lon":5.37536,"is_reserved":false,"is_disabled":false,"rental_uris":{"android":"levelo://app?vid=dd4a8cf1-7437-4a18-9dd0-bb792bdb998a","ios":"levelo://app?vid=dd4a8cf1-7437-4a18-9dd0-bb792bdb998a"},"vehicle_type_id":"4","last_reported":1753677476,"current_range_meters":12000,"station_id":"ce4bh412rcd13ifvqds0","pricing_plan_id":"cebpf4jnsgd1na2vs0mg"},{"bike_id":"56ec8761-dee0-49c1-aba7-a69ac65d386f","system_id":"levelo_inurba_marseille","lat":43.229352,"lon":5.353786,"is_reserved":false,"is_disabled":false,"rental_uris":{"android":"levelo://app?vid=56ec8761-dee0-49c1-aba7-a69ac65d386f","ios":"levelo://app?vid=56ec8761-dee0-49c1-aba7-a69ac65d386f"},"vehicle_type_id":"4","last_reported":1753677476,"current_range_meters":12000,"station_id":"cpo3532slgdg3j2ikp40","pricing_plan_id":"cebpf4jnsgd1na2vs0mg"},{"bike_id":"264fbea3-2c7f-4636-bd2b-32e60faed0d5","system_id":"levelo_inurba_marseille","lat":43.22495,"lon":5.34779,"is_reserved":false,"is_disabled":false,"rental_uris":{"android":"levelo://app?vid=264fbea3-2c7f-4636-bd2b-32e60faed0d5","ios":"levelo://app?vid=264fbea3-2c7f-4636-bd2b-32e60faed0d5"},"vehicle_type_id":"4","last_reported":1753677476,"current_range_meters":12000,"station_id":"st_cvj5dfep6f1abm77gieg","pricing_plan_id":"cebpf4jnsgd1na2vs0mg"},{"bike_id":"556bc6c2-3a75-4570-aa98-a4a399644d79","system_id":"levelo_inurba_marseille","lat":43.2871,"lon":5.39992,"is_reserved":false,"is_disabled":false,"rental_uris":{"android":"levelo://app?vid=556bc6c2-3a75-4570-aa98-a4a399644d79","ios":"levelo://app?vid=556bc6c2-3a75-4570-aa98-a4a399644d79"},"vehicle_type_id":"4","last_reported":1753677476,"current_range_meters":12000,"station_id":"ce4bho92rcd13ifvqh3g","pricing_plan_id":"cebpf4jnsgd1na2vs0mg"},{"bike_id":"fbb2f7bf-8ef3-4bc2-93ea-53e42d2f0930","system_id":"levelo_inurba_marseille","lat":43.264974,"lon":5.395523,"is_reserved":false,"is_disabled":false,"rental_uris":{"android":"levelo://app?vid=fbb2f7bf-8ef3-4bc2-93ea-53e42d2f0930","ios":"levelo://app?vid=fbb2f7bf-8ef3-4bc2-93ea-53e42d2f0930"},"vehicle_type_id":"4","last_reported":1753677476,"current_range_meters":12000,"station_id":"ce4bhi12rcd13ifvqfq0","pricing_plan_id":"cebpf4jnsgd1na2vs0mg"},{"bike_id":"3e02d1f0-0222-4858-946c-ee2ac9060ae6","system_id":"levelo_inurba_marseille","lat":43.28156,"lon":5.42674,"is_reserved":false,"is_disabled":false,"rental_uris":{"android":"levelo://app?vid=3e02d1f0-0222-4858-946c-ee2ac9060ae6","ios":"levelo://app?vid=3e02d1f0-0222-4858-946c-ee2ac9060ae6"},"vehicle_type_id":"4","last_reported":1753677476,"current_range_meters":12400,"station_id":"ce4bhnh2rcd13ifvqgug","pricing_plan_id":"cebpf4jnsgd1na2vs0mg"},{"bike_id":"1e09161e-3a73-4066-b81a-0698be49e5b4","system_id":"levelo_inurba_marseille","lat":43.240706,"lon":5.377634,"is_reserved":false,"is_disabled":false,"rental_uris":{"android":"levelo://app?vid=1e09161e-3a73-4066-b81a-0698be49e5b4","ios":"levelo://app?vid=1e09161e-3a73-4066-b81a-0698be49e5b4"},"vehicle_type_id":"4","last_reported":1753677476,"current_range_meters":12400,"station_id":"ce4bhnp2rcd13ifvqgvg","pricing_plan_id":"cebpf4jnsgd1na2vs0mg"},{"bike_id":"3152576e-d602-4c3f-980e-717f41aed773","system_id":"levelo_inurba_marseille","lat":43.33737,"lon":5.37465,"is_reserved":false,"is_disabled":false,"rental_uris":{"android":"levelo://app?vid=3152576e-d602-4c3f-980e-717f41aed773","ios":"levelo://app?vid=3152576e-d602-4c3f-980e-717f41aed773"},"vehicle_type_id":"4","last_reported":1753677476,"current_range_meters":12400,"station_id":"","pricing_plan_id":"cebpf4jnsgd1na2vs0mg"},{"bike_id":"5f3b4fd1-eae6-41fc-8eb7-bc8b29b63214","system_id":"levelo_inurba_marseille","lat":43.32362,"lon":5.367418,"is_reserved":false,"is_disabled":false,"rental_uris":{"android":"levelo://app?vid=5f3b4fd1-eae6-41fc-8eb7-bc8b29b63214","ios":"levelo://app?vid=5f3b4fd1-eae6-41fc-8eb7-bc8b29b63214"},"vehicle_type_id":"4","last_reported":1753677476,"current_range_meters":12800,"station_id":"ce4bhsh2rcd13ifvqi2g","pricing_plan_id":"cebpf4jnsgd1na2vs0mg"},{"bike_id":"064dddab-c5f7-4516-ace6-92603a4acb94","system_id":"levelo_inurba_marseille","lat":43.26213,"lon":5.37437,"is_reserved":false,"is_disabled":false,"rental_uris":{"android":"levelo://app?vid=064dddab-c5f7-4516-ace6-92603a4acb94","ios":"levelo://app?vid=064dddab-c5f7-4516-ace6-92603a4acb94"},"vehicle_type_id":"4","last_reported":1753677476,"current_range_meters":12800,"station_id":"ce4bhgp2rcd13ifvqfc0","pricing_plan_id":"cebpf4jnsgd1na2vs0mg"},{"bike_id":"b30d2e1a-5293-443b-8819-90074cbc1e40","system_id":"levelo_inurba_marseille","lat":43.32366,"lon":5.36734,"is_reserved":false,"is_disabled":false,"rental_uris":{"android":"levelo://app?vid=b30d2e1a-5293-443b-8819-90074cbc1e40","ios":"levelo://app?vid=b30d2e1a-5293-443b-8819-90074cbc1e40"},"vehicle_type_id":"4","last_reported":1753677476,"current_range_meters":12800,"station_id":"ce4bhsh2rcd13ifvqi2g","pricing_plan_id":"cebpf4jnsgd1na2vs0mg"},{"bike_id":"df4d24ee-6906-452f-99a8-0421b67951dd","system_id":"levelo_inurba_marseille","lat":43.309376,"lon":5.401367,"is_reserved":false,"is_disabled":false,"rental_uris":{"android":"levelo://app?vid=df4d24ee-6906-452f-99a8-0421b67951dd","ios":"levelo://app?vid=df4d24ee-6906-452f-99a8-0421b67951dd"},"vehicle_type_id":"4","last_reported":1753677476,"current_range_meters":12800,"station_id":"ce4bgvp2rcd13ifvqct0","pricing_plan_id":"cebpf4jnsgd1na2vs0mg"},{"bike_id":"b63b6b67-3c26-456a-8237-9c704b33ab10","system_id":"levelo_inurba_marseille","lat":43.28928,"lon":5.38398,"is_reserved":false,"is_disabled":false,"rental_uris":{"android":"levelo://app?vid=b63b6b67-3c26-456a-8237-9c704b33ab10","ios":"levelo://app?vid=b63b6b67-3c26-456a-8237-9c704b33ab10"},"vehicle_type_id":"4","last_reported":1753677476,"current_range_meters":12800,"station_id":"ce4bh612rcd13ifvqe6g","pricing_plan_id":"cebpf4jnsgd1na2vs0mg"},{"bike_id":"2edf8151-cb92-46cc-9321-24e397aeed28","system_id":"levelo_inurba_marseille","lat":43.23061,"lon":5.35497,"is_reserved":false,"is_disabled":false,"rental_uris":{"android":"levelo://app?vid=2edf8151-cb92-46cc-9321-24e397aeed28","ios":"levelo://app?vid=2edf8151-cb92-46cc-9321-24e397aeed28"},"vehicle_type_id":"4","last_reported":1753677476,"current_range_meters":13600,"station_id":"cpo3342slgdg3j2ifvpg","pricing_plan_id":"cebpf4jnsgd1na2vs0mg"},{"bike_id":"87a4d710-c859-4883-a056-db27db09862e","system_id":"levelo_inurba_marseille","lat":43.277585,"lon":5.355971,"is_reserved":false,"is_disabled":false,"rental_uris":{"android":"levelo://app?vid=87a4d710-c859-4883-a056-db27db09862e","ios":"levelo://app?vid=87a4d710-c859-4883-a056-db27db09862e"},"vehicle_type_id":"4","last_reported":1753677476,"current_range_meters":13600,"station_id":"","pricing_plan_id":"cebpf4jnsgd1na2vs0mg"},{"bike_id":"b1ce726d-f66e-4a21-9e58-bcc99e079d39","system_id":"levelo_inurba_marseille","lat":43.27615,"lon":5.361,"is_reserved":false,"is_disabled":false,"rental_uris":{"android":"levelo://app?vid=b1ce726d-f66e-4a21-9e58-bcc99e079d39","ios":"levelo://app?vid=b1ce726d-f66e-4a21-9e58-bcc99e079d39"},"vehicle_type_id":"4","last_reported":1753677476,"current_range_meters":13600,"station_id":"ce4bgj92rcd13ifvqbe0","pricing_plan_id":"cebpf4jnsgd1na2vs0mg"},{"bike_id":"5137e5c8-fae9-4531-85b9-df7423feb303","system_id":"levelo_inurba_marseille","lat":43.3315,"lon":5.389337,"is_reserved":false,"is_disabled":false,"rental_uris":{"android":"levelo://app?vid=5137e5c8-fae9-4531-85b9-df7423feb303","ios":"levelo://app?vid=5137e5c8-fae9-4531-85b9-df7423feb303"},"vehicle_type_id":"4","last_reported":1753677476,"current_range_meters":13600,"station_id":"","pricing_plan_id":"cebpf4jnsgd1na2vs0mg"},{"bike_id":"329681ee-4b7c-4b42-a093-9c4985b10282","system_id":"levelo_inurba_marseille","lat":43.28433,"lon":5.34964,"is_reserved":false,"is_disabled":true,"rental_uris":{"android":"levelo://app?vid=329681ee-4b7c-4b42-a093-9c4985b10282","ios":"levelo://app?vid=329681ee-4b7c-4b42-a093-9c4985b10282"},"vehicle_type_id":"4","last_reported":1753677476,"current_range_meters":13600,"station_id":"ce4bhbh2rcd13ifvqepg","pricing_plan_id":"cebpf4jnsgd1na2vs0mg"},{"bike_id":"feb40379-0815-4a68-aadb-305942f11d04","system_id":"levelo_inurba_marseille","lat":43.24965,"lon":5.389825,"is_reserved":false,"is_disabled":false,"rental_uris":{"android":"levelo://app?vid=feb40379-0815-4a68-aadb-305942f11d04","ios":"levelo://app?vid=feb40379-0815-4a68-aadb-305942f11d04"},"vehicle_type_id":"4","last_reported":1753677476,"current_range_meters":13600,"station_id":"","pricing_plan_id":"cebpf4jnsgd1na2vs0mg"},{"bike_id":"363860ed-6d0c-40e8-91e3-2c5053026ca7","system_id":"levelo_inurba_marseille","lat":43.2296,"lon":5.35397,"is_reserved":false,"is_disabled":false,"rental_uris":{"android":"levelo://app?vid=363860ed-6d0c-40e8-91e3-2c5053026ca7","ios":"levelo://app?vid=363860ed-6d0c-40e8-91e3-2c5053026ca7"},"vehicle_type_id":"4","last_reported":1753677476,"current_range_meters":14000,"station_id":"cpo3532slgdg3j2ikp40","pricing_plan_id":"cebpf4jnsgd1na2vs0mg"},{"bike_id":"21119b74-9092-450b-a780-dc3f5e5aa101","system_id":"levelo_inurba_marseille","lat":43.24072,"lon":5.3776,"is_reserved":false,"is_disabled":false,"rental_uris":{"android":"levelo://app?vid=21119b74-9092-450b-a780-dc3f5e5aa101","ios":"levelo://app?vid=21119b74-9092-450b-a780-dc3f5e5aa101"},"vehicle_type_id":"4","last_reported":1753677476,"current_range_meters":14000,"station_id":"ce4bhnp2rcd13ifvqgvg","pricing_plan_id":"cebpf4jnsgd1na2vs0mg"},{"bike_id":"098b018e-2607-4af2-bc10-8758893e88ea","system_id":"levelo_inurba_marseille","lat":43.24075,"lon":5.37769,"is_reserved":false,"is_disabled":false,"rental_uris":{"android":"levelo://app?vid=098b018e-2607-4af2-bc10-8758893e88ea","ios":"levelo://app?vid=098b018e-2607-4af2-bc10-8758893e88ea"},"vehicle_type_id":"4","last_reported":1753677476,"current_range_meters":14000,"station_id":"ce4bhnp2rcd13ifvqgvg","pricing_plan_id":"cebpf4jnsgd1na2vs0mg"},{"bike_id":"d8adee83-dc1e-4ff1-879f-3a202b2325f9","system_id":"levelo_inurba_marseille","lat":43.29006,"lon":5.3862,"is_reserved":false,"is_disabled":false,"rental_uris":{"android":"levelo://app?vid=d8adee83-dc1e-4ff1-879f-3a202b2325f9","ios":"levelo://app?vid=d8adee83-dc1e-4ff1-879f-3a202b2325f9"},"vehicle_type_id":"4","last_reported":1753677476,"current_range_meters":14000,"station_id":"ce4bh4p2rcd13ifvqe0g","pricing_plan_id":"cebpf4jnsgd1na2vs0mg"},{"bike_id":"d9a56fde-1e6c-45f7-ac6b-636c233e249a","system_id":"levelo_inurba_marseille","lat":43.28706,"lon":5.3998,"is_reserved":false,"is_disabled":false,"rental_uris":{"android":"levelo://app?vid=d9a56fde-1e6c-45f7-ac6b-636c233e249a","ios":"levelo://app?vid=d9a56fde-1e6c-45f7-ac6b-636c233e249a"},"vehicle_type_id":"4","last_reported":1753677476,"current_range_meters":14000,"station_id":"ce4bho92rcd13ifvqh3g","pricing_plan_id":"cebpf4jnsgd1na2vs0mg"},{"bike_id":"8d801f83-3686-49fa-a7fd-3701c57be20d","system_id":"levelo_inurba_marseille","lat":43.24077,"lon":5.37755,"is_reserved":false,"is_disabled":false,"rental_uris":{"android":"levelo://app?vid=8d801f83-3686-49fa-a7fd-3701c57be20d","ios":"levelo://app?vid=8d801f83-3686-49fa-a7fd-3701c57be20d"},"vehicle_type_id":"4","last_reported":1753677476,"current_range_meters":14000,"station_id":"ce4bhnp2rcd13ifvqgvg","pricing_plan_id":"cebpf4jnsgd1na2vs0mg"},{"bike_id":"8e37ef79-bd01-46c2-9d9e-3d3f7741a07a","system_id":"levelo_inurba_marseille","lat":43.297302,"lon":5.374166,"is_reserved":false,"is_disabled":false,"rental_uris":{"android":"levelo://app?vid=8e37ef79-bd01-46c2-9d9e-3d3f7741a07a","ios":"levelo://app?vid=8e37ef79-bd01-46c2-9d9e-3d3f7741a07a"},"vehicle_type_id":"4","last_reported":1753677476,"current_range_meters":14400,"station_id":"","pricing_plan_id":"cebpf4jnsgd1na2vs0mg"},{"bike_id":"f6d1b08f-50a5-4e88-805e-6d6d499bf597","system_id":"levelo_inurba_marseille","lat":43.30517,"lon":5.36718,"is_reserved":false,"is_disabled":false,"rental_uris":{"android":"levelo://app?vid=f6d1b08f-50a5-4e88-805e-6d6d499bf597","ios":"levelo://app?vid=f6d1b08f-50a5-4e88-805e-6d6d499bf597"},"vehicle_type_id":"4","last_reported":1753677476,"current_range_meters":14400,"station_id":"ce4bgrp2rcd13ifvqc9g","pricing_plan_id":"cebpf4jnsgd1na2vs0mg"},{"bike_id":"c7cf243a-7c39-4dde-b215-d7ee8c6b7e48","system_id":"levelo_inurba_marseille","lat":43.31698,"lon":5.404563,"is_reserved":false,"is_disabled":false,"rental_uris":{"android":"levelo://app?vid=c7cf243a-7c39-4dde-b215-d7ee8c6b7e48","ios":"levelo://app?vid=c7cf243a-7c39-4dde-b215-d7ee8c6b7e48"},"vehicle_type_id":"4","last_reported":1753677476,"current_range_meters":14400,"station_id":"ce4bh012rcd13ifvqd00","pricing_plan_id":"cebpf4jnsgd1na2vs0mg"},{"bike_id":"181169c9-db39-4940-ad52-867921332b7e","system_id":"levelo_inurba_marseille","lat":43.225163,"lon":5.347805,"is_reserved":false,"is_disabled":false,"rental_uris":{"android":"levelo://app?vid=181169c9-db39-4940-ad52-867921332b7e","ios":"levelo://app?vid=181169c9-db39-4940-ad52-867921332b7e"},"vehicle_type_id":"4","last_reported":1753677476,"current_range_meters":14400,"station_id":"st_cvj5dfep6f1abm77gieg","pricing_plan_id":"cebpf4jnsgd1na2vs0mg"},{"bike_id":"da049fac-3e24-435e-a3f7-f4b220c2f063","system_id":"levelo_inurba_marseille","lat":43.28944,"lon":5.36636,"is_reserved":false,"is_disabled":false,"rental_uris":{"android":"levelo://app?vid=da049fac-3e24-435e-a3f7-f4b220c2f063","ios":"levelo://app?vid=da049fac-3e24-435e-a3f7-f4b220c2f063"},"vehicle_type_id":"4","last_reported":1753677476,"current_range_meters":14800,"station_id":"ce4bhap2rcd13ifvqek0","pricing_plan_id":"cebpf4jnsgd1na2vs0mg"},{"bike_id":"95dd70e4-879c-49e7-b318-a6c71b22a43e","system_id":"levelo_inurba_marseille","lat":43.2703,"lon":5.39295,"is_reserved":false,"is_disabled":false,"rental_uris":{"android":"levelo://app?vid=95dd70e4-879c-49e7-b318-a6c71b22a43e","ios":"levelo://app?vid=95dd70e4-879c-49e7-b318-a6c71b22a43e"},"vehicle_type_id":"4","last_reported":1753677476,"current_range_meters":14800,"station_id":"","pricing_plan_id":"cebpf4jnsgd1na2vs0mg"},{"bike_id":"baa049fa-c3e2-4c1a-8082-0c6c10cd9a92","system_id":"levelo_inurba_marseille","lat":43.231,"lon":5.35508,"is_reserved":false,"is_disabled":false,"rental_uris":{"android":"levelo://app?vid=baa049fa-c3e2-4c1a-8082-0c6c10cd9a92","ios":"levelo://app?vid=baa049fa-c3e2-4c1a-8082-0c6c10cd9a92"},"vehicle_type_id":"4","last_reported":1753677476,"current_range_meters":14800,"station_id":"","pricing_plan_id":"cebpf4jnsgd1na2vs0mg"},{"bike_id":"536dd0a6-7f1b-40ed-af5a-c920c69aac4b","system_id":"levelo_inurba_marseille","lat":43.27612,"lon":5.36114,"is_reserved":false,"is_disabled":false,"rental_uris":{"android":"levelo://app?vid=536dd0a6-7f1b-40ed-af5a-c920c69aac4b","ios":"levelo://app?vid=536dd0a6-7f1b-40ed-af5a-c920c69aac4b"},"vehicle_type_id":"4","last_reported":1753677476,"current_range_meters":14800,"station_id":"ce4bgj92rcd13ifvqbe0","pricing_plan_id":"cebpf4jnsgd1na2vs0mg"},{"bike_id":"9d6f4d9f-a761-4ae2-9e4b-00f8fda461c4","system_id":"levelo_inurba_marseille","lat":43.28565,"lon":5.39484,"is_reserved":false,"is_disabled":true,"rental_uris":{"android":"levelo://app?vid=9d6f4d9f-a761-4ae2-9e4b-00f8fda461c4","ios":"levelo://app?vid=9d6f4d9f-a761-4ae2-9e4b-00f8fda461c4"},"vehicle_type_id":"4","last_reported":1753677476,"current_range_meters":14800,"station_id":"ce4bh292rcd13ifvqdg0","pricing_plan_id":"cebpf4jnsgd1na2vs0mg"},{"bike_id":"6238abb3-baac-4bb2-91fc-857b53675b1d","system_id":"levelo_inurba_marseille","lat":43.2936,"lon":5.37846,"is_reserved":false,"is_disabled":true,"rental_uris":{"android":"levelo://app?vid=6238abb3-baac-4bb2-91fc-857b53675b1d","ios":"levelo://app?vid=6238abb3-baac-4bb2-91fc-857b53675b1d"},"vehicle_type_id":"4","last_reported":1753677476,"current_range_meters":14800,"station_id":"ce4bgjh2rcd13ifvqbf0","pricing_plan_id":"cebpf4jnsgd1na2vs0mg"},{"bike_id":"209c73e6-1f69-4d13-9fed-77cb46eecd05","system_id":"levelo_inurba_marseille","lat":43.34681,"lon":5.38065,"is_reserved":false,"is_disabled":false,"rental_uris":{"android":"levelo://app?vid=209c73e6-1f69-4d13-9fed-77cb46eecd05","ios":"levelo://app?vid=209c73e6-1f69-4d13-9fed-77cb46eecd05"},"vehicle_type_id":"4","last_reported":1753677476,"current_range_meters":14800,"station_id":"","pricing_plan_id":"cebpf4jnsgd1na2vs0mg"},{"bike_id":"8142408b-84ea-4577-9728-f52c3a5f16f1","system_id":"levelo_inurba_marseille","lat":43.24177,"lon":5.36395,"is_reserved":false,"is_disabled":true,"rental_uris":{"android":"levelo://app?vid=8142408b-84ea-4577-9728-f52c3a5f16f1","ios":"levelo://app?vid=8142408b-84ea-4577-9728-f52c3a5f16f1"},"vehicle_type_id":"4","last_reported":1753677476,"current_range_meters":15200,"station_id":"cpo36qri1sfpv3e86is0","pricing_plan_id":"cebpf4jnsgd1na2vs0mg"},{"bike_id":"f0b9ae88-2c8c-49d1-a054-7f8fd132667c","system_id":"levelo_inurba_marseille","lat":43.29194,"lon":5.3578,"is_reserved":false,"is_disabled":true,"rental_uris":{"android":"levelo://app?vid=f0b9ae88-2c8c-49d1-a054-7f8fd132667c","ios":"levelo://app?vid=f0b9ae88-2c8c-49d1-a054-7f8fd132667c"},"vehicle_type_id":"4","last_reported":1753677476,"current_range_meters":15200,"station_id":"ce4bhb12rcd13ifvqel0","pricing_plan_id":"cebpf4jnsgd1na2vs0mg"},{"bike_id":"65e3db07-f188-422b-b687-3d06cfe2bcf8","system_id":"levelo_inurba_marseille","lat":43.2806,"lon":5.35043,"is_reserved":false,"is_disabled":false,"rental_uris":{"android":"levelo://app?vid=65e3db07-f188-422b-b687-3d06cfe2bcf8","ios":"levelo://app?vid=65e3db07-f188-422b-b687-3d06cfe2bcf8"},"vehicle_type_id":"4","last_reported":1753677476,"current_range_meters":15200,"station_id":"","pricing_plan_id":"cebpf4jnsgd1na2vs0mg"},{"bike_id":"2b6cf374-ab08-41b5-a0ab-81c6d4da50a4","system_id":"levelo_inurba_marseille","lat":43.28416,"lon":5.37523,"is_reserved":false,"is_disabled":false,"rental_uris":{"android":"levelo://app?vid=2b6cf374-ab08-41b5-a0ab-81c6d4da50a4","ios":"levelo://app?vid=2b6cf374-ab08-41b5-a0ab-81c6d4da50a4"},"vehicle_type_id":"4","last_reported":1753677476,"current_range_meters":15200,"station_id":"ce4bh412rcd13ifvqds0","pricing_plan_id":"cebpf4jnsgd1na2vs0mg"},{"bike_id":"da8a121b-dd93-4a31-8254-38a795a66238","system_id":"levelo_inurba_marseille","lat":43.2408,"lon":5.37754,"is_reserved":false,"is_disabled":false,"rental_uris":{"android":"levelo://app?vid=da8a121b-dd93-4a31-8254-38a795a66238","ios":"levelo://app?vid=da8a121b-dd93-4a31-8254-38a795a66238"},"vehicle_type_id":"4","last_reported":1753677476,"current_range_meters":15200,"station_id":"ce4bhnp2rcd13ifvqgvg","pricing_plan_id":"cebpf4jnsgd1na2vs0mg"},{"bike_id":"149fbe11-3bce-47a0-b584-c7c7bd6bb12f","system_id":"levelo_inurba_marseille","lat":43.21617,"lon":5.34477,"is_reserved":false,"is_disabled":false,"rental_uris":{"android":"levelo://app?vid=149fbe11-3bce-47a0-b584-c7c7bd6bb12f","ios":"levelo://app?vid=149fbe11-3bce-47a0-b584-c7c7bd6bb12f"},"vehicle_type_id":"4","last_reported":1753677476,"current_range_meters":15200,"station_id":"","pricing_plan_id":"cebpf4jnsgd1na2vs0mg"},{"bike_id":"26d69215-edb4-4917-b3fc-22f62f7da34a","system_id":"levelo_inurba_marseille","lat":43.22503,"lon":5.34783,"is_reserved":false,"is_disabled":false,"rental_uris":{"android":"levelo://app?vid=26d69215-edb4-4917-b3fc-22f62f7da34a","ios":"levelo://app?vid=26d69215-edb4-4917-b3fc-22f62f7da34a"},"vehicle_type_id":"4","last_reported":1753677476,"current_range_meters":15200,"station_id":"st_cvj5dfep6f1abm77gieg","pricing_plan_id":"cebpf4jnsgd1na2vs0mg"},{"bike_id":"e1b8cacf-7f67-4490-93b1-ee4795d08ba9","system_id":"levelo_inurba_marseille","lat":43.28442,"lon":5.3754,"is_reserved":false,"is_disabled":false,"rental_uris":{"android":"levelo://app?vid=e1b8cacf-7f67-4490-93b1-ee4795d08ba9","ios":"levelo://app?vid=e1b8cacf-7f67-4490-93b1-ee4795d08ba9"},"vehicle_type_id":"4","last_reported":1753677476,"current_range_meters":16000,"station_id":"","pricing_plan_id":"cebpf4jnsgd1na2vs0mg"},{"bike_id":"5bf3ed1a-1969-409f-8d81-292c7d10a407","system_id":"levelo_inurba_marseille","lat":43.32108,"lon":5.36756,"is_reserved":false,"is_disabled":false,"rental_uris":{"android":"levelo://app?vid=5bf3ed1a-1969-409f-8d81-292c7d10a407","ios":"levelo://app?vid=5bf3ed1a-1969-409f-8d81-292c7d10a407"},"vehicle_type_id":"4","last_reported":1753677476,"current_range_meters":16000,"station_id":"ce4bhrh2rcd13ifvqhug","pricing_plan_id":"cebpf4jnsgd1na2vs0mg"},{"bike_id":"fc4efa6c-d667-446f-bdb1-3c041a9dcc22","system_id":"levelo_inurba_marseille","lat":43.26822,"lon":5.4023,"is_reserved":false,"is_disabled":false,"rental_uris":{"android":"levelo://app?vid=fc4efa6c-d667-446f-bdb1-3c041a9dcc22","ios":"levelo://app?vid=fc4efa6c-d667-446f-bdb1-3c041a9dcc22"},"vehicle_type_id":"4","last_reported":1753677476,"current_range_meters":16000,"station_id":"ce501612rcd8frsf0b60","pricing_plan_id":"cebpf4jnsgd1na2vs0mg"},{"bike_id":"8a7ba96b-3ae1-42c5-8875-e2ccacbe5dc7","system_id":"levelo_inurba_marseille","lat":43.30324,"lon":5.40445,"is_reserved":false,"is_disabled":false,"rental_uris":{"android":"levelo://app?vid=8a7ba96b-3ae1-42c5-8875-e2ccacbe5dc7","ios":"levelo://app?vid=8a7ba96b-3ae1-42c5-8875-e2ccacbe5dc7"},"vehicle_type_id":"4","last_reported":1753677476,"current_range_meters":16000,"station_id":"ce4bh012rcd13ifvqd10","pricing_plan_id":"cebpf4jnsgd1na2vs0mg"},{"bike_id":"1848e763-c1e7-437f-8ea0-328c3886bf28","system_id":"levelo_inurba_marseille","lat":43.22946,"lon":5.353495,"is_reserved":false,"is_disabled":false,"rental_uris":{"android":"levelo://app?vid=1848e763-c1e7-437f-8ea0-328c3886bf28","ios":"levelo://app?vid=1848e763-c1e7-437f-8ea0-328c3886bf28"},"vehicle_type_id":"4","last_reported":1753677476,"current_range_meters":16000,"station_id":"cpo3532slgdg3j2ikp40","pricing_plan_id":"cebpf4jnsgd1na2vs0mg"},{"bike_id":"59e4a1dd-eb83-41af-95ea-284aacfc5f76","system_id":"levelo_inurba_marseille","lat":43.30535,"lon":5.37131,"is_reserved":false,"is_disabled":false,"rental_uris":{"android":"levelo://app?vid=59e4a1dd-eb83-41af-95ea-284aacfc5f76","ios":"levelo://app?vid=59e4a1dd-eb83-41af-95ea-284aacfc5f76"},"vehicle_type_id":"4","last_reported":1753677476,"current_range_meters":16000,"station_id":"ce4bgqh2rcd13ifvqc4g","pricing_plan_id":"cebpf4jnsgd1na2vs0mg"},{"bike_id":"d70613a2-027e-4ce6-8023-62349a7a4277","system_id":"levelo_inurba_marseille","lat":43.22512,"lon":5.34778,"is_reserved":false,"is_disabled":false,"rental_uris":{"android":"levelo://app?vid=d70613a2-027e-4ce6-8023-62349a7a4277","ios":"levelo://app?vid=d70613a2-027e-4ce6-8023-62349a7a4277"},"vehicle_type_id":"4","last_reported":1753677476,"current_range_meters":16000,"station_id":"st_cvj5dfep6f1abm77gieg","pricing_plan_id":"cebpf4jnsgd1na2vs0mg"},{"bike_id":"fcf9ae50-a27d-44f9-b88e-4240b9eaae7c","system_id":"levelo_inurba_marseille","lat":43.265609,"lon":5.390101,"is_reserved":false,"is_disabled":false,"rental_uris":{"android":"levelo://app?vid=fcf9ae50-a27d-44f9-b88e-4240b9eaae7c","ios":"levelo://app?vid=fcf9ae50-a27d-44f9-b88e-4240b9eaae7c"},"vehicle_type_id":"4","last_reported":1753677476,"current_range_meters":16000,"station_id":"ce4bhe12rcd13ifvqf30","pricing_plan_id":"cebpf4jnsgd1na2vs0mg"},{"bike_id":"85f4f9ec-e442-48d5-bd23-9e7aaaf2f86b","system_id":"levelo_inurba_marseille","lat":43.299836,"lon":5.384897,"is_reserved":false,"is_disabled":false,"rental_uris":{"android":"levelo://app?vid=85f4f9ec-e442-48d5-bd23-9e7aaaf2f86b","ios":"levelo://app?vid=85f4f9ec-e442-48d5-bd23-9e7aaaf2f86b"},"vehicle_type_id":"4","last_reported":1753677476,"current_range_meters":16000,"station_id":"ce4bgj92rcd13ifvqbd0","pricing_plan_id":"cebpf4jnsgd1na2vs0mg"},{"bike_id":"2807d12a-8c8a-4209-a9c0-8d1cf55dce5e","system_id":"levelo_inurba_marseille","lat":43.25204,"lon":5.382115,"is_reserved":false,"is_disabled":true,"rental_uris":{"android":"levelo://app?vid=2807d12a-8c8a-4209-a9c0-8d1cf55dce5e","ios":"levelo://app?vid=2807d12a-8c8a-4209-a9c0-8d1cf55dce5e"},"vehicle_type_id":"4","last_reported":1753677476,"current_range_meters":16000,"station_id":"","pricing_plan_id":"cebpf4jnsgd1na2vs0mg"},{"bike_id":"07eb427f-275a-4480-989e-bc71fc6025ec","system_id":"levelo_inurba_marseille","lat":43.29881,"lon":5.39738,"is_reserved":false,"is_disabled":false,"rental_uris":{"android":"levelo://app?vid=07eb427f-275a-4480-989e-bc71fc6025ec","ios":"levelo://app?vid=07eb427f-275a-4480-989e-bc71fc6025ec"},"vehicle_type_id":"4","last_reported":1753677476,"current_range_meters":16000,"station_id":"ce4bh0h2rcd13ifvqd50","pricing_plan_id":"cebpf4jnsgd1na2vs0mg"},{"bike_id":"947cf9dd-0905-42a3-aafb-8e1c05b7ea7a","system_id":"levelo_inurba_marseille","lat":43.30835,"lon":5.38223,"is_reserved":false,"is_disabled":false,"rental_uris":{"android":"levelo://app?vid=947cf9dd-0905-42a3-aafb-8e1c05b7ea7a","ios":"levelo://app?vid=947cf9dd-0905-42a3-aafb-8e1c05b7ea7a"},"vehicle_type_id":"4","last_reported":1753677476,"current_range_meters":16000,"station_id":"","pricing_plan_id":"cebpf4jnsgd1na2vs0mg"},{"bike_id":"a6a6c8ec-bb06-4ea6-919f-19bca833666c","system_id":"levelo_inurba_marseille","lat":43.3089,"lon":5.39653,"is_reserved":false,"is_disabled":false,"rental_uris":{"android":"levelo://app?vid=a6a6c8ec-bb06-4ea6-919f-19bca833666c","ios":"levelo://app?vid=a6a6c8ec-bb06-4ea6-919f-19bca833666c"},"vehicle_type_id":"4","last_reported":1753677476,"current_range_meters":16000,"station_id":"ce4bh012rcd13ifvqcv0","pricing_plan_id":"cebpf4jnsgd1na2vs0mg"},{"bike_id":"c38609b3-259e-4860-a0b7-40eb025d032a","system_id":"levelo_inurba_marseille","lat":43.28714,"lon":5.3997,"is_reserved":false,"is_disabled":false,"rental_uris":{"android":"levelo://app?vid=c38609b3-259e-4860-a0b7-40eb025d032a","ios":"levelo://app?vid=c38609b3-259e-4860-a0b7-40eb025d032a"},"vehicle_type_id":"4","last_reported":1753677476,"current_range_meters":16400,"station_id":"ce4bho92rcd13ifvqh3g","pricing_plan_id":"cebpf4jnsgd1na2vs0mg"},{"bike_id":"f1d9f8f3-bfbd-4bcf-9566-e71ca4500d92","system_id":"levelo_inurba_marseille","lat":43.292272,"lon":5.360526,"is_reserved":false,"is_disabled":false,"rental_uris":{"android":"levelo://app?vid=f1d9f8f3-bfbd-4bcf-9566-e71ca4500d92","ios":"levelo://app?vid=f1d9f8f3-bfbd-4bcf-9566-e71ca4500d92"},"vehicle_type_id":"4","last_reported":1753677476,"current_range_meters":16400,"station_id":"","pricing_plan_id":"cebpf4jnsgd1na2vs0mg"},{"bike_id":"f104e79e-8727-4ccc-8a35-a020cc2fb0ec","system_id":"levelo_inurba_marseille","lat":43.29201,"lon":5.35767,"is_reserved":false,"is_disabled":true,"rental_uris":{"android":"levelo://app?vid=f104e79e-8727-4ccc-8a35-a020cc2fb0ec","ios":"levelo://app?vid=f104e79e-8727-4ccc-8a35-a020cc2fb0ec"},"vehicle_type_id":"4","last_reported":1753677476,"current_range_meters":16400,"station_id":"ce4bhb12rcd13ifvqel0","pricing_plan_id":"cebpf4jnsgd1na2vs0mg"},{"bike_id":"a9df78d2-277c-4ca0-ba02-79b14cf1c87f","system_id":"levelo_inurba_marseille","lat":43.309255,"lon":5.40146,"is_reserved":false,"is_disabled":true,"rental_uris":{"android":"levelo://app?vid=a9df78d2-277c-4ca0-ba02-79b14cf1c87f","ios":"levelo://app?vid=a9df78d2-277c-4ca0-ba02-79b14cf1c87f"},"vehicle_type_id":"4","last_reported":1753677476,"current_range_meters":16400,"station_id":"ce4bgvp2rcd13ifvqct0","pricing_plan_id":"cebpf4jnsgd1na2vs0mg"},{"bike_id":"47eb4bcd-34cb-4441-8fc0-2fa8b9a9f4b2","system_id":"levelo_inurba_marseille","lat":43.24554,"lon":5.40216,"is_reserved":false,"is_disabled":false,"rental_uris":{"android":"levelo://app?vid=47eb4bcd-34cb-4441-8fc0-2fa8b9a9f4b2","ios":"levelo://app?vid=47eb4bcd-34cb-4441-8fc0-2fa8b9a9f4b2"},"vehicle_type_id":"4","last_reported":1753677476,"current_range_meters":16400,"station_id":"","pricing_plan_id":"cebpf4jnsgd1na2vs0mg"},{"bike_id":"72e9581e-243c-489b-ac72-946b1381353f","system_id":"levelo_inurba_marseille","lat":43.30639,"lon":5.37558,"is_reserved":false,"is_disabled":false,"rental_uris":{"android":"levelo://app?vid=72e9581e-243c-489b-ac72-946b1381353f","ios":"levelo://app?vid=72e9581e-243c-489b-ac72-946b1381353f"},"vehicle_type_id":"4","last_reported":1753677476,"current_range_meters":16400,"station_id":"","pricing_plan_id":"cebpf4jnsgd1na2vs0mg"},{"bike_id":"5e7f3241-4f20-490d-91d6-9772c70eded9","system_id":"levelo_inurba_marseille","lat":43.28941,"lon":5.36639,"is_reserved":false,"is_disabled":false,"rental_uris":{"android":"levelo://app?vid=5e7f3241-4f20-490d-91d6-9772c70eded9","ios":"levelo://app?vid=5e7f3241-4f20-490d-91d6-9772c70eded9"},"vehicle_type_id":"4","last_reported":1753677476,"current_range_meters":16400,"station_id":"ce4bhap2rcd13ifvqek0","pricing_plan_id":"cebpf4jnsgd1na2vs0mg"},{"bike_id":"8156ba1c-79d1-400d-96a0-33669bb7caeb","system_id":"levelo_inurba_marseille","lat":43.325933,"lon":5.411452,"is_reserved":false,"is_disabled":false,"rental_uris":{"android":"levelo://app?vid=8156ba1c-79d1-400d-96a0-33669bb7caeb","ios":"levelo://app?vid=8156ba1c-79d1-400d-96a0-33669bb7caeb"},"vehicle_type_id":"4","last_reported":1753677476,"current_range_meters":16400,"station_id":"","pricing_plan_id":"cebpf4jnsgd1na2vs0mg"},{"bike_id":"c5d6c16c-667e-4c61-9e09-b5efae6e86bc","system_id":"levelo_inurba_marseille","lat":43.29902,"lon":5.43678,"is_reserved":false,"is_disabled":false,"rental_uris":{"android":"levelo://app?vid=c5d6c16c-667e-4c61-9e09-b5efae6e86bc","ios":"levelo://app?vid=c5d6c16c-667e-4c61-9e09-b5efae6e86bc"},"vehicle_type_id":"4","last_reported":1753677476,"current_range_meters":16400,"station_id":"ce4bhpp2rcd13ifvqhfg","pricing_plan_id":"cebpf4jnsgd1na2vs0mg"},{"bike_id":"8078f45a-25b7-42fe-9f2f-63a22e3d5bec","system_id":"levelo_inurba_marseille","lat":43.31992,"lon":5.3814,"is_reserved":false,"is_disabled":false,"rental_uris":{"android":"levelo://app?vid=8078f45a-25b7-42fe-9f2f-63a22e3d5bec","ios":"levelo://app?vid=8078f45a-25b7-42fe-9f2f-63a22e3d5bec"},"vehicle_type_id":"4","last_reported":1753677476,"current_range_meters":16400,"station_id":"ce4bhr12rcd13ifvqhpg","pricing_plan_id":"cebpf4jnsgd1na2vs0mg"},{"bike_id":"3cc35ae4-9f14-400a-9331-a058fb7c5443","system_id":"levelo_inurba_marseille","lat":43.317589,"lon":5.390171,"is_reserved":false,"is_disabled":true,"rental_uris":{"android":"levelo://app?vid=3cc35ae4-9f14-400a-9331-a058fb7c5443","ios":"levelo://app?vid=3cc35ae4-9f14-400a-9331-a058fb7c5443"},"vehicle_type_id":"4","last_reported":1753677476,"current_range_meters":16400,"station_id":"ce4bhqp2rcd13ifvqhng","pricing_plan_id":"cebpf4jnsgd1na2vs0mg"},{"bike_id":"bf2dd4d7-8a34-4a3a-be99-e3411c0e1fa3","system_id":"levelo_inurba_marseille","lat":43.306064,"lon":5.393494,"is_reserved":false,"is_disabled":false,"rental_uris":{"android":"levelo://app?vid=bf2dd4d7-8a34-4a3a-be99-e3411c0e1fa3","ios":"levelo://app?vid=bf2dd4d7-8a34-4a3a-be99-e3411c0e1fa3"},"vehicle_type_id":"4","last_reported":1753677476,"current_range_meters":16400,"station_id":"ce4bh0p2rcd13ifvqd80","pricing_plan_id":"cebpf4jnsgd1na2vs0mg"},{"bike_id":"65a90391-f9e8-4794-a20c-76aa0f6120b6","system_id":"levelo_inurba_marseille","lat":43.25121,"lon":5.40321,"is_reserved":false,"is_disabled":false,"rental_uris":{"android":"levelo://app?vid=65a90391-f9e8-4794-a20c-76aa0f6120b6","ios":"levelo://app?vid=65a90391-f9e8-4794-a20c-76aa0f6120b6"},"vehicle_type_id":"4","last_reported":1753677476,"current_range_meters":16800,"station_id":"ce4bhlh2rcd13ifvqgig","pricing_plan_id":"cebpf4jnsgd1na2vs0mg"},{"bike_id":"4e064d71-3506-40bd-a915-57fdea32c328","system_id":"levelo_inurba_marseille","lat":43.29375,"lon":5.41907,"is_reserved":false,"is_disabled":false,"rental_uris":{"android":"levelo://app?vid=4e064d71-3506-40bd-a915-57fdea32c328","ios":"levelo://app?vid=4e064d71-3506-40bd-a915-57fdea32c328"},"vehicle_type_id":"4","last_reported":1753677476,"current_range_meters":16800,"station_id":"","pricing_plan_id":"cebpf4jnsgd1na2vs0mg"},{"bike_id":"71f6d478-2cc3-4b15-a6d2-228ae1738f49","system_id":"levelo_inurba_marseille","lat":43.25116,"lon":5.40319,"is_reserved":false,"is_disabled":false,"rental_uris":{"android":"levelo://app?vid=71f6d478-2cc3-4b15-a6d2-228ae1738f49","ios":"levelo://app?vid=71f6d478-2cc3-4b15-a6d2-228ae1738f49"},"vehicle_type_id":"4","last_reported":1753677476,"current_range_meters":16800,"station_id":"ce4bhlh2rcd13ifvqgig","pricing_plan_id":"cebpf4jnsgd1na2vs0mg"},{"bike_id":"885c91ff-b037-4785-8c47-553694422f95","system_id":"levelo_inurba_marseille","lat":43.29652,"lon":5.37212,"is_reserved":false,"is_disabled":false,"rental_uris":{"android":"levelo://app?vid=885c91ff-b037-4785-8c47-553694422f95","ios":"levelo://app?vid=885c91ff-b037-4785-8c47-553694422f95"},"vehicle_type_id":"4","last_reported":1753677476,"current_range_meters":16800,"station_id":"","pricing_plan_id":"cebpf4jnsgd1na2vs0mg"},{"bike_id":"eb7f2bd6-c8ea-49b0-b305-f228cce9f186","system_id":"levelo_inurba_marseille","lat":43.28671,"lon":5.36346,"is_reserved":false,"is_disabled":false,"rental_uris":{"android":"levelo://app?vid=eb7f2bd6-c8ea-49b0-b305-f228cce9f186","ios":"levelo://app?vid=eb7f2bd6-c8ea-49b0-b305-f228cce9f186"},"vehicle_type_id":"4","last_reported":1753677476,"current_range_meters":16800,"station_id":"ce4bhah2rcd13ifvqej0","pricing_plan_id":"cebpf4jnsgd1na2vs0mg"},{"bike_id":"d03ebcd2-83e7-4ffd-bb1d-18fbff069a76","system_id":"levelo_inurba_marseille","lat":43.325471,"lon":5.414282,"is_reserved":false,"is_disabled":false,"rental_uris":{"android":"levelo://app?vid=d03ebcd2-83e7-4ffd-bb1d-18fbff069a76","ios":"levelo://app?vid=d03ebcd2-83e7-4ffd-bb1d-18fbff069a76"},"vehicle_type_id":"4","last_reported":1753677476,"current_range_meters":16800,"station_id":"ce4bhq12rcd13ifvqhhg","pricing_plan_id":"cebpf4jnsgd1na2vs0mg"},{"bike_id":"3dd2b2f9-64bc-4f1c-ad06-386f2ab19894","system_id":"levelo_inurba_marseille","lat":43.29775,"lon":5.36439,"is_reserved":false,"is_disabled":true,"rental_uris":{"android":"levelo://app?vid=3dd2b2f9-64bc-4f1c-ad06-386f2ab19894","ios":"levelo://app?vid=3dd2b2f9-64bc-4f1c-ad06-386f2ab19894"},"vehicle_type_id":"4","last_reported":1753677476,"current_range_meters":16800,"station_id":"","pricing_plan_id":"cebpf4jnsgd1na2vs0mg"},{"bike_id":"be8ba04c-795c-4f91-9a6b-cc0f635c3ec4","system_id":"levelo_inurba_marseille","lat":43.30814,"lon":5.3819,"is_reserved":false,"is_disabled":false,"rental_uris":{"android":"levelo://app?vid=be8ba04c-795c-4f91-9a6b-cc0f635c3ec4","ios":"levelo://app?vid=be8ba04c-795c-4f91-9a6b-cc0f635c3ec4"},"vehicle_type_id":"4","last_reported":1753677476,"current_range_meters":16800,"station_id":"ce4bgt12rcd13ifvqce0","pricing_plan_id":"cebpf4jnsgd1na2vs0mg"},{"bike_id":"ae43b4ec-64bc-4eb6-ae20-a2f81ea93017","system_id":"levelo_inurba_marseille","lat":43.2319,"lon":5.35547,"is_reserved":false,"is_disabled":false,"rental_uris":{"android":"levelo://app?vid=ae43b4ec-64bc-4eb6-ae20-a2f81ea93017","ios":"levelo://app?vid=ae43b4ec-64bc-4eb6-ae20-a2f81ea93017"},"vehicle_type_id":"4","last_reported":1753677476,"current_range_meters":16800,"station_id":"ce4bhu92rcd13ifvqi70","pricing_plan_id":"cebpf4jnsgd1na2vs0mg"},{"bike_id":"85efb6ab-7f4c-46e4-b887-80993ef980b3","system_id":"levelo_inurba_marseille","lat":43.269491,"lon":5.386354,"is_reserved":false,"is_disabled":false,"rental_uris":{"android":"levelo://app?vid=85efb6ab-7f4c-46e4-b887-80993ef980b3","ios":"levelo://app?vid=85efb6ab-7f4c-46e4-b887-80993ef980b3"},"vehicle_type_id":"4","last_reported":1753677476,"current_range_meters":16800,"station_id":"ce4bhh92rcd13ifvqfh0","pricing_plan_id":"cebpf4jnsgd1na2vs0mg"},{"bike_id":"2a3a9f20-00d1-4c95-a093-ba8e28724bc0","system_id":"levelo_inurba_marseille","lat":43.3062,"lon":5.3751,"is_reserved":false,"is_disabled":false,"rental_uris":{"android":"levelo://app?vid=2a3a9f20-00d1-4c95-a093-ba8e28724bc0","ios":"levelo://app?vid=2a3a9f20-00d1-4c95-a093-ba8e28724bc0"},"vehicle_type_id":"4","last_reported":1753677476,"current_range_meters":16800,"station_id":"","pricing_plan_id":"cebpf4jnsgd1na2vs0mg"},{"bike_id":"74086b04-0dd6-46a7-9d00-59be29e56777","system_id":"levelo_inurba_marseille","lat":43.298772,"lon":5.397229,"is_reserved":false,"is_disabled":false,"rental_uris":{"android":"levelo://app?vid=74086b04-0dd6-46a7-9d00-59be29e56777","ios":"levelo://app?vid=74086b04-0dd6-46a7-9d00-59be29e56777"},"vehicle_type_id":"4","last_reported":1753677476,"current_range_meters":17200,"station_id":"ce4bh0h2rcd13ifvqd50","pricing_plan_id":"cebpf4jnsgd1na2vs0mg"},{"bike_id":"7e2e7429-6a1d-4bcf-8458-892dad4cf914","system_id":"levelo_inurba_marseille","lat":43.30156,"lon":5.38068,"is_reserved":false,"is_disabled":false,"rental_uris":{"android":"levelo://app?vid=7e2e7429-6a1d-4bcf-8458-892dad4cf914","ios":"levelo://app?vid=7e2e7429-6a1d-4bcf-8458-892dad4cf914"},"vehicle_type_id":"4","last_reported":1753677476,"current_range_meters":17200,"station_id":"ce4bgjp2rcd13ifvqbh0","pricing_plan_id":"cebpf4jnsgd1na2vs0mg"},{"bike_id":"d4b0442d-37e3-4887-8827-87b59f4e9086","system_id":"levelo_inurba_marseille","lat":43.2977,"lon":5.38108,"is_reserved":false,"is_disabled":false,"rental_uris":{"android":"levelo://app?vid=d4b0442d-37e3-4887-8827-87b59f4e9086","ios":"levelo://app?vid=d4b0442d-37e3-4887-8827-87b59f4e9086"},"vehicle_type_id":"4","last_reported":1753677476,"current_range_meters":17200,"station_id":"","pricing_plan_id":"cebpf4jnsgd1na2vs0mg"},{"bike_id":"89c146a4-8817-42a7-a887-44ef0fb81691","system_id":"levelo_inurba_marseille","lat":43.29526,"lon":5.39039,"is_reserved":false,"is_disabled":false,"rental_uris":{"android":"levelo://app?vid=89c146a4-8817-42a7-a887-44ef0fb81691","ios":"levelo://app?vid=89c146a4-8817-42a7-a887-44ef0fb81691"},"vehicle_type_id":"4","last_reported":1753677476,"current_range_meters":17200,"station_id":"ce4bh3p2rcd13ifvqdp0","pricing_plan_id":"cebpf4jnsgd1na2vs0mg"},{"bike_id":"f297ecb0-f504-4ce2-a698-235b8f25b26b","system_id":"levelo_inurba_marseille","lat":43.241651,"lon":5.363907,"is_reserved":false,"is_disabled":true,"rental_uris":{"android":"levelo://app?vid=f297ecb0-f504-4ce2-a698-235b8f25b26b","ios":"levelo://app?vid=f297ecb0-f504-4ce2-a698-235b8f25b26b"},"vehicle_type_id":"4","last_reported":1753677476,"current_range_meters":17200,"station_id":"cpo36qri1sfpv3e86is0","pricing_plan_id":"cebpf4jnsgd1na2vs0mg"},{"bike_id":"d917bd68-be2e-43ff-96c0-7fb698f8b9ab","system_id":"levelo_inurba_marseille","lat":43.27608,"lon":5.36111,"is_reserved":false,"is_disabled":false,"rental_uris":{"android":"levelo://app?vid=d917bd68-be2e-43ff-96c0-7fb698f8b9ab","ios":"levelo://app?vid=d917bd68-be2e-43ff-96c0-7fb698f8b9ab"},"vehicle_type_id":"4","last_reported":1753677476,"current_range_meters":17200,"station_id":"ce4bgj92rcd13ifvqbe0","pricing_plan_id":"cebpf4jnsgd1na2vs0mg"},{"bike_id":"aafba76e-3da3-4ebb-9332-0bac111897c0","system_id":"levelo_inurba_marseille","lat":43.22923,"lon":5.35376,"is_reserved":false,"is_disabled":false,"rental_uris":{"android":"levelo://app?vid=aafba76e-3da3-4ebb-9332-0bac111897c0","ios":"levelo://app?vid=aafba76e-3da3-4ebb-9332-0bac111897c0"},"vehicle_type_id":"4","last_reported":1753677476,"current_range_meters":17200,"station_id":"cpo3532slgdg3j2ikp40","pricing_plan_id":"cebpf4jnsgd1na2vs0mg"},{"bike_id":"a6f194db-bdea-48da-b519-f6360e92f7cc","system_id":"levelo_inurba_marseille","lat":43.251216,"lon":5.403282,"is_reserved":false,"is_disabled":false,"rental_uris":{"android":"levelo://app?vid=a6f194db-bdea-48da-b519-f6360e92f7cc","ios":"levelo://app?vid=a6f194db-bdea-48da-b519-f6360e92f7cc"},"vehicle_type_id":"4","last_reported":1753677476,"current_range_meters":17600,"station_id":"ce4bhlh2rcd13ifvqgig","pricing_plan_id":"cebpf4jnsgd1na2vs0mg"},{"bike_id":"d549d723-8e6a-481a-81ec-bd2daa1f4f7e","system_id":"levelo_inurba_marseille","lat":43.31119,"lon":5.37755,"is_reserved":false,"is_disabled":false,"rental_uris":{"android":"levelo://app?vid=d549d723-8e6a-481a-81ec-bd2daa1f4f7e","ios":"levelo://app?vid=d549d723-8e6a-481a-81ec-bd2daa1f4f7e"},"vehicle_type_id":"4","last_reported":1753677476,"current_range_meters":17600,"station_id":"ce4bgt92rcd13ifvqcg0","pricing_plan_id":"cebpf4jnsgd1na2vs0mg"},{"bike_id":"b1eacd8d-2f03-49e9-ba92-30d9b53bc7d7","system_id":"levelo_inurba_marseille","lat":43.22522,"lon":5.34792,"is_reserved":false,"is_disabled":false,"rental_uris":{"android":"levelo://app?vid=b1eacd8d-2f03-49e9-ba92-30d9b53bc7d7","ios":"levelo://app?vid=b1eacd8d-2f03-49e9-ba92-30d9b53bc7d7"},"vehicle_type_id":"4","last_reported":1753677476,"current_range_meters":17600,"station_id":"st_cvj5dfep6f1abm77gieg","pricing_plan_id":"cebpf4jnsgd1na2vs0mg"},{"bike_id":"a3191abd-9e60-430e-94f8-6f24b12f3ba4","system_id":"levelo_inurba_marseille","lat":43.29035,"lon":5.39947,"is_reserved":false,"is_disabled":false,"rental_uris":{"android":"levelo://app?vid=a3191abd-9e60-430e-94f8-6f24b12f3ba4","ios":"levelo://app?vid=a3191abd-9e60-430e-94f8-6f24b12f3ba4"},"vehicle_type_id":"4","last_reported":1753677476,"current_range_meters":17600,"station_id":"ce4bh392rcd13ifvqdm0","pricing_plan_id":"cebpf4jnsgd1na2vs0mg"},{"bike_id":"d83c4d0a-f4a7-4c3c-b198-f78a8d9102c3","system_id":"levelo_inurba_marseille","lat":43.248125,"lon":5.374605,"is_reserved":false,"is_disabled":false,"rental_uris":{"android":"levelo://app?vid=d83c4d0a-f4a7-4c3c-b198-f78a8d9102c3","ios":"levelo://app?vid=d83c4d0a-f4a7-4c3c-b198-f78a8d9102c3"},"vehicle_type_id":"4","last_reported":1753677476,"current_range_meters":17600,"station_id":"ce4bhgh2rcd13ifvqfb0","pricing_plan_id":"cebpf4jnsgd1na2vs0mg"},{"bike_id":"0d7c85f5-c17f-4588-92f6-8a96011cddea","system_id":"levelo_inurba_marseille","lat":43.22951,"lon":5.3538,"is_reserved":false,"is_disabled":false,"rental_uris":{"android":"levelo://app?vid=0d7c85f5-c17f-4588-92f6-8a96011cddea","ios":"levelo://app?vid=0d7c85f5-c17f-4588-92f6-8a96011cddea"},"vehicle_type_id":"4","last_reported":1753677476,"current_range_meters":17600,"station_id":"cpo3532slgdg3j2ikp40","pricing_plan_id":"cebpf4jnsgd1na2vs0mg"},{"bike_id":"c54fbd5a-e3ff-48e1-891f-0213d8b031da","system_id":"levelo_inurba_marseille","lat":43.3055,"lon":5.38433,"is_reserved":false,"is_disabled":true,"rental_uris":{"android":"levelo://app?vid=c54fbd5a-e3ff-48e1-891f-0213d8b031da","ios":"levelo://app?vid=c54fbd5a-e3ff-48e1-891f-0213d8b031da"},"vehicle_type_id":"4","last_reported":1753677476,"current_range_meters":17600,"station_id":"ce4bgg92rcd13ifvqb30","pricing_plan_id":"cebpf4jnsgd1na2vs0mg"},{"bike_id":"e8484238-01bb-4df5-aead-84974bb798ab","system_id":"levelo_inurba_marseille","lat":43.265565,"lon":5.372835,"is_reserved":false,"is_disabled":false,"rental_uris":{"android":"levelo://app?vid=e8484238-01bb-4df5-aead-84974bb798ab","ios":"levelo://app?vid=e8484238-01bb-4df5-aead-84974bb798ab"},"vehicle_type_id":"4","last_reported":1753677476,"current_range_meters":17600,"station_id":"ce4bhg12rcd13ifvqf70","pricing_plan_id":"cebpf4jnsgd1na2vs0mg"},{"bike_id":"95444c0e-267e-4da4-afb4-564387f9099b","system_id":"levelo_inurba_marseille","lat":43.311226,"lon":5.37286,"is_reserved":false,"is_disabled":false,"rental_uris":{"android":"levelo://app?vid=95444c0e-267e-4da4-afb4-564387f9099b","ios":"levelo://app?vid=95444c0e-267e-4da4-afb4-564387f9099b"},"vehicle_type_id":"4","last_reported":1753677476,"current_range_meters":17600,"station_id":"","pricing_plan_id":"cebpf4jnsgd1na2vs0mg"},{"bike_id":"00bfdcd9-2af7-47d2-b953-fc883db8b693","system_id":"levelo_inurba_marseille","lat":43.22919,"lon":5.35374,"is_reserved":false,"is_disabled":false,"rental_uris":{"android":"levelo://app?vid=00bfdcd9-2af7-47d2-b953-fc883db8b693","ios":"levelo://app?vid=00bfdcd9-2af7-47d2-b953-fc883db8b693"},"vehicle_type_id":"4","last_reported":1753677476,"current_range_meters":17600,"station_id":"cpo3532slgdg3j2ikp40","pricing_plan_id":"cebpf4jnsgd1na2vs0mg"},{"bike_id":"b97ffecd-6455-4c53-ac00-08f3870ed1f7","system_id":"levelo_inurba_marseille","lat":43.30014,"lon":5.37636,"is_reserved":false,"is_disabled":false,"rental_uris":{"android":"levelo://app?vid=b97ffecd-6455-4c53-ac00-08f3870ed1f7","ios":"levelo://app?vid=b97ffecd-6455-4c53-ac00-08f3870ed1f7"},"vehicle_type_id":"4","last_reported":1753677476,"current_range_meters":17600,"station_id":"","pricing_plan_id":"cebpf4jnsgd1na2vs0mg"},{"bike_id":"b8421050-b24c-411c-ae65-78e3e1037667","system_id":"levelo_inurba_marseille","lat":43.23181,"lon":5.3999,"is_reserved":false,"is_disabled":false,"rental_uris":{"android":"levelo://app?vid=b8421050-b24c-411c-ae65-78e3e1037667","ios":"levelo://app?vid=b8421050-b24c-411c-ae65-78e3e1037667"},"vehicle_type_id":"4","last_reported":1753677476,"current_range_meters":17600,"station_id":"ce4bhn12rcd13ifvqgqg","pricing_plan_id":"cebpf4jnsgd1na2vs0mg"},{"bike_id":"52fa2f88-6678-4b0d-bdeb-77d5e9331688","system_id":"levelo_inurba_marseille","lat":43.211926,"lon":5.350793,"is_reserved":false,"is_disabled":false,"rental_uris":{"android":"levelo://app?vid=52fa2f88-6678-4b0d-bdeb-77d5e9331688","ios":"levelo://app?vid=52fa2f88-6678-4b0d-bdeb-77d5e9331688"},"vehicle_type_id":"4","last_reported":1753677476,"current_range_meters":17600,"station_id":"st_cvj6sg6p6f1abm77japg","pricing_plan_id":"cebpf4jnsgd1na2vs0mg"},{"bike_id":"19687629-77e7-45e7-89d3-794744d37e38","system_id":"levelo_inurba_marseille","lat":43.22502,"lon":5.34774,"is_reserved":false,"is_disabled":false,"rental_uris":{"android":"levelo://app?vid=19687629-77e7-45e7-89d3-794744d37e38","ios":"levelo://app?vid=19687629-77e7-45e7-89d3-794744d37e38"},"vehicle_type_id":"4","last_reported":1753677476,"current_range_meters":17600,"station_id":"st_cvj5dfep6f1abm77gieg","pricing_plan_id":"cebpf4jnsgd1na2vs0mg"},{"bike_id":"0938e41e-f961-425a-8c0f-36baf4215fb9","system_id":"levelo_inurba_marseille","lat":43.27076,"lon":5.42266,"is_reserved":false,"is_disabled":false,"rental_uris":{"android":"levelo://app?vid=0938e41e-f961-425a-8c0f-36baf4215fb9","ios":"levelo://app?vid=0938e41e-f961-425a-8c0f-36baf4215fb9"},"vehicle_type_id":"4","last_reported":1753677476,"current_range_meters":17600,"station_id":"ce4bhk92rcd13ifvqgb0","pricing_plan_id":"cebpf4jnsgd1na2vs0mg"},{"bike_id":"0cc2bd63-431a-4974-8906-4b56273f9bc6","system_id":"levelo_inurba_marseille","lat":43.27495,"lon":5.42454,"is_reserved":false,"is_disabled":true,"rental_uris":{"android":"levelo://app?vid=0cc2bd63-431a-4974-8906-4b56273f9bc6","ios":"levelo://app?vid=0cc2bd63-431a-4974-8906-4b56273f9bc6"},"vehicle_type_id":"4","last_reported":1753677476,"current_range_meters":18000,"station_id":"ce4bhn92rcd13ifvqgrg","pricing_plan_id":"cebpf4jnsgd1na2vs0mg"},{"bike_id":"0e1237ef-37bc-4107-9dee-51aef505e7fb","system_id":"levelo_inurba_marseille","lat":43.299145,"lon":5.380864,"is_reserved":false,"is_disabled":false,"rental_uris":{"android":"levelo://app?vid=0e1237ef-37bc-4107-9dee-51aef505e7fb","ios":"levelo://app?vid=0e1237ef-37bc-4107-9dee-51aef505e7fb"},"vehicle_type_id":"4","last_reported":1753677476,"current_range_meters":18000,"station_id":"","pricing_plan_id":"cebpf4jnsgd1na2vs0mg"},{"bike_id":"e297a297-2b88-4838-9156-699906454526","system_id":"levelo_inurba_marseille","lat":43.2696,"lon":5.40536,"is_reserved":false,"is_disabled":false,"rental_uris":{"android":"levelo://app?vid=e297a297-2b88-4838-9156-699906454526","ios":"levelo://app?vid=e297a297-2b88-4838-9156-699906454526"},"vehicle_type_id":"4","last_reported":1753677476,"current_range_meters":18000,"station_id":"","pricing_plan_id":"cebpf4jnsgd1na2vs0mg"},{"bike_id":"1d599ca9-96fe-4939-8af9-7954ed58ad38","system_id":"levelo_inurba_marseille","lat":43.23563,"lon":5.35993,"is_reserved":false,"is_disabled":false,"rental_uris":{"android":"levelo://app?vid=1d599ca9-96fe-4939-8af9-7954ed58ad38","ios":"levelo://app?vid=1d599ca9-96fe-4939-8af9-7954ed58ad38"},"vehicle_type_id":"4","last_reported":1753677476,"current_range_meters":18000,"station_id":"","pricing_plan_id":"cebpf4jnsgd1na2vs0mg"},{"bike_id":"85eed1b8-a96c-402d-957f-3eefeff17436","system_id":"levelo_inurba_marseille","lat":43.294477,"lon":5.397519,"is_reserved":false,"is_disabled":false,"rental_uris":{"android":"levelo://app?vid=85eed1b8-a96c-402d-957f-3eefeff17436","ios":"levelo://app?vid=85eed1b8-a96c-402d-957f-3eefeff17436"},"vehicle_type_id":"4","last_reported":1753677476,"current_range_meters":18000,"station_id":"ce4bh3h2rcd13ifvqdo0","pricing_plan_id":"cebpf4jnsgd1na2vs0mg"},{"bike_id":"32826f34-8228-4d4b-815c-cc490d99eb72","system_id":"levelo_inurba_marseille","lat":43.225088,"lon":5.347758,"is_reserved":false,"is_disabled":false,"rental_uris":{"android":"levelo://app?vid=32826f34-8228-4d4b-815c-cc490d99eb72","ios":"levelo://app?vid=32826f34-8228-4d4b-815c-cc490d99eb72"},"vehicle_type_id":"4","last_reported":1753677476,"current_range_meters":18000,"station_id":"st_cvj5dfep6f1abm77gieg","pricing_plan_id":"cebpf4jnsgd1na2vs0mg"},{"bike_id":"f801b9b7-6faa-40b8-bb93-da0eb773ea5a","system_id":"levelo_inurba_marseille","lat":43.33779,"lon":5.37417,"is_reserved":false,"is_disabled":false,"rental_uris":{"android":"levelo://app?vid=f801b9b7-6faa-40b8-bb93-da0eb773ea5a","ios":"levelo://app?vid=f801b9b7-6faa-40b8-bb93-da0eb773ea5a"},"vehicle_type_id":"4","last_reported":1753677476,"current_range_meters":18000,"station_id":"","pricing_plan_id":"cebpf4jnsgd1na2vs0mg"},{"bike_id":"84e40d1d-fbce-42d3-858b-571a4ec2b3c7","system_id":"levelo_inurba_marseille","lat":43.24661,"lon":5.38164,"is_reserved":false,"is_disabled":false,"rental_uris":{"android":"levelo://app?vid=84e40d1d-fbce-42d3-858b-571a4ec2b3c7","ios":"levelo://app?vid=84e40d1d-fbce-42d3-858b-571a4ec2b3c7"},"vehicle_type_id":"4","last_reported":1753677476,"current_range_meters":18000,"station_id":"ce4bhih2rcd13ifvqfr0","pricing_plan_id":"cebpf4jnsgd1na2vs0mg"},{"bike_id":"26b687e4-f020-464e-a0a2-61bd002465a3","system_id":"levelo_inurba_marseille","lat":43.31729,"lon":5.40463,"is_reserved":false,"is_disabled":false,"rental_uris":{"android":"levelo://app?vid=26b687e4-f020-464e-a0a2-61bd002465a3","ios":"levelo://app?vid=26b687e4-f020-464e-a0a2-61bd002465a3"},"vehicle_type_id":"4","last_reported":1753677476,"current_range_meters":18000,"station_id":"","pricing_plan_id":"cebpf4jnsgd1na2vs0mg"},{"bike_id":"13bba88d-5595-43d7-b2f8-82d7fb0e2281","system_id":"levelo_inurba_marseille","lat":43.31072,"lon":5.38354,"is_reserved":false,"is_disabled":false,"rental_uris":{"android":"levelo://app?vid=13bba88d-5595-43d7-b2f8-82d7fb0e2281","ios":"levelo://app?vid=13bba88d-5595-43d7-b2f8-82d7fb0e2281"},"vehicle_type_id":"4","last_reported":1753677476,"current_range_meters":18000,"station_id":"ce4bgv92rcd13ifvqcr0","pricing_plan_id":"cebpf4jnsgd1na2vs0mg"},{"bike_id":"7d0bc366-7472-4dec-a2f3-a1ab117a465c","system_id":"levelo_inurba_marseille","lat":43.322918,"lon":5.382779,"is_reserved":false,"is_disabled":false,"rental_uris":{"android":"levelo://app?vid=7d0bc366-7472-4dec-a2f3-a1ab117a465c","ios":"levelo://app?vid=7d0bc366-7472-4dec-a2f3-a1ab117a465c"},"vehicle_type_id":"4","last_reported":1753677476,"current_range_meters":18000,"station_id":"ce4bhr12rcd13ifvqhqg","pricing_plan_id":"cebpf4jnsgd1na2vs0mg"},{"bike_id":"225672e7-e80a-40e4-a235-b2b29fa834a7","system_id":"levelo_inurba_marseille","lat":43.2931,"lon":5.37193,"is_reserved":false,"is_disabled":true,"rental_uris":{"android":"levelo://app?vid=225672e7-e80a-40e4-a235-b2b29fa834a7","ios":"levelo://app?vid=225672e7-e80a-40e4-a235-b2b29fa834a7"},"vehicle_type_id":"4","last_reported":1753677476,"current_range_meters":18000,"station_id":"ce4bgh92rcd13ifvqb40","pricing_plan_id":"cebpf4jnsgd1na2vs0mg"},{"bike_id":"c6f2fc29-a9f9-4da2-b40f-9336b7527f76","system_id":"levelo_inurba_marseille","lat":43.276693,"lon":5.388883,"is_reserved":false,"is_disabled":true,"rental_uris":{"android":"levelo://app?vid=c6f2fc29-a9f9-4da2-b40f-9336b7527f76","ios":"levelo://app?vid=c6f2fc29-a9f9-4da2-b40f-9336b7527f76"},"vehicle_type_id":"4","last_reported":1753677476,"current_range_meters":18800,"station_id":"ce4bhi12rcd13ifvqfo0","pricing_plan_id":"cebpf4jnsgd1na2vs0mg"},{"bike_id":"c2bd9b61-3126-451f-a98c-4b7de11fc11a","system_id":"levelo_inurba_marseille","lat":43.31073,"lon":5.3836,"is_reserved":false,"is_disabled":false,"rental_uris":{"android":"levelo://app?vid=c2bd9b61-3126-451f-a98c-4b7de11fc11a","ios":"levelo://app?vid=c2bd9b61-3126-451f-a98c-4b7de11fc11a"},"vehicle_type_id":"4","last_reported":1753677476,"current_range_meters":18800,"station_id":"ce4bgv92rcd13ifvqcr0","pricing_plan_id":"cebpf4jnsgd1na2vs0mg"},{"bike_id":"67b5cd53-992d-41ae-a413-a993585de71f","system_id":"levelo_inurba_marseille","lat":43.257278,"lon":5.411098,"is_reserved":false,"is_disabled":false,"rental_uris":{"android":"levelo://app?vid=67b5cd53-992d-41ae-a413-a993585de71f","ios":"levelo://app?vid=67b5cd53-992d-41ae-a413-a993585de71f"},"vehicle_type_id":"4","last_reported":1753677476,"current_range_meters":18800,"station_id":"ce4bhkp2rcd13ifvqgd0","pricing_plan_id":"cebpf4jnsgd1na2vs0mg"},{"bike_id":"3c907c85-8250-4758-b11d-34417c7b24c7","system_id":"levelo_inurba_marseille","lat":43.26949,"lon":5.3867,"is_reserved":false,"is_disabled":false,"rental_uris":{"android":"levelo://app?vid=3c907c85-8250-4758-b11d-34417c7b24c7","ios":"levelo://app?vid=3c907c85-8250-4758-b11d-34417c7b24c7"},"vehicle_type_id":"4","last_reported":1753677476,"current_range_meters":18800,"station_id":"ce4bhh92rcd13ifvqfh0","pricing_plan_id":"cebpf4jnsgd1na2vs0mg"},{"bike_id":"1c578d96-6915-4ab9-b885-c41c07cbf15f","system_id":"levelo_inurba_marseille","lat":43.321165,"lon":5.367598,"is_reserved":false,"is_disabled":false,"rental_uris":{"android":"levelo://app?vid=1c578d96-6915-4ab9-b885-c41c07cbf15f","ios":"levelo://app?vid=1c578d96-6915-4ab9-b885-c41c07cbf15f"},"vehicle_type_id":"4","last_reported":1753677476,"current_range_meters":18800,"station_id":"ce4bhrh2rcd13ifvqhug","pricing_plan_id":"cebpf4jnsgd1na2vs0mg"},{"bike_id":"350fe5ea-f5e0-4bba-817e-8fe113627c09","system_id":"levelo_inurba_marseille","lat":43.30467,"lon":5.37899,"is_reserved":false,"is_disabled":false,"rental_uris":{"android":"levelo://app?vid=350fe5ea-f5e0-4bba-817e-8fe113627c09","ios":"levelo://app?vid=350fe5ea-f5e0-4bba-817e-8fe113627c09"},"vehicle_type_id":"4","last_reported":1753677476,"current_range_meters":18800,"station_id":"ce4bgup2rcd13ifvqcn0","pricing_plan_id":"cebpf4jnsgd1na2vs0mg"},{"bike_id":"397f1b1a-b168-47c8-ba4c-3955d2c6b4b3","system_id":"levelo_inurba_marseille","lat":43.29202,"lon":5.393134,"is_reserved":false,"is_disabled":true,"rental_uris":{"android":"levelo://app?vid=397f1b1a-b168-47c8-ba4c-3955d2c6b4b3","ios":"levelo://app?vid=397f1b1a-b168-47c8-ba4c-3955d2c6b4b3"},"vehicle_type_id":"4","last_reported":1753677476,"current_range_meters":19200,"station_id":"ce4bh192rcd13ifvqdd0","pricing_plan_id":"cebpf4jnsgd1na2vs0mg"},{"bike_id":"c1ea8c27-ebd2-4d7f-81c9-ce783e28db7f","system_id":"levelo_inurba_marseille","lat":43.28358,"lon":5.38101,"is_reserved":false,"is_disabled":false,"rental_uris":{"android":"levelo://app?vid=c1ea8c27-ebd2-4d7f-81c9-ce783e28db7f","ios":"levelo://app?vid=c1ea8c27-ebd2-4d7f-81c9-ce783e28db7f"},"vehicle_type_id":"4","last_reported":1753677476,"current_range_meters":19200,"station_id":"ce4bh412rcd13ifvqdr0","pricing_plan_id":"cebpf4jnsgd1na2vs0mg"},{"bike_id":"a9d660bc-d338-46f2-a5de-d3195c07e40d","system_id":"levelo_inurba_marseille","lat":43.240722,"lon":5.377513,"is_reserved":false,"is_disabled":false,"rental_uris":{"android":"levelo://app?vid=a9d660bc-d338-46f2-a5de-d3195c07e40d","ios":"levelo://app?vid=a9d660bc-d338-46f2-a5de-d3195c07e40d"},"vehicle_type_id":"4","last_reported":1753677476,"current_range_meters":19200,"station_id":"ce4bhnp2rcd13ifvqgvg","pricing_plan_id":"cebpf4jnsgd1na2vs0mg"},{"bike_id":"89ab8d10-79e7-44e3-9c2b-0f9a6fbbe938","system_id":"levelo_inurba_marseille","lat":43.24178,"lon":5.39726,"is_reserved":false,"is_disabled":false,"rental_uris":{"android":"levelo://app?vid=89ab8d10-79e7-44e3-9c2b-0f9a6fbbe938","ios":"levelo://app?vid=89ab8d10-79e7-44e3-9c2b-0f9a6fbbe938"},"vehicle_type_id":"4","last_reported":1753677476,"current_range_meters":19200,"station_id":"ce4bhn12rcd13ifvqgpg","pricing_plan_id":"cebpf4jnsgd1na2vs0mg"},{"bike_id":"18d9d1bb-3481-4fe6-8e41-40913fa9f69c","system_id":"levelo_inurba_marseille","lat":43.24814,"lon":5.37463,"is_reserved":false,"is_disabled":true,"rental_uris":{"android":"levelo://app?vid=18d9d1bb-3481-4fe6-8e41-40913fa9f69c","ios":"levelo://app?vid=18d9d1bb-3481-4fe6-8e41-40913fa9f69c"},"vehicle_type_id":"4","last_reported":1753677476,"current_range_meters":19200,"station_id":"ce4bhgh2rcd13ifvqfb0","pricing_plan_id":"cebpf4jnsgd1na2vs0mg"},{"bike_id":"4bfaa48f-84dd-4da8-8f81-81b4a794ffc8","system_id":"levelo_inurba_marseille","lat":43.244032,"lon":5.370527,"is_reserved":false,"is_disabled":true,"rental_uris":{"android":"levelo://app?vid=4bfaa48f-84dd-4da8-8f81-81b4a794ffc8","ios":"levelo://app?vid=4bfaa48f-84dd-4da8-8f81-81b4a794ffc8"},"vehicle_type_id":"4","last_reported":1753677476,"current_range_meters":19200,"station_id":"ce4bhhh2rcd13ifvqfk0","pricing_plan_id":"cebpf4jnsgd1na2vs0mg"},{"bike_id":"1b7f1e1d-55f5-40ca-a77d-d5a56a9a151c","system_id":"levelo_inurba_marseille","lat":43.257184,"lon":5.411152,"is_reserved":false,"is_disabled":false,"rental_uris":{"android":"levelo://app?vid=1b7f1e1d-55f5-40ca-a77d-d5a56a9a151c","ios":"levelo://app?vid=1b7f1e1d-55f5-40ca-a77d-d5a56a9a151c"},"vehicle_type_id":"4","last_reported":1753677476,"current_range_meters":19200,"station_id":"ce4bhkp2rcd13ifvqgd0","pricing_plan_id":"cebpf4jnsgd1na2vs0mg"},{"bike_id":"76b8b2b8-795e-41bc-9137-fc321c4ea389","system_id":"levelo_inurba_marseille","lat":43.292519,"lon":5.409194,"is_reserved":false,"is_disabled":false,"rental_uris":{"android":"levelo://app?vid=76b8b2b8-795e-41bc-9137-fc321c4ea389","ios":"levelo://app?vid=76b8b2b8-795e-41bc-9137-fc321c4ea389"},"vehicle_type_id":"4","last_reported":1753677476,"current_range_meters":19600,"station_id":"ce4bh192rcd13ifvqdc0","pricing_plan_id":"cebpf4jnsgd1na2vs0mg"},{"bike_id":"31b5c131-9972-4112-bdea-ad11d6e47c40","system_id":"levelo_inurba_marseille","lat":43.28259,"lon":5.35087,"is_reserved":false,"is_disabled":false,"rental_uris":{"android":"levelo://app?vid=31b5c131-9972-4112-bdea-ad11d6e47c40","ios":"levelo://app?vid=31b5c131-9972-4112-bdea-ad11d6e47c40"},"vehicle_type_id":"4","last_reported":1753677476,"current_range_meters":19600,"station_id":"ce4bhbp2rcd13ifvqerg","pricing_plan_id":"cebpf4jnsgd1na2vs0mg"},{"bike_id":"30f819c8-5d98-4503-a5c8-fc3e736c0c3a","system_id":"levelo_inurba_marseille","lat":43.25109,"lon":5.40347,"is_reserved":false,"is_disabled":false,"rental_uris":{"android":"levelo://app?vid=30f819c8-5d98-4503-a5c8-fc3e736c0c3a","ios":"levelo://app?vid=30f819c8-5d98-4503-a5c8-fc3e736c0c3a"},"vehicle_type_id":"4","last_reported":1753677476,"current_range_meters":19600,"station_id":"ce4bhlh2rcd13ifvqgig","pricing_plan_id":"cebpf4jnsgd1na2vs0mg"},{"bike_id":"fd248408-3b2b-465e-833f-4b886afbaa3e","system_id":"levelo_inurba_marseille","lat":43.23194,"lon":5.35555,"is_reserved":false,"is_disabled":false,"rental_uris":{"android":"levelo://app?vid=fd248408-3b2b-465e-833f-4b886afbaa3e","ios":"levelo://app?vid=fd248408-3b2b-465e-833f-4b886afbaa3e"},"vehicle_type_id":"4","last_reported":1753677476,"current_range_meters":19600,"station_id":"ce4bhu92rcd13ifvqi70","pricing_plan_id":"cebpf4jnsgd1na2vs0mg"},{"bike_id":"0429f703-0dbd-480e-8dec-a1494d5cc695","system_id":"levelo_inurba_marseille","lat":43.28604,"lon":5.37047,"is_reserved":false,"is_disabled":false,"rental_uris":{"android":"levelo://app?vid=0429f703-0dbd-480e-8dec-a1494d5cc695","ios":"levelo://app?vid=0429f703-0dbd-480e-8dec-a1494d5cc695"},"vehicle_type_id":"4","last_reported":1753677476,"current_range_meters":19600,"station_id":"ce4bht12rcd13ifvqi60","pricing_plan_id":"cebpf4jnsgd1na2vs0mg"},{"bike_id":"d9994a40-4e43-42c7-94c7-297c15452c35","system_id":"levelo_inurba_marseille","lat":43.27379,"lon":5.36219,"is_reserved":false,"is_disabled":true,"rental_uris":{"android":"levelo://app?vid=d9994a40-4e43-42c7-94c7-297c15452c35","ios":"levelo://app?vid=d9994a40-4e43-42c7-94c7-297c15452c35"},"vehicle_type_id":"4","last_reported":1753677476,"current_range_meters":19600,"station_id":"ce4bhbh2rcd13ifvqeo0","pricing_plan_id":"cebpf4jnsgd1na2vs0mg"},{"bike_id":"a6b8e8a8-5ea4-4ead-b0bd-99b24e9d82cc","system_id":"levelo_inurba_marseille","lat":43.31402,"lon":5.37636,"is_reserved":false,"is_disabled":false,"rental_uris":{"android":"levelo://app?vid=a6b8e8a8-5ea4-4ead-b0bd-99b24e9d82cc","ios":"levelo://app?vid=a6b8e8a8-5ea4-4ead-b0bd-99b24e9d82cc"},"vehicle_type_id":"4","last_reported":1753677476,"current_range_meters":19600,"station_id":"","pricing_plan_id":"cebpf4jnsgd1na2vs0mg"},{"bike_id":"689015a7-e0f6-4117-b5af-baff9d8adcd8","system_id":"levelo_inurba_marseille","lat":43.28514,"lon":5.38545,"is_reserved":false,"is_disabled":false,"rental_uris":{"android":"levelo://app?vid=689015a7-e0f6-4117-b5af-baff9d8adcd8","ios":"levelo://app?vid=689015a7-e0f6-4117-b5af-baff9d8adcd8"},"vehicle_type_id":"4","last_reported":1753677476,"current_range_meters":19600,"station_id":"ce4bh8p2rcd13ifvqeb0","pricing_plan_id":"cebpf4jnsgd1na2vs0mg"},