{"last_updated":1732612262,"ttl":60,"version":"2.2","data":{"bikes":[{"bike_id":"d9c28aa4-81a4-4d13-8fc9-100bb4e3d7e2","system_id":"levelo_inurba_marseille","lat":43.27412,"lon":5.38954,"is_reserved":false,"is_disabled":true,"rental_uris":{"android":"levelo://app?vid=d9c28aa4-81a4-4d13-8fc9-100bb4e3d7e2","ios":"levelo://app?vid=d9c28aa4-81a4-4d13-8fc9-100bb4e3d7e2"},"vehicle_type_id":"4","last_reported":1732612263,"current_range_meters":400,"station_id":"","pricing_plan_id":"cebpf4jnsgd1na2vs0mg"},{"bike_id":"fee3d4ba-9618-44cf-a815-ceaffeb1839b","system_id":"levelo_inurba_marseille","lat":43.29848,"lon":5.36276,"is_reserved":false,"is_disabled":false,"rental_uris":{"android":"levelo://app?vid=fee3d4ba-9618-44cf-a815-ceaffeb1839b","ios":"levelo://app?vid=fee3d4ba-9618-44cf-a815-ceaffeb1839b"},"vehicle_type_id":"4","last_reported":1732612263,"current_range_meters":26000,"station_id":"ce4bgpp2rcd13ifvqc3g","pricing_plan_id":"cebpf4jnsgd1na2vs0mg"},{"bike_id":"bbf38588-e4ec-464f-8565-aee639ceeeba","system_id":"levelo_inurba_marseille","lat":43.24081,"lon":5.37749,"is_reserved":false,"is_disabled":false,"rental_uris":{"android":"levelo://app?vid=bbf38588-e4ec-464f-8565-aee639ceeeba","ios":"levelo://app?vid=bbf38588-e4ec-464f-8565-aee639ceeeba"},"vehicle_type_id":"4","last_reported":1732612263,"current_range_meters":8800,"station_id":"ce4bhnp2rcd13ifvqgvg","pricing_plan_id":"cebpf4jnsgd1na2vs0mg"},{"bike_id":"0cdb76ca-4f28-47de-a451-d6d1d0a7e5d7","system_id":"levelo_inurba_marseille","lat":43.3414,"lon":5.40908,"is_reserved":false,"is_disabled":false,"rental_uris":{"android":"levelo://app?vid=0cdb76ca-4f28-47de-a451-d6d1d0a7e5d7","ios":"levelo://app?vid=0cdb76ca-4f28-47de-a451-d6d1d0a7e5d7"},"vehicle_type_id":"4","last_reported":1732612263,"current_range_meters":13600,"station_id":"ce4bhqh2rcd13ifvqhlg","pricing_plan_id":"cebpf4jnsgd1na2vs0mg"},{"bike_id":"73882917-df48-449f-88f7-e6917c4dd6f9","system_id":"levelo_inurba_marseille","lat":43.31349,"lon":5.36717,"is_reserved":false,"is_disabled":false,"rental_uris":{"android":"levelo://app?vid=73882917-df48-449f-88f7-e6917c4dd6f9","ios":"levelo://app?vid=73882917-df48-449f-88f7-e6917c4dd6f9"},"vehicle_type_id":"4","last_reported":1732612263,"current_range_meters":26800,"station_id":"ce4bgr92rcd13ifvqc6g","pricing_plan_id":"cebpf4jnsgd1na2vs0mg"},{"bike_id":"3b5d359f-2177-47e3-8926-ad81c70bf5cf","system_id":"levelo_inurba_marseille","lat":43.32544,"lon":5.41429,"is_reserved":false,"is_disabled":false,"rental_uris":{"android":"levelo://app?vid=3b5d359f-2177-47e3-8926-ad81c70bf5cf","ios":"levelo://app?vid=3b5d359f-2177-47e3-8926-ad81c70bf5cf"},"vehicle_type_id":"4","last_reported":1732612263,"current_range_meters":39200,"station_id":"ce4bhq12rcd13ifvqhhg","pricing_plan_id":"cebpf4jnsgd1na2vs0mg"},{"bike_id":"b5c101e1-e4fd-4456-bc79-a51d756a2bc9","system_id":"levelo_inurba_marseille","lat":43.28447,"lon":5.39195,"is_reserved":false,"is_disabled":true,"rental_uris":{"android":"levelo://app?vid=b5c101e1-e4fd-4456-bc79-a51d756a2bc9","ios":"levelo://app?vid=b5c101e1-e4fd-4456-bc79-a51d756a2bc9"},"vehicle_type_id":"4","last_reported":1732612263,"current_range_meters":27200,"station_id":"ce4bhoh2rcd13ifvqh5g","pricing_plan_id":"cebpf4jnsgd1na2vs0mg"},{"bike_id":"573a48ed-5c69-476f-8216-366227186e18","system_id":"levelo_inurba_marseille","lat":43.23544,"lon":5.39899,"is_reserved":false,"is_disabled":true,"rental_uris":{"android":"levelo://app?vid=573a48ed-5c69-476f-8216-366227186e18","ios":"levelo://app?vid=573a48ed-5c69-476f-8216-366227186e18"},"vehicle_type_id":"4","last_reported":1732612263,"current_range_meters":0,"station_id":"","pricing_plan_id":"cebpf4jnsgd1na2vs0mg"},{"bike_id":"cdfca92b-e20a-48b9-97eb-ccd390476149","system_id":"levelo_inurba_marseille","lat":43.301452,"lon":5.380793,"is_reserved":false,"is_disabled":false,"rental_uris":{"android":"levelo://app?vid=cdfca92b-e20a-48b9-97eb-ccd390476149","ios":"levelo://app?vid=cdfca92b-e20a-48b9-97eb-ccd390476149"},"vehicle_type_id":"4","last_reported":1732612263,"current_range_meters":33600,"station_id":"ce4bgjp2rcd13ifvqbh0","pricing_plan_id":"cebpf4jnsgd1na2vs0mg"},{"bike_id":"61ae9948-e0e5-4ce3-b06a-504522b4bbcc","system_id":"levelo_inurba_marseille","lat":43.32363,"lon":5.388862,"is_reserved":false,"is_disabled":false,"rental_uris":{"android":"levelo://app?vid=61ae9948-e0e5-4ce3-b06a-504522b4bbcc","ios":"levelo://app?vid=61ae9948-e0e5-4ce3-b06a-504522b4bbcc"},"vehicle_type_id":"4","last_reported":1732612263,"current_range_meters":20800,"station_id":"ce4bhqp2rcd13ifvqhog","pricing_plan_id":"cebpf4jnsgd1na2vs0mg"},{"bike_id":"6d5f4fae-cf02-451a-8d6f-89849b98eec3","system_id":"levelo_inurba_marseille","lat":43.3134,"lon":5.36714,"is_reserved":false,"is_disabled":false,"rental_uris":{"android":"levelo://app?vid=6d5f4fae-cf02-451a-8d6f-89849b98eec3","ios":"levelo://app?vid=6d5f4fae-cf02-451a-8d6f-89849b98eec3"},"vehicle_type_id":"4","last_reported":1732612263,"current_range_meters":10800,"station_id":"ce4bgr92rcd13ifvqc6g","pricing_plan_id":"cebpf4jnsgd1na2vs0mg"},{"bike_id":"3fe96115-e722-4e5a-9d4b-67417f09fabe","system_id":"levelo_inurba_marseille","lat":43.26949,"lon":5.38629,"is_reserved":false,"is_disabled":false,"rental_uris":{"android":"levelo://app?vid=3fe96115-e722-4e5a-9d4b-67417f09fabe","ios":"levelo://app?vid=3fe96115-e722-4e5a-9d4b-67417f09fabe"},"vehicle_type_id":"4","last_reported":1732612263,"current_range_meters":38800,"station_id":"ce4bhh92rcd13ifvqfh0","pricing_plan_id":"cebpf4jnsgd1na2vs0mg"},{"bike_id":"24be7068-a66e-46bc-9f96-e0cdbfd135fc","system_id":"levelo_inurba_marseille","lat":43.26507,"lon":5.39532,"is_reserved":false,"is_disabled":false,"rental_uris":{"android":"levelo://app?vid=24be7068-a66e-46bc-9f96-e0cdbfd135fc","ios":"levelo://app?vid=24be7068-a66e-46bc-9f96-e0cdbfd135fc"},"vehicle_type_id":"4","last_reported":1732612263,"current_range_meters":5600,"station_id":"ce4bhi12rcd13ifvqfq0","pricing_plan_id":"cebpf4jnsgd1na2vs0mg"},{"bike_id":"6a27fcfa-d1e6-4f56-9cf3-b6a7e19e0669","system_id":"levelo_inurba_marseille","lat":43.31358,"lon":5.367,"is_reserved":false,"is_disabled":false,"rental_uris":{"android":"levelo://app?vid=6a27fcfa-d1e6-4f56-9cf3-b6a7e19e0669","ios":"levelo://app?vid=6a27fcfa-d1e6-4f56-9cf3-b6a7e19e0669"},"vehicle_type_id":"4","last_reported":1732612263,"current_range_meters":35600,"station_id":"ce4bgr92rcd13ifvqc6g","pricing_plan_id":"cebpf4jnsgd1na2vs0mg"},{"bike_id":"f04824cb-3df1-426e-9df0-6ea22b35ffb7","system_id":"levelo_inurba_marseille","lat":43.23187,"lon":5.39978,"is_reserved":false,"is_disabled":false,"rental_uris":{"android":"levelo://app?vid=f04824cb-3df1-426e-9df0-6ea22b35ffb7","ios":"levelo://app?vid=f04824cb-3df1-426e-9df0-6ea22b35ffb7"},"vehicle_type_id":"4","last_reported":1732612263,"current_range_meters":38800,"station_id":"ce4bhn12rcd13ifvqgqg","pricing_plan_id":"cebpf4jnsgd1na2vs0mg"},{"bike_id":"117a2e50-51a9-48b6-ab8e-6d947c0452b8","system_id":"levelo_inurba_marseille","lat":43.27075,"lon":5.42279,"is_reserved":false,"is_disabled":false,"rental_uris":{"android":"levelo://app?vid=117a2e50-51a9-48b6-ab8e-6d947c0452b8","ios":"levelo://app?vid=117a2e50-51a9-48b6-ab8e-6d947c0452b8"},"vehicle_type_id":"4","last_reported":1732612263,"current_range_meters":33600,"station_id":"ce4bhk92rcd13ifvqgb0","pricing_plan_id":"cebpf4jnsgd1na2vs0mg"},{"bike_id":"38e5dd59-c780-4856-8550-b20273f4e496","system_id":"levelo_inurba_marseille","lat":43.30426,"lon":5.38907,"is_reserved":false,"is_disabled":true,"rental_uris":{"android":"levelo://app?vid=38e5dd59-c780-4856-8550-b20273f4e496","ios":"levelo://app?vid=38e5dd59-c780-4856-8550-b20273f4e496"},"vehicle_type_id":"4","last_reported":1732612263,"current_range_meters":26800,"station_id":"ce4bgk12rcd13ifvqbi0","pricing_plan_id":"cebpf4jnsgd1na2vs0mg"},{"bike_id":"2231c890-82b1-4fb4-b0d7-5edbe090c957","system_id":"levelo_inurba_marseille","lat":43.24996,"lon":5.38931,"is_reserved":false,"is_disabled":false,"rental_uris":{"android":"levelo://app?vid=2231c890-82b1-4fb4-b0d7-5edbe090c957","ios":"levelo://app?vid=2231c890-82b1-4fb4-b0d7-5edbe090c957"},"vehicle_type_id":"4","last_reported":1732612263,"current_range_meters":22800,"station_id":"ce4bhgp2rcd13ifvqfd0","pricing_plan_id":"cebpf4jnsgd1na2vs0mg"},{"bike_id":"39b11e64-2962-470f-8250-90fe18d4a5f4","system_id":"levelo_inurba_marseille","lat":43.24763,"lon":5.39235,"is_reserved":false,"is_disabled":true,"rental_uris":{"android":"levelo://app?vid=39b11e64-2962-470f-8250-90fe18d4a5f4","ios":"levelo://app?vid=39b11e64-2962-470f-8250-90fe18d4a5f4"},"vehicle_type_id":"4","last_reported":1732612263,"current_range_meters":0,"station_id":"","pricing_plan_id":"cebpf4jnsgd1na2vs0mg"},{"bike_id":"aed7c061-603f-4b29-8231-b37516d48f15","system_id":"levelo_inurba_marseille","lat":43.25927,"lon":5.40904,"is_reserved":false,"is_disabled":true,"rental_uris":{"android":"levelo://app?vid=aed7c061-603f-4b29-8231-b37516d48f15","ios":"levelo://app?vid=aed7c061-603f-4b29-8231-b37516d48f15"},"vehicle_type_id":"4","last_reported":1732612263,"current_range_meters":29600,"station_id":"ce4bhm92rcd13ifvqglg","pricing_plan_id":"cebpf4jnsgd1na2vs0mg"},{"bike_id":"1ee32eab-7ab2-4fea-92ec-e5d7240b6060","system_id":"levelo_inurba_marseille","lat":43.24072,"lon":5.37759,"is_reserved":false,"is_disabled":true,"rental_uris":{"android":"levelo://app?vid=1ee32eab-7ab2-4fea-92ec-e5d7240b6060","ios":"levelo://app?vid=1ee32eab-7ab2-4fea-92ec-e5d7240b6060"},"vehicle_type_id":"4","last_reported":1732612263,"current_range_meters":0,"station_id":"ce4bhnp2rcd13ifvqgvg","pricing_plan_id":"cebpf4jnsgd1na2vs0mg"},{"bike_id":"aa770a1c-f99e-44f7-987e-e910bd35ee9d","system_id":"levelo_inurba_marseille","lat":43.2466,"lon":5.38161,"is_reserved":false,"is_disabled":false,"rental_uris":{"android":"levelo://app?vid=aa770a1c-f99e-44f7-987e-e910bd35ee9d","ios":"levelo://app?vid=aa770a1c-f99e-44f7-987e-e910bd35ee9d"},"vehicle_type_id":"4","last_reported":1732612263,"current_range_meters":8800,"station_id":"ce4bhih2rcd13ifvqfr0","pricing_plan_id":"cebpf4jnsgd1na2vs0mg"},{"bike_id":"eaf4e965-affa-4310-a30d-226336391251","system_id":"levelo_inurba_marseille","lat":43.31995,"lon":5.38166,"is_reserved":false,"is_disabled":false,"rental_uris":{"android":"levelo://app?vid=eaf4e965-affa-4310-a30d-226336391251","ios":"levelo://app?vid=eaf4e965-affa-4310-a30d-226336391251"},"vehicle_type_id":"4","last_reported":1732612263,"current_range_meters":28000,"station_id":"ce4bhr12rcd13ifvqhpg","pricing_plan_id":"cebpf4jnsgd1na2vs0mg"},{"bike_id":"632a5034-6c44-4f35-baf9-5e4192764222","system_id":"levelo_inurba_marseille","lat":43.26065,"lon":5.39393,"is_reserved":false,"is_disabled":false,"rental_uris":{"android":"levelo://app?vid=632a5034-6c44-4f35-baf9-5e4192764222","ios":"levelo://app?vid=632a5034-6c44-4f35-baf9-5e4192764222"},"vehicle_type_id":"4","last_reported":1732612263,"current_range_meters":18800,"station_id":"ce4bhh92rcd13ifvqfj0","pricing_plan_id":"cebpf4jnsgd1na2vs0mg"},{"bike_id":"436dd976-416d-469e-afba-0c5538b79c29","system_id":"levelo_inurba_marseille","lat":43.252,"lon":5.39121,"is_reserved":false,"is_disabled":true,"rental_uris":{"android":"levelo://app?vid=436dd976-416d-469e-afba-0c5538b79c29","ios":"levelo://app?vid=436dd976-416d-469e-afba-0c5538b79c29"},"vehicle_type_id":"4","last_reported":1732612263,"current_range_meters":0,"station_id":"","pricing_plan_id":"cebpf4jnsgd1na2vs0mg"},{"bike_id":"50675353-73d1-4b47-b4fa-e7f0275cf72e","system_id":"levelo_inurba_marseille","lat":43.30909,"lon":5.3685,"is_reserved":false,"is_disabled":false,"rental_uris":{"android":"levelo://app?vid=50675353-73d1-4b47-b4fa-e7f0275cf72e","ios":"levelo://app?vid=50675353-73d1-4b47-b4fa-e7f0275cf72e"},"vehicle_type_id":"4","last_reported":1732612263,"current_range_meters":35600,"station_id":"ce4bgn92rcd13ifvqbvg","pricing_plan_id":"cebpf4jnsgd1na2vs0mg"},{"bike_id":"26ec1a22-5020-45e4-ab45-512c7f67d5dd","system_id":"levelo_inurba_marseille","lat":43.32061,"lon":5.41574,"is_reserved":false,"is_disabled":true,"rental_uris":{"android":"levelo://app?vid=26ec1a22-5020-45e4-ab45-512c7f67d5dd","ios":"levelo://app?vid=26ec1a22-5020-45e4-ab45-512c7f67d5dd"},"vehicle_type_id":"4","last_reported":1732612263,"current_range_meters":38800,"station_id":"ce4bhq92rcd13ifvqhkg","pricing_plan_id":"cebpf4jnsgd1na2vs0mg"},{"bike_id":"b292b2ce-3e71-4ea3-90a2-572719285b7f","system_id":"levelo_inurba_marseille","lat":43.2917,"lon":5.37163,"is_reserved":false,"is_disabled":false,"rental_uris":{"android":"levelo://app?vid=b292b2ce-3e71-4ea3-90a2-572719285b7f","ios":"levelo://app?vid=b292b2ce-3e71-4ea3-90a2-572719285b7f"},"vehicle_type_id":"4","last_reported":1732612263,"current_range_meters":8000,"station_id":"ce4bha92rcd13ifvqeh0","pricing_plan_id":"cebpf4jnsgd1na2vs0mg"},{"bike_id":"5d95998b-17b9-491d-af92-448605152fe8","system_id":"levelo_inurba_marseille","lat":43.27944,"lon":5.41038,"is_reserved":false,"is_disabled":false,"rental_uris":{"android":"levelo://app?vid=5d95998b-17b9-491d-af92-448605152fe8","ios":"levelo://app?vid=5d95998b-17b9-491d-af92-448605152fe8"},"vehicle_type_id":"4","last_reported":1732612263,"current_range_meters":14800,"station_id":"ce4bhnp2rcd13ifvqh0g","pricing_plan_id":"cebpf4jnsgd1na2vs0mg"},{"bike_id":"008df394-a4fc-4070-833b-4b8ca3581b96","system_id":"levelo_inurba_marseille","lat":43.3123,"lon":5.36853,"is_reserved":false,"is_disabled":false,"rental_uris":{"android":"levelo://app?vid=008df394-a4fc-4070-833b-4b8ca3581b96","ios":"levelo://app?vid=008df394-a4fc-4070-833b-4b8ca3581b96"},"vehicle_type_id":"4","last_reported":1732612263,"current_range_meters":9200,"station_id":"ce4bgl92rcd13ifvqbq0","pricing_plan_id":"cebpf4jnsgd1na2vs0mg"},{"bike_id":"9f8aea45-6317-46b2-bfdf-12486e5e39e0","system_id":"levelo_inurba_marseille","lat":43.31267,"lon":5.36756,"is_reserved":false,"is_disabled":true,"rental_uris":{"android":"levelo://app?vid=9f8aea45-6317-46b2-bfdf-12486e5e39e0","ios":"levelo://app?vid=9f8aea45-6317-46b2-bfdf-12486e5e39e0"},"vehicle_type_id":"4","last_reported":1732612263,"current_range_meters":0,"station_id":"","pricing_plan_id":"cebpf4jnsgd1na2vs0mg"},{"bike_id":"0957a422-753b-4b81-be11-d080ad7c9e18","system_id":"levelo_inurba_marseille","lat":43.3056,"lon":5.36696,"is_reserved":false,"is_disabled":false,"rental_uris":{"android":"levelo://app?vid=0957a422-753b-4b81-be11-d080ad7c9e18","ios":"levelo://app?vid=0957a422-753b-4b81-be11-d080ad7c9e18"},"vehicle_type_id":"4","last_reported":1732612263,"current_range_meters":36800,"station_id":"ce4bgrp2rcd13ifvqc9g","pricing_plan_id":"cebpf4jnsgd1na2vs0mg"},{"bike_id":"4de3f7a9-dede-421a-9310-d6c21fee1591","system_id":"levelo_inurba_marseille","lat":43.25934,"lon":5.40901,"is_reserved":false,"is_disabled":false,"rental_uris":{"android":"levelo://app?vid=4de3f7a9-dede-421a-9310-d6c21fee1591","ios":"levelo://app?vid=4de3f7a9-dede-421a-9310-d6c21fee1591"},"vehicle_type_id":"4","last_reported":1732612263,"current_range_meters":31200,"station_id":"ce4bhm92rcd13ifvqglg","pricing_plan_id":"cebpf4jnsgd1na2vs0mg"},{"bike_id":"5bd354c9-f8eb-440c-951a-6ed81a04e9eb","system_id":"levelo_inurba_marseille","lat":43.24088,"lon":5.37759,"is_reserved":false,"is_disabled":false,"rental_uris":{"android":"levelo://app?vid=5bd354c9-f8eb-440c-951a-6ed81a04e9eb","ios":"levelo://app?vid=5bd354c9-f8eb-440c-951a-6ed81a04e9eb"},"vehicle_type_id":"4","last_reported":1732612263,"current_range_meters":32400,"station_id":"ce4bhnp2rcd13ifvqgvg","pricing_plan_id":"cebpf4jnsgd1na2vs0mg"},{"bike_id":"1e126baa-22b4-4cf7-a05e-1c0611873009","system_id":"levelo_inurba_marseille","lat":43.311192,"lon":5.377708,"is_reserved":false,"is_disabled":true,"rental_uris":{"android":"levelo://app?vid=1e126baa-22b4-4cf7-a05e-1c0611873009","ios":"levelo://app?vid=1e126baa-22b4-4cf7-a05e-1c0611873009"},"vehicle_type_id":"4","last_reported":1732612263,"current_range_meters":0,"station_id":"","pricing_plan_id":"cebpf4jnsgd1na2vs0mg"},{"bike_id":"7e628593-6ac0-4cde-b4d8-020d2cbb7be0","system_id":"levelo_inurba_marseille","lat":43.26957,"lon":5.38622,"is_reserved":false,"is_disabled":false,"rental_uris":{"android":"levelo://app?vid=7e628593-6ac0-4cde-b4d8-020d2cbb7be0","ios":"levelo://app?vid=7e628593-6ac0-4cde-b4d8-020d2cbb7be0"},"vehicle_type_id":"4","last_reported":1732612263,"current_range_meters":24000,"station_id":"ce4bhh92rcd13ifvqfh0","pricing_plan_id":"cebpf4jnsgd1na2vs0mg"},{"bike_id":"07373730-ba45-4ca8-b6a6-6db65250f6a1","system_id":"levelo_inurba_marseille","lat":43.29856,"lon":5.36294,"is_reserved":false,"is_disabled":true,"rental_uris":{"android":"levelo://app?vid=07373730-ba45-4ca8-b6a6-6db65250f6a1","ios":"levelo://app?vid=07373730-ba45-4ca8-b6a6-6db65250f6a1"},"vehicle_type_id":"4","last_reported":1732612263,"current_range_meters":17200,"station_id":"ce4bgpp2rcd13ifvqc3g","pricing_plan_id":"cebpf4jnsgd1na2vs0mg"},{"bike_id":"ada80377-2c40-423f-ae84-f1b5bb359719","system_id":"levelo_inurba_marseille","lat":43.29002,"lon":5.35615,"is_reserved":false,"is_disabled":true,"rental_uris":{"android":"levelo://app?vid=ada80377-2c40-423f-ae84-f1b5bb359719","ios":"levelo://app?vid=ada80377-2c40-423f-ae84-f1b5bb359719"},"vehicle_type_id":"4","last_reported":1732612263,"current_range_meters":0,"station_id":"ce4bhb92rcd13ifvqen0","pricing_plan_id":"cebpf4jnsgd1na2vs0mg"},{"bike_id":"8bfd2db3-9c30-4ac4-82ab-dc0a88c4e9a9","system_id":"levelo_inurba_marseille","lat":43.23153,"lon":5.43715,"is_reserved":false,"is_disabled":false,"rental_uris":{"android":"levelo://app?vid=8bfd2db3-9c30-4ac4-82ab-dc0a88c4e9a9","ios":"levelo://app?vid=8bfd2db3-9c30-4ac4-82ab-dc0a88c4e9a9"},"vehicle_type_id":"4","last_reported":1732612263,"current_range_meters":24000,"station_id":"ce4bhmp2rcd13ifvqgog","pricing_plan_id":"cebpf4jnsgd1na2vs0mg"},{"bike_id":"67143d8e-e66e-42c7-ac82-4a20541642d4","system_id":"levelo_inurba_marseille","lat":43.29683,"lon":5.37183,"is_reserved":false,"is_disabled":true,"rental_uris":{"android":"levelo://app?vid=67143d8e-e66e-42c7-ac82-4a20541642d4","ios":"levelo://app?vid=67143d8e-e66e-42c7-ac82-4a20541642d4"},"vehicle_type_id":"4","last_reported":1732612263,"current_range_meters":38000,"station_id":"ce4bgk12rcd13ifvqbj0","pricing_plan_id":"cebpf4jnsgd1na2vs0mg"},{"bike_id":"dd08285a-8132-430d-a8bf-2aee58c7534b","system_id":"levelo_inurba_marseille","lat":43.24071,"lon":5.37748,"is_reserved":false,"is_disabled":true,"rental_uris":{"android":"levelo://app?vid=dd08285a-8132-430d-a8bf-2aee58c7534b","ios":"levelo://app?vid=dd08285a-8132-430d-a8bf-2aee58c7534b"},"vehicle_type_id":"4","last_reported":1732612263,"current_range_meters":25200,"station_id":"ce4bhnp2rcd13ifvqgvg","pricing_plan_id":"cebpf4jnsgd1na2vs0mg"},{"bike_id":"44e3c0e5-9c0e-4d4d-a4ff-33aa6a4ac251","system_id":"levelo_inurba_marseille","lat":43.3046,"lon":5.36723,"is_reserved":false,"is_disabled":false,"rental_uris":{"android":"levelo://app?vid=44e3c0e5-9c0e-4d4d-a4ff-33aa6a4ac251","ios":"levelo://app?vid=44e3c0e5-9c0e-4d4d-a4ff-33aa6a4ac251"},"vehicle_type_id":"4","last_reported":1732612263,"current_range_meters":21600,"station_id":"","pricing_plan_id":"cebpf4jnsgd1na2vs0mg"},{"bike_id":"f7f7fd06-4983-4658-b605-e86318567bab","system_id":"levelo_inurba_marseille","lat":43.27575,"lon":5.38409,"is_reserved":false,"is_disabled":false,"rental_uris":{"android":"levelo://app?vid=f7f7fd06-4983-4658-b605-e86318567bab","ios":"levelo://app?vid=f7f7fd06-4983-4658-b605-e86318567bab"},"vehicle_type_id":"4","last_reported":1732612263,"current_range_meters":38800,"station_id":"ce4bhh92rcd13ifvqfi0","pricing_plan_id":"cebpf4jnsgd1na2vs0mg"},{"bike_id":"83f442cf-579e-46be-91e9-63bdc8bc05b6","system_id":"levelo_inurba_marseille","lat":43.25929,"lon":5.40901,"is_reserved":false,"is_disabled":false,"rental_uris":{"android":"levelo://app?vid=83f442cf-579e-46be-91e9-63bdc8bc05b6","ios":"levelo://app?vid=83f442cf-579e-46be-91e9-63bdc8bc05b6"},"vehicle_type_id":"4","last_reported":1732612263,"current_range_meters":36800,"station_id":"ce4bhm92rcd13ifvqglg","pricing_plan_id":"cebpf4jnsgd1na2vs0mg"},{"bike_id":"1e3d2aed-a3f4-4aef-8605-9a4732190938","system_id":"levelo_inurba_marseille","lat":43.26061,"lon":5.39384,"is_reserved":false,"is_disabled":false,"rental_uris":{"android":"levelo://app?vid=1e3d2aed-a3f4-4aef-8605-9a4732190938","ios":"levelo://app?vid=1e3d2aed-a3f4-4aef-8605-9a4732190938"},"vehicle_type_id":"4","last_reported":1732612263,"current_range_meters":35200,"station_id":"ce4bhh92rcd13ifvqfj0","pricing_plan_id":"cebpf4jnsgd1na2vs0mg"},{"bike_id":"c29462b2-6f03-4354-a0a3-f395b21c5128","system_id":"levelo_inurba_marseille","lat":43.27495,"lon":5.42449,"is_reserved":false,"is_disabled":true,"rental_uris":{"android":"levelo://app?vid=c29462b2-6f03-4354-a0a3-f395b21c5128","ios":"levelo://app?vid=c29462b2-6f03-4354-a0a3-f395b21c5128"},"vehicle_type_id":"4","last_reported":1732612263,"current_range_meters":400,"station_id":"ce4bhn92rcd13ifvqgrg","pricing_plan_id":"cebpf4jnsgd1na2vs0mg"},{"bike_id":"820f12a0-cf28-488c-8a74-3f1b9d2e4db5","system_id":"levelo_inurba_marseille","lat":43.23058,"lon":5.35483,"is_reserved":false,"is_disabled":false,"rental_uris":{"android":"levelo://app?vid=820f12a0-cf28-488c-8a74-3f1b9d2e4db5","ios":"levelo://app?vid=820f12a0-cf28-488c-8a74-3f1b9d2e4db5"},"vehicle_type_id":"4","last_reported":1732612263,"current_range_meters":24400,"station_id":"cpo3342slgdg3j2ifvpg","pricing_plan_id":"cebpf4jnsgd1na2vs0mg"},{"bike_id":"72e9e29e-0f87-403e-ad68-6da953f02c80","system_id":"levelo_inurba_marseille","lat":43.23154,"lon":5.43719,"is_reserved":false,"is_disabled":false,"rental_uris":{"android":"levelo://app?vid=72e9e29e-0f87-403e-ad68-6da953f02c80","ios":"levelo://app?vid=72e9e29e-0f87-403e-ad68-6da953f02c80"},"vehicle_type_id":"4","last_reported":1732612263,"current_range_meters":3200,"station_id":"ce4bhmp2rcd13ifvqgog","pricing_plan_id":"cebpf4jnsgd1na2vs0mg"},{"bike_id":"35167227-8161-44bf-8a51-6a18b725000e","system_id":"levelo_inurba_marseille","lat":43.24805,"lon":5.37455,"is_reserved":false,"is_disabled":false,"rental_uris":{"android":"levelo://app?vid=35167227-8161-44bf-8a51-6a18b725000e","ios":"levelo://app?vid=35167227-8161-44bf-8a51-6a18b725000e"},"vehicle_type_id":"4","last_reported":1732612263,"current_range_meters":20400,"station_id":"ce4bhgh2rcd13ifvqfb0","pricing_plan_id":"cebpf4jnsgd1na2vs0mg"},{"bike_id":"5c2fce82-804e-4fff-8698-826e1164f7e7","system_id":"levelo_inurba_marseille","lat":43.28272,"lon":5.35071,"is_reserved":false,"is_disabled":false,"rental_uris":{"android":"levelo://app?vid=5c2fce82-804e-4fff-8698-826e1164f7e7","ios":"levelo://app?vid=5c2fce82-804e-4fff-8698-826e1164f7e7"},"vehicle_type_id":"4","last_reported":1732612263,"current_range_meters":22800,"station_id":"ce4bhbp2rcd13ifvqerg","pricing_plan_id":"cebpf4jnsgd1na2vs0mg"},{"bike_id":"9465545f-af87-4599-bf7e-091832e32b7b","system_id":"levelo_inurba_marseille","lat":43.29534,"lon":5.38541,"is_reserved":false,"is_disabled":true,"rental_uris":{"android":"levelo://app?vid=9465545f-af87-4599-bf7e-091832e32b7b","ios":"levelo://app?vid=9465545f-af87-4599-bf7e-091832e32b7b"},"vehicle_type_id":"4","last_reported":1732612263,"current_range_meters":21600,"station_id":"ce4bgih2rcd13ifvqba0","pricing_plan_id":"cebpf4jnsgd1na2vs0mg"},{"bike_id":"971709de-8ee6-4e0a-b7cf-6230ef952a2e","system_id":"levelo_inurba_marseille","lat":43.232,"lon":5.35545,"is_reserved":false,"is_disabled":false,"rental_uris":{"android":"levelo://app?vid=971709de-8ee6-4e0a-b7cf-6230ef952a2e","ios":"levelo://app?vid=971709de-8ee6-4e0a-b7cf-6230ef952a2e"},"vehicle_type_id":"4","last_reported":1732612263,"current_range_meters":9200,"station_id":"ce4bhu92rcd13ifvqi70","pricing_plan_id":"cebpf4jnsgd1na2vs0mg"},{"bike_id":"28ec0970-1b32-4a8a-a056-96a0f08f6e0d","system_id":"levelo_inurba_marseille","lat":43.33759,"lon":5.37443,"is_reserved":false,"is_disabled":false,"rental_uris":{"android":"levelo://app?vid=28ec0970-1b32-4a8a-a056-96a0f08f6e0d","ios":"levelo://app?vid=28ec0970-1b32-4a8a-a056-96a0f08f6e0d"},"vehicle_type_id":"4","last_reported":1732612263,"current_range_meters":38800,"station_id":"","pricing_plan_id":"cebpf4jnsgd1na2vs0mg"},{"bike_id":"89e5a5a8-337b-465c-a66b-634319bb7346","system_id":"levelo_inurba_marseille","lat":43.30287,"lon":5.37705,"is_reserved":false,"is_disabled":false,"rental_uris":{"android":"levelo://app?vid=89e5a5a8-337b-465c-a66b-634319bb7346","ios":"levelo://app?vid=89e5a5a8-337b-465c-a66b-634319bb7346"},"vehicle_type_id":"4","last_reported":1732612263,"current_range_meters":38400,"station_id":"ce4bguh2rcd13ifvqcj0","pricing_plan_id":"cebpf4jnsgd1na2vs0mg"},{"bike_id":"e4b23d84-8526-47df-b96f-9ab5d47003eb","system_id":"levelo_inurba_marseille","lat":43.28852,"lon":5.35854,"is_reserved":false,"is_disabled":true,"rental_uris":{"android":"levelo://app?vid=e4b23d84-8526-47df-b96f-9ab5d47003eb","ios":"levelo://app?vid=e4b23d84-8526-47df-b96f-9ab5d47003eb"},"vehicle_type_id":"4","last_reported":1732612263,"current_range_meters":0,"station_id":"ce4bhb12rcd13ifvqem0","pricing_plan_id":"cebpf4jnsgd1na2vs0mg"},{"bike_id":"835b00c2-64c0-4cbe-82bb-c78dd70919e3","system_id":"levelo_inurba_marseille","lat":43.27964,"lon":5.40782,"is_reserved":false,"is_disabled":false,"rental_uris":{"android":"levelo://app?vid=835b00c2-64c0-4cbe-82bb-c78dd70919e3","ios":"levelo://app?vid=835b00c2-64c0-4cbe-82bb-c78dd70919e3"},"vehicle_type_id":"4","last_reported":1732612263,"current_range_meters":3200,"station_id":"","pricing_plan_id":"cebpf4jnsgd1na2vs0mg"},{"bike_id":"0277ccf8-4608-466c-b39d-252fd13e3744","system_id":"levelo_inurba_marseille","lat":43.26065,"lon":5.39384,"is_reserved":false,"is_disabled":false,"rental_uris":{"android":"levelo://app?vid=0277ccf8-4608-466c-b39d-252fd13e3744","ios":"levelo://app?vid=0277ccf8-4608-466c-b39d-252fd13e3744"},"vehicle_type_id":"4","last_reported":1732612263,"current_range_meters":4000,"station_id":"ce4bhh92rcd13ifvqfj0","pricing_plan_id":"cebpf4jnsgd1na2vs0mg"},{"bike_id":"6488ed1f-f909-442a-9cf4-e6f1f58fcad9","system_id":"levelo_inurba_marseille","lat":43.31755,"lon":5.39016,"is_reserved":false,"is_disabled":true,"rental_uris":{"android":"levelo://app?vid=6488ed1f-f909-442a-9cf4-e6f1f58fcad9","ios":"levelo://app?vid=6488ed1f-f909-442a-9cf4-e6f1f58fcad9"},"vehicle_type_id":"4","last_reported":1732612263,"current_range_meters":38000,"station_id":"ce4bhqp2rcd13ifvqhng","pricing_plan_id":"cebpf4jnsgd1na2vs0mg"},{"bike_id":"9a257a8c-d7f0-4fb2-a6e2-8e081a7ccbd3","system_id":"levelo_inurba_marseille","lat":43.2915,"lon":5.40495,"is_reserved":false,"is_disabled":false,"rental_uris":{"android":"levelo://app?vid=9a257a8c-d7f0-4fb2-a6e2-8e081a7ccbd3","ios":"levelo://app?vid=9a257a8c-d7f0-4fb2-a6e2-8e081a7ccbd3"},"vehicle_type_id":"4","last_reported":1732612263,"current_range_meters":27600,"station_id":"ce4bh192rcd13ifvqdc0","pricing_plan_id":"cebpf4jnsgd1na2vs0mg"},{"bike_id":"0066d397-91dd-4fdc-9024-c7984bc9388a","system_id":"levelo_inurba_marseille","lat":43.31354,"lon":5.36709,"is_reserved":false,"is_disabled":false,"rental_uris":{"android":"levelo://app?vid=0066d397-91dd-4fdc-9024-c7984bc9388a","ios":"levelo://app?vid=0066d397-91dd-4fdc-9024-c7984bc9388a"},"vehicle_type_id":"4","last_reported":1732612263,"current_range_meters":18000,"station_id":"ce4bgr92rcd13ifvqc6g","pricing_plan_id":"cebpf4jnsgd1na2vs0mg"},{"bike_id":"1938b9be-a34a-4e3a-bb63-89d11057d68f","system_id":"levelo_inurba_marseille","lat":43.26956,"lon":5.38628,"is_reserved":false,"is_disabled":false,"rental_uris":{"android":"levelo://app?vid=1938b9be-a34a-4e3a-bb63-89d11057d68f","ios":"levelo://app?vid=1938b9be-a34a-4e3a-bb63-89d11057d68f"},"vehicle_type_id":"4","last_reported":1732612263,"current_range_meters":36400,"station_id":"ce4bhh92rcd13ifvqfh0","pricing_plan_id":"cebpf4jnsgd1na2vs0mg"},{"bike_id":"92618da7-72e9-4c5f-b657-4caade2f6ca1","system_id":"levelo_inurba_marseille","lat":43.3095,"lon":5.39025,"is_reserved":false,"is_disabled":false,"rental_uris":{"android":"levelo://app?vid=92618da7-72e9-4c5f-b657-4caade2f6ca1","ios":"levelo://app?vid=92618da7-72e9-4c5f-b657-4caade2f6ca1"},"vehicle_type_id":"4","last_reported":1732612263,"current_range_meters":18000,"station_id":"ce4bgup2rcd13ifvqco0","pricing_plan_id":"cebpf4jnsgd1na2vs0mg"},{"bike_id":"ab78e8e7-a735-46f1-8ac8-b5a8de1db64d","system_id":"levelo_inurba_marseille","lat":43.29023,"lon":5.38648,"is_reserved":false,"is_disabled":false,"rental_uris":{"android":"levelo://app?vid=ab78e8e7-a735-46f1-8ac8-b5a8de1db64d","ios":"levelo://app?vid=ab78e8e7-a735-46f1-8ac8-b5a8de1db64d"},"vehicle_type_id":"4","last_reported":1732612263,"current_range_meters":27200,"station_id":"ce4bh4p2rcd13ifvqe0g","pricing_plan_id":"cebpf4jnsgd1na2vs0mg"},{"bike_id":"996eaa45-b0c7-46cb-8925-64784aabecef","system_id":"levelo_inurba_marseille","lat":43.25576,"lon":5.38239,"is_reserved":false,"is_disabled":false,"rental_uris":{"android":"levelo://app?vid=996eaa45-b0c7-46cb-8925-64784aabecef","ios":"levelo://app?vid=996eaa45-b0c7-46cb-8925-64784aabecef"},"vehicle_type_id":"4","last_reported":1732612263,"current_range_meters":38000,"station_id":"ce4bhih2rcd13ifvqfs0","pricing_plan_id":"cebpf4jnsgd1na2vs0mg"},{"bike_id":"5b8cd3b4-e243-4fba-aaf5-11d686fcd3e4","system_id":"levelo_inurba_marseille","lat":43.29007,"lon":5.3561,"is_reserved":false,"is_disabled":true,"rental_uris":{"android":"levelo://app?vid=5b8cd3b4-e243-4fba-aaf5-11d686fcd3e4","ios":"levelo://app?vid=5b8cd3b4-e243-4fba-aaf5-11d686fcd3e4"},"vehicle_type_id":"4","last_reported":1732612263,"current_range_meters":24800,"station_id":"ce4bhb92rcd13ifvqen0","pricing_plan_id":"cebpf4jnsgd1na2vs0mg"},{"bike_id":"7a528987-9c62-4282-ae57-31b94412b3b2","system_id":"levelo_inurba_marseille","lat":43.25002,"lon":5.38929,"is_reserved":false,"is_disabled":false,"rental_uris":{"android":"levelo://app?vid=7a528987-9c62-4282-ae57-31b94412b3b2","ios":"levelo://app?vid=7a528987-9c62-4282-ae57-31b94412b3b2"},"vehicle_type_id":"4","last_reported":1732612263,"current_range_meters":4800,"station_id":"ce4bhgp2rcd13ifvqfd0","pricing_plan_id":"cebpf4jnsgd1na2vs0mg"},{"bike_id":"e9d1dfa3-52dc-4e39-90d2-818c700e015a","system_id":"levelo_inurba_marseille","lat":43.295345,"lon":5.375025,"is_reserved":false,"is_disabled":true,"rental_uris":{"android":"levelo://app?vid=e9d1dfa3-52dc-4e39-90d2-818c700e015a","ios":"levelo://app?vid=e9d1dfa3-52dc-4e39-90d2-818c700e015a"},"vehicle_type_id":"4","last_reported":1732612263,"current_range_meters":38000,"station_id":"ce4bgkp2rcd13ifvqbmg","pricing_plan_id":"cebpf4jnsgd1na2vs0mg"},{"bike_id":"cf7c9153-0dc8-430f-83bc-b3f293869575","system_id":"levelo_inurba_marseille","lat":43.337269,"lon":5.39185,"is_reserved":false,"is_disabled":false,"rental_uris":{"android":"levelo://app?vid=cf7c9153-0dc8-430f-83bc-b3f293869575","ios":"levelo://app?vid=cf7c9153-0dc8-430f-83bc-b3f293869575"},"vehicle_type_id":"4","last_reported":1732612263,"current_range_meters":10800,"station_id":"ce4bhr92rcd13ifvqhsg","pricing_plan_id":"cebpf4jnsgd1na2vs0mg"},{"bike_id":"2a5481cd-ff53-4043-8ffe-7e6ecd7906ca","system_id":"levelo_inurba_marseille","lat":43.30541,"lon":5.36536,"is_reserved":false,"is_disabled":false,"rental_uris":{"android":"levelo://app?vid=2a5481cd-ff53-4043-8ffe-7e6ecd7906ca","ios":"levelo://app?vid=2a5481cd-ff53-4043-8ffe-7e6ecd7906ca"},"vehicle_type_id":"4","last_reported":1732612263,"current_range_meters":27600,"station_id":"ce4bgs12rcd13ifvqcag","pricing_plan_id":"cebpf4jnsgd1na2vs0mg"},{"bike_id":"a2a3bbf0-a0f3-4fba-a757-19cea20fe7b5","system_id":"levelo_inurba_marseille","lat":43.29911,"lon":5.37473,"is_reserved":false,"is_disabled":false,"rental_uris":{"android":"levelo://app?vid=a2a3bbf0-a0f3-4fba-a757-19cea20fe7b5","ios":"levelo://app?vid=a2a3bbf0-a0f3-4fba-a757-19cea20fe7b5"},"vehicle_type_id":"4","last_reported":1732612263,"current_range_meters":38000,"station_id":"ce4bgjh2rcd13ifvqbg0","pricing_plan_id":"cebpf4jnsgd1na2vs0mg"},{"bike_id":"1997cc20-6bd0-43f5-85fc-0754c9a8b2e4","system_id":"levelo_inurba_marseille","lat":43.28619,"lon":5.35103,"is_reserved":false,"is_disabled":true,"rental_uris":{"android":"levelo://app?vid=1997cc20-6bd0-43f5-85fc-0754c9a8b2e4","ios":"levelo://app?vid=1997cc20-6bd0-43f5-85fc-0754c9a8b2e4"},"vehicle_type_id":"4","last_reported":1732612263,"current_range_meters":1200,"station_id":"ce4bhch2rcd13ifvqeug","pricing_plan_id":"cebpf4jnsgd1na2vs0mg"},{"bike_id":"1727785f-b8e7-4951-be6f-cc832b160a14","system_id":"levelo_inurba_marseille","lat":43.27494,"lon":5.4245,"is_reserved":false,"is_disabled":false,"rental_uris":{"android":"levelo://app?vid=1727785f-b8e7-4951-be6f-cc832b160a14","ios":"levelo://app?vid=1727785f-b8e7-4951-be6f-cc832b160a14"},"vehicle_type_id":"4","last_reported":1732612263,"current_range_meters":33200,"station_id":"ce4bhn92rcd13ifvqgrg","pricing_plan_id":"cebpf4jnsgd1na2vs0mg"},{"bike_id":"4d809776-4d2b-4bf5-8aa6-666b5b1fd18f","system_id":"levelo_inurba_marseille","lat":43.33723,"lon":5.39175,"is_reserved":false,"is_disabled":false,"rental_uris":{"android":"levelo://app?vid=4d809776-4d2b-4bf5-8aa6-666b5b1fd18f","ios":"levelo://app?vid=4d809776-4d2b-4bf5-8aa6-666b5b1fd18f"},"vehicle_type_id":"4","last_reported":1732612263,"current_range_meters":38800,"station_id":"ce4bhr92rcd13ifvqhsg","pricing_plan_id":"cebpf4jnsgd1na2vs0mg"},{"bike_id":"48463c71-0fc5-44bc-ab80-e71f5219ce7d","system_id":"levelo_inurba_marseille","lat":43.27493,"lon":5.42455,"is_reserved":false,"is_disabled":false,"rental_uris":{"android":"levelo://app?vid=48463c71-0fc5-44bc-ab80-e71f5219ce7d","ios":"levelo://app?vid=48463c71-0fc5-44bc-ab80-e71f5219ce7d"},"vehicle_type_id":"4","last_reported":1732612263,"current_range_meters":28000,"station_id":"ce4bhn92rcd13ifvqgrg","pricing_plan_id":"cebpf4jnsgd1na2vs0mg"},{"bike_id":"27fcdf1f-b56c-49c7-9263-e18f869f80c8","system_id":"levelo_inurba_marseille","lat":43.25495,"lon":5.37653,"is_reserved":false,"is_disabled":false,"rental_uris":{"android":"levelo://app?vid=27fcdf1f-b56c-49c7-9263-e18f869f80c8","ios":"levelo://app?vid=27fcdf1f-b56c-49c7-9263-e18f869f80c8"},"vehicle_type_id":"4","last_reported":1732612263,"current_range_meters":38000,"station_id":"ce4bhh12rcd13ifvqff0","pricing_plan_id":"cebpf4jnsgd1na2vs0mg"},{"bike_id":"c5d06587-89bd-4711-a0e5-caab60b3056f","system_id":"levelo_inurba_marseille","lat":43.28717,"lon":5.39991,"is_reserved":false,"is_disabled":true,"rental_uris":{"android":"levelo://app?vid=c5d06587-89bd-4711-a0e5-caab60b3056f","ios":"levelo://app?vid=c5d06587-89bd-4711-a0e5-caab60b3056f"},"vehicle_type_id":"4","last_reported":1732612263,"current_range_meters":24800,"station_id":"ce4bho92rcd13ifvqh3g","pricing_plan_id":"cebpf4jnsgd1na2vs0mg"},{"bike_id":"e80c77b7-df4c-42f1-b71d-bce618ebfe41","system_id":"levelo_inurba_marseille","lat":43.23203,"lon":5.35547,"is_reserved":false,"is_disabled":false,"rental_uris":{"android":"levelo://app?vid=e80c77b7-df4c-42f1-b71d-bce618ebfe41","ios":"levelo://app?vid=e80c77b7-df4c-42f1-b71d-bce618ebfe41"},"vehicle_type_id":"4","last_reported":1732612263,"current_range_meters":16000,"station_id":"ce4bhu92rcd13ifvqi70","pricing_plan_id":"cebpf4jnsgd1na2vs0mg"},{"bike_id":"22a69108-a943-4017-8a98-21f1c905ce43","system_id":"levelo_inurba_marseille","lat":43.28964,"lon":5.37835,"is_reserved":false,"is_disabled":false,"rental_uris":{"android":"levelo://app?vid=22a69108-a943-4017-8a98-21f1c905ce43","ios":"levelo://app?vid=22a69108-a943-4017-8a98-21f1c905ce43"},"vehicle_type_id":"4","last_reported":1732612263,"current_range_meters":18800,"station_id":"ce4bh9p2rcd13ifvqed0","pricing_plan_id":"cebpf4jnsgd1na2vs0mg"},{"bike_id":"ea94669e-1402-4144-b9c9-64418fa2ce05","system_id":"levelo_inurba_marseille","lat":43.29604,"lon":5.38091,"is_reserved":false,"is_disabled":false,"rental_uris":{"android":"levelo://app?vid=ea94669e-1402-4144-b9c9-64418fa2ce05","ios":"levelo://app?vid=ea94669e-1402-4144-b9c9-64418fa2ce05"},"vehicle_type_id":"4","last_reported":1732612263,"current_range_meters":28400,"station_id":"ce4bgl12rcd13ifvqbo0","pricing_plan_id":"cebpf4jnsgd1na2vs0mg"},{"bike_id":"8c28bc79-5f3b-4951-8bae-4608c885d9ac","system_id":"levelo_inurba_marseille","lat":43.24079,"lon":5.37752,"is_reserved":false,"is_disabled":false,"rental_uris":{"android":"levelo://app?vid=8c28bc79-5f3b-4951-8bae-4608c885d9ac","ios":"levelo://app?vid=8c28bc79-5f3b-4951-8bae-4608c885d9ac"},"vehicle_type_id":"4","last_reported":1732612263,"current_range_meters":18000,"station_id":"ce4bhnp2rcd13ifvqgvg","pricing_plan_id":"cebpf4jnsgd1na2vs0mg"},{"bike_id":"de6630ce-3875-4d16-b043-8789649f0f8b","system_id":"levelo_inurba_marseille","lat":43.33603,"lon":5.41023,"is_reserved":false,"is_disabled":false,"rental_uris":{"android":"levelo://app?vid=de6630ce-3875-4d16-b043-8789649f0f8b","ios":"levelo://app?vid=de6630ce-3875-4d16-b043-8789649f0f8b"},"vehicle_type_id":"4","last_reported":1732612263,"current_range_meters":18000,"station_id":"ce4bhqh2rcd13ifvqhmg","pricing_plan_id":"cebpf4jnsgd1na2vs0mg"},{"bike_id":"30e856e7-53f5-4729-a77e-238fa992e2d2","system_id":"levelo_inurba_marseille","lat":43.30528,"lon":5.36709,"is_reserved":false,"is_disabled":false,"rental_uris":{"android":"levelo://app?vid=30e856e7-53f5-4729-a77e-238fa992e2d2","ios":"levelo://app?vid=30e856e7-53f5-4729-a77e-238fa992e2d2"},"vehicle_type_id":"4","last_reported":1732612263,"current_range_meters":39200,"station_id":"ce4bgrp2rcd13ifvqc9g","pricing_plan_id":"cebpf4jnsgd1na2vs0mg"},{"bike_id":"aa717be1-dcce-416b-90e1-180e376a1e41","system_id":"levelo_inurba_marseille","lat":43.337444,"lon":5.374475,"is_reserved":false,"is_disabled":true,"rental_uris":{"android":"levelo://app?vid=aa717be1-dcce-416b-90e1-180e376a1e41","ios":"levelo://app?vid=aa717be1-dcce-416b-90e1-180e376a1e41"},"vehicle_type_id":"4","last_reported":1732612263,"current_range_meters":34000,"station_id":"","pricing_plan_id":"cebpf4jnsgd1na2vs0mg"},{"bike_id":"2a09209b-9e53-4e93-a4c9-9ab475d29893","system_id":"levelo_inurba_marseille","lat":43.30252,"lon":5.37443,"is_reserved":false,"is_disabled":false,"rental_uris":{"android":"levelo://app?vid=2a09209b-9e53-4e93-a4c9-9ab475d29893","ios":"levelo://app?vid=2a09209b-9e53-4e93-a4c9-9ab475d29893"},"vehicle_type_id":"4","last_reported":1732612263,"current_range_meters":17200,"station_id":"","pricing_plan_id":"cebpf4jnsgd1na2vs0mg"},{"bike_id":"294eeb79-af1b-495a-909f-216801ae6b41","system_id":"levelo_inurba_marseille","lat":43.33742,"lon":5.37459,"is_reserved":false,"is_disabled":false,"rental_uris":{"android":"levelo://app?vid=294eeb79-af1b-495a-909f-216801ae6b41","ios":"levelo://app?vid=294eeb79-af1b-495a-909f-216801ae6b41"},"vehicle_type_id":"4","last_reported":1732612263,"current_range_meters":38000,"station_id":"","pricing_plan_id":"cebpf4jnsgd1na2vs0mg"},{"bike_id":"8090acc5-5f25-473d-b014-6c417537be88","system_id":"levelo_inurba_marseille","lat":43.31352,"lon":5.36723,"is_reserved":false,"is_disabled":false,"rental_uris":{"android":"levelo://app?vid=8090acc5-5f25-473d-b014-6c417537be88","ios":"levelo://app?vid=8090acc5-5f25-473d-b014-6c417537be88"},"vehicle_type_id":"4","last_reported":1732612263,"current_range_meters":9200,"station_id":"ce4bgr92rcd13ifvqc6g","pricing_plan_id":"cebpf4jnsgd1na2vs0mg"},{"bike_id":"fc1e2ebb-eecf-4c7e-b287-c2c71d0aa5cf","system_id":"levelo_inurba_marseille","lat":43.29624,"lon":5.37152,"is_reserved":false,"is_disabled":false,"rental_uris":{"android":"levelo://app?vid=fc1e2ebb-eecf-4c7e-b287-c2c71d0aa5cf","ios":"levelo://app?vid=fc1e2ebb-eecf-4c7e-b287-c2c71d0aa5cf"},"vehicle_type_id":"4","last_reported":1732612263,"current_range_meters":37600,"station_id":"ce4bgnh2rcd13ifvqc0g","pricing_plan_id":"cebpf4jnsgd1na2vs0mg"},{"bike_id":"145542e8-c4f2-4c57-acd0-2e754476b5e3","system_id":"levelo_inurba_marseille","lat":43.30198,"lon":5.36624,"is_reserved":false,"is_disabled":false,"rental_uris":{"android":"levelo://app?vid=145542e8-c4f2-4c57-acd0-2e754476b5e3","ios":"levelo://app?vid=145542e8-c4f2-4c57-acd0-2e754476b5e3"},"vehicle_type_id":"4","last_reported":1732612263,"current_range_meters":24400,"station_id":"ce4bgrh2rcd13ifvqc8g","pricing_plan_id":"cebpf4jnsgd1na2vs0mg"},{"bike_id":"8a8e15b2-8ce3-4304-8abb-4dfd70b62859","system_id":"levelo_inurba_marseille","lat":43.24079,"lon":5.37744,"is_reserved":false,"is_disabled":true,"rental_uris":{"android":"levelo://app?vid=8a8e15b2-8ce3-4304-8abb-4dfd70b62859","ios":"levelo://app?vid=8a8e15b2-8ce3-4304-8abb-4dfd70b62859"},"vehicle_type_id":"4","last_reported":1732612263,"current_range_meters":8800,"station_id":"ce4bhnp2rcd13ifvqgvg","pricing_plan_id":"cebpf4jnsgd1na2vs0mg"},{"bike_id":"d33a5273-2943-4fa7-881b-94fa64c3bbe9","system_id":"levelo_inurba_marseille","lat":43.23974,"lon":5.36623,"is_reserved":false,"is_disabled":true,"rental_uris":{"android":"levelo://app?vid=d33a5273-2943-4fa7-881b-94fa64c3bbe9","ios":"levelo://app?vid=d33a5273-2943-4fa7-881b-94fa64c3bbe9"},"vehicle_type_id":"4","last_reported":1732612263,"current_range_meters":17600,"station_id":"ce4bhi12rcd13ifvqfp0","pricing_plan_id":"cebpf4jnsgd1na2vs0mg"},{"bike_id":"f6a6ddf5-3623-4303-b4dd-56a6aeb905d9","system_id":"levelo_inurba_marseille","lat":43.26951,"lon":5.38632,"is_reserved":false,"is_disabled":false,"rental_uris":{"android":"levelo://app?vid=f6a6ddf5-3623-4303-b4dd-56a6aeb905d9","ios":"levelo://app?vid=f6a6ddf5-3623-4303-b4dd-56a6aeb905d9"},"vehicle_type_id":"4","last_reported":1732612263,"current_range_meters":39200,"station_id":"ce4bhh92rcd13ifvqfh0","pricing_plan_id":"cebpf4jnsgd1na2vs0mg"},{"bike_id":"cd78312a-142a-42d0-92e1-dbc654bf8bb4","system_id":"levelo_inurba_marseille","lat":43.24184,"lon":5.39723,"is_reserved":false,"is_disabled":true,"rental_uris":{"android":"levelo://app?vid=cd78312a-142a-42d0-92e1-dbc654bf8bb4","ios":"levelo://app?vid=cd78312a-142a-42d0-92e1-dbc654bf8bb4"},"vehicle_type_id":"4","last_reported":1732612263,"current_range_meters":0,"station_id":"ce4bhn12rcd13ifvqgpg","pricing_plan_id":"cebpf4jnsgd1na2vs0mg"},{"bike_id":"41249b53-42aa-45f7-a470-76761e0f7179","system_id":"levelo_inurba_marseille","lat":43.27504,"lon":5.42457,"is_reserved":false,"is_disabled":false,"rental_uris":{"android":"levelo://app?vid=41249b53-42aa-45f7-a470-76761e0f7179","ios":"levelo://app?vid=41249b53-42aa-45f7-a470-76761e0f7179"},"vehicle_type_id":"4","last_reported":1732612263,"current_range_meters":35200,"station_id":"ce4bhn92rcd13ifvqgrg","pricing_plan_id":"cebpf4jnsgd1na2vs0mg"},{"bike_id":"074393a9-3ae0-4d86-8895-1a96aceae021","system_id":"levelo_inurba_marseille","lat":43.29575,"lon":5.37501,"is_reserved":false,"is_disabled":true,"rental_uris":{"android":"levelo://app?vid=074393a9-3ae0-4d86-8895-1a96aceae021","ios":"levelo://app?vid=074393a9-3ae0-4d86-8895-1a96aceae021"},"vehicle_type_id":"4","last_reported":1732612263,"current_range_meters":34000,"station_id":"ce4bgh92rcd13ifvqb50","pricing_plan_id":"cebpf4jnsgd1na2vs0mg"},{"bike_id":"6a243988-d267-4e1e-bafc-c091870de6a8","system_id":"levelo_inurba_marseille","lat":43.24176,"lon":5.36392,"is_reserved":false,"is_disabled":false,"rental_uris":{"android":"levelo://app?vid=6a243988-d267-4e1e-bafc-c091870de6a8","ios":"levelo://app?vid=6a243988-d267-4e1e-bafc-c091870de6a8"},"vehicle_type_id":"4","last_reported":1732612263,"current_range_meters":10000,"station_id":"cpo36qri1sfpv3e86is0","pricing_plan_id":"cebpf4jnsgd1na2vs0mg"},{"bike_id":"da3f5121-64b3-4603-99ca-c9c788950839","system_id":"levelo_inurba_marseille","lat":43.29974,"lon":5.38481,"is_reserved":false,"is_disabled":true,"rental_uris":{"android":"levelo://app?vid=da3f5121-64b3-4603-99ca-c9c788950839","ios":"levelo://app?vid=da3f5121-64b3-4603-99ca-c9c788950839"},"vehicle_type_id":"4","last_reported":1732612263,"current_range_meters":0,"station_id":"ce4bgj92rcd13ifvqbd0","pricing_plan_id":"cebpf4jnsgd1na2vs0mg"},{"bike_id":"46254029-485c-43c3-b392-fd7884ff0c2f","system_id":"levelo_inurba_marseille","lat":43.25584,"lon":5.38232,"is_reserved":false,"is_disabled":false,"rental_uris":{"android":"levelo://app?vid=46254029-485c-43c3-b392-fd7884ff0c2f","ios":"levelo://app?vid=46254029-485c-43c3-b392-fd7884ff0c2f"},"vehicle_type_id":"4","last_reported":1732612263,"current_range_meters":39200,"station_id":"ce4bhih2rcd13ifvqfs0","pricing_plan_id":"cebpf4jnsgd1na2vs0mg"},{"bike_id":"1623f31b-ef7d-4d91-aad1-db70330d01ae","system_id":"levelo_inurba_marseille","lat":43.30286,"lon":5.377,"is_reserved":false,"is_disabled":false,"rental_uris":{"android":"levelo://app?vid=1623f31b-ef7d-4d91-aad1-db70330d01ae","ios":"levelo://app?vid=1623f31b-ef7d-4d91-aad1-db70330d01ae"},"vehicle_type_id":"4","last_reported":1732612263,"current_range_meters":21600,"station_id":"ce4bguh2rcd13ifvqcj0","pricing_plan_id":"cebpf4jnsgd1na2vs0mg"},{"bike_id":"39b04c21-6a6a-40a7-a489-741c2b67c9bd","system_id":"levelo_inurba_marseille","lat":43.337274,"lon":5.391954,"is_reserved":false,"is_disabled":false,"rental_uris":{"android":"levelo://app?vid=39b04c21-6a6a-40a7-a489-741c2b67c9bd","ios":"levelo://app?vid=39b04c21-6a6a-40a7-a489-741c2b67c9bd"},"vehicle_type_id":"4","last_reported":1732612263,"current_range_meters":17200,"station_id":"ce4bhr92rcd13ifvqhsg","pricing_plan_id":"cebpf4jnsgd1na2vs0mg"},{"bike_id":"10add33f-4195-400b-a925-26d7fb4aa689","system_id":"levelo_inurba_marseille","lat":43.269505,"lon":5.402468,"is_reserved":false,"is_disabled":true,"rental_uris":{"android":"levelo://app?vid=10add33f-4195-400b-a925-26d7fb4aa689","ios":"levelo://app?vid=10add33f-4195-400b-a925-26d7fb4aa689"},"vehicle_type_id":"4","last_reported":1732612263,"current_range_meters":35600,"station_id":"cjm6bp8fraef2m0cb0m0","pricing_plan_id":"cebpf4jnsgd1na2vs0mg"},{"bike_id":"cf4215fd-0301-4114-b281-c92a6932a4ec","system_id":"levelo_inurba_marseille","lat":43.30921,"lon":5.36851,"is_reserved":false,"is_disabled":false,"rental_uris":{"android":"levelo://app?vid=cf4215fd-0301-4114-b281-c92a6932a4ec","ios":"levelo://app?vid=cf4215fd-0301-4114-b281-c92a6932a4ec"},"vehicle_type_id":"4","last_reported":1732612263,"current_range_meters":38800,"station_id":"ce4bgn92rcd13ifvqbvg","pricing_plan_id":"cebpf4jnsgd1na2vs0mg"},{"bike_id":"df6dfede-364c-4a0e-8f22-cb21db50a29f","system_id":"levelo_inurba_marseille","lat":43.23196,"lon":5.39986,"is_reserved":false,"is_disabled":false,"rental_uris":{"android":"levelo://app?vid=df6dfede-364c-4a0e-8f22-cb21db50a29f","ios":"levelo://app?vid=df6dfede-364c-4a0e-8f22-cb21db50a29f"},"vehicle_type_id":"4","last_reported":1732612263,"current_range_meters":34800,"station_id":"ce4bhn12rcd13ifvqgqg","pricing_plan_id":"cebpf4jnsgd1na2vs0mg"},{"bike_id":"f322df79-0242-4db0-ac2e-452d61c9528e","system_id":"levelo_inurba_marseille","lat":43.25583,"lon":5.3823,"is_reserved":false,"is_disabled":true,"rental_uris":{"android":"levelo://app?vid=f322df79-0242-4db0-ac2e-452d61c9528e","ios":"levelo://app?vid=f322df79-0242-4db0-ac2e-452d61c9528e"},"vehicle_type_id":"4","last_reported":1732612263,"current_range_meters":38800,"station_id":"ce4bhih2rcd13ifvqfs0","pricing_plan_id":"cebpf4jnsgd1na2vs0mg"},{"bike_id":"2d89abb0-28d3-4133-92c2-8b4da378d746","system_id":"levelo_inurba_marseille","lat":43.29625,"lon":5.37708,"is_reserved":false,"is_disabled":false,"rental_uris":{"android":"levelo://app?vid=2d89abb0-28d3-4133-92c2-8b4da378d746","ios":"levelo://app?vid=2d89abb0-28d3-4133-92c2-8b4da378d746"},"vehicle_type_id":"4","last_reported":1732612263,"current_range_meters":7200,"station_id":"ce4bgi92rcd13ifvqb90","pricing_plan_id":"cebpf4jnsgd1na2vs0mg"},{"bike_id":"120383cf-2453-4786-bbb8-39853ee211c7","system_id":"levelo_inurba_marseille","lat":43.2407,"lon":5.37766,"is_reserved":false,"is_disabled":false,"rental_uris":{"android":"levelo://app?vid=120383cf-2453-4786-bbb8-39853ee211c7","ios":"levelo://app?vid=120383cf-2453-4786-bbb8-39853ee211c7"},"vehicle_type_id":"4","last_reported":1732612263,"current_range_meters":38400,"station_id":"ce4bhnp2rcd13ifvqgvg","pricing_plan_id":"cebpf4jnsgd1na2vs0mg"},{"bike_id":"62bcad95-d3e2-434c-81f4-127757d19c4c","system_id":"levelo_inurba_marseille","lat":43.29226,"lon":5.3959,"is_reserved":false,"is_disabled":true,"rental_uris":{"android":"levelo://app?vid=62bcad95-d3e2-434c-81f4-127757d19c4c","ios":"levelo://app?vid=62bcad95-d3e2-434c-81f4-127757d19c4c"},"vehicle_type_id":"4","last_reported":1732612263,"current_range_meters":0,"station_id":"","pricing_plan_id":"cebpf4jnsgd1na2vs0mg"},{"bike_id":"66bd3a60-2eaa-4bfa-971c-563c1eca0d46","system_id":"levelo_inurba_marseille","lat":43.26963,"lon":5.38619,"is_reserved":false,"is_disabled":false,"rental_uris":{"android":"levelo://app?vid=66bd3a60-2eaa-4bfa-971c-563c1eca0d46","ios":"levelo://app?vid=66bd3a60-2eaa-4bfa-971c-563c1eca0d46"},"vehicle_type_id":"4","last_reported":1732612263,"current_range_meters":14400,"station_id":"ce4bhh92rcd13ifvqfh0","pricing_plan_id":"cebpf4jnsgd1na2vs0mg"},{"bike_id":"2eac4057-9ce2-44e0-a14e-c9b3a1bde624","system_id":"levelo_inurba_marseille","lat":43.23213,"lon":5.35555,"is_reserved":false,"is_disabled":false,"rental_uris":{"android":"levelo://app?vid=2eac4057-9ce2-44e0-a14e-c9b3a1bde624","ios":"levelo://app?vid=2eac4057-9ce2-44e0-a14e-c9b3a1bde624"},"vehicle_type_id":"4","last_reported":1732612263,"current_range_meters":9600,"station_id":"ce4bhu92rcd13ifvqi70","pricing_plan_id":"cebpf4jnsgd1na2vs0mg"},{"bike_id":"36296f5c-0176-4be0-97c8-7930cda9c369","system_id":"levelo_inurba_marseille","lat":43.32106,"lon":5.3677,"is_reserved":false,"is_disabled":false,"rental_uris":{"android":"levelo://app?vid=36296f5c-0176-4be0-97c8-7930cda9c369","ios":"levelo://app?vid=36296f5c-0176-4be0-97c8-7930cda9c369"},"vehicle_type_id":"4","last_reported":1732612263,"current_range_meters":23200,"station_id":"ce4bhrh2rcd13ifvqhug","pricing_plan_id":"cebpf4jnsgd1na2vs0mg"},{"bike_id":"c3275250-1cb9-49d7-9c4d-13ccfcfb03cf","system_id":"levelo_inurba_marseille","lat":43.29622,"lon":5.37732,"is_reserved":false,"is_disabled":false,"rental_uris":{"android":"levelo://app?vid=c3275250-1cb9-49d7-9c4d-13ccfcfb03cf","ios":"levelo://app?vid=c3275250-1cb9-49d7-9c4d-13ccfcfb03cf"},"vehicle_type_id":"4","last_reported":1732612263,"current_range_meters":28400,"station_id":"ce4bgi92rcd13ifvqb90","pricing_plan_id":"cebpf4jnsgd1na2vs0mg"},{"bike_id":"a8c88cb0-4506-477f-b82a-10e4ea21fb79","system_id":"levelo_inurba_marseille","lat":43.29037,"lon":5.39959,"is_reserved":false,"is_disabled":true,"rental_uris":{"android":"levelo://app?vid=a8c88cb0-4506-477f-b82a-10e4ea21fb79","ios":"levelo://app?vid=a8c88cb0-4506-477f-b82a-10e4ea21fb79"},"vehicle_type_id":"4","last_reported":1732612263,"current_range_meters":0,"station_id":"ce4bh392rcd13ifvqdm0","pricing_plan_id":"cebpf4jnsgd1na2vs0mg"},{"bike_id":"b343861f-1589-4a40-afae-f909ffb05b2f","system_id":"levelo_inurba_marseille","lat":43.28001,"lon":5.41664,"is_reserved":false,"is_disabled":false,"rental_uris":{"android":"levelo://app?vid=b343861f-1589-4a40-afae-f909ffb05b2f","ios":"levelo://app?vid=b343861f-1589-4a40-afae-f909ffb05b2f"},"vehicle_type_id":"4","last_reported":1732612263,"current_range_meters":21600,"station_id":"ce4bho12rcd13ifvqh1g","pricing_plan_id":"cebpf4jnsgd1na2vs0mg"},{"bike_id":"ae97de34-d8c8-434e-85ec-003bf1023a27","system_id":"levelo_inurba_marseille","lat":43.27073,"lon":5.42276,"is_reserved":false,"is_disabled":false,"rental_uris":{"android":"levelo://app?vid=ae97de34-d8c8-434e-85ec-003bf1023a27","ios":"levelo://app?vid=ae97de34-d8c8-434e-85ec-003bf1023a27"},"vehicle_type_id":"4","last_reported":1732612263,"current_range_meters":16400,"station_id":"ce4bhk92rcd13ifvqgb0","pricing_plan_id":"cebpf4jnsgd1na2vs0mg"},{"bike_id":"1ebc2642-599e-41e5-89df-308a45bbfcfb","system_id":"levelo_inurba_marseille","lat":43.32106,"lon":5.36767,"is_reserved":false,"is_disabled":false,"rental_uris":{"android":"levelo://app?vid=1ebc2642-599e-41e5-89df-308a45bbfcfb","ios":"levelo://app?vid=1ebc2642-599e-41e5-89df-308a45bbfcfb"},"vehicle_type_id":"4","last_reported":1732612263,"current_range_meters":16000,"station_id":"ce4bhrh2rcd13ifvqhug","pricing_plan_id":"cebpf4jnsgd1na2vs0mg"},{"bike_id":"7185ef41-3a2b-447d-b041-2ae1094f59ec","system_id":"levelo_inurba_marseille","lat":43.30542,"lon":5.36691,"is_reserved":false,"is_disabled":false,"rental_uris":{"android":"levelo://app?vid=7185ef41-3a2b-447d-b041-2ae1094f59ec","ios":"levelo://app?vid=7185ef41-3a2b-447d-b041-2ae1094f59ec"},"vehicle_type_id":"4","last_reported":1732612263,"current_range_meters":22000,"station_id":"ce4bgrp2rcd13ifvqc9g","pricing_plan_id":"cebpf4jnsgd1na2vs0mg"},{"bike_id":"96ab67d7-31f8-416d-ac69-0c1c3ef969ce","system_id":"levelo_inurba_marseille","lat":43.31339,"lon":5.36726,"is_reserved":false,"is_disabled":false,"rental_uris":{"android":"levelo://app?vid=96ab67d7-31f8-416d-ac69-0c1c3ef969ce","ios":"levelo://app?vid=96ab67d7-31f8-416d-ac69-0c1c3ef969ce"},"vehicle_type_id":"4","last_reported":1732612263,"current_range_meters":37600,"station_id":"ce4bgr92rcd13ifvqc6g","pricing_plan_id":"cebpf4jnsgd1na2vs0mg"},{"bike_id":"baa6b116-33e8-4eeb-949d-8ad46185256a","system_id":"levelo_inurba_marseille","lat":43.32546,"lon":5.41436,"is_reserved":false,"is_disabled":false,"rental_uris":{"android":"levelo://app?vid=baa6b116-33e8-4eeb-949d-8ad46185256a","ios":"levelo://app?vid=baa6b116-33e8-4eeb-949d-8ad46185256a"},"vehicle_type_id":"4","last_reported":1732612263,"current_range_meters":39200,"station_id":"ce4bhq12rcd13ifvqhhg","pricing_plan_id":"cebpf4jnsgd1na2vs0mg"},{"bike_id":"e8a12a11-eb94-43a1-89dc-1a990d2d11f4","system_id":"levelo_inurba_marseille","lat":43.23146,"lon":5.4372,"is_reserved":false,"is_disabled":false,"rental_uris":{"android":"levelo://app?vid=e8a12a11-eb94-43a1-89dc-1a990d2d11f4","ios":"levelo://app?vid=e8a12a11-eb94-43a1-89dc-1a990d2d11f4"},"vehicle_type_id":"4","last_reported":1732612263,"current_range_meters":38800,"station_id":"ce4bhmp2rcd13ifvqgog","pricing_plan_id":"cebpf4jnsgd1na2vs0mg"},{"bike_id":"f4554773-8711-4ab9-9b03-fef2671cb923","system_id":"levelo_inurba_marseille","lat":43.24082,"lon":5.37751,"is_reserved":false,"is_disabled":false,"rental_uris":{"android":"levelo://app?vid=f4554773-8711-4ab9-9b03-fef2671cb923","ios":"levelo://app?vid=f4554773-8711-4ab9-9b03-fef2671cb923"},"vehicle_type_id":"4","last_reported":1732612263,"current_range_meters":23200,"station_id":"ce4bhnp2rcd13ifvqgvg","pricing_plan_id":"cebpf4jnsgd1na2vs0mg"},{"bike_id":"540ed4bd-433a-4bb9-9280-90e3d3ab1b5e","system_id":"levelo_inurba_marseille","lat":43.24169,"lon":5.36398,"is_reserved":false,"is_disabled":false,"rental_uris":{"android":"levelo://app?vid=540ed4bd-433a-4bb9-9280-90e3d3ab1b5e","ios":"levelo://app?vid=540ed4bd-433a-4bb9-9280-90e3d3ab1b5e"},"vehicle_type_id":"4","last_reported":1732612263,"current_range_meters":15200,"station_id":"cpo36qri1sfpv3e86is0","pricing_plan_id":"cebpf4jnsgd1na2vs0mg"},{"bike_id":"5bf346f8-0c23-43e3-8c6e-17a07ddf3fee","system_id":"levelo_inurba_marseille","lat":43.26953,"lon":5.38638,"is_reserved":false,"is_disabled":false,"rental_uris":{"android":"levelo://app?vid=5bf346f8-0c23-43e3-8c6e-17a07ddf3fee","ios":"levelo://app?vid=5bf346f8-0c23-43e3-8c6e-17a07ddf3fee"},"vehicle_type_id":"4","last_reported":1732612263,"current_range_meters":6000,"station_id":"ce4bhh92rcd13ifvqfh0","pricing_plan_id":"cebpf4jnsgd1na2vs0mg"},{"bike_id":"a0671414-075f-4c51-afa3-8a0544e0da0e","system_id":"levelo_inurba_marseille","lat":43.2407,"lon":5.3776,"is_reserved":false,"is_disabled":false,"rental_uris":{"android":"levelo://app?vid=a0671414-075f-4c51-afa3-8a0544e0da0e","ios":"levelo://app?vid=a0671414-075f-4c51-afa3-8a0544e0da0e"},"vehicle_type_id":"4","last_reported":1732612263,"current_range_meters":14400,"station_id":"ce4bhnp2rcd13ifvqgvg","pricing_plan_id":"cebpf4jnsgd1na2vs0mg"},{"bike_id":"5bf94cec-5d70-4fe6-850b-65fe88c67777","system_id":"levelo_inurba_marseille","lat":43.30549,"lon":5.36521,"is_reserved":false,"is_disabled":true,"rental_uris":{"android":"levelo://app?vid=5bf94cec-5d70-4fe6-850b-65fe88c67777","ios":"levelo://app?vid=5bf94cec-5d70-4fe6-850b-65fe88c67777"},"vehicle_type_id":"4","last_reported":1732612263,"current_range_meters":3200,"station_id":"ce4bgs12rcd13ifvqcag","pricing_plan_id":"cebpf4jnsgd1na2vs0mg"},{"bike_id":"129784fe-5192-4f91-b228-a5c5da2a1e5c","system_id":"levelo_inurba_marseille","lat":43.26201,"lon":5.37924,"is_reserved":false,"is_disabled":false,"rental_uris":{"android":"levelo://app?vid=129784fe-5192-4f91-b228-a5c5da2a1e5c","ios":"levelo://app?vid=129784fe-5192-4f91-b228-a5c5da2a1e5c"},"vehicle_type_id":"4","last_reported":1732612263,"current_range_meters":6000,"station_id":"ce4bhjp2rcd13ifvqg90","pricing_plan_id":"cebpf4jnsgd1na2vs0mg"},{"bike_id":"193146e6-1187-4061-9ebc-0a1091f5fc35","system_id":"levelo_inurba_marseille","lat":43.24079,"lon":5.37757,"is_reserved":false,"is_disabled":false,"rental_uris":{"android":"levelo://app?vid=193146e6-1187-4061-9ebc-0a1091f5fc35","ios":"levelo://app?vid=193146e6-1187-4061-9ebc-0a1091f5fc35"},"vehicle_type_id":"4","last_reported":1732612263,"current_range_meters":14000,"station_id":"ce4bhnp2rcd13ifvqgvg","pricing_plan_id":"cebpf4jnsgd1na2vs0mg"},{"bike_id":"ecafbf04-e97c-486f-8502-ae4081837df7","system_id":"levelo_inurba_marseille","lat":43.25006,"lon":5.38916,"is_reserved":false,"is_disabled":false,"rental_uris":{"android":"levelo://app?vid=ecafbf04-e97c-486f-8502-ae4081837df7","ios":"levelo://app?vid=ecafbf04-e97c-486f-8502-ae4081837df7"},"vehicle_type_id":"4","last_reported":1732612263,"current_range_meters":38800,"station_id":"ce4bhgp2rcd13ifvqfd0","pricing_plan_id":"cebpf4jnsgd1na2vs0mg"},{"bike_id":"2495b441-39ff-4d05-9add-5c136ffeb4ba","system_id":"levelo_inurba_marseille","lat":43.293023,"lon":5.405,"is_reserved":false,"is_disabled":true,"rental_uris":{"android":"levelo://app?vid=2495b441-39ff-4d05-9add-5c136ffeb4ba","ios":"levelo://app?vid=2495b441-39ff-4d05-9add-5c136ffeb4ba"},"vehicle_type_id":"4","last_reported":1732612263,"current_range_meters":24000,"station_id":"","pricing_plan_id":"cebpf4jnsgd1na2vs0mg"},{"bike_id":"6c03a6e6-5201-4f36-ac54-dc619c2a1897","system_id":"levelo_inurba_marseille","lat":43.31359,"lon":5.38502,"is_reserved":false,"is_disabled":false,"rental_uris":{"android":"levelo://app?vid=6c03a6e6-5201-4f36-ac54-dc619c2a1897","ios":"levelo://app?vid=6c03a6e6-5201-4f36-ac54-dc619c2a1897"},"vehicle_type_id":"4","last_reported":1732612263,"current_range_meters":34800,"station_id":"ce4bgt92rcd13ifvqcf0","pricing_plan_id":"cebpf4jnsgd1na2vs0mg"},{"bike_id":"91d1a7d4-5f61-4c78-bdbe-d1659268ba74","system_id":"levelo_inurba_marseille","lat":43.299425,"lon":5.372038,"is_reserved":false,"is_disabled":false,"rental_uris":{"android":"levelo://app?vid=91d1a7d4-5f61-4c78-bdbe-d1659268ba74","ios":"levelo://app?vid=91d1a7d4-5f61-4c78-bdbe-d1659268ba74"},"vehicle_type_id":"4","last_reported":1732612263,"current_range_meters":18800,"station_id":"ce4bgr92rcd13ifvqc7g","pricing_plan_id":"cebpf4jnsgd1na2vs0mg"},{"bike_id":"cbc2167d-639d-4b33-b914-3ad6f36f2868","system_id":"levelo_inurba_marseille","lat":43.22925,"lon":5.35374,"is_reserved":false,"is_disabled":false,"rental_uris":{"android":"levelo://app?vid=cbc2167d-639d-4b33-b914-3ad6f36f2868","ios":"levelo://app?vid=cbc2167d-639d-4b33-b914-3ad6f36f2868"},"vehicle_type_id":"4","last_reported":1732612263,"current_range_meters":26000,"station_id":"cpo3532slgdg3j2ikp40","pricing_plan_id":"cebpf4jnsgd1na2vs0mg"},{"bike_id":"e4aaa448-6975-4cf9-b295-65b715c747b4","system_id":"levelo_inurba_marseille","lat":43.30538,"lon":5.36718,"is_reserved":false,"is_disabled":false,"rental_uris":{"android":"levelo://app?vid=e4aaa448-6975-4cf9-b295-65b715c747b4","ios":"levelo://app?vid=e4aaa448-6975-4cf9-b295-65b715c747b4"},"vehicle_type_id":"4","last_reported":1732612263,"current_range_meters":30800,"station_id":"ce4bgrp2rcd13ifvqc9g","pricing_plan_id":"cebpf4jnsgd1na2vs0mg"},{"bike_id":"da587ae6-9a09-4f1f-9801-49ebadd9eaba","system_id":"levelo_inurba_marseille","lat":43.28747,"lon":5.44789,"is_reserved":false,"is_disabled":true,"rental_uris":{"android":"levelo://app?vid=da587ae6-9a09-4f1f-9801-49ebadd9eaba","ios":"levelo://app?vid=da587ae6-9a09-4f1f-9801-49ebadd9eaba"},"vehicle_type_id":"4","last_reported":1732612263,"current_range_meters":15200,"station_id":"","pricing_plan_id":"cebpf4jnsgd1na2vs0mg"},{"bike_id":"64d99805-5c2f-4296-94ac-5ea41a4650e3","system_id":"levelo_inurba_marseille","lat":43.28153,"lon":5.42637,"is_reserved":false,"is_disabled":true,"rental_uris":{"android":"levelo://app?vid=64d99805-5c2f-4296-94ac-5ea41a4650e3","ios":"levelo://app?vid=64d99805-5c2f-4296-94ac-5ea41a4650e3"},"vehicle_type_id":"4","last_reported":1732612263,"current_range_meters":17200,"station_id":"ce4bhnh2rcd13ifvqgug","pricing_plan_id":"cebpf4jnsgd1na2vs0mg"},{"bike_id":"572435f9-42b4-4ff9-bb3e-bd7d048670e4","system_id":"levelo_inurba_marseille","lat":43.29003,"lon":5.35607,"is_reserved":false,"is_disabled":false,"rental_uris":{"android":"levelo://app?vid=572435f9-42b4-4ff9-bb3e-bd7d048670e4","ios":"levelo://app?vid=572435f9-42b4-4ff9-bb3e-bd7d048670e4"},"vehicle_type_id":"4","last_reported":1732612263,"current_range_meters":38000,"station_id":"ce4bhb92rcd13ifvqen0","pricing_plan_id":"cebpf4jnsgd1na2vs0mg"},{"bike_id":"ac3c6b0d-c4b9-4ff1-b1a2-8adea9f368fc","system_id":"levelo_inurba_marseille","lat":43.30195,"lon":5.36615,"is_reserved":false,"is_disabled":false,"rental_uris":{"android":"levelo://app?vid=ac3c6b0d-c4b9-4ff1-b1a2-8adea9f368fc","ios":"levelo://app?vid=ac3c6b0d-c4b9-4ff1-b1a2-8adea9f368fc"},"vehicle_type_id":"4","last_reported":1732612263,"current_range_meters":36800,"station_id":"ce4bgrh2rcd13ifvqc8g","pricing_plan_id":"cebpf4jnsgd1na2vs0mg"},{"bike_id":"abcc7733-24ca-40e7-bed8-88a154357983","system_id":"levelo_inurba_marseille","lat":43.33753,"lon":5.37435,"is_reserved":false,"is_disabled":false,"rental_uris":{"android":"levelo://app?vid=abcc7733-24ca-40e7-bed8-88a154357983","ios":"levelo://app?vid=abcc7733-24ca-40e7-bed8-88a154357983"},"vehicle_type_id":"4","last_reported":1732612263,"current_range_meters":2000,"station_id":"","pricing_plan_id":"cebpf4jnsgd1na2vs0mg"},{"bike_id":"45934215-52a1-47cf-a035-b9f21dd0fe97","system_id":"levelo_inurba_marseille","lat":43.29577,"lon":5.39977,"is_reserved":false,"is_disabled":false,"rental_uris":{"android":"levelo://app?vid=45934215-52a1-47cf-a035-b9f21dd0fe97","ios":"levelo://app?vid=45934215-52a1-47cf-a035-b9f21dd0fe97"},"vehicle_type_id":"4","last_reported":1732612263,"current_range_meters":36800,"station_id":"ce4bh312rcd13ifvqdj0","pricing_plan_id":"cebpf4jnsgd1na2vs0mg"},{"bike_id":"002a8abb-fad3-4a02-a04c-ed4e75a95139","system_id":"levelo_inurba_marseille","lat":43.27978,"lon":5.41633,"is_reserved":false,"is_disabled":false,"rental_uris":{"android":"levelo://app?vid=002a8abb-fad3-4a02-a04c-ed4e75a95139","ios":"levelo://app?vid=002a8abb-fad3-4a02-a04c-ed4e75a95139"},"vehicle_type_id":"4","last_reported":1732612263,"current_range_meters":16000,"station_id":"ce4bho12rcd13ifvqh1g","pricing_plan_id":"cebpf4jnsgd1na2vs0mg"},{"bike_id":"eb2b1f53-4d57-499c-94f2-ec541a2a4bf4","system_id":"levelo_inurba_marseille","lat":43.27071,"lon":5.42287,"is_reserved":false,"is_disabled":false,"rental_uris":{"android":"levelo://app?vid=eb2b1f53-4d57-499c-94f2-ec541a2a4bf4","ios":"levelo://app?vid=eb2b1f53-4d57-499c-94f2-ec541a2a4bf4"},"vehicle_type_id":"4","last_reported":1732612263,"current_range_meters":28000,"station_id":"ce4bhk92rcd13ifvqgb0","pricing_plan_id":"cebpf4jnsgd1na2vs0mg"},{"bike_id":"0ef3da94-ddea-4875-bfdd-7c4d4c2b6843","system_id":"levelo_inurba_marseille","lat":43.24069,"lon":5.37762,"is_reserved":false,"is_disabled":false,"rental_uris":{"android":"levelo://app?vid=0ef3da94-ddea-4875-bfdd-7c4d4c2b6843","ios":"levelo://app?vid=0ef3da94-ddea-4875-bfdd-7c4d4c2b6843"},"vehicle_type_id":"4","last_reported":1732612263,"current_range_meters":7200,"station_id":"ce4bhnp2rcd13ifvqgvg","pricing_plan_id":"cebpf4jnsgd1na2vs0mg"},{"bike_id":"548ef624-6be8-4d1b-8570-89d6dd7d18ce","system_id":"levelo_inurba_marseille","lat":43.28025,"lon":5.41695,"is_reserved":false,"is_disabled":false,"rental_uris":{"android":"levelo://app?vid=548ef624-6be8-4d1b-8570-89d6dd7d18ce","ios":"levelo://app?vid=548ef624-6be8-4d1b-8570-89d6dd7d18ce"},"vehicle_type_id":"4","last_reported":1732612263,"current_range_meters":37600,"station_id":"ce4bho12rcd13ifvqh1g","pricing_plan_id":"cebpf4jnsgd1na2vs0mg"},{"bike_id":"6a68e396-5073-4857-b6e3-2051f828e1e2","system_id":"levelo_inurba_marseille","lat":43.24073,"lon":5.37763,"is_reserved":false,"is_disabled":false,"rental_uris":{"android":"levelo://app?vid=6a68e396-5073-4857-b6e3-2051f828e1e2","ios":"levelo://app?vid=6a68e396-5073-4857-b6e3-2051f828e1e2"},"vehicle_type_id":"4","last_reported":1732612263,"current_range_meters":35200,"station_id":"ce4bhnp2rcd13ifvqgvg","pricing_plan_id":"cebpf4jnsgd1na2vs0mg"},{"bike_id":"ed00ff1c-a428-4ce5-a455-260378e65da7","system_id":"levelo_inurba_marseille","lat":43.28804,"lon":5.40025,"is_reserved":false,"is_disabled":true,"rental_uris":{"android":"levelo://app?vid=ed00ff1c-a428-4ce5-a455-260378e65da7","ios":"levelo://app?vid=ed00ff1c-a428-4ce5-a455-260378e65da7"},"vehicle_type_id":"4","last_reported":1732612263,"current_range_meters":0,"station_id":"","pricing_plan_id":"cebpf4jnsgd1na2vs0mg"},{"bike_id":"9c9cda8c-65de-41ec-a6f6-ab7be57b8d59","system_id":"levelo_inurba_marseille","lat":43.275635,"lon":5.384155,"is_reserved":false,"is_disabled":false,"rental_uris":{"android":"levelo://app?vid=9c9cda8c-65de-41ec-a6f6-ab7be57b8d59","ios":"levelo://app?vid=9c9cda8c-65de-41ec-a6f6-ab7be57b8d59"},"vehicle_type_id":"4","last_reported":1732612263,"current_range_meters":20800,"station_id":"ce4bhh92rcd13ifvqfi0","pricing_plan_id":"cebpf4jnsgd1na2vs0mg"},{"bike_id":"54c61d95-32ee-4012-ba3b-4181bda4227d","system_id":"levelo_inurba_marseille","lat":43.30638,"lon":5.40097,"is_reserved":false,"is_disabled":false,"rental_uris":{"android":"levelo://app?vid=54c61d95-32ee-4012-ba3b-4181bda4227d","ios":"levelo://app?vid=54c61d95-32ee-4012-ba3b-4181bda4227d"},"vehicle_type_id":"4","last_reported":1732612263,"current_range_meters":28800,"station_id":"ce4bh112rcd13ifvqda0","pricing_plan_id":"cebpf4jnsgd1na2vs0mg"},{"bike_id":"858b65e1-94fc-4151-a71e-8b168cb19dcb","system_id":"levelo_inurba_marseille","lat":43.32249,"lon":5.39241,"is_reserved":false,"is_disabled":true,"rental_uris":{"android":"levelo://app?vid=858b65e1-94fc-4151-a71e-8b168cb19dcb","ios":"levelo://app?vid=858b65e1-94fc-4151-a71e-8b168cb19dcb"},"vehicle_type_id":"4","last_reported":1732612263,"current_range_meters":0,"station_id":"","pricing_plan_id":"cebpf4jnsgd1na2vs0mg"},{"bike_id":"b31d760a-e50d-44aa-92cc-4058e6781008","system_id":"levelo_inurba_marseille","lat":43.26956,"lon":5.38618,"is_reserved":false,"is_disabled":false,"rental_uris":{"android":"levelo://app?vid=b31d760a-e50d-44aa-92cc-4058e6781008","ios":"levelo://app?vid=b31d760a-e50d-44aa-92cc-4058e6781008"},"vehicle_type_id":"4","last_reported":1732612263,"current_range_meters":6800,"station_id":"ce4bhh92rcd13ifvqfh0","pricing_plan_id":"cebpf4jnsgd1na2vs0mg"},{"bike_id":"34ce0611-09b9-4f18-8616-446c982a7942","system_id":"levelo_inurba_marseille","lat":43.28271,"lon":5.35057,"is_reserved":false,"is_disabled":false,"rental_uris":{"android":"levelo://app?vid=34ce0611-09b9-4f18-8616-446c982a7942","ios":"levelo://app?vid=34ce0611-09b9-4f18-8616-446c982a7942"},"vehicle_type_id":"4","last_reported":1732612263,"current_range_meters":33200,"station_id":"ce4bhbp2rcd13ifvqerg","pricing_plan_id":"cebpf4jnsgd1na2vs0mg"},{"bike_id":"9b363232-8f76-4870-a7c9-49c00e02e754","system_id":"levelo_inurba_marseille","lat":43.2803,"lon":5.40966,"is_reserved":false,"is_disabled":false,"rental_uris":{"android":"levelo://app?vid=9b363232-8f76-4870-a7c9-49c00e02e754","ios":"levelo://app?vid=9b363232-8f76-4870-a7c9-49c00e02e754"},"vehicle_type_id":"4","last_reported":1732612263,"current_range_meters":19600,"station_id":"","pricing_plan_id":"cebpf4jnsgd1na2vs0mg"},{"bike_id":"fb6f267e-8f2f-4000-94c2-2899cf721536","system_id":"levelo_inurba_marseille","lat":43.30947,"lon":5.40595,"is_reserved":false,"is_disabled":false,"rental_uris":{"android":"levelo://app?vid=fb6f267e-8f2f-4000-94c2-2899cf721536","ios":"levelo://app?vid=fb6f267e-8f2f-4000-94c2-2899cf721536"},"vehicle_type_id":"4","last_reported":1732612263,"current_range_meters":8000,"station_id":"","pricing_plan_id":"cebpf4jnsgd1na2vs0mg"},{"bike_id":"a83da327-cc6e-409f-b844-cdcc6cb802d0","system_id":"levelo_inurba_marseille","lat":43.31365,"lon":5.38492,"is_reserved":false,"is_disabled":false,"rental_uris":{"android":"levelo://app?vid=a83da327-cc6e-409f-b844-cdcc6cb802d0","ios":"levelo://app?vid=a83da327-cc6e-409f-b844-cdcc6cb802d0"},"vehicle_type_id":"4","last_reported":1732612263,"current_range_meters":8400,"station_id":"ce4bgt92rcd13ifvqcf0","pricing_plan_id":"cebpf4jnsgd1na2vs0mg"},{"bike_id":"2b076fd7-7460-4f2e-836d-531982b1a050","system_id":"levelo_inurba_marseille","lat":43.29624,"lon":5.37147,"is_reserved":false,"is_disabled":true,"rental_uris":{"android":"levelo://app?vid=2b076fd7-7460-4f2e-836d-531982b1a050","ios":"levelo://app?vid=2b076fd7-7460-4f2e-836d-531982b1a050"},"vehicle_type_id":"4","last_reported":1732612263,"current_range_meters":33200,"station_id":"ce4bgnh2rcd13ifvqc0g","pricing_plan_id":"cebpf4jnsgd1na2vs0mg"},{"bike_id":"3bd4e758-1aa1-43e4-bf3f-c7c2dd799e60","system_id":"levelo_inurba_marseille","lat":43.231519,"lon":5.437251,"is_reserved":false,"is_disabled":false,"rental_uris":{"android":"levelo://app?vid=3bd4e758-1aa1-43e4-bf3f-c7c2dd799e60","ios":"levelo://app?vid=3bd4e758-1aa1-43e4-bf3f-c7c2dd799e60"},"vehicle_type_id":"4","last_reported":1732612263,"current_range_meters":38800,"station_id":"ce4bhmp2rcd13ifvqgog","pricing_plan_id":"cebpf4jnsgd1na2vs0mg"},{"bike_id":"8ebb8631-c5f7-4e0e-a2fa-19149d081503","system_id":"levelo_inurba_marseille","lat":43.33771,"lon":5.37412,"is_reserved":false,"is_disabled":false,"rental_uris":{"android":"levelo://app?vid=8ebb8631-c5f7-4e0e-a2fa-19149d081503","ios":"levelo://app?vid=8ebb8631-c5f7-4e0e-a2fa-19149d081503"},"vehicle_type_id":"4","last_reported":1732612263,"current_range_meters":38800,"station_id":"","pricing_plan_id":"cebpf4jnsgd1na2vs0mg"},{"bike_id":"bc0c529a-a8e3-4d1e-b42d-04fd73268cf8","system_id":"levelo_inurba_marseille","lat":43.31706,"lon":5.377525,"is_reserved":false,"is_disabled":true,"rental_uris":{"android":"levelo://app?vid=bc0c529a-a8e3-4d1e-b42d-04fd73268cf8","ios":"levelo://app?vid=bc0c529a-a8e3-4d1e-b42d-04fd73268cf8"},"vehicle_type_id":"4","last_reported":1732612263,"current_range_meters":36400,"station_id":"ce4bgth2rcd13ifvqch0","pricing_plan_id":"cebpf4jnsgd1na2vs0mg"},{"bike_id":"19f546bc-503f-42bc-a2b9-f1b6a11194b2","system_id":"levelo_inurba_marseille","lat":43.29788,"lon":5.38093,"is_reserved":false,"is_disabled":true,"rental_uris":{"android":"levelo://app?vid=19f546bc-503f-42bc-a2b9-f1b6a11194b2","ios":"levelo://app?vid=19f546bc-503f-42bc-a2b9-f1b6a11194b2"},"vehicle_type_id":"4","last_reported":1732612263,"current_range_meters":24000,"station_id":"ce4bgip2rcd13ifvqbb0","pricing_plan_id":"cebpf4jnsgd1na2vs0mg"},{"bike_id":"ee8e9d94-a7b7-4009-8e30-c7193a0a4415","system_id":"levelo_inurba_marseille","lat":43.26685,"lon":5.38278,"is_reserved":false,"is_disabled":false,"rental_uris":{"android":"levelo://app?vid=ee8e9d94-a7b7-4009-8e30-c7193a0a4415","ios":"levelo://app?vid=ee8e9d94-a7b7-4009-8e30-c7193a0a4415"},"vehicle_type_id":"4","last_reported":1732612263,"current_range_meters":32000,"station_id":"ce4bhg92rcd13ifvqf90","pricing_plan_id":"cebpf4jnsgd1na2vs0mg"},{"bike_id":"f7f3756c-1ec7-4782-9c87-6273f87b6774","system_id":"levelo_inurba_marseille","lat":43.337444,"lon":5.374475,"is_reserved":false,"is_disabled":true,"rental_uris":{"android":"levelo://app?vid=f7f3756c-1ec7-4782-9c87-6273f87b6774","ios":"levelo://app?vid=f7f3756c-1ec7-4782-9c87-6273f87b6774"},"vehicle_type_id":"4","last_reported":1732612263,"current_range_meters":20000,"station_id":"","pricing_plan_id":"cebpf4jnsgd1na2vs0mg"},{"bike_id":"3dc5bf7e-bd0a-4ca2-8f57-2971cc9e48f9","system_id":"levelo_inurba_marseille","lat":43.30912,"lon":5.36843,"is_reserved":false,"is_disabled":false,"rental_uris":{"android":"levelo://app?vid=3dc5bf7e-bd0a-4ca2-8f57-2971cc9e48f9","ios":"levelo://app?vid=3dc5bf7e-bd0a-4ca2-8f57-2971cc9e48f9"},"vehicle_type_id":"4","last_reported":1732612263,"current_range_meters":26000,"station_id":"ce4bgn92rcd13ifvqbvg","pricing_plan_id":"cebpf4jnsgd1na2vs0mg"},{"bike_id":"ae78cd95-0524-4346-8c3e-35a78db9a346","system_id":"levelo_inurba_marseille","lat":43.26064,"lon":5.39396,"is_reserved":false,"is_disabled":false,"rental_uris":{"android":"levelo://app?vid=ae78cd95-0524-4346-8c3e-35a78db9a346","ios":"levelo://app?vid=ae78cd95-0524-4346-8c3e-35a78db9a346"},"vehicle_type_id":"4","last_reported":1732612263,"current_range_meters":16000,"station_id":"ce4bhh92rcd13ifvqfj0","pricing_plan_id":"cebpf4jnsgd1na2vs0mg"},{"bike_id":"af3dfe89-51e8-492a-b07d-e35910b4238f","system_id":"levelo_inurba_marseille","lat":43.31226,"lon":5.36858,"is_reserved":false,"is_disabled":false,"rental_uris":{"android":"levelo://app?vid=af3dfe89-51e8-492a-b07d-e35910b4238f","ios":"levelo://app?vid=af3dfe89-51e8-492a-b07d-e35910b4238f"},"vehicle_type_id":"4","last_reported":1732612263,"current_range_meters":20800,"station_id":"ce4bgl92rcd13ifvqbq0","pricing_plan_id":"cebpf4jnsgd1na2vs0mg"},{"bike_id":"498263c9-aef0-468c-b626-9742d816e9b7","system_id":"levelo_inurba_marseille","lat":43.29034,"lon":5.386434,"is_reserved":false,"is_disabled":false,"rental_uris":{"android":"levelo://app?vid=498263c9-aef0-468c-b626-9742d816e9b7","ios":"levelo://app?vid=498263c9-aef0-468c-b626-9742d816e9b7"},"vehicle_type_id":"4","last_reported":1732612263,"current_range_meters":21600,"station_id":"ce4bh4p2rcd13ifvqe0g","pricing_plan_id":"cebpf4jnsgd1na2vs0mg"},{"bike_id":"e46d83c8-bfb3-4318-90b6-eadb2c6da6da","system_id":"levelo_inurba_marseille","lat":43.3123,"lon":5.36844,"is_reserved":false,"is_disabled":false,"rental_uris":{"android":"levelo://app?vid=e46d83c8-bfb3-4318-90b6-eadb2c6da6da","ios":"levelo://app?vid=e46d83c8-bfb3-4318-90b6-eadb2c6da6da"},"vehicle_type_id":"4","last_reported":1732612263,"current_range_meters":38800,"station_id":"ce4bgl92rcd13ifvqbq0","pricing_plan_id":"cebpf4jnsgd1na2vs0mg"},{"bike_id":"d0b59f68-7696-47e2-bfd5-bd18a1c02818","system_id":"levelo_inurba_marseille","lat":43.26961,"lon":5.3862,"is_reserved":false,"is_disabled":false,"rental_uris":{"android":"levelo://app?vid=d0b59f68-7696-47e2-bfd5-bd18a1c02818","ios":"levelo://app?vid=d0b59f68-7696-47e2-bfd5-bd18a1c02818"},"vehicle_type_id":"4","last_reported":1732612263,"current_range_meters":8800,"station_id":"ce4bhh92rcd13ifvqfh0","pricing_plan_id":"cebpf4jnsgd1na2vs0mg"},{"bike_id":"14f3c269-ea7b-4aeb-9a6e-2af7df033998","system_id":"levelo_inurba_marseille","lat":43.26059,"lon":5.39391,"is_reserved":false,"is_disabled":true,"rental_uris":{"android":"levelo://app?vid=14f3c269-ea7b-4aeb-9a6e-2af7df033998","ios":"levelo://app?vid=14f3c269-ea7b-4aeb-9a6e-2af7df033998"},"vehicle_type_id":"4","last_reported":1732612263,"current_range_meters":38800,"station_id":"ce4bhh92rcd13ifvqfj0","pricing_plan_id":"cebpf4jnsgd1na2vs0mg"},{"bike_id":"510aec66-5ea6-4646-af78-9fe50d92940f","system_id":"levelo_inurba_marseille","lat":43.31372,"lon":5.38491,"is_reserved":false,"is_disabled":false,"rental_uris":{"android":"levelo://app?vid=510aec66-5ea6-4646-af78-9fe50d92940f","ios":"levelo://app?vid=510aec66-5ea6-4646-af78-9fe50d92940f"},"vehicle_type_id":"4","last_reported":1732612263,"current_range_meters":24000,"station_id":"ce4bgt92rcd13ifvqcf0","pricing_plan_id":"cebpf4jnsgd1na2vs0mg"},{"bike_id":"f5658b6b-05db-4270-b5a2-b12a283db2c3","system_id":"levelo_inurba_marseille","lat":43.32287,"lon":5.38266,"is_reserved":false,"is_disabled":false,"rental_uris":{"android":"levelo://app?vid=f5658b6b-05db-4270-b5a2-b12a283db2c3","ios":"levelo://app?vid=f5658b6b-05db-4270-b5a2-b12a283db2c3"},"vehicle_type_id":"4","last_reported":1732612263,"current_range_meters":38400,"station_id":"ce4bhr12rcd13ifvqhqg","pricing_plan_id":"cebpf4jnsgd1na2vs0mg"},{"bike_id":"0d086426-2ff7-4086-9698-4f6198410db1","system_id":"levelo_inurba_marseille","lat":43.29029,"lon":5.38658,"is_reserved":false,"is_disabled":false,"rental_uris":{"android":"levelo://app?vid=0d086426-2ff7-4086-9698-4f6198410db1","ios":"levelo://app?vid=0d086426-2ff7-4086-9698-4f6198410db1"},"vehicle_type_id":"4","last_reported":1732612263,"current_range_meters":9600,"station_id":"ce4bh4p2rcd13ifvqe0g","pricing_plan_id":"cebpf4jnsgd1na2vs0mg"},{"bike_id":"4ec0cf9e-acec-42dc-a4d1-2aeda856a839","system_id":"levelo_inurba_marseille","lat":43.30914,"lon":5.36845,"is_reserved":false,"is_disabled":false,"rental_uris":{"android":"levelo://app?vid=4ec0cf9e-acec-42dc-a4d1-2aeda856a839","ios":"levelo://app?vid=4ec0cf9e-acec-42dc-a4d1-2aeda856a839"},"vehicle_type_id":"4","last_reported":1732612263,"current_range_meters":32400,"station_id":"ce4bgn92rcd13ifvqbvg","pricing_plan_id":"cebpf4jnsgd1na2vs0mg"},{"bike_id":"a5909545-3e09-4859-9fda-9ffe4e6e4883","system_id":"levelo_inurba_marseille","lat":43.23065,"lon":5.35491,"is_reserved":false,"is_disabled":false,"rental_uris":{"android":"levelo://app?vid=a5909545-3e09-4859-9fda-9ffe4e6e4883","ios":"levelo://app?vid=a5909545-3e09-4859-9fda-9ffe4e6e4883"},"vehicle_type_id":"4","last_reported":1732612263,"current_range_meters":32400,"station_id":"cpo3342slgdg3j2ifvpg","pricing_plan_id":"cebpf4jnsgd1na2vs0mg"},{"bike_id":"80106cfa-da2b-4410-bbab-cbc55bf3ed7d","system_id":"levelo_inurba_marseille","lat":43.24077,"lon":5.37746,"is_reserved":false,"is_disabled":false,"rental_uris":{"android":"levelo://app?vid=80106cfa-da2b-4410-bbab-cbc55bf3ed7d","ios":"levelo://app?vid=80106cfa-da2b-4410-bbab-cbc55bf3ed7d"},"vehicle_type_id":"4","last_reported":1732612263,"current_range_meters":38400,"station_id":"ce4bhnp2rcd13ifvqgvg","pricing_plan_id":"cebpf4jnsgd1na2vs0mg"},{"bike_id":"c6ebf3d4-bfbc-463a-84d1-84e4a5f78ee1","system_id":"levelo_inurba_marseille","lat":43.30197,"lon":5.3663,"is_reserved":false,"is_disabled":false,"rental_uris":{"android":"levelo://app?vid=c6ebf3d4-bfbc-463a-84d1-84e4a5f78ee1","ios":"levelo://app?vid=c6ebf3d4-bfbc-463a-84d1-84e4a5f78ee1"},"vehicle_type_id":"4","last_reported":1732612263,"current_range_meters":38800,"station_id":"ce4bgrh2rcd13ifvqc8g","pricing_plan_id":"cebpf4jnsgd1na2vs0mg"},{"bike_id":"b50a8cfd-bc28-4b08-8539-acb5b52c5e15","system_id":"levelo_inurba_marseille","lat":43.27494,"lon":5.42454,"is_reserved":false,"is_disabled":false,"rental_uris":{"android":"levelo://app?vid=b50a8cfd-bc28-4b08-8539-acb5b52c5e15","ios":"levelo://app?vid=b50a8cfd-bc28-4b08-8539-acb5b52c5e15"},"vehicle_type_id":"4","last_reported":1732612263,"current_range_meters":32400,"station_id":"ce4bhn92rcd13ifvqgrg","pricing_plan_id":"cebpf4jnsgd1na2vs0mg"},{"bike_id":"8b855d86-2674-4484-ad52-bb485bad7ee1","system_id":"levelo_inurba_marseille","lat":43.30542,"lon":5.36532,"is_reserved":false,"is_disabled":false,"rental_uris":{"android":"levelo://app?vid=8b855d86-2674-4484-ad52-bb485bad7ee1","ios":"levelo://app?vid=8b855d86-2674-4484-ad52-bb485bad7ee1"},"vehicle_type_id":"4","last_reported":1732612263,"current_range_meters":32000,"station_id":"ce4bgs12rcd13ifvqcag","pricing_plan_id":"cebpf4jnsgd1na2vs0mg"},{"bike_id":"d32e419a-46a3-4050-be6a-d2a299ac411f","system_id":"levelo_inurba_marseille","lat":43.293091,"lon":5.371829,"is_reserved":false,"is_disabled":true,"rental_uris":{"android":"levelo://app?vid=d32e419a-46a3-4050-be6a-d2a299ac411f","ios":"levelo://app?vid=d32e419a-46a3-4050-be6a-d2a299ac411f"},"vehicle_type_id":"4","last_reported":1732612263,"current_range_meters":22400,"station_id":"ce4bgh92rcd13ifvqb40","pricing_plan_id":"cebpf4jnsgd1na2vs0mg"},{"bike_id":"e55cb847-ae27-4fbd-b24c-f65df0e27256","system_id":"levelo_inurba_marseille","lat":43.28032,"lon":5.36927,"is_reserved":false,"is_disabled":true,"rental_uris":{"android":"levelo://app?vid=e55cb847-ae27-4fbd-b24c-f65df0e27256","ios":"levelo://app?vid=e55cb847-ae27-4fbd-b24c-f65df0e27256"},"vehicle_type_id":"4","last_reported":1732612263,"current_range_meters":26000,"station_id":"ce4bha12rcd13ifvqef0","pricing_plan_id":"cebpf4jnsgd1na2vs0mg"},{"bike_id":"bdcaac5a-04e1-44a7-a5fc-d9663817d6de","system_id":"levelo_inurba_marseille","lat":43.30152,"lon":5.38084,"is_reserved":false,"is_disabled":false,"rental_uris":{"android":"levelo://app?vid=bdcaac5a-04e1-44a7-a5fc-d9663817d6de","ios":"levelo://app?vid=bdcaac5a-04e1-44a7-a5fc-d9663817d6de"},"vehicle_type_id":"4","last_reported":1732612263,"current_range_meters":38800,"station_id":"ce4bgjp2rcd13ifvqbh0","pricing_plan_id":"cebpf4jnsgd1na2vs0mg"},{"bike_id":"e5951ee3-4a5a-4ebb-b469-096c5188dfa3","system_id":"levelo_inurba_marseille","lat":43.23184,"lon":5.35547,"is_reserved":false,"is_disabled":false,"rental_uris":{"android":"levelo://app?vid=e5951ee3-4a5a-4ebb-b469-096c5188dfa3","ios":"levelo://app?vid=e5951ee3-4a5a-4ebb-b469-096c5188dfa3"},"vehicle_type_id":"4","last_reported":1732612263,"current_range_meters":36800,"station_id":"ce4bhu92rcd13ifvqi70","pricing_plan_id":"cebpf4jnsgd1na2vs0mg"},{"bike_id":"2c725aef-6050-4109-b151-3716b3868444","system_id":"levelo_inurba_marseille","lat":43.29221,"lon":5.36056,"is_reserved":false,"is_disabled":true,"rental_uris":{"android":"levelo://app?vid=2c725aef-6050-4109-b151-3716b3868444","ios":"levelo://app?vid=2c725aef-6050-4109-b151-3716b3868444"},"vehicle_type_id":"4","last_reported":1732612263,"current_range_meters":35600,"station_id":"ce4bhbh2rcd13ifvqeqg","pricing_plan_id":"cebpf4jnsgd1na2vs0mg"},{"bike_id":"e2104004-821b-4cd5-97bb-7c88e986d710","system_id":"levelo_inurba_marseille","lat":43.25111,"lon":5.40324,"is_reserved":false,"is_disabled":true,"rental_uris":{"android":"levelo://app?vid=e2104004-821b-4cd5-97bb-7c88e986d710","ios":"levelo://app?vid=e2104004-821b-4cd5-97bb-7c88e986d710"},"vehicle_type_id":"4","last_reported":1732612263,"current_range_meters":8800,"station_id":"ce4bhlh2rcd13ifvqgig","pricing_plan_id":"cebpf4jnsgd1na2vs0mg"},{"bike_id":"f960203b-2812-45ea-87dc-fdcf497b1e15","system_id":"levelo_inurba_marseille","lat":43.28151,"lon":5.42646,"is_reserved":false,"is_disabled":true,"rental_uris":{"android":"levelo://app?vid=f960203b-2812-45ea-87dc-fdcf497b1e15","ios":"levelo://app?vid=f960203b-2812-45ea-87dc-fdcf497b1e15"},"vehicle_type_id":"4","last_reported":1732612263,"current_range_meters":26800,"station_id":"ce4bhnh2rcd13ifvqgug","pricing_plan_id":"cebpf4jnsgd1na2vs0mg"},{"bike_id":"66aad5d7-efa9-4543-8e11-bbf0af584fcf","system_id":"levelo_inurba_marseille","lat":43.27835,"lon":5.40703,"is_reserved":false,"is_disabled":true,"rental_uris":{"android":"levelo://app?vid=66aad5d7-efa9-4543-8e11-bbf0af584fcf","ios":"levelo://app?vid=66aad5d7-efa9-4543-8e11-bbf0af584fcf"},"vehicle_type_id":"4","last_reported":1732612263,"current_range_meters":38800,"station_id":"ce4bhnh2rcd13ifvqgtg","pricing_plan_id":"cebpf4jnsgd1na2vs0mg"},{"bike_id":"86dbf714-a7a5-43c3-97e3-4222b28b5d69","system_id":"levelo_inurba_marseille","lat":43.30354,"lon":5.41886,"is_reserved":false,"is_disabled":false,"rental_uris":{"android":"levelo://app?vid=86dbf714-a7a5-43c3-97e3-4222b28b5d69","ios":"levelo://app?vid=86dbf714-a7a5-43c3-97e3-4222b28b5d69"},"vehicle_type_id":"4","last_reported":1732612263,"current_range_meters":25600,"station_id":"ce4bhop2rcd13ifvqh7g","pricing_plan_id":"cebpf4jnsgd1na2vs0mg"},{"bike_id":"6c948e9c-d5b3-4fe5-a918-1bd2f7c83b02","system_id":"levelo_inurba_marseille","lat":43.32115,"lon":5.36766,"is_reserved":false,"is_disabled":false,"rental_uris":{"android":"levelo://app?vid=6c948e9c-d5b3-4fe5-a918-1bd2f7c83b02","ios":"levelo://app?vid=6c948e9c-d5b3-4fe5-a918-1bd2f7c83b02"},"vehicle_type_id":"4","last_reported":1732612263,"current_range_meters":19200,"station_id":"ce4bhrh2rcd13ifvqhug","pricing_plan_id":"cebpf4jnsgd1na2vs0mg"},{"bike_id":"9e620abf-d324-4f99-84fc-d67e71109f2a","system_id":"levelo_inurba_marseille","lat":43.31077,"lon":5.42435,"is_reserved":false,"is_disabled":true,"rental_uris":{"android":"levelo://app?vid=9e620abf-d324-4f99-84fc-d67e71109f2a","ios":"levelo://app?vid=9e620abf-d324-4f99-84fc-d67e71109f2a"},"vehicle_type_id":"4","last_reported":1732612263,"current_range_meters":0,"station_id":"ce4bhp92rcd13ifvqhag","pricing_plan_id":"cebpf4jnsgd1na2vs0mg"},{"bike_id":"de7004a3-b7db-49aa-9067-0b6ed2338314","system_id":"levelo_inurba_marseille","lat":43.3123,"lon":5.36844,"is_reserved":false,"is_disabled":false,"rental_uris":{"android":"levelo://app?vid=de7004a3-b7db-49aa-9067-0b6ed2338314","ios":"levelo://app?vid=de7004a3-b7db-49aa-9067-0b6ed2338314"},"vehicle_type_id":"4","last_reported":1732612263,"current_range_meters":27200,"station_id":"ce4bgl92rcd13ifvqbq0","pricing_plan_id":"cebpf4jnsgd1na2vs0mg"},{"bike_id":"7c91f2ac-1dd3-428c-aafd-49def36e722e","system_id":"levelo_inurba_marseille","lat":43.33758,"lon":5.37417,"is_reserved":false,"is_disabled":false,"rental_uris":{"android":"levelo://app?vid=7c91f2ac-1dd3-428c-aafd-49def36e722e","ios":"levelo://app?vid=7c91f2ac-1dd3-428c-aafd-49def36e722e"},"vehicle_type_id":"4","last_reported":1732612263,"current_range_meters":32800,"station_id":"","pricing_plan_id":"cebpf4jnsgd1na2vs0mg"},{"bike_id":"e17d15ca-10bf-42d1-8bbe-8f3dd9f2a2c6","system_id":"levelo_inurba_marseille","lat":43.31361,"lon":5.36733,"is_reserved":false,"is_disabled":false,"rental_uris":{"android":"levelo://app?vid=e17d15ca-10bf-42d1-8bbe-8f3dd9f2a2c6","ios":"levelo://app?vid=e17d15ca-10bf-42d1-8bbe-8f3dd9f2a2c6"},"vehicle_type_id":"4","last_reported":1732612263,"current_range_meters":38800,"station_id":"ce4bgr92rcd13ifvqc6g","pricing_plan_id":"cebpf4jnsgd1na2vs0mg"},{"bike_id":"5c53cfbd-2547-413a-b79a-f8cc3b1ca992","system_id":"levelo_inurba_marseille","lat":43.32114,"lon":5.36773,"is_reserved":false,"is_disabled":false,"rental_uris":{"android":"levelo://app?vid=5c53cfbd-2547-413a-b79a-f8cc3b1ca992","ios":"levelo://app?vid=5c53cfbd-2547-413a-b79a-f8cc3b1ca992"},"vehicle_type_id":"4","last_reported":1732612263,"current_range_meters":32800,"station_id":"ce4bhrh2rcd13ifvqhug","pricing_plan_id":"cebpf4jnsgd1na2vs0mg"},{"bike_id":"a42c015d-bce2-41fd-948d-86d77adaeb82","system_id":"levelo_inurba_marseille","lat":43.24666,"lon":5.38167,"is_reserved":false,"is_disabled":true,"rental_uris":{"android":"levelo://app?vid=a42c015d-bce2-41fd-948d-86d77adaeb82","ios":"levelo://app?vid=a42c015d-bce2-41fd-948d-86d77adaeb82"},"vehicle_type_id":"4","last_reported":1732612263,"current_range_meters":18000,"station_id":"ce4bhih2rcd13ifvqfr0","pricing_plan_id":"cebpf4jnsgd1na2vs0mg"},{"bike_id":"3bcc09b5-30be-437d-9652-dfd3862b5fa4","system_id":"levelo_inurba_marseille","lat":43.3091,"lon":5.36843,"is_reserved":false,"is_disabled":false,"rental_uris":{"android":"levelo://app?vid=3bcc09b5-30be-437d-9652-dfd3862b5fa4","ios":"levelo://app?vid=3bcc09b5-30be-437d-9652-dfd3862b5fa4"},"vehicle_type_id":"4","last_reported":1732612263,"current_range_meters":14800,"station_id":"ce4bgn92rcd13ifvqbvg","pricing_plan_id":"cebpf4jnsgd1na2vs0mg"},{"bike_id":"a533c993-8405-4b3a-938b-da087b2c2ce0","system_id":"levelo_inurba_marseille","lat":43.31482,"lon":5.3731,"is_reserved":false,"is_disabled":false,"rental_uris":{"android":"levelo://app?vid=a533c993-8405-4b3a-938b-da087b2c2ce0","ios":"levelo://app?vid=a533c993-8405-4b3a-938b-da087b2c2ce0"},"vehicle_type_id":"4","last_reported":1732612263,"current_range_meters":8800,"station_id":"ce4bgt12rcd13ifvqcd0","pricing_plan_id":"cebpf4jnsgd1na2vs0mg"},{"bike_id":"055ef52f-d4ea-4295-a3aa-4c1f0deccd17","system_id":"levelo_inurba_marseille","lat":43.30599,"lon":5.37205,"is_reserved":false,"is_disabled":false,"rental_uris":{"android":"levelo://app?vid=055ef52f-d4ea-4295-a3aa-4c1f0deccd17","ios":"levelo://app?vid=055ef52f-d4ea-4295-a3aa-4c1f0deccd17"},"vehicle_type_id":"4","last_reported":1732612263,"current_range_meters":36800,"station_id":"ce4bgqh2rcd13ifvqc4g","pricing_plan_id":"cebpf4jnsgd1na2vs0mg"},{"bike_id":"e9ecf9f5-1e07-4dd5-a0ed-971e59ddf795","system_id":"levelo_inurba_marseille","lat":43.31354,"lon":5.3672,"is_reserved":false,"is_disabled":false,"rental_uris":{"android":"levelo://app?vid=e9ecf9f5-1e07-4dd5-a0ed-971e59ddf795","ios":"levelo://app?vid=e9ecf9f5-1e07-4dd5-a0ed-971e59ddf795"},"vehicle_type_id":"4","last_reported":1732612263,"current_range_meters":27200,"station_id":"ce4bgr92rcd13ifvqc6g","pricing_plan_id":"cebpf4jnsgd1na2vs0mg"},{"bike_id":"0d1690c4-6933-4ecf-b7e6-a5c28e8b1076","system_id":"levelo_inurba_marseille","lat":43.30917,"lon":5.36847,"is_reserved":false,"is_disabled":false,"rental_uris":{"android":"levelo://app?vid=0d1690c4-6933-4ecf-b7e6-a5c28e8b1076","ios":"levelo://app?vid=0d1690c4-6933-4ecf-b7e6-a5c28e8b1076"},"vehicle_type_id":"4","last_reported":1732612263,"current_range_meters":34000,"station_id":"ce4bgn92rcd13ifvqbvg","pricing_plan_id":"cebpf4jnsgd1na2vs0mg"},{"bike_id":"08fafe87-700d-4d18-baf9-616c50683774","system_id":"levelo_inurba_marseille","lat":43.30882,"lon":5.37172,"is_reserved":false,"is_disabled":false,"rental_uris":{"android":"levelo://app?vid=08fafe87-700d-4d18-baf9-616c50683774","ios":"levelo://app?vid=08fafe87-700d-4d18-baf9-616c50683774"},"vehicle_type_id":"4","last_reported":1732612263,"current_range_meters":33200,"station_id":"ce4bguh2rcd13ifvqckg","pricing_plan_id":"cebpf4jnsgd1na2vs0mg"},{"bike_id":"40c7ddb8-0e1a-4eb1-9e2f-d3bf1a0f9d1e","system_id":"levelo_inurba_marseille","lat":43.28273,"lon":5.35063,"is_reserved":false,"is_disabled":true,"rental_uris":{"android":"levelo://app?vid=40c7ddb8-0e1a-4eb1-9e2f-d3bf1a0f9d1e","ios":"levelo://app?vid=40c7ddb8-0e1a-4eb1-9e2f-d3bf1a0f9d1e"},"vehicle_type_id":"4","last_reported":1732612263,"current_range_meters":22000,"station_id":"ce4bhbp2rcd13ifvqerg","pricing_plan_id":"cebpf4jnsgd1na2vs0mg"},{"bike_id":"46ac22a8-6f10-4221-98a6-34eba5c97bfb","system_id":"levelo_inurba_marseille","lat":43.29188,"lon":5.37308,"is_reserved":false,"is_disabled":true,"rental_uris":{"android":"levelo://app?vid=46ac22a8-6f10-4221-98a6-34eba5c97bfb","ios":"levelo://app?vid=46ac22a8-6f10-4221-98a6-34eba5c97bfb"},"vehicle_type_id":"4","last_reported":1732612263,"current_range_meters":0,"station_id":"","pricing_plan_id":"cebpf4jnsgd1na2vs0mg"},{"bike_id":"5846e7ee-045c-466d-b02c-9cd3eadc9db6","system_id":"levelo_inurba_marseille","lat":43.29219,"lon":5.35816,"is_reserved":false,"is_disabled":true,"rental_uris":{"android":"levelo://app?vid=5846e7ee-045c-466d-b02c-9cd3eadc9db6","ios":"levelo://app?vid=5846e7ee-045c-466d-b02c-9cd3eadc9db6"},"vehicle_type_id":"4","last_reported":1732612263,"current_range_meters":36000,"station_id":"ce4bhb12rcd13ifvqel0","pricing_plan_id":"cebpf4jnsgd1na2vs0mg"},{"bike_id":"5f93638c-3bae-4327-b2e3-1fb352361912","system_id":"levelo_inurba_marseille","lat":43.27971,"lon":5.38739,"is_reserved":false,"is_disabled":false,"rental_uris":{"android":"levelo://app?vid=5f93638c-3bae-4327-b2e3-1fb352361912","ios":"levelo://app?vid=5f93638c-3bae-4327-b2e3-1fb352361912"},"vehicle_type_id":"4","last_reported":1732612263,"current_range_meters":36000,"station_id":"ce4bhg12rcd13ifvqf80","pricing_plan_id":"cebpf4jnsgd1na2vs0mg"},{"bike_id":"43746d86-8a13-4845-9faf-ae69b548d714","system_id":"levelo_inurba_marseille","lat":43.29459,"lon":5.37917,"is_reserved":false,"is_disabled":true,"rental_uris":{"android":"levelo://app?vid=43746d86-8a13-4845-9faf-ae69b548d714","ios":"levelo://app?vid=43746d86-8a13-4845-9faf-ae69b548d714"},"vehicle_type_id":"4","last_reported":1732612263,"current_range_meters":0,"station_id":"","pricing_plan_id":"cebpf4jnsgd1na2vs0mg"},{"bike_id":"5678d3fa-7c1a-427d-86a2-7fa164fffbf3","system_id":"levelo_inurba_marseille","lat":43.26061,"lon":5.39398,"is_reserved":false,"is_disabled":false,"rental_uris":{"android":"levelo://app?vid=5678d3fa-7c1a-427d-86a2-7fa164fffbf3","ios":"levelo://app?vid=5678d3fa-7c1a-427d-86a2-7fa164fffbf3"},"vehicle_type_id":"4","last_reported":1732612263,"current_range_meters":5600,"station_id":"ce4bhh92rcd13ifvqfj0","pricing_plan_id":"cebpf4jnsgd1na2vs0mg"},{"bike_id":"a2b09865-004d-45eb-b301-cf3640220a72","system_id":"levelo_inurba_marseille","lat":43.29605,"lon":5.38105,"is_reserved":false,"is_disabled":true,"rental_uris":{"android":"levelo://app?vid=a2b09865-004d-45eb-b301-cf3640220a72","ios":"levelo://app?vid=a2b09865-004d-45eb-b301-cf3640220a72"},"vehicle_type_id":"4","last_reported":1732612263,"current_range_meters":0,"station_id":"ce4bgl12rcd13ifvqbo0","pricing_plan_id":"cebpf4jnsgd1na2vs0mg"},{"bike_id":"582755b2-034e-47c6-ae8c-6be707a971a3","system_id":"levelo_inurba_marseille","lat":43.31357,"lon":5.36719,"is_reserved":false,"is_disabled":false,"rental_uris":{"android":"levelo://app?vid=582755b2-034e-47c6-ae8c-6be707a971a3","ios":"levelo://app?vid=582755b2-034e-47c6-ae8c-6be707a971a3"},"vehicle_type_id":"4","last_reported":1732612263,"current_range_meters":17200,"station_id":"ce4bgr92rcd13ifvqc6g","pricing_plan_id":"cebpf4jnsgd1na2vs0mg"},{"bike_id":"9df117ac-7f63-49f5-90cb-f011a374e7eb","system_id":"levelo_inurba_marseille","lat":43.30542,"lon":5.36686,"is_reserved":false,"is_disabled":false,"rental_uris":{"android":"levelo://app?vid=9df117ac-7f63-49f5-90cb-f011a374e7eb","ios":"levelo://app?vid=9df117ac-7f63-49f5-90cb-f011a374e7eb"},"vehicle_type_id":"4","last_reported":1732612263,"current_range_meters":6800,"station_id":"ce4bgrp2rcd13ifvqc9g","pricing_plan_id":"cebpf4jnsgd1na2vs0mg"},{"bike_id":"f971abee-70f8-43dc-afe4-4050ccc8c3f7","system_id":"levelo_inurba_marseille","lat":43.25865,"lon":5.39915,"is_reserved":false,"is_disabled":true,"rental_uris":{"android":"levelo://app?vid=f971abee-70f8-43dc-afe4-4050ccc8c3f7","ios":"levelo://app?vid=f971abee-70f8-43dc-afe4-4050ccc8c3f7"},"vehicle_type_id":"4","last_reported":1732612263,"current_range_meters":36800,"station_id":"ce4bhl92rcd13ifvqghg","pricing_plan_id":"cebpf4jnsgd1na2vs0mg"},{"bike_id":"14bd5244-1d0a-44fa-b41c-c8b57d73ed9d","system_id":"levelo_inurba_marseille","lat":43.30919,"lon":5.36844,"is_reserved":false,"is_disabled":false,"rental_uris":{"android":"levelo://app?vid=14bd5244-1d0a-44fa-b41c-c8b57d73ed9d","ios":"levelo://app?vid=14bd5244-1d0a-44fa-b41c-c8b57d73ed9d"},"vehicle_type_id":"4","last_reported":1732612263,"current_range_meters":38800,"station_id":"ce4bgn92rcd13ifvqbvg","pricing_plan_id":"cebpf4jnsgd1na2vs0mg"},{"bike_id":"d924f497-d38e-4636-9cb9-ed9c562d6d48","system_id":"levelo_inurba_marseille","lat":43.24072,"lon":5.37751,"is_reserved":false,"is_disabled":false,"rental_uris":{"android":"levelo://app?vid=d924f497-d38e-4636-9cb9-ed9c562d6d48","ios":"levelo://app?vid=d924f497-d38e-4636-9cb9-ed9c562d6d48"},"vehicle_type_id":"4","last_reported":1732612263,"current_range_meters":6400,"station_id":"ce4bhnp2rcd13ifvqgvg","pricing_plan_id":"cebpf4jnsgd1na2vs0mg"},{"bike_id":"b4ec144c-528e-482a-b0b0-1b986d57b12f","system_id":"levelo_inurba_marseille","lat":43.24402,"lon":5.37059,"is_reserved":false,"is_disabled":true,"rental_uris":{"android":"levelo://app?vid=b4ec144c-528e-482a-b0b0-1b986d57b12f","ios":"levelo://app?vid=b4ec144c-528e-482a-b0b0-1b986d57b12f"},"vehicle_type_id":"4","last_reported":1732612263,"current_range_meters":37600,"station_id":"ce4bhhh2rcd13ifvqfk0","pricing_plan_id":"cebpf4jnsgd1na2vs0mg"},{"bike_id":"54420803-63af-4eb9-ae42-09fc71ac3b71","system_id":"levelo_inurba_marseille","lat":43.24179,"lon":5.39729,"is_reserved":false,"is_disabled":false,"rental_uris":{"android":"levelo://app?vid=54420803-63af-4eb9-ae42-09fc71ac3b71","ios":"levelo://app?vid=54420803-63af-4eb9-ae42-09fc71ac3b71"},"vehicle_type_id":"4","last_reported":1732612263,"current_range_meters":20400,"station_id":"ce4bhn12rcd13ifvqgpg","pricing_plan_id":"cebpf4jnsgd1na2vs0mg"},{"bike_id":"b9c2695d-397d-42b8-9037-6ec935848cb0","system_id":"levelo_inurba_marseille","lat":43.2928,"lon":5.4011,"is_reserved":false,"is_disabled":true,"rental_uris":{"android":"levelo://app?vid=b9c2695d-397d-42b8-9037-6ec935848cb0","ios":"levelo://app?vid=b9c2695d-397d-42b8-9037-6ec935848cb0"},"vehicle_type_id":"4","last_reported":1732612263,"current_range_meters":0,"station_id":"ce4bh312rcd13ifvqdk0","pricing_plan_id":"cebpf4jnsgd1na2vs0mg"},{"bike_id":"78922ddc-8c95-470c-86c3-cc659680d91d","system_id":"levelo_inurba_marseille","lat":43.23198,"lon":5.35534,"is_reserved":false,"is_disabled":false,"rental_uris":{"android":"levelo://app?vid=78922ddc-8c95-470c-86c3-cc659680d91d","ios":"levelo://app?vid=78922ddc-8c95-470c-86c3-cc659680d91d"},"vehicle_type_id":"4","last_reported":1732612263,"current_range_meters":25600,"station_id":"ce4bhu92rcd13ifvqi70","pricing_plan_id":"cebpf4jnsgd1na2vs0mg"},{"bike_id":"a79097a6-c6c2-442a-9a18-50505a15e6cc","system_id":"levelo_inurba_marseille","lat":43.324845,"lon":5.365679,"is_reserved":false,"is_disabled":false,"rental_uris":{"android":"levelo://app?vid=a79097a6-c6c2-442a-9a18-50505a15e6cc","ios":"levelo://app?vid=a79097a6-c6c2-442a-9a18-50505a15e6cc"},"vehicle_type_id":"4","last_reported":1732612263,"current_range_meters":33600,"station_id":"ce4bhs12rcd13ifvqhvg","pricing_plan_id":"cebpf4jnsgd1na2vs0mg"},{"bike_id":"266a4081-8825-4c7c-82df-a2cbdceb8912","system_id":"levelo_inurba_marseille","lat":43.2407,"lon":5.37764,"is_reserved":false,"is_disabled":false,"rental_uris":{"android":"levelo://app?vid=266a4081-8825-4c7c-82df-a2cbdceb8912","ios":"levelo://app?vid=266a4081-8825-4c7c-82df-a2cbdceb8912"},"vehicle_type_id":"4","last_reported":1732612263,"current_range_meters":28400,"station_id":"ce4bhnp2rcd13ifvqgvg","pricing_plan_id":"cebpf4jnsgd1na2vs0mg"},{"bike_id":"9666ce30-5f2f-4332-a708-df17ba16a1d5","system_id":"levelo_inurba_marseille","lat":43.3248,"lon":5.3656,"is_reserved":false,"is_disabled":false,"rental_uris":{"android":"levelo://app?vid=9666ce30-5f2f-4332-a708-df17ba16a1d5","ios":"levelo://app?vid=9666ce30-5f2f-4332-a708-df17ba16a1d5"},"vehicle_type_id":"4","last_reported":1732612263,"current_range_meters":24400,"station_id":"ce4bhs12rcd13ifvqhvg","pricing_plan_id":"cebpf4jnsgd1na2vs0mg"},{"bike_id":"821bf144-3e04-433b-8fdc-df913ad0749b","system_id":"levelo_inurba_marseille","lat":43.31701,"lon":5.3774,"is_reserved":false,"is_disabled":false,"rental_uris":{"android":"levelo://app?vid=821bf144-3e04-433b-8fdc-df913ad0749b","ios":"levelo://app?vid=821bf144-3e04-433b-8fdc-df913ad0749b"},"vehicle_type_id":"4","last_reported":1732612263,"current_range_meters":30400,"station_id":"ce4bgth2rcd13ifvqch0","pricing_plan_id":"cebpf4jnsgd1na2vs0mg"},{"bike_id":"cf5ac559-543d-4771-9daf-20d793ce8192","system_id":"levelo_inurba_marseille","lat":43.26684,"lon":5.38271,"is_reserved":false,"is_disabled":false,"rental_uris":{"android":"levelo://app?vid=cf5ac559-543d-4771-9daf-20d793ce8192","ios":"levelo://app?vid=cf5ac559-543d-4771-9daf-20d793ce8192"},"vehicle_type_id":"4","last_reported":1732612263,"current_range_meters":30400,"station_id":"ce4bhg92rcd13ifvqf90","pricing_plan_id":"cebpf4jnsgd1na2vs0mg"},{"bike_id":"7e9061cd-5627-407a-8c6f-fcf878e75a40","system_id":"levelo_inurba_marseille","lat":43.2795,"lon":5.41039,"is_reserved":false,"is_disabled":true,"rental_uris":{"android":"levelo://app?vid=7e9061cd-5627-407a-8c6f-fcf878e75a40","ios":"levelo://app?vid=7e9061cd-5627-407a-8c6f-fcf878e75a40"},"vehicle_type_id":"4","last_reported":1732612263,"current_range_meters":0,"station_id":"ce4bhnp2rcd13ifvqh0g","pricing_plan_id":"cebpf4jnsgd1na2vs0mg"},{"bike_id":"009fe169-0c00-4962-9a5d-68dc5d216a87","system_id":"levelo_inurba_marseille","lat":43.32493,"lon":5.36569,"is_reserved":false,"is_disabled":false,"rental_uris":{"android":"levelo://app?vid=009fe169-0c00-4962-9a5d-68dc5d216a87","ios":"levelo://app?vid=009fe169-0c00-4962-9a5d-68dc5d216a87"},"vehicle_type_id":"4","last_reported":1732612263,"current_range_meters":27200,"station_id":"ce4bhs12rcd13ifvqhvg","pricing_plan_id":"cebpf4jnsgd1na2vs0mg"},{"bike_id":"1d4857e3-6da2-403a-826b-f5051bc1ae8a","system_id":"levelo_inurba_marseille","lat":43.28268,"lon":5.35074,"is_reserved":false,"is_disabled":false,"rental_uris":{"android":"levelo://app?vid=1d4857e3-6da2-403a-826b-f5051bc1ae8a","ios":"levelo://app?vid=1d4857e3-6da2-403a-826b-f5051bc1ae8a"},"vehicle_type_id":"4","last_reported":1732612263,"current_range_meters":30800,"station_id":"ce4bhbp2rcd13ifvqerg","pricing_plan_id":"cebpf4jnsgd1na2vs0mg"},