{"last_updated":1756134653,"ttl":60,"version":"2.2","data":{"bikes":[{"bike_id":"3786bc3f-a1ef-4971-82b5-53ee21f255a9","system_id":"levelo_inurba_marseille","lat":43.337444,"lon":5.374475,"is_reserved":false,"is_disabled":true,"rental_uris":{"android":"levelo://app?vid=3786bc3f-a1ef-4971-82b5-53ee21f255a9","ios":"levelo://app?vid=3786bc3f-a1ef-4971-82b5-53ee21f255a9"},"vehicle_type_id":"4","last_reported":1756134654,"current_range_meters":0,"station_id":"","pricing_plan_id":"cebpf4jnsgd1na2vs0mg"},{"bike_id":"eaf33fba-ed97-48de-8903-7533cbd22295","system_id":"levelo_inurba_marseille","lat":43.337444,"lon":5.374475,"is_reserved":false,"is_disabled":true,"rental_uris":{"android":"levelo://app?vid=eaf33fba-ed97-48de-8903-7533cbd22295","ios":"levelo://app?vid=eaf33fba-ed97-48de-8903-7533cbd22295"},"vehicle_type_id":"4","last_reported":1756134654,"current_range_meters":0,"station_id":"","pricing_plan_id":"cebpf4jnsgd1na2vs0mg"},{"bike_id":"d165ff19-8e79-4669-a0ec-2766941625b3","system_id":"levelo_inurba_marseille","lat":43.337444,"lon":5.374475,"is_reserved":false,"is_disabled":true,"rental_uris":{"android":"levelo://app?vid=d165ff19-8e79-4669-a0ec-2766941625b3","ios":"levelo://app?vid=d165ff19-8e79-4669-a0ec-2766941625b3"},"vehicle_type_id":"4","last_reported":1756134654,"current_range_meters":0,"station_id":"","pricing_plan_id":"cebpf4jnsgd1na2vs0mg"},{"bike_id":"fee6e365-1410-47ff-aac6-460fe19870cf","system_id":"levelo_inurba_marseille","lat":43.33771,"lon":5.37424,"is_reserved":false,"is_disabled":true,"rental_uris":{"android":"levelo://app?vid=fee6e365-1410-47ff-aac6-460fe19870cf","ios":"levelo://app?vid=fee6e365-1410-47ff-aac6-460fe19870cf"},"vehicle_type_id":"4","last_reported":1756134654,"current_range_meters":0,"station_id":"","pricing_plan_id":"cebpf4jnsgd1na2vs0mg"},{"bike_id":"e7907bf2-9f85-4fec-b00b-f77b1a4a873c","system_id":"levelo_inurba_marseille","lat":43.33751,"lon":5.37456,"is_reserved":false,"is_disabled":true,"rental_uris":{"android":"levelo://app?vid=e7907bf2-9f85-4fec-b00b-f77b1a4a873c","ios":"levelo://app?vid=e7907bf2-9f85-4fec-b00b-f77b1a4a873c"},"vehicle_type_id":"4","last_reported":1756134654,"current_range_meters":0,"station_id":"","pricing_plan_id":"cebpf4jnsgd1na2vs0mg"},{"bike_id":"c060c1ec-0d33-42db-9a3d-6fb7fae5ea5e","system_id":"levelo_inurba_marseille","lat":43.33747,"lon":5.37463,"is_reserved":false,"is_disabled":true,"rental_uris":{"android":"levelo://app?vid=c060c1ec-0d33-42db-9a3d-6fb7fae5ea5e","ios":"levelo://app?vid=c060c1ec-0d33-42db-9a3d-6fb7fae5ea5e"},"vehicle_type_id":"1","last_reported":1756134654,"current_range_meters":0,"station_id":"","pricing_plan_id":"cebpf4jnsgd1na2vs0mg"},{"bike_id":"e6546109-cd3c-4cd0-ac12-e78c09da4ae6","system_id":"levelo_inurba_marseille","lat":43.33737,"lon":5.37465,"is_reserved":false,"is_disabled":true,"rental_uris":{"android":"levelo://app?vid=e6546109-cd3c-4cd0-ac12-e78c09da4ae6","ios":"levelo://app?vid=e6546109-cd3c-4cd0-ac12-e78c09da4ae6"},"vehicle_type_id":"4","last_reported":1756134654,"current_range_meters":0,"station_id":"","pricing_plan_id":"cebpf4jnsgd1na2vs0mg"},{"bike_id":"8facfda0-e588-46c6-8323-70578ba699b1","system_id":"levelo_inurba_marseille","lat":43.30508,"lon":5.37018,"is_reserved":false,"is_disabled":true,"rental_uris":{"android":"levelo://app?vid=8facfda0-e588-46c6-8323-70578ba699b1","ios":"levelo://app?vid=8facfda0-e588-46c6-8323-70578ba699b1"},"vehicle_type_id":"4","last_reported":1756134654,"current_range_meters":0,"station_id":"","pricing_plan_id":"cebpf4jnsgd1na2vs0mg"},{"bike_id":"b3fa04f4-753f-44ec-9319-e8b6b49d76a7","system_id":"levelo_inurba_marseille","lat":43.26407,"lon":5.37839,"is_reserved":false,"is_disabled":true,"rental_uris":{"android":"levelo://app?vid=b3fa04f4-753f-44ec-9319-e8b6b49d76a7","ios":"levelo://app?vid=b3fa04f4-753f-44ec-9319-e8b6b49d76a7"},"vehicle_type_id":"4","last_reported":1756134654,"current_range_meters":0,"station_id":"","pricing_plan_id":"cebpf4jnsgd1na2vs0mg"},{"bike_id":"0d006835-dfc4-460a-8c56-acc02ce01133","system_id":"levelo_inurba_marseille","lat":43.2812,"lon":5.39811,"is_reserved":false,"is_disabled":true,"rental_uris":{"android":"levelo://app?vid=0d006835-dfc4-460a-8c56-acc02ce01133","ios":"levelo://app?vid=0d006835-dfc4-460a-8c56-acc02ce01133"},"vehicle_type_id":"4","last_reported":1756134654,"current_range_meters":0,"station_id":"","pricing_plan_id":"cebpf4jnsgd1na2vs0mg"},{"bike_id":"5d315e57-bb67-481f-b455-26ecfe9889ad","system_id":"levelo_inurba_marseille","lat":43.28066,"lon":5.3478,"is_reserved":false,"is_disabled":true,"rental_uris":{"android":"levelo://app?vid=5d315e57-bb67-481f-b455-26ecfe9889ad","ios":"levelo://app?vid=5d315e57-bb67-481f-b455-26ecfe9889ad"},"vehicle_type_id":"4","last_reported":1756134654,"current_range_meters":0,"station_id":"","pricing_plan_id":"cebpf4jnsgd1na2vs0mg"},{"bike_id":"38ba3d68-3b96-46a4-b2d0-cdc7f5294c22","system_id":"levelo_inurba_marseille","lat":43.32885,"lon":5.38766,"is_reserved":false,"is_disabled":true,"rental_uris":{"android":"levelo://app?vid=38ba3d68-3b96-46a4-b2d0-cdc7f5294c22","ios":"levelo://app?vid=38ba3d68-3b96-46a4-b2d0-cdc7f5294c22"},"vehicle_type_id":"4","last_reported":1756134654,"current_range_meters":0,"station_id":"","pricing_plan_id":"cebpf4jnsgd1na2vs0mg"},{"bike_id":"14fbad4c-786a-4a4b-8a18-f35c5e17a984","system_id":"levelo_inurba_marseille","lat":43.24494,"lon":5.36926,"is_reserved":false,"is_disabled":true,"rental_uris":{"android":"levelo://app?vid=14fbad4c-786a-4a4b-8a18-f35c5e17a984","ios":"levelo://app?vid=14fbad4c-786a-4a4b-8a18-f35c5e17a984"},"vehicle_type_id":"4","last_reported":1756134654,"current_range_meters":0,"station_id":"","pricing_plan_id":"cebpf4jnsgd1na2vs0mg"},{"bike_id":"8fecfd98-872d-4b0c-86da-8c5bcd09eca9","system_id":"levelo_inurba_marseille","lat":43.24778,"lon":5.41032,"is_reserved":false,"is_disabled":true,"rental_uris":{"android":"levelo://app?vid=8fecfd98-872d-4b0c-86da-8c5bcd09eca9","ios":"levelo://app?vid=8fecfd98-872d-4b0c-86da-8c5bcd09eca9"},"vehicle_type_id":"4","last_reported":1756134654,"current_range_meters":0,"station_id":"","pricing_plan_id":"cebpf4jnsgd1na2vs0mg"},{"bike_id":"1ce2accc-201d-4974-a7f0-b3c0c62b704b","system_id":"levelo_inurba_marseille","lat":43.33348,"lon":5.39871,"is_reserved":false,"is_disabled":true,"rental_uris":{"android":"levelo://app?vid=1ce2accc-201d-4974-a7f0-b3c0c62b704b","ios":"levelo://app?vid=1ce2accc-201d-4974-a7f0-b3c0c62b704b"},"vehicle_type_id":"4","last_reported":1756134654,"current_range_meters":0,"station_id":"","pricing_plan_id":"cebpf4jnsgd1na2vs0mg"},{"bike_id":"838dba12-bcaf-4dfe-bf81-73a584a33eb2","system_id":"levelo_inurba_marseille","lat":43.29609,"lon":5.36048,"is_reserved":false,"is_disabled":true,"rental_uris":{"android":"levelo://app?vid=838dba12-bcaf-4dfe-bf81-73a584a33eb2","ios":"levelo://app?vid=838dba12-bcaf-4dfe-bf81-73a584a33eb2"},"vehicle_type_id":"4","last_reported":1756134654,"current_range_meters":0,"station_id":"","pricing_plan_id":"cebpf4jnsgd1na2vs0mg"},{"bike_id":"4dca8c2f-f9d1-4702-a077-556d00c035ea","system_id":"levelo_inurba_marseille","lat":43.31851,"lon":5.37434,"is_reserved":false,"is_disabled":true,"rental_uris":{"android":"levelo://app?vid=4dca8c2f-f9d1-4702-a077-556d00c035ea","ios":"levelo://app?vid=4dca8c2f-f9d1-4702-a077-556d00c035ea"},"vehicle_type_id":"4","last_reported":1756134654,"current_range_meters":0,"station_id":"","pricing_plan_id":"cebpf4jnsgd1na2vs0mg"},{"bike_id":"784d60f4-593f-4089-80a0-7285bafa9147","system_id":"levelo_inurba_marseille","lat":43.29575,"lon":5.37517,"is_reserved":false,"is_disabled":true,"rental_uris":{"android":"levelo://app?vid=784d60f4-593f-4089-80a0-7285bafa9147","ios":"levelo://app?vid=784d60f4-593f-4089-80a0-7285bafa9147"},"vehicle_type_id":"4","last_reported":1756134654,"current_range_meters":0,"station_id":"ce4bgh92rcd13ifvqb50","pricing_plan_id":"cebpf4jnsgd1na2vs0mg"},{"bike_id":"7fea7a86-b81b-4bfb-a650-158fdff602ff","system_id":"levelo_inurba_marseille","lat":43.29576,"lon":5.37514,"is_reserved":false,"is_disabled":true,"rental_uris":{"android":"levelo://app?vid=7fea7a86-b81b-4bfb-a650-158fdff602ff","ios":"levelo://app?vid=7fea7a86-b81b-4bfb-a650-158fdff602ff"},"vehicle_type_id":"4","last_reported":1756134654,"current_range_meters":0,"station_id":"ce4bgh92rcd13ifvqb50","pricing_plan_id":"cebpf4jnsgd1na2vs0mg"},{"bike_id":"d374e399-e826-4193-8d01-9b3f9578e04c","system_id":"levelo_inurba_marseille","lat":43.31119,"lon":5.37764,"is_reserved":false,"is_disabled":true,"rental_uris":{"android":"levelo://app?vid=d374e399-e826-4193-8d01-9b3f9578e04c","ios":"levelo://app?vid=d374e399-e826-4193-8d01-9b3f9578e04c"},"vehicle_type_id":"4","last_reported":1756134654,"current_range_meters":0,"station_id":"ce4bgt92rcd13ifvqcg0","pricing_plan_id":"cebpf4jnsgd1na2vs0mg"},{"bike_id":"ea9e0799-1253-4a9c-834a-a78addf593f6","system_id":"levelo_inurba_marseille","lat":43.292267,"lon":5.360745,"is_reserved":false,"is_disabled":true,"rental_uris":{"android":"levelo://app?vid=ea9e0799-1253-4a9c-834a-a78addf593f6","ios":"levelo://app?vid=ea9e0799-1253-4a9c-834a-a78addf593f6"},"vehicle_type_id":"4","last_reported":1756134654,"current_range_meters":0,"station_id":"ce4bhbh2rcd13ifvqeqg","pricing_plan_id":"cebpf4jnsgd1na2vs0mg"},{"bike_id":"043a02fa-5492-4bcb-b4f2-739fbbfcc18b","system_id":"levelo_inurba_marseille","lat":43.21209,"lon":5.35064,"is_reserved":false,"is_disabled":true,"rental_uris":{"android":"levelo://app?vid=043a02fa-5492-4bcb-b4f2-739fbbfcc18b","ios":"levelo://app?vid=043a02fa-5492-4bcb-b4f2-739fbbfcc18b"},"vehicle_type_id":"4","last_reported":1756134654,"current_range_meters":0,"station_id":"st_cvj6sg6p6f1abm77japg","pricing_plan_id":"cebpf4jnsgd1na2vs0mg"},{"bike_id":"ba9b61a4-caf5-457d-aec4-4a9e3b81758a","system_id":"levelo_inurba_marseille","lat":43.21195,"lon":5.35079,"is_reserved":false,"is_disabled":true,"rental_uris":{"android":"levelo://app?vid=ba9b61a4-caf5-457d-aec4-4a9e3b81758a","ios":"levelo://app?vid=ba9b61a4-caf5-457d-aec4-4a9e3b81758a"},"vehicle_type_id":"4","last_reported":1756134654,"current_range_meters":0,"station_id":"st_cvj6sg6p6f1abm77japg","pricing_plan_id":"cebpf4jnsgd1na2vs0mg"},{"bike_id":"90e47907-ac8b-4816-8d0d-6723bcebe903","system_id":"levelo_inurba_marseille","lat":43.32369,"lon":5.36768,"is_reserved":false,"is_disabled":true,"rental_uris":{"android":"levelo://app?vid=90e47907-ac8b-4816-8d0d-6723bcebe903","ios":"levelo://app?vid=90e47907-ac8b-4816-8d0d-6723bcebe903"},"vehicle_type_id":"4","last_reported":1756134654,"current_range_meters":400,"station_id":"ce4bhsh2rcd13ifvqi2g","pricing_plan_id":"cebpf4jnsgd1na2vs0mg"},{"bike_id":"1ba3bdde-aab8-4f07-9fdc-3fb6cd576a01","system_id":"levelo_inurba_marseille","lat":43.21756,"lon":5.34594,"is_reserved":false,"is_disabled":true,"rental_uris":{"android":"levelo://app?vid=1ba3bdde-aab8-4f07-9fdc-3fb6cd576a01","ios":"levelo://app?vid=1ba3bdde-aab8-4f07-9fdc-3fb6cd576a01"},"vehicle_type_id":"4","last_reported":1756134654,"current_range_meters":400,"station_id":"st_cvj6r9ubvosntc0bgbag","pricing_plan_id":"cebpf4jnsgd1na2vs0mg"},{"bike_id":"9ac80080-d058-41c3-afeb-9d47ac90b78b","system_id":"levelo_inurba_marseille","lat":43.29036,"lon":5.39973,"is_reserved":false,"is_disabled":true,"rental_uris":{"android":"levelo://app?vid=9ac80080-d058-41c3-afeb-9d47ac90b78b","ios":"levelo://app?vid=9ac80080-d058-41c3-afeb-9d47ac90b78b"},"vehicle_type_id":"4","last_reported":1756134654,"current_range_meters":800,"station_id":"ce4bh392rcd13ifvqdm0","pricing_plan_id":"cebpf4jnsgd1na2vs0mg"},{"bike_id":"8e69f060-826b-46f6-98c4-65d25622f147","system_id":"levelo_inurba_marseille","lat":43.282654,"lon":5.350564,"is_reserved":false,"is_disabled":true,"rental_uris":{"android":"levelo://app?vid=8e69f060-826b-46f6-98c4-65d25622f147","ios":"levelo://app?vid=8e69f060-826b-46f6-98c4-65d25622f147"},"vehicle_type_id":"4","last_reported":1756134654,"current_range_meters":800,"station_id":"ce4bhbp2rcd13ifvqerg","pricing_plan_id":"cebpf4jnsgd1na2vs0mg"},{"bike_id":"7ef4d7bd-87e2-4a12-a313-5124f20d9147","system_id":"levelo_inurba_marseille","lat":43.29894,"lon":5.39199,"is_reserved":false,"is_disabled":true,"rental_uris":{"android":"levelo://app?vid=7ef4d7bd-87e2-4a12-a313-5124f20d9147","ios":"levelo://app?vid=7ef4d7bd-87e2-4a12-a313-5124f20d9147"},"vehicle_type_id":"4","last_reported":1756134654,"current_range_meters":1200,"station_id":"","pricing_plan_id":"cebpf4jnsgd1na2vs0mg"},{"bike_id":"8f101521-3d0f-49a1-86e1-8490b7bdaa6d","system_id":"levelo_inurba_marseille","lat":43.28833,"lon":5.37242,"is_reserved":false,"is_disabled":true,"rental_uris":{"android":"levelo://app?vid=8f101521-3d0f-49a1-86e1-8490b7bdaa6d","ios":"levelo://app?vid=8f101521-3d0f-49a1-86e1-8490b7bdaa6d"},"vehicle_type_id":"4","last_reported":1756134654,"current_range_meters":1200,"station_id":"","pricing_plan_id":"cebpf4jnsgd1na2vs0mg"},{"bike_id":"61928bf5-935e-4c3a-b381-08b829803d12","system_id":"levelo_inurba_marseille","lat":43.295733,"lon":5.399769,"is_reserved":false,"is_disabled":true,"rental_uris":{"android":"levelo://app?vid=61928bf5-935e-4c3a-b381-08b829803d12","ios":"levelo://app?vid=61928bf5-935e-4c3a-b381-08b829803d12"},"vehicle_type_id":"4","last_reported":1756134654,"current_range_meters":1200,"station_id":"ce4bh312rcd13ifvqdj0","pricing_plan_id":"cebpf4jnsgd1na2vs0mg"},{"bike_id":"cb45ef11-ca22-4180-abd0-984aabce204a","system_id":"levelo_inurba_marseille","lat":43.29214,"lon":5.35802,"is_reserved":false,"is_disabled":true,"rental_uris":{"android":"levelo://app?vid=cb45ef11-ca22-4180-abd0-984aabce204a","ios":"levelo://app?vid=cb45ef11-ca22-4180-abd0-984aabce204a"},"vehicle_type_id":"4","last_reported":1756134654,"current_range_meters":1200,"station_id":"ce4bhb12rcd13ifvqel0","pricing_plan_id":"cebpf4jnsgd1na2vs0mg"},{"bike_id":"d48af198-1b70-4828-8044-2c3139d02637","system_id":"levelo_inurba_marseille","lat":43.27175,"lon":5.40996,"is_reserved":false,"is_disabled":true,"rental_uris":{"android":"levelo://app?vid=d48af198-1b70-4828-8044-2c3139d02637","ios":"levelo://app?vid=d48af198-1b70-4828-8044-2c3139d02637"},"vehicle_type_id":"4","last_reported":1756134654,"current_range_meters":1200,"station_id":"ce4bhl12rcd13ifvqgf0","pricing_plan_id":"cebpf4jnsgd1na2vs0mg"},{"bike_id":"cb427a41-3b09-40ea-9cc7-840126d82e2c","system_id":"levelo_inurba_marseille","lat":43.30927,"lon":5.40147,"is_reserved":false,"is_disabled":true,"rental_uris":{"android":"levelo://app?vid=cb427a41-3b09-40ea-9cc7-840126d82e2c","ios":"levelo://app?vid=cb427a41-3b09-40ea-9cc7-840126d82e2c"},"vehicle_type_id":"4","last_reported":1756134654,"current_range_meters":1600,"station_id":"ce4bgvp2rcd13ifvqct0","pricing_plan_id":"cebpf4jnsgd1na2vs0mg"},{"bike_id":"0c161c17-7075-465f-8c2b-768ac39d7c84","system_id":"levelo_inurba_marseille","lat":43.306544,"lon":5.401031,"is_reserved":false,"is_disabled":true,"rental_uris":{"android":"levelo://app?vid=0c161c17-7075-465f-8c2b-768ac39d7c84","ios":"levelo://app?vid=0c161c17-7075-465f-8c2b-768ac39d7c84"},"vehicle_type_id":"4","last_reported":1756134654,"current_range_meters":2000,"station_id":"ce4bh112rcd13ifvqda0","pricing_plan_id":"cebpf4jnsgd1na2vs0mg"},{"bike_id":"36168bea-7d72-4ec9-b55b-73881a155afa","system_id":"levelo_inurba_marseille","lat":43.29877,"lon":5.39737,"is_reserved":false,"is_disabled":false,"rental_uris":{"android":"levelo://app?vid=36168bea-7d72-4ec9-b55b-73881a155afa","ios":"levelo://app?vid=36168bea-7d72-4ec9-b55b-73881a155afa"},"vehicle_type_id":"4","last_reported":1756134654,"current_range_meters":2800,"station_id":"ce4bh0h2rcd13ifvqd50","pricing_plan_id":"cebpf4jnsgd1na2vs0mg"},{"bike_id":"e5f048bc-8a14-44e1-9cff-5daea32d002b","system_id":"levelo_inurba_marseille","lat":43.29039,"lon":5.39964,"is_reserved":false,"is_disabled":false,"rental_uris":{"android":"levelo://app?vid=e5f048bc-8a14-44e1-9cff-5daea32d002b","ios":"levelo://app?vid=e5f048bc-8a14-44e1-9cff-5daea32d002b"},"vehicle_type_id":"4","last_reported":1756134654,"current_range_meters":2800,"station_id":"ce4bh392rcd13ifvqdm0","pricing_plan_id":"cebpf4jnsgd1na2vs0mg"},{"bike_id":"f5fe6f8f-dfd7-48c9-b005-531ff56901f9","system_id":"levelo_inurba_marseille","lat":43.29561,"lon":5.42271,"is_reserved":false,"is_disabled":false,"rental_uris":{"android":"levelo://app?vid=f5fe6f8f-dfd7-48c9-b005-531ff56901f9","ios":"levelo://app?vid=f5fe6f8f-dfd7-48c9-b005-531ff56901f9"},"vehicle_type_id":"4","last_reported":1756134654,"current_range_meters":2800,"station_id":"ce4bhph2rcd13ifvqhdg","pricing_plan_id":"cebpf4jnsgd1na2vs0mg"},{"bike_id":"013ff0eb-694c-4ca7-b6a0-02c9ad7afefd","system_id":"levelo_inurba_marseille","lat":43.212,"lon":5.35067,"is_reserved":false,"is_disabled":false,"rental_uris":{"android":"levelo://app?vid=013ff0eb-694c-4ca7-b6a0-02c9ad7afefd","ios":"levelo://app?vid=013ff0eb-694c-4ca7-b6a0-02c9ad7afefd"},"vehicle_type_id":"4","last_reported":1756134654,"current_range_meters":3200,"station_id":"st_cvj6sg6p6f1abm77japg","pricing_plan_id":"cebpf4jnsgd1na2vs0mg"},{"bike_id":"5a0ca738-5b37-44e3-95ca-f3540643ad22","system_id":"levelo_inurba_marseille","lat":43.30908,"lon":5.36845,"is_reserved":false,"is_disabled":false,"rental_uris":{"android":"levelo://app?vid=5a0ca738-5b37-44e3-95ca-f3540643ad22","ios":"levelo://app?vid=5a0ca738-5b37-44e3-95ca-f3540643ad22"},"vehicle_type_id":"4","last_reported":1756134654,"current_range_meters":3600,"station_id":"ce4bgn92rcd13ifvqbvg","pricing_plan_id":"cebpf4jnsgd1na2vs0mg"},{"bike_id":"4967fd0e-0c2c-4a14-911f-c48d4b69dda9","system_id":"levelo_inurba_marseille","lat":43.28465,"lon":5.35888,"is_reserved":false,"is_disabled":false,"rental_uris":{"android":"levelo://app?vid=4967fd0e-0c2c-4a14-911f-c48d4b69dda9","ios":"levelo://app?vid=4967fd0e-0c2c-4a14-911f-c48d4b69dda9"},"vehicle_type_id":"4","last_reported":1756134654,"current_range_meters":3600,"station_id":"ce4bhah2rcd13ifvqei0","pricing_plan_id":"cebpf4jnsgd1na2vs0mg"},{"bike_id":"f86c1804-29dd-426a-b46b-aa506d1bac23","system_id":"levelo_inurba_marseille","lat":43.27072,"lon":5.4228,"is_reserved":false,"is_disabled":false,"rental_uris":{"android":"levelo://app?vid=f86c1804-29dd-426a-b46b-aa506d1bac23","ios":"levelo://app?vid=f86c1804-29dd-426a-b46b-aa506d1bac23"},"vehicle_type_id":"4","last_reported":1756134654,"current_range_meters":3600,"station_id":"ce4bhk92rcd13ifvqgb0","pricing_plan_id":"cebpf4jnsgd1na2vs0mg"},{"bike_id":"4f99977a-c57f-43fb-b26c-5e30a21b95ce","system_id":"levelo_inurba_marseille","lat":43.26558,"lon":5.40325,"is_reserved":false,"is_disabled":false,"rental_uris":{"android":"levelo://app?vid=4f99977a-c57f-43fb-b26c-5e30a21b95ce","ios":"levelo://app?vid=4f99977a-c57f-43fb-b26c-5e30a21b95ce"},"vehicle_type_id":"4","last_reported":1756134654,"current_range_meters":3600,"station_id":"ce4bhmp2rcd13ifvqgng","pricing_plan_id":"cebpf4jnsgd1na2vs0mg"},{"bike_id":"c79e3ce3-9aae-4c13-9dc8-c9ccd2da6054","system_id":"levelo_inurba_marseille","lat":43.2955,"lon":5.42278,"is_reserved":false,"is_disabled":false,"rental_uris":{"android":"levelo://app?vid=c79e3ce3-9aae-4c13-9dc8-c9ccd2da6054","ios":"levelo://app?vid=c79e3ce3-9aae-4c13-9dc8-c9ccd2da6054"},"vehicle_type_id":"4","last_reported":1756134654,"current_range_meters":3600,"station_id":"ce4bhph2rcd13ifvqhdg","pricing_plan_id":"cebpf4jnsgd1na2vs0mg"},{"bike_id":"8be01dae-a959-49e5-a2cc-73a3fb53aac8","system_id":"levelo_inurba_marseille","lat":43.32484,"lon":5.36575,"is_reserved":false,"is_disabled":false,"rental_uris":{"android":"levelo://app?vid=8be01dae-a959-49e5-a2cc-73a3fb53aac8","ios":"levelo://app?vid=8be01dae-a959-49e5-a2cc-73a3fb53aac8"},"vehicle_type_id":"4","last_reported":1756134654,"current_range_meters":3600,"station_id":"ce4bhs12rcd13ifvqhvg","pricing_plan_id":"cebpf4jnsgd1na2vs0mg"},{"bike_id":"d81a9333-8ba0-47b6-bea7-6d6518d9d11b","system_id":"levelo_inurba_marseille","lat":43.26147,"lon":5.39303,"is_reserved":false,"is_disabled":false,"rental_uris":{"android":"levelo://app?vid=d81a9333-8ba0-47b6-bea7-6d6518d9d11b","ios":"levelo://app?vid=d81a9333-8ba0-47b6-bea7-6d6518d9d11b"},"vehicle_type_id":"4","last_reported":1756134654,"current_range_meters":4000,"station_id":"","pricing_plan_id":"cebpf4jnsgd1na2vs0mg"},{"bike_id":"19012058-3ba3-4705-b7f4-1e1f38c34245","system_id":"levelo_inurba_marseille","lat":43.293665,"lon":5.378455,"is_reserved":false,"is_disabled":false,"rental_uris":{"android":"levelo://app?vid=19012058-3ba3-4705-b7f4-1e1f38c34245","ios":"levelo://app?vid=19012058-3ba3-4705-b7f4-1e1f38c34245"},"vehicle_type_id":"4","last_reported":1756134654,"current_range_meters":4000,"station_id":"ce4bgjh2rcd13ifvqbf0","pricing_plan_id":"cebpf4jnsgd1na2vs0mg"},{"bike_id":"2bb41c0d-1927-44ae-86ab-f138ef9f835c","system_id":"levelo_inurba_marseille","lat":43.25495,"lon":5.37649,"is_reserved":false,"is_disabled":false,"rental_uris":{"android":"levelo://app?vid=2bb41c0d-1927-44ae-86ab-f138ef9f835c","ios":"levelo://app?vid=2bb41c0d-1927-44ae-86ab-f138ef9f835c"},"vehicle_type_id":"4","last_reported":1756134654,"current_range_meters":4000,"station_id":"ce4bhh12rcd13ifvqff0","pricing_plan_id":"cebpf4jnsgd1na2vs0mg"},{"bike_id":"2662af8f-4392-4239-be86-0bb9903be0a8","system_id":"levelo_inurba_marseille","lat":43.32109,"lon":5.36763,"is_reserved":false,"is_disabled":false,"rental_uris":{"android":"levelo://app?vid=2662af8f-4392-4239-be86-0bb9903be0a8","ios":"levelo://app?vid=2662af8f-4392-4239-be86-0bb9903be0a8"},"vehicle_type_id":"4","last_reported":1756134654,"current_range_meters":4000,"station_id":"ce4bhrh2rcd13ifvqhug","pricing_plan_id":"cebpf4jnsgd1na2vs0mg"},{"bike_id":"fdb0fffc-a07a-4d2a-bbc2-c6ec2dc47b86","system_id":"levelo_inurba_marseille","lat":43.31172,"lon":5.38715,"is_reserved":false,"is_disabled":false,"rental_uris":{"android":"levelo://app?vid=fdb0fffc-a07a-4d2a-bbc2-c6ec2dc47b86","ios":"levelo://app?vid=fdb0fffc-a07a-4d2a-bbc2-c6ec2dc47b86"},"vehicle_type_id":"4","last_reported":1756134654,"current_range_meters":4400,"station_id":"ce4bgv12rcd13ifvqcp0","pricing_plan_id":"cebpf4jnsgd1na2vs0mg"},{"bike_id":"67010c27-624a-43d8-a583-cf50db2c16e8","system_id":"levelo_inurba_marseille","lat":43.32224,"lon":5.3676,"is_reserved":false,"is_disabled":false,"rental_uris":{"android":"levelo://app?vid=67010c27-624a-43d8-a583-cf50db2c16e8","ios":"levelo://app?vid=67010c27-624a-43d8-a583-cf50db2c16e8"},"vehicle_type_id":"4","last_reported":1756134654,"current_range_meters":4800,"station_id":"","pricing_plan_id":"cebpf4jnsgd1na2vs0mg"},{"bike_id":"21ff115a-79ea-46d2-abeb-0360c26c109b","system_id":"levelo_inurba_marseille","lat":43.287906,"lon":5.388159,"is_reserved":false,"is_disabled":false,"rental_uris":{"android":"levelo://app?vid=21ff115a-79ea-46d2-abeb-0360c26c109b","ios":"levelo://app?vid=21ff115a-79ea-46d2-abeb-0360c26c109b"},"vehicle_type_id":"4","last_reported":1756134654,"current_range_meters":4800,"station_id":"","pricing_plan_id":"cebpf4jnsgd1na2vs0mg"},{"bike_id":"7adbac07-0a90-46d2-a401-d44336298bdb","system_id":"levelo_inurba_marseille","lat":43.30036,"lon":5.3755,"is_reserved":false,"is_disabled":false,"rental_uris":{"android":"levelo://app?vid=7adbac07-0a90-46d2-a401-d44336298bdb","ios":"levelo://app?vid=7adbac07-0a90-46d2-a401-d44336298bdb"},"vehicle_type_id":"4","last_reported":1756134654,"current_range_meters":4800,"station_id":"","pricing_plan_id":"cebpf4jnsgd1na2vs0mg"},{"bike_id":"08148d58-619e-41c9-adac-28be7356b424","system_id":"levelo_inurba_marseille","lat":43.297856,"lon":5.393434,"is_reserved":false,"is_disabled":false,"rental_uris":{"android":"levelo://app?vid=08148d58-619e-41c9-adac-28be7356b424","ios":"levelo://app?vid=08148d58-619e-41c9-adac-28be7356b424"},"vehicle_type_id":"4","last_reported":1756134654,"current_range_meters":4800,"station_id":"chh1huq6cuj3fo74tm60","pricing_plan_id":"cebpf4jnsgd1na2vs0mg"},{"bike_id":"705fbbcf-c9c4-48a8-8b85-02524b19655b","system_id":"levelo_inurba_marseille","lat":43.29532,"lon":5.39395,"is_reserved":false,"is_disabled":false,"rental_uris":{"android":"levelo://app?vid=705fbbcf-c9c4-48a8-8b85-02524b19655b","ios":"levelo://app?vid=705fbbcf-c9c4-48a8-8b85-02524b19655b"},"vehicle_type_id":"4","last_reported":1756134654,"current_range_meters":5600,"station_id":"ce4bh292rcd13ifvqdf0","pricing_plan_id":"cebpf4jnsgd1na2vs0mg"},{"bike_id":"2acdcf68-9853-4903-9d8c-10f3be3d1f6b","system_id":"levelo_inurba_marseille","lat":43.28701,"lon":5.37395,"is_reserved":false,"is_disabled":false,"rental_uris":{"android":"levelo://app?vid=2acdcf68-9853-4903-9d8c-10f3be3d1f6b","ios":"levelo://app?vid=2acdcf68-9853-4903-9d8c-10f3be3d1f6b"},"vehicle_type_id":"4","last_reported":1756134654,"current_range_meters":5600,"station_id":"ce4bh3p2rcd13ifvqdq0","pricing_plan_id":"cebpf4jnsgd1na2vs0mg"},{"bike_id":"3168846e-45d5-4b01-a975-1447ce7214c6","system_id":"levelo_inurba_marseille","lat":43.29844,"lon":5.36275,"is_reserved":false,"is_disabled":false,"rental_uris":{"android":"levelo://app?vid=3168846e-45d5-4b01-a975-1447ce7214c6","ios":"levelo://app?vid=3168846e-45d5-4b01-a975-1447ce7214c6"},"vehicle_type_id":"4","last_reported":1756134654,"current_range_meters":6000,"station_id":"ce4bgpp2rcd13ifvqc3g","pricing_plan_id":"cebpf4jnsgd1na2vs0mg"},{"bike_id":"a5e6603e-6578-4fae-beaa-75ee92e3894f","system_id":"levelo_inurba_marseille","lat":43.30883,"lon":5.39651,"is_reserved":false,"is_disabled":false,"rental_uris":{"android":"levelo://app?vid=a5e6603e-6578-4fae-beaa-75ee92e3894f","ios":"levelo://app?vid=a5e6603e-6578-4fae-beaa-75ee92e3894f"},"vehicle_type_id":"4","last_reported":1756134654,"current_range_meters":6000,"station_id":"ce4bh012rcd13ifvqcv0","pricing_plan_id":"cebpf4jnsgd1na2vs0mg"},{"bike_id":"e44b9f1c-def3-4599-a2b7-824842658a1e","system_id":"levelo_inurba_marseille","lat":43.306168,"lon":5.393616,"is_reserved":false,"is_disabled":false,"rental_uris":{"android":"levelo://app?vid=e44b9f1c-def3-4599-a2b7-824842658a1e","ios":"levelo://app?vid=e44b9f1c-def3-4599-a2b7-824842658a1e"},"vehicle_type_id":"4","last_reported":1756134654,"current_range_meters":6000,"station_id":"ce4bh0p2rcd13ifvqd80","pricing_plan_id":"cebpf4jnsgd1na2vs0mg"},{"bike_id":"4ec83be5-9425-446e-a143-bb26f7ffa731","system_id":"levelo_inurba_marseille","lat":43.27065,"lon":5.40255,"is_reserved":false,"is_disabled":false,"rental_uris":{"android":"levelo://app?vid=4ec83be5-9425-446e-a143-bb26f7ffa731","ios":"levelo://app?vid=4ec83be5-9425-446e-a143-bb26f7ffa731"},"vehicle_type_id":"4","last_reported":1756134654,"current_range_meters":6000,"station_id":"ce4bhk92rcd13ifvqgc0","pricing_plan_id":"cebpf4jnsgd1na2vs0mg"},{"bike_id":"0f711e2b-17c3-453e-9d74-35c6adb04fe3","system_id":"levelo_inurba_marseille","lat":43.29556,"lon":5.42291,"is_reserved":false,"is_disabled":false,"rental_uris":{"android":"levelo://app?vid=0f711e2b-17c3-453e-9d74-35c6adb04fe3","ios":"levelo://app?vid=0f711e2b-17c3-453e-9d74-35c6adb04fe3"},"vehicle_type_id":"4","last_reported":1756134654,"current_range_meters":6000,"station_id":"ce4bhph2rcd13ifvqhdg","pricing_plan_id":"cebpf4jnsgd1na2vs0mg"},{"bike_id":"d12a73f0-80c0-4421-8916-4765e2552c69","system_id":"levelo_inurba_marseille","lat":43.2629,"lon":5.3992,"is_reserved":false,"is_disabled":false,"rental_uris":{"android":"levelo://app?vid=d12a73f0-80c0-4421-8916-4765e2552c69","ios":"levelo://app?vid=d12a73f0-80c0-4421-8916-4765e2552c69"},"vehicle_type_id":"4","last_reported":1756134654,"current_range_meters":6400,"station_id":"","pricing_plan_id":"cebpf4jnsgd1na2vs0mg"},{"bike_id":"7bfba484-bae5-4d9b-9601-0bd1076ef6f0","system_id":"levelo_inurba_marseille","lat":43.297151,"lon":5.365994,"is_reserved":false,"is_disabled":false,"rental_uris":{"android":"levelo://app?vid=7bfba484-bae5-4d9b-9601-0bd1076ef6f0","ios":"levelo://app?vid=7bfba484-bae5-4d9b-9601-0bd1076ef6f0"},"vehicle_type_id":"4","last_reported":1756134654,"current_range_meters":6400,"station_id":"ce4bgn12rcd13ifvqbt0","pricing_plan_id":"cebpf4jnsgd1na2vs0mg"},{"bike_id":"3fcb1ecf-014d-414b-8e46-6cb5a3a18d8d","system_id":"levelo_inurba_marseille","lat":43.27091,"lon":5.38704,"is_reserved":false,"is_disabled":false,"rental_uris":{"android":"levelo://app?vid=3fcb1ecf-014d-414b-8e46-6cb5a3a18d8d","ios":"levelo://app?vid=3fcb1ecf-014d-414b-8e46-6cb5a3a18d8d"},"vehicle_type_id":"4","last_reported":1756134654,"current_range_meters":6800,"station_id":"","pricing_plan_id":"cebpf4jnsgd1na2vs0mg"},{"bike_id":"2f5601ef-bcb8-40a8-a1be-d9974a0e6480","system_id":"levelo_inurba_marseille","lat":43.32978,"lon":5.39642,"is_reserved":false,"is_disabled":false,"rental_uris":{"android":"levelo://app?vid=2f5601ef-bcb8-40a8-a1be-d9974a0e6480","ios":"levelo://app?vid=2f5601ef-bcb8-40a8-a1be-d9974a0e6480"},"vehicle_type_id":"4","last_reported":1756134654,"current_range_meters":6800,"station_id":"","pricing_plan_id":"cebpf4jnsgd1na2vs0mg"},{"bike_id":"dcdf1b33-b1d0-46f1-8af1-9b7851b318af","system_id":"levelo_inurba_marseille","lat":43.23134,"lon":5.43702,"is_reserved":false,"is_disabled":false,"rental_uris":{"android":"levelo://app?vid=dcdf1b33-b1d0-46f1-8af1-9b7851b318af","ios":"levelo://app?vid=dcdf1b33-b1d0-46f1-8af1-9b7851b318af"},"vehicle_type_id":"4","last_reported":1756134654,"current_range_meters":6800,"station_id":"ce4bhmp2rcd13ifvqgog","pricing_plan_id":"cebpf4jnsgd1na2vs0mg"},{"bike_id":"1b8b7198-a727-4b20-8de3-6b88bc275334","system_id":"levelo_inurba_marseille","lat":43.24072,"lon":5.37757,"is_reserved":false,"is_disabled":false,"rental_uris":{"android":"levelo://app?vid=1b8b7198-a727-4b20-8de3-6b88bc275334","ios":"levelo://app?vid=1b8b7198-a727-4b20-8de3-6b88bc275334"},"vehicle_type_id":"4","last_reported":1756134654,"current_range_meters":6800,"station_id":"ce4bhnp2rcd13ifvqgvg","pricing_plan_id":"cebpf4jnsgd1na2vs0mg"},{"bike_id":"158fe4a9-48cc-491f-95fd-2aa73bd55cc0","system_id":"levelo_inurba_marseille","lat":43.3056,"lon":5.36914,"is_reserved":false,"is_disabled":false,"rental_uris":{"android":"levelo://app?vid=158fe4a9-48cc-491f-95fd-2aa73bd55cc0","ios":"levelo://app?vid=158fe4a9-48cc-491f-95fd-2aa73bd55cc0"},"vehicle_type_id":"4","last_reported":1756134654,"current_range_meters":7200,"station_id":"","pricing_plan_id":"cebpf4jnsgd1na2vs0mg"},{"bike_id":"542dc884-7eb0-4eae-abc6-813a7fe1114d","system_id":"levelo_inurba_marseille","lat":43.28228,"lon":5.39077,"is_reserved":false,"is_disabled":false,"rental_uris":{"android":"levelo://app?vid=542dc884-7eb0-4eae-abc6-813a7fe1114d","ios":"levelo://app?vid=542dc884-7eb0-4eae-abc6-813a7fe1114d"},"vehicle_type_id":"4","last_reported":1756134654,"current_range_meters":7200,"station_id":"ce4bhn92rcd13ifvqgsg","pricing_plan_id":"cebpf4jnsgd1na2vs0mg"},{"bike_id":"283a66cf-5cae-4856-b0e9-edec8087c36e","system_id":"levelo_inurba_marseille","lat":43.27998,"lon":5.40013,"is_reserved":false,"is_disabled":false,"rental_uris":{"android":"levelo://app?vid=283a66cf-5cae-4856-b0e9-edec8087c36e","ios":"levelo://app?vid=283a66cf-5cae-4856-b0e9-edec8087c36e"},"vehicle_type_id":"4","last_reported":1756134654,"current_range_meters":7200,"station_id":"ce4bho92rcd13ifvqh4g","pricing_plan_id":"cebpf4jnsgd1na2vs0mg"},{"bike_id":"d2432c23-4074-4603-8096-e5afde667b67","system_id":"levelo_inurba_marseille","lat":43.285743,"lon":5.395015,"is_reserved":false,"is_disabled":false,"rental_uris":{"android":"levelo://app?vid=d2432c23-4074-4603-8096-e5afde667b67","ios":"levelo://app?vid=d2432c23-4074-4603-8096-e5afde667b67"},"vehicle_type_id":"4","last_reported":1756134654,"current_range_meters":8000,"station_id":"ce4bh292rcd13ifvqdg0","pricing_plan_id":"cebpf4jnsgd1na2vs0mg"},{"bike_id":"1fa612e8-1c93-472f-9dc2-35b1381361d4","system_id":"levelo_inurba_marseille","lat":43.21218,"lon":5.35055,"is_reserved":false,"is_disabled":false,"rental_uris":{"android":"levelo://app?vid=1fa612e8-1c93-472f-9dc2-35b1381361d4","ios":"levelo://app?vid=1fa612e8-1c93-472f-9dc2-35b1381361d4"},"vehicle_type_id":"4","last_reported":1756134654,"current_range_meters":8000,"station_id":"st_cvj6sg6p6f1abm77japg","pricing_plan_id":"cebpf4jnsgd1na2vs0mg"},{"bike_id":"0490c530-845d-44f9-bf75-09a8b4d2b9b9","system_id":"levelo_inurba_marseille","lat":43.297496,"lon":5.380858,"is_reserved":false,"is_disabled":false,"rental_uris":{"android":"levelo://app?vid=0490c530-845d-44f9-bf75-09a8b4d2b9b9","ios":"levelo://app?vid=0490c530-845d-44f9-bf75-09a8b4d2b9b9"},"vehicle_type_id":"4","last_reported":1756134654,"current_range_meters":8400,"station_id":"ce4bgip2rcd13ifvqbb0","pricing_plan_id":"cebpf4jnsgd1na2vs0mg"},{"bike_id":"5a81dd96-a0af-4fb0-acb4-88d32da4cd98","system_id":"levelo_inurba_marseille","lat":43.32146,"lon":5.41558,"is_reserved":false,"is_disabled":false,"rental_uris":{"android":"levelo://app?vid=5a81dd96-a0af-4fb0-acb4-88d32da4cd98","ios":"levelo://app?vid=5a81dd96-a0af-4fb0-acb4-88d32da4cd98"},"vehicle_type_id":"4","last_reported":1756134654,"current_range_meters":8800,"station_id":"","pricing_plan_id":"cebpf4jnsgd1na2vs0mg"},{"bike_id":"ac0de79d-e59f-4ae0-8afc-2800b9be658a","system_id":"levelo_inurba_marseille","lat":43.309151,"lon":5.368361,"is_reserved":false,"is_disabled":false,"rental_uris":{"android":"levelo://app?vid=ac0de79d-e59f-4ae0-8afc-2800b9be658a","ios":"levelo://app?vid=ac0de79d-e59f-4ae0-8afc-2800b9be658a"},"vehicle_type_id":"4","last_reported":1756134654,"current_range_meters":8800,"station_id":"","pricing_plan_id":"cebpf4jnsgd1na2vs0mg"},{"bike_id":"21cf235f-66e3-4684-a3e0-83aaff5e920b","system_id":"levelo_inurba_marseille","lat":43.28267,"lon":5.35071,"is_reserved":false,"is_disabled":false,"rental_uris":{"android":"levelo://app?vid=21cf235f-66e3-4684-a3e0-83aaff5e920b","ios":"levelo://app?vid=21cf235f-66e3-4684-a3e0-83aaff5e920b"},"vehicle_type_id":"4","last_reported":1756134654,"current_range_meters":8800,"station_id":"ce4bhbp2rcd13ifvqerg","pricing_plan_id":"cebpf4jnsgd1na2vs0mg"},{"bike_id":"318a994a-51ff-465f-b40c-534a36bf7044","system_id":"levelo_inurba_marseille","lat":43.30203,"lon":5.38179,"is_reserved":false,"is_disabled":false,"rental_uris":{"android":"levelo://app?vid=318a994a-51ff-465f-b40c-534a36bf7044","ios":"levelo://app?vid=318a994a-51ff-465f-b40c-534a36bf7044"},"vehicle_type_id":"4","last_reported":1756134654,"current_range_meters":9200,"station_id":"","pricing_plan_id":"cebpf4jnsgd1na2vs0mg"},{"bike_id":"a2f99c99-dde5-41c8-97bd-7772fe82f3a8","system_id":"levelo_inurba_marseille","lat":43.21201,"lon":5.35072,"is_reserved":false,"is_disabled":false,"rental_uris":{"android":"levelo://app?vid=a2f99c99-dde5-41c8-97bd-7772fe82f3a8","ios":"levelo://app?vid=a2f99c99-dde5-41c8-97bd-7772fe82f3a8"},"vehicle_type_id":"4","last_reported":1756134654,"current_range_meters":9200,"station_id":"st_cvj6sg6p6f1abm77japg","pricing_plan_id":"cebpf4jnsgd1na2vs0mg"},{"bike_id":"fb0ecd7c-2c0f-42f1-9e73-9448c9893367","system_id":"levelo_inurba_marseille","lat":43.26489,"lon":5.3701,"is_reserved":false,"is_disabled":false,"rental_uris":{"android":"levelo://app?vid=fb0ecd7c-2c0f-42f1-9e73-9448c9893367","ios":"levelo://app?vid=fb0ecd7c-2c0f-42f1-9e73-9448c9893367"},"vehicle_type_id":"4","last_reported":1756134654,"current_range_meters":9600,"station_id":"","pricing_plan_id":"cebpf4jnsgd1na2vs0mg"},{"bike_id":"35fa1719-807f-4d1e-9ed9-9e2534c24035","system_id":"levelo_inurba_marseille","lat":43.29881,"lon":5.39731,"is_reserved":false,"is_disabled":false,"rental_uris":{"android":"levelo://app?vid=35fa1719-807f-4d1e-9ed9-9e2534c24035","ios":"levelo://app?vid=35fa1719-807f-4d1e-9ed9-9e2534c24035"},"vehicle_type_id":"4","last_reported":1756134654,"current_range_meters":9600,"station_id":"ce4bh0h2rcd13ifvqd50","pricing_plan_id":"cebpf4jnsgd1na2vs0mg"},{"bike_id":"3067cd2e-8361-4ba6-8fb4-22810860fd3b","system_id":"levelo_inurba_marseille","lat":43.21194,"lon":5.35064,"is_reserved":false,"is_disabled":false,"rental_uris":{"android":"levelo://app?vid=3067cd2e-8361-4ba6-8fb4-22810860fd3b","ios":"levelo://app?vid=3067cd2e-8361-4ba6-8fb4-22810860fd3b"},"vehicle_type_id":"4","last_reported":1756134654,"current_range_meters":9600,"station_id":"st_cvj6sg6p6f1abm77japg","pricing_plan_id":"cebpf4jnsgd1na2vs0mg"},{"bike_id":"54a44e2b-1d8b-4524-914a-1a06f873add3","system_id":"levelo_inurba_marseille","lat":43.29426,"lon":5.38674,"is_reserved":false,"is_disabled":false,"rental_uris":{"android":"levelo://app?vid=54a44e2b-1d8b-4524-914a-1a06f873add3","ios":"levelo://app?vid=54a44e2b-1d8b-4524-914a-1a06f873add3"},"vehicle_type_id":"4","last_reported":1756134654,"current_range_meters":10000,"station_id":"","pricing_plan_id":"cebpf4jnsgd1na2vs0mg"},{"bike_id":"8278d03d-5584-48a8-a86a-7847a162c713","system_id":"levelo_inurba_marseille","lat":43.30907,"lon":5.38145,"is_reserved":false,"is_disabled":false,"rental_uris":{"android":"levelo://app?vid=8278d03d-5584-48a8-a86a-7847a162c713","ios":"levelo://app?vid=8278d03d-5584-48a8-a86a-7847a162c713"},"vehicle_type_id":"4","last_reported":1756134654,"current_range_meters":10000,"station_id":"","pricing_plan_id":"cebpf4jnsgd1na2vs0mg"},{"bike_id":"fa4421de-edc9-4955-8392-63cbf2acf9fa","system_id":"levelo_inurba_marseille","lat":43.282713,"lon":5.351188,"is_reserved":false,"is_disabled":false,"rental_uris":{"android":"levelo://app?vid=fa4421de-edc9-4955-8392-63cbf2acf9fa","ios":"levelo://app?vid=fa4421de-edc9-4955-8392-63cbf2acf9fa"},"vehicle_type_id":"4","last_reported":1756134654,"current_range_meters":10000,"station_id":"","pricing_plan_id":"cebpf4jnsgd1na2vs0mg"},{"bike_id":"bdc49330-6bdc-4402-bd42-27def1119dd3","system_id":"levelo_inurba_marseille","lat":43.29529,"lon":5.3854,"is_reserved":false,"is_disabled":false,"rental_uris":{"android":"levelo://app?vid=bdc49330-6bdc-4402-bd42-27def1119dd3","ios":"levelo://app?vid=bdc49330-6bdc-4402-bd42-27def1119dd3"},"vehicle_type_id":"4","last_reported":1756134654,"current_range_meters":10000,"station_id":"ce4bgih2rcd13ifvqba0","pricing_plan_id":"cebpf4jnsgd1na2vs0mg"},{"bike_id":"83f56b38-a2b0-4b7a-b8eb-8feeaff7262c","system_id":"levelo_inurba_marseille","lat":43.30592,"lon":5.37194,"is_reserved":false,"is_disabled":false,"rental_uris":{"android":"levelo://app?vid=83f56b38-a2b0-4b7a-b8eb-8feeaff7262c","ios":"levelo://app?vid=83f56b38-a2b0-4b7a-b8eb-8feeaff7262c"},"vehicle_type_id":"4","last_reported":1756134654,"current_range_meters":10000,"station_id":"ce4bgqh2rcd13ifvqc4g","pricing_plan_id":"cebpf4jnsgd1na2vs0mg"},{"bike_id":"82bc0abc-7a95-4a7d-90a4-db0b095dbb34","system_id":"levelo_inurba_marseille","lat":43.321204,"lon":5.367773,"is_reserved":false,"is_disabled":false,"rental_uris":{"android":"levelo://app?vid=82bc0abc-7a95-4a7d-90a4-db0b095dbb34","ios":"levelo://app?vid=82bc0abc-7a95-4a7d-90a4-db0b095dbb34"},"vehicle_type_id":"4","last_reported":1756134654,"current_range_meters":10000,"station_id":"ce4bhrh2rcd13ifvqhug","pricing_plan_id":"cebpf4jnsgd1na2vs0mg"},{"bike_id":"0f686fa3-1dc3-40cb-a319-f92bf0c68193","system_id":"levelo_inurba_marseille","lat":43.29581,"lon":5.36746,"is_reserved":false,"is_disabled":false,"rental_uris":{"android":"levelo://app?vid=0f686fa3-1dc3-40cb-a319-f92bf0c68193","ios":"levelo://app?vid=0f686fa3-1dc3-40cb-a319-f92bf0c68193"},"vehicle_type_id":"4","last_reported":1756134654,"current_range_meters":10800,"station_id":"ce4bgph2rcd13ifvqc2g","pricing_plan_id":"cebpf4jnsgd1na2vs0mg"},{"bike_id":"63123ad2-ea35-4bc4-b122-c98589290791","system_id":"levelo_inurba_marseille","lat":43.30332,"lon":5.40433,"is_reserved":false,"is_disabled":false,"rental_uris":{"android":"levelo://app?vid=63123ad2-ea35-4bc4-b122-c98589290791","ios":"levelo://app?vid=63123ad2-ea35-4bc4-b122-c98589290791"},"vehicle_type_id":"4","last_reported":1756134654,"current_range_meters":10800,"station_id":"ce4bh012rcd13ifvqd10","pricing_plan_id":"cebpf4jnsgd1na2vs0mg"},{"bike_id":"658dc7ee-c531-4893-9ae1-3515ee941926","system_id":"levelo_inurba_marseille","lat":43.288579,"lon":5.35857,"is_reserved":false,"is_disabled":false,"rental_uris":{"android":"levelo://app?vid=658dc7ee-c531-4893-9ae1-3515ee941926","ios":"levelo://app?vid=658dc7ee-c531-4893-9ae1-3515ee941926"},"vehicle_type_id":"4","last_reported":1756134654,"current_range_meters":10800,"station_id":"ce4bhb12rcd13ifvqem0","pricing_plan_id":"cebpf4jnsgd1na2vs0mg"},{"bike_id":"be22bef0-5624-4054-ad7c-91d6dbc41322","system_id":"levelo_inurba_marseille","lat":43.24077,"lon":5.37759,"is_reserved":false,"is_disabled":false,"rental_uris":{"android":"levelo://app?vid=be22bef0-5624-4054-ad7c-91d6dbc41322","ios":"levelo://app?vid=be22bef0-5624-4054-ad7c-91d6dbc41322"},"vehicle_type_id":"4","last_reported":1756134654,"current_range_meters":10800,"station_id":"ce4bhnp2rcd13ifvqgvg","pricing_plan_id":"cebpf4jnsgd1na2vs0mg"},{"bike_id":"3f841bd6-7fab-4c08-a3b5-9956bb08235c","system_id":"levelo_inurba_marseille","lat":43.32102,"lon":5.36779,"is_reserved":false,"is_disabled":false,"rental_uris":{"android":"levelo://app?vid=3f841bd6-7fab-4c08-a3b5-9956bb08235c","ios":"levelo://app?vid=3f841bd6-7fab-4c08-a3b5-9956bb08235c"},"vehicle_type_id":"4","last_reported":1756134654,"current_range_meters":10800,"station_id":"ce4bhrh2rcd13ifvqhug","pricing_plan_id":"cebpf4jnsgd1na2vs0mg"},{"bike_id":"ab3bb536-cec3-4c1d-85b2-adf2753e6c9e","system_id":"levelo_inurba_marseille","lat":43.2319,"lon":5.35541,"is_reserved":false,"is_disabled":false,"rental_uris":{"android":"levelo://app?vid=ab3bb536-cec3-4c1d-85b2-adf2753e6c9e","ios":"levelo://app?vid=ab3bb536-cec3-4c1d-85b2-adf2753e6c9e"},"vehicle_type_id":"4","last_reported":1756134654,"current_range_meters":10800,"station_id":"ce4bhu92rcd13ifvqi70","pricing_plan_id":"cebpf4jnsgd1na2vs0mg"},{"bike_id":"11523ca1-a15b-4300-be29-f98bb7369b0e","system_id":"levelo_inurba_marseille","lat":43.23062,"lon":5.35493,"is_reserved":false,"is_disabled":false,"rental_uris":{"android":"levelo://app?vid=11523ca1-a15b-4300-be29-f98bb7369b0e","ios":"levelo://app?vid=11523ca1-a15b-4300-be29-f98bb7369b0e"},"vehicle_type_id":"4","last_reported":1756134654,"current_range_meters":10800,"station_id":"cpo3342slgdg3j2ifvpg","pricing_plan_id":"cebpf4jnsgd1na2vs0mg"},{"bike_id":"c12c80c2-2e9e-4cfa-848d-1fc1dd7b8f1f","system_id":"levelo_inurba_marseille","lat":43.21748,"lon":5.34612,"is_reserved":false,"is_disabled":false,"rental_uris":{"android":"levelo://app?vid=c12c80c2-2e9e-4cfa-848d-1fc1dd7b8f1f","ios":"levelo://app?vid=c12c80c2-2e9e-4cfa-848d-1fc1dd7b8f1f"},"vehicle_type_id":"4","last_reported":1756134654,"current_range_meters":10800,"station_id":"st_cvj6r9ubvosntc0bgbag","pricing_plan_id":"cebpf4jnsgd1na2vs0mg"},{"bike_id":"52f225c1-a537-4946-91d7-387ef6e03f0c","system_id":"levelo_inurba_marseille","lat":43.30594,"lon":5.37232,"is_reserved":false,"is_disabled":false,"rental_uris":{"android":"levelo://app?vid=52f225c1-a537-4946-91d7-387ef6e03f0c","ios":"levelo://app?vid=52f225c1-a537-4946-91d7-387ef6e03f0c"},"vehicle_type_id":"4","last_reported":1756134654,"current_range_meters":11200,"station_id":"ce4bgqh2rcd13ifvqc4g","pricing_plan_id":"cebpf4jnsgd1na2vs0mg"},{"bike_id":"9a73604a-d8ff-42ce-88d7-fb9d0a342bd0","system_id":"levelo_inurba_marseille","lat":43.30203,"lon":5.39484,"is_reserved":false,"is_disabled":false,"rental_uris":{"android":"levelo://app?vid=9a73604a-d8ff-42ce-88d7-fb9d0a342bd0","ios":"levelo://app?vid=9a73604a-d8ff-42ce-88d7-fb9d0a342bd0"},"vehicle_type_id":"4","last_reported":1756134654,"current_range_meters":11200,"station_id":"ce4bh0p2rcd13ifvqd70","pricing_plan_id":"cebpf4jnsgd1na2vs0mg"},{"bike_id":"b3dd2b27-9c97-4446-bc38-7022da2103c1","system_id":"levelo_inurba_marseille","lat":43.30096,"lon":5.39075,"is_reserved":false,"is_disabled":false,"rental_uris":{"android":"levelo://app?vid=b3dd2b27-9c97-4446-bc38-7022da2103c1","ios":"levelo://app?vid=b3dd2b27-9c97-4446-bc38-7022da2103c1"},"vehicle_type_id":"4","last_reported":1756134654,"current_range_meters":11600,"station_id":"ce4bh192rcd13ifvqdb0","pricing_plan_id":"cebpf4jnsgd1na2vs0mg"},{"bike_id":"548ac43e-89f7-499b-bdb3-fac9ead85c2c","system_id":"levelo_inurba_marseille","lat":43.28405,"lon":5.37517,"is_reserved":false,"is_disabled":false,"rental_uris":{"android":"levelo://app?vid=548ac43e-89f7-499b-bdb3-fac9ead85c2c","ios":"levelo://app?vid=548ac43e-89f7-499b-bdb3-fac9ead85c2c"},"vehicle_type_id":"4","last_reported":1756134654,"current_range_meters":11600,"station_id":"ce4bh412rcd13ifvqds0","pricing_plan_id":"cebpf4jnsgd1na2vs0mg"},{"bike_id":"0a4f9f56-4597-4bdc-87e2-6395cf0b9f0e","system_id":"levelo_inurba_marseille","lat":43.29023,"lon":5.3863,"is_reserved":false,"is_disabled":false,"rental_uris":{"android":"levelo://app?vid=0a4f9f56-4597-4bdc-87e2-6395cf0b9f0e","ios":"levelo://app?vid=0a4f9f56-4597-4bdc-87e2-6395cf0b9f0e"},"vehicle_type_id":"4","last_reported":1756134654,"current_range_meters":11600,"station_id":"ce4bh4p2rcd13ifvqe0g","pricing_plan_id":"cebpf4jnsgd1na2vs0mg"},{"bike_id":"a08915ab-c96d-4028-aaa9-52c669855e03","system_id":"levelo_inurba_marseille","lat":43.28269,"lon":5.35053,"is_reserved":false,"is_disabled":false,"rental_uris":{"android":"levelo://app?vid=a08915ab-c96d-4028-aaa9-52c669855e03","ios":"levelo://app?vid=a08915ab-c96d-4028-aaa9-52c669855e03"},"vehicle_type_id":"4","last_reported":1756134654,"current_range_meters":11600,"station_id":"ce4bhbp2rcd13ifvqerg","pricing_plan_id":"cebpf4jnsgd1na2vs0mg"},{"bike_id":"db72ee29-4f42-47dd-8b87-09c5b792d08c","system_id":"levelo_inurba_marseille","lat":43.26199,"lon":5.37456,"is_reserved":false,"is_disabled":false,"rental_uris":{"android":"levelo://app?vid=db72ee29-4f42-47dd-8b87-09c5b792d08c","ios":"levelo://app?vid=db72ee29-4f42-47dd-8b87-09c5b792d08c"},"vehicle_type_id":"4","last_reported":1756134654,"current_range_meters":11600,"station_id":"ce4bhgp2rcd13ifvqfc0","pricing_plan_id":"cebpf4jnsgd1na2vs0mg"},{"bike_id":"bff9e6f7-8849-4de2-a921-02fe02346315","system_id":"levelo_inurba_marseille","lat":43.23162,"lon":5.43702,"is_reserved":false,"is_disabled":false,"rental_uris":{"android":"levelo://app?vid=bff9e6f7-8849-4de2-a921-02fe02346315","ios":"levelo://app?vid=bff9e6f7-8849-4de2-a921-02fe02346315"},"vehicle_type_id":"4","last_reported":1756134654,"current_range_meters":11600,"station_id":"ce4bhmp2rcd13ifvqgog","pricing_plan_id":"cebpf4jnsgd1na2vs0mg"},{"bike_id":"ea054efb-6435-4b1d-95d4-b10cd5cc3ec2","system_id":"levelo_inurba_marseille","lat":43.32361,"lon":5.3674,"is_reserved":false,"is_disabled":false,"rental_uris":{"android":"levelo://app?vid=ea054efb-6435-4b1d-95d4-b10cd5cc3ec2","ios":"levelo://app?vid=ea054efb-6435-4b1d-95d4-b10cd5cc3ec2"},"vehicle_type_id":"4","last_reported":1756134654,"current_range_meters":11600,"station_id":"ce4bhsh2rcd13ifvqi2g","pricing_plan_id":"cebpf4jnsgd1na2vs0mg"},{"bike_id":"8dfa7806-9a26-4f54-9a78-504de3a00656","system_id":"levelo_inurba_marseille","lat":43.2926,"lon":5.40912,"is_reserved":false,"is_disabled":false,"rental_uris":{"android":"levelo://app?vid=8dfa7806-9a26-4f54-9a78-504de3a00656","ios":"levelo://app?vid=8dfa7806-9a26-4f54-9a78-504de3a00656"},"vehicle_type_id":"4","last_reported":1756134654,"current_range_meters":12000,"station_id":"ce4bh192rcd13ifvqdc0","pricing_plan_id":"cebpf4jnsgd1na2vs0mg"},{"bike_id":"bf018f5f-b864-4510-8a36-4aeb2ce8a339","system_id":"levelo_inurba_marseille","lat":43.276796,"lon":5.388769,"is_reserved":false,"is_disabled":false,"rental_uris":{"android":"levelo://app?vid=bf018f5f-b864-4510-8a36-4aeb2ce8a339","ios":"levelo://app?vid=bf018f5f-b864-4510-8a36-4aeb2ce8a339"},"vehicle_type_id":"4","last_reported":1756134654,"current_range_meters":12000,"station_id":"ce4bhi12rcd13ifvqfo0","pricing_plan_id":"cebpf4jnsgd1na2vs0mg"},{"bike_id":"89df7a1c-7139-4905-b974-b380c0bb167c","system_id":"levelo_inurba_marseille","lat":43.276753,"lon":5.388751,"is_reserved":false,"is_disabled":false,"rental_uris":{"android":"levelo://app?vid=89df7a1c-7139-4905-b974-b380c0bb167c","ios":"levelo://app?vid=89df7a1c-7139-4905-b974-b380c0bb167c"},"vehicle_type_id":"4","last_reported":1756134654,"current_range_meters":12000,"station_id":"ce4bhi12rcd13ifvqfo0","pricing_plan_id":"cebpf4jnsgd1na2vs0mg"},{"bike_id":"04d79edf-708c-4dc6-91df-812281ad20a8","system_id":"levelo_inurba_marseille","lat":43.258246,"lon":5.394366,"is_reserved":false,"is_disabled":false,"rental_uris":{"android":"levelo://app?vid=04d79edf-708c-4dc6-91df-812281ad20a8","ios":"levelo://app?vid=04d79edf-708c-4dc6-91df-812281ad20a8"},"vehicle_type_id":"4","last_reported":1756134654,"current_range_meters":12000,"station_id":"ce4bhip2rcd13ifvqft0","pricing_plan_id":"cebpf4jnsgd1na2vs0mg"},{"bike_id":"26a0fffb-d908-498d-ab31-ca6fc30a28ee","system_id":"levelo_inurba_marseille","lat":43.29735,"lon":5.37722,"is_reserved":false,"is_disabled":false,"rental_uris":{"android":"levelo://app?vid=26a0fffb-d908-498d-ab31-ca6fc30a28ee","ios":"levelo://app?vid=26a0fffb-d908-498d-ab31-ca6fc30a28ee"},"vehicle_type_id":"4","last_reported":1756134654,"current_range_meters":12400,"station_id":"ce4bgkh2rcd13ifvqbl0","pricing_plan_id":"cebpf4jnsgd1na2vs0mg"},{"bike_id":"f978a85e-6969-447b-88c7-f88ea4d5435c","system_id":"levelo_inurba_marseille","lat":43.29846,"lon":5.36279,"is_reserved":false,"is_disabled":false,"rental_uris":{"android":"levelo://app?vid=f978a85e-6969-447b-88c7-f88ea4d5435c","ios":"levelo://app?vid=f978a85e-6969-447b-88c7-f88ea4d5435c"},"vehicle_type_id":"4","last_reported":1756134654,"current_range_meters":12400,"station_id":"ce4bgpp2rcd13ifvqc3g","pricing_plan_id":"cebpf4jnsgd1na2vs0mg"},{"bike_id":"562a0def-775a-43b2-9585-393491c849f4","system_id":"levelo_inurba_marseille","lat":43.23166,"lon":5.43705,"is_reserved":false,"is_disabled":false,"rental_uris":{"android":"levelo://app?vid=562a0def-775a-43b2-9585-393491c849f4","ios":"levelo://app?vid=562a0def-775a-43b2-9585-393491c849f4"},"vehicle_type_id":"4","last_reported":1756134654,"current_range_meters":12400,"station_id":"ce4bhmp2rcd13ifvqgog","pricing_plan_id":"cebpf4jnsgd1na2vs0mg"},{"bike_id":"4780853d-3b2d-4a70-9032-617ec44b9912","system_id":"levelo_inurba_marseille","lat":43.28154,"lon":5.42641,"is_reserved":false,"is_disabled":false,"rental_uris":{"android":"levelo://app?vid=4780853d-3b2d-4a70-9032-617ec44b9912","ios":"levelo://app?vid=4780853d-3b2d-4a70-9032-617ec44b9912"},"vehicle_type_id":"4","last_reported":1756134654,"current_range_meters":12400,"station_id":"ce4bhnh2rcd13ifvqgug","pricing_plan_id":"cebpf4jnsgd1na2vs0mg"},{"bike_id":"1cd21559-399f-4936-b4ac-cb1d7223c9c3","system_id":"levelo_inurba_marseille","lat":43.23998,"lon":5.36266,"is_reserved":false,"is_disabled":false,"rental_uris":{"android":"levelo://app?vid=1cd21559-399f-4936-b4ac-cb1d7223c9c3","ios":"levelo://app?vid=1cd21559-399f-4936-b4ac-cb1d7223c9c3"},"vehicle_type_id":"4","last_reported":1756134654,"current_range_meters":12800,"station_id":"","pricing_plan_id":"cebpf4jnsgd1na2vs0mg"},{"bike_id":"be4e0a24-fc09-40a0-b0e2-1661ebee41f7","system_id":"levelo_inurba_marseille","lat":43.29303,"lon":5.37163,"is_reserved":false,"is_disabled":false,"rental_uris":{"android":"levelo://app?vid=be4e0a24-fc09-40a0-b0e2-1661ebee41f7","ios":"levelo://app?vid=be4e0a24-fc09-40a0-b0e2-1661ebee41f7"},"vehicle_type_id":"4","last_reported":1756134654,"current_range_meters":12800,"station_id":"ce4bgh92rcd13ifvqb40","pricing_plan_id":"cebpf4jnsgd1na2vs0mg"},{"bike_id":"e84fb6e9-d689-4126-ad0f-c5e2dc4cbf03","system_id":"levelo_inurba_marseille","lat":43.3132,"lon":5.39693,"is_reserved":false,"is_disabled":false,"rental_uris":{"android":"levelo://app?vid=e84fb6e9-d689-4126-ad0f-c5e2dc4cbf03","ios":"levelo://app?vid=e84fb6e9-d689-4126-ad0f-c5e2dc4cbf03"},"vehicle_type_id":"4","last_reported":1756134654,"current_range_meters":12800,"station_id":"ce4bgvp2rcd13ifvqcu0","pricing_plan_id":"cebpf4jnsgd1na2vs0mg"},{"bike_id":"7198fffb-3a50-4ce3-a7c3-be40877cd289","system_id":"levelo_inurba_marseille","lat":43.30325,"lon":5.4044,"is_reserved":false,"is_disabled":false,"rental_uris":{"android":"levelo://app?vid=7198fffb-3a50-4ce3-a7c3-be40877cd289","ios":"levelo://app?vid=7198fffb-3a50-4ce3-a7c3-be40877cd289"},"vehicle_type_id":"4","last_reported":1756134654,"current_range_meters":12800,"station_id":"ce4bh012rcd13ifvqd10","pricing_plan_id":"cebpf4jnsgd1na2vs0mg"},{"bike_id":"8488295d-d387-408d-b2f8-b0d9c0994ec0","system_id":"levelo_inurba_marseille","lat":43.28615,"lon":5.35106,"is_reserved":false,"is_disabled":false,"rental_uris":{"android":"levelo://app?vid=8488295d-d387-408d-b2f8-b0d9c0994ec0","ios":"levelo://app?vid=8488295d-d387-408d-b2f8-b0d9c0994ec0"},"vehicle_type_id":"4","last_reported":1756134654,"current_range_meters":12800,"station_id":"ce4bhch2rcd13ifvqeug","pricing_plan_id":"cebpf4jnsgd1na2vs0mg"},{"bike_id":"a8242da8-ab6e-41d8-ac93-0daab9d5d869","system_id":"levelo_inurba_marseille","lat":43.24533,"lon":5.39524,"is_reserved":false,"is_disabled":false,"rental_uris":{"android":"levelo://app?vid=a8242da8-ab6e-41d8-ac93-0daab9d5d869","ios":"levelo://app?vid=a8242da8-ab6e-41d8-ac93-0daab9d5d869"},"vehicle_type_id":"4","last_reported":1756134654,"current_range_meters":12800,"station_id":"ce4bhlp2rcd13ifvqgjg","pricing_plan_id":"cebpf4jnsgd1na2vs0mg"},{"bike_id":"a5aff412-9b35-4d5b-b2d6-ea29ae910d7f","system_id":"levelo_inurba_marseille","lat":43.32108,"lon":5.36771,"is_reserved":false,"is_disabled":false,"rental_uris":{"android":"levelo://app?vid=a5aff412-9b35-4d5b-b2d6-ea29ae910d7f","ios":"levelo://app?vid=a5aff412-9b35-4d5b-b2d6-ea29ae910d7f"},"vehicle_type_id":"4","last_reported":1756134654,"current_range_meters":13600,"station_id":"ce4bhrh2rcd13ifvqhug","pricing_plan_id":"cebpf4jnsgd1na2vs0mg"},{"bike_id":"8a2a5ebb-1257-4d37-8a9f-6604370ca483","system_id":"levelo_inurba_marseille","lat":43.243893,"lon":5.370521,"is_reserved":false,"is_disabled":false,"rental_uris":{"android":"levelo://app?vid=8a2a5ebb-1257-4d37-8a9f-6604370ca483","ios":"levelo://app?vid=8a2a5ebb-1257-4d37-8a9f-6604370ca483"},"vehicle_type_id":"4","last_reported":1756134654,"current_range_meters":14000,"station_id":"ce4bhhh2rcd13ifvqfk0","pricing_plan_id":"cebpf4jnsgd1na2vs0mg"},{"bike_id":"b3fb9c16-fff8-4298-a798-d32b4d43ca5b","system_id":"levelo_inurba_marseille","lat":43.24154,"lon":5.36412,"is_reserved":false,"is_disabled":false,"rental_uris":{"android":"levelo://app?vid=b3fb9c16-fff8-4298-a798-d32b4d43ca5b","ios":"levelo://app?vid=b3fb9c16-fff8-4298-a798-d32b4d43ca5b"},"vehicle_type_id":"4","last_reported":1756134654,"current_range_meters":14000,"station_id":"cpo36qri1sfpv3e86is0","pricing_plan_id":"cebpf4jnsgd1na2vs0mg"},{"bike_id":"78869bf7-94ef-4aab-a8b2-44910a580dcd","system_id":"levelo_inurba_marseille","lat":43.29695,"lon":5.37926,"is_reserved":false,"is_disabled":false,"rental_uris":{"android":"levelo://app?vid=78869bf7-94ef-4aab-a8b2-44910a580dcd","ios":"levelo://app?vid=78869bf7-94ef-4aab-a8b2-44910a580dcd"},"vehicle_type_id":"4","last_reported":1756134654,"current_range_meters":14400,"station_id":"","pricing_plan_id":"cebpf4jnsgd1na2vs0mg"},{"bike_id":"4979eded-bed5-4ecf-9364-8487db4f974a","system_id":"levelo_inurba_marseille","lat":43.29849,"lon":5.36279,"is_reserved":false,"is_disabled":false,"rental_uris":{"android":"levelo://app?vid=4979eded-bed5-4ecf-9364-8487db4f974a","ios":"levelo://app?vid=4979eded-bed5-4ecf-9364-8487db4f974a"},"vehicle_type_id":"4","last_reported":1756134654,"current_range_meters":14400,"station_id":"ce4bgpp2rcd13ifvqc3g","pricing_plan_id":"cebpf4jnsgd1na2vs0mg"},{"bike_id":"129c400e-ea99-4327-b3c3-872f3cc007c2","system_id":"levelo_inurba_marseille","lat":43.30542,"lon":5.36555,"is_reserved":false,"is_disabled":false,"rental_uris":{"android":"levelo://app?vid=129c400e-ea99-4327-b3c3-872f3cc007c2","ios":"levelo://app?vid=129c400e-ea99-4327-b3c3-872f3cc007c2"},"vehicle_type_id":"4","last_reported":1756134654,"current_range_meters":14400,"station_id":"ce4bgs12rcd13ifvqcag","pricing_plan_id":"cebpf4jnsgd1na2vs0mg"},{"bike_id":"8c2bdd82-e205-4067-8859-bd8a9b8920df","system_id":"levelo_inurba_marseille","lat":43.28478,"lon":5.38564,"is_reserved":false,"is_disabled":false,"rental_uris":{"android":"levelo://app?vid=8c2bdd82-e205-4067-8859-bd8a9b8920df","ios":"levelo://app?vid=8c2bdd82-e205-4067-8859-bd8a9b8920df"},"vehicle_type_id":"4","last_reported":1756134654,"current_range_meters":14400,"station_id":"ce4bh8p2rcd13ifvqeb0","pricing_plan_id":"cebpf4jnsgd1na2vs0mg"},{"bike_id":"fead74e8-e2a8-4c33-a8dc-dce201d9822d","system_id":"levelo_inurba_marseille","lat":43.284094,"lon":5.34997,"is_reserved":false,"is_disabled":false,"rental_uris":{"android":"levelo://app?vid=fead74e8-e2a8-4c33-a8dc-dce201d9822d","ios":"levelo://app?vid=fead74e8-e2a8-4c33-a8dc-dce201d9822d"},"vehicle_type_id":"4","last_reported":1756134654,"current_range_meters":14400,"station_id":"ce4bhbh2rcd13ifvqepg","pricing_plan_id":"cebpf4jnsgd1na2vs0mg"},{"bike_id":"13c636f8-adf7-4852-b867-d13887c4ed4d","system_id":"levelo_inurba_marseille","lat":43.28265,"lon":5.35052,"is_reserved":false,"is_disabled":false,"rental_uris":{"android":"levelo://app?vid=13c636f8-adf7-4852-b867-d13887c4ed4d","ios":"levelo://app?vid=13c636f8-adf7-4852-b867-d13887c4ed4d"},"vehicle_type_id":"4","last_reported":1756134654,"current_range_meters":14400,"station_id":"ce4bhbp2rcd13ifvqerg","pricing_plan_id":"cebpf4jnsgd1na2vs0mg"},{"bike_id":"b57dd75a-28df-4b72-aff4-f87bdfc79ad9","system_id":"levelo_inurba_marseille","lat":43.27196,"lon":5.39185,"is_reserved":false,"is_disabled":false,"rental_uris":{"android":"levelo://app?vid=b57dd75a-28df-4b72-aff4-f87bdfc79ad9","ios":"levelo://app?vid=b57dd75a-28df-4b72-aff4-f87bdfc79ad9"},"vehicle_type_id":"4","last_reported":1756134654,"current_range_meters":14400,"station_id":"ce4bhhp2rcd13ifvqfm0","pricing_plan_id":"cebpf4jnsgd1na2vs0mg"},{"bike_id":"471eb35e-d3a4-476b-8b9d-c7e88b211592","system_id":"levelo_inurba_marseille","lat":43.25335,"lon":5.42178,"is_reserved":false,"is_disabled":false,"rental_uris":{"android":"levelo://app?vid=471eb35e-d3a4-476b-8b9d-c7e88b211592","ios":"levelo://app?vid=471eb35e-d3a4-476b-8b9d-c7e88b211592"},"vehicle_type_id":"4","last_reported":1756134654,"current_range_meters":14400,"station_id":"st_d2m65c5bi1j21697t3ng","pricing_plan_id":"cebpf4jnsgd1na2vs0mg"},{"bike_id":"92a45870-467f-4ffc-9755-163e81bc6a58","system_id":"levelo_inurba_marseille","lat":43.2999,"lon":5.37064,"is_reserved":false,"is_disabled":false,"rental_uris":{"android":"levelo://app?vid=92a45870-467f-4ffc-9755-163e81bc6a58","ios":"levelo://app?vid=92a45870-467f-4ffc-9755-163e81bc6a58"},"vehicle_type_id":"4","last_reported":1756134654,"current_range_meters":14800,"station_id":"","pricing_plan_id":"cebpf4jnsgd1na2vs0mg"},{"bike_id":"5968797b-332b-4503-812a-d6682299da3f","system_id":"levelo_inurba_marseille","lat":43.30516,"lon":5.36516,"is_reserved":false,"is_disabled":false,"rental_uris":{"android":"levelo://app?vid=5968797b-332b-4503-812a-d6682299da3f","ios":"levelo://app?vid=5968797b-332b-4503-812a-d6682299da3f"},"vehicle_type_id":"4","last_reported":1756134654,"current_range_meters":14800,"station_id":"","pricing_plan_id":"cebpf4jnsgd1na2vs0mg"},{"bike_id":"b4c8c2a4-f596-4c82-b1f7-18db9f177d2c","system_id":"levelo_inurba_marseille","lat":43.30609,"lon":5.37226,"is_reserved":false,"is_disabled":false,"rental_uris":{"android":"levelo://app?vid=b4c8c2a4-f596-4c82-b1f7-18db9f177d2c","ios":"levelo://app?vid=b4c8c2a4-f596-4c82-b1f7-18db9f177d2c"},"vehicle_type_id":"4","last_reported":1756134654,"current_range_meters":14800,"station_id":"ce4bgqh2rcd13ifvqc4g","pricing_plan_id":"cebpf4jnsgd1na2vs0mg"},{"bike_id":"93ca5f4d-e972-4985-b05b-a043fc6eb22a","system_id":"levelo_inurba_marseille","lat":43.30613,"lon":5.37214,"is_reserved":false,"is_disabled":false,"rental_uris":{"android":"levelo://app?vid=93ca5f4d-e972-4985-b05b-a043fc6eb22a","ios":"levelo://app?vid=93ca5f4d-e972-4985-b05b-a043fc6eb22a"},"vehicle_type_id":"4","last_reported":1756134654,"current_range_meters":14800,"station_id":"ce4bgqh2rcd13ifvqc4g","pricing_plan_id":"cebpf4jnsgd1na2vs0mg"},{"bike_id":"8d93171e-4e89-4fe6-b970-41e92cccd340","system_id":"levelo_inurba_marseille","lat":43.2885,"lon":5.39302,"is_reserved":false,"is_disabled":false,"rental_uris":{"android":"levelo://app?vid=8d93171e-4e89-4fe6-b970-41e92cccd340","ios":"levelo://app?vid=8d93171e-4e89-4fe6-b970-41e92cccd340"},"vehicle_type_id":"4","last_reported":1756134654,"current_range_meters":14800,"station_id":"ce4bh2p2rcd13ifvqdi0","pricing_plan_id":"cebpf4jnsgd1na2vs0mg"},{"bike_id":"d52c8dc0-a142-4dd0-bfcc-a15550fa8960","system_id":"levelo_inurba_marseille","lat":43.28632,"lon":5.35087,"is_reserved":false,"is_disabled":false,"rental_uris":{"android":"levelo://app?vid=d52c8dc0-a142-4dd0-bfcc-a15550fa8960","ios":"levelo://app?vid=d52c8dc0-a142-4dd0-bfcc-a15550fa8960"},"vehicle_type_id":"4","last_reported":1756134654,"current_range_meters":14800,"station_id":"ce4bhch2rcd13ifvqeug","pricing_plan_id":"cebpf4jnsgd1na2vs0mg"},{"bike_id":"db6137a5-6500-4bd9-bed4-2d1b2a02a0eb","system_id":"levelo_inurba_marseille","lat":43.26216,"lon":5.37439,"is_reserved":false,"is_disabled":false,"rental_uris":{"android":"levelo://app?vid=db6137a5-6500-4bd9-bed4-2d1b2a02a0eb","ios":"levelo://app?vid=db6137a5-6500-4bd9-bed4-2d1b2a02a0eb"},"vehicle_type_id":"4","last_reported":1756134654,"current_range_meters":14800,"station_id":"ce4bhgp2rcd13ifvqfc0","pricing_plan_id":"cebpf4jnsgd1na2vs0mg"},{"bike_id":"1dae69bf-7d74-4845-a016-a3b72f366ea0","system_id":"levelo_inurba_marseille","lat":43.24181,"lon":5.36373,"is_reserved":false,"is_disabled":false,"rental_uris":{"android":"levelo://app?vid=1dae69bf-7d74-4845-a016-a3b72f366ea0","ios":"levelo://app?vid=1dae69bf-7d74-4845-a016-a3b72f366ea0"},"vehicle_type_id":"4","last_reported":1756134654,"current_range_meters":14800,"station_id":"cpo36qri1sfpv3e86is0","pricing_plan_id":"cebpf4jnsgd1na2vs0mg"},{"bike_id":"3f4a45cc-e5bb-4b35-88d4-61431d4f60e6","system_id":"levelo_inurba_marseille","lat":43.325384,"lon":5.36459,"is_reserved":false,"is_disabled":false,"rental_uris":{"android":"levelo://app?vid=3f4a45cc-e5bb-4b35-88d4-61431d4f60e6","ios":"levelo://app?vid=3f4a45cc-e5bb-4b35-88d4-61431d4f60e6"},"vehicle_type_id":"4","last_reported":1756134654,"current_range_meters":15200,"station_id":"","pricing_plan_id":"cebpf4jnsgd1na2vs0mg"},{"bike_id":"8caee252-9f88-4fef-92e7-42de15f58fad","system_id":"levelo_inurba_marseille","lat":43.29311,"lon":5.37139,"is_reserved":false,"is_disabled":false,"rental_uris":{"android":"levelo://app?vid=8caee252-9f88-4fef-92e7-42de15f58fad","ios":"levelo://app?vid=8caee252-9f88-4fef-92e7-42de15f58fad"},"vehicle_type_id":"4","last_reported":1756134654,"current_range_meters":15200,"station_id":"ce4bgh92rcd13ifvqb40","pricing_plan_id":"cebpf4jnsgd1na2vs0mg"},{"bike_id":"ad7ff1d1-5140-48d6-97a4-b2e4c2e51565","system_id":"levelo_inurba_marseille","lat":43.2815,"lon":5.42646,"is_reserved":false,"is_disabled":false,"rental_uris":{"android":"levelo://app?vid=ad7ff1d1-5140-48d6-97a4-b2e4c2e51565","ios":"levelo://app?vid=ad7ff1d1-5140-48d6-97a4-b2e4c2e51565"},"vehicle_type_id":"4","last_reported":1756134654,"current_range_meters":15200,"station_id":"ce4bhnh2rcd13ifvqgug","pricing_plan_id":"cebpf4jnsgd1na2vs0mg"},{"bike_id":"b1f8a3a0-9f01-4059-8e4f-cfaecc6ea007","system_id":"levelo_inurba_marseille","lat":43.29573,"lon":5.37511,"is_reserved":false,"is_disabled":false,"rental_uris":{"android":"levelo://app?vid=b1f8a3a0-9f01-4059-8e4f-cfaecc6ea007","ios":"levelo://app?vid=b1f8a3a0-9f01-4059-8e4f-cfaecc6ea007"},"vehicle_type_id":"4","last_reported":1756134654,"current_range_meters":16000,"station_id":"ce4bgh92rcd13ifvqb50","pricing_plan_id":"cebpf4jnsgd1na2vs0mg"},{"bike_id":"add2b797-941b-4ac6-8d74-bcc4c7aa7dfd","system_id":"levelo_inurba_marseille","lat":43.289368,"lon":5.366452,"is_reserved":false,"is_disabled":false,"rental_uris":{"android":"levelo://app?vid=add2b797-941b-4ac6-8d74-bcc4c7aa7dfd","ios":"levelo://app?vid=add2b797-941b-4ac6-8d74-bcc4c7aa7dfd"},"vehicle_type_id":"4","last_reported":1756134654,"current_range_meters":16000,"station_id":"ce4bgs12rcd13ifvqcag","pricing_plan_id":"cebpf4jnsgd1na2vs0mg"},{"bike_id":"f1595552-8de2-447d-aba9-c87b8a02387d","system_id":"levelo_inurba_marseille","lat":43.3054,"lon":5.36558,"is_reserved":false,"is_disabled":false,"rental_uris":{"android":"levelo://app?vid=f1595552-8de2-447d-aba9-c87b8a02387d","ios":"levelo://app?vid=f1595552-8de2-447d-aba9-c87b8a02387d"},"vehicle_type_id":"4","last_reported":1756134654,"current_range_meters":16000,"station_id":"ce4bgs12rcd13ifvqcag","pricing_plan_id":"cebpf4jnsgd1na2vs0mg"},{"bike_id":"1c421ce0-2a68-4cdc-abe8-3d345c34a31e","system_id":"levelo_inurba_marseille","lat":43.29264,"lon":5.40889,"is_reserved":false,"is_disabled":false,"rental_uris":{"android":"levelo://app?vid=1c421ce0-2a68-4cdc-abe8-3d345c34a31e","ios":"levelo://app?vid=1c421ce0-2a68-4cdc-abe8-3d345c34a31e"},"vehicle_type_id":"4","last_reported":1756134654,"current_range_meters":16000,"station_id":"ce4bh192rcd13ifvqdc0","pricing_plan_id":"cebpf4jnsgd1na2vs0mg"},{"bike_id":"f7415ccc-ecf1-4d2a-9e22-8f039de4b6f2","system_id":"levelo_inurba_marseille","lat":43.31725,"lon":5.42405,"is_reserved":false,"is_disabled":false,"rental_uris":{"android":"levelo://app?vid=f7415ccc-ecf1-4d2a-9e22-8f039de4b6f2","ios":"levelo://app?vid=f7415ccc-ecf1-4d2a-9e22-8f039de4b6f2"},"vehicle_type_id":"4","last_reported":1756134654,"current_range_meters":16000,"station_id":"ce4bhp92rcd13ifvqhbg","pricing_plan_id":"cebpf4jnsgd1na2vs0mg"},{"bike_id":"5d394d6c-2c89-4d43-bfb3-572d057372ea","system_id":"levelo_inurba_marseille","lat":43.2861,"lon":5.37051,"is_reserved":false,"is_disabled":false,"rental_uris":{"android":"levelo://app?vid=5d394d6c-2c89-4d43-bfb3-572d057372ea","ios":"levelo://app?vid=5d394d6c-2c89-4d43-bfb3-572d057372ea"},"vehicle_type_id":"4","last_reported":1756134654,"current_range_meters":16000,"station_id":"ce4bht12rcd13ifvqi60","pricing_plan_id":"cebpf4jnsgd1na2vs0mg"},{"bike_id":"78c01866-7c31-4b0c-93fb-94177f5e298a","system_id":"levelo_inurba_marseille","lat":43.22935,"lon":5.35375,"is_reserved":false,"is_disabled":false,"rental_uris":{"android":"levelo://app?vid=78c01866-7c31-4b0c-93fb-94177f5e298a","ios":"levelo://app?vid=78c01866-7c31-4b0c-93fb-94177f5e298a"},"vehicle_type_id":"4","last_reported":1756134654,"current_range_meters":16000,"station_id":"cpo3532slgdg3j2ikp40","pricing_plan_id":"cebpf4jnsgd1na2vs0mg"},{"bike_id":"dc966711-a8a0-4884-a2c4-f00eb61127f6","system_id":"levelo_inurba_marseille","lat":43.27808,"lon":5.4071,"is_reserved":false,"is_disabled":false,"rental_uris":{"android":"levelo://app?vid=dc966711-a8a0-4884-a2c4-f00eb61127f6","ios":"levelo://app?vid=dc966711-a8a0-4884-a2c4-f00eb61127f6"},"vehicle_type_id":"4","last_reported":1756134654,"current_range_meters":16400,"station_id":"","pricing_plan_id":"cebpf4jnsgd1na2vs0mg"},{"bike_id":"2a2c596d-5f0e-4de8-9c54-88627e7b9e4b","system_id":"levelo_inurba_marseille","lat":43.29742,"lon":5.37708,"is_reserved":false,"is_disabled":false,"rental_uris":{"android":"levelo://app?vid=2a2c596d-5f0e-4de8-9c54-88627e7b9e4b","ios":"levelo://app?vid=2a2c596d-5f0e-4de8-9c54-88627e7b9e4b"},"vehicle_type_id":"4","last_reported":1756134654,"current_range_meters":16400,"station_id":"ce4bgkh2rcd13ifvqbl0","pricing_plan_id":"cebpf4jnsgd1na2vs0mg"},{"bike_id":"37f619a5-413d-47d5-8625-464a4d368c4d","system_id":"levelo_inurba_marseille","lat":43.28277,"lon":5.35078,"is_reserved":false,"is_disabled":false,"rental_uris":{"android":"levelo://app?vid=37f619a5-413d-47d5-8625-464a4d368c4d","ios":"levelo://app?vid=37f619a5-413d-47d5-8625-464a4d368c4d"},"vehicle_type_id":"4","last_reported":1756134654,"current_range_meters":16400,"station_id":"ce4bhbp2rcd13ifvqerg","pricing_plan_id":"cebpf4jnsgd1na2vs0mg"},{"bike_id":"a780730d-86ca-4912-909b-95390d18342c","system_id":"levelo_inurba_marseille","lat":43.28443,"lon":5.39201,"is_reserved":false,"is_disabled":false,"rental_uris":{"android":"levelo://app?vid=a780730d-86ca-4912-909b-95390d18342c","ios":"levelo://app?vid=a780730d-86ca-4912-909b-95390d18342c"},"vehicle_type_id":"4","last_reported":1756134654,"current_range_meters":16400,"station_id":"ce4bhoh2rcd13ifvqh5g","pricing_plan_id":"cebpf4jnsgd1na2vs0mg"},{"bike_id":"3c218833-89e5-4ee2-b82f-b5b091aee423","system_id":"levelo_inurba_marseille","lat":43.33738,"lon":5.39192,"is_reserved":false,"is_disabled":false,"rental_uris":{"android":"levelo://app?vid=3c218833-89e5-4ee2-b82f-b5b091aee423","ios":"levelo://app?vid=3c218833-89e5-4ee2-b82f-b5b091aee423"},"vehicle_type_id":"4","last_reported":1756134654,"current_range_meters":16400,"station_id":"ce4bhr92rcd13ifvqhsg","pricing_plan_id":"cebpf4jnsgd1na2vs0mg"},{"bike_id":"b0170a75-f823-42a2-b9cb-d41486c907bb","system_id":"levelo_inurba_marseille","lat":43.32356,"lon":5.36734,"is_reserved":false,"is_disabled":false,"rental_uris":{"android":"levelo://app?vid=b0170a75-f823-42a2-b9cb-d41486c907bb","ios":"levelo://app?vid=b0170a75-f823-42a2-b9cb-d41486c907bb"},"vehicle_type_id":"4","last_reported":1756134654,"current_range_meters":16400,"station_id":"ce4bhsh2rcd13ifvqi2g","pricing_plan_id":"cebpf4jnsgd1na2vs0mg"},{"bike_id":"d2a5878e-d1e9-4bf0-9f9b-bbdcab4effc1","system_id":"levelo_inurba_marseille","lat":43.262,"lon":5.37448,"is_reserved":false,"is_disabled":false,"rental_uris":{"android":"levelo://app?vid=d2a5878e-d1e9-4bf0-9f9b-bbdcab4effc1","ios":"levelo://app?vid=d2a5878e-d1e9-4bf0-9f9b-bbdcab4effc1"},"vehicle_type_id":"4","last_reported":1756134654,"current_range_meters":16800,"station_id":"ce4bhgp2rcd13ifvqfc0","pricing_plan_id":"cebpf4jnsgd1na2vs0mg"},{"bike_id":"f4044733-900c-40f8-869a-839b0dbe5aba","system_id":"levelo_inurba_marseille","lat":43.32367,"lon":5.38877,"is_reserved":false,"is_disabled":false,"rental_uris":{"android":"levelo://app?vid=f4044733-900c-40f8-869a-839b0dbe5aba","ios":"levelo://app?vid=f4044733-900c-40f8-869a-839b0dbe5aba"},"vehicle_type_id":"4","last_reported":1756134654,"current_range_meters":16800,"station_id":"ce4bhqp2rcd13ifvqhog","pricing_plan_id":"cebpf4jnsgd1na2vs0mg"},{"bike_id":"3e130ff4-87da-4c51-a264-44d1f277fd66","system_id":"levelo_inurba_marseille","lat":43.32117,"lon":5.36769,"is_reserved":false,"is_disabled":false,"rental_uris":{"android":"levelo://app?vid=3e130ff4-87da-4c51-a264-44d1f277fd66","ios":"levelo://app?vid=3e130ff4-87da-4c51-a264-44d1f277fd66"},"vehicle_type_id":"4","last_reported":1756134654,"current_range_meters":16800,"station_id":"ce4bhrh2rcd13ifvqhug","pricing_plan_id":"cebpf4jnsgd1na2vs0mg"},{"bike_id":"7612c145-8535-4ccf-96ee-de62f40b9550","system_id":"levelo_inurba_marseille","lat":43.324714,"lon":5.389504,"is_reserved":false,"is_disabled":false,"rental_uris":{"android":"levelo://app?vid=7612c145-8535-4ccf-96ee-de62f40b9550","ios":"levelo://app?vid=7612c145-8535-4ccf-96ee-de62f40b9550"},"vehicle_type_id":"4","last_reported":1756134654,"current_range_meters":17200,"station_id":"","pricing_plan_id":"cebpf4jnsgd1na2vs0mg"},{"bike_id":"a605e24f-d693-4436-9235-3543da595574","system_id":"levelo_inurba_marseille","lat":43.299215,"lon":5.374753,"is_reserved":false,"is_disabled":false,"rental_uris":{"android":"levelo://app?vid=a605e24f-d693-4436-9235-3543da595574","ios":"levelo://app?vid=a605e24f-d693-4436-9235-3543da595574"},"vehicle_type_id":"4","last_reported":1756134654,"current_range_meters":17200,"station_id":"ce4bgjh2rcd13ifvqbg0","pricing_plan_id":"cebpf4jnsgd1na2vs0mg"},{"bike_id":"4f633003-970f-4a3d-b739-e686fd56e808","system_id":"levelo_inurba_marseille","lat":43.29698,"lon":5.37287,"is_reserved":false,"is_disabled":false,"rental_uris":{"android":"levelo://app?vid=4f633003-970f-4a3d-b739-e686fd56e808","ios":"levelo://app?vid=4f633003-970f-4a3d-b739-e686fd56e808"},"vehicle_type_id":"4","last_reported":1756134654,"current_range_meters":17200,"station_id":"ce4bgk12rcd13ifvqbj0","pricing_plan_id":"cebpf4jnsgd1na2vs0mg"},{"bike_id":"da13c8bd-249a-4c75-8c78-f75719166258","system_id":"levelo_inurba_marseille","lat":43.29571,"lon":5.39967,"is_reserved":false,"is_disabled":false,"rental_uris":{"android":"levelo://app?vid=da13c8bd-249a-4c75-8c78-f75719166258","ios":"levelo://app?vid=da13c8bd-249a-4c75-8c78-f75719166258"},"vehicle_type_id":"4","last_reported":1756134654,"current_range_meters":17200,"station_id":"ce4bh312rcd13ifvqdj0","pricing_plan_id":"cebpf4jnsgd1na2vs0mg"},{"bike_id":"6ae82cae-601d-436d-85bd-ba7f428eb5d8","system_id":"levelo_inurba_marseille","lat":43.24174,"lon":5.36401,"is_reserved":false,"is_disabled":false,"rental_uris":{"android":"levelo://app?vid=6ae82cae-601d-436d-85bd-ba7f428eb5d8","ios":"levelo://app?vid=6ae82cae-601d-436d-85bd-ba7f428eb5d8"},"vehicle_type_id":"4","last_reported":1756134654,"current_range_meters":17200,"station_id":"cpo36qri1sfpv3e86is0","pricing_plan_id":"cebpf4jnsgd1na2vs0mg"},{"bike_id":"ecdc22b3-5232-43d2-924c-adfc39fa3b6a","system_id":"levelo_inurba_marseille","lat":43.21215,"lon":5.35072,"is_reserved":false,"is_disabled":false,"rental_uris":{"android":"levelo://app?vid=ecdc22b3-5232-43d2-924c-adfc39fa3b6a","ios":"levelo://app?vid=ecdc22b3-5232-43d2-924c-adfc39fa3b6a"},"vehicle_type_id":"4","last_reported":1756134654,"current_range_meters":17200,"station_id":"st_cvj6sg6p6f1abm77japg","pricing_plan_id":"cebpf4jnsgd1na2vs0mg"},{"bike_id":"0d502687-08ef-4491-8893-8a03d8688be8","system_id":"levelo_inurba_marseille","lat":43.29631,"lon":5.36102,"is_reserved":false,"is_disabled":false,"rental_uris":{"android":"levelo://app?vid=0d502687-08ef-4491-8893-8a03d8688be8","ios":"levelo://app?vid=0d502687-08ef-4491-8893-8a03d8688be8"},"vehicle_type_id":"4","last_reported":1756134654,"current_range_meters":17600,"station_id":"","pricing_plan_id":"cebpf4jnsgd1na2vs0mg"},{"bike_id":"becf41ee-7c56-44b2-9645-838962e71973","system_id":"levelo_inurba_marseille","lat":43.308,"lon":5.38145,"is_reserved":false,"is_disabled":false,"rental_uris":{"android":"levelo://app?vid=becf41ee-7c56-44b2-9645-838962e71973","ios":"levelo://app?vid=becf41ee-7c56-44b2-9645-838962e71973"},"vehicle_type_id":"4","last_reported":1756134654,"current_range_meters":17600,"station_id":"ce4bgt12rcd13ifvqce0","pricing_plan_id":"cebpf4jnsgd1na2vs0mg"},{"bike_id":"fcab69bf-cd5d-46ec-b6c7-2ea55ebf933c","system_id":"levelo_inurba_marseille","lat":43.28613,"lon":5.35106,"is_reserved":false,"is_disabled":false,"rental_uris":{"android":"levelo://app?vid=fcab69bf-cd5d-46ec-b6c7-2ea55ebf933c","ios":"levelo://app?vid=fcab69bf-cd5d-46ec-b6c7-2ea55ebf933c"},"vehicle_type_id":"4","last_reported":1756134654,"current_range_meters":17600,"station_id":"ce4bhch2rcd13ifvqeug","pricing_plan_id":"cebpf4jnsgd1na2vs0mg"},{"bike_id":"ca264b55-88b3-48ee-ae30-7e047c4f141f","system_id":"levelo_inurba_marseille","lat":43.33038,"lon":5.39035,"is_reserved":false,"is_disabled":false,"rental_uris":{"android":"levelo://app?vid=ca264b55-88b3-48ee-ae30-7e047c4f141f","ios":"levelo://app?vid=ca264b55-88b3-48ee-ae30-7e047c4f141f"},"vehicle_type_id":"4","last_reported":1756134654,"current_range_meters":17600,"station_id":"ce4bhr92rcd13ifvqhrg","pricing_plan_id":"cebpf4jnsgd1na2vs0mg"},{"bike_id":"82995eac-924a-4646-baa0-e2f0fa0ea0ca","system_id":"levelo_inurba_marseille","lat":43.22499,"lon":5.34784,"is_reserved":false,"is_disabled":false,"rental_uris":{"android":"levelo://app?vid=82995eac-924a-4646-baa0-e2f0fa0ea0ca","ios":"levelo://app?vid=82995eac-924a-4646-baa0-e2f0fa0ea0ca"},"vehicle_type_id":"4","last_reported":1756134654,"current_range_meters":17600,"station_id":"st_cvj5dfep6f1abm77gieg","pricing_plan_id":"cebpf4jnsgd1na2vs0mg"},{"bike_id":"06ec40e7-8d66-4419-9abd-1d1505e6b185","system_id":"levelo_inurba_marseille","lat":43.2962,"lon":5.37148,"is_reserved":false,"is_disabled":false,"rental_uris":{"android":"levelo://app?vid=06ec40e7-8d66-4419-9abd-1d1505e6b185","ios":"levelo://app?vid=06ec40e7-8d66-4419-9abd-1d1505e6b185"},"vehicle_type_id":"4","last_reported":1756134654,"current_range_meters":18000,"station_id":"ce4bgnh2rcd13ifvqc0g","pricing_plan_id":"cebpf4jnsgd1na2vs0mg"},{"bike_id":"58edff30-585d-4206-8033-8c84e209110a","system_id":"levelo_inurba_marseille","lat":43.29042,"lon":5.35909,"is_reserved":false,"is_disabled":false,"rental_uris":{"android":"levelo://app?vid=58edff30-585d-4206-8033-8c84e209110a","ios":"levelo://app?vid=58edff30-585d-4206-8033-8c84e209110a"},"vehicle_type_id":"4","last_reported":1756134654,"current_range_meters":18000,"station_id":"ce4bha92rcd13ifvqeg0","pricing_plan_id":"cebpf4jnsgd1na2vs0mg"},{"bike_id":"049d4ac2-e6c6-47c3-9dfd-13d5a5a55eee","system_id":"levelo_inurba_marseille","lat":43.28265,"lon":5.35058,"is_reserved":false,"is_disabled":false,"rental_uris":{"android":"levelo://app?vid=049d4ac2-e6c6-47c3-9dfd-13d5a5a55eee","ios":"levelo://app?vid=049d4ac2-e6c6-47c3-9dfd-13d5a5a55eee"},"vehicle_type_id":"4","last_reported":1756134654,"current_range_meters":18000,"station_id":"ce4bhbp2rcd13ifvqerg","pricing_plan_id":"cebpf4jnsgd1na2vs0mg"},{"bike_id":"d9b079b8-2a48-412f-9a0f-d2253000ad7d","system_id":"levelo_inurba_marseille","lat":43.28956,"lon":5.36385,"is_reserved":false,"is_disabled":false,"rental_uris":{"android":"levelo://app?vid=d9b079b8-2a48-412f-9a0f-d2253000ad7d","ios":"levelo://app?vid=d9b079b8-2a48-412f-9a0f-d2253000ad7d"},"vehicle_type_id":"4","last_reported":1756134654,"current_range_meters":18000,"station_id":"ce4bhc92rcd13ifvqetg","pricing_plan_id":"cebpf4jnsgd1na2vs0mg"},{"bike_id":"033b5273-57a8-4144-ab22-b319c143091e","system_id":"levelo_inurba_marseille","lat":43.286128,"lon":5.350978,"is_reserved":false,"is_disabled":false,"rental_uris":{"android":"levelo://app?vid=033b5273-57a8-4144-ab22-b319c143091e","ios":"levelo://app?vid=033b5273-57a8-4144-ab22-b319c143091e"},"vehicle_type_id":"4","last_reported":1756134654,"current_range_meters":18000,"station_id":"ce4bhch2rcd13ifvqeug","pricing_plan_id":"cebpf4jnsgd1na2vs0mg"},{"bike_id":"791f5877-54c1-4266-9896-4b0fc03fce31","system_id":"levelo_inurba_marseille","lat":43.23182,"lon":5.39986,"is_reserved":false,"is_disabled":false,"rental_uris":{"android":"levelo://app?vid=791f5877-54c1-4266-9896-4b0fc03fce31","ios":"levelo://app?vid=791f5877-54c1-4266-9896-4b0fc03fce31"},"vehicle_type_id":"4","last_reported":1756134654,"current_range_meters":18000,"station_id":"ce4bhn12rcd13ifvqgqg","pricing_plan_id":"cebpf4jnsgd1na2vs0mg"},{"bike_id":"3c3011fc-f277-4db8-937c-b53316e68db3","system_id":"levelo_inurba_marseille","lat":43.28205,"lon":5.3905,"is_reserved":false,"is_disabled":false,"rental_uris":{"android":"levelo://app?vid=3c3011fc-f277-4db8-937c-b53316e68db3","ios":"levelo://app?vid=3c3011fc-f277-4db8-937c-b53316e68db3"},"vehicle_type_id":"4","last_reported":1756134654,"current_range_meters":18000,"station_id":"ce4bhn92rcd13ifvqgsg","pricing_plan_id":"cebpf4jnsgd1na2vs0mg"},{"bike_id":"2198d534-1e4e-4e7b-b2b3-d1e3dccee066","system_id":"levelo_inurba_marseille","lat":43.32124,"lon":5.36785,"is_reserved":false,"is_disabled":false,"rental_uris":{"android":"levelo://app?vid=2198d534-1e4e-4e7b-b2b3-d1e3dccee066","ios":"levelo://app?vid=2198d534-1e4e-4e7b-b2b3-d1e3dccee066"},"vehicle_type_id":"4","last_reported":1756134654,"current_range_meters":18000,"station_id":"ce4bhrh2rcd13ifvqhug","pricing_plan_id":"cebpf4jnsgd1na2vs0mg"},{"bike_id":"ca921fde-837e-46af-8565-0e43e0cc25b1","system_id":"levelo_inurba_marseille","lat":43.26943,"lon":5.40259,"is_reserved":false,"is_disabled":false,"rental_uris":{"android":"levelo://app?vid=ca921fde-837e-46af-8565-0e43e0cc25b1","ios":"levelo://app?vid=ca921fde-837e-46af-8565-0e43e0cc25b1"},"vehicle_type_id":"4","last_reported":1756134654,"current_range_meters":18000,"station_id":"cjm6bp8fraef2m0cb0m0","pricing_plan_id":"cebpf4jnsgd1na2vs0mg"},{"bike_id":"24cc5286-3146-4130-bc4a-5bee8f2f6b44","system_id":"levelo_inurba_marseille","lat":43.31355,"lon":5.40582,"is_reserved":false,"is_disabled":false,"rental_uris":{"android":"levelo://app?vid=24cc5286-3146-4130-bc4a-5bee8f2f6b44","ios":"levelo://app?vid=24cc5286-3146-4130-bc4a-5bee8f2f6b44"},"vehicle_type_id":"4","last_reported":1756134654,"current_range_meters":18800,"station_id":"","pricing_plan_id":"cebpf4jnsgd1na2vs0mg"},{"bike_id":"fae3640c-51eb-43f4-92d9-43f240e489f1","system_id":"levelo_inurba_marseille","lat":43.2963,"lon":5.37723,"is_reserved":false,"is_disabled":false,"rental_uris":{"android":"levelo://app?vid=fae3640c-51eb-43f4-92d9-43f240e489f1","ios":"levelo://app?vid=fae3640c-51eb-43f4-92d9-43f240e489f1"},"vehicle_type_id":"4","last_reported":1756134654,"current_range_meters":18800,"station_id":"ce4bgi92rcd13ifvqb90","pricing_plan_id":"cebpf4jnsgd1na2vs0mg"},{"bike_id":"517abe71-6608-4cff-ab49-7eb03e1fc6a7","system_id":"levelo_inurba_marseille","lat":43.286689,"lon":5.363494,"is_reserved":false,"is_disabled":false,"rental_uris":{"android":"levelo://app?vid=517abe71-6608-4cff-ab49-7eb03e1fc6a7","ios":"levelo://app?vid=517abe71-6608-4cff-ab49-7eb03e1fc6a7"},"vehicle_type_id":"4","last_reported":1756134654,"current_range_meters":18800,"station_id":"ce4bhah2rcd13ifvqej0","pricing_plan_id":"cebpf4jnsgd1na2vs0mg"},{"bike_id":"01d343e5-e876-4677-ac7d-6ff5b87f2316","system_id":"levelo_inurba_marseille","lat":43.28628,"lon":5.35105,"is_reserved":false,"is_disabled":false,"rental_uris":{"android":"levelo://app?vid=01d343e5-e876-4677-ac7d-6ff5b87f2316","ios":"levelo://app?vid=01d343e5-e876-4677-ac7d-6ff5b87f2316"},"vehicle_type_id":"4","last_reported":1756134654,"current_range_meters":18800,"station_id":"ce4bhch2rcd13ifvqeug","pricing_plan_id":"cebpf4jnsgd1na2vs0mg"},{"bike_id":"238eabf6-d6bb-4536-82fb-c2e0d8ceefdc","system_id":"levelo_inurba_marseille","lat":43.25113,"lon":5.40321,"is_reserved":false,"is_disabled":false,"rental_uris":{"android":"levelo://app?vid=238eabf6-d6bb-4536-82fb-c2e0d8ceefdc","ios":"levelo://app?vid=238eabf6-d6bb-4536-82fb-c2e0d8ceefdc"},"vehicle_type_id":"4","last_reported":1756134654,"current_range_meters":18800,"station_id":"ce4bhlh2rcd13ifvqgig","pricing_plan_id":"cebpf4jnsgd1na2vs0mg"},{"bike_id":"90106b61-39ba-4550-9728-cd6a51353a17","system_id":"levelo_inurba_marseille","lat":43.21208,"lon":5.35102,"is_reserved":false,"is_disabled":false,"rental_uris":{"android":"levelo://app?vid=90106b61-39ba-4550-9728-cd6a51353a17","ios":"levelo://app?vid=90106b61-39ba-4550-9728-cd6a51353a17"},"vehicle_type_id":"4","last_reported":1756134654,"current_range_meters":18800,"station_id":"st_cvj6sg6p6f1abm77japg","pricing_plan_id":"cebpf4jnsgd1na2vs0mg"},{"bike_id":"35fbf61c-00a5-4d07-bc2a-7ecff44959f8","system_id":"levelo_inurba_marseille","lat":43.22501,"lon":5.34778,"is_reserved":false,"is_disabled":false,"rental_uris":{"android":"levelo://app?vid=35fbf61c-00a5-4d07-bc2a-7ecff44959f8","ios":"levelo://app?vid=35fbf61c-00a5-4d07-bc2a-7ecff44959f8"},"vehicle_type_id":"4","last_reported":1756134654,"current_range_meters":19200,"station_id":"","pricing_plan_id":"cebpf4jnsgd1na2vs0mg"},{"bike_id":"aee35005-609c-482e-a795-527e947a829e","system_id":"levelo_inurba_marseille","lat":43.29312,"lon":5.37164,"is_reserved":false,"is_disabled":false,"rental_uris":{"android":"levelo://app?vid=aee35005-609c-482e-a795-527e947a829e","ios":"levelo://app?vid=aee35005-609c-482e-a795-527e947a829e"},"vehicle_type_id":"4","last_reported":1756134654,"current_range_meters":19200,"station_id":"ce4bgh92rcd13ifvqb40","pricing_plan_id":"cebpf4jnsgd1na2vs0mg"},{"bike_id":"71f2187f-7c06-4afd-b6d4-5f58c2f8533e","system_id":"levelo_inurba_marseille","lat":43.296617,"lon":5.377062,"is_reserved":false,"is_disabled":false,"rental_uris":{"android":"levelo://app?vid=71f2187f-7c06-4afd-b6d4-5f58c2f8533e","ios":"levelo://app?vid=71f2187f-7c06-4afd-b6d4-5f58c2f8533e"},"vehicle_type_id":"4","last_reported":1756134654,"current_range_meters":19200,"station_id":"ce4bgi92rcd13ifvqb90","pricing_plan_id":"cebpf4jnsgd1na2vs0mg"},{"bike_id":"ee2c4349-9a8f-4f86-8838-1c68319a66c1","system_id":"levelo_inurba_marseille","lat":43.276256,"lon":5.361074,"is_reserved":false,"is_disabled":false,"rental_uris":{"android":"levelo://app?vid=ee2c4349-9a8f-4f86-8838-1c68319a66c1","ios":"levelo://app?vid=ee2c4349-9a8f-4f86-8838-1c68319a66c1"},"vehicle_type_id":"4","last_reported":1756134654,"current_range_meters":19200,"station_id":"ce4bgj92rcd13ifvqbe0","pricing_plan_id":"cebpf4jnsgd1na2vs0mg"},{"bike_id":"1bf07a02-eb1c-4646-be91-77bd455d8b5d","system_id":"levelo_inurba_marseille","lat":43.31223,"lon":5.36846,"is_reserved":false,"is_disabled":false,"rental_uris":{"android":"levelo://app?vid=1bf07a02-eb1c-4646-be91-77bd455d8b5d","ios":"levelo://app?vid=1bf07a02-eb1c-4646-be91-77bd455d8b5d"},"vehicle_type_id":"4","last_reported":1756134654,"current_range_meters":19200,"station_id":"ce4bgl92rcd13ifvqbq0","pricing_plan_id":"cebpf4jnsgd1na2vs0mg"},{"bike_id":"faf25fe5-fe48-46ff-8b3b-359ba7cd9878","system_id":"levelo_inurba_marseille","lat":43.250094,"lon":5.389229,"is_reserved":false,"is_disabled":false,"rental_uris":{"android":"levelo://app?vid=faf25fe5-fe48-46ff-8b3b-359ba7cd9878","ios":"levelo://app?vid=faf25fe5-fe48-46ff-8b3b-359ba7cd9878"},"vehicle_type_id":"4","last_reported":1756134654,"current_range_meters":19200,"station_id":"ce4bhgp2rcd13ifvqfd0","pricing_plan_id":"cebpf4jnsgd1na2vs0mg"},{"bike_id":"08626540-ee4b-4b0c-9bc6-68cfcf1bb46b","system_id":"levelo_inurba_marseille","lat":43.27204,"lon":5.3919,"is_reserved":false,"is_disabled":false,"rental_uris":{"android":"levelo://app?vid=08626540-ee4b-4b0c-9bc6-68cfcf1bb46b","ios":"levelo://app?vid=08626540-ee4b-4b0c-9bc6-68cfcf1bb46b"},"vehicle_type_id":"4","last_reported":1756134654,"current_range_meters":19200,"station_id":"ce4bhhp2rcd13ifvqfm0","pricing_plan_id":"cebpf4jnsgd1na2vs0mg"},{"bike_id":"b41ace45-d0bd-4511-9395-03a5ae92b867","system_id":"levelo_inurba_marseille","lat":43.24178,"lon":5.36386,"is_reserved":false,"is_disabled":false,"rental_uris":{"android":"levelo://app?vid=b41ace45-d0bd-4511-9395-03a5ae92b867","ios":"levelo://app?vid=b41ace45-d0bd-4511-9395-03a5ae92b867"},"vehicle_type_id":"4","last_reported":1756134654,"current_range_meters":19200,"station_id":"cpo36qri1sfpv3e86is0","pricing_plan_id":"cebpf4jnsgd1na2vs0mg"},{"bike_id":"b12530c9-6293-428a-b97a-6581d8129dab","system_id":"levelo_inurba_marseille","lat":43.28416,"lon":5.34982,"is_reserved":false,"is_disabled":false,"rental_uris":{"android":"levelo://app?vid=b12530c9-6293-428a-b97a-6581d8129dab","ios":"levelo://app?vid=b12530c9-6293-428a-b97a-6581d8129dab"},"vehicle_type_id":"4","last_reported":1756134654,"current_range_meters":19600,"station_id":"ce4bhbh2rcd13ifvqepg","pricing_plan_id":"cebpf4jnsgd1na2vs0mg"},{"bike_id":"fa8a82fa-bd3c-4e3f-9929-6dda2ee07196","system_id":"levelo_inurba_marseille","lat":43.27348,"lon":5.39094,"is_reserved":false,"is_disabled":false,"rental_uris":{"android":"levelo://app?vid=fa8a82fa-bd3c-4e3f-9929-6dda2ee07196","ios":"levelo://app?vid=fa8a82fa-bd3c-4e3f-9929-6dda2ee07196"},"vehicle_type_id":"4","last_reported":1756134654,"current_range_meters":19600,"station_id":"ce4bhgp2rcd13ifvqfe0","pricing_plan_id":"cebpf4jnsgd1na2vs0mg"},{"bike_id":"4b6d03d5-c489-44f5-894a-b511c0aa6886","system_id":"levelo_inurba_marseille","lat":43.29554,"lon":5.42278,"is_reserved":false,"is_disabled":false,"rental_uris":{"android":"levelo://app?vid=4b6d03d5-c489-44f5-894a-b511c0aa6886","ios":"levelo://app?vid=4b6d03d5-c489-44f5-894a-b511c0aa6886"},"vehicle_type_id":"4","last_reported":1756134654,"current_range_meters":19600,"station_id":"ce4bhph2rcd13ifvqhdg","pricing_plan_id":"cebpf4jnsgd1na2vs0mg"},{"bike_id":"f22021e3-fde8-46f0-8b83-38817699548f","system_id":"levelo_inurba_marseille","lat":43.32376,"lon":5.36769,"is_reserved":false,"is_disabled":false,"rental_uris":{"android":"levelo://app?vid=f22021e3-fde8-46f0-8b83-38817699548f","ios":"levelo://app?vid=f22021e3-fde8-46f0-8b83-38817699548f"},"vehicle_type_id":"4","last_reported":1756134654,"current_range_meters":19600,"station_id":"ce4bhsh2rcd13ifvqi2g","pricing_plan_id":"cebpf4jnsgd1na2vs0mg"},{"bike_id":"fc7bb0e1-c1df-4936-acb1-2c2274c215a4","system_id":"levelo_inurba_marseille","lat":43.29846,"lon":5.36274,"is_reserved":false,"is_disabled":false,"rental_uris":{"android":"levelo://app?vid=fc7bb0e1-c1df-4936-acb1-2c2274c215a4","ios":"levelo://app?vid=fc7bb0e1-c1df-4936-acb1-2c2274c215a4"},"vehicle_type_id":"4","last_reported":1756134654,"current_range_meters":20000,"station_id":"ce4bgpp2rcd13ifvqc3g","pricing_plan_id":"cebpf4jnsgd1na2vs0mg"},{"bike_id":"af6e5148-4a48-4348-bc1f-4d2b672bf54b","system_id":"levelo_inurba_marseille","lat":43.29851,"lon":5.36276,"is_reserved":false,"is_disabled":false,"rental_uris":{"android":"levelo://app?vid=af6e5148-4a48-4348-bc1f-4d2b672bf54b","ios":"levelo://app?vid=af6e5148-4a48-4348-bc1f-4d2b672bf54b"},"vehicle_type_id":"4","last_reported":1756134654,"current_range_meters":20000,"station_id":"ce4bgpp2rcd13ifvqc3g","pricing_plan_id":"cebpf4jnsgd1na2vs0mg"},{"bike_id":"4c468c83-50fd-4f37-afc6-2cfc52a4c635","system_id":"levelo_inurba_marseille","lat":43.25088,"lon":5.39523,"is_reserved":false,"is_disabled":false,"rental_uris":{"android":"levelo://app?vid=4c468c83-50fd-4f37-afc6-2cfc52a4c635","ios":"levelo://app?vid=4c468c83-50fd-4f37-afc6-2cfc52a4c635"},"vehicle_type_id":"4","last_reported":1756134654,"current_range_meters":20000,"station_id":"ce4bhm12rcd13ifvqgkg","pricing_plan_id":"cebpf4jnsgd1na2vs0mg"},{"bike_id":"e286f3d4-bb72-48f2-adb9-486ef8999fdc","system_id":"levelo_inurba_marseille","lat":43.29699,"lon":5.36986,"is_reserved":false,"is_disabled":false,"rental_uris":{"android":"levelo://app?vid=e286f3d4-bb72-48f2-adb9-486ef8999fdc","ios":"levelo://app?vid=e286f3d4-bb72-48f2-adb9-486ef8999fdc"},"vehicle_type_id":"4","last_reported":1756134654,"current_range_meters":20400,"station_id":"","pricing_plan_id":"cebpf4jnsgd1na2vs0mg"},{"bike_id":"0ff4b788-f527-4f16-936c-75b167d2e66a","system_id":"levelo_inurba_marseille","lat":43.30547,"lon":5.36551,"is_reserved":false,"is_disabled":false,"rental_uris":{"android":"levelo://app?vid=0ff4b788-f527-4f16-936c-75b167d2e66a","ios":"levelo://app?vid=0ff4b788-f527-4f16-936c-75b167d2e66a"},"vehicle_type_id":"4","last_reported":1756134654,"current_range_meters":20400,"station_id":"ce4bgs12rcd13ifvqcag","pricing_plan_id":"cebpf4jnsgd1na2vs0mg"},{"bike_id":"27fcf70e-c49d-46ff-b1b2-b87298935cf4","system_id":"levelo_inurba_marseille","lat":43.30842,"lon":5.396349,"is_reserved":false,"is_disabled":false,"rental_uris":{"android":"levelo://app?vid=27fcf70e-c49d-46ff-b1b2-b87298935cf4","ios":"levelo://app?vid=27fcf70e-c49d-46ff-b1b2-b87298935cf4"},"vehicle_type_id":"4","last_reported":1756134654,"current_range_meters":20400,"station_id":"ce4bh012rcd13ifvqcv0","pricing_plan_id":"cebpf4jnsgd1na2vs0mg"},{"bike_id":"e53193a8-f7fa-4505-b7c6-0692edfbd37c","system_id":"levelo_inurba_marseille","lat":43.28411,"lon":5.3499,"is_reserved":false,"is_disabled":false,"rental_uris":{"android":"levelo://app?vid=e53193a8-f7fa-4505-b7c6-0692edfbd37c","ios":"levelo://app?vid=e53193a8-f7fa-4505-b7c6-0692edfbd37c"},"vehicle_type_id":"4","last_reported":1756134654,"current_range_meters":20400,"station_id":"ce4bhbh2rcd13ifvqepg","pricing_plan_id":"cebpf4jnsgd1na2vs0mg"},{"bike_id":"effe83d7-687a-40be-8bbb-8fa3c804590c","system_id":"levelo_inurba_marseille","lat":43.26211,"lon":5.37441,"is_reserved":false,"is_disabled":false,"rental_uris":{"android":"levelo://app?vid=effe83d7-687a-40be-8bbb-8fa3c804590c","ios":"levelo://app?vid=effe83d7-687a-40be-8bbb-8fa3c804590c"},"vehicle_type_id":"4","last_reported":1756134654,"current_range_meters":20400,"station_id":"ce4bhgp2rcd13ifvqfc0","pricing_plan_id":"cebpf4jnsgd1na2vs0mg"},{"bike_id":"211360f6-68c4-4bd5-89da-35f45276cfe4","system_id":"levelo_inurba_marseille","lat":43.27208,"lon":5.39204,"is_reserved":false,"is_disabled":false,"rental_uris":{"android":"levelo://app?vid=211360f6-68c4-4bd5-89da-35f45276cfe4","ios":"levelo://app?vid=211360f6-68c4-4bd5-89da-35f45276cfe4"},"vehicle_type_id":"4","last_reported":1756134654,"current_range_meters":20400,"station_id":"ce4bhhp2rcd13ifvqfm0","pricing_plan_id":"cebpf4jnsgd1na2vs0mg"},{"bike_id":"d888d700-7db7-4db6-98ad-3523bac4feaf","system_id":"levelo_inurba_marseille","lat":43.28079,"lon":5.39662,"is_reserved":false,"is_disabled":false,"rental_uris":{"android":"levelo://app?vid=d888d700-7db7-4db6-98ad-3523bac4feaf","ios":"levelo://app?vid=d888d700-7db7-4db6-98ad-3523bac4feaf"},"vehicle_type_id":"4","last_reported":1756134654,"current_range_meters":20400,"station_id":"ce4bho12rcd13ifvqh2g","pricing_plan_id":"cebpf4jnsgd1na2vs0mg"},{"bike_id":"078e18d3-9140-4459-bdfc-d810ed60b50d","system_id":"levelo_inurba_marseille","lat":43.32394,"lon":5.36733,"is_reserved":false,"is_disabled":false,"rental_uris":{"android":"levelo://app?vid=078e18d3-9140-4459-bdfc-d810ed60b50d","ios":"levelo://app?vid=078e18d3-9140-4459-bdfc-d810ed60b50d"},"vehicle_type_id":"4","last_reported":1756134654,"current_range_meters":20400,"station_id":"ce4bhsh2rcd13ifvqi2g","pricing_plan_id":"cebpf4jnsgd1na2vs0mg"},{"bike_id":"244b6560-ef6e-41e6-8828-3d7ef17d3821","system_id":"levelo_inurba_marseille","lat":43.28405,"lon":5.37503,"is_reserved":false,"is_disabled":false,"rental_uris":{"android":"levelo://app?vid=244b6560-ef6e-41e6-8828-3d7ef17d3821","ios":"levelo://app?vid=244b6560-ef6e-41e6-8828-3d7ef17d3821"},"vehicle_type_id":"4","last_reported":1756134654,"current_range_meters":20800,"station_id":"ce4bh412rcd13ifvqds0","pricing_plan_id":"cebpf4jnsgd1na2vs0mg"},{"bike_id":"5f9c59c1-4c78-4f75-94f2-52ef629c350a","system_id":"levelo_inurba_marseille","lat":43.273738,"lon":5.362545,"is_reserved":false,"is_disabled":false,"rental_uris":{"android":"levelo://app?vid=5f9c59c1-4c78-4f75-94f2-52ef629c350a","ios":"levelo://app?vid=5f9c59c1-4c78-4f75-94f2-52ef629c350a"},"vehicle_type_id":"4","last_reported":1756134654,"current_range_meters":20800,"station_id":"ce4bhbh2rcd13ifvqeo0","pricing_plan_id":"cebpf4jnsgd1na2vs0mg"},{"bike_id":"8868a0ac-7dd1-41b4-ab49-e577c833500d","system_id":"levelo_inurba_marseille","lat":43.2656,"lon":5.37259,"is_reserved":false,"is_disabled":false,"rental_uris":{"android":"levelo://app?vid=8868a0ac-7dd1-41b4-ab49-e577c833500d","ios":"levelo://app?vid=8868a0ac-7dd1-41b4-ab49-e577c833500d"},"vehicle_type_id":"4","last_reported":1756134654,"current_range_meters":20800,"station_id":"ce4bhg12rcd13ifvqf70","pricing_plan_id":"cebpf4jnsgd1na2vs0mg"},{"bike_id":"29599fa4-1ec8-4917-a257-30bc9cfdbb45","system_id":"levelo_inurba_marseille","lat":43.2534,"lon":5.42172,"is_reserved":false,"is_disabled":false,"rental_uris":{"android":"levelo://app?vid=29599fa4-1ec8-4917-a257-30bc9cfdbb45","ios":"levelo://app?vid=29599fa4-1ec8-4917-a257-30bc9cfdbb45"},"vehicle_type_id":"4","last_reported":1756134654,"current_range_meters":20800,"station_id":"st_d2m65c5bi1j21697t3ng","pricing_plan_id":"cebpf4jnsgd1na2vs0mg"},{"bike_id":"e1b35c2c-2afe-456c-be5b-5715edca7a1e","system_id":"levelo_inurba_marseille","lat":43.293,"lon":5.37455,"is_reserved":false,"is_disabled":false,"rental_uris":{"android":"levelo://app?vid=e1b35c2c-2afe-456c-be5b-5715edca7a1e","ios":"levelo://app?vid=e1b35c2c-2afe-456c-be5b-5715edca7a1e"},"vehicle_type_id":"4","last_reported":1756134654,"current_range_meters":21600,"station_id":"ce4bgi12rcd13ifvqb70","pricing_plan_id":"cebpf4jnsgd1na2vs0mg"},{"bike_id":"61dad932-1397-4752-84ce-7eef53296241","system_id":"levelo_inurba_marseille","lat":43.30151,"lon":5.39847,"is_reserved":false,"is_disabled":false,"rental_uris":{"android":"levelo://app?vid=61dad932-1397-4752-84ce-7eef53296241","ios":"levelo://app?vid=61dad932-1397-4752-84ce-7eef53296241"},"vehicle_type_id":"4","last_reported":1756134654,"current_range_meters":21600,"station_id":"ce4bh0h2rcd13ifvqd40","pricing_plan_id":"cebpf4jnsgd1na2vs0mg"},{"bike_id":"bd9f156b-c8e0-4577-826c-ba32726b0031","system_id":"levelo_inurba_marseille","lat":43.287,"lon":5.37384,"is_reserved":false,"is_disabled":false,"rental_uris":{"android":"levelo://app?vid=bd9f156b-c8e0-4577-826c-ba32726b0031","ios":"levelo://app?vid=bd9f156b-c8e0-4577-826c-ba32726b0031"},"vehicle_type_id":"4","last_reported":1756134654,"current_range_meters":21600,"station_id":"ce4bh3p2rcd13ifvqdq0","pricing_plan_id":"cebpf4jnsgd1na2vs0mg"},{"bike_id":"58a0445a-08c7-4f54-a7b6-c400a85b6006","system_id":"levelo_inurba_marseille","lat":43.28941,"lon":5.36636,"is_reserved":false,"is_disabled":false,"rental_uris":{"android":"levelo://app?vid=58a0445a-08c7-4f54-a7b6-c400a85b6006","ios":"levelo://app?vid=58a0445a-08c7-4f54-a7b6-c400a85b6006"},"vehicle_type_id":"4","last_reported":1756134654,"current_range_meters":21600,"station_id":"ce4bhap2rcd13ifvqek0","pricing_plan_id":"cebpf4jnsgd1na2vs0mg"},{"bike_id":"cd0024ba-c652-4938-be77-af5c94198a6a","system_id":"levelo_inurba_marseille","lat":43.292304,"lon":5.360745,"is_reserved":false,"is_disabled":false,"rental_uris":{"android":"levelo://app?vid=cd0024ba-c652-4938-be77-af5c94198a6a","ios":"levelo://app?vid=cd0024ba-c652-4938-be77-af5c94198a6a"},"vehicle_type_id":"4","last_reported":1756134654,"current_range_meters":21600,"station_id":"ce4bhbh2rcd13ifvqeqg","pricing_plan_id":"cebpf4jnsgd1na2vs0mg"},{"bike_id":"cb35a50a-8949-4f3d-90b7-be17c72b4c7d","system_id":"levelo_inurba_marseille","lat":43.27426,"lon":5.39414,"is_reserved":false,"is_disabled":false,"rental_uris":{"android":"levelo://app?vid=cb35a50a-8949-4f3d-90b7-be17c72b4c7d","ios":"levelo://app?vid=cb35a50a-8949-4f3d-90b7-be17c72b4c7d"},"vehicle_type_id":"4","last_reported":1756134654,"current_range_meters":21600,"station_id":"ce4bhdp2rcd13ifvqf20","pricing_plan_id":"cebpf4jnsgd1na2vs0mg"},{"bike_id":"faf8ff3c-e4df-44b1-8fa4-88f60840e904","system_id":"levelo_inurba_marseille","lat":43.27341,"lon":5.39074,"is_reserved":false,"is_disabled":false,"rental_uris":{"android":"levelo://app?vid=faf8ff3c-e4df-44b1-8fa4-88f60840e904","ios":"levelo://app?vid=faf8ff3c-e4df-44b1-8fa4-88f60840e904"},"vehicle_type_id":"4","last_reported":1756134654,"current_range_meters":21600,"station_id":"ce4bhgp2rcd13ifvqfe0","pricing_plan_id":"cebpf4jnsgd1na2vs0mg"},{"bike_id":"6a5d2b3a-168a-4947-9d7f-4fb13b928786","system_id":"levelo_inurba_marseille","lat":43.27616,"lon":5.36099,"is_reserved":false,"is_disabled":false,"rental_uris":{"android":"levelo://app?vid=6a5d2b3a-168a-4947-9d7f-4fb13b928786","ios":"levelo://app?vid=6a5d2b3a-168a-4947-9d7f-4fb13b928786"},"vehicle_type_id":"4","last_reported":1756134654,"current_range_meters":22000,"station_id":"ce4bgj92rcd13ifvqbe0","pricing_plan_id":"cebpf4jnsgd1na2vs0mg"},{"bike_id":"a51cabd7-fd0d-4f3a-a0ec-1e5517db9c2d","system_id":"levelo_inurba_marseille","lat":43.28414,"lon":5.34981,"is_reserved":false,"is_disabled":false,"rental_uris":{"android":"levelo://app?vid=a51cabd7-fd0d-4f3a-a0ec-1e5517db9c2d","ios":"levelo://app?vid=a51cabd7-fd0d-4f3a-a0ec-1e5517db9c2d"},"vehicle_type_id":"4","last_reported":1756134654,"current_range_meters":22000,"station_id":"ce4bhbh2rcd13ifvqepg","pricing_plan_id":"cebpf4jnsgd1na2vs0mg"},{"bike_id":"e96a0322-0a53-4d62-8d72-554ea214d4a0","system_id":"levelo_inurba_marseille","lat":43.28248,"lon":5.35065,"is_reserved":false,"is_disabled":false,"rental_uris":{"android":"levelo://app?vid=e96a0322-0a53-4d62-8d72-554ea214d4a0","ios":"levelo://app?vid=e96a0322-0a53-4d62-8d72-554ea214d4a0"},"vehicle_type_id":"4","last_reported":1756134654,"current_range_meters":22000,"station_id":"ce4bhbp2rcd13ifvqerg","pricing_plan_id":"cebpf4jnsgd1na2vs0mg"},{"bike_id":"e21baccf-5b0e-4e76-b5d3-4c20363f000b","system_id":"levelo_inurba_marseille","lat":43.27996,"lon":5.40003,"is_reserved":false,"is_disabled":false,"rental_uris":{"android":"levelo://app?vid=e21baccf-5b0e-4e76-b5d3-4c20363f000b","ios":"levelo://app?vid=e21baccf-5b0e-4e76-b5d3-4c20363f000b"},"vehicle_type_id":"4","last_reported":1756134654,"current_range_meters":22000,"station_id":"ce4bho92rcd13ifvqh4g","pricing_plan_id":"cebpf4jnsgd1na2vs0mg"},{"bike_id":"12b52f93-1c3a-4d46-9ac3-2c24be81660a","system_id":"levelo_inurba_marseille","lat":43.212,"lon":5.35059,"is_reserved":false,"is_disabled":false,"rental_uris":{"android":"levelo://app?vid=12b52f93-1c3a-4d46-9ac3-2c24be81660a","ios":"levelo://app?vid=12b52f93-1c3a-4d46-9ac3-2c24be81660a"},"vehicle_type_id":"4","last_reported":1756134654,"current_range_meters":22000,"station_id":"st_cvj6sg6p6f1abm77japg","pricing_plan_id":"cebpf4jnsgd1na2vs0mg"},{"bike_id":"81038c7f-bf49-4553-8cf5-5402bbe39201","system_id":"levelo_inurba_marseille","lat":43.29711,"lon":5.37701,"is_reserved":false,"is_disabled":false,"rental_uris":{"android":"levelo://app?vid=81038c7f-bf49-4553-8cf5-5402bbe39201","ios":"levelo://app?vid=81038c7f-bf49-4553-8cf5-5402bbe39201"},