{"last_updated":1758780970,"ttl":60,"version":"2.2","data":{"bikes":[{"bike_id":"9787be88-ad23-43f6-8388-9d0d9ae5043d","system_id":"levelo_inurba_marseille","lat":43.29814,"lon":5.38096,"is_reserved":false,"is_disabled":false,"rental_uris":{"android":"levelo://app?vid=9787be88-ad23-43f6-8388-9d0d9ae5043d","ios":"levelo://app?vid=9787be88-ad23-43f6-8388-9d0d9ae5043d"},"vehicle_type_id":"4","last_reported":1758780970,"current_range_meters":2800,"station_id":"ce4bgip2rcd13ifvqbb0","pricing_plan_id":"cebpf4jnsgd1na2vs0mg"},{"bike_id":"af3872dd-3c89-4a54-a9b5-073bdc447f30","system_id":"levelo_inurba_marseille","lat":43.307983,"lon":5.381485,"is_reserved":false,"is_disabled":false,"rental_uris":{"android":"levelo://app?vid=af3872dd-3c89-4a54-a9b5-073bdc447f30","ios":"levelo://app?vid=af3872dd-3c89-4a54-a9b5-073bdc447f30"},"vehicle_type_id":"4","last_reported":1758780970,"current_range_meters":2800,"station_id":"","pricing_plan_id":"cebpf4jnsgd1na2vs0mg"},{"bike_id":"d3dd4735-79f9-4dc6-82a8-e2f76cdbba74","system_id":"levelo_inurba_marseille","lat":43.31224,"lon":5.3684,"is_reserved":false,"is_disabled":false,"rental_uris":{"android":"levelo://app?vid=d3dd4735-79f9-4dc6-82a8-e2f76cdbba74","ios":"levelo://app?vid=d3dd4735-79f9-4dc6-82a8-e2f76cdbba74"},"vehicle_type_id":"4","last_reported":1758780970,"current_range_meters":3200,"station_id":"ce4bgl92rcd13ifvqbq0","pricing_plan_id":"cebpf4jnsgd1na2vs0mg"},{"bike_id":"ed651e5f-9231-4895-a7fa-a94da9e407ff","system_id":"levelo_inurba_marseille","lat":43.31347,"lon":5.36722,"is_reserved":false,"is_disabled":false,"rental_uris":{"android":"levelo://app?vid=ed651e5f-9231-4895-a7fa-a94da9e407ff","ios":"levelo://app?vid=ed651e5f-9231-4895-a7fa-a94da9e407ff"},"vehicle_type_id":"4","last_reported":1758780970,"current_range_meters":3200,"station_id":"ce4bgr92rcd13ifvqc6g","pricing_plan_id":"cebpf4jnsgd1na2vs0mg"},{"bike_id":"355e741c-878f-4775-9222-3a4d87cf17a7","system_id":"levelo_inurba_marseille","lat":43.24682,"lon":5.38184,"is_reserved":false,"is_disabled":false,"rental_uris":{"android":"levelo://app?vid=355e741c-878f-4775-9222-3a4d87cf17a7","ios":"levelo://app?vid=355e741c-878f-4775-9222-3a4d87cf17a7"},"vehicle_type_id":"4","last_reported":1758780970,"current_range_meters":3200,"station_id":"ce4bhih2rcd13ifvqfr0","pricing_plan_id":"cebpf4jnsgd1na2vs0mg"},{"bike_id":"0d62ee39-a014-4477-98b0-3a63d0d80ac2","system_id":"levelo_inurba_marseille","lat":43.33613,"lon":5.41032,"is_reserved":false,"is_disabled":false,"rental_uris":{"android":"levelo://app?vid=0d62ee39-a014-4477-98b0-3a63d0d80ac2","ios":"levelo://app?vid=0d62ee39-a014-4477-98b0-3a63d0d80ac2"},"vehicle_type_id":"4","last_reported":1758780970,"current_range_meters":3600,"station_id":"ce4bhqh2rcd13ifvqhmg","pricing_plan_id":"cebpf4jnsgd1na2vs0mg"},{"bike_id":"ab88293b-6a16-4ace-923e-285a91b5eea5","system_id":"levelo_inurba_marseille","lat":43.24065,"lon":5.37759,"is_reserved":false,"is_disabled":false,"rental_uris":{"android":"levelo://app?vid=ab88293b-6a16-4ace-923e-285a91b5eea5","ios":"levelo://app?vid=ab88293b-6a16-4ace-923e-285a91b5eea5"},"vehicle_type_id":"4","last_reported":1758780970,"current_range_meters":3600,"station_id":"ce4bhnp2rcd13ifvqgvg","pricing_plan_id":"cebpf4jnsgd1na2vs0mg"},{"bike_id":"c0e09fcd-6eb3-4487-95c6-c6f132f39de3","system_id":"levelo_inurba_marseille","lat":43.22532,"lon":5.34841,"is_reserved":false,"is_disabled":false,"rental_uris":{"android":"levelo://app?vid=c0e09fcd-6eb3-4487-95c6-c6f132f39de3","ios":"levelo://app?vid=c0e09fcd-6eb3-4487-95c6-c6f132f39de3"},"vehicle_type_id":"4","last_reported":1758780970,"current_range_meters":4000,"station_id":"","pricing_plan_id":"cebpf4jnsgd1na2vs0mg"},{"bike_id":"8c30dd17-1efb-41bb-9a8c-d2dd31ca667d","system_id":"levelo_inurba_marseille","lat":43.29709,"lon":5.36616,"is_reserved":false,"is_disabled":false,"rental_uris":{"android":"levelo://app?vid=8c30dd17-1efb-41bb-9a8c-d2dd31ca667d","ios":"levelo://app?vid=8c30dd17-1efb-41bb-9a8c-d2dd31ca667d"},"vehicle_type_id":"4","last_reported":1758780970,"current_range_meters":4000,"station_id":"ce4bgn12rcd13ifvqbt0","pricing_plan_id":"cebpf4jnsgd1na2vs0mg"},{"bike_id":"2a22c247-40b7-486d-99f5-b8632a8c6256","system_id":"levelo_inurba_marseille","lat":43.290433,"lon":5.400041,"is_reserved":false,"is_disabled":false,"rental_uris":{"android":"levelo://app?vid=2a22c247-40b7-486d-99f5-b8632a8c6256","ios":"levelo://app?vid=2a22c247-40b7-486d-99f5-b8632a8c6256"},"vehicle_type_id":"4","last_reported":1758780970,"current_range_meters":4000,"station_id":"ce4bh392rcd13ifvqdm0","pricing_plan_id":"cebpf4jnsgd1na2vs0mg"},{"bike_id":"1efddf8d-578f-4e4c-8c3f-e3a8bd592ba4","system_id":"levelo_inurba_marseille","lat":43.29965,"lon":5.37378,"is_reserved":false,"is_disabled":false,"rental_uris":{"android":"levelo://app?vid=1efddf8d-578f-4e4c-8c3f-e3a8bd592ba4","ios":"levelo://app?vid=1efddf8d-578f-4e4c-8c3f-e3a8bd592ba4"},"vehicle_type_id":"4","last_reported":1758780970,"current_range_meters":4400,"station_id":"","pricing_plan_id":"cebpf4jnsgd1na2vs0mg"},{"bike_id":"b2dbd3c2-7a94-4dbd-a59f-24bc2a32bb7e","system_id":"levelo_inurba_marseille","lat":43.23155,"lon":5.43688,"is_reserved":false,"is_disabled":false,"rental_uris":{"android":"levelo://app?vid=b2dbd3c2-7a94-4dbd-a59f-24bc2a32bb7e","ios":"levelo://app?vid=b2dbd3c2-7a94-4dbd-a59f-24bc2a32bb7e"},"vehicle_type_id":"4","last_reported":1758780970,"current_range_meters":4400,"station_id":"ce4bhmp2rcd13ifvqgog","pricing_plan_id":"cebpf4jnsgd1na2vs0mg"},{"bike_id":"bf289a68-bfd8-401e-865e-3ffebbe91b6d","system_id":"levelo_inurba_marseille","lat":43.28463,"lon":5.38424,"is_reserved":false,"is_disabled":false,"rental_uris":{"android":"levelo://app?vid=bf289a68-bfd8-401e-865e-3ffebbe91b6d","ios":"levelo://app?vid=bf289a68-bfd8-401e-865e-3ffebbe91b6d"},"vehicle_type_id":"4","last_reported":1758780970,"current_range_meters":4800,"station_id":"ce4bh512rcd13ifvqe3g","pricing_plan_id":"cebpf4jnsgd1na2vs0mg"},{"bike_id":"c2af318a-7d44-4fd1-b6d5-bb0761cb7551","system_id":"levelo_inurba_marseille","lat":43.246295,"lon":5.431443,"is_reserved":false,"is_disabled":false,"rental_uris":{"android":"levelo://app?vid=c2af318a-7d44-4fd1-b6d5-bb0761cb7551","ios":"levelo://app?vid=c2af318a-7d44-4fd1-b6d5-bb0761cb7551"},"vehicle_type_id":"4","last_reported":1758780970,"current_range_meters":4800,"station_id":"st_d2m6c4gdas8pm72e190g","pricing_plan_id":"cebpf4jnsgd1na2vs0mg"},{"bike_id":"a1298cf3-e570-4cd2-9d7f-46eeff667a76","system_id":"levelo_inurba_marseille","lat":43.24551,"lon":5.39513,"is_reserved":false,"is_disabled":false,"rental_uris":{"android":"levelo://app?vid=a1298cf3-e570-4cd2-9d7f-46eeff667a76","ios":"levelo://app?vid=a1298cf3-e570-4cd2-9d7f-46eeff667a76"},"vehicle_type_id":"4","last_reported":1758780970,"current_range_meters":4800,"station_id":"ce4bhlp2rcd13ifvqgjg","pricing_plan_id":"cebpf4jnsgd1na2vs0mg"},{"bike_id":"0bf085a0-2980-4c46-9153-8b8acdbb39f2","system_id":"levelo_inurba_marseille","lat":43.30586,"lon":5.39358,"is_reserved":false,"is_disabled":false,"rental_uris":{"android":"levelo://app?vid=0bf085a0-2980-4c46-9153-8b8acdbb39f2","ios":"levelo://app?vid=0bf085a0-2980-4c46-9153-8b8acdbb39f2"},"vehicle_type_id":"4","last_reported":1758780970,"current_range_meters":5600,"station_id":"ce4bh0p2rcd13ifvqd80","pricing_plan_id":"cebpf4jnsgd1na2vs0mg"},{"bike_id":"d6e41e12-686c-4be9-bd39-a0be3bd88f6b","system_id":"levelo_inurba_marseille","lat":43.26484,"lon":5.3955,"is_reserved":false,"is_disabled":false,"rental_uris":{"android":"levelo://app?vid=d6e41e12-686c-4be9-bd39-a0be3bd88f6b","ios":"levelo://app?vid=d6e41e12-686c-4be9-bd39-a0be3bd88f6b"},"vehicle_type_id":"4","last_reported":1758780970,"current_range_meters":5600,"station_id":"ce4bhi12rcd13ifvqfq0","pricing_plan_id":"cebpf4jnsgd1na2vs0mg"},{"bike_id":"b3c3eeed-cef1-496b-8c40-a1c31527f62b","system_id":"levelo_inurba_marseille","lat":43.32538,"lon":5.41423,"is_reserved":false,"is_disabled":false,"rental_uris":{"android":"levelo://app?vid=b3c3eeed-cef1-496b-8c40-a1c31527f62b","ios":"levelo://app?vid=b3c3eeed-cef1-496b-8c40-a1c31527f62b"},"vehicle_type_id":"4","last_reported":1758780970,"current_range_meters":5600,"station_id":"ce4bhq12rcd13ifvqhhg","pricing_plan_id":"cebpf4jnsgd1na2vs0mg"},{"bike_id":"b857bbe2-4106-4fb1-aac7-8beb6d849587","system_id":"levelo_inurba_marseille","lat":43.33608,"lon":5.40985,"is_reserved":false,"is_disabled":false,"rental_uris":{"android":"levelo://app?vid=b857bbe2-4106-4fb1-aac7-8beb6d849587","ios":"levelo://app?vid=b857bbe2-4106-4fb1-aac7-8beb6d849587"},"vehicle_type_id":"4","last_reported":1758780970,"current_range_meters":5600,"station_id":"ce4bhqh2rcd13ifvqhmg","pricing_plan_id":"cebpf4jnsgd1na2vs0mg"},{"bike_id":"da61f4be-9dc7-4658-9a17-59b5e56db46e","system_id":"levelo_inurba_marseille","lat":43.29043,"lon":5.39957,"is_reserved":false,"is_disabled":false,"rental_uris":{"android":"levelo://app?vid=da61f4be-9dc7-4658-9a17-59b5e56db46e","ios":"levelo://app?vid=da61f4be-9dc7-4658-9a17-59b5e56db46e"},"vehicle_type_id":"4","last_reported":1758780970,"current_range_meters":6000,"station_id":"ce4bh392rcd13ifvqdm0","pricing_plan_id":"cebpf4jnsgd1na2vs0mg"},{"bike_id":"9446425e-0a86-42ae-bc3c-f72ad738e590","system_id":"levelo_inurba_marseille","lat":43.33657,"lon":5.36309,"is_reserved":false,"is_disabled":false,"rental_uris":{"android":"levelo://app?vid=9446425e-0a86-42ae-bc3c-f72ad738e590","ios":"levelo://app?vid=9446425e-0a86-42ae-bc3c-f72ad738e590"},"vehicle_type_id":"4","last_reported":1758780970,"current_range_meters":6000,"station_id":"","pricing_plan_id":"cebpf4jnsgd1na2vs0mg"},{"bike_id":"939538dc-20bd-4d94-8a10-8e1e0a179bc7","system_id":"levelo_inurba_marseille","lat":43.30841,"lon":5.36808,"is_reserved":false,"is_disabled":false,"rental_uris":{"android":"levelo://app?vid=939538dc-20bd-4d94-8a10-8e1e0a179bc7","ios":"levelo://app?vid=939538dc-20bd-4d94-8a10-8e1e0a179bc7"},"vehicle_type_id":"4","last_reported":1758780970,"current_range_meters":6000,"station_id":"","pricing_plan_id":"cebpf4jnsgd1na2vs0mg"},{"bike_id":"71d8d25e-c8b8-4c69-9aea-75bc677fa056","system_id":"levelo_inurba_marseille","lat":43.298932,"lon":5.386646,"is_reserved":false,"is_disabled":false,"rental_uris":{"android":"levelo://app?vid=71d8d25e-c8b8-4c69-9aea-75bc677fa056","ios":"levelo://app?vid=71d8d25e-c8b8-4c69-9aea-75bc677fa056"},"vehicle_type_id":"4","last_reported":1758780970,"current_range_meters":5600,"station_id":"ce4bh392rcd13ifvqdl0","pricing_plan_id":"cebpf4jnsgd1na2vs0mg"},{"bike_id":"b7c9333d-7da1-4e12-8de0-b9173962a258","system_id":"levelo_inurba_marseille","lat":43.3017,"lon":5.38069,"is_reserved":false,"is_disabled":false,"rental_uris":{"android":"levelo://app?vid=b7c9333d-7da1-4e12-8de0-b9173962a258","ios":"levelo://app?vid=b7c9333d-7da1-4e12-8de0-b9173962a258"},"vehicle_type_id":"4","last_reported":1758780970,"current_range_meters":6000,"station_id":"ce4bgjp2rcd13ifvqbh0","pricing_plan_id":"cebpf4jnsgd1na2vs0mg"},{"bike_id":"9765fd3b-7472-4f3c-b5ea-2cb20800a3a9","system_id":"levelo_inurba_marseille","lat":43.24642,"lon":5.39614,"is_reserved":false,"is_disabled":true,"rental_uris":{"android":"levelo://app?vid=9765fd3b-7472-4f3c-b5ea-2cb20800a3a9","ios":"levelo://app?vid=9765fd3b-7472-4f3c-b5ea-2cb20800a3a9"},"vehicle_type_id":"4","last_reported":1758780970,"current_range_meters":6400,"station_id":"","pricing_plan_id":"cebpf4jnsgd1na2vs0mg"},{"bike_id":"7c0482c3-9253-4d1b-b4f3-be55cdb7721d","system_id":"levelo_inurba_marseille","lat":43.33757,"lon":5.37466,"is_reserved":false,"is_disabled":false,"rental_uris":{"android":"levelo://app?vid=7c0482c3-9253-4d1b-b4f3-be55cdb7721d","ios":"levelo://app?vid=7c0482c3-9253-4d1b-b4f3-be55cdb7721d"},"vehicle_type_id":"4","last_reported":1758780970,"current_range_meters":6800,"station_id":"","pricing_plan_id":"cebpf4jnsgd1na2vs0mg"},{"bike_id":"ea93c4e7-0906-4128-b4fc-1b4c74a5c843","system_id":"levelo_inurba_marseille","lat":43.248126,"lon":5.374647,"is_reserved":false,"is_disabled":true,"rental_uris":{"android":"levelo://app?vid=ea93c4e7-0906-4128-b4fc-1b4c74a5c843","ios":"levelo://app?vid=ea93c4e7-0906-4128-b4fc-1b4c74a5c843"},"vehicle_type_id":"4","last_reported":1758780970,"current_range_meters":6800,"station_id":"ce4bhgh2rcd13ifvqfb0","pricing_plan_id":"cebpf4jnsgd1na2vs0mg"},{"bike_id":"2bd3d88f-f2aa-42bb-a59b-7add998186ea","system_id":"levelo_inurba_marseille","lat":43.26209,"lon":5.37441,"is_reserved":false,"is_disabled":false,"rental_uris":{"android":"levelo://app?vid=2bd3d88f-f2aa-42bb-a59b-7add998186ea","ios":"levelo://app?vid=2bd3d88f-f2aa-42bb-a59b-7add998186ea"},"vehicle_type_id":"4","last_reported":1758780970,"current_range_meters":6800,"station_id":"ce4bhgp2rcd13ifvqfc0","pricing_plan_id":"cebpf4jnsgd1na2vs0mg"},{"bike_id":"2a748234-9779-422d-8d2c-13d02c51989c","system_id":"levelo_inurba_marseille","lat":43.243958,"lon":5.37066,"is_reserved":false,"is_disabled":false,"rental_uris":{"android":"levelo://app?vid=2a748234-9779-422d-8d2c-13d02c51989c","ios":"levelo://app?vid=2a748234-9779-422d-8d2c-13d02c51989c"},"vehicle_type_id":"4","last_reported":1758780970,"current_range_meters":6800,"station_id":"ce4bhhh2rcd13ifvqfk0","pricing_plan_id":"cebpf4jnsgd1na2vs0mg"},{"bike_id":"e804e8c8-5889-461f-9ee8-4ad1711c5f41","system_id":"levelo_inurba_marseille","lat":43.29593,"lon":5.37679,"is_reserved":false,"is_disabled":false,"rental_uris":{"android":"levelo://app?vid=e804e8c8-5889-461f-9ee8-4ad1711c5f41","ios":"levelo://app?vid=e804e8c8-5889-461f-9ee8-4ad1711c5f41"},"vehicle_type_id":"4","last_reported":1758780970,"current_range_meters":6800,"station_id":"ce4bgi92rcd13ifvqb90","pricing_plan_id":"cebpf4jnsgd1na2vs0mg"},{"bike_id":"43d57fd4-047e-4ac8-97e5-ec9b96239472","system_id":"levelo_inurba_marseille","lat":43.33231,"lon":5.39821,"is_reserved":false,"is_disabled":false,"rental_uris":{"android":"levelo://app?vid=43d57fd4-047e-4ac8-97e5-ec9b96239472","ios":"levelo://app?vid=43d57fd4-047e-4ac8-97e5-ec9b96239472"},"vehicle_type_id":"4","last_reported":1758780970,"current_range_meters":6800,"station_id":"","pricing_plan_id":"cebpf4jnsgd1na2vs0mg"},{"bike_id":"5f7a5080-e77c-4892-a096-c578510b27d0","system_id":"levelo_inurba_marseille","lat":43.27941,"lon":5.41053,"is_reserved":false,"is_disabled":true,"rental_uris":{"android":"levelo://app?vid=5f7a5080-e77c-4892-a096-c578510b27d0","ios":"levelo://app?vid=5f7a5080-e77c-4892-a096-c578510b27d0"},"vehicle_type_id":"4","last_reported":1758780970,"current_range_meters":7200,"station_id":"ce4bhnp2rcd13ifvqh0g","pricing_plan_id":"cebpf4jnsgd1na2vs0mg"},{"bike_id":"34ca5e83-e461-4329-bd48-29c4d6070be0","system_id":"levelo_inurba_marseille","lat":43.2572,"lon":5.41111,"is_reserved":false,"is_disabled":false,"rental_uris":{"android":"levelo://app?vid=34ca5e83-e461-4329-bd48-29c4d6070be0","ios":"levelo://app?vid=34ca5e83-e461-4329-bd48-29c4d6070be0"},"vehicle_type_id":"4","last_reported":1758780970,"current_range_meters":7200,"station_id":"ce4bhkp2rcd13ifvqgd0","pricing_plan_id":"cebpf4jnsgd1na2vs0mg"},{"bike_id":"68224f89-2e7b-4ef1-9841-2fa2b78271a0","system_id":"levelo_inurba_marseille","lat":43.27488,"lon":5.424,"is_reserved":false,"is_disabled":false,"rental_uris":{"android":"levelo://app?vid=68224f89-2e7b-4ef1-9841-2fa2b78271a0","ios":"levelo://app?vid=68224f89-2e7b-4ef1-9841-2fa2b78271a0"},"vehicle_type_id":"4","last_reported":1758780970,"current_range_meters":7200,"station_id":"ce4bhn92rcd13ifvqgrg","pricing_plan_id":"cebpf4jnsgd1na2vs0mg"},{"bike_id":"9c4a7bdb-c552-4dfd-8efb-40b9e0b0b147","system_id":"levelo_inurba_marseille","lat":43.30924,"lon":5.36704,"is_reserved":false,"is_disabled":false,"rental_uris":{"android":"levelo://app?vid=9c4a7bdb-c552-4dfd-8efb-40b9e0b0b147","ios":"levelo://app?vid=9c4a7bdb-c552-4dfd-8efb-40b9e0b0b147"},"vehicle_type_id":"4","last_reported":1758780970,"current_range_meters":7200,"station_id":"","pricing_plan_id":"cebpf4jnsgd1na2vs0mg"},{"bike_id":"1846e412-a89b-48c3-8a86-f911e8ea2c2e","system_id":"levelo_inurba_marseille","lat":43.212,"lon":5.35077,"is_reserved":false,"is_disabled":false,"rental_uris":{"android":"levelo://app?vid=1846e412-a89b-48c3-8a86-f911e8ea2c2e","ios":"levelo://app?vid=1846e412-a89b-48c3-8a86-f911e8ea2c2e"},"vehicle_type_id":"4","last_reported":1758780970,"current_range_meters":8000,"station_id":"st_cvj6sg6p6f1abm77japg","pricing_plan_id":"cebpf4jnsgd1na2vs0mg"},{"bike_id":"cb3d83dd-8277-415b-bc5d-a118e1200728","system_id":"levelo_inurba_marseille","lat":43.30102,"lon":5.41036,"is_reserved":false,"is_disabled":false,"rental_uris":{"android":"levelo://app?vid=cb3d83dd-8277-415b-bc5d-a118e1200728","ios":"levelo://app?vid=cb3d83dd-8277-415b-bc5d-a118e1200728"},"vehicle_type_id":"4","last_reported":1758780970,"current_range_meters":8000,"station_id":"","pricing_plan_id":"cebpf4jnsgd1na2vs0mg"},{"bike_id":"4c92b619-f7ce-4223-bf55-386a8d8b4424","system_id":"levelo_inurba_marseille","lat":43.31887,"lon":5.40737,"is_reserved":false,"is_disabled":false,"rental_uris":{"android":"levelo://app?vid=4c92b619-f7ce-4223-bf55-386a8d8b4424","ios":"levelo://app?vid=4c92b619-f7ce-4223-bf55-386a8d8b4424"},"vehicle_type_id":"4","last_reported":1758780970,"current_range_meters":8000,"station_id":"ce4bhq12rcd13ifvqhig","pricing_plan_id":"cebpf4jnsgd1na2vs0mg"},{"bike_id":"3c327943-29c5-446c-9dbf-088ed0163424","system_id":"levelo_inurba_marseille","lat":43.25346,"lon":5.42183,"is_reserved":false,"is_disabled":true,"rental_uris":{"android":"levelo://app?vid=3c327943-29c5-446c-9dbf-088ed0163424","ios":"levelo://app?vid=3c327943-29c5-446c-9dbf-088ed0163424"},"vehicle_type_id":"4","last_reported":1758780970,"current_range_meters":8000,"station_id":"st_d2m65c5bi1j21697t3ng","pricing_plan_id":"cebpf4jnsgd1na2vs0mg"},{"bike_id":"3283ffde-ce35-4119-bfb4-cd9246a4b9ff","system_id":"levelo_inurba_marseille","lat":43.29806,"lon":5.38086,"is_reserved":false,"is_disabled":false,"rental_uris":{"android":"levelo://app?vid=3283ffde-ce35-4119-bfb4-cd9246a4b9ff","ios":"levelo://app?vid=3283ffde-ce35-4119-bfb4-cd9246a4b9ff"},"vehicle_type_id":"4","last_reported":1758780970,"current_range_meters":8000,"station_id":"ce4bgip2rcd13ifvqbb0","pricing_plan_id":"cebpf4jnsgd1na2vs0mg"},{"bike_id":"09f5c617-afb0-4ee6-912e-d6ce1dacd8c9","system_id":"levelo_inurba_marseille","lat":43.30308,"lon":5.36901,"is_reserved":false,"is_disabled":false,"rental_uris":{"android":"levelo://app?vid=09f5c617-afb0-4ee6-912e-d6ce1dacd8c9","ios":"levelo://app?vid=09f5c617-afb0-4ee6-912e-d6ce1dacd8c9"},"vehicle_type_id":"4","last_reported":1758780970,"current_range_meters":7200,"station_id":"ce4bgqh2rcd13ifvqc5g","pricing_plan_id":"cebpf4jnsgd1na2vs0mg"},{"bike_id":"03c91b54-31b1-49ca-8350-cdeb2a1b4295","system_id":"levelo_inurba_marseille","lat":43.29711,"lon":5.37706,"is_reserved":false,"is_disabled":false,"rental_uris":{"android":"levelo://app?vid=03c91b54-31b1-49ca-8350-cdeb2a1b4295","ios":"levelo://app?vid=03c91b54-31b1-49ca-8350-cdeb2a1b4295"},"vehicle_type_id":"4","last_reported":1758780970,"current_range_meters":8000,"station_id":"ce4bgkh2rcd13ifvqbl0","pricing_plan_id":"cebpf4jnsgd1na2vs0mg"},{"bike_id":"4b428f31-281c-4a77-b81d-e72ef9f0ef56","system_id":"levelo_inurba_marseille","lat":43.30162,"lon":5.3805,"is_reserved":false,"is_disabled":false,"rental_uris":{"android":"levelo://app?vid=4b428f31-281c-4a77-b81d-e72ef9f0ef56","ios":"levelo://app?vid=4b428f31-281c-4a77-b81d-e72ef9f0ef56"},"vehicle_type_id":"4","last_reported":1758780970,"current_range_meters":8400,"station_id":"ce4bgjp2rcd13ifvqbh0","pricing_plan_id":"cebpf4jnsgd1na2vs0mg"},{"bike_id":"a16434de-ad6b-4d94-9f4f-704030ad1bdd","system_id":"levelo_inurba_marseille","lat":43.30153,"lon":5.38081,"is_reserved":false,"is_disabled":false,"rental_uris":{"android":"levelo://app?vid=a16434de-ad6b-4d94-9f4f-704030ad1bdd","ios":"levelo://app?vid=a16434de-ad6b-4d94-9f4f-704030ad1bdd"},"vehicle_type_id":"4","last_reported":1758780970,"current_range_meters":8400,"station_id":"ce4bgjp2rcd13ifvqbh0","pricing_plan_id":"cebpf4jnsgd1na2vs0mg"},{"bike_id":"35b29339-dba8-4e1a-a84b-b2cb4cbeab88","system_id":"levelo_inurba_marseille","lat":43.31052,"lon":5.40086,"is_reserved":false,"is_disabled":false,"rental_uris":{"android":"levelo://app?vid=35b29339-dba8-4e1a-a84b-b2cb4cbeab88","ios":"levelo://app?vid=35b29339-dba8-4e1a-a84b-b2cb4cbeab88"},"vehicle_type_id":"4","last_reported":1758780970,"current_range_meters":8800,"station_id":"","pricing_plan_id":"cebpf4jnsgd1na2vs0mg"},{"bike_id":"0df75e72-c8b2-4ed4-bb38-339f4f3a1611","system_id":"levelo_inurba_marseille","lat":43.27657,"lon":5.38946,"is_reserved":false,"is_disabled":false,"rental_uris":{"android":"levelo://app?vid=0df75e72-c8b2-4ed4-bb38-339f4f3a1611","ios":"levelo://app?vid=0df75e72-c8b2-4ed4-bb38-339f4f3a1611"},"vehicle_type_id":"4","last_reported":1758780970,"current_range_meters":8800,"station_id":"ce4bhi12rcd13ifvqfo0","pricing_plan_id":"cebpf4jnsgd1na2vs0mg"},{"bike_id":"cd8de6b2-ed60-4c2e-a2a6-3e75c934a115","system_id":"levelo_inurba_marseille","lat":43.29191,"lon":5.358042,"is_reserved":false,"is_disabled":false,"rental_uris":{"android":"levelo://app?vid=cd8de6b2-ed60-4c2e-a2a6-3e75c934a115","ios":"levelo://app?vid=cd8de6b2-ed60-4c2e-a2a6-3e75c934a115"},"vehicle_type_id":"4","last_reported":1758780970,"current_range_meters":8800,"station_id":"ce4bhb12rcd13ifvqel0","pricing_plan_id":"cebpf4jnsgd1na2vs0mg"},{"bike_id":"4e737411-53ce-4bdf-9802-c3bc30d9bc94","system_id":"levelo_inurba_marseille","lat":43.29547,"lon":5.40642,"is_reserved":false,"is_disabled":false,"rental_uris":{"android":"levelo://app?vid=4e737411-53ce-4bdf-9802-c3bc30d9bc94","ios":"levelo://app?vid=4e737411-53ce-4bdf-9802-c3bc30d9bc94"},"vehicle_type_id":"4","last_reported":1758780970,"current_range_meters":9200,"station_id":"","pricing_plan_id":"cebpf4jnsgd1na2vs0mg"},{"bike_id":"f9bb19b5-be2f-4631-9e2e-acc068d0edc3","system_id":"levelo_inurba_marseille","lat":43.30152,"lon":5.38095,"is_reserved":false,"is_disabled":false,"rental_uris":{"android":"levelo://app?vid=f9bb19b5-be2f-4631-9e2e-acc068d0edc3","ios":"levelo://app?vid=f9bb19b5-be2f-4631-9e2e-acc068d0edc3"},"vehicle_type_id":"4","last_reported":1758780970,"current_range_meters":9200,"station_id":"ce4bgjp2rcd13ifvqbh0","pricing_plan_id":"cebpf4jnsgd1na2vs0mg"},{"bike_id":"54ffa8a3-f2df-42ba-883f-c2ce0090f095","system_id":"levelo_inurba_marseille","lat":43.27496,"lon":5.4247,"is_reserved":false,"is_disabled":false,"rental_uris":{"android":"levelo://app?vid=54ffa8a3-f2df-42ba-883f-c2ce0090f095","ios":"levelo://app?vid=54ffa8a3-f2df-42ba-883f-c2ce0090f095"},"vehicle_type_id":"4","last_reported":1758780970,"current_range_meters":9200,"station_id":"ce4bhn92rcd13ifvqgrg","pricing_plan_id":"cebpf4jnsgd1na2vs0mg"},{"bike_id":"438ead59-de14-4fa0-a61d-03a70a4122ae","system_id":"levelo_inurba_marseille","lat":43.97269,"lon":4.89111,"is_reserved":false,"is_disabled":true,"rental_uris":{"android":"levelo://app?vid=438ead59-de14-4fa0-a61d-03a70a4122ae","ios":"levelo://app?vid=438ead59-de14-4fa0-a61d-03a70a4122ae"},"vehicle_type_id":"4","last_reported":1758780970,"current_range_meters":9200,"station_id":"","pricing_plan_id":"cebpf4jnsgd1na2vs0mg"},{"bike_id":"30dee23c-0674-4895-b453-e2d5a08cdfea","system_id":"levelo_inurba_marseille","lat":43.25494,"lon":5.37645,"is_reserved":false,"is_disabled":false,"rental_uris":{"android":"levelo://app?vid=30dee23c-0674-4895-b453-e2d5a08cdfea","ios":"levelo://app?vid=30dee23c-0674-4895-b453-e2d5a08cdfea"},"vehicle_type_id":"4","last_reported":1758780970,"current_range_meters":9200,"station_id":"ce4bhh12rcd13ifvqff0","pricing_plan_id":"cebpf4jnsgd1na2vs0mg"},{"bike_id":"fd86de63-3c45-4784-b46b-17ee3601b456","system_id":"levelo_inurba_marseille","lat":43.28443,"lon":5.39202,"is_reserved":false,"is_disabled":false,"rental_uris":{"android":"levelo://app?vid=fd86de63-3c45-4784-b46b-17ee3601b456","ios":"levelo://app?vid=fd86de63-3c45-4784-b46b-17ee3601b456"},"vehicle_type_id":"4","last_reported":1758780970,"current_range_meters":9600,"station_id":"ce4bhoh2rcd13ifvqh5g","pricing_plan_id":"cebpf4jnsgd1na2vs0mg"},{"bike_id":"a755ceb1-4268-42e3-8c1e-500eff179db0","system_id":"levelo_inurba_marseille","lat":43.30789,"lon":5.37648,"is_reserved":false,"is_disabled":false,"rental_uris":{"android":"levelo://app?vid=a755ceb1-4268-42e3-8c1e-500eff179db0","ios":"levelo://app?vid=a755ceb1-4268-42e3-8c1e-500eff179db0"},"vehicle_type_id":"4","last_reported":1758780970,"current_range_meters":9600,"station_id":"ce4bgv92rcd13ifvqcq0","pricing_plan_id":"cebpf4jnsgd1na2vs0mg"},{"bike_id":"b5097eea-9912-4be2-9cf9-14c224c5fab6","system_id":"levelo_inurba_marseille","lat":43.23212,"lon":5.35553,"is_reserved":false,"is_disabled":false,"rental_uris":{"android":"levelo://app?vid=b5097eea-9912-4be2-9cf9-14c224c5fab6","ios":"levelo://app?vid=b5097eea-9912-4be2-9cf9-14c224c5fab6"},"vehicle_type_id":"4","last_reported":1758780970,"current_range_meters":9600,"station_id":"ce4bhu92rcd13ifvqi70","pricing_plan_id":"cebpf4jnsgd1na2vs0mg"},{"bike_id":"7b09e75f-921c-4379-9482-4cc4a18d0647","system_id":"levelo_inurba_marseille","lat":43.30924,"lon":5.40142,"is_reserved":false,"is_disabled":false,"rental_uris":{"android":"levelo://app?vid=7b09e75f-921c-4379-9482-4cc4a18d0647","ios":"levelo://app?vid=7b09e75f-921c-4379-9482-4cc4a18d0647"},"vehicle_type_id":"4","last_reported":1758780970,"current_range_meters":9600,"station_id":"ce4bgvp2rcd13ifvqct0","pricing_plan_id":"cebpf4jnsgd1na2vs0mg"},{"bike_id":"484adbba-8e95-4d3f-8b4c-bdf34a7138ae","system_id":"levelo_inurba_marseille","lat":43.30131,"lon":5.38386,"is_reserved":false,"is_disabled":false,"rental_uris":{"android":"levelo://app?vid=484adbba-8e95-4d3f-8b4c-bdf34a7138ae","ios":"levelo://app?vid=484adbba-8e95-4d3f-8b4c-bdf34a7138ae"},"vehicle_type_id":"4","last_reported":1758780970,"current_range_meters":9600,"station_id":"","pricing_plan_id":"cebpf4jnsgd1na2vs0mg"},{"bike_id":"2b142924-375d-48cb-93a3-16a1b9bf5e94","system_id":"levelo_inurba_marseille","lat":43.28633,"lon":5.35109,"is_reserved":false,"is_disabled":false,"rental_uris":{"android":"levelo://app?vid=2b142924-375d-48cb-93a3-16a1b9bf5e94","ios":"levelo://app?vid=2b142924-375d-48cb-93a3-16a1b9bf5e94"},"vehicle_type_id":"4","last_reported":1758780970,"current_range_meters":9600,"station_id":"ce4bhch2rcd13ifvqeug","pricing_plan_id":"cebpf4jnsgd1na2vs0mg"},{"bike_id":"b53bf81f-76c4-4feb-b644-5de64af5e954","system_id":"levelo_inurba_marseille","lat":43.27353,"lon":5.424035,"is_reserved":false,"is_disabled":false,"rental_uris":{"android":"levelo://app?vid=b53bf81f-76c4-4feb-b644-5de64af5e954","ios":"levelo://app?vid=b53bf81f-76c4-4feb-b644-5de64af5e954"},"vehicle_type_id":"4","last_reported":1758780970,"current_range_meters":9600,"station_id":"","pricing_plan_id":"cebpf4jnsgd1na2vs0mg"},{"bike_id":"c7c79622-358c-457a-aaf8-a58760621f42","system_id":"levelo_inurba_marseille","lat":43.29779,"lon":5.37115,"is_reserved":false,"is_disabled":false,"rental_uris":{"android":"levelo://app?vid=c7c79622-358c-457a-aaf8-a58760621f42","ios":"levelo://app?vid=c7c79622-358c-457a-aaf8-a58760621f42"},"vehicle_type_id":"4","last_reported":1758780970,"current_range_meters":9600,"station_id":"ce4bgop2rcd13ifvqc1g","pricing_plan_id":"cebpf4jnsgd1na2vs0mg"},{"bike_id":"ddcf78e1-1203-4fa4-8bf7-48b97c9750f3","system_id":"levelo_inurba_marseille","lat":43.27989,"lon":5.41664,"is_reserved":false,"is_disabled":false,"rental_uris":{"android":"levelo://app?vid=ddcf78e1-1203-4fa4-8bf7-48b97c9750f3","ios":"levelo://app?vid=ddcf78e1-1203-4fa4-8bf7-48b97c9750f3"},"vehicle_type_id":"4","last_reported":1758780970,"current_range_meters":9600,"station_id":"ce4bho12rcd13ifvqh1g","pricing_plan_id":"cebpf4jnsgd1na2vs0mg"},{"bike_id":"cefe824f-f105-4f13-9eba-8570b14ccab2","system_id":"levelo_inurba_marseille","lat":43.25926,"lon":5.40908,"is_reserved":false,"is_disabled":false,"rental_uris":{"android":"levelo://app?vid=cefe824f-f105-4f13-9eba-8570b14ccab2","ios":"levelo://app?vid=cefe824f-f105-4f13-9eba-8570b14ccab2"},"vehicle_type_id":"4","last_reported":1758780970,"current_range_meters":9600,"station_id":"ce4bhm92rcd13ifvqglg","pricing_plan_id":"cebpf4jnsgd1na2vs0mg"},{"bike_id":"1221f52f-da48-4205-afc8-b6dd9d4b3e5e","system_id":"levelo_inurba_marseille","lat":43.25707,"lon":5.41112,"is_reserved":false,"is_disabled":true,"rental_uris":{"android":"levelo://app?vid=1221f52f-da48-4205-afc8-b6dd9d4b3e5e","ios":"levelo://app?vid=1221f52f-da48-4205-afc8-b6dd9d4b3e5e"},"vehicle_type_id":"4","last_reported":1758780970,"current_range_meters":10000,"station_id":"ce4bhkp2rcd13ifvqgd0","pricing_plan_id":"cebpf4jnsgd1na2vs0mg"},{"bike_id":"7981bd57-1a91-436b-8601-50130d20e8be","system_id":"levelo_inurba_marseille","lat":43.21198,"lon":5.351,"is_reserved":false,"is_disabled":false,"rental_uris":{"android":"levelo://app?vid=7981bd57-1a91-436b-8601-50130d20e8be","ios":"levelo://app?vid=7981bd57-1a91-436b-8601-50130d20e8be"},"vehicle_type_id":"4","last_reported":1758780970,"current_range_meters":10000,"station_id":"st_cvj6sg6p6f1abm77japg","pricing_plan_id":"cebpf4jnsgd1na2vs0mg"},{"bike_id":"8bbf4cbb-fc94-482f-8a85-7cf2babde5f8","system_id":"levelo_inurba_marseille","lat":43.34139,"lon":5.40907,"is_reserved":false,"is_disabled":false,"rental_uris":{"android":"levelo://app?vid=8bbf4cbb-fc94-482f-8a85-7cf2babde5f8","ios":"levelo://app?vid=8bbf4cbb-fc94-482f-8a85-7cf2babde5f8"},"vehicle_type_id":"4","last_reported":1758780970,"current_range_meters":10000,"station_id":"ce4bhqh2rcd13ifvqhlg","pricing_plan_id":"cebpf4jnsgd1na2vs0mg"},{"bike_id":"06c10839-75c7-457b-804b-f341157fb4f3","system_id":"levelo_inurba_marseille","lat":43.25086,"lon":5.40472,"is_reserved":false,"is_disabled":false,"rental_uris":{"android":"levelo://app?vid=06c10839-75c7-457b-804b-f341157fb4f3","ios":"levelo://app?vid=06c10839-75c7-457b-804b-f341157fb4f3"},"vehicle_type_id":"4","last_reported":1758780970,"current_range_meters":10000,"station_id":"","pricing_plan_id":"cebpf4jnsgd1na2vs0mg"},{"bike_id":"a851cae0-b395-441e-9dd1-21300baf3396","system_id":"levelo_inurba_marseille","lat":43.31521,"lon":5.38682,"is_reserved":false,"is_disabled":false,"rental_uris":{"android":"levelo://app?vid=a851cae0-b395-441e-9dd1-21300baf3396","ios":"levelo://app?vid=a851cae0-b395-441e-9dd1-21300baf3396"},"vehicle_type_id":"4","last_reported":1758780970,"current_range_meters":10000,"station_id":"","pricing_plan_id":"cebpf4jnsgd1na2vs0mg"},{"bike_id":"b047061a-80fe-4f53-a37f-a97017dc2f10","system_id":"levelo_inurba_marseille","lat":43.29253,"lon":5.40914,"is_reserved":false,"is_disabled":true,"rental_uris":{"android":"levelo://app?vid=b047061a-80fe-4f53-a37f-a97017dc2f10","ios":"levelo://app?vid=b047061a-80fe-4f53-a37f-a97017dc2f10"},"vehicle_type_id":"4","last_reported":1758780970,"current_range_meters":10000,"station_id":"ce4bh192rcd13ifvqdc0","pricing_plan_id":"cebpf4jnsgd1na2vs0mg"},{"bike_id":"63b2be35-bfc4-4614-8d58-a4e915e32153","system_id":"levelo_inurba_marseille","lat":43.28947,"lon":5.36407,"is_reserved":false,"is_disabled":false,"rental_uris":{"android":"levelo://app?vid=63b2be35-bfc4-4614-8d58-a4e915e32153","ios":"levelo://app?vid=63b2be35-bfc4-4614-8d58-a4e915e32153"},"vehicle_type_id":"4","last_reported":1758780970,"current_range_meters":9600,"station_id":"ce4bhc92rcd13ifvqetg","pricing_plan_id":"cebpf4jnsgd1na2vs0mg"},{"bike_id":"450844ba-2fc2-47be-9959-8fee61f07fb6","system_id":"levelo_inurba_marseille","lat":43.31741,"lon":5.39024,"is_reserved":false,"is_disabled":false,"rental_uris":{"android":"levelo://app?vid=450844ba-2fc2-47be-9959-8fee61f07fb6","ios":"levelo://app?vid=450844ba-2fc2-47be-9959-8fee61f07fb6"},"vehicle_type_id":"4","last_reported":1758780970,"current_range_meters":10800,"station_id":"ce4bhqp2rcd13ifvqhng","pricing_plan_id":"cebpf4jnsgd1na2vs0mg"},{"bike_id":"dfc6616d-fac8-446b-b270-4ca8177f4872","system_id":"levelo_inurba_marseille","lat":43.24084,"lon":5.37781,"is_reserved":false,"is_disabled":false,"rental_uris":{"android":"levelo://app?vid=dfc6616d-fac8-446b-b270-4ca8177f4872","ios":"levelo://app?vid=dfc6616d-fac8-446b-b270-4ca8177f4872"},"vehicle_type_id":"4","last_reported":1758780970,"current_range_meters":10800,"station_id":"ce4bhnp2rcd13ifvqgvg","pricing_plan_id":"cebpf4jnsgd1na2vs0mg"},{"bike_id":"ae4d123c-65ee-4c52-8933-f4b14d3f9582","system_id":"levelo_inurba_marseille","lat":43.22559,"lon":5.41619,"is_reserved":false,"is_disabled":false,"rental_uris":{"android":"levelo://app?vid=ae4d123c-65ee-4c52-8933-f4b14d3f9582","ios":"levelo://app?vid=ae4d123c-65ee-4c52-8933-f4b14d3f9582"},"vehicle_type_id":"4","last_reported":1758780970,"current_range_meters":10800,"station_id":"st_d2o4gvlbi1j2169b742g","pricing_plan_id":"cebpf4jnsgd1na2vs0mg"},{"bike_id":"8df2ffca-342a-4cc8-a8fc-db6d2e7d016b","system_id":"levelo_inurba_marseille","lat":43.30258,"lon":5.40085,"is_reserved":false,"is_disabled":false,"rental_uris":{"android":"levelo://app?vid=8df2ffca-342a-4cc8-a8fc-db6d2e7d016b","ios":"levelo://app?vid=8df2ffca-342a-4cc8-a8fc-db6d2e7d016b"},"vehicle_type_id":"4","last_reported":1758780970,"current_range_meters":10800,"station_id":"ce4bgvh2rcd13ifvqcs0","pricing_plan_id":"cebpf4jnsgd1na2vs0mg"},{"bike_id":"db289146-0b82-4262-a7e3-8d61a53712c9","system_id":"levelo_inurba_marseille","lat":43.30286,"lon":5.36913,"is_reserved":false,"is_disabled":false,"rental_uris":{"android":"levelo://app?vid=db289146-0b82-4262-a7e3-8d61a53712c9","ios":"levelo://app?vid=db289146-0b82-4262-a7e3-8d61a53712c9"},"vehicle_type_id":"4","last_reported":1758780970,"current_range_meters":10800,"station_id":"ce4bgqh2rcd13ifvqc5g","pricing_plan_id":"cebpf4jnsgd1na2vs0mg"},{"bike_id":"2d53d95c-c262-4101-82f0-f20686b83a42","system_id":"levelo_inurba_marseille","lat":43.30304,"lon":5.36908,"is_reserved":false,"is_disabled":false,"rental_uris":{"android":"levelo://app?vid=2d53d95c-c262-4101-82f0-f20686b83a42","ios":"levelo://app?vid=2d53d95c-c262-4101-82f0-f20686b83a42"},"vehicle_type_id":"4","last_reported":1758780970,"current_range_meters":10800,"station_id":"ce4bgqh2rcd13ifvqc5g","pricing_plan_id":"cebpf4jnsgd1na2vs0mg"},{"bike_id":"d3678ff8-ce3f-4629-9296-3c6a7b3f647d","system_id":"levelo_inurba_marseille","lat":43.30476,"lon":5.3791,"is_reserved":false,"is_disabled":false,"rental_uris":{"android":"levelo://app?vid=d3678ff8-ce3f-4629-9296-3c6a7b3f647d","ios":"levelo://app?vid=d3678ff8-ce3f-4629-9296-3c6a7b3f647d"},"vehicle_type_id":"4","last_reported":1758780970,"current_range_meters":10800,"station_id":"ce4bgup2rcd13ifvqcn0","pricing_plan_id":"cebpf4jnsgd1na2vs0mg"},{"bike_id":"84833ea8-1805-43c2-b485-779ddeb3871c","system_id":"levelo_inurba_marseille","lat":43.286971,"lon":5.399888,"is_reserved":false,"is_disabled":false,"rental_uris":{"android":"levelo://app?vid=84833ea8-1805-43c2-b485-779ddeb3871c","ios":"levelo://app?vid=84833ea8-1805-43c2-b485-779ddeb3871c"},"vehicle_type_id":"4","last_reported":1758780970,"current_range_meters":10800,"station_id":"ce4bho92rcd13ifvqh3g","pricing_plan_id":"cebpf4jnsgd1na2vs0mg"},{"bike_id":"514b5fdb-f81d-41c3-afe2-e88866964916","system_id":"levelo_inurba_marseille","lat":43.25076,"lon":5.39533,"is_reserved":false,"is_disabled":true,"rental_uris":{"android":"levelo://app?vid=514b5fdb-f81d-41c3-afe2-e88866964916","ios":"levelo://app?vid=514b5fdb-f81d-41c3-afe2-e88866964916"},"vehicle_type_id":"4","last_reported":1758780970,"current_range_meters":10800,"station_id":"ce4bhm12rcd13ifvqgkg","pricing_plan_id":"cebpf4jnsgd1na2vs0mg"},{"bike_id":"c10890ca-cbff-4383-871f-89eba11540eb","system_id":"levelo_inurba_marseille","lat":43.290243,"lon":5.381297,"is_reserved":false,"is_disabled":false,"rental_uris":{"android":"levelo://app?vid=c10890ca-cbff-4383-871f-89eba11540eb","ios":"levelo://app?vid=c10890ca-cbff-4383-871f-89eba11540eb"},"vehicle_type_id":"4","last_reported":1758780970,"current_range_meters":10800,"station_id":"ce4bh4p2rcd13ifvqe1g","pricing_plan_id":"cebpf4jnsgd1na2vs0mg"},{"bike_id":"74e9d7f4-72e5-4ecb-867b-8db749bb73e0","system_id":"levelo_inurba_marseille","lat":43.245887,"lon":5.394664,"is_reserved":false,"is_disabled":false,"rental_uris":{"android":"levelo://app?vid=74e9d7f4-72e5-4ecb-867b-8db749bb73e0","ios":"levelo://app?vid=74e9d7f4-72e5-4ecb-867b-8db749bb73e0"},"vehicle_type_id":"4","last_reported":1758780970,"current_range_meters":10800,"station_id":"ce4bhlp2rcd13ifvqgjg","pricing_plan_id":"cebpf4jnsgd1na2vs0mg"},{"bike_id":"fca2cd76-1e31-47dc-b6ce-18776c40295a","system_id":"levelo_inurba_marseille","lat":43.273674,"lon":5.362565,"is_reserved":false,"is_disabled":true,"rental_uris":{"android":"levelo://app?vid=fca2cd76-1e31-47dc-b6ce-18776c40295a","ios":"levelo://app?vid=fca2cd76-1e31-47dc-b6ce-18776c40295a"},"vehicle_type_id":"4","last_reported":1758780970,"current_range_meters":10800,"station_id":"ce4bhbh2rcd13ifvqeo0","pricing_plan_id":"cebpf4jnsgd1na2vs0mg"},{"bike_id":"34429322-739e-42a1-911b-b0b3e3ab8a59","system_id":"levelo_inurba_marseille","lat":43.29287,"lon":5.3744,"is_reserved":false,"is_disabled":false,"rental_uris":{"android":"levelo://app?vid=34429322-739e-42a1-911b-b0b3e3ab8a59","ios":"levelo://app?vid=34429322-739e-42a1-911b-b0b3e3ab8a59"},"vehicle_type_id":"4","last_reported":1758780970,"current_range_meters":10800,"station_id":"","pricing_plan_id":"cebpf4jnsgd1na2vs0mg"},{"bike_id":"5fbe240b-53fb-428d-978a-e46e6a2551ae","system_id":"levelo_inurba_marseille","lat":43.25567,"lon":5.38245,"is_reserved":false,"is_disabled":false,"rental_uris":{"android":"levelo://app?vid=5fbe240b-53fb-428d-978a-e46e6a2551ae","ios":"levelo://app?vid=5fbe240b-53fb-428d-978a-e46e6a2551ae"},"vehicle_type_id":"4","last_reported":1758780970,"current_range_meters":10800,"station_id":"ce4bhih2rcd13ifvqfs0","pricing_plan_id":"cebpf4jnsgd1na2vs0mg"},{"bike_id":"654bb898-a0d4-44d5-9886-ba63fa6898f3","system_id":"levelo_inurba_marseille","lat":43.27905,"lon":5.38019,"is_reserved":false,"is_disabled":false,"rental_uris":{"android":"levelo://app?vid=654bb898-a0d4-44d5-9886-ba63fa6898f3","ios":"levelo://app?vid=654bb898-a0d4-44d5-9886-ba63fa6898f3"},"vehicle_type_id":"4","last_reported":1758780970,"current_range_meters":10000,"station_id":"ce4bhf92rcd13ifvqf50","pricing_plan_id":"cebpf4jnsgd1na2vs0mg"},{"bike_id":"b3e95158-1f24-4a27-a73a-d79e0a465478","system_id":"levelo_inurba_marseille","lat":43.24076,"lon":5.37735,"is_reserved":false,"is_disabled":false,"rental_uris":{"android":"levelo://app?vid=b3e95158-1f24-4a27-a73a-d79e0a465478","ios":"levelo://app?vid=b3e95158-1f24-4a27-a73a-d79e0a465478"},"vehicle_type_id":"4","last_reported":1758780970,"current_range_meters":11200,"station_id":"ce4bhnp2rcd13ifvqgvg","pricing_plan_id":"cebpf4jnsgd1na2vs0mg"},{"bike_id":"bf1244d3-d7e7-45bd-8580-d0cbc34b36e3","system_id":"levelo_inurba_marseille","lat":43.22568,"lon":5.41633,"is_reserved":false,"is_disabled":false,"rental_uris":{"android":"levelo://app?vid=bf1244d3-d7e7-45bd-8580-d0cbc34b36e3","ios":"levelo://app?vid=bf1244d3-d7e7-45bd-8580-d0cbc34b36e3"},"vehicle_type_id":"4","last_reported":1758780970,"current_range_meters":11200,"station_id":"st_d2o4gvlbi1j2169b742g","pricing_plan_id":"cebpf4jnsgd1na2vs0mg"},{"bike_id":"ef00c611-56e3-4d87-83a8-6fad9627913a","system_id":"levelo_inurba_marseille","lat":43.308894,"lon":5.371943,"is_reserved":false,"is_disabled":false,"rental_uris":{"android":"levelo://app?vid=ef00c611-56e3-4d87-83a8-6fad9627913a","ios":"levelo://app?vid=ef00c611-56e3-4d87-83a8-6fad9627913a"},"vehicle_type_id":"4","last_reported":1758780970,"current_range_meters":11200,"station_id":"ce4bguh2rcd13ifvqckg","pricing_plan_id":"cebpf4jnsgd1na2vs0mg"},{"bike_id":"e1f6ea02-3dcd-4760-958d-a4be47a2bc76","system_id":"levelo_inurba_marseille","lat":43.24657,"lon":5.38908,"is_reserved":false,"is_disabled":false,"rental_uris":{"android":"levelo://app?vid=e1f6ea02-3dcd-4760-958d-a4be47a2bc76","ios":"levelo://app?vid=e1f6ea02-3dcd-4760-958d-a4be47a2bc76"},"vehicle_type_id":"4","last_reported":1758780970,"current_range_meters":11200,"station_id":"ce4bhg12rcd13ifvqf60","pricing_plan_id":"cebpf4jnsgd1na2vs0mg"},{"bike_id":"6e8d53eb-fa13-49d1-8109-4082efd89ceb","system_id":"levelo_inurba_marseille","lat":43.30468,"lon":5.37906,"is_reserved":false,"is_disabled":false,"rental_uris":{"android":"levelo://app?vid=6e8d53eb-fa13-49d1-8109-4082efd89ceb","ios":"levelo://app?vid=6e8d53eb-fa13-49d1-8109-4082efd89ceb"},"vehicle_type_id":"4","last_reported":1758780970,"current_range_meters":11200,"station_id":"ce4bgup2rcd13ifvqcn0","pricing_plan_id":"cebpf4jnsgd1na2vs0mg"},{"bike_id":"180964ab-854b-4723-8e34-976bba8f39e3","system_id":"levelo_inurba_marseille","lat":43.23149,"lon":5.43718,"is_reserved":false,"is_disabled":false,"rental_uris":{"android":"levelo://app?vid=180964ab-854b-4723-8e34-976bba8f39e3","ios":"levelo://app?vid=180964ab-854b-4723-8e34-976bba8f39e3"},"vehicle_type_id":"4","last_reported":1758780970,"current_range_meters":11200,"station_id":"ce4bhmp2rcd13ifvqgog","pricing_plan_id":"cebpf4jnsgd1na2vs0mg"},{"bike_id":"0df7f986-0973-431c-8bc5-add8431f0381","system_id":"levelo_inurba_marseille","lat":43.302794,"lon":5.37944,"is_reserved":false,"is_disabled":false,"rental_uris":{"android":"levelo://app?vid=0df7f986-0973-431c-8bc5-add8431f0381","ios":"levelo://app?vid=0df7f986-0973-431c-8bc5-add8431f0381"},"vehicle_type_id":"4","last_reported":1758780970,"current_range_meters":11200,"station_id":"ce4bgup2rcd13ifvqcn0","pricing_plan_id":"cebpf4jnsgd1na2vs0mg"},{"bike_id":"d916c420-f032-4b9a-b23d-f63c79747ecc","system_id":"levelo_inurba_marseille","lat":43.258241,"lon":5.39439,"is_reserved":false,"is_disabled":false,"rental_uris":{"android":"levelo://app?vid=d916c420-f032-4b9a-b23d-f63c79747ecc","ios":"levelo://app?vid=d916c420-f032-4b9a-b23d-f63c79747ecc"},"vehicle_type_id":"4","last_reported":1758780970,"current_range_meters":11200,"station_id":"ce4bhip2rcd13ifvqft0","pricing_plan_id":"cebpf4jnsgd1na2vs0mg"},{"bike_id":"16cee2f9-0604-4f00-85ee-c5690b0410f0","system_id":"levelo_inurba_marseille","lat":43.28612,"lon":5.35098,"is_reserved":false,"is_disabled":false,"rental_uris":{"android":"levelo://app?vid=16cee2f9-0604-4f00-85ee-c5690b0410f0","ios":"levelo://app?vid=16cee2f9-0604-4f00-85ee-c5690b0410f0"},"vehicle_type_id":"4","last_reported":1758780970,"current_range_meters":11200,"station_id":"ce4bhch2rcd13ifvqeug","pricing_plan_id":"cebpf4jnsgd1na2vs0mg"},{"bike_id":"2920338a-f4a9-41d2-ae72-2cc4e5251ce8","system_id":"levelo_inurba_marseille","lat":43.30133,"lon":5.38092,"is_reserved":false,"is_disabled":false,"rental_uris":{"android":"levelo://app?vid=2920338a-f4a9-41d2-ae72-2cc4e5251ce8","ios":"levelo://app?vid=2920338a-f4a9-41d2-ae72-2cc4e5251ce8"},"vehicle_type_id":"4","last_reported":1758780970,"current_range_meters":11600,"station_id":"ce4bgjp2rcd13ifvqbh0","pricing_plan_id":"cebpf4jnsgd1na2vs0mg"},{"bike_id":"254d1d45-f504-479f-b465-48eeeaf981a5","system_id":"levelo_inurba_marseille","lat":43.26564,"lon":5.39004,"is_reserved":false,"is_disabled":false,"rental_uris":{"android":"levelo://app?vid=254d1d45-f504-479f-b465-48eeeaf981a5","ios":"levelo://app?vid=254d1d45-f504-479f-b465-48eeeaf981a5"},"vehicle_type_id":"4","last_reported":1758780970,"current_range_meters":11600,"station_id":"ce4bhe12rcd13ifvqf30","pricing_plan_id":"cebpf4jnsgd1na2vs0mg"},{"bike_id":"7c4ad0e1-6c14-4cb3-bded-113bec18a207","system_id":"levelo_inurba_marseille","lat":43.33608,"lon":5.41037,"is_reserved":false,"is_disabled":false,"rental_uris":{"android":"levelo://app?vid=7c4ad0e1-6c14-4cb3-bded-113bec18a207","ios":"levelo://app?vid=7c4ad0e1-6c14-4cb3-bded-113bec18a207"},"vehicle_type_id":"4","last_reported":1758780970,"current_range_meters":11600,"station_id":"ce4bhqh2rcd13ifvqhmg","pricing_plan_id":"cebpf4jnsgd1na2vs0mg"},{"bike_id":"a8c23eda-fd69-46c6-8aa3-db7ebb925f96","system_id":"levelo_inurba_marseille","lat":43.285,"lon":5.38574,"is_reserved":false,"is_disabled":false,"rental_uris":{"android":"levelo://app?vid=a8c23eda-fd69-46c6-8aa3-db7ebb925f96","ios":"levelo://app?vid=a8c23eda-fd69-46c6-8aa3-db7ebb925f96"},"vehicle_type_id":"4","last_reported":1758780970,"current_range_meters":11600,"station_id":"ce4bh8p2rcd13ifvqeb0","pricing_plan_id":"cebpf4jnsgd1na2vs0mg"},{"bike_id":"e19472f1-87e0-4943-97f3-e785d2a10054","system_id":"levelo_inurba_marseille","lat":43.28875,"lon":5.42545,"is_reserved":false,"is_disabled":false,"rental_uris":{"android":"levelo://app?vid=e19472f1-87e0-4943-97f3-e785d2a10054","ios":"levelo://app?vid=e19472f1-87e0-4943-97f3-e785d2a10054"},"vehicle_type_id":"4","last_reported":1758780970,"current_range_meters":11600,"station_id":"","pricing_plan_id":"cebpf4jnsgd1na2vs0mg"},{"bike_id":"47286fa5-f434-4a00-b8cb-b6d260243915","system_id":"levelo_inurba_marseille","lat":43.28232,"lon":5.39064,"is_reserved":false,"is_disabled":false,"rental_uris":{"android":"levelo://app?vid=47286fa5-f434-4a00-b8cb-b6d260243915","ios":"levelo://app?vid=47286fa5-f434-4a00-b8cb-b6d260243915"},"vehicle_type_id":"4","last_reported":1758780970,"current_range_meters":11600,"station_id":"ce4bhn92rcd13ifvqgsg","pricing_plan_id":"cebpf4jnsgd1na2vs0mg"},{"bike_id":"3a83ddcd-ce03-4ed4-a7fa-b273c2464f02","system_id":"levelo_inurba_marseille","lat":43.2795,"lon":5.36326,"is_reserved":false,"is_disabled":false,"rental_uris":{"android":"levelo://app?vid=3a83ddcd-ce03-4ed4-a7fa-b273c2464f02","ios":"levelo://app?vid=3a83ddcd-ce03-4ed4-a7fa-b273c2464f02"},"vehicle_type_id":"4","last_reported":1758780970,"current_range_meters":11600,"station_id":"","pricing_plan_id":"cebpf4jnsgd1na2vs0mg"},{"bike_id":"2edaff00-298a-43bb-9b1b-fbee07f158c1","system_id":"levelo_inurba_marseille","lat":43.32121,"lon":5.36804,"is_reserved":false,"is_disabled":false,"rental_uris":{"android":"levelo://app?vid=2edaff00-298a-43bb-9b1b-fbee07f158c1","ios":"levelo://app?vid=2edaff00-298a-43bb-9b1b-fbee07f158c1"},"vehicle_type_id":"4","last_reported":1758780970,"current_range_meters":11600,"station_id":"ce4bhrh2rcd13ifvqhug","pricing_plan_id":"cebpf4jnsgd1na2vs0mg"},{"bike_id":"dc89a522-63dc-45bb-b046-fd7bf764e79a","system_id":"levelo_inurba_marseille","lat":43.31699,"lon":5.37732,"is_reserved":false,"is_disabled":false,"rental_uris":{"android":"levelo://app?vid=dc89a522-63dc-45bb-b046-fd7bf764e79a","ios":"levelo://app?vid=dc89a522-63dc-45bb-b046-fd7bf764e79a"},"vehicle_type_id":"4","last_reported":1758780970,"current_range_meters":12000,"station_id":"ce4bgth2rcd13ifvqch0","pricing_plan_id":"cebpf4jnsgd1na2vs0mg"},{"bike_id":"3cb1dae7-6bcd-41e5-b1b7-c1d25c751a99","system_id":"levelo_inurba_marseille","lat":43.337594,"lon":5.374419,"is_reserved":false,"is_disabled":false,"rental_uris":{"android":"levelo://app?vid=3cb1dae7-6bcd-41e5-b1b7-c1d25c751a99","ios":"levelo://app?vid=3cb1dae7-6bcd-41e5-b1b7-c1d25c751a99"},"vehicle_type_id":"4","last_reported":1758780970,"current_range_meters":12000,"station_id":"","pricing_plan_id":"cebpf4jnsgd1na2vs0mg"},{"bike_id":"57b14c92-2a17-45b3-beb1-cbb460ef441b","system_id":"levelo_inurba_marseille","lat":43.23188,"lon":5.40008,"is_reserved":false,"is_disabled":false,"rental_uris":{"android":"levelo://app?vid=57b14c92-2a17-45b3-beb1-cbb460ef441b","ios":"levelo://app?vid=57b14c92-2a17-45b3-beb1-cbb460ef441b"},"vehicle_type_id":"4","last_reported":1758780970,"current_range_meters":12000,"station_id":"ce4bhn12rcd13ifvqgqg","pricing_plan_id":"cebpf4jnsgd1na2vs0mg"},{"bike_id":"8584eb3e-f7b4-4300-97fe-005a37d8d75b","system_id":"levelo_inurba_marseille","lat":43.36781,"lon":5.36331,"is_reserved":false,"is_disabled":false,"rental_uris":{"android":"levelo://app?vid=8584eb3e-f7b4-4300-97fe-005a37d8d75b","ios":"levelo://app?vid=8584eb3e-f7b4-4300-97fe-005a37d8d75b"},"vehicle_type_id":"4","last_reported":1758780970,"current_range_meters":12000,"station_id":"","pricing_plan_id":"cebpf4jnsgd1na2vs0mg"},{"bike_id":"023ee22e-363d-4688-800c-ab4b215e4623","system_id":"levelo_inurba_marseille","lat":43.27659,"lon":5.38929,"is_reserved":false,"is_disabled":true,"rental_uris":{"android":"levelo://app?vid=023ee22e-363d-4688-800c-ab4b215e4623","ios":"levelo://app?vid=023ee22e-363d-4688-800c-ab4b215e4623"},"vehicle_type_id":"4","last_reported":1758780970,"current_range_meters":12400,"station_id":"ce4bhi12rcd13ifvqfo0","pricing_plan_id":"cebpf4jnsgd1na2vs0mg"},{"bike_id":"8eae954c-dab6-4303-94f5-569e1c483f62","system_id":"levelo_inurba_marseille","lat":43.29436,"lon":5.40766,"is_reserved":false,"is_disabled":false,"rental_uris":{"android":"levelo://app?vid=8eae954c-dab6-4303-94f5-569e1c483f62","ios":"levelo://app?vid=8eae954c-dab6-4303-94f5-569e1c483f62"},"vehicle_type_id":"4","last_reported":1758780970,"current_range_meters":12400,"station_id":"","pricing_plan_id":"cebpf4jnsgd1na2vs0mg"},{"bike_id":"0e9ca394-4351-4bf8-a641-f4e5215baf20","system_id":"levelo_inurba_marseille","lat":43.28276,"lon":5.35088,"is_reserved":false,"is_disabled":false,"rental_uris":{"android":"levelo://app?vid=0e9ca394-4351-4bf8-a641-f4e5215baf20","ios":"levelo://app?vid=0e9ca394-4351-4bf8-a641-f4e5215baf20"},"vehicle_type_id":"4","last_reported":1758780970,"current_range_meters":12400,"station_id":"ce4bhbp2rcd13ifvqerg","pricing_plan_id":"cebpf4jnsgd1na2vs0mg"},{"bike_id":"002673c7-e49b-40c2-82da-6cf2f4393eb8","system_id":"levelo_inurba_marseille","lat":43.30468,"lon":5.37905,"is_reserved":false,"is_disabled":true,"rental_uris":{"android":"levelo://app?vid=002673c7-e49b-40c2-82da-6cf2f4393eb8","ios":"levelo://app?vid=002673c7-e49b-40c2-82da-6cf2f4393eb8"},"vehicle_type_id":"4","last_reported":1758780970,"current_range_meters":12400,"station_id":"ce4bgup2rcd13ifvqcn0","pricing_plan_id":"cebpf4jnsgd1na2vs0mg"},{"bike_id":"bdec3261-de13-477f-818b-7af8ae1d1f6a","system_id":"levelo_inurba_marseille","lat":43.23964,"lon":5.37682,"is_reserved":false,"is_disabled":false,"rental_uris":{"android":"levelo://app?vid=bdec3261-de13-477f-818b-7af8ae1d1f6a","ios":"levelo://app?vid=bdec3261-de13-477f-818b-7af8ae1d1f6a"},"vehicle_type_id":"4","last_reported":1758780970,"current_range_meters":12400,"station_id":"","pricing_plan_id":"cebpf4jnsgd1na2vs0mg"},{"bike_id":"c34cd464-5d4b-462e-a363-5b3baac95668","system_id":"levelo_inurba_marseille","lat":43.33768,"lon":5.37441,"is_reserved":false,"is_disabled":false,"rental_uris":{"android":"levelo://app?vid=c34cd464-5d4b-462e-a363-5b3baac95668","ios":"levelo://app?vid=c34cd464-5d4b-462e-a363-5b3baac95668"},"vehicle_type_id":"4","last_reported":1758780970,"current_range_meters":12400,"station_id":"","pricing_plan_id":"cebpf4jnsgd1na2vs0mg"},{"bike_id":"ad9a6248-1b43-4fc5-bfba-44f7d3067aab","system_id":"levelo_inurba_marseille","lat":43.21193,"lon":5.35101,"is_reserved":false,"is_disabled":false,"rental_uris":{"android":"levelo://app?vid=ad9a6248-1b43-4fc5-bfba-44f7d3067aab","ios":"levelo://app?vid=ad9a6248-1b43-4fc5-bfba-44f7d3067aab"},"vehicle_type_id":"4","last_reported":1758780970,"current_range_meters":12400,"station_id":"st_cvj6sg6p6f1abm77japg","pricing_plan_id":"cebpf4jnsgd1na2vs0mg"},{"bike_id":"3ded841e-30ff-49f2-8f2b-964ea55a5690","system_id":"levelo_inurba_marseille","lat":43.27494,"lon":5.42449,"is_reserved":false,"is_disabled":false,"rental_uris":{"android":"levelo://app?vid=3ded841e-30ff-49f2-8f2b-964ea55a5690","ios":"levelo://app?vid=3ded841e-30ff-49f2-8f2b-964ea55a5690"},"vehicle_type_id":"4","last_reported":1758780970,"current_range_meters":12400,"station_id":"ce4bhn92rcd13ifvqgrg","pricing_plan_id":"cebpf4jnsgd1na2vs0mg"},{"bike_id":"5c7c022c-93ed-49de-bb30-7506aa91a41d","system_id":"levelo_inurba_marseille","lat":43.29793,"lon":5.381,"is_reserved":false,"is_disabled":false,"rental_uris":{"android":"levelo://app?vid=5c7c022c-93ed-49de-bb30-7506aa91a41d","ios":"levelo://app?vid=5c7c022c-93ed-49de-bb30-7506aa91a41d"},"vehicle_type_id":"4","last_reported":1758780970,"current_range_meters":12400,"station_id":"ce4bgip2rcd13ifvqbb0","pricing_plan_id":"cebpf4jnsgd1na2vs0mg"},{"bike_id":"0334c664-c853-4f38-a46f-30751b2874a4","system_id":"levelo_inurba_marseille","lat":43.29023,"lon":5.35935,"is_reserved":false,"is_disabled":true,"rental_uris":{"android":"levelo://app?vid=0334c664-c853-4f38-a46f-30751b2874a4","ios":"levelo://app?vid=0334c664-c853-4f38-a46f-30751b2874a4"},"vehicle_type_id":"4","last_reported":1758780970,"current_range_meters":12800,"station_id":"ce4bha92rcd13ifvqeg0","pricing_plan_id":"cebpf4jnsgd1na2vs0mg"},{"bike_id":"4304e62c-fb39-4aaa-bca9-27669b029841","system_id":"levelo_inurba_marseille","lat":43.28723,"lon":5.37944,"is_reserved":false,"is_disabled":false,"rental_uris":{"android":"levelo://app?vid=4304e62c-fb39-4aaa-bca9-27669b029841","ios":"levelo://app?vid=4304e62c-fb39-4aaa-bca9-27669b029841"},"vehicle_type_id":"4","last_reported":1758780970,"current_range_meters":12800,"station_id":"ce4bh9p2rcd13ifvqec0","pricing_plan_id":"cebpf4jnsgd1na2vs0mg"},{"bike_id":"f5c852b2-548c-4ba5-a23e-58341d1949a6","system_id":"levelo_inurba_marseille","lat":43.21748,"lon":5.34613,"is_reserved":false,"is_disabled":false,"rental_uris":{"android":"levelo://app?vid=f5c852b2-548c-4ba5-a23e-58341d1949a6","ios":"levelo://app?vid=f5c852b2-548c-4ba5-a23e-58341d1949a6"},"vehicle_type_id":"4","last_reported":1758780970,"current_range_meters":12800,"station_id":"st_cvj6r9ubvosntc0bgbag","pricing_plan_id":"cebpf4jnsgd1na2vs0mg"},{"bike_id":"d2be082e-bd73-4203-addb-18871b3a9587","system_id":"levelo_inurba_marseille","lat":43.29407,"lon":5.37466,"is_reserved":false,"is_disabled":false,"rental_uris":{"android":"levelo://app?vid=d2be082e-bd73-4203-addb-18871b3a9587","ios":"levelo://app?vid=d2be082e-bd73-4203-addb-18871b3a9587"},"vehicle_type_id":"4","last_reported":1758780970,"current_range_meters":12800,"station_id":"","pricing_plan_id":"cebpf4jnsgd1na2vs0mg"},{"bike_id":"e5b43297-fe27-4140-bf26-2075a1593595","system_id":"levelo_inurba_marseille","lat":43.27365,"lon":5.36255,"is_reserved":false,"is_disabled":false,"rental_uris":{"android":"levelo://app?vid=e5b43297-fe27-4140-bf26-2075a1593595","ios":"levelo://app?vid=e5b43297-fe27-4140-bf26-2075a1593595"},"vehicle_type_id":"4","last_reported":1758780970,"current_range_meters":12800,"station_id":"ce4bhbh2rcd13ifvqeo0","pricing_plan_id":"cebpf4jnsgd1na2vs0mg"},{"bike_id":"cfb06f15-a9e5-4228-89a1-36be08151eaa","system_id":"levelo_inurba_marseille","lat":43.298023,"lon":5.380747,"is_reserved":false,"is_disabled":false,"rental_uris":{"android":"levelo://app?vid=cfb06f15-a9e5-4228-89a1-36be08151eaa","ios":"levelo://app?vid=cfb06f15-a9e5-4228-89a1-36be08151eaa"},"vehicle_type_id":"4","last_reported":1758780970,"current_range_meters":12800,"station_id":"ce4bgip2rcd13ifvqbb0","pricing_plan_id":"cebpf4jnsgd1na2vs0mg"},{"bike_id":"a7f90678-07c2-4f03-8a02-e1b4554e0a14","system_id":"levelo_inurba_marseille","lat":43.31224,"lon":5.36837,"is_reserved":false,"is_disabled":false,"rental_uris":{"android":"levelo://app?vid=a7f90678-07c2-4f03-8a02-e1b4554e0a14","ios":"levelo://app?vid=a7f90678-07c2-4f03-8a02-e1b4554e0a14"},"vehicle_type_id":"4","last_reported":1758780970,"current_range_meters":12800,"station_id":"ce4bgl92rcd13ifvqbq0","pricing_plan_id":"cebpf4jnsgd1na2vs0mg"},{"bike_id":"f9af076b-c426-46f0-97f6-f6a5a530c8e2","system_id":"levelo_inurba_marseille","lat":43.33212,"lon":5.39883,"is_reserved":false,"is_disabled":false,"rental_uris":{"android":"levelo://app?vid=f9af076b-c426-46f0-97f6-f6a5a530c8e2","ios":"levelo://app?vid=f9af076b-c426-46f0-97f6-f6a5a530c8e2"},"vehicle_type_id":"4","last_reported":1758780970,"current_range_meters":12800,"station_id":"","pricing_plan_id":"cebpf4jnsgd1na2vs0mg"},{"bike_id":"4772b595-ae6b-4383-8677-84c89d05c370","system_id":"levelo_inurba_marseille","lat":43.24074,"lon":5.37767,"is_reserved":false,"is_disabled":false,"rental_uris":{"android":"levelo://app?vid=4772b595-ae6b-4383-8677-84c89d05c370","ios":"levelo://app?vid=4772b595-ae6b-4383-8677-84c89d05c370"},"vehicle_type_id":"4","last_reported":1758780970,"current_range_meters":12800,"station_id":"ce4bhnp2rcd13ifvqgvg","pricing_plan_id":"cebpf4jnsgd1na2vs0mg"},{"bike_id":"d25a7e98-5372-4086-9b32-8462bc691f38","system_id":"levelo_inurba_marseille","lat":43.23159,"lon":5.43718,"is_reserved":false,"is_disabled":false,"rental_uris":{"android":"levelo://app?vid=d25a7e98-5372-4086-9b32-8462bc691f38","ios":"levelo://app?vid=d25a7e98-5372-4086-9b32-8462bc691f38"},"vehicle_type_id":"4","last_reported":1758780970,"current_range_meters":12800,"station_id":"ce4bhmp2rcd13ifvqgog","pricing_plan_id":"cebpf4jnsgd1na2vs0mg"},{"bike_id":"d8d6f31a-c510-424a-9731-839758fd1c1d","system_id":"levelo_inurba_marseille","lat":43.24651,"lon":5.38896,"is_reserved":false,"is_disabled":false,"rental_uris":{"android":"levelo://app?vid=d8d6f31a-c510-424a-9731-839758fd1c1d","ios":"levelo://app?vid=d8d6f31a-c510-424a-9731-839758fd1c1d"},"vehicle_type_id":"4","last_reported":1758780970,"current_range_meters":13600,"station_id":"ce4bhg12rcd13ifvqf60","pricing_plan_id":"cebpf4jnsgd1na2vs0mg"},{"bike_id":"b3c82e3d-13a8-484d-9049-cdb1cb05f784","system_id":"levelo_inurba_marseille","lat":43.26683,"lon":5.38276,"is_reserved":false,"is_disabled":false,"rental_uris":{"android":"levelo://app?vid=b3c82e3d-13a8-484d-9049-cdb1cb05f784","ios":"levelo://app?vid=b3c82e3d-13a8-484d-9049-cdb1cb05f784"},"vehicle_type_id":"4","last_reported":1758780970,"current_range_meters":13600,"station_id":"ce4bhg92rcd13ifvqf90","pricing_plan_id":"cebpf4jnsgd1na2vs0mg"},{"bike_id":"80587073-63fe-4c2f-8fee-539e418013a0","system_id":"levelo_inurba_marseille","lat":43.28721,"lon":5.36087,"is_reserved":false,"is_disabled":false,"rental_uris":{"android":"levelo://app?vid=80587073-63fe-4c2f-8fee-539e418013a0","ios":"levelo://app?vid=80587073-63fe-4c2f-8fee-539e418013a0"},"vehicle_type_id":"4","last_reported":1758780970,"current_range_meters":13600,"station_id":"cki0cbj6b192h4jlfktg","pricing_plan_id":"cebpf4jnsgd1na2vs0mg"},{"bike_id":"a6ad0c6c-868d-42f3-ba54-573e1a175a36","system_id":"levelo_inurba_marseille","lat":43.26247,"lon":5.41322,"is_reserved":false,"is_disabled":false,"rental_uris":{"android":"levelo://app?vid=a6ad0c6c-868d-42f3-ba54-573e1a175a36","ios":"levelo://app?vid=a6ad0c6c-868d-42f3-ba54-573e1a175a36"},"vehicle_type_id":"4","last_reported":1758780970,"current_range_meters":13600,"station_id":"","pricing_plan_id":"cebpf4jnsgd1na2vs0mg"},{"bike_id":"e335d344-2ea7-4c87-b93e-a09584a4575e","system_id":"levelo_inurba_marseille","lat":43.295288,"lon":5.385432,"is_reserved":false,"is_disabled":false,"rental_uris":{"android":"levelo://app?vid=e335d344-2ea7-4c87-b93e-a09584a4575e","ios":"levelo://app?vid=e335d344-2ea7-4c87-b93e-a09584a4575e"},"vehicle_type_id":"4","last_reported":1758780970,"current_range_meters":13600,"station_id":"ce4bgih2rcd13ifvqba0","pricing_plan_id":"cebpf4jnsgd1na2vs0mg"},{"bike_id":"7a484ae6-0d02-4d53-bdb2-77286d4cea14","system_id":"levelo_inurba_marseille","lat":43.27041,"lon":5.4029,"is_reserved":false,"is_disabled":false,"rental_uris":{"android":"levelo://app?vid=7a484ae6-0d02-4d53-bdb2-77286d4cea14","ios":"levelo://app?vid=7a484ae6-0d02-4d53-bdb2-77286d4cea14"},"vehicle_type_id":"4","last_reported":1758780970,"current_range_meters":13600,"station_id":"ce4bhk92rcd13ifvqgc0","pricing_plan_id":"cebpf4jnsgd1na2vs0mg"},{"bike_id":"429b97eb-f7cc-4d35-b219-e8e26e3f47e0","system_id":"levelo_inurba_marseille","lat":43.27378,"lon":5.36263,"is_reserved":false,"is_disabled":false,"rental_uris":{"android":"levelo://app?vid=429b97eb-f7cc-4d35-b219-e8e26e3f47e0","ios":"levelo://app?vid=429b97eb-f7cc-4d35-b219-e8e26e3f47e0"},"vehicle_type_id":"4","last_reported":1758780970,"current_range_meters":14000,"station_id":"ce4bhbh2rcd13ifvqeo0","pricing_plan_id":"cebpf4jnsgd1na2vs0mg"},{"bike_id":"6ce97256-6e29-4ee4-b817-ac92bdd5aea1","system_id":"levelo_inurba_marseille","lat":43.22534,"lon":5.34835,"is_reserved":false,"is_disabled":false,"rental_uris":{"android":"levelo://app?vid=6ce97256-6e29-4ee4-b817-ac92bdd5aea1","ios":"levelo://app?vid=6ce97256-6e29-4ee4-b817-ac92bdd5aea1"},"vehicle_type_id":"4","last_reported":1758780970,"current_range_meters":14000,"station_id":"","pricing_plan_id":"cebpf4jnsgd1na2vs0mg"},{"bike_id":"cee4f868-ef68-4c20-8973-5706c0ce6d24","system_id":"levelo_inurba_marseille","lat":43.2408,"lon":5.37758,"is_reserved":false,"is_disabled":false,"rental_uris":{"android":"levelo://app?vid=cee4f868-ef68-4c20-8973-5706c0ce6d24","ios":"levelo://app?vid=cee4f868-ef68-4c20-8973-5706c0ce6d24"},"vehicle_type_id":"4","last_reported":1758780970,"current_range_meters":14000,"station_id":"ce4bhnp2rcd13ifvqgvg","pricing_plan_id":"cebpf4jnsgd1na2vs0mg"},{"bike_id":"129c8450-4cca-4e9f-b9f6-538b0080ad49","system_id":"levelo_inurba_marseille","lat":43.32551,"lon":5.38903,"is_reserved":false,"is_disabled":false,"rental_uris":{"android":"levelo://app?vid=129c8450-4cca-4e9f-b9f6-538b0080ad49","ios":"levelo://app?vid=129c8450-4cca-4e9f-b9f6-538b0080ad49"},"vehicle_type_id":"4","last_reported":1758780970,"current_range_meters":14000,"station_id":"","pricing_plan_id":"cebpf4jnsgd1na2vs0mg"},{"bike_id":"6caa89c6-2658-4ac8-8d83-c6001f5f980c","system_id":"levelo_inurba_marseille","lat":43.255808,"lon":5.382304,"is_reserved":false,"is_disabled":false,"rental_uris":{"android":"levelo://app?vid=6caa89c6-2658-4ac8-8d83-c6001f5f980c","ios":"levelo://app?vid=6caa89c6-2658-4ac8-8d83-c6001f5f980c"},"vehicle_type_id":"4","last_reported":1758780970,"current_range_meters":14000,"station_id":"ce4bhih2rcd13ifvqfs0","pricing_plan_id":"cebpf4jnsgd1na2vs0mg"},{"bike_id":"f0c5386a-9938-4d6a-81e8-14ec0c5e2580","system_id":"levelo_inurba_marseille","lat":43.31504,"lon":5.37818,"is_reserved":false,"is_disabled":false,"rental_uris":{"android":"levelo://app?vid=f0c5386a-9938-4d6a-81e8-14ec0c5e2580","ios":"levelo://app?vid=f0c5386a-9938-4d6a-81e8-14ec0c5e2580"},"vehicle_type_id":"4","last_reported":1758780970,"current_range_meters":14000,"station_id":"","pricing_plan_id":"cebpf4jnsgd1na2vs0mg"},{"bike_id":"086389b9-ff2e-4a45-9255-74057bae44f2","system_id":"levelo_inurba_marseille","lat":43.30317,"lon":5.394959,"is_reserved":false,"is_disabled":false,"rental_uris":{"android":"levelo://app?vid=086389b9-ff2e-4a45-9255-74057bae44f2","ios":"levelo://app?vid=086389b9-ff2e-4a45-9255-74057bae44f2"},"vehicle_type_id":"4","last_reported":1758780970,"current_range_meters":14000,"station_id":"ce4bh0p2rcd13ifvqd80","pricing_plan_id":"cebpf4jnsgd1na2vs0mg"},{"bike_id":"a3383983-1a81-4f66-8f19-2363b98e3729","system_id":"levelo_inurba_marseille","lat":43.265557,"lon":5.390245,"is_reserved":false,"is_disabled":true,"rental_uris":{"android":"levelo://app?vid=a3383983-1a81-4f66-8f19-2363b98e3729","ios":"levelo://app?vid=a3383983-1a81-4f66-8f19-2363b98e3729"},"vehicle_type_id":"4","last_reported":1758780970,"current_range_meters":14000,"station_id":"ce4bhe12rcd13ifvqf30","pricing_plan_id":"cebpf4jnsgd1na2vs0mg"},{"bike_id":"003515e8-8117-44bb-979d-5f47e8d50fda","system_id":"levelo_inurba_marseille","lat":43.30627,"lon":5.37585,"is_reserved":false,"is_disabled":false,"rental_uris":{"android":"levelo://app?vid=003515e8-8117-44bb-979d-5f47e8d50fda","ios":"levelo://app?vid=003515e8-8117-44bb-979d-5f47e8d50fda"},"vehicle_type_id":"4","last_reported":1758780970,"current_range_meters":14400,"station_id":"","pricing_plan_id":"cebpf4jnsgd1na2vs0mg"},{"bike_id":"876b621b-296e-404a-ad49-9db1dcd88c57","system_id":"levelo_inurba_marseille","lat":43.28573,"lon":5.39497,"is_reserved":false,"is_disabled":false,"rental_uris":{"android":"levelo://app?vid=876b621b-296e-404a-ad49-9db1dcd88c57","ios":"levelo://app?vid=876b621b-296e-404a-ad49-9db1dcd88c57"},"vehicle_type_id":"4","last_reported":1758780970,"current_range_meters":14400,"station_id":"ce4bh292rcd13ifvqdg0","pricing_plan_id":"cebpf4jnsgd1na2vs0mg"},{"bike_id":"f7418f85-f3b2-491b-80ab-a81bcd0365e1","system_id":"levelo_inurba_marseille","lat":43.27209,"lon":5.39182,"is_reserved":false,"is_disabled":false,"rental_uris":{"android":"levelo://app?vid=f7418f85-f3b2-491b-80ab-a81bcd0365e1","ios":"levelo://app?vid=f7418f85-f3b2-491b-80ab-a81bcd0365e1"},"vehicle_type_id":"4","last_reported":1758780970,"current_range_meters":14400,"station_id":"ce4bhhp2rcd13ifvqfm0","pricing_plan_id":"cebpf4jnsgd1na2vs0mg"},{"bike_id":"ea8d0177-eedf-42b9-895a-a8a8b2bbc1f2","system_id":"levelo_inurba_marseille","lat":43.32103,"lon":5.36789,"is_reserved":false,"is_disabled":false,"rental_uris":{"android":"levelo://app?vid=ea8d0177-eedf-42b9-895a-a8a8b2bbc1f2","ios":"levelo://app?vid=ea8d0177-eedf-42b9-895a-a8a8b2bbc1f2"},"vehicle_type_id":"4","last_reported":1758780970,"current_range_meters":14400,"station_id":"ce4bhrh2rcd13ifvqhug","pricing_plan_id":"cebpf4jnsgd1na2vs0mg"},{"bike_id":"2bd2a176-8590-4e06-8b8c-a96b49b7b36a","system_id":"levelo_inurba_marseille","lat":43.262237,"lon":5.404538,"is_reserved":false,"is_disabled":false,"rental_uris":{"android":"levelo://app?vid=2bd2a176-8590-4e06-8b8c-a96b49b7b36a","ios":"levelo://app?vid=2bd2a176-8590-4e06-8b8c-a96b49b7b36a"},"vehicle_type_id":"4","last_reported":1758780970,"current_range_meters":14400,"station_id":"","pricing_plan_id":"cebpf4jnsgd1na2vs0mg"},{"bike_id":"e9740af2-24d7-435f-a517-026daef1c6d1","system_id":"levelo_inurba_marseille","lat":43.27979,"lon":5.41671,"is_reserved":false,"is_disabled":false,"rental_uris":{"android":"levelo://app?vid=e9740af2-24d7-435f-a517-026daef1c6d1","ios":"levelo://app?vid=e9740af2-24d7-435f-a517-026daef1c6d1"},"vehicle_type_id":"4","last_reported":1758780970,"current_range_meters":14400,"station_id":"ce4bho12rcd13ifvqh1g","pricing_plan_id":"cebpf4jnsgd1na2vs0mg"},{"bike_id":"0c16ac8a-a536-4d89-a0b4-2803631fd83e","system_id":"levelo_inurba_marseille","lat":43.250047,"lon":5.389268,"is_reserved":false,"is_disabled":false,"rental_uris":{"android":"levelo://app?vid=0c16ac8a-a536-4d89-a0b4-2803631fd83e","ios":"levelo://app?vid=0c16ac8a-a536-4d89-a0b4-2803631fd83e"},"vehicle_type_id":"4","last_reported":1758780970,"current_range_meters":14400,"station_id":"ce4bhgp2rcd13ifvqfd0","pricing_plan_id":"cebpf4jnsgd1na2vs0mg"},{"bike_id":"7f26efef-5bca-4964-9649-a135cb9baf4f","system_id":"levelo_inurba_marseille","lat":43.2509,"lon":5.39507,"is_reserved":false,"is_disabled":false,"rental_uris":{"android":"levelo://app?vid=7f26efef-5bca-4964-9649-a135cb9baf4f","ios":"levelo://app?vid=7f26efef-5bca-4964-9649-a135cb9baf4f"},"vehicle_type_id":"4","last_reported":1758780970,"current_range_meters":14400,"station_id":"ce4bhm12rcd13ifvqgkg","pricing_plan_id":"cebpf4jnsgd1na2vs0mg"},{"bike_id":"d6d2b751-767f-4d34-8b88-ebc97e2bbad2","system_id":"levelo_inurba_marseille","lat":43.28943,"lon":5.35889,"is_reserved":false,"is_disabled":false,"rental_uris":{"android":"levelo://app?vid=d6d2b751-767f-4d34-8b88-ebc97e2bbad2","ios":"levelo://app?vid=d6d2b751-767f-4d34-8b88-ebc97e2bbad2"},"vehicle_type_id":"4","last_reported":1758780970,"current_range_meters":14400,"station_id":"ce4bhb12rcd13ifvqem0","pricing_plan_id":"cebpf4jnsgd1na2vs0mg"},{"bike_id":"46923300-e0d3-40c1-8c76-7dadc761100f","system_id":"levelo_inurba_marseille","lat":43.28994,"lon":5.35629,"is_reserved":false,"is_disabled":false,"rental_uris":{"android":"levelo://app?vid=46923300-e0d3-40c1-8c76-7dadc761100f","ios":"levelo://app?vid=46923300-e0d3-40c1-8c76-7dadc761100f"},"vehicle_type_id":"4","last_reported":1758780970,"current_range_meters":14400,"station_id":"ce4bhb92rcd13ifvqen0","pricing_plan_id":"cebpf4jnsgd1na2vs0mg"},{"bike_id":"d1035cda-0828-4480-ab90-b06087f3ef72","system_id":"levelo_inurba_marseille","lat":43.255777,"lon":5.382383,"is_reserved":false,"is_disabled":false,"rental_uris":{"android":"levelo://app?vid=d1035cda-0828-4480-ab90-b06087f3ef72","ios":"levelo://app?vid=d1035cda-0828-4480-ab90-b06087f3ef72"},"vehicle_type_id":"4","last_reported":1758780970,"current_range_meters":14400,"station_id":"ce4bhih2rcd13ifvqfs0","pricing_plan_id":"cebpf4jnsgd1na2vs0mg"},{"bike_id":"212de2eb-8bbc-413c-b204-9fe1facd76e8","system_id":"levelo_inurba_marseille","lat":43.31301,"lon":5.37819,"is_reserved":false,"is_disabled":false,"rental_uris":{"android":"levelo://app?vid=212de2eb-8bbc-413c-b204-9fe1facd76e8","ios":"levelo://app?vid=212de2eb-8bbc-413c-b204-9fe1facd76e8"},"vehicle_type_id":"4","last_reported":1758780970,"current_range_meters":14400,"station_id":"","pricing_plan_id":"cebpf4jnsgd1na2vs0mg"},{"bike_id":"a605c070-52d2-459f-8eca-15be1ba1005f","system_id":"levelo_inurba_marseille","lat":43.32542,"lon":5.4143,"is_reserved":false,"is_disabled":false,"rental_uris":{"android":"levelo://app?vid=a605c070-52d2-459f-8eca-15be1ba1005f","ios":"levelo://app?vid=a605c070-52d2-459f-8eca-15be1ba1005f"},"vehicle_type_id":"4","last_reported":1758780970,"current_range_meters":14800,"station_id":"ce4bhq12rcd13ifvqhhg","pricing_plan_id":"cebpf4jnsgd1na2vs0mg"},{"bike_id":"1b20e7b2-029e-485f-b298-949b9e96bacd","system_id":"levelo_inurba_marseille","lat":43.33608,"lon":5.41033,"is_reserved":false,"is_disabled":false,"rental_uris":{"android":"levelo://app?vid=1b20e7b2-029e-485f-b298-949b9e96bacd","ios":"levelo://app?vid=1b20e7b2-029e-485f-b298-949b9e96bacd"},"vehicle_type_id":"4","last_reported":1758780970,"current_range_meters":14800,"station_id":"ce4bhqh2rcd13ifvqhmg","pricing_plan_id":"cebpf4jnsgd1na2vs0mg"},{"bike_id":"486abade-dd76-4cb8-828f-1a286c8b56d7","system_id":"levelo_inurba_marseille","lat":43.29591,"lon":5.36744,"is_reserved":false,"is_disabled":false,"rental_uris":{"android":"levelo://app?vid=486abade-dd76-4cb8-828f-1a286c8b56d7","ios":"levelo://app?vid=486abade-dd76-4cb8-828f-1a286c8b56d7"},"vehicle_type_id":"4","last_reported":1758780970,"current_range_meters":15200,"station_id":"ce4bgph2rcd13ifvqc2g","pricing_plan_id":"cebpf4jnsgd1na2vs0mg"},{"bike_id":"d55f7cff-ce18-4107-992e-8cb8fb12b05f","system_id":"levelo_inurba_marseille","lat":43.2319,"lon":5.35561,"is_reserved":false,"is_disabled":false,"rental_uris":{"android":"levelo://app?vid=d55f7cff-ce18-4107-992e-8cb8fb12b05f","ios":"levelo://app?vid=d55f7cff-ce18-4107-992e-8cb8fb12b05f"},"vehicle_type_id":"4","last_reported":1758780970,"current_range_meters":15200,"station_id":"ce4bhu92rcd13ifvqi70","pricing_plan_id":"cebpf4jnsgd1na2vs0mg"},{"bike_id":"891fb37d-4bc8-41c6-a893-28489ef7a95e","system_id":"levelo_inurba_marseille","lat":43.30595,"lon":5.39351,"is_reserved":false,"is_disabled":false,"rental_uris":{"android":"levelo://app?vid=891fb37d-4bc8-41c6-a893-28489ef7a95e","ios":"levelo://app?vid=891fb37d-4bc8-41c6-a893-28489ef7a95e"},"vehicle_type_id":"4","last_reported":1758780970,"current_range_meters":15200,"station_id":"ce4bh0p2rcd13ifvqd80","pricing_plan_id":"cebpf4jnsgd1na2vs0mg"},{"bike_id":"71ab641e-378c-4957-99ea-fe814aebbfd0","system_id":"levelo_inurba_marseille","lat":43.25717,"lon":5.41112,"is_reserved":false,"is_disabled":false,"rental_uris":{"android":"levelo://app?vid=71ab641e-378c-4957-99ea-fe814aebbfd0","ios":"levelo://app?vid=71ab641e-378c-4957-99ea-fe814aebbfd0"},"vehicle_type_id":"4","last_reported":1758780970,"current_range_meters":15200,"station_id":"ce4bhkp2rcd13ifvqgd0","pricing_plan_id":"cebpf4jnsgd1na2vs0mg"},{"bike_id":"133648ab-eec3-414a-ada7-b739bc931f62","system_id":"levelo_inurba_marseille","lat":43.289448,"lon":5.366445,"is_reserved":false,"is_disabled":false,"rental_uris":{"android":"levelo://app?vid=133648ab-eec3-414a-ada7-b739bc931f62","ios":"levelo://app?vid=133648ab-eec3-414a-ada7-b739bc931f62"},"vehicle_type_id":"4","last_reported":1758780970,"current_range_meters":15200,"station_id":"ce4bhap2rcd13ifvqek0","pricing_plan_id":"cebpf4jnsgd1na2vs0mg"},{"bike_id":"e5076836-83aa-45b9-9d54-d7dd5ca39e99","system_id":"levelo_inurba_marseille","lat":43.305354,"lon":5.384243,"is_reserved":false,"is_disabled":false,"rental_uris":{"android":"levelo://app?vid=e5076836-83aa-45b9-9d54-d7dd5ca39e99","ios":"levelo://app?vid=e5076836-83aa-45b9-9d54-d7dd5ca39e99"},"vehicle_type_id":"4","last_reported":1758780970,"current_range_meters":15200,"station_id":"ce4bgg92rcd13ifvqb30","pricing_plan_id":"cebpf4jnsgd1na2vs0mg"},{"bike_id":"2b2ec586-da18-45d5-aa30-d8887bf17ffa","system_id":"levelo_inurba_marseille","lat":43.24071,"lon":5.37763,"is_reserved":false,"is_disabled":false,"rental_uris":{"android":"levelo://app?vid=2b2ec586-da18-45d5-aa30-d8887bf17ffa","ios":"levelo://app?vid=2b2ec586-da18-45d5-aa30-d8887bf17ffa"},"vehicle_type_id":"4","last_reported":1758780970,"current_range_meters":15200,"station_id":"ce4bhnp2rcd13ifvqgvg","pricing_plan_id":"cebpf4jnsgd1na2vs0mg"},{"bike_id":"b25efbf0-e49d-40aa-b1f0-d180b2fc55ab","system_id":"levelo_inurba_marseille","lat":43.24078,"lon":5.37748,"is_reserved":false,"is_disabled":false,"rental_uris":{"android":"levelo://app?vid=b25efbf0-e49d-40aa-b1f0-d180b2fc55ab","ios":"levelo://app?vid=b25efbf0-e49d-40aa-b1f0-d180b2fc55ab"},"vehicle_type_id":"4","last_reported":1758780970,"current_range_meters":15200,"station_id":"ce4bhnp2rcd13ifvqgvg","pricing_plan_id":"cebpf4jnsgd1na2vs0mg"},{"bike_id":"2ac23a64-1b3f-47a9-9b15-e124400b880c","system_id":"levelo_inurba_marseille","lat":43.29203,"lon":5.39148,"is_reserved":false,"is_disabled":false,"rental_uris":{"android":"levelo://app?vid=2ac23a64-1b3f-47a9-9b15-e124400b880c","ios":"levelo://app?vid=2ac23a64-1b3f-47a9-9b15-e124400b880c"},"vehicle_type_id":"4","last_reported":1758780970,"current_range_meters":16000,"station_id":"","pricing_plan_id":"cebpf4jnsgd1na2vs0mg"},{"bike_id":"af60c407-5d0d-4124-90bc-f5c672eb5129","system_id":"levelo_inurba_marseille","lat":43.31722,"lon":5.40482,"is_reserved":false,"is_disabled":false,"rental_uris":{"android":"levelo://app?vid=af60c407-5d0d-4124-90bc-f5c672eb5129","ios":"levelo://app?vid=af60c407-5d0d-4124-90bc-f5c672eb5129"},"vehicle_type_id":"4","last_reported":1758780970,"current_range_meters":16000,"station_id":"ce4bh012rcd13ifvqd00","pricing_plan_id":"cebpf4jnsgd1na2vs0mg"},{"bike_id":"53297e60-c2b8-4b08-804c-086e2265bde3","system_id":"levelo_inurba_marseille","lat":43.285743,"lon":5.394971,"is_reserved":false,"is_disabled":false,"rental_uris":{"android":"levelo://app?vid=53297e60-c2b8-4b08-804c-086e2265bde3","ios":"levelo://app?vid=53297e60-c2b8-4b08-804c-086e2265bde3"},"vehicle_type_id":"4","last_reported":1758780970,"current_range_meters":16000,"station_id":"ce4bh292rcd13ifvqdg0","pricing_plan_id":"cebpf4jnsgd1na2vs0mg"},{"bike_id":"e75e6081-dd93-4997-90d8-d90009fa9928","system_id":"levelo_inurba_marseille","lat":43.27819,"lon":5.39212,"is_reserved":false,"is_disabled":false,"rental_uris":{"android":"levelo://app?vid=e75e6081-dd93-4997-90d8-d90009fa9928","ios":"levelo://app?vid=e75e6081-dd93-4997-90d8-d90009fa9928"},"vehicle_type_id":"4","last_reported":1758780970,"current_range_meters":16000,"station_id":"ce4bhjp2rcd13ifvqga0","pricing_plan_id":"cebpf4jnsgd1na2vs0mg"},{"bike_id":"725b1ff1-3894-44f1-a38e-91bc39cbab7e","system_id":"levelo_inurba_marseille","lat":43.24662,"lon":5.43153,"is_reserved":false,"is_disabled":false,"rental_uris":{"android":"levelo://app?vid=725b1ff1-3894-44f1-a38e-91bc39cbab7e","ios":"levelo://app?vid=725b1ff1-3894-44f1-a38e-91bc39cbab7e"},"vehicle_type_id":"4","last_reported":1758780970,"current_range_meters":16000,"station_id":"st_d2m6c4gdas8pm72e190g","pricing_plan_id":"cebpf4jnsgd1na2vs0mg"},{"bike_id":"d8e436c3-0aab-43dc-ad44-56f9f66ee2c9","system_id":"levelo_inurba_marseille","lat":43.255891,"lon":5.382405,"is_reserved":false,"is_disabled":false,"rental_uris":{"android":"levelo://app?vid=d8e436c3-0aab-43dc-ad44-56f9f66ee2c9","ios":"levelo://app?vid=d8e436c3-0aab-43dc-ad44-56f9f66ee2c9"},"vehicle_type_id":"4","last_reported":1758780970,"current_range_meters":16000,"station_id":"ce4bhih2rcd13ifvqfs0","pricing_plan_id":"cebpf4jnsgd1na2vs0mg"},{"bike_id":"0c8cc4cf-1548-4702-8beb-4813f33f974a","system_id":"levelo_inurba_marseille","lat":43.231506,"lon":5.43714,"is_reserved":false,"is_disabled":false,"rental_uris":{"android":"levelo://app?vid=0c8cc4cf-1548-4702-8beb-4813f33f974a","ios":"levelo://app?vid=0c8cc4cf-1548-4702-8beb-4813f33f974a"},"vehicle_type_id":"4","last_reported":1758780970,"current_range_meters":16000,"station_id":"ce4bhmp2rcd13ifvqgog","pricing_plan_id":"cebpf4jnsgd1na2vs0mg"},{"bike_id":"2b65a1f8-73b0-4985-9c6c-dde0fa0b1c77","system_id":"levelo_inurba_marseille","lat":43.314939,"lon":5.372982,"is_reserved":false,"is_disabled":false,"rental_uris":{"android":"levelo://app?vid=2b65a1f8-73b0-4985-9c6c-dde0fa0b1c77","ios":"levelo://app?vid=2b65a1f8-73b0-4985-9c6c-dde0fa0b1c77"},"vehicle_type_id":"4","last_reported":1758780970,"current_range_meters":16000,"station_id":"ce4bgt12rcd13ifvqcd0","pricing_plan_id":"cebpf4jnsgd1na2vs0mg"},{"bike_id":"d31d856a-933d-49cf-948f-ce03657dfc74","system_id":"levelo_inurba_marseille","lat":43.28428,"lon":5.35017,"is_reserved":false,"is_disabled":false,"rental_uris":{"android":"levelo://app?vid=d31d856a-933d-49cf-948f-ce03657dfc74","ios":"levelo://app?vid=d31d856a-933d-49cf-948f-ce03657dfc74"},"vehicle_type_id":"4","last_reported":1758780970,"current_range_meters":16000,"station_id":"ce4bhbh2rcd13ifvqepg","pricing_plan_id":"cebpf4jnsgd1na2vs0mg"},{"bike_id":"c7f6a08b-c655-4213-b2ba-7d02e7f382fe","system_id":"levelo_inurba_marseille","lat":43.27988,"lon":5.39483,"is_reserved":false,"is_disabled":false,"rental_uris":{"android":"levelo://app?vid=c7f6a08b-c655-4213-b2ba-7d02e7f382fe","ios":"levelo://app?vid=c7f6a08b-c655-4213-b2ba-7d02e7f382fe"},"vehicle_type_id":"4","last_reported":1758780970,"current_range_meters":16000,"station_id":"","pricing_plan_id":"cebpf4jnsgd1na2vs0mg"},{"bike_id":"dbc0eee6-28fa-427a-85ec-5eecd2501373","system_id":"levelo_inurba_marseille","lat":43.27491,"lon":5.42458,"is_reserved":false,"is_disabled":false,"rental_uris":{"android":"levelo://app?vid=dbc0eee6-28fa-427a-85ec-5eecd2501373","ios":"levelo://app?vid=dbc0eee6-28fa-427a-85ec-5eecd2501373"},"vehicle_type_id":"4","last_reported":1758780970,"current_range_meters":16000,"station_id":"ce4bhn92rcd13ifvqgrg","pricing_plan_id":"cebpf4jnsgd1na2vs0mg"},{"bike_id":"fd4b0929-5dae-4f92-bfeb-801c6778a0f5","system_id":"levelo_inurba_marseille","lat":43.2655,"lon":5.3729,"is_reserved":false,"is_disabled":true,"rental_uris":{"android":"levelo://app?vid=fd4b0929-5dae-4f92-bfeb-801c6778a0f5","ios":"levelo://app?vid=fd4b0929-5dae-4f92-bfeb-801c6778a0f5"},"vehicle_type_id":"4","last_reported":1758780970,"current_range_meters":16000,"station_id":"ce4bhg12rcd13ifvqf70","pricing_plan_id":"cebpf4jnsgd1na2vs0mg"},{"bike_id":"e5303607-da03-4ac7-b81e-b332ede84cf7","system_id":"levelo_inurba_marseille","lat":43.31301,"lon":5.37816,"is_reserved":false,"is_disabled":false,"rental_uris":{"android":"levelo://app?vid=e5303607-da03-4ac7-b81e-b332ede84cf7","ios":"levelo://app?vid=e5303607-da03-4ac7-b81e-b332ede84cf7"},"vehicle_type_id":"4","last_reported":1758780970,"current_range_meters":16000,"station_id":"","pricing_plan_id":"cebpf4jnsgd1na2vs0mg"},{"bike_id":"1ec3f682-f068-4472-8329-000c712f0903","system_id":"levelo_inurba_marseille","lat":43.31074,"lon":5.42439,"is_reserved":false,"is_disabled":false,"rental_uris":{"android":"levelo://app?vid=1ec3f682-f068-4472-8329-000c712f0903","ios":"levelo://app?vid=1ec3f682-f068-4472-8329-000c712f0903"},"vehicle_type_id":"4","last_reported":1758780970,"current_range_meters":16000,"station_id":"","pricing_plan_id":"cebpf4jnsgd1na2vs0mg"},{"bike_id":"4f3eac28-3960-42b2-9a7f-65e76c3daab8","system_id":"levelo_inurba_marseille","lat":43.24652,"lon":5.3892,"is_reserved":false,"is_disabled":false,"rental_uris":{"android":"levelo://app?vid=4f3eac28-3960-42b2-9a7f-65e76c3daab8","ios":"levelo://app?vid=4f3eac28-3960-42b2-9a7f-65e76c3daab8"},"vehicle_type_id":"4","last_reported":1758780970,"current_range_meters":16400,"station_id":"ce4bhg12rcd13ifvqf60","pricing_plan_id":"cebpf4jnsgd1na2vs0mg"},{"bike_id":"420a88f0-c128-42c0-999d-02ae7c015e29","system_id":"levelo_inurba_marseille","lat":43.32368,"lon":5.38882,"is_reserved":false,"is_disabled":false,"rental_uris":{"android":"levelo://app?vid=420a88f0-c128-42c0-999d-02ae7c015e29","ios":"levelo://app?vid=420a88f0-c128-42c0-999d-02ae7c015e29"},"vehicle_type_id":"4","last_reported":1758780970,"current_range_meters":16400,"station_id":"ce4bhqp2rcd13ifvqhog","pricing_plan_id":"cebpf4jnsgd1na2vs0mg"},{"bike_id":"f897d300-643c-4c7a-951b-f56d70ef23ca","system_id":"levelo_inurba_marseille","lat":43.30332,"lon":5.39082,"is_reserved":false,"is_disabled":false,"rental_uris":{"android":"levelo://app?vid=f897d300-643c-4c7a-951b-f56d70ef23ca","ios":"levelo://app?vid=f897d300-643c-4c7a-951b-f56d70ef23ca"},"vehicle_type_id":"4","last_reported":1758780970,"current_range_meters":16400,"station_id":"","pricing_plan_id":"cebpf4jnsgd1na2vs0mg"},{"bike_id":"f799cfee-8db6-47d0-9211-1dd04a3e1a27","system_id":"levelo_inurba_marseille","lat":43.24184,"lon":5.39704,"is_reserved":false,"is_disabled":true,"rental_uris":{"android":"levelo://app?vid=f799cfee-8db6-47d0-9211-1dd04a3e1a27","ios":"levelo://app?vid=f799cfee-8db6-47d0-9211-1dd04a3e1a27"},"vehicle_type_id":"4","last_reported":1758780970,"current_range_meters":16400,"station_id":"ce4bhn12rcd13ifvqgpg","pricing_plan_id":"cebpf4jnsgd1na2vs0mg"},{"bike_id":"522ba276-8109-4ef7-b138-5f2b821314ba","system_id":"levelo_inurba_marseille","lat":43.24649,"lon":5.38888,"is_reserved":false,"is_disabled":false,"rental_uris":{"android":"levelo://app?vid=522ba276-8109-4ef7-b138-5f2b821314ba","ios":"levelo://app?vid=522ba276-8109-4ef7-b138-5f2b821314ba"},"vehicle_type_id":"4","last_reported":1758780970,"current_range_meters":16400,"station_id":"ce4bhg12rcd13ifvqf60","pricing_plan_id":"cebpf4jnsgd1na2vs0mg"},{"bike_id":"34d92363-c6f2-4e6f-a67a-316d15f87886","system_id":"levelo_inurba_marseille","lat":43.298004,"lon":5.381084,"is_reserved":false,"is_disabled":false,"rental_uris":{"android":"levelo://app?vid=34d92363-c6f2-4e6f-a67a-316d15f87886","ios":"levelo://app?vid=34d92363-c6f2-4e6f-a67a-316d15f87886"},"vehicle_type_id":"4","last_reported":1758780970,"current_range_meters":16400,"station_id":"ce4bgip2rcd13ifvqbb0","pricing_plan_id":"cebpf4jnsgd1na2vs0mg"},{"bike_id":"6fb903f6-e850-471d-b934-df9fe9a8774e","system_id":"levelo_inurba_marseille","lat":43.27051,"lon":5.40276,"is_reserved":false,"is_disabled":false,"rental_uris":{"android":"levelo://app?vid=6fb903f6-e850-471d-b934-df9fe9a8774e","ios":"levelo://app?vid=6fb903f6-e850-471d-b934-df9fe9a8774e"},"vehicle_type_id":"4","last_reported":1758780970,"current_range_meters":16400,"station_id":"ce4bhk92rcd13ifvqgc0","pricing_plan_id":"cebpf4jnsgd1na2vs0mg"},{"bike_id":"3a65cd49-9ac6-42fc-b858-fc88c1ce9c93","system_id":"levelo_inurba_marseille","lat":43.30933,"lon":5.40157,"is_reserved":false,"is_disabled":false,"rental_uris":{"android":"levelo://app?vid=3a65cd49-9ac6-42fc-b858-fc88c1ce9c93","ios":"levelo://app?vid=3a65cd49-9ac6-42fc-b858-fc88c1ce9c93"},"vehicle_type_id":"4","last_reported":1758780970,"current_range_meters":16400,"station_id":"","pricing_plan_id":"cebpf4jnsgd1na2vs0mg"},{"bike_id":"29513c7f-6816-4937-8844-4c6606615c97","system_id":"levelo_inurba_marseille","lat":43.27068,"lon":5.42276,"is_reserved":false,"is_disabled":false,"rental_uris":{"android":"levelo://app?vid=29513c7f-6816-4937-8844-4c6606615c97","ios":"levelo://app?vid=29513c7f-6816-4937-8844-4c6606615c97"},"vehicle_type_id":"4","last_reported":1758780970,"current_range_meters":16800,"station_id":"ce4bhk92rcd13ifvqgb0","pricing_plan_id":"cebpf4jnsgd1na2vs0mg"},{"bike_id":"b2d79962-718a-4573-905e-bab87fdfebc3","system_id":"levelo_inurba_marseille","lat":43.28653,"lon":5.36363,"is_reserved":false,"is_disabled":false,"rental_uris":{"android":"levelo://app?vid=b2d79962-718a-4573-905e-bab87fdfebc3","ios":"levelo://app?vid=b2d79962-718a-4573-905e-bab87fdfebc3"},"vehicle_type_id":"4","last_reported":1758780970,"current_range_meters":16800,"station_id":"","pricing_plan_id":"cebpf4jnsgd1na2vs0mg"},{"bike_id":"cf64f5a1-85bb-4012-acd5-309d066b1fe7","system_id":"levelo_inurba_marseille","lat":43.24169,"lon":5.39694,"is_reserved":false,"is_disabled":true,"rental_uris":{"android":"levelo://app?vid=cf64f5a1-85bb-4012-acd5-309d066b1fe7","ios":"levelo://app?vid=cf64f5a1-85bb-4012-acd5-309d066b1fe7"},"vehicle_type_id":"4","last_reported":1758780970,"current_range_meters":16800,"station_id":"ce4bhn12rcd13ifvqgpg","pricing_plan_id":"cebpf4jnsgd1na2vs0mg"},{"bike_id":"a28c4950-acb8-4027-9776-770922e1aae9","system_id":"levelo_inurba_marseille","lat":43.231513,"lon":5.437172,"is_reserved":false,"is_disabled":false,"rental_uris":{"android":"levelo://app?vid=a28c4950-acb8-4027-9776-770922e1aae9","ios":"levelo://app?vid=a28c4950-acb8-4027-9776-770922e1aae9"},"vehicle_type_id":"4","last_reported":1758780970,"current_range_meters":16800,"station_id":"ce4bhmp2rcd13ifvqgog","pricing_plan_id":"cebpf4jnsgd1na2vs0mg"},{"bike_id":"041cd397-24ab-4e04-af23-07b961e161f4","system_id":"levelo_inurba_marseille","lat":43.337444,"lon":5.374475,"is_reserved":false,"is_disabled":false,"rental_uris":{"android":"levelo://app?vid=041cd397-24ab-4e04-af23-07b961e161f4","ios":"levelo://app?vid=041cd397-24ab-4e04-af23-07b961e161f4"},"vehicle_type_id":"4","last_reported":1758780970,"current_range_meters":16800,"station_id":"","pricing_plan_id":"cebpf4jnsgd1na2vs0mg"},{"bike_id":"b6ff3672-4e7c-404c-ab2a-bd902cf95e14","system_id":"levelo_inurba_marseille","lat":43.26868,"lon":5.40653,"is_reserved":false,"is_disabled":false,"rental_uris":{"android":"levelo://app?vid=b6ff3672-4e7c-404c-ab2a-bd902cf95e14","ios":"levelo://app?vid=b6ff3672-4e7c-404c-ab2a-bd902cf95e14"},"vehicle_type_id":"4","last_reported":1758780970,"current_range_meters":16800,"station_id":"","pricing_plan_id":"cebpf4jnsgd1na2vs0mg"},{"bike_id":"90f4b24a-099b-45c7-9051-b55ccbaa5a52","system_id":"levelo_inurba_marseille","lat":43.25594,"lon":5.38241,"is_reserved":false,"is_disabled":false,"rental_uris":{"android":"levelo://app?vid=90f4b24a-099b-45c7-9051-b55ccbaa5a52","ios":"levelo://app?vid=90f4b24a-099b-45c7-9051-b55ccbaa5a52"},"vehicle_type_id":"4","last_reported":1758780970,"current_range_meters":16800,"station_id":"ce4bhih2rcd13ifvqfs0","pricing_plan_id":"cebpf4jnsgd1na2vs0mg"},{"bike_id":"7d56116e-92eb-4c61-81f5-32552eb2a79e","system_id":"levelo_inurba_marseille","lat":43.269499,"lon":5.386226,"is_reserved":false,"is_disabled":false,"rental_uris":{"android":"levelo://app?vid=7d56116e-92eb-4c61-81f5-32552eb2a79e","ios":"levelo://app?vid=7d56116e-92eb-4c61-81f5-32552eb2a79e"},"vehicle_type_id":"4","last_reported":1758780970,"current_range_meters":17200,"station_id":"ce4bhh92rcd13ifvqfh0","pricing_plan_id":"cebpf4jnsgd1na2vs0mg"},{"bike_id":"e272de5d-c37b-4836-8081-748ba206ef88","system_id":"levelo_inurba_marseille","lat":43.279984,"lon":5.416702,"is_reserved":false,"is_disabled":false,"rental_uris":{"android":"levelo://app?vid=e272de5d-c37b-4836-8081-748ba206ef88","ios":"levelo://app?vid=e272de5d-c37b-4836-8081-748ba206ef88"},"vehicle_type_id":"4","last_reported":1758780970,"current_range_meters":17200,"station_id":"ce4bho12rcd13ifvqh1g","pricing_plan_id":"cebpf4jnsgd1na2vs0mg"},{"bike_id":"8e4d93ed-d24c-438d-94c2-4e040142fb9b","system_id":"levelo_inurba_marseille","lat":43.24082,"lon":5.37766,"is_reserved":false,"is_disabled":false,"rental_uris":{"android":"levelo://app?vid=8e4d93ed-d24c-438d-94c2-4e040142fb9b","ios":"levelo://app?vid=8e4d93ed-d24c-438d-94c2-4e040142fb9b"},"vehicle_type_id":"4","last_reported":1758780970,"current_range_meters":17200,"station_id":"ce4bhnp2rcd13ifvqgvg","pricing_plan_id":"cebpf4jnsgd1na2vs0mg"},{"bike_id":"a00b258b-edcd-4c76-89d0-c26cce99668a","system_id":"levelo_inurba_marseille","lat":43.28861,"lon":5.35868,"is_reserved":false,"is_disabled":false,"rental_uris":{"android":"levelo://app?vid=a00b258b-edcd-4c76-89d0-c26cce99668a","ios":"levelo://app?vid=a00b258b-edcd-4c76-89d0-c26cce99668a"},"vehicle_type_id":"4","last_reported":1758780970,"current_range_meters":17200,"station_id":"ce4bhb12rcd13ifvqem0","pricing_plan_id":"cebpf4jnsgd1na2vs0mg"},{"bike_id":"9099189a-1a78-47d6-b73f-bdd848909583","system_id":"levelo_inurba_marseille","lat":43.336,"lon":5.41018,"is_reserved":false,"is_disabled":false,"rental_uris":{"android":"levelo://app?vid=9099189a-1a78-47d6-b73f-bdd848909583","ios":"levelo://app?vid=9099189a-1a78-47d6-b73f-bdd848909583"},"vehicle_type_id":"4","last_reported":1758780970,"current_range_meters":16800,"station_id":"ce4bhqh2rcd13ifvqhmg","pricing_plan_id":"cebpf4jnsgd1na2vs0mg"},{"bike_id":"6b6782a3-8107-4f27-980e-532b50a44b15","system_id":"levelo_inurba_marseille","lat":43.29267,"lon":5.38451,"is_reserved":false,"is_disabled":false,"rental_uris":{"android":"levelo://app?vid=6b6782a3-8107-4f27-980e-532b50a44b15","ios":"levelo://app?vid=6b6782a3-8107-4f27-980e-532b50a44b15"},"vehicle_type_id":"4","last_reported":1758780970,"current_range_meters":17600,"station_id":"ce4bh692rcd13ifvqea0","pricing_plan_id":"cebpf4jnsgd1na2vs0mg"},{"bike_id":"a14c0dc7-b2b9-49e4-994a-95433ae1a194","system_id":"levelo_inurba_marseille","lat":43.30141,"lon":5.38089,"is_reserved":false,"is_disabled":false,"rental_uris":{"android":"levelo://app?vid=a14c0dc7-b2b9-49e4-994a-95433ae1a194","ios":"levelo://app?vid=a14c0dc7-b2b9-49e4-994a-95433ae1a194"},"vehicle_type_id":"4","last_reported":1758780970,"current_range_meters":17600,"station_id":"ce4bgjp2rcd13ifvqbh0","pricing_plan_id":"cebpf4jnsgd1na2vs0mg"},{"bike_id":"39e6b2d7-e7bc-4366-8a01-87bc46855564","system_id":"levelo_inurba_marseille","lat":43.32099,"lon":5.36797,"is_reserved":false,"is_disabled":false,"rental_uris":{"android":"levelo://app?vid=39e6b2d7-e7bc-4366-8a01-87bc46855564","ios":"levelo://app?vid=39e6b2d7-e7bc-4366-8a01-87bc46855564"},"vehicle_type_id":"4","last_reported":1758780970,"current_range_meters":17600,"station_id":"ce4bhrh2rcd13ifvqhug","pricing_plan_id":"cebpf4jnsgd1na2vs0mg"},{"bike_id":"d2c32aa4-eb6d-4037-b4bc-16b296387f88","system_id":"levelo_inurba_marseille","lat":43.246508,"lon":5.388915,"is_reserved":false,"is_disabled":false,"rental_uris":{"android":"levelo://app?vid=d2c32aa4-eb6d-4037-b4bc-16b296387f88","ios":"levelo://app?vid=d2c32aa4-eb6d-4037-b4bc-16b296387f88"},"vehicle_type_id":"4","last_reported":1758780970,"current_range_meters":17600,"station_id":"ce4bhg12rcd13ifvqf60","pricing_plan_id":"cebpf4jnsgd1na2vs0mg"},{"bike_id":"64211e92-ecd5-4428-a86b-6e8946c6a668","system_id":"levelo_inurba_marseille","lat":43.24643,"lon":5.38912,"is_reserved":false,"is_disabled":false,"rental_uris":{"android":"levelo://app?vid=64211e92-ecd5-4428-a86b-6e8946c6a668","ios":"levelo://app?vid=64211e92-ecd5-4428-a86b-6e8946c6a668"},"vehicle_type_id":"4","last_reported":1758780970,"current_range_meters":17600,"station_id":"ce4bhg12rcd13ifvqf60","pricing_plan_id":"cebpf4jnsgd1na2vs0mg"},{"bike_id":"f7b533f2-f11a-4f3c-a205-ee581782b1a1","system_id":"levelo_inurba_marseille","lat":43.30913,"lon":5.40173,"is_reserved":false,"is_disabled":true,"rental_uris":{"android":"levelo://app?vid=f7b533f2-f11a-4f3c-a205-ee581782b1a1","ios":"levelo://app?vid=f7b533f2-f11a-4f3c-a205-ee581782b1a1"},"vehicle_type_id":"4","last_reported":1758780970,"current_range_meters":18000,"station_id":"ce4bgvp2rcd13ifvqct0","pricing_plan_id":"cebpf4jnsgd1na2vs0mg"},{"bike_id":"659af8fd-9cd3-40b8-820a-e463651393f5","system_id":"levelo_inurba_marseille","lat":43.33609,"lon":5.41035,"is_reserved":false,"is_disabled":false,"rental_uris":{"android":"levelo://app?vid=659af8fd-9cd3-40b8-820a-e463651393f5","ios":"levelo://app?vid=659af8fd-9cd3-40b8-820a-e463651393f5"},"vehicle_type_id":"4","last_reported":1758780970,"current_range_meters":18000,"station_id":"ce4bhqh2rcd13ifvqhmg","pricing_plan_id":"cebpf4jnsgd1na2vs0mg"},{"bike_id":"3b58c6ae-fd62-456e-b40a-8b77a44599ce","system_id":"levelo_inurba_marseille","lat":43.25001,"lon":5.3892,"is_reserved":false,"is_disabled":false,"rental_uris":{"android":"levelo://app?vid=3b58c6ae-fd62-456e-b40a-8b77a44599ce","ios":"levelo://app?vid=3b58c6ae-fd62-456e-b40a-8b77a44599ce"},"vehicle_type_id":"4","last_reported":1758780970,"current_range_meters":18000,"station_id":"ce4bhgp2rcd13ifvqfd0","pricing_plan_id":"cebpf4jnsgd1na2vs0mg"},{"bike_id":"f84ca7be-c651-4e74-bba2-65c5fe4928ff","system_id":"levelo_inurba_marseille","lat":43.23154,"lon":5.43712,"is_reserved":false,"is_disabled":false,"rental_uris":{"android":"levelo://app?vid=f84ca7be-c651-4e74-bba2-65c5fe4928ff","ios":"levelo://app?vid=f84ca7be-c651-4e74-bba2-65c5fe4928ff"},"vehicle_type_id":"4","last_reported":1758780970,"current_range_meters":18000,"station_id":"ce4bhmp2rcd13ifvqgog","pricing_plan_id":"cebpf4jnsgd1na2vs0mg"},{"bike_id":"237d670d-1d71-4e5a-9874-9ef01d2c1669","system_id":"levelo_inurba_marseille","lat":43.23069,"lon":5.35532,"is_reserved":false,"is_disabled":false,"rental_uris":{"android":"levelo://app?vid=237d670d-1d71-4e5a-9874-9ef01d2c1669","ios":"levelo://app?vid=237d670d-1d71-4e5a-9874-9ef01d2c1669"},"vehicle_type_id":"4","last_reported":1758780970,"current_range_meters":18000,"station_id":"cpo3342slgdg3j2ifvpg","pricing_plan_id":"cebpf4jnsgd1na2vs0mg"},{"bike_id":"064f1757-7503-4d4c-acee-cfdc32b0a2ca","system_id":"levelo_inurba_marseille","lat":43.28942,"lon":5.3664,"is_reserved":false,"is_disabled":false,"rental_uris":{"android":"levelo://app?vid=064f1757-7503-4d4c-acee-cfdc32b0a2ca","ios":"levelo://app?vid=064f1757-7503-4d4c-acee-cfdc32b0a2ca"},"vehicle_type_id":"4","last_reported":1758780970,"current_range_meters":17600,"station_id":"ce4bhap2rcd13ifvqek0","pricing_plan_id":"cebpf4jnsgd1na2vs0mg"},{"bike_id":"a57b3feb-2354-42fe-87fd-e8fcee3a0260","system_id":"levelo_inurba_marseille","lat":43.26953,"lon":5.40241,"is_reserved":false,"is_disabled":false,"rental_uris":{"android":"levelo://app?vid=a57b3feb-2354-42fe-87fd-e8fcee3a0260","ios":"levelo://app?vid=a57b3feb-2354-42fe-87fd-e8fcee3a0260"},"vehicle_type_id":"4","last_reported":1758780970,"current_range_meters":18000,"station_id":"","pricing_plan_id":"cebpf4jnsgd1na2vs0mg"},{"bike_id":"088a7f13-cdb6-4278-be0b-335a0caabfef","system_id":"levelo_inurba_marseille","lat":43.298075,"lon":5.38112,"is_reserved":false,"is_disabled":false,"rental_uris":{"android":"levelo://app?vid=088a7f13-cdb6-4278-be0b-335a0caabfef","ios":"levelo://app?vid=088a7f13-cdb6-4278-be0b-335a0caabfef"},"vehicle_type_id":"4","last_reported":1758780970,"current_range_meters":18800,"station_id":"ce4bgip2rcd13ifvqbb0","pricing_plan_id":"cebpf4jnsgd1na2vs0mg"},{"bike_id":"0ed5d1af-c0da-4940-9155-76ef8fa3a0ac","system_id":"levelo_inurba_marseille","lat":43.293832,"lon":5.378617,"is_reserved":false,"is_disabled":false,"rental_uris":{"android":"levelo://app?vid=0ed5d1af-c0da-4940-9155-76ef8fa3a0ac","ios":"levelo://app?vid=0ed5d1af-c0da-4940-9155-76ef8fa3a0ac"},"vehicle_type_id":"4","last_reported":1758780970,"current_range_meters":18800,"station_id":"","pricing_plan_id":"cebpf4jnsgd1na2vs0mg"},{"bike_id":"aeff7e6b-a7f3-4140-a005-9822fe4e1519","system_id":"levelo_inurba_marseille","lat":43.2464,"lon":5.43133,"is_reserved":false,"is_disabled":false,"rental_uris":{"android":"levelo://app?vid=aeff7e6b-a7f3-4140-a005-9822fe4e1519","ios":"levelo://app?vid=aeff7e6b-a7f3-4140-a005-9822fe4e1519"},"vehicle_type_id":"4","last_reported":1758780970,"current_range_meters":18800,"station_id":"st_d2m6c4gdas8pm72e190g","pricing_plan_id":"cebpf4jnsgd1na2vs0mg"},{"bike_id":"d58d5cde-9bf6-4fa9-8c45-5fc1d16c20a0","system_id":"levelo_inurba_marseille","lat":43.24545,"lon":5.3952,"is_reserved":false,"is_disabled":false,"rental_uris":{"android":"levelo://app?vid=d58d5cde-9bf6-4fa9-8c45-5fc1d16c20a0","ios":"levelo://app?vid=d58d5cde-9bf6-4fa9-8c45-5fc1d16c20a0"},"vehicle_type_id":"4","last_reported":1758780970,"current_range_meters":18800,"station_id":"ce4bhlp2rcd13ifvqgjg","pricing_plan_id":"cebpf4jnsgd1na2vs0mg"},{"bike_id":"9a2ff59f-bece-4a54-aa98-131d145d6f92","system_id":"levelo_inurba_marseille","lat":43.27203,"lon":5.3919,"is_reserved":false,"is_disabled":false,"rental_uris":{"android":"levelo://app?vid=9a2ff59f-bece-4a54-aa98-131d145d6f92","ios":"levelo://app?vid=9a2ff59f-bece-4a54-aa98-131d145d6f92"},"vehicle_type_id":"4","last_reported":1758780970,"current_range_meters":18000,"station_id":"ce4bhhp2rcd13ifvqfm0","pricing_plan_id":"cebpf4jnsgd1na2vs0mg"},{"bike_id":"caafbd0b-78e3-400b-8692-6af69e5b06f8","system_id":"levelo_inurba_marseille","lat":43.27491,"lon":5.42457,"is_reserved":false,"is_disabled":false,"rental_uris":{"android":"levelo://app?vid=caafbd0b-78e3-400b-8692-6af69e5b06f8","ios":"levelo://app?vid=caafbd0b-78e3-400b-8692-6af69e5b06f8"},"vehicle_type_id":"4","last_reported":1758780970,"current_range_meters":18800,"station_id":"ce4bhn92rcd13ifvqgrg","pricing_plan_id":"cebpf4jnsgd1na2vs0mg"},{"bike_id":"ef4ee8b7-3258-4aad-a3f8-62940ae3f55f","system_id":"levelo_inurba_marseille","lat":43.23151,"lon":5.43716,"is_reserved":false,"is_disabled":false,"rental_uris":{"android":"levelo://app?vid=ef4ee8b7-3258-4aad-a3f8-62940ae3f55f","ios":"levelo://app?vid=ef4ee8b7-3258-4aad-a3f8-62940ae3f55f"},"vehicle_type_id":"4","last_reported":1758780970,"current_range_meters":18800,"station_id":"ce4bhmp2rcd13ifvqgog","pricing_plan_id":"cebpf4jnsgd1na2vs0mg"},{"bike_id":"467b4306-5fd8-484e-9a4b-cf8eb50151ba","system_id":"levelo_inurba_marseille","lat":43.32295,"lon":5.38282,"is_reserved":false,"is_disabled":false,"rental_uris":{"android":"levelo://app?vid=467b4306-5fd8-484e-9a4b-cf8eb50151ba","ios":"levelo://app?vid=467b4306-5fd8-484e-9a4b-cf8eb50151ba"},"vehicle_type_id":"4","last_reported":1758780970,"current_range_meters":19200,"station_id":"ce4bhr12rcd13ifvqhqg","pricing_plan_id":"cebpf4jnsgd1na2vs0mg"},{"bike_id":"bfdb0d52-898f-45b7-b9e4-396d25ddff0c","system_id":"levelo_inurba_marseille","lat":43.30463,"lon":5.37899,"is_reserved":false,"is_disabled":true,"rental_uris":{"android":"levelo://app?vid=bfdb0d52-898f-45b7-b9e4-396d25ddff0c","ios":"levelo://app?vid=bfdb0d52-898f-45b7-b9e4-396d25ddff0c"},"vehicle_type_id":"4","last_reported":1758780970,"current_range_meters":19200,"station_id":"ce4bgup2rcd13ifvqcn0","pricing_plan_id":"cebpf4jnsgd1na2vs0mg"},{"bike_id":"2a6efce7-7af4-4fba-a268-62bdf0a0f851","system_id":"levelo_inurba_marseille","lat":43.22942,"lon":5.35386,"is_reserved":false,"is_disabled":false,"rental_uris":{"android":"levelo://app?vid=2a6efce7-7af4-4fba-a268-62bdf0a0f851","ios":"levelo://app?vid=2a6efce7-7af4-4fba-a268-62bdf0a0f851"},"vehicle_type_id":"4","last_reported":1758780970,"current_range_meters":19200,"station_id":"cpo3532slgdg3j2ikp40","pricing_plan_id":"cebpf4jnsgd1na2vs0mg"},{"bike_id":"f4fc2940-514e-4042-9492-ca9a24748db8","system_id":"levelo_inurba_marseille","lat":43.2895,"lon":5.38256,"is_reserved":false,"is_disabled":false,"rental_uris":{"android":"levelo://app?vid=f4fc2940-514e-4042-9492-ca9a24748db8","ios":"levelo://app?vid=f4fc2940-514e-4042-9492-ca9a24748db8"},"vehicle_type_id":"4","last_reported":1758780970,"current_range_meters":19200,"station_id":"","pricing_plan_id":"cebpf4jnsgd1na2vs0mg"},{"bike_id":"878212e1-9f3a-4147-b86c-65eaf928a45d","system_id":"levelo_inurba_marseille","lat":43.217598,"lon":5.345703,"is_reserved":false,"is_disabled":false,"rental_uris":{"android":"levelo://app?vid=878212e1-9f3a-4147-b86c-65eaf928a45d","ios":"levelo://app?vid=878212e1-9f3a-4147-b86c-65eaf928a45d"},"vehicle_type_id":"4","last_reported":1758780970,"current_range_meters":19200,"station_id":"st_cvj6r9ubvosntc0bgbag","pricing_plan_id":"cebpf4jnsgd1na2vs0mg"},{"bike_id":"13be0879-670b-43f4-8fc1-8fbc1c4ccf9c","system_id":"levelo_inurba_marseille","lat":43.28432,"lon":5.35006,"is_reserved":false,"is_disabled":false,"rental_uris":{"android":"levelo://app?vid=13be0879-670b-43f4-8fc1-8fbc1c4ccf9c","ios":"levelo://app?vid=13be0879-670b-43f4-8fc1-8fbc1c4ccf9c"},"vehicle_type_id":"4","last_reported":1758780970,"current_range_meters":19200,"station_id":"ce4bhbh2rcd13ifvqepg","pricing_plan_id":"cebpf4jnsgd1na2vs0mg"},{"bike_id":"584022e9-c96b-4a44-bf28-2a2cd29c8392","system_id":"levelo_inurba_marseille","lat":43.24077,"lon":5.37771,"is_reserved":false,"is_disabled":false,"rental_uris":{"android":"levelo://app?vid=584022e9-c96b-4a44-bf28-2a2cd29c8392","ios":"levelo://app?vid=584022e9-c96b-4a44-bf28-2a2cd29c8392"},"vehicle_type_id":"4","last_reported":1758780970,"current_range_meters":19200,"station_id":"ce4bhnp2rcd13ifvqgvg","pricing_plan_id":"cebpf4jnsgd1na2vs0mg"},{"bike_id":"592b1ba5-e76d-424a-880d-d370c85011a0","system_id":"levelo_inurba_marseille","lat":43.292233,"lon":5.360753,"is_reserved":false,"is_disabled":false,"rental_uris":{"android":"levelo://app?vid=592b1ba5-e76d-424a-880d-d370c85011a0","ios":"levelo://app?vid=592b1ba5-e76d-424a-880d-d370c85011a0"},