{"last_updated":1744733464,"ttl":60,"version":"2.2","data":{"bikes":[{"bike_id":"514d3b70-ad71-4571-8e81-6beb0ba3b6c4","system_id":"levelo_inurba_marseille","lat":43.30286,"lon":5.39651,"is_reserved":false,"is_disabled":false,"rental_uris":{"android":"levelo://app?vid=514d3b70-ad71-4571-8e81-6beb0ba3b6c4","ios":"levelo://app?vid=514d3b70-ad71-4571-8e81-6beb0ba3b6c4"},"vehicle_type_id":"4","last_reported":1744733464,"current_range_meters":2800,"station_id":"","pricing_plan_id":"cebpf4jnsgd1na2vs0mg"},{"bike_id":"0eb6b77a-399a-4d9b-b83c-d7c3ac39a902","system_id":"levelo_inurba_marseille","lat":43.26203,"lon":5.37925,"is_reserved":false,"is_disabled":false,"rental_uris":{"android":"levelo://app?vid=0eb6b77a-399a-4d9b-b83c-d7c3ac39a902","ios":"levelo://app?vid=0eb6b77a-399a-4d9b-b83c-d7c3ac39a902"},"vehicle_type_id":"4","last_reported":1744733464,"current_range_meters":2800,"station_id":"ce4bhjp2rcd13ifvqg90","pricing_plan_id":"cebpf4jnsgd1na2vs0mg"},{"bike_id":"1d645988-18a9-483a-ac62-5702896d43ad","system_id":"levelo_inurba_marseille","lat":43.29515,"lon":5.3904,"is_reserved":false,"is_disabled":false,"rental_uris":{"android":"levelo://app?vid=1d645988-18a9-483a-ac62-5702896d43ad","ios":"levelo://app?vid=1d645988-18a9-483a-ac62-5702896d43ad"},"vehicle_type_id":"4","last_reported":1744733464,"current_range_meters":2800,"station_id":"ce4bh3p2rcd13ifvqdp0","pricing_plan_id":"cebpf4jnsgd1na2vs0mg"},{"bike_id":"8d0e3a0b-6d2d-4a52-8635-fac22553c618","system_id":"levelo_inurba_marseille","lat":43.33305,"lon":5.37862,"is_reserved":false,"is_disabled":false,"rental_uris":{"android":"levelo://app?vid=8d0e3a0b-6d2d-4a52-8635-fac22553c618","ios":"levelo://app?vid=8d0e3a0b-6d2d-4a52-8635-fac22553c618"},"vehicle_type_id":"4","last_reported":1744733464,"current_range_meters":3200,"station_id":"","pricing_plan_id":"cebpf4jnsgd1na2vs0mg"},{"bike_id":"7d7d2d54-d5e4-4689-a0c1-7f078355ca41","system_id":"levelo_inurba_marseille","lat":43.29631,"lon":5.40588,"is_reserved":false,"is_disabled":false,"rental_uris":{"android":"levelo://app?vid=7d7d2d54-d5e4-4689-a0c1-7f078355ca41","ios":"levelo://app?vid=7d7d2d54-d5e4-4689-a0c1-7f078355ca41"},"vehicle_type_id":"4","last_reported":1744733464,"current_range_meters":3200,"station_id":"ce4bh0h2rcd13ifvqd60","pricing_plan_id":"cebpf4jnsgd1na2vs0mg"},{"bike_id":"9eb2afd0-d1ea-4702-8e89-576dd8980527","system_id":"levelo_inurba_marseille","lat":43.30422,"lon":5.38889,"is_reserved":false,"is_disabled":false,"rental_uris":{"android":"levelo://app?vid=9eb2afd0-d1ea-4702-8e89-576dd8980527","ios":"levelo://app?vid=9eb2afd0-d1ea-4702-8e89-576dd8980527"},"vehicle_type_id":"4","last_reported":1744733464,"current_range_meters":3600,"station_id":"ce4bgk12rcd13ifvqbi0","pricing_plan_id":"cebpf4jnsgd1na2vs0mg"},{"bike_id":"fa2e6fe8-9fc0-4859-8310-b073e3cbae11","system_id":"levelo_inurba_marseille","lat":43.28411,"lon":5.37511,"is_reserved":false,"is_disabled":false,"rental_uris":{"android":"levelo://app?vid=fa2e6fe8-9fc0-4859-8310-b073e3cbae11","ios":"levelo://app?vid=fa2e6fe8-9fc0-4859-8310-b073e3cbae11"},"vehicle_type_id":"4","last_reported":1744733464,"current_range_meters":3600,"station_id":"ce4bh412rcd13ifvqds0","pricing_plan_id":"cebpf4jnsgd1na2vs0mg"},{"bike_id":"70498890-71dc-4538-8f5f-46ce43df6fae","system_id":"levelo_inurba_marseille","lat":43.30142,"lon":5.37419,"is_reserved":false,"is_disabled":false,"rental_uris":{"android":"levelo://app?vid=70498890-71dc-4538-8f5f-46ce43df6fae","ios":"levelo://app?vid=70498890-71dc-4538-8f5f-46ce43df6fae"},"vehicle_type_id":"4","last_reported":1744733464,"current_range_meters":3600,"station_id":"ce4bh9p2rcd13ifvqec0","pricing_plan_id":"cebpf4jnsgd1na2vs0mg"},{"bike_id":"776bb345-d612-428b-9888-f8b8504e77b8","system_id":"levelo_inurba_marseille","lat":43.289857,"lon":5.366103,"is_reserved":false,"is_disabled":false,"rental_uris":{"android":"levelo://app?vid=776bb345-d612-428b-9888-f8b8504e77b8","ios":"levelo://app?vid=776bb345-d612-428b-9888-f8b8504e77b8"},"vehicle_type_id":"4","last_reported":1744733464,"current_range_meters":3600,"station_id":"ce4bh512rcd13ifvqe2g","pricing_plan_id":"cebpf4jnsgd1na2vs0mg"},{"bike_id":"f13a1e75-ff60-4711-aa58-1757054ee490","system_id":"levelo_inurba_marseille","lat":43.3031,"lon":5.36865,"is_reserved":false,"is_disabled":false,"rental_uris":{"android":"levelo://app?vid=f13a1e75-ff60-4711-aa58-1757054ee490","ios":"levelo://app?vid=f13a1e75-ff60-4711-aa58-1757054ee490"},"vehicle_type_id":"4","last_reported":1744733464,"current_range_meters":3600,"station_id":"ce4bgqh2rcd13ifvqc5g","pricing_plan_id":"cebpf4jnsgd1na2vs0mg"},{"bike_id":"061cf2de-4061-4cee-aaa8-ae01081499e5","system_id":"levelo_inurba_marseille","lat":43.26204,"lon":5.37932,"is_reserved":false,"is_disabled":false,"rental_uris":{"android":"levelo://app?vid=061cf2de-4061-4cee-aaa8-ae01081499e5","ios":"levelo://app?vid=061cf2de-4061-4cee-aaa8-ae01081499e5"},"vehicle_type_id":"4","last_reported":1744733464,"current_range_meters":3600,"station_id":"ce4bhjp2rcd13ifvqg90","pricing_plan_id":"cebpf4jnsgd1na2vs0mg"},{"bike_id":"6871d42b-107a-4471-b530-dd60ed637e9f","system_id":"levelo_inurba_marseille","lat":43.26928,"lon":5.38926,"is_reserved":false,"is_disabled":false,"rental_uris":{"android":"levelo://app?vid=6871d42b-107a-4471-b530-dd60ed637e9f","ios":"levelo://app?vid=6871d42b-107a-4471-b530-dd60ed637e9f"},"vehicle_type_id":"4","last_reported":1744733464,"current_range_meters":4400,"station_id":"ce4bhhh2rcd13ifvqfl0","pricing_plan_id":"cebpf4jnsgd1na2vs0mg"},{"bike_id":"8c050913-77ed-490d-ae06-4dfdf5991477","system_id":"levelo_inurba_marseille","lat":43.28942,"lon":5.39626,"is_reserved":false,"is_disabled":false,"rental_uris":{"android":"levelo://app?vid=8c050913-77ed-490d-ae06-4dfdf5991477","ios":"levelo://app?vid=8c050913-77ed-490d-ae06-4dfdf5991477"},"vehicle_type_id":"4","last_reported":1744733464,"current_range_meters":4400,"station_id":"ce4bh3h2rcd13ifvqdn0","pricing_plan_id":"cebpf4jnsgd1na2vs0mg"},{"bike_id":"bdd932e6-61fd-47db-a53c-15263b80a1f6","system_id":"levelo_inurba_marseille","lat":43.30542,"lon":5.36551,"is_reserved":false,"is_disabled":false,"rental_uris":{"android":"levelo://app?vid=bdd932e6-61fd-47db-a53c-15263b80a1f6","ios":"levelo://app?vid=bdd932e6-61fd-47db-a53c-15263b80a1f6"},"vehicle_type_id":"4","last_reported":1744733464,"current_range_meters":4400,"station_id":"ce4bgs12rcd13ifvqcag","pricing_plan_id":"cebpf4jnsgd1na2vs0mg"},{"bike_id":"95813c39-04d0-43ba-a961-97d874331c79","system_id":"levelo_inurba_marseille","lat":43.29785,"lon":5.39334,"is_reserved":false,"is_disabled":false,"rental_uris":{"android":"levelo://app?vid=95813c39-04d0-43ba-a961-97d874331c79","ios":"levelo://app?vid=95813c39-04d0-43ba-a961-97d874331c79"},"vehicle_type_id":"4","last_reported":1744733464,"current_range_meters":4400,"station_id":"chh1huq6cuj3fo74tm60","pricing_plan_id":"cebpf4jnsgd1na2vs0mg"},{"bike_id":"ed0c2a08-91f2-41ef-8cf9-18cd5180ebf9","system_id":"levelo_inurba_marseille","lat":43.29278,"lon":5.373733,"is_reserved":false,"is_disabled":false,"rental_uris":{"android":"levelo://app?vid=ed0c2a08-91f2-41ef-8cf9-18cd5180ebf9","ios":"levelo://app?vid=ed0c2a08-91f2-41ef-8cf9-18cd5180ebf9"},"vehicle_type_id":"4","last_reported":1744733464,"current_range_meters":4800,"station_id":"ce4bgi12rcd13ifvqb70","pricing_plan_id":"cebpf4jnsgd1na2vs0mg"},{"bike_id":"df313691-7286-44e5-b66d-ebe629fde22f","system_id":"levelo_inurba_marseille","lat":43.29582,"lon":5.36739,"is_reserved":false,"is_disabled":false,"rental_uris":{"android":"levelo://app?vid=df313691-7286-44e5-b66d-ebe629fde22f","ios":"levelo://app?vid=df313691-7286-44e5-b66d-ebe629fde22f"},"vehicle_type_id":"4","last_reported":1744733464,"current_range_meters":4800,"station_id":"ce4bgph2rcd13ifvqc2g","pricing_plan_id":"cebpf4jnsgd1na2vs0mg"},{"bike_id":"61977cf5-049d-42d8-97e7-852570288624","system_id":"levelo_inurba_marseille","lat":43.29428,"lon":5.38625,"is_reserved":false,"is_disabled":false,"rental_uris":{"android":"levelo://app?vid=61977cf5-049d-42d8-97e7-852570288624","ios":"levelo://app?vid=61977cf5-049d-42d8-97e7-852570288624"},"vehicle_type_id":"4","last_reported":1744733464,"current_range_meters":4800,"station_id":"ce4bh2h2rcd13ifvqdh0","pricing_plan_id":"cebpf4jnsgd1na2vs0mg"},{"bike_id":"e2ede125-7f6f-44d8-8f50-1d26c93495be","system_id":"levelo_inurba_marseille","lat":43.32107,"lon":5.36767,"is_reserved":false,"is_disabled":false,"rental_uris":{"android":"levelo://app?vid=e2ede125-7f6f-44d8-8f50-1d26c93495be","ios":"levelo://app?vid=e2ede125-7f6f-44d8-8f50-1d26c93495be"},"vehicle_type_id":"4","last_reported":1744733464,"current_range_meters":4800,"station_id":"ce4bhrh2rcd13ifvqhug","pricing_plan_id":"cebpf4jnsgd1na2vs0mg"},{"bike_id":"66d9901e-dd09-493e-abc0-647b0a2cb05d","system_id":"levelo_inurba_marseille","lat":43.21757,"lon":5.34623,"is_reserved":false,"is_disabled":false,"rental_uris":{"android":"levelo://app?vid=66d9901e-dd09-493e-abc0-647b0a2cb05d","ios":"levelo://app?vid=66d9901e-dd09-493e-abc0-647b0a2cb05d"},"vehicle_type_id":"4","last_reported":1744733464,"current_range_meters":5600,"station_id":"st_cvj6r9ubvosntc0bgbag","pricing_plan_id":"cebpf4jnsgd1na2vs0mg"},{"bike_id":"e7816af6-b51f-4a54-bfd2-977771406aea","system_id":"levelo_inurba_marseille","lat":43.2315,"lon":5.43728,"is_reserved":false,"is_disabled":false,"rental_uris":{"android":"levelo://app?vid=e7816af6-b51f-4a54-bfd2-977771406aea","ios":"levelo://app?vid=e7816af6-b51f-4a54-bfd2-977771406aea"},"vehicle_type_id":"4","last_reported":1744733464,"current_range_meters":4800,"station_id":"ce4bhmp2rcd13ifvqgog","pricing_plan_id":"cebpf4jnsgd1na2vs0mg"},{"bike_id":"993f0587-6384-41d7-8f7b-9eb45a9bd722","system_id":"levelo_inurba_marseille","lat":43.29807,"lon":5.381,"is_reserved":false,"is_disabled":false,"rental_uris":{"android":"levelo://app?vid=993f0587-6384-41d7-8f7b-9eb45a9bd722","ios":"levelo://app?vid=993f0587-6384-41d7-8f7b-9eb45a9bd722"},"vehicle_type_id":"4","last_reported":1744733464,"current_range_meters":4800,"station_id":"ce4bgip2rcd13ifvqbb0","pricing_plan_id":"cebpf4jnsgd1na2vs0mg"},{"bike_id":"ba6883ba-3ef6-4683-8dcc-d877614e7369","system_id":"levelo_inurba_marseille","lat":43.2957,"lon":5.42314,"is_reserved":false,"is_disabled":false,"rental_uris":{"android":"levelo://app?vid=ba6883ba-3ef6-4683-8dcc-d877614e7369","ios":"levelo://app?vid=ba6883ba-3ef6-4683-8dcc-d877614e7369"},"vehicle_type_id":"4","last_reported":1744733464,"current_range_meters":4800,"station_id":"ce4bhph2rcd13ifvqhdg","pricing_plan_id":"cebpf4jnsgd1na2vs0mg"},{"bike_id":"9b0fe2ec-28a1-4027-a572-124251376780","system_id":"levelo_inurba_marseille","lat":43.2606,"lon":5.39387,"is_reserved":false,"is_disabled":false,"rental_uris":{"android":"levelo://app?vid=9b0fe2ec-28a1-4027-a572-124251376780","ios":"levelo://app?vid=9b0fe2ec-28a1-4027-a572-124251376780"},"vehicle_type_id":"4","last_reported":1744733464,"current_range_meters":5600,"station_id":"ce4bhh92rcd13ifvqfj0","pricing_plan_id":"cebpf4jnsgd1na2vs0mg"},{"bike_id":"59569163-4b3f-4d03-8ea1-ddcf09179355","system_id":"levelo_inurba_marseille","lat":43.29027,"lon":5.39975,"is_reserved":false,"is_disabled":false,"rental_uris":{"android":"levelo://app?vid=59569163-4b3f-4d03-8ea1-ddcf09179355","ios":"levelo://app?vid=59569163-4b3f-4d03-8ea1-ddcf09179355"},"vehicle_type_id":"4","last_reported":1744733464,"current_range_meters":6000,"station_id":"ce4bh392rcd13ifvqdm0","pricing_plan_id":"cebpf4jnsgd1na2vs0mg"},{"bike_id":"1064b9a7-5947-42b0-b3ab-02b74ee64902","system_id":"levelo_inurba_marseille","lat":43.25012,"lon":5.38912,"is_reserved":false,"is_disabled":true,"rental_uris":{"android":"levelo://app?vid=1064b9a7-5947-42b0-b3ab-02b74ee64902","ios":"levelo://app?vid=1064b9a7-5947-42b0-b3ab-02b74ee64902"},"vehicle_type_id":"4","last_reported":1744733464,"current_range_meters":6000,"station_id":"ce4bhgp2rcd13ifvqfd0","pricing_plan_id":"cebpf4jnsgd1na2vs0mg"},{"bike_id":"c90796ad-a244-4ab0-99e6-ebb5d8f14975","system_id":"levelo_inurba_marseille","lat":43.30535,"lon":5.36551,"is_reserved":false,"is_disabled":false,"rental_uris":{"android":"levelo://app?vid=c90796ad-a244-4ab0-99e6-ebb5d8f14975","ios":"levelo://app?vid=c90796ad-a244-4ab0-99e6-ebb5d8f14975"},"vehicle_type_id":"4","last_reported":1744733464,"current_range_meters":6400,"station_id":"ce4bgs12rcd13ifvqcag","pricing_plan_id":"cebpf4jnsgd1na2vs0mg"},{"bike_id":"8a3bf840-3506-4ba7-899f-74db8ed9c86d","system_id":"levelo_inurba_marseille","lat":43.27622,"lon":5.3611,"is_reserved":false,"is_disabled":false,"rental_uris":{"android":"levelo://app?vid=8a3bf840-3506-4ba7-899f-74db8ed9c86d","ios":"levelo://app?vid=8a3bf840-3506-4ba7-899f-74db8ed9c86d"},"vehicle_type_id":"4","last_reported":1744733464,"current_range_meters":6400,"station_id":"ce4bgj92rcd13ifvqbe0","pricing_plan_id":"cebpf4jnsgd1na2vs0mg"},{"bike_id":"a2d9e14d-6890-46af-9be3-43cc5e33ccc8","system_id":"levelo_inurba_marseille","lat":43.262038,"lon":5.379332,"is_reserved":false,"is_disabled":false,"rental_uris":{"android":"levelo://app?vid=a2d9e14d-6890-46af-9be3-43cc5e33ccc8","ios":"levelo://app?vid=a2d9e14d-6890-46af-9be3-43cc5e33ccc8"},"vehicle_type_id":"4","last_reported":1744733464,"current_range_meters":6800,"station_id":"ce4bhjp2rcd13ifvqg90","pricing_plan_id":"cebpf4jnsgd1na2vs0mg"},{"bike_id":"f51517f3-2b51-41f0-a731-5b78f521cd81","system_id":"levelo_inurba_marseille","lat":43.286743,"lon":5.386606,"is_reserved":false,"is_disabled":false,"rental_uris":{"android":"levelo://app?vid=f51517f3-2b51-41f0-a731-5b78f521cd81","ios":"levelo://app?vid=f51517f3-2b51-41f0-a731-5b78f521cd81"},"vehicle_type_id":"4","last_reported":1744733464,"current_range_meters":6400,"station_id":"ce4bh492rcd13ifvqdug","pricing_plan_id":"cebpf4jnsgd1na2vs0mg"},{"bike_id":"50d1c769-78d0-4bbe-bcea-5856c9ba50eb","system_id":"levelo_inurba_marseille","lat":43.27947,"lon":5.41047,"is_reserved":false,"is_disabled":false,"rental_uris":{"android":"levelo://app?vid=50d1c769-78d0-4bbe-bcea-5856c9ba50eb","ios":"levelo://app?vid=50d1c769-78d0-4bbe-bcea-5856c9ba50eb"},"vehicle_type_id":"4","last_reported":1744733464,"current_range_meters":6800,"station_id":"ce4bhnp2rcd13ifvqh0g","pricing_plan_id":"cebpf4jnsgd1na2vs0mg"},{"bike_id":"8fb9e7bc-8a04-4f5d-9440-892df4b1b295","system_id":"levelo_inurba_marseille","lat":43.30949,"lon":5.39017,"is_reserved":false,"is_disabled":true,"rental_uris":{"android":"levelo://app?vid=8fb9e7bc-8a04-4f5d-9440-892df4b1b295","ios":"levelo://app?vid=8fb9e7bc-8a04-4f5d-9440-892df4b1b295"},"vehicle_type_id":"4","last_reported":1744733464,"current_range_meters":6800,"station_id":"ce4bgup2rcd13ifvqco0","pricing_plan_id":"cebpf4jnsgd1na2vs0mg"},{"bike_id":"6e813554-554a-49dd-9009-02d95efd3de7","system_id":"levelo_inurba_marseille","lat":43.32427,"lon":5.3911,"is_reserved":false,"is_disabled":false,"rental_uris":{"android":"levelo://app?vid=6e813554-554a-49dd-9009-02d95efd3de7","ios":"levelo://app?vid=6e813554-554a-49dd-9009-02d95efd3de7"},"vehicle_type_id":"4","last_reported":1744733464,"current_range_meters":6800,"station_id":"","pricing_plan_id":"cebpf4jnsgd1na2vs0mg"},{"bike_id":"fcf2cf62-d2be-42f8-abfb-5a08a2e9010d","system_id":"levelo_inurba_marseille","lat":43.25083,"lon":5.39541,"is_reserved":false,"is_disabled":false,"rental_uris":{"android":"levelo://app?vid=fcf2cf62-d2be-42f8-abfb-5a08a2e9010d","ios":"levelo://app?vid=fcf2cf62-d2be-42f8-abfb-5a08a2e9010d"},"vehicle_type_id":"4","last_reported":1744733464,"current_range_meters":7200,"station_id":"ce4bhm12rcd13ifvqgkg","pricing_plan_id":"cebpf4jnsgd1na2vs0mg"},{"bike_id":"e90db5e6-ef1a-4f17-9ce5-08c5d90100eb","system_id":"levelo_inurba_marseille","lat":43.25821,"lon":5.3943,"is_reserved":false,"is_disabled":false,"rental_uris":{"android":"levelo://app?vid=e90db5e6-ef1a-4f17-9ce5-08c5d90100eb","ios":"levelo://app?vid=e90db5e6-ef1a-4f17-9ce5-08c5d90100eb"},"vehicle_type_id":"4","last_reported":1744733464,"current_range_meters":7200,"station_id":"ce4bhip2rcd13ifvqft0","pricing_plan_id":"cebpf4jnsgd1na2vs0mg"},{"bike_id":"7ee0a195-ef50-431c-9646-c696f38b40f5","system_id":"levelo_inurba_marseille","lat":43.29621,"lon":5.37168,"is_reserved":false,"is_disabled":false,"rental_uris":{"android":"levelo://app?vid=7ee0a195-ef50-431c-9646-c696f38b40f5","ios":"levelo://app?vid=7ee0a195-ef50-431c-9646-c696f38b40f5"},"vehicle_type_id":"4","last_reported":1744733464,"current_range_meters":7200,"station_id":"ce4bgnh2rcd13ifvqc0g","pricing_plan_id":"cebpf4jnsgd1na2vs0mg"},{"bike_id":"2f93173f-d02c-4e29-ab59-1fff882697d7","system_id":"levelo_inurba_marseille","lat":43.24071,"lon":5.37763,"is_reserved":false,"is_disabled":false,"rental_uris":{"android":"levelo://app?vid=2f93173f-d02c-4e29-ab59-1fff882697d7","ios":"levelo://app?vid=2f93173f-d02c-4e29-ab59-1fff882697d7"},"vehicle_type_id":"4","last_reported":1744733464,"current_range_meters":7200,"station_id":"ce4bhnp2rcd13ifvqgvg","pricing_plan_id":"cebpf4jnsgd1na2vs0mg"},{"bike_id":"d64aa8f0-0884-41cf-84e6-ae25f8a6ae2a","system_id":"levelo_inurba_marseille","lat":43.2857,"lon":5.37777,"is_reserved":false,"is_disabled":false,"rental_uris":{"android":"levelo://app?vid=d64aa8f0-0884-41cf-84e6-ae25f8a6ae2a","ios":"levelo://app?vid=d64aa8f0-0884-41cf-84e6-ae25f8a6ae2a"},"vehicle_type_id":"4","last_reported":1744733464,"current_range_meters":7200,"station_id":"","pricing_plan_id":"cebpf4jnsgd1na2vs0mg"},{"bike_id":"b3fdd179-a524-44fa-b316-2cbd47e8b6fc","system_id":"levelo_inurba_marseille","lat":43.26228,"lon":5.40453,"is_reserved":false,"is_disabled":false,"rental_uris":{"android":"levelo://app?vid=b3fdd179-a524-44fa-b316-2cbd47e8b6fc","ios":"levelo://app?vid=b3fdd179-a524-44fa-b316-2cbd47e8b6fc"},"vehicle_type_id":"4","last_reported":1744733464,"current_range_meters":8000,"station_id":"ce4bhmh2rcd13ifvqgmg","pricing_plan_id":"cebpf4jnsgd1na2vs0mg"},{"bike_id":"331fa680-e1b3-4f1a-9089-ec73be4f2340","system_id":"levelo_inurba_marseille","lat":43.30254,"lon":5.40063,"is_reserved":false,"is_disabled":false,"rental_uris":{"android":"levelo://app?vid=331fa680-e1b3-4f1a-9089-ec73be4f2340","ios":"levelo://app?vid=331fa680-e1b3-4f1a-9089-ec73be4f2340"},"vehicle_type_id":"4","last_reported":1744733464,"current_range_meters":10800,"station_id":"ce4bgvh2rcd13ifvqcs0","pricing_plan_id":"cebpf4jnsgd1na2vs0mg"},{"bike_id":"83dcf6ce-3542-40a0-809c-1d2722ba62cb","system_id":"levelo_inurba_marseille","lat":43.25004,"lon":5.38924,"is_reserved":false,"is_disabled":false,"rental_uris":{"android":"levelo://app?vid=83dcf6ce-3542-40a0-809c-1d2722ba62cb","ios":"levelo://app?vid=83dcf6ce-3542-40a0-809c-1d2722ba62cb"},"vehicle_type_id":"4","last_reported":1744733464,"current_range_meters":10000,"station_id":"ce4bhgp2rcd13ifvqfd0","pricing_plan_id":"cebpf4jnsgd1na2vs0mg"},{"bike_id":"a34127fd-c8f9-4f47-97f2-505bd215c0ce","system_id":"levelo_inurba_marseille","lat":43.28402,"lon":5.37515,"is_reserved":false,"is_disabled":false,"rental_uris":{"android":"levelo://app?vid=a34127fd-c8f9-4f47-97f2-505bd215c0ce","ios":"levelo://app?vid=a34127fd-c8f9-4f47-97f2-505bd215c0ce"},"vehicle_type_id":"4","last_reported":1744733464,"current_range_meters":8000,"station_id":"ce4bh412rcd13ifvqds0","pricing_plan_id":"cebpf4jnsgd1na2vs0mg"},{"bike_id":"a0636e31-c89e-4ae1-aea4-880988d0da0e","system_id":"levelo_inurba_marseille","lat":43.29561,"lon":5.42291,"is_reserved":false,"is_disabled":false,"rental_uris":{"android":"levelo://app?vid=a0636e31-c89e-4ae1-aea4-880988d0da0e","ios":"levelo://app?vid=a0636e31-c89e-4ae1-aea4-880988d0da0e"},"vehicle_type_id":"4","last_reported":1744733464,"current_range_meters":8000,"station_id":"ce4bhph2rcd13ifvqhdg","pricing_plan_id":"cebpf4jnsgd1na2vs0mg"},{"bike_id":"58a44300-d462-43f8-bb1d-97b631a857d1","system_id":"levelo_inurba_marseille","lat":43.29568,"lon":5.39984,"is_reserved":false,"is_disabled":false,"rental_uris":{"android":"levelo://app?vid=58a44300-d462-43f8-bb1d-97b631a857d1","ios":"levelo://app?vid=58a44300-d462-43f8-bb1d-97b631a857d1"},"vehicle_type_id":"4","last_reported":1744733464,"current_range_meters":8000,"station_id":"ce4bh312rcd13ifvqdj0","pricing_plan_id":"cebpf4jnsgd1na2vs0mg"},{"bike_id":"a1a870a4-daee-4a39-9b8b-6b0eda06560c","system_id":"levelo_inurba_marseille","lat":43.24547,"lon":5.3952,"is_reserved":false,"is_disabled":false,"rental_uris":{"android":"levelo://app?vid=a1a870a4-daee-4a39-9b8b-6b0eda06560c","ios":"levelo://app?vid=a1a870a4-daee-4a39-9b8b-6b0eda06560c"},"vehicle_type_id":"4","last_reported":1744733464,"current_range_meters":7200,"station_id":"ce4bhlp2rcd13ifvqgjg","pricing_plan_id":"cebpf4jnsgd1na2vs0mg"},{"bike_id":"4e6524b6-5132-41d3-a759-888a060ccf51","system_id":"levelo_inurba_marseille","lat":43.30316,"lon":5.36892,"is_reserved":false,"is_disabled":false,"rental_uris":{"android":"levelo://app?vid=4e6524b6-5132-41d3-a759-888a060ccf51","ios":"levelo://app?vid=4e6524b6-5132-41d3-a759-888a060ccf51"},"vehicle_type_id":"4","last_reported":1744733464,"current_range_meters":8400,"station_id":"","pricing_plan_id":"cebpf4jnsgd1na2vs0mg"},{"bike_id":"ec461e80-ac87-4698-9b7e-f3311738fcc9","system_id":"levelo_inurba_marseille","lat":43.253997,"lon":5.381453,"is_reserved":false,"is_disabled":false,"rental_uris":{"android":"levelo://app?vid=ec461e80-ac87-4698-9b7e-f3311738fcc9","ios":"levelo://app?vid=ec461e80-ac87-4698-9b7e-f3311738fcc9"},"vehicle_type_id":"4","last_reported":1744733464,"current_range_meters":8400,"station_id":"ce4bhh12rcd13ifvqff0","pricing_plan_id":"cebpf4jnsgd1na2vs0mg"},{"bike_id":"907af1d3-9c3f-4fd6-be62-5be038000d37","system_id":"levelo_inurba_marseille","lat":43.25107,"lon":5.40341,"is_reserved":false,"is_disabled":false,"rental_uris":{"android":"levelo://app?vid=907af1d3-9c3f-4fd6-be62-5be038000d37","ios":"levelo://app?vid=907af1d3-9c3f-4fd6-be62-5be038000d37"},"vehicle_type_id":"4","last_reported":1744733464,"current_range_meters":8400,"station_id":"ce4bhlh2rcd13ifvqgig","pricing_plan_id":"cebpf4jnsgd1na2vs0mg"},{"bike_id":"5a3c872e-88fd-4a2a-94c5-387e1e10a5b1","system_id":"levelo_inurba_marseille","lat":43.29422,"lon":5.38665,"is_reserved":false,"is_disabled":false,"rental_uris":{"android":"levelo://app?vid=5a3c872e-88fd-4a2a-94c5-387e1e10a5b1","ios":"levelo://app?vid=5a3c872e-88fd-4a2a-94c5-387e1e10a5b1"},"vehicle_type_id":"4","last_reported":1744733464,"current_range_meters":8400,"station_id":"ce4bh2h2rcd13ifvqdh0","pricing_plan_id":"cebpf4jnsgd1na2vs0mg"},{"bike_id":"1f90bb2c-1a15-4146-8cda-ba3da8e592ea","system_id":"levelo_inurba_marseille","lat":43.29871,"lon":5.39737,"is_reserved":false,"is_disabled":false,"rental_uris":{"android":"levelo://app?vid=1f90bb2c-1a15-4146-8cda-ba3da8e592ea","ios":"levelo://app?vid=1f90bb2c-1a15-4146-8cda-ba3da8e592ea"},"vehicle_type_id":"4","last_reported":1744733464,"current_range_meters":8400,"station_id":"ce4bh0h2rcd13ifvqd50","pricing_plan_id":"cebpf4jnsgd1na2vs0mg"},{"bike_id":"ef734429-5e24-498b-98db-95ee16873a56","system_id":"levelo_inurba_marseille","lat":43.27083,"lon":5.42276,"is_reserved":false,"is_disabled":false,"rental_uris":{"android":"levelo://app?vid=ef734429-5e24-498b-98db-95ee16873a56","ios":"levelo://app?vid=ef734429-5e24-498b-98db-95ee16873a56"},"vehicle_type_id":"4","last_reported":1744733464,"current_range_meters":8800,"station_id":"ce4bhk92rcd13ifvqgb0","pricing_plan_id":"cebpf4jnsgd1na2vs0mg"},{"bike_id":"69cbb39a-ea6a-4403-87a3-4727788bb5f5","system_id":"levelo_inurba_marseille","lat":43.33026,"lon":5.39038,"is_reserved":false,"is_disabled":false,"rental_uris":{"android":"levelo://app?vid=69cbb39a-ea6a-4403-87a3-4727788bb5f5","ios":"levelo://app?vid=69cbb39a-ea6a-4403-87a3-4727788bb5f5"},"vehicle_type_id":"4","last_reported":1744733464,"current_range_meters":8800,"station_id":"ce4bhr92rcd13ifvqhrg","pricing_plan_id":"cebpf4jnsgd1na2vs0mg"},{"bike_id":"10b9c5ef-75d9-4fd6-ad56-83fa358ea9e2","system_id":"levelo_inurba_marseille","lat":43.27946,"lon":5.41048,"is_reserved":false,"is_disabled":false,"rental_uris":{"android":"levelo://app?vid=10b9c5ef-75d9-4fd6-ad56-83fa358ea9e2","ios":"levelo://app?vid=10b9c5ef-75d9-4fd6-ad56-83fa358ea9e2"},"vehicle_type_id":"4","last_reported":1744733464,"current_range_meters":8800,"station_id":"ce4bhnp2rcd13ifvqh0g","pricing_plan_id":"cebpf4jnsgd1na2vs0mg"},{"bike_id":"63c645d2-0fb1-4f08-a498-33e4fb95e84b","system_id":"levelo_inurba_marseille","lat":43.23155,"lon":5.43708,"is_reserved":false,"is_disabled":false,"rental_uris":{"android":"levelo://app?vid=63c645d2-0fb1-4f08-a498-33e4fb95e84b","ios":"levelo://app?vid=63c645d2-0fb1-4f08-a498-33e4fb95e84b"},"vehicle_type_id":"4","last_reported":1744733464,"current_range_meters":8400,"station_id":"ce4bhmp2rcd13ifvqgog","pricing_plan_id":"cebpf4jnsgd1na2vs0mg"},{"bike_id":"a668abbc-a092-49f5-9124-b0b71b0d2e46","system_id":"levelo_inurba_marseille","lat":43.2293,"lon":5.3538,"is_reserved":false,"is_disabled":false,"rental_uris":{"android":"levelo://app?vid=a668abbc-a092-49f5-9124-b0b71b0d2e46","ios":"levelo://app?vid=a668abbc-a092-49f5-9124-b0b71b0d2e46"},"vehicle_type_id":"4","last_reported":1744733464,"current_range_meters":8800,"station_id":"cpo3532slgdg3j2ikp40","pricing_plan_id":"cebpf4jnsgd1na2vs0mg"},{"bike_id":"52a5c549-5317-4476-a388-5de2042edfc4","system_id":"levelo_inurba_marseille","lat":43.30216,"lon":5.39467,"is_reserved":false,"is_disabled":false,"rental_uris":{"android":"levelo://app?vid=52a5c549-5317-4476-a388-5de2042edfc4","ios":"levelo://app?vid=52a5c549-5317-4476-a388-5de2042edfc4"},"vehicle_type_id":"4","last_reported":1744733464,"current_range_meters":9200,"station_id":"ce4bh0p2rcd13ifvqd70","pricing_plan_id":"cebpf4jnsgd1na2vs0mg"},{"bike_id":"347598f2-7636-431d-aa2a-ee922a6e92de","system_id":"levelo_inurba_marseille","lat":43.28941,"lon":5.36391,"is_reserved":false,"is_disabled":false,"rental_uris":{"android":"levelo://app?vid=347598f2-7636-431d-aa2a-ee922a6e92de","ios":"levelo://app?vid=347598f2-7636-431d-aa2a-ee922a6e92de"},"vehicle_type_id":"4","last_reported":1744733464,"current_range_meters":9200,"station_id":"ce4bhc92rcd13ifvqetg","pricing_plan_id":"cebpf4jnsgd1na2vs0mg"},{"bike_id":"1395488a-de73-4c0c-99f8-ead07ddbb67d","system_id":"levelo_inurba_marseille","lat":43.23998,"lon":5.36695,"is_reserved":false,"is_disabled":false,"rental_uris":{"android":"levelo://app?vid=1395488a-de73-4c0c-99f8-ead07ddbb67d","ios":"levelo://app?vid=1395488a-de73-4c0c-99f8-ead07ddbb67d"},"vehicle_type_id":"4","last_reported":1744733464,"current_range_meters":9200,"station_id":"","pricing_plan_id":"cebpf4jnsgd1na2vs0mg"},{"bike_id":"27a55245-8dd2-4f1a-af63-95a9d7b71690","system_id":"levelo_inurba_marseille","lat":43.31083,"lon":5.37857,"is_reserved":false,"is_disabled":false,"rental_uris":{"android":"levelo://app?vid=27a55245-8dd2-4f1a-af63-95a9d7b71690","ios":"levelo://app?vid=27a55245-8dd2-4f1a-af63-95a9d7b71690"},"vehicle_type_id":"4","last_reported":1744733464,"current_range_meters":9200,"station_id":"","pricing_plan_id":"cebpf4jnsgd1na2vs0mg"},{"bike_id":"14a5fce5-bf9a-4396-8396-c321c58474da","system_id":"levelo_inurba_marseille","lat":43.281452,"lon":5.404959,"is_reserved":false,"is_disabled":false,"rental_uris":{"android":"levelo://app?vid=14a5fce5-bf9a-4396-8396-c321c58474da","ios":"levelo://app?vid=14a5fce5-bf9a-4396-8396-c321c58474da"},"vehicle_type_id":"4","last_reported":1744733464,"current_range_meters":9200,"station_id":"ce4bho12rcd13ifvqh1g","pricing_plan_id":"cebpf4jnsgd1na2vs0mg"},{"bike_id":"208fbb31-d6b1-4921-8e09-562a13d436cb","system_id":"levelo_inurba_marseille","lat":43.2903,"lon":5.38662,"is_reserved":false,"is_disabled":false,"rental_uris":{"android":"levelo://app?vid=208fbb31-d6b1-4921-8e09-562a13d436cb","ios":"levelo://app?vid=208fbb31-d6b1-4921-8e09-562a13d436cb"},"vehicle_type_id":"4","last_reported":1744733464,"current_range_meters":9600,"station_id":"ce4bh4p2rcd13ifvqe0g","pricing_plan_id":"cebpf4jnsgd1na2vs0mg"},{"bike_id":"bd839f73-9c0c-470d-93a3-e885dfa7630a","system_id":"levelo_inurba_marseille","lat":43.30652,"lon":5.40073,"is_reserved":false,"is_disabled":false,"rental_uris":{"android":"levelo://app?vid=bd839f73-9c0c-470d-93a3-e885dfa7630a","ios":"levelo://app?vid=bd839f73-9c0c-470d-93a3-e885dfa7630a"},"vehicle_type_id":"4","last_reported":1744733464,"current_range_meters":9600,"station_id":"ce4bh112rcd13ifvqda0","pricing_plan_id":"cebpf4jnsgd1na2vs0mg"},{"bike_id":"629f4c9a-2873-4243-8b4d-cc9d14be569b","system_id":"levelo_inurba_marseille","lat":43.28155,"lon":5.42648,"is_reserved":false,"is_disabled":false,"rental_uris":{"android":"levelo://app?vid=629f4c9a-2873-4243-8b4d-cc9d14be569b","ios":"levelo://app?vid=629f4c9a-2873-4243-8b4d-cc9d14be569b"},"vehicle_type_id":"4","last_reported":1744733464,"current_range_meters":9600,"station_id":"ce4bhnh2rcd13ifvqgug","pricing_plan_id":"cebpf4jnsgd1na2vs0mg"},{"bike_id":"c40145f8-30a8-42bf-bab7-4bdedf64e2fa","system_id":"levelo_inurba_marseille","lat":43.25125,"lon":5.40354,"is_reserved":false,"is_disabled":false,"rental_uris":{"android":"levelo://app?vid=c40145f8-30a8-42bf-bab7-4bdedf64e2fa","ios":"levelo://app?vid=c40145f8-30a8-42bf-bab7-4bdedf64e2fa"},"vehicle_type_id":"4","last_reported":1744733464,"current_range_meters":9600,"station_id":"ce4bhlh2rcd13ifvqgig","pricing_plan_id":"cebpf4jnsgd1na2vs0mg"},{"bike_id":"e34c8e62-61a8-4434-94a1-0ee16daf6e9d","system_id":"levelo_inurba_marseille","lat":43.25501,"lon":5.37655,"is_reserved":false,"is_disabled":false,"rental_uris":{"android":"levelo://app?vid=e34c8e62-61a8-4434-94a1-0ee16daf6e9d","ios":"levelo://app?vid=e34c8e62-61a8-4434-94a1-0ee16daf6e9d"},"vehicle_type_id":"4","last_reported":1744733464,"current_range_meters":9600,"station_id":"ce4bhh12rcd13ifvqff0","pricing_plan_id":"cebpf4jnsgd1na2vs0mg"},{"bike_id":"b7ab99ba-94bb-4274-aca7-e6131d0e5ab1","system_id":"levelo_inurba_marseille","lat":43.24164,"lon":5.36442,"is_reserved":false,"is_disabled":false,"rental_uris":{"android":"levelo://app?vid=b7ab99ba-94bb-4274-aca7-e6131d0e5ab1","ios":"levelo://app?vid=b7ab99ba-94bb-4274-aca7-e6131d0e5ab1"},"vehicle_type_id":"4","last_reported":1744733464,"current_range_meters":10000,"station_id":"cpo36qri1sfpv3e86is0","pricing_plan_id":"cebpf4jnsgd1na2vs0mg"},{"bike_id":"76b474bb-51c3-4ddf-998b-32f36fbc53a0","system_id":"levelo_inurba_marseille","lat":43.27929,"lon":5.41052,"is_reserved":false,"is_disabled":false,"rental_uris":{"android":"levelo://app?vid=76b474bb-51c3-4ddf-998b-32f36fbc53a0","ios":"levelo://app?vid=76b474bb-51c3-4ddf-998b-32f36fbc53a0"},"vehicle_type_id":"4","last_reported":1744733464,"current_range_meters":10000,"station_id":"ce4bhnp2rcd13ifvqh0g","pricing_plan_id":"cebpf4jnsgd1na2vs0mg"},{"bike_id":"ecc26774-7f80-4834-883f-3a8990a5fcbe","system_id":"levelo_inurba_marseille","lat":43.23925,"lon":5.36551,"is_reserved":false,"is_disabled":false,"rental_uris":{"android":"levelo://app?vid=ecc26774-7f80-4834-883f-3a8990a5fcbe","ios":"levelo://app?vid=ecc26774-7f80-4834-883f-3a8990a5fcbe"},"vehicle_type_id":"4","last_reported":1744733464,"current_range_meters":10000,"station_id":"","pricing_plan_id":"cebpf4jnsgd1na2vs0mg"},{"bike_id":"6086be1f-2f41-4b8c-9ce9-011bcea915da","system_id":"levelo_inurba_marseille","lat":43.31322,"lon":5.37338,"is_reserved":false,"is_disabled":false,"rental_uris":{"android":"levelo://app?vid=6086be1f-2f41-4b8c-9ce9-011bcea915da","ios":"levelo://app?vid=6086be1f-2f41-4b8c-9ce9-011bcea915da"},"vehicle_type_id":"4","last_reported":1744733464,"current_range_meters":10000,"station_id":"","pricing_plan_id":"cebpf4jnsgd1na2vs0mg"},{"bike_id":"25701e82-164a-43c0-a723-b065be4c1ee9","system_id":"levelo_inurba_marseille","lat":43.29957,"lon":5.41318,"is_reserved":false,"is_disabled":false,"rental_uris":{"android":"levelo://app?vid=25701e82-164a-43c0-a723-b065be4c1ee9","ios":"levelo://app?vid=25701e82-164a-43c0-a723-b065be4c1ee9"},"vehicle_type_id":"4","last_reported":1744733464,"current_range_meters":10000,"station_id":"ce4bhp12rcd13ifvqh9g","pricing_plan_id":"cebpf4jnsgd1na2vs0mg"},{"bike_id":"09f681bd-50b9-4548-b7fa-c0f94313f5e6","system_id":"levelo_inurba_marseille","lat":43.29937,"lon":5.36536,"is_reserved":false,"is_disabled":false,"rental_uris":{"android":"levelo://app?vid=09f681bd-50b9-4548-b7fa-c0f94313f5e6","ios":"levelo://app?vid=09f681bd-50b9-4548-b7fa-c0f94313f5e6"},"vehicle_type_id":"4","last_reported":1744733464,"current_range_meters":10000,"station_id":"ce4bgm92rcd13ifvqbr0","pricing_plan_id":"cebpf4jnsgd1na2vs0mg"},{"bike_id":"45152fd8-c07c-4d52-b7a7-6670add35e00","system_id":"levelo_inurba_marseille","lat":43.261,"lon":5.42093,"is_reserved":false,"is_disabled":false,"rental_uris":{"android":"levelo://app?vid=45152fd8-c07c-4d52-b7a7-6670add35e00","ios":"levelo://app?vid=45152fd8-c07c-4d52-b7a7-6670add35e00"},"vehicle_type_id":"4","last_reported":1744733464,"current_range_meters":10000,"station_id":"","pricing_plan_id":"cebpf4jnsgd1na2vs0mg"},{"bike_id":"14e5f5ae-85d6-4f44-a1e0-489ecae2900a","system_id":"levelo_inurba_marseille","lat":43.30412,"lon":5.38885,"is_reserved":false,"is_disabled":false,"rental_uris":{"android":"levelo://app?vid=14e5f5ae-85d6-4f44-a1e0-489ecae2900a","ios":"levelo://app?vid=14e5f5ae-85d6-4f44-a1e0-489ecae2900a"},"vehicle_type_id":"4","last_reported":1744733464,"current_range_meters":10000,"station_id":"ce4bgk12rcd13ifvqbi0","pricing_plan_id":"cebpf4jnsgd1na2vs0mg"},{"bike_id":"fcf2583e-f88d-4eb5-b3c0-d6a95a51a54a","system_id":"levelo_inurba_marseille","lat":43.294701,"lon":5.398058,"is_reserved":false,"is_disabled":false,"rental_uris":{"android":"levelo://app?vid=fcf2583e-f88d-4eb5-b3c0-d6a95a51a54a","ios":"levelo://app?vid=fcf2583e-f88d-4eb5-b3c0-d6a95a51a54a"},"vehicle_type_id":"4","last_reported":1744733464,"current_range_meters":10000,"station_id":"ce4bh3h2rcd13ifvqdo0","pricing_plan_id":"cebpf4jnsgd1na2vs0mg"},{"bike_id":"6f84f83e-9c04-4eb9-8ecb-871a50c63c80","system_id":"levelo_inurba_marseille","lat":43.2885,"lon":5.39313,"is_reserved":false,"is_disabled":false,"rental_uris":{"android":"levelo://app?vid=6f84f83e-9c04-4eb9-8ecb-871a50c63c80","ios":"levelo://app?vid=6f84f83e-9c04-4eb9-8ecb-871a50c63c80"},"vehicle_type_id":"4","last_reported":1744733464,"current_range_meters":10000,"station_id":"ce4bh2p2rcd13ifvqdi0","pricing_plan_id":"cebpf4jnsgd1na2vs0mg"},{"bike_id":"f566d7aa-6d1c-4ec5-b4ea-62b9c015b221","system_id":"levelo_inurba_marseille","lat":43.27811,"lon":5.40706,"is_reserved":false,"is_disabled":false,"rental_uris":{"android":"levelo://app?vid=f566d7aa-6d1c-4ec5-b4ea-62b9c015b221","ios":"levelo://app?vid=f566d7aa-6d1c-4ec5-b4ea-62b9c015b221"},"vehicle_type_id":"4","last_reported":1744733464,"current_range_meters":10800,"station_id":"ce4bhnh2rcd13ifvqgtg","pricing_plan_id":"cebpf4jnsgd1na2vs0mg"},{"bike_id":"37342bdf-d586-43ba-a25b-da22b3393da6","system_id":"levelo_inurba_marseille","lat":43.29172,"lon":5.37536,"is_reserved":false,"is_disabled":false,"rental_uris":{"android":"levelo://app?vid=37342bdf-d586-43ba-a25b-da22b3393da6","ios":"levelo://app?vid=37342bdf-d586-43ba-a25b-da22b3393da6"},"vehicle_type_id":"4","last_reported":1744733464,"current_range_meters":10800,"station_id":"","pricing_plan_id":"cebpf4jnsgd1na2vs0mg"},{"bike_id":"697ec578-3b6a-4699-afb3-7febaf81300e","system_id":"levelo_inurba_marseille","lat":43.28936,"lon":5.36394,"is_reserved":false,"is_disabled":false,"rental_uris":{"android":"levelo://app?vid=697ec578-3b6a-4699-afb3-7febaf81300e","ios":"levelo://app?vid=697ec578-3b6a-4699-afb3-7febaf81300e"},"vehicle_type_id":"4","last_reported":1744733464,"current_range_meters":11200,"station_id":"ce4bhc92rcd13ifvqetg","pricing_plan_id":"cebpf4jnsgd1na2vs0mg"},{"bike_id":"ef28e595-22b1-4e7c-8f9f-3d030b1f53eb","system_id":"levelo_inurba_marseille","lat":43.30161,"lon":5.37507,"is_reserved":false,"is_disabled":false,"rental_uris":{"android":"levelo://app?vid=ef28e595-22b1-4e7c-8f9f-3d030b1f53eb","ios":"levelo://app?vid=ef28e595-22b1-4e7c-8f9f-3d030b1f53eb"},"vehicle_type_id":"4","last_reported":1744733464,"current_range_meters":11200,"station_id":"","pricing_plan_id":"cebpf4jnsgd1na2vs0mg"},{"bike_id":"7d96211b-316e-4dd9-b811-7aed0db285a8","system_id":"levelo_inurba_marseille","lat":43.29033,"lon":5.39977,"is_reserved":false,"is_disabled":false,"rental_uris":{"android":"levelo://app?vid=7d96211b-316e-4dd9-b811-7aed0db285a8","ios":"levelo://app?vid=7d96211b-316e-4dd9-b811-7aed0db285a8"},"vehicle_type_id":"4","last_reported":1744733464,"current_range_meters":10800,"station_id":"ce4bh392rcd13ifvqdm0","pricing_plan_id":"cebpf4jnsgd1na2vs0mg"},{"bike_id":"288e7a5f-2cfb-4301-9dae-a03607404f51","system_id":"levelo_inurba_marseille","lat":43.33458,"lon":5.40098,"is_reserved":false,"is_disabled":false,"rental_uris":{"android":"levelo://app?vid=288e7a5f-2cfb-4301-9dae-a03607404f51","ios":"levelo://app?vid=288e7a5f-2cfb-4301-9dae-a03607404f51"},"vehicle_type_id":"4","last_reported":1744733464,"current_range_meters":11600,"station_id":"","pricing_plan_id":"cebpf4jnsgd1na2vs0mg"},{"bike_id":"bede6e98-8eba-4822-8219-532213ffcb93","system_id":"levelo_inurba_marseille","lat":43.29526,"lon":5.39398,"is_reserved":false,"is_disabled":false,"rental_uris":{"android":"levelo://app?vid=bede6e98-8eba-4822-8219-532213ffcb93","ios":"levelo://app?vid=bede6e98-8eba-4822-8219-532213ffcb93"},"vehicle_type_id":"4","last_reported":1744733464,"current_range_meters":11600,"station_id":"ce4bh292rcd13ifvqdf0","pricing_plan_id":"cebpf4jnsgd1na2vs0mg"},{"bike_id":"f1415cb2-c393-40c2-8dac-29a28de75942","system_id":"levelo_inurba_marseille","lat":43.25582,"lon":5.38238,"is_reserved":false,"is_disabled":false,"rental_uris":{"android":"levelo://app?vid=f1415cb2-c393-40c2-8dac-29a28de75942","ios":"levelo://app?vid=f1415cb2-c393-40c2-8dac-29a28de75942"},"vehicle_type_id":"4","last_reported":1744733464,"current_range_meters":11600,"station_id":"ce4bhih2rcd13ifvqfs0","pricing_plan_id":"cebpf4jnsgd1na2vs0mg"},{"bike_id":"97b0bcdd-d15b-4e05-afe0-c300919cb04d","system_id":"levelo_inurba_marseille","lat":43.29559,"lon":5.42293,"is_reserved":false,"is_disabled":false,"rental_uris":{"android":"levelo://app?vid=97b0bcdd-d15b-4e05-afe0-c300919cb04d","ios":"levelo://app?vid=97b0bcdd-d15b-4e05-afe0-c300919cb04d"},"vehicle_type_id":"4","last_reported":1744733464,"current_range_meters":11600,"station_id":"ce4bhph2rcd13ifvqhdg","pricing_plan_id":"cebpf4jnsgd1na2vs0mg"},{"bike_id":"5f1d2cc6-9537-4f3a-a712-d7dbc4a535f7","system_id":"levelo_inurba_marseille","lat":43.29636,"lon":5.37148,"is_reserved":false,"is_disabled":false,"rental_uris":{"android":"levelo://app?vid=5f1d2cc6-9537-4f3a-a712-d7dbc4a535f7","ios":"levelo://app?vid=5f1d2cc6-9537-4f3a-a712-d7dbc4a535f7"},"vehicle_type_id":"4","last_reported":1744733464,"current_range_meters":11600,"station_id":"ce4bgnh2rcd13ifvqc0g","pricing_plan_id":"cebpf4jnsgd1na2vs0mg"},{"bike_id":"d7e252c8-2da1-45d8-adcf-55abfb767b1c","system_id":"levelo_inurba_marseille","lat":43.302951,"lon":5.404446,"is_reserved":false,"is_disabled":false,"rental_uris":{"android":"levelo://app?vid=d7e252c8-2da1-45d8-adcf-55abfb767b1c","ios":"levelo://app?vid=d7e252c8-2da1-45d8-adcf-55abfb767b1c"},"vehicle_type_id":"4","last_reported":1744733464,"current_range_meters":11200,"station_id":"ce4bh012rcd13ifvqd10","pricing_plan_id":"cebpf4jnsgd1na2vs0mg"},{"bike_id":"d3a0fbcc-8789-46e3-ad8a-8c877abb0794","system_id":"levelo_inurba_marseille","lat":43.29899,"lon":5.39758,"is_reserved":false,"is_disabled":false,"rental_uris":{"android":"levelo://app?vid=d3a0fbcc-8789-46e3-ad8a-8c877abb0794","ios":"levelo://app?vid=d3a0fbcc-8789-46e3-ad8a-8c877abb0794"},"vehicle_type_id":"4","last_reported":1744733464,"current_range_meters":12000,"station_id":"ce4bh0h2rcd13ifvqd50","pricing_plan_id":"cebpf4jnsgd1na2vs0mg"},{"bike_id":"21e8e50f-8d6b-4e3e-b24c-6f9f4069b144","system_id":"levelo_inurba_marseille","lat":43.31689,"lon":5.40477,"is_reserved":false,"is_disabled":false,"rental_uris":{"android":"levelo://app?vid=21e8e50f-8d6b-4e3e-b24c-6f9f4069b144","ios":"levelo://app?vid=21e8e50f-8d6b-4e3e-b24c-6f9f4069b144"},"vehicle_type_id":"4","last_reported":1744733464,"current_range_meters":11600,"station_id":"ce4bh012rcd13ifvqd00","pricing_plan_id":"cebpf4jnsgd1na2vs0mg"},{"bike_id":"b96d6b34-5f75-472c-aa95-1084b465c50d","system_id":"levelo_inurba_marseille","lat":43.310753,"lon":5.389254,"is_reserved":false,"is_disabled":false,"rental_uris":{"android":"levelo://app?vid=b96d6b34-5f75-472c-aa95-1084b465c50d","ios":"levelo://app?vid=b96d6b34-5f75-472c-aa95-1084b465c50d"},"vehicle_type_id":"4","last_reported":1744733464,"current_range_meters":12000,"station_id":"ce4bgk12rcd13ifvqbi0","pricing_plan_id":"cebpf4jnsgd1na2vs0mg"},{"bike_id":"075fcdf5-b249-40b2-bc7e-7ad517887fb8","system_id":"levelo_inurba_marseille","lat":43.27498,"lon":5.42461,"is_reserved":false,"is_disabled":false,"rental_uris":{"android":"levelo://app?vid=075fcdf5-b249-40b2-bc7e-7ad517887fb8","ios":"levelo://app?vid=075fcdf5-b249-40b2-bc7e-7ad517887fb8"},"vehicle_type_id":"4","last_reported":1744733464,"current_range_meters":12000,"station_id":"ce4bhn92rcd13ifvqgrg","pricing_plan_id":"cebpf4jnsgd1na2vs0mg"},{"bike_id":"47a85634-40b2-4bd1-8409-1d1cf2f06bdc","system_id":"levelo_inurba_marseille","lat":43.24062,"lon":5.3781,"is_reserved":false,"is_disabled":false,"rental_uris":{"android":"levelo://app?vid=47a85634-40b2-4bd1-8409-1d1cf2f06bdc","ios":"levelo://app?vid=47a85634-40b2-4bd1-8409-1d1cf2f06bdc"},"vehicle_type_id":"4","last_reported":1744733464,"current_range_meters":12400,"station_id":"ce4bhnp2rcd13ifvqgvg","pricing_plan_id":"cebpf4jnsgd1na2vs0mg"},{"bike_id":"3bffb734-4942-4429-be21-0822927f8b78","system_id":"levelo_inurba_marseille","lat":43.27921,"lon":5.39595,"is_reserved":false,"is_disabled":false,"rental_uris":{"android":"levelo://app?vid=3bffb734-4942-4429-be21-0822927f8b78","ios":"levelo://app?vid=3bffb734-4942-4429-be21-0822927f8b78"},"vehicle_type_id":"4","last_reported":1744733464,"current_range_meters":12400,"station_id":"ce4bhf92rcd13ifvqf40","pricing_plan_id":"cebpf4jnsgd1na2vs0mg"},{"bike_id":"b741ae25-eaf1-49a9-8832-10c8ed8bb77a","system_id":"levelo_inurba_marseille","lat":43.27992,"lon":5.40019,"is_reserved":false,"is_disabled":false,"rental_uris":{"android":"levelo://app?vid=b741ae25-eaf1-49a9-8832-10c8ed8bb77a","ios":"levelo://app?vid=b741ae25-eaf1-49a9-8832-10c8ed8bb77a"},"vehicle_type_id":"4","last_reported":1744733464,"current_range_meters":12400,"station_id":"ce4bho92rcd13ifvqh4g","pricing_plan_id":"cebpf4jnsgd1na2vs0mg"},{"bike_id":"d2d37f01-fa46-4fbc-a721-7789f4003663","system_id":"levelo_inurba_marseille","lat":43.24984,"lon":5.38978,"is_reserved":false,"is_disabled":false,"rental_uris":{"android":"levelo://app?vid=d2d37f01-fa46-4fbc-a721-7789f4003663","ios":"levelo://app?vid=d2d37f01-fa46-4fbc-a721-7789f4003663"},"vehicle_type_id":"4","last_reported":1744733464,"current_range_meters":12400,"station_id":"","pricing_plan_id":"cebpf4jnsgd1na2vs0mg"},{"bike_id":"50697cb2-7688-4a16-aff1-abee57d9dcf7","system_id":"levelo_inurba_marseille","lat":43.29793,"lon":5.38092,"is_reserved":false,"is_disabled":false,"rental_uris":{"android":"levelo://app?vid=50697cb2-7688-4a16-aff1-abee57d9dcf7","ios":"levelo://app?vid=50697cb2-7688-4a16-aff1-abee57d9dcf7"},"vehicle_type_id":"4","last_reported":1744733464,"current_range_meters":12400,"station_id":"ce4bgip2rcd13ifvqbb0","pricing_plan_id":"cebpf4jnsgd1na2vs0mg"},{"bike_id":"da2bf1af-5958-497c-ba69-fea3ed15c8e1","system_id":"levelo_inurba_marseille","lat":43.30271,"lon":5.37731,"is_reserved":false,"is_disabled":false,"rental_uris":{"android":"levelo://app?vid=da2bf1af-5958-497c-ba69-fea3ed15c8e1","ios":"levelo://app?vid=da2bf1af-5958-497c-ba69-fea3ed15c8e1"},"vehicle_type_id":"4","last_reported":1744733464,"current_range_meters":12400,"station_id":"ce4bguh2rcd13ifvqcj0","pricing_plan_id":"cebpf4jnsgd1na2vs0mg"},{"bike_id":"e75e5d8b-d990-4e6e-854f-3fe978336162","system_id":"levelo_inurba_marseille","lat":43.28444,"lon":5.3921,"is_reserved":false,"is_disabled":false,"rental_uris":{"android":"levelo://app?vid=e75e5d8b-d990-4e6e-854f-3fe978336162","ios":"levelo://app?vid=e75e5d8b-d990-4e6e-854f-3fe978336162"},"vehicle_type_id":"4","last_reported":1744733464,"current_range_meters":12800,"station_id":"ce4bhoh2rcd13ifvqh5g","pricing_plan_id":"cebpf4jnsgd1na2vs0mg"},{"bike_id":"bdbfa91d-f51b-4c92-a880-1cae845c2a5c","system_id":"levelo_inurba_marseille","lat":43.22955,"lon":5.35396,"is_reserved":false,"is_disabled":false,"rental_uris":{"android":"levelo://app?vid=bdbfa91d-f51b-4c92-a880-1cae845c2a5c","ios":"levelo://app?vid=bdbfa91d-f51b-4c92-a880-1cae845c2a5c"},"vehicle_type_id":"4","last_reported":1744733464,"current_range_meters":12800,"station_id":"cpo3532slgdg3j2ikp40","pricing_plan_id":"cebpf4jnsgd1na2vs0mg"},{"bike_id":"871c9d24-8401-40c1-825b-326bef6947fd","system_id":"levelo_inurba_marseille","lat":43.309285,"lon":5.39772,"is_reserved":false,"is_disabled":false,"rental_uris":{"android":"levelo://app?vid=871c9d24-8401-40c1-825b-326bef6947fd","ios":"levelo://app?vid=871c9d24-8401-40c1-825b-326bef6947fd"},"vehicle_type_id":"4","last_reported":1744733464,"current_range_meters":12400,"station_id":"ce4bh012rcd13ifvqcv0","pricing_plan_id":"cebpf4jnsgd1na2vs0mg"},{"bike_id":"0183318b-ac2b-44c3-9dd3-f49727d8129b","system_id":"levelo_inurba_marseille","lat":43.30087,"lon":5.39082,"is_reserved":false,"is_disabled":false,"rental_uris":{"android":"levelo://app?vid=0183318b-ac2b-44c3-9dd3-f49727d8129b","ios":"levelo://app?vid=0183318b-ac2b-44c3-9dd3-f49727d8129b"},"vehicle_type_id":"4","last_reported":1744733464,"current_range_meters":12800,"station_id":"ce4bh192rcd13ifvqdb0","pricing_plan_id":"cebpf4jnsgd1na2vs0mg"},{"bike_id":"1be93a6c-d7a6-4eba-87f7-b6d08e7c3973","system_id":"levelo_inurba_marseille","lat":43.2957,"lon":5.39969,"is_reserved":false,"is_disabled":false,"rental_uris":{"android":"levelo://app?vid=1be93a6c-d7a6-4eba-87f7-b6d08e7c3973","ios":"levelo://app?vid=1be93a6c-d7a6-4eba-87f7-b6d08e7c3973"},"vehicle_type_id":"4","last_reported":1744733464,"current_range_meters":12800,"station_id":"ce4bh312rcd13ifvqdj0","pricing_plan_id":"cebpf4jnsgd1na2vs0mg"},{"bike_id":"ac41bcbb-1831-481a-b7d8-8dcad5308b76","system_id":"levelo_inurba_marseille","lat":43.29525,"lon":5.38555,"is_reserved":false,"is_disabled":false,"rental_uris":{"android":"levelo://app?vid=ac41bcbb-1831-481a-b7d8-8dcad5308b76","ios":"levelo://app?vid=ac41bcbb-1831-481a-b7d8-8dcad5308b76"},"vehicle_type_id":"4","last_reported":1744733464,"current_range_meters":14000,"station_id":"ce4bgih2rcd13ifvqba0","pricing_plan_id":"cebpf4jnsgd1na2vs0mg"},{"bike_id":"e00fd962-6b49-4c9d-8790-f959b4324df1","system_id":"levelo_inurba_marseille","lat":43.256,"lon":5.38253,"is_reserved":false,"is_disabled":false,"rental_uris":{"android":"levelo://app?vid=e00fd962-6b49-4c9d-8790-f959b4324df1","ios":"levelo://app?vid=e00fd962-6b49-4c9d-8790-f959b4324df1"},"vehicle_type_id":"4","last_reported":1744733464,"current_range_meters":13600,"station_id":"ce4bhih2rcd13ifvqfs0","pricing_plan_id":"cebpf4jnsgd1na2vs0mg"},{"bike_id":"cc019aaa-33a8-42d2-a2d4-ef26fcdd651f","system_id":"levelo_inurba_marseille","lat":43.29598,"lon":5.37033,"is_reserved":false,"is_disabled":false,"rental_uris":{"android":"levelo://app?vid=cc019aaa-33a8-42d2-a2d4-ef26fcdd651f","ios":"levelo://app?vid=cc019aaa-33a8-42d2-a2d4-ef26fcdd651f"},"vehicle_type_id":"4","last_reported":1744733464,"current_range_meters":13600,"station_id":"","pricing_plan_id":"cebpf4jnsgd1na2vs0mg"},{"bike_id":"16fb9561-735b-4e1a-88f8-c1dc34a19bdb","system_id":"levelo_inurba_marseille","lat":43.28479,"lon":5.38429,"is_reserved":false,"is_disabled":false,"rental_uris":{"android":"levelo://app?vid=16fb9561-735b-4e1a-88f8-c1dc34a19bdb","ios":"levelo://app?vid=16fb9561-735b-4e1a-88f8-c1dc34a19bdb"},"vehicle_type_id":"4","last_reported":1744733464,"current_range_meters":13600,"station_id":"ce4bh512rcd13ifvqe3g","pricing_plan_id":"cebpf4jnsgd1na2vs0mg"},{"bike_id":"d2e6490a-0007-4910-85e6-10faf8e8eada","system_id":"levelo_inurba_marseille","lat":43.26196,"lon":5.37448,"is_reserved":false,"is_disabled":false,"rental_uris":{"android":"levelo://app?vid=d2e6490a-0007-4910-85e6-10faf8e8eada","ios":"levelo://app?vid=d2e6490a-0007-4910-85e6-10faf8e8eada"},"vehicle_type_id":"4","last_reported":1744733464,"current_range_meters":14000,"station_id":"ce4bhgp2rcd13ifvqfc0","pricing_plan_id":"cebpf4jnsgd1na2vs0mg"},{"bike_id":"8decd65a-fa7c-4c68-8659-9ee32d791e2b","system_id":"levelo_inurba_marseille","lat":43.29979,"lon":5.38511,"is_reserved":false,"is_disabled":false,"rental_uris":{"android":"levelo://app?vid=8decd65a-fa7c-4c68-8659-9ee32d791e2b","ios":"levelo://app?vid=8decd65a-fa7c-4c68-8659-9ee32d791e2b"},"vehicle_type_id":"4","last_reported":1744733464,"current_range_meters":14000,"station_id":"ce4bgj92rcd13ifvqbd0","pricing_plan_id":"cebpf4jnsgd1na2vs0mg"},{"bike_id":"b32b76a7-565f-47d8-9b16-c22d8d52da8b","system_id":"levelo_inurba_marseille","lat":43.28152,"lon":5.42641,"is_reserved":false,"is_disabled":false,"rental_uris":{"android":"levelo://app?vid=b32b76a7-565f-47d8-9b16-c22d8d52da8b","ios":"levelo://app?vid=b32b76a7-565f-47d8-9b16-c22d8d52da8b"},"vehicle_type_id":"4","last_reported":1744733464,"current_range_meters":14400,"station_id":"ce4bhnh2rcd13ifvqgug","pricing_plan_id":"cebpf4jnsgd1na2vs0mg"},{"bike_id":"1c1a1726-a176-4220-ba75-966e52135c75","system_id":"levelo_inurba_marseille","lat":43.26559,"lon":5.38996,"is_reserved":false,"is_disabled":false,"rental_uris":{"android":"levelo://app?vid=1c1a1726-a176-4220-ba75-966e52135c75","ios":"levelo://app?vid=1c1a1726-a176-4220-ba75-966e52135c75"},"vehicle_type_id":"4","last_reported":1744733464,"current_range_meters":14400,"station_id":"ce4bhe12rcd13ifvqf30","pricing_plan_id":"cebpf4jnsgd1na2vs0mg"},{"bike_id":"47793e07-0770-4c46-96a3-ebefa55d9484","system_id":"levelo_inurba_marseille","lat":43.28273,"lon":5.3506,"is_reserved":false,"is_disabled":false,"rental_uris":{"android":"levelo://app?vid=47793e07-0770-4c46-96a3-ebefa55d9484","ios":"levelo://app?vid=47793e07-0770-4c46-96a3-ebefa55d9484"},"vehicle_type_id":"4","last_reported":1744733464,"current_range_meters":14800,"station_id":"ce4bgi12rcd13ifvqb70","pricing_plan_id":"cebpf4jnsgd1na2vs0mg"},{"bike_id":"a8132d22-4ce6-4e24-9e2c-e02042e4181b","system_id":"levelo_inurba_marseille","lat":43.21759,"lon":5.34607,"is_reserved":false,"is_disabled":false,"rental_uris":{"android":"levelo://app?vid=a8132d22-4ce6-4e24-9e2c-e02042e4181b","ios":"levelo://app?vid=a8132d22-4ce6-4e24-9e2c-e02042e4181b"},"vehicle_type_id":"4","last_reported":1744733464,"current_range_meters":14800,"station_id":"st_cvj6r9ubvosntc0bgbag","pricing_plan_id":"cebpf4jnsgd1na2vs0mg"},{"bike_id":"35e90fda-3b30-40e0-8ea9-eced12769e9f","system_id":"levelo_inurba_marseille","lat":43.30416,"lon":5.41276,"is_reserved":false,"is_disabled":false,"rental_uris":{"android":"levelo://app?vid=35e90fda-3b30-40e0-8ea9-eced12769e9f","ios":"levelo://app?vid=35e90fda-3b30-40e0-8ea9-eced12769e9f"},"vehicle_type_id":"4","last_reported":1744733464,"current_range_meters":14800,"station_id":"ce4bhop2rcd13ifvqh8g","pricing_plan_id":"cebpf4jnsgd1na2vs0mg"},{"bike_id":"ae5cfa09-1721-49a7-90cc-06dc5326516d","system_id":"levelo_inurba_marseille","lat":43.28412,"lon":5.37501,"is_reserved":false,"is_disabled":false,"rental_uris":{"android":"levelo://app?vid=ae5cfa09-1721-49a7-90cc-06dc5326516d","ios":"levelo://app?vid=ae5cfa09-1721-49a7-90cc-06dc5326516d"},"vehicle_type_id":"4","last_reported":1744733464,"current_range_meters":15200,"station_id":"ce4bh412rcd13ifvqds0","pricing_plan_id":"cebpf4jnsgd1na2vs0mg"},{"bike_id":"7eacb872-0584-4b06-8fad-feb612d3799a","system_id":"levelo_inurba_marseille","lat":43.29687,"lon":5.38116,"is_reserved":false,"is_disabled":false,"rental_uris":{"android":"levelo://app?vid=7eacb872-0584-4b06-8fad-feb612d3799a","ios":"levelo://app?vid=7eacb872-0584-4b06-8fad-feb612d3799a"},"vehicle_type_id":"4","last_reported":1744733464,"current_range_meters":15200,"station_id":"","pricing_plan_id":"cebpf4jnsgd1na2vs0mg"},{"bike_id":"0952c655-b9af-41f9-8967-9c505a41e214","system_id":"levelo_inurba_marseille","lat":43.290044,"lon":5.356166,"is_reserved":false,"is_disabled":false,"rental_uris":{"android":"levelo://app?vid=0952c655-b9af-41f9-8967-9c505a41e214","ios":"levelo://app?vid=0952c655-b9af-41f9-8967-9c505a41e214"},"vehicle_type_id":"4","last_reported":1744733464,"current_range_meters":15200,"station_id":"ce4bhh12rcd13ifvqff0","pricing_plan_id":"cebpf4jnsgd1na2vs0mg"},{"bike_id":"4aef0fa6-a0da-4fa2-9099-9fa1ba81c16a","system_id":"levelo_inurba_marseille","lat":43.281685,"lon":5.404384,"is_reserved":false,"is_disabled":false,"rental_uris":{"android":"levelo://app?vid=4aef0fa6-a0da-4fa2-9099-9fa1ba81c16a","ios":"levelo://app?vid=4aef0fa6-a0da-4fa2-9099-9fa1ba81c16a"},"vehicle_type_id":"4","last_reported":1744733464,"current_range_meters":16000,"station_id":"","pricing_plan_id":"cebpf4jnsgd1na2vs0mg"},{"bike_id":"7dd19e21-f4d4-4578-a502-823d95b8a72b","system_id":"levelo_inurba_marseille","lat":43.28609,"lon":5.37066,"is_reserved":false,"is_disabled":false,"rental_uris":{"android":"levelo://app?vid=7dd19e21-f4d4-4578-a502-823d95b8a72b","ios":"levelo://app?vid=7dd19e21-f4d4-4578-a502-823d95b8a72b"},"vehicle_type_id":"4","last_reported":1744733464,"current_range_meters":15200,"station_id":"ce4bht12rcd13ifvqi60","pricing_plan_id":"cebpf4jnsgd1na2vs0mg"},{"bike_id":"b0b19754-995f-4d4b-bc89-b97285ed65c0","system_id":"levelo_inurba_marseille","lat":43.25528,"lon":5.37631,"is_reserved":false,"is_disabled":false,"rental_uris":{"android":"levelo://app?vid=b0b19754-995f-4d4b-bc89-b97285ed65c0","ios":"levelo://app?vid=b0b19754-995f-4d4b-bc89-b97285ed65c0"},"vehicle_type_id":"4","last_reported":1744733464,"current_range_meters":16400,"station_id":"ce4bhh12rcd13ifvqff0","pricing_plan_id":"cebpf4jnsgd1na2vs0mg"},{"bike_id":"25732aa9-76d1-4c83-b5c5-f80b6e9319f7","system_id":"levelo_inurba_marseille","lat":43.2943,"lon":5.38627,"is_reserved":false,"is_disabled":false,"rental_uris":{"android":"levelo://app?vid=25732aa9-76d1-4c83-b5c5-f80b6e9319f7","ios":"levelo://app?vid=25732aa9-76d1-4c83-b5c5-f80b6e9319f7"},"vehicle_type_id":"4","last_reported":1744733464,"current_range_meters":16400,"station_id":"ce4bh2h2rcd13ifvqdh0","pricing_plan_id":"cebpf4jnsgd1na2vs0mg"},{"bike_id":"df7cee30-ec35-4c16-b5c0-d586ff0626e2","system_id":"levelo_inurba_marseille","lat":43.24547,"lon":5.39523,"is_reserved":false,"is_disabled":false,"rental_uris":{"android":"levelo://app?vid=df7cee30-ec35-4c16-b5c0-d586ff0626e2","ios":"levelo://app?vid=df7cee30-ec35-4c16-b5c0-d586ff0626e2"},"vehicle_type_id":"4","last_reported":1744733464,"current_range_meters":16400,"station_id":"ce4bhlp2rcd13ifvqgjg","pricing_plan_id":"cebpf4jnsgd1na2vs0mg"},{"bike_id":"90886ae5-6613-470e-895f-e35a5545d9d4","system_id":"levelo_inurba_marseille","lat":43.31458,"lon":5.39208,"is_reserved":false,"is_disabled":false,"rental_uris":{"android":"levelo://app?vid=90886ae5-6613-470e-895f-e35a5545d9d4","ios":"levelo://app?vid=90886ae5-6613-470e-895f-e35a5545d9d4"},"vehicle_type_id":"4","last_reported":1744733464,"current_range_meters":16800,"station_id":"","pricing_plan_id":"cebpf4jnsgd1na2vs0mg"},{"bike_id":"2997af48-2b0a-47dd-9666-907197cdef0c","system_id":"levelo_inurba_marseille","lat":43.30335,"lon":5.40427,"is_reserved":false,"is_disabled":false,"rental_uris":{"android":"levelo://app?vid=2997af48-2b0a-47dd-9666-907197cdef0c","ios":"levelo://app?vid=2997af48-2b0a-47dd-9666-907197cdef0c"},"vehicle_type_id":"4","last_reported":1744733464,"current_range_meters":16800,"station_id":"ce4bh012rcd13ifvqd10","pricing_plan_id":"cebpf4jnsgd1na2vs0mg"},{"bike_id":"97ba8378-e9a2-4631-8e6c-8f76ceca7196","system_id":"levelo_inurba_marseille","lat":43.28935,"lon":5.3839,"is_reserved":false,"is_disabled":false,"rental_uris":{"android":"levelo://app?vid=97ba8378-e9a2-4631-8e6c-8f76ceca7196","ios":"levelo://app?vid=97ba8378-e9a2-4631-8e6c-8f76ceca7196"},"vehicle_type_id":"4","last_reported":1744733464,"current_range_meters":17200,"station_id":"ce4bh612rcd13ifvqe6g","pricing_plan_id":"cebpf4jnsgd1na2vs0mg"},{"bike_id":"09651454-ba98-489f-84d4-7c0b820526b4","system_id":"levelo_inurba_marseille","lat":43.31253,"lon":5.36845,"is_reserved":false,"is_disabled":true,"rental_uris":{"android":"levelo://app?vid=09651454-ba98-489f-84d4-7c0b820526b4","ios":"levelo://app?vid=09651454-ba98-489f-84d4-7c0b820526b4"},"vehicle_type_id":"4","last_reported":1744733464,"current_range_meters":17200,"station_id":"ce4bgl92rcd13ifvqbq0","pricing_plan_id":"cebpf4jnsgd1na2vs0mg"},{"bike_id":"e9dac8f1-4b85-45cc-9659-943f6edd9734","system_id":"levelo_inurba_marseille","lat":43.29892,"lon":5.43669,"is_reserved":false,"is_disabled":false,"rental_uris":{"android":"levelo://app?vid=e9dac8f1-4b85-45cc-9659-943f6edd9734","ios":"levelo://app?vid=e9dac8f1-4b85-45cc-9659-943f6edd9734"},"vehicle_type_id":"4","last_reported":1744733464,"current_range_meters":17200,"station_id":"ce4bhpp2rcd13ifvqhfg","pricing_plan_id":"cebpf4jnsgd1na2vs0mg"},{"bike_id":"857ff0ed-8bc6-43b2-87aa-4266c1d75649","system_id":"levelo_inurba_marseille","lat":43.3108,"lon":5.401,"is_reserved":false,"is_disabled":false,"rental_uris":{"android":"levelo://app?vid=857ff0ed-8bc6-43b2-87aa-4266c1d75649","ios":"levelo://app?vid=857ff0ed-8bc6-43b2-87aa-4266c1d75649"},"vehicle_type_id":"4","last_reported":1744733464,"current_range_meters":17200,"station_id":"","pricing_plan_id":"cebpf4jnsgd1na2vs0mg"},{"bike_id":"d8259ebc-3e9b-43d0-b5a1-b7c7e7921fd6","system_id":"levelo_inurba_marseille","lat":43.285771,"lon":5.394921,"is_reserved":false,"is_disabled":false,"rental_uris":{"android":"levelo://app?vid=d8259ebc-3e9b-43d0-b5a1-b7c7e7921fd6","ios":"levelo://app?vid=d8259ebc-3e9b-43d0-b5a1-b7c7e7921fd6"},"vehicle_type_id":"4","last_reported":1744733464,"current_range_meters":17200,"station_id":"ce4bh292rcd13ifvqdg0","pricing_plan_id":"cebpf4jnsgd1na2vs0mg"},{"bike_id":"889e5f0e-836f-416e-9071-263d48ad5753","system_id":"levelo_inurba_marseille","lat":43.29571,"lon":5.38538,"is_reserved":false,"is_disabled":false,"rental_uris":{"android":"levelo://app?vid=889e5f0e-836f-416e-9071-263d48ad5753","ios":"levelo://app?vid=889e5f0e-836f-416e-9071-263d48ad5753"},"vehicle_type_id":"4","last_reported":1744733464,"current_range_meters":17600,"station_id":"ce4bgih2rcd13ifvqba0","pricing_plan_id":"cebpf4jnsgd1na2vs0mg"},{"bike_id":"834ec9e1-9d50-4bee-85ae-d1db335c55e5","system_id":"levelo_inurba_marseille","lat":43.31844,"lon":5.36825,"is_reserved":false,"is_disabled":false,"rental_uris":{"android":"levelo://app?vid=834ec9e1-9d50-4bee-85ae-d1db335c55e5","ios":"levelo://app?vid=834ec9e1-9d50-4bee-85ae-d1db335c55e5"},"vehicle_type_id":"4","last_reported":1744733464,"current_range_meters":17600,"station_id":"","pricing_plan_id":"cebpf4jnsgd1na2vs0mg"},{"bike_id":"9753b05a-0ceb-4022-be9f-37af36578444","system_id":"levelo_inurba_marseille","lat":43.24107,"lon":5.378397,"is_reserved":false,"is_disabled":false,"rental_uris":{"android":"levelo://app?vid=9753b05a-0ceb-4022-be9f-37af36578444","ios":"levelo://app?vid=9753b05a-0ceb-4022-be9f-37af36578444"},"vehicle_type_id":"4","last_reported":1744733464,"current_range_meters":17600,"station_id":"ce4bhnp2rcd13ifvqgvg","pricing_plan_id":"cebpf4jnsgd1na2vs0mg"},{"bike_id":"6f23923f-fc67-460a-b0b8-5119c016d5b0","system_id":"levelo_inurba_marseille","lat":43.26986,"lon":5.38941,"is_reserved":false,"is_disabled":true,"rental_uris":{"android":"levelo://app?vid=6f23923f-fc67-460a-b0b8-5119c016d5b0","ios":"levelo://app?vid=6f23923f-fc67-460a-b0b8-5119c016d5b0"},"vehicle_type_id":"4","last_reported":1744733464,"current_range_meters":17600,"station_id":"ce4bhhh2rcd13ifvqfl0","pricing_plan_id":"cebpf4jnsgd1na2vs0mg"},{"bike_id":"a0ddb0a5-f7f0-4281-aa27-9e82747cc573","system_id":"levelo_inurba_marseille","lat":43.33756,"lon":5.37494,"is_reserved":false,"is_disabled":false,"rental_uris":{"android":"levelo://app?vid=a0ddb0a5-f7f0-4281-aa27-9e82747cc573","ios":"levelo://app?vid=a0ddb0a5-f7f0-4281-aa27-9e82747cc573"},"vehicle_type_id":"4","last_reported":1744733464,"current_range_meters":17600,"station_id":"","pricing_plan_id":"cebpf4jnsgd1na2vs0mg"},{"bike_id":"466768e1-c206-4985-b33a-8b01c65305e3","system_id":"levelo_inurba_marseille","lat":43.28458,"lon":5.35897,"is_reserved":false,"is_disabled":false,"rental_uris":{"android":"levelo://app?vid=466768e1-c206-4985-b33a-8b01c65305e3","ios":"levelo://app?vid=466768e1-c206-4985-b33a-8b01c65305e3"},"vehicle_type_id":"4","last_reported":1744733464,"current_range_meters":18000,"station_id":"ce4bhah2rcd13ifvqei0","pricing_plan_id":"cebpf4jnsgd1na2vs0mg"},{"bike_id":"e7828c41-ab95-44dd-849f-454bc7d3bd55","system_id":"levelo_inurba_marseille","lat":43.2984,"lon":5.36261,"is_reserved":false,"is_disabled":false,"rental_uris":{"android":"levelo://app?vid=e7828c41-ab95-44dd-849f-454bc7d3bd55","ios":"levelo://app?vid=e7828c41-ab95-44dd-849f-454bc7d3bd55"},"vehicle_type_id":"4","last_reported":1744733464,"current_range_meters":18000,"station_id":"ce4bgpp2rcd13ifvqc3g","pricing_plan_id":"cebpf4jnsgd1na2vs0mg"},{"bike_id":"4c470df7-4cbb-413f-b587-893637313088","system_id":"levelo_inurba_marseille","lat":43.251195,"lon":5.403215,"is_reserved":false,"is_disabled":false,"rental_uris":{"android":"levelo://app?vid=4c470df7-4cbb-413f-b587-893637313088","ios":"levelo://app?vid=4c470df7-4cbb-413f-b587-893637313088"},"vehicle_type_id":"4","last_reported":1744733464,"current_range_meters":18000,"station_id":"ce4bhlh2rcd13ifvqgig","pricing_plan_id":"cebpf4jnsgd1na2vs0mg"},{"bike_id":"0c20acda-6915-4942-acc2-034ac431cd0a","system_id":"levelo_inurba_marseille","lat":43.26198,"lon":5.37931,"is_reserved":false,"is_disabled":false,"rental_uris":{"android":"levelo://app?vid=0c20acda-6915-4942-acc2-034ac431cd0a","ios":"levelo://app?vid=0c20acda-6915-4942-acc2-034ac431cd0a"},"vehicle_type_id":"4","last_reported":1744733464,"current_range_meters":18000,"station_id":"ce4bhjp2rcd13ifvqg90","pricing_plan_id":"cebpf4jnsgd1na2vs0mg"},{"bike_id":"655bce29-c5f4-4391-9b31-7337d73dcc21","system_id":"levelo_inurba_marseille","lat":43.30353,"lon":5.41874,"is_reserved":false,"is_disabled":false,"rental_uris":{"android":"levelo://app?vid=655bce29-c5f4-4391-9b31-7337d73dcc21","ios":"levelo://app?vid=655bce29-c5f4-4391-9b31-7337d73dcc21"},"vehicle_type_id":"4","last_reported":1744733464,"current_range_meters":18000,"station_id":"ce4bhop2rcd13ifvqh7g","pricing_plan_id":"cebpf4jnsgd1na2vs0mg"},{"bike_id":"00a61085-ebba-4c52-9bb2-226a395889c9","system_id":"levelo_inurba_marseille","lat":43.27814,"lon":5.40714,"is_reserved":false,"is_disabled":false,"rental_uris":{"android":"levelo://app?vid=00a61085-ebba-4c52-9bb2-226a395889c9","ios":"levelo://app?vid=00a61085-ebba-4c52-9bb2-226a395889c9"},"vehicle_type_id":"4","last_reported":1744733464,"current_range_meters":18800,"station_id":"ce4bhnh2rcd13ifvqgtg","pricing_plan_id":"cebpf4jnsgd1na2vs0mg"},{"bike_id":"4cc60183-f086-4946-9e35-7a75728daa73","system_id":"levelo_inurba_marseille","lat":43.25561,"lon":5.39177,"is_reserved":false,"is_disabled":false,"rental_uris":{"android":"levelo://app?vid=4cc60183-f086-4946-9e35-7a75728daa73","ios":"levelo://app?vid=4cc60183-f086-4946-9e35-7a75728daa73"},"vehicle_type_id":"4","last_reported":1744733464,"current_range_meters":18800,"station_id":"","pricing_plan_id":"cebpf4jnsgd1na2vs0mg"},{"bike_id":"f556879c-5c9c-404c-bfda-1bbcb0880b98","system_id":"levelo_inurba_marseille","lat":43.29525,"lon":5.37506,"is_reserved":false,"is_disabled":true,"rental_uris":{"android":"levelo://app?vid=f556879c-5c9c-404c-bfda-1bbcb0880b98","ios":"levelo://app?vid=f556879c-5c9c-404c-bfda-1bbcb0880b98"},"vehicle_type_id":"4","last_reported":1744733464,"current_range_meters":19200,"station_id":"ce4bgkp2rcd13ifvqbmg","pricing_plan_id":"cebpf4jnsgd1na2vs0mg"},{"bike_id":"6bf5a380-400e-4cd6-bc1e-356afac9ee45","system_id":"levelo_inurba_marseille","lat":43.24168,"lon":5.3641,"is_reserved":false,"is_disabled":false,"rental_uris":{"android":"levelo://app?vid=6bf5a380-400e-4cd6-bc1e-356afac9ee45","ios":"levelo://app?vid=6bf5a380-400e-4cd6-bc1e-356afac9ee45"},"vehicle_type_id":"4","last_reported":1744733464,"current_range_meters":19200,"station_id":"cpo36qri1sfpv3e86is0","pricing_plan_id":"cebpf4jnsgd1na2vs0mg"},{"bike_id":"4c0ede51-6b22-44f8-8575-b86906a20779","system_id":"levelo_inurba_marseille","lat":43.21742,"lon":5.34603,"is_reserved":false,"is_disabled":false,"rental_uris":{"android":"levelo://app?vid=4c0ede51-6b22-44f8-8575-b86906a20779","ios":"levelo://app?vid=4c0ede51-6b22-44f8-8575-b86906a20779"},"vehicle_type_id":"4","last_reported":1744733464,"current_range_meters":19200,"station_id":"st_cvj6r9ubvosntc0bgbag","pricing_plan_id":"cebpf4jnsgd1na2vs0mg"},{"bike_id":"34e395a7-b9b7-4e19-a599-aa34cefbfaaf","system_id":"levelo_inurba_marseille","lat":43.2959,"lon":5.36746,"is_reserved":false,"is_disabled":false,"rental_uris":{"android":"levelo://app?vid=34e395a7-b9b7-4e19-a599-aa34cefbfaaf","ios":"levelo://app?vid=34e395a7-b9b7-4e19-a599-aa34cefbfaaf"},"vehicle_type_id":"4","last_reported":1744733464,"current_range_meters":19200,"station_id":"ce4bgph2rcd13ifvqc2g","pricing_plan_id":"cebpf4jnsgd1na2vs0mg"},{"bike_id":"4ea021eb-3198-4ac7-b741-76c853de9b12","system_id":"levelo_inurba_marseille","lat":43.29047,"lon":5.35916,"is_reserved":false,"is_disabled":false,"rental_uris":{"android":"levelo://app?vid=4ea021eb-3198-4ac7-b741-76c853de9b12","ios":"levelo://app?vid=4ea021eb-3198-4ac7-b741-76c853de9b12"},"vehicle_type_id":"4","last_reported":1744733464,"current_range_meters":18800,"station_id":"ce4bha92rcd13ifvqeg0","pricing_plan_id":"cebpf4jnsgd1na2vs0mg"},{"bike_id":"67da8c98-e757-4300-8d68-8fe5c46b34a0","system_id":"levelo_inurba_marseille","lat":43.25115,"lon":5.40331,"is_reserved":false,"is_disabled":false,"rental_uris":{"android":"levelo://app?vid=67da8c98-e757-4300-8d68-8fe5c46b34a0","ios":"levelo://app?vid=67da8c98-e757-4300-8d68-8fe5c46b34a0"},"vehicle_type_id":"4","last_reported":1744733464,"current_range_meters":19200,"station_id":"ce4bhlh2rcd13ifvqgig","pricing_plan_id":"cebpf4jnsgd1na2vs0mg"},{"bike_id":"a55b3020-fc00-4336-a180-a09bd1be4c73","system_id":"levelo_inurba_marseille","lat":43.3136,"lon":5.38492,"is_reserved":false,"is_disabled":false,"rental_uris":{"android":"levelo://app?vid=a55b3020-fc00-4336-a180-a09bd1be4c73","ios":"levelo://app?vid=a55b3020-fc00-4336-a180-a09bd1be4c73"},"vehicle_type_id":"4","last_reported":1744733464,"current_range_meters":19200,"station_id":"ce4bgt92rcd13ifvqcf0","pricing_plan_id":"cebpf4jnsgd1na2vs0mg"},{"bike_id":"fa8b5d88-c56b-4501-99c1-1b5a6dfd1f66","system_id":"levelo_inurba_marseille","lat":43.21157,"lon":5.35085,"is_reserved":false,"is_disabled":false,"rental_uris":{"android":"levelo://app?vid=fa8b5d88-c56b-4501-99c1-1b5a6dfd1f66","ios":"levelo://app?vid=fa8b5d88-c56b-4501-99c1-1b5a6dfd1f66"},"vehicle_type_id":"4","last_reported":1744733464,"current_range_meters":19200,"station_id":"st_cvj6sg6p6f1abm77japg","pricing_plan_id":"cebpf4jnsgd1na2vs0mg"},{"bike_id":"7cb8d864-99ff-49f1-8b11-a7a841927441","system_id":"levelo_inurba_marseille","lat":43.29784,"lon":5.38128,"is_reserved":false,"is_disabled":false,"rental_uris":{"android":"levelo://app?vid=7cb8d864-99ff-49f1-8b11-a7a841927441","ios":"levelo://app?vid=7cb8d864-99ff-49f1-8b11-a7a841927441"},"vehicle_type_id":"4","last_reported":1744733464,"current_range_meters":19200,"station_id":"ce4bgip2rcd13ifvqbb0","pricing_plan_id":"cebpf4jnsgd1na2vs0mg"},{"bike_id":"81297ee6-afb7-45c7-855b-ec17667099bd","system_id":"levelo_inurba_marseille","lat":43.31072,"lon":5.3836,"is_reserved":false,"is_disabled":false,"rental_uris":{"android":"levelo://app?vid=81297ee6-afb7-45c7-855b-ec17667099bd","ios":"levelo://app?vid=81297ee6-afb7-45c7-855b-ec17667099bd"},"vehicle_type_id":"4","last_reported":1744733464,"current_range_meters":19600,"station_id":"ce4bgv92rcd13ifvqcr0","pricing_plan_id":"cebpf4jnsgd1na2vs0mg"},{"bike_id":"8b8953a1-f968-4029-be22-242d6e70a223","system_id":"levelo_inurba_marseille","lat":43.29778,"lon":5.37103,"is_reserved":false,"is_disabled":false,"rental_uris":{"android":"levelo://app?vid=8b8953a1-f968-4029-be22-242d6e70a223","ios":"levelo://app?vid=8b8953a1-f968-4029-be22-242d6e70a223"},"vehicle_type_id":"4","last_reported":1744733464,"current_range_meters":19600,"station_id":"ce4bgop2rcd13ifvqc1g","pricing_plan_id":"cebpf4jnsgd1na2vs0mg"},{"bike_id":"a8fde8ea-5b6a-410c-9338-844c39019601","system_id":"levelo_inurba_marseille","lat":43.256714,"lon":5.409319,"is_reserved":false,"is_disabled":false,"rental_uris":{"android":"levelo://app?vid=a8fde8ea-5b6a-410c-9338-844c39019601","ios":"levelo://app?vid=a8fde8ea-5b6a-410c-9338-844c39019601"},"vehicle_type_id":"4","last_reported":1744733464,"current_range_meters":19600,"station_id":"ce4bhkp2rcd13ifvqgd0","pricing_plan_id":"cebpf4jnsgd1na2vs0mg"},{"bike_id":"fcafdd25-82ec-4940-a0ae-6d2a3318981f","system_id":"levelo_inurba_marseille","lat":43.2844,"lon":5.39202,"is_reserved":false,"is_disabled":false,"rental_uris":{"android":"levelo://app?vid=fcafdd25-82ec-4940-a0ae-6d2a3318981f","ios":"levelo://app?vid=fcafdd25-82ec-4940-a0ae-6d2a3318981f"},"vehicle_type_id":"4","last_reported":1744733464,"current_range_meters":20000,"station_id":"ce4bhoh2rcd13ifvqh5g","pricing_plan_id":"cebpf4jnsgd1na2vs0mg"},{"bike_id":"bd8fdd01-d86e-4d7a-a8cc-e8853d2e52d7","system_id":"levelo_inurba_marseille","lat":43.29421,"lon":5.386257,"is_reserved":false,"is_disabled":false,"rental_uris":{"android":"levelo://app?vid=bd8fdd01-d86e-4d7a-a8cc-e8853d2e52d7","ios":"levelo://app?vid=bd8fdd01-d86e-4d7a-a8cc-e8853d2e52d7"},"vehicle_type_id":"4","last_reported":1744733464,"current_range_meters":20000,"station_id":"ce4bh2h2rcd13ifvqdh0","pricing_plan_id":"cebpf4jnsgd1na2vs0mg"},{"bike_id":"e4251c1e-2437-4a30-ad2b-01c2d003b94b","system_id":"levelo_inurba_marseille","lat":43.29712,"lon":5.36602,"is_reserved":false,"is_disabled":false,"rental_uris":{"android":"levelo://app?vid=e4251c1e-2437-4a30-ad2b-01c2d003b94b","ios":"levelo://app?vid=e4251c1e-2437-4a30-ad2b-01c2d003b94b"},"vehicle_type_id":"4","last_reported":1744733464,"current_range_meters":20000,"station_id":"ce4bgn12rcd13ifvqbt0","pricing_plan_id":"cebpf4jnsgd1na2vs0mg"},{"bike_id":"20d38c7b-4990-4e66-bcb1-10718ab2a831","system_id":"levelo_inurba_marseille","lat":43.25808,"lon":5.39461,"is_reserved":false,"is_disabled":false,"rental_uris":{"android":"levelo://app?vid=20d38c7b-4990-4e66-bcb1-10718ab2a831","ios":"levelo://app?vid=20d38c7b-4990-4e66-bcb1-10718ab2a831"},"vehicle_type_id":"4","last_reported":1744733464,"current_range_meters":20000,"station_id":"ce4bhip2rcd13ifvqft0","pricing_plan_id":"cebpf4jnsgd1na2vs0mg"},{"bike_id":"ed97a721-7aee-47b1-b49b-a65ade99fd09","system_id":"levelo_inurba_marseille","lat":43.34307,"lon":5.37808,"is_reserved":false,"is_disabled":false,"rental_uris":{"android":"levelo://app?vid=ed97a721-7aee-47b1-b49b-a65ade99fd09","ios":"levelo://app?vid=ed97a721-7aee-47b1-b49b-a65ade99fd09"},"vehicle_type_id":"4","last_reported":1744733464,"current_range_meters":20000,"station_id":"","pricing_plan_id":"cebpf4jnsgd1na2vs0mg"},{"bike_id":"f02098e5-c700-4eb3-aa49-0699d2fb2d10","system_id":"levelo_inurba_marseille","lat":43.29531,"lon":5.38547,"is_reserved":false,"is_disabled":false,"rental_uris":{"android":"levelo://app?vid=f02098e5-c700-4eb3-aa49-0699d2fb2d10","ios":"levelo://app?vid=f02098e5-c700-4eb3-aa49-0699d2fb2d10"},"vehicle_type_id":"4","last_reported":1744733464,"current_range_meters":20000,"station_id":"ce4bgih2rcd13ifvqba0","pricing_plan_id":"cebpf4jnsgd1na2vs0mg"},{"bike_id":"b082caf9-1aa9-41e8-8081-4da72e64e8e4","system_id":"levelo_inurba_marseille","lat":43.30933,"lon":5.40161,"is_reserved":false,"is_disabled":true,"rental_uris":{"android":"levelo://app?vid=b082caf9-1aa9-41e8-8081-4da72e64e8e4","ios":"levelo://app?vid=b082caf9-1aa9-41e8-8081-4da72e64e8e4"},"vehicle_type_id":"4","last_reported":1744733464,"current_range_meters":20000,"station_id":"ce4bgvp2rcd13ifvqct0","pricing_plan_id":"cebpf4jnsgd1na2vs0mg"},{"bike_id":"876c7a1a-2671-4d46-b1dd-37d9643ce4bd","system_id":"levelo_inurba_marseille","lat":43.30429,"lon":5.38885,"is_reserved":false,"is_disabled":false,"rental_uris":{"android":"levelo://app?vid=876c7a1a-2671-4d46-b1dd-37d9643ce4bd","ios":"levelo://app?vid=876c7a1a-2671-4d46-b1dd-37d9643ce4bd"},"vehicle_type_id":"4","last_reported":1744733464,"current_range_meters":20000,"station_id":"ce4bgk12rcd13ifvqbi0","pricing_plan_id":"cebpf4jnsgd1na2vs0mg"},{"bike_id":"fefd6f26-8de9-4082-a27e-6efeaf8bc2eb","system_id":"levelo_inurba_marseille","lat":43.309052,"lon":5.368464,"is_reserved":false,"is_disabled":false,"rental_uris":{"android":"levelo://app?vid=fefd6f26-8de9-4082-a27e-6efeaf8bc2eb","ios":"levelo://app?vid=fefd6f26-8de9-4082-a27e-6efeaf8bc2eb"},"vehicle_type_id":"4","last_reported":1744733464,"current_range_meters":20400,"station_id":"ce4bhlh2rcd13ifvqgig","pricing_plan_id":"cebpf4jnsgd1na2vs0mg"},{"bike_id":"7ada3698-62b7-4c37-8e25-417fb476bfad","system_id":"levelo_inurba_marseille","lat":43.29845,"lon":5.3627,"is_reserved":false,"is_disabled":false,"rental_uris":{"android":"levelo://app?vid=7ada3698-62b7-4c37-8e25-417fb476bfad","ios":"levelo://app?vid=7ada3698-62b7-4c37-8e25-417fb476bfad"},"vehicle_type_id":"4","last_reported":1744733464,"current_range_meters":20400,"station_id":"ce4bgpp2rcd13ifvqc3g","pricing_plan_id":"cebpf4jnsgd1na2vs0mg"},{"bike_id":"174c2c9b-2f0a-47fb-998b-9f7260f2f135","system_id":"levelo_inurba_marseille","lat":43.30726,"lon":5.42443,"is_reserved":false,"is_disabled":false,"rental_uris":{"android":"levelo://app?vid=174c2c9b-2f0a-47fb-998b-9f7260f2f135","ios":"levelo://app?vid=174c2c9b-2f0a-47fb-998b-9f7260f2f135"},"vehicle_type_id":"4","last_reported":1744733464,"current_range_meters":20400,"station_id":"st_cvj6ca6bvosntc0bfgr0","pricing_plan_id":"cebpf4jnsgd1na2vs0mg"},{"bike_id":"b8bc7050-ed96-472d-a5e1-114308f5a054","system_id":"levelo_inurba_marseille","lat":43.30544,"lon":5.36545,"is_reserved":false,"is_disabled":false,"rental_uris":{"android":"levelo://app?vid=b8bc7050-ed96-472d-a5e1-114308f5a054","ios":"levelo://app?vid=b8bc7050-ed96-472d-a5e1-114308f5a054"},"vehicle_type_id":"4","last_reported":1744733464,"current_range_meters":20400,"station_id":"ce4bgs12rcd13ifvqcag","pricing_plan_id":"cebpf4jnsgd1na2vs0mg"},{"bike_id":"20ac4c4e-9240-4d2f-afa9-fdacb295cbdf","system_id":"levelo_inurba_marseille","lat":43.27908,"lon":5.39584,"is_reserved":false,"is_disabled":false,"rental_uris":{"android":"levelo://app?vid=20ac4c4e-9240-4d2f-afa9-fdacb295cbdf","ios":"levelo://app?vid=20ac4c4e-9240-4d2f-afa9-fdacb295cbdf"},"vehicle_type_id":"4","last_reported":1744733464,"current_range_meters":20400,"station_id":"ce4bhf92rcd13ifvqf40","pricing_plan_id":"cebpf4jnsgd1na2vs0mg"},{"bike_id":"854ae9d2-eac6-4c28-8d03-b47ab97e465a","system_id":"levelo_inurba_marseille","lat":43.24562,"lon":5.39515,"is_reserved":false,"is_disabled":false,"rental_uris":{"android":"levelo://app?vid=854ae9d2-eac6-4c28-8d03-b47ab97e465a","ios":"levelo://app?vid=854ae9d2-eac6-4c28-8d03-b47ab97e465a"},"vehicle_type_id":"4","last_reported":1744733464,"current_range_meters":20800,"station_id":"ce4bhlp2rcd13ifvqgjg","pricing_plan_id":"cebpf4jnsgd1na2vs0mg"},{"bike_id":"6c103f9f-c959-46ad-a2e8-e44f9660c68e","system_id":"levelo_inurba_marseille","lat":43.21193,"lon":5.35079,"is_reserved":false,"is_disabled":false,"rental_uris":{"android":"levelo://app?vid=6c103f9f-c959-46ad-a2e8-e44f9660c68e","ios":"levelo://app?vid=6c103f9f-c959-46ad-a2e8-e44f9660c68e"},"vehicle_type_id":"4","last_reported":1744733464,"current_range_meters":20800,"station_id":"st_cvj6sg6p6f1abm77japg","pricing_plan_id":"cebpf4jnsgd1na2vs0mg"},{"bike_id":"ebf002fb-4aea-4db3-9b30-45961fa3d093","system_id":"levelo_inurba_marseille","lat":43.29801,"lon":5.40394,"is_reserved":false,"is_disabled":false,"rental_uris":{"android":"levelo://app?vid=ebf002fb-4aea-4db3-9b30-45961fa3d093","ios":"levelo://app?vid=ebf002fb-4aea-4db3-9b30-45961fa3d093"},"vehicle_type_id":"4","last_reported":1744733464,"current_range_meters":20800,"station_id":"ce4bh112rcd13ifvqd90","pricing_plan_id":"cebpf4jnsgd1na2vs0mg"},{"bike_id":"6b4e7261-91d4-450b-ad6a-03475cd7defb","system_id":"levelo_inurba_marseille","lat":43.266135,"lon":5.390459,"is_reserved":false,"is_disabled":false,"rental_uris":{"android":"levelo://app?vid=6b4e7261-91d4-450b-ad6a-03475cd7defb","ios":"levelo://app?vid=6b4e7261-91d4-450b-ad6a-03475cd7defb"},"vehicle_type_id":"4","last_reported":1744733464,"current_range_meters":20800,"station_id":"ce4bhhh2rcd13ifvqfk0","pricing_plan_id":"cebpf4jnsgd1na2vs0mg"},{"bike_id":"58a77535-8d25-4cf3-8183-e180bb16b77d","system_id":"levelo_inurba_marseille","lat":43.30557,"lon":5.36561,"is_reserved":false,"is_disabled":false,"rental_uris":{"android":"levelo://app?vid=58a77535-8d25-4cf3-8183-e180bb16b77d","ios":"levelo://app?vid=58a77535-8d25-4cf3-8183-e180bb16b77d"},"vehicle_type_id":"4","last_reported":1744733464,"current_range_meters":20400,"station_id":"ce4bgs12rcd13ifvqcag","pricing_plan_id":"cebpf4jnsgd1na2vs0mg"},{"bike_id":"3919f6ba-dd52-4187-8c7f-45f33213c7fa","system_id":"levelo_inurba_marseille","lat":43.30812,"lon":5.37306,"is_reserved":false,"is_disabled":false,"rental_uris":{"android":"levelo://app?vid=3919f6ba-dd52-4187-8c7f-45f33213c7fa","ios":"levelo://app?vid=3919f6ba-dd52-4187-8c7f-45f33213c7fa"},"vehicle_type_id":"4","last_reported":1744733464,"current_range_meters":20800,"station_id":"","pricing_plan_id":"cebpf4jnsgd1na2vs0mg"},{"bike_id":"a5171087-922f-4964-93cc-53cb095fa9cd","system_id":"levelo_inurba_marseille","lat":43.29524,"lon":5.39401,"is_reserved":false,"is_disabled":false,"rental_uris":{"android":"levelo://app?vid=a5171087-922f-4964-93cc-53cb095fa9cd","ios":"levelo://app?vid=a5171087-922f-4964-93cc-53cb095fa9cd"},"vehicle_type_id":"4","last_reported":1744733464,"current_range_meters":20800,"station_id":"ce4bh292rcd13ifvqdf0","pricing_plan_id":"cebpf4jnsgd1na2vs0mg"},{"bike_id":"412e09d2-dc4b-4b6b-92bd-e877ea93036a","system_id":"levelo_inurba_marseille","lat":43.30922,"lon":5.40163,"is_reserved":false,"is_disabled":false,"rental_uris":{"android":"levelo://app?vid=412e09d2-dc4b-4b6b-92bd-e877ea93036a","ios":"levelo://app?vid=412e09d2-dc4b-4b6b-92bd-e877ea93036a"},"vehicle_type_id":"4","last_reported":1744733464,"current_range_meters":20800,"station_id":"ce4bgvp2rcd13ifvqct0","pricing_plan_id":"cebpf4jnsgd1na2vs0mg"},{"bike_id":"d6fee597-3293-47ae-914e-c48760e9f772","system_id":"levelo_inurba_marseille","lat":43.24081,"lon":5.37813,"is_reserved":false,"is_disabled":false,"rental_uris":{"android":"levelo://app?vid=d6fee597-3293-47ae-914e-c48760e9f772","ios":"levelo://app?vid=d6fee597-3293-47ae-914e-c48760e9f772"},"vehicle_type_id":"4","last_reported":1744733464,"current_range_meters":20800,"station_id":"ce4bhnp2rcd13ifvqgvg","pricing_plan_id":"cebpf4jnsgd1na2vs0mg"},{"bike_id":"3331b9ee-1e9a-4b1b-8e36-124ee5a9d14b","system_id":"levelo_inurba_marseille","lat":43.29908,"lon":5.381558,"is_reserved":false,"is_disabled":false,"rental_uris":{"android":"levelo://app?vid=3331b9ee-1e9a-4b1b-8e36-124ee5a9d14b","ios":"levelo://app?vid=3331b9ee-1e9a-4b1b-8e36-124ee5a9d14b"},"vehicle_type_id":"4","last_reported":1744733464,"current_range_meters":20800,"station_id":"ce4bhb12rcd13ifvqem0","pricing_plan_id":"cebpf4jnsgd1na2vs0mg"},{"bike_id":"10a05b79-c3d5-4be7-a18b-8140be240501","system_id":"levelo_inurba_marseille","lat":43.29604,"lon":5.38101,"is_reserved":false,"is_disabled":true,"rental_uris":{"android":"levelo://app?vid=10a05b79-c3d5-4be7-a18b-8140be240501","ios":"levelo://app?vid=10a05b79-c3d5-4be7-a18b-8140be240501"},"vehicle_type_id":"4","last_reported":1744733464,"current_range_meters":21600,"station_id":"ce4bgl12rcd13ifvqbo0","pricing_plan_id":"cebpf4jnsgd1na2vs0mg"},{"bike_id":"905de3f2-0065-4ea3-9ab3-a6f4e4f5700d","system_id":"levelo_inurba_marseille","lat":43.29964,"lon":5.38493,"is_reserved":false,"is_disabled":false,"rental_uris":{"android":"levelo://app?vid=905de3f2-0065-4ea3-9ab3-a6f4e4f5700d","ios":"levelo://app?vid=905de3f2-0065-4ea3-9ab3-a6f4e4f5700d"},"vehicle_type_id":"4","last_reported":1744733464,"current_range_meters":21600,"station_id":"ce4bgj92rcd13ifvqbd0","pricing_plan_id":"cebpf4jnsgd1na2vs0mg"},{"bike_id":"a6465070-8e44-4647-8985-3434739157a1","system_id":"levelo_inurba_marseille","lat":43.29528,"lon":5.39402,"is_reserved":false,"is_disabled":false,"rental_uris":{"android":"levelo://app?vid=a6465070-8e44-4647-8985-3434739157a1","ios":"levelo://app?vid=a6465070-8e44-4647-8985-3434739157a1"},"vehicle_type_id":"4","last_reported":1744733464,"current_range_meters":21600,"station_id":"ce4bh292rcd13ifvqdf0","pricing_plan_id":"cebpf4jnsgd1na2vs0mg"},{"bike_id":"6a8e9068-2a8d-4c93-8c2d-e30f03079545","system_id":"levelo_inurba_marseille","lat":43.25729,"lon":5.4112,"is_reserved":false,"is_disabled":true,"rental_uris":{"android":"levelo://app?vid=6a8e9068-2a8d-4c93-8c2d-e30f03079545","ios":"levelo://app?vid=6a8e9068-2a8d-4c93-8c2d-e30f03079545"},"vehicle_type_id":"4","last_reported":1744733464,"current_range_meters":21600,"station_id":"ce4bhkp2rcd13ifvqgd0","pricing_plan_id":"cebpf4jnsgd1na2vs0mg"},{"bike_id":"592e360f-20de-45ac-b289-4336ab939393","system_id":"levelo_inurba_marseille","lat":43.299291,"lon":5.37489,"is_reserved":false,"is_disabled":false,"rental_uris":{"android":"levelo://app?vid=592e360f-20de-45ac-b289-4336ab939393","ios":"levelo://app?vid=592e360f-20de-45ac-b289-4336ab939393"},"vehicle_type_id":"4","last_reported":1744733464,"current_range_meters":22000,"station_id":"ce4bgjh2rcd13ifvqbg0","pricing_plan_id":"cebpf4jnsgd1na2vs0mg"},{"bike_id":"857293f1-5378-4a00-bb4d-21869d33d155","system_id":"levelo_inurba_marseille","lat":43.27932,"lon":5.39583,"is_reserved":false,"is_disabled":false,"rental_uris":{"android":"levelo://app?vid=857293f1-5378-4a00-bb4d-21869d33d155","ios":"levelo://app?vid=857293f1-5378-4a00-bb4d-21869d33d155"},"vehicle_type_id":"4","last_reported":1744733464,"current_range_meters":22000,"station_id":"ce4bhf92rcd13ifvqf40","pricing_plan_id":"cebpf4jnsgd1na2vs0mg"},{"bike_id":"86985473-6a71-42e7-bb12-6ae2146f620d","system_id":"levelo_inurba_marseille","lat":43.30134,"lon":5.39876,"is_reserved":false,"is_disabled":false,"rental_uris":{"android":"levelo://app?vid=86985473-6a71-42e7-bb12-6ae2146f620d","ios":"levelo://app?vid=86985473-6a71-42e7-bb12-6ae2146f620d"},"vehicle_type_id":"4","last_reported":1744733464,"current_range_meters":21600,"station_id":"ce4bh0h2rcd13ifvqd40","pricing_plan_id":"cebpf4jnsgd1na2vs0mg"},{"bike_id":"3d53fdbf-e585-40dc-8521-4d15e053a414","system_id":"levelo_inurba_marseille","lat":43.28661,"lon":5.36348,"is_reserved":false,"is_disabled":false,"rental_uris":{"android":"levelo://app?vid=3d53fdbf-e585-40dc-8521-4d15e053a414","ios":"levelo://app?vid=3d53fdbf-e585-40dc-8521-4d15e053a414"},"vehicle_type_id":"4","last_reported":1744733464,"current_range_meters":22000,"station_id":"ce4bhah2rcd13ifvqej0","pricing_plan_id":"cebpf4jnsgd1na2vs0mg"},{"bike_id":"c12d2a80-7f42-477b-8aaa-243c60ff4763","system_id":"levelo_inurba_marseille","lat":43.27939,"lon":5.41048,"is_reserved":false,"is_disabled":false,"rental_uris":{"android":"levelo://app?vid=c12d2a80-7f42-477b-8aaa-243c60ff4763","ios":"levelo://app?vid=c12d2a80-7f42-477b-8aaa-243c60ff4763"},"vehicle_type_id":"4","last_reported":1744733464,"current_range_meters":22000,"station_id":"ce4bhnp2rcd13ifvqh0g","pricing_plan_id":"cebpf4jnsgd1na2vs0mg"},{"bike_id":"5e6a4728-bb21-40c2-9974-9b3e7cf6db3f","system_id":"levelo_inurba_marseille","lat":43.30322,"lon":5.40439,"is_reserved":false,"is_disabled":false,"rental_uris":{"android":"levelo://app?vid=5e6a4728-bb21-40c2-9974-9b3e7cf6db3f","ios":"levelo://app?vid=5e6a4728-bb21-40c2-9974-9b3e7cf6db3f"},"vehicle_type_id":"4","last_reported":1744733464,"current_range_meters":22000,"station_id":"ce4bh012rcd13ifvqd10","pricing_plan_id":"cebpf4jnsgd1na2vs0mg"},{"bike_id":"ab863a17-a8a2-4073-b516-607cb08fc41a","system_id":"levelo_inurba_marseille","lat":43.27499,"lon":5.42472,"is_reserved":false,"is_disabled":false,"rental_uris":{"android":"levelo://app?vid=ab863a17-a8a2-4073-b516-607cb08fc41a","ios":"levelo://app?vid=ab863a17-a8a2-4073-b516-607cb08fc41a"},"vehicle_type_id":"4","last_reported":1744733464,"current_range_meters":22000,"station_id":"ce4bhn92rcd13ifvqgrg","pricing_plan_id":"cebpf4jnsgd1na2vs0mg"},{"bike_id":"f3a17301-f4cd-4211-8c74-a7b1a492d742","system_id":"levelo_inurba_marseille","lat":43.280884,"lon":5.407278,"is_reserved":false,"is_disabled":false,"rental_uris":{"android":"levelo://app?vid=f3a17301-f4cd-4211-8c74-a7b1a492d742","ios":"levelo://app?vid=f3a17301-f4cd-4211-8c74-a7b1a492d742"},"vehicle_type_id":"4","last_reported":1744733464,"current_range_meters":22000,"station_id":"","pricing_plan_id":"cebpf4jnsgd1na2vs0mg"},{"bike_id":"05c2754a-e80d-4533-9413-8c19cfd887dd","system_id":"levelo_inurba_marseille","lat":43.23194,"lon":5.3555,"is_reserved":false,"is_disabled":false,"rental_uris":{"android":"levelo://app?vid=05c2754a-e80d-4533-9413-8c19cfd887dd","ios":"levelo://app?vid=05c2754a-e80d-4533-9413-8c19cfd887dd"},"vehicle_type_id":"4","last_reported":1744733464,"current_range_meters":22000,"station_id":"ce4bhu92rcd13ifvqi70","pricing_plan_id":"cebpf4jnsgd1na2vs0mg"},{"bike_id":"1a34b838-8a30-4691-ae6a-88bfdc338059","system_id":"levelo_inurba_marseille","lat":43.24388,"lon":5.37061,"is_reserved":false,"is_disabled":false,"rental_uris":{"android":"levelo://app?vid=1a34b838-8a30-4691-ae6a-88bfdc338059","ios":"levelo://app?vid=1a34b838-8a30-4691-ae6a-88bfdc338059"},"vehicle_type_id":"4","last_reported":1744733464,"current_range_meters":22000,"station_id":"ce4bhhh2rcd13ifvqfk0","pricing_plan_id":"cebpf4jnsgd1na2vs0mg"},{"bike_id":"bf5b1fd2-4b80-40f8-91bb-bbff3b3627cb","system_id":"levelo_inurba_marseille","lat":43.27354,"lon":5.36277,"is_reserved":false,"is_disabled":false,"rental_uris":{"android":"levelo://app?vid=bf5b1fd2-4b80-40f8-91bb-bbff3b3627cb","ios":"levelo://app?vid=bf5b1fd2-4b80-40f8-91bb-bbff3b3627cb"},"vehicle_type_id":"4","last_reported":1744733464,"current_range_meters":22000,"station_id":"ce4bhbh2rcd13ifvqeo0","pricing_plan_id":"cebpf4jnsgd1na2vs0mg"},{"bike_id":"57406be6-c0b4-4691-8abf-3f6842e4ec81","system_id":"levelo_inurba_marseille","lat":43.28444,"lon":5.39172,"is_reserved":false,"is_disabled":true,"rental_uris":{"android":"levelo://app?vid=57406be6-c0b4-4691-8abf-3f6842e4ec81","ios":"levelo://app?vid=57406be6-c0b4-4691-8abf-3f6842e4ec81"},"vehicle_type_id":"4","last_reported":1744733464,"current_range_meters":22000,"station_id":"ce4bhoh2rcd13ifvqh5g","pricing_plan_id":"cebpf4jnsgd1na2vs0mg"},{"bike_id":"ba6423fe-7a91-4edd-ab59-5e1bfee4cb82","system_id":"levelo_inurba_marseille","lat":43.31714,"lon":5.43703,"is_reserved":false,"is_disabled":false,"rental_uris":{"android":"levelo://app?vid=ba6423fe-7a91-4edd-ab59-5e1bfee4cb82","ios":"levelo://app?vid=ba6423fe-7a91-4edd-ab59-5e1bfee4cb82"},"vehicle_type_id":"4","last_reported":1744733464,"current_range_meters":22400,"station_id":"ce4bhp92rcd13ifvqhcg","pricing_plan_id":"cebpf4jnsgd1na2vs0mg"},{"bike_id":"e45d1173-08dd-4562-8707-4591c8407536","system_id":"levelo_inurba_marseille","lat":43.31276,"lon":5.40181,"is_reserved":false,"is_disabled":false,"rental_uris":{"android":"levelo://app?vid=e45d1173-08dd-4562-8707-4591c8407536","ios":"levelo://app?vid=e45d1173-08dd-4562-8707-4591c8407536"},"vehicle_type_id":"4","last_reported":1744733464,"current_range_meters":22400,"station_id":"ce4bh092rcd13ifvqd30","pricing_plan_id":"cebpf4jnsgd1na2vs0mg"},{"bike_id":"04f2c050-9bf8-433b-aac4-02ccbaf0626f","system_id":"levelo_inurba_marseille","lat":43.24662,"lon":5.38167,"is_reserved":false,"is_disabled":false,"rental_uris":{"android":"levelo://app?vid=04f2c050-9bf8-433b-aac4-02ccbaf0626f","ios":"levelo://app?vid=04f2c050-9bf8-433b-aac4-02ccbaf0626f"},"vehicle_type_id":"4","last_reported":1744733464,"current_range_meters":22400,"station_id":"ce4bhih2rcd13ifvqfr0","pricing_plan_id":"cebpf4jnsgd1na2vs0mg"},{"bike_id":"7fcc1271-7200-4fda-a838-060f83266864","system_id":"levelo_inurba_marseille","lat":43.24662,"lon":5.38184,"is_reserved":false,"is_disabled":false,"rental_uris":{"android":"levelo://app?vid=7fcc1271-7200-4fda-a838-060f83266864","ios":"levelo://app?vid=7fcc1271-7200-4fda-a838-060f83266864"},"vehicle_type_id":"4","last_reported":1744733464,"current_range_meters":22400,"station_id":"ce4bhih2rcd13ifvqfr0","pricing_plan_id":"cebpf4jnsgd1na2vs0mg"},{"bike_id":"b4c3a652-9e8e-475c-a044-b92dafead9c8","system_id":"levelo_inurba_marseille","lat":43.30611,"lon":5.3724,"is_reserved":false,"is_disabled":false,"rental_uris":{"android":"levelo://app?vid=b4c3a652-9e8e-475c-a044-b92dafead9c8","ios":"levelo://app?vid=b4c3a652-9e8e-475c-a044-b92dafead9c8"},"vehicle_type_id":"4","last_reported":1744733464,"current_range_meters":22000,"station_id":"ce4bgqh2rcd13ifvqc4g","pricing_plan_id":"cebpf4jnsgd1na2vs0mg"},{"bike_id":"c3d205ec-f865-46ca-90a0-8b106e23684e","system_id":"levelo_inurba_marseille","lat":43.29263,"lon":5.3844,"is_reserved":false,"is_disabled":false,"rental_uris":{"android":"levelo://app?vid=c3d205ec-f865-46ca-90a0-8b106e23684e","ios":"levelo://app?vid=c3d205ec-f865-46ca-90a0-8b106e23684e"},"vehicle_type_id":"4","last_reported":1744733464,"current_range_meters":22400,"station_id":"ce4bh692rcd13ifvqea0","pricing_plan_id":"cebpf4jnsgd1na2vs0mg"},{"bike_id":"ae160d34-8944-484f-b7b3-146a8a237c36","system_id":"levelo_inurba_marseille","lat":43.25579,"lon":5.38239,"is_reserved":false,"is_disabled":false,"rental_uris":{"android":"levelo://app?vid=ae160d34-8944-484f-b7b3-146a8a237c36","ios":"levelo://app?vid=ae160d34-8944-484f-b7b3-146a8a237c36"},"vehicle_type_id":"4","last_reported":1744733464,"current_range_meters":22400,"station_id":"ce4bhih2rcd13ifvqfs0","pricing_plan_id":"cebpf4jnsgd1na2vs0mg"},{"bike_id":"b9060e34-4e79-4614-aa3a-2880f18ad1c0","system_id":"levelo_inurba_marseille","lat":43.29278,"lon":5.40117,"is_reserved":false,"is_disabled":false,"rental_uris":{"android":"levelo://app?vid=b9060e34-4e79-4614-aa3a-2880f18ad1c0","ios":"levelo://app?vid=b9060e34-4e79-4614-aa3a-2880f18ad1c0"},"vehicle_type_id":"4","last_reported":1744733464,"current_range_meters":22000,"station_id":"ce4bh312rcd13ifvqdk0","pricing_plan_id":"cebpf4jnsgd1na2vs0mg"},{"bike_id":"639ee64e-5e66-4dfa-9b46-c7d8057d54da","system_id":"levelo_inurba_marseille","lat":43.2465,"lon":5.38894,"is_reserved":false,"is_disabled":false,"rental_uris":{"android":"levelo://app?vid=639ee64e-5e66-4dfa-9b46-c7d8057d54da","ios":"levelo://app?vid=639ee64e-5e66-4dfa-9b46-c7d8057d54da"},"vehicle_type_id":"4","last_reported":1744733464,"current_range_meters":22800,"station_id":"ce4bhg12rcd13ifvqf60","pricing_plan_id":"cebpf4jnsgd1na2vs0mg"},{"bike_id":"7c736d06-012d-4b8d-9f04-f73fff618281","system_id":"levelo_inurba_marseille","lat":43.25581,"lon":5.38231,"is_reserved":false,"is_disabled":false,"rental_uris":{"android":"levelo://app?vid=7c736d06-012d-4b8d-9f04-f73fff618281","ios":"levelo://app?vid=7c736d06-012d-4b8d-9f04-f73fff618281"},"vehicle_type_id":"4","last_reported":1744733464,"current_range_meters":22800,"station_id":"ce4bhih2rcd13ifvqfs0","pricing_plan_id":"cebpf4jnsgd1na2vs0mg"},{"bike_id":"76fc7d94-90dc-41f8-b774-031dedb3f392","system_id":"levelo_inurba_marseille","lat":43.33728,"lon":5.39183,"is_reserved":false,"is_disabled":false,"rental_uris":{"android":"levelo://app?vid=76fc7d94-90dc-41f8-b774-031dedb3f392","ios":"levelo://app?vid=76fc7d94-90dc-41f8-b774-031dedb3f392"},"vehicle_type_id":"4","last_reported":1744733464,"current_range_meters":22800,"station_id":"ce4bhr92rcd13ifvqhsg","pricing_plan_id":"cebpf4jnsgd1na2vs0mg"},{"bike_id":"e1b5f721-6366-4234-b942-587f7827e2de","system_id":"levelo_inurba_marseille","lat":43.29045,"lon":5.37566,"is_reserved":false,"is_disabled":false,"rental_uris":{"android":"levelo://app?vid=e1b5f721-6366-4234-b942-587f7827e2de","ios":"levelo://app?vid=e1b5f721-6366-4234-b942-587f7827e2de"},"vehicle_type_id":"4","last_reported":1744733464,"current_range_meters":22800,"station_id":"ce4bh692rcd13ifvqe90","pricing_plan_id":"cebpf4jnsgd1na2vs0mg"},{"bike_id":"60050ebd-26a3-4e68-96c3-bf5d43b112b9","system_id":"levelo_inurba_marseille","lat":43.3018,"lon":5.36606,"is_reserved":false,"is_disabled":false,"rental_uris":{"android":"levelo://app?vid=60050ebd-26a3-4e68-96c3-bf5d43b112b9","ios":"levelo://app?vid=60050ebd-26a3-4e68-96c3-bf5d43b112b9"},"vehicle_type_id":"4","last_reported":1744733464,"current_range_meters":22800,"station_id":"ce4bgrh2rcd13ifvqc8g","pricing_plan_id":"cebpf4jnsgd1na2vs0mg"},{"bike_id":"9f546f24-cccf-434b-9d76-e2115f3f7851","system_id":"levelo_inurba_marseille","lat":43.30089,"lon":5.3908,"is_reserved":false,"is_disabled":false,"rental_uris":{"android":"levelo://app?vid=9f546f24-cccf-434b-9d76-e2115f3f7851","ios":"levelo://app?vid=9f546f24-cccf-434b-9d76-e2115f3f7851"},"vehicle_type_id":"4","last_reported":1744733464,"current_range_meters":23200,"station_id":"ce4bh192rcd13ifvqdb0","pricing_plan_id":"cebpf4jnsgd1na2vs0mg"},{"bike_id":"2d03e3c2-09e4-4978-8dbc-31228f7e9fd5","system_id":"levelo_inurba_marseille","lat":43.25578,"lon":5.38241,"is_reserved":false,"is_disabled":false,"rental_uris":{"android":"levelo://app?vid=2d03e3c2-09e4-4978-8dbc-31228f7e9fd5","ios":"levelo://app?vid=2d03e3c2-09e4-4978-8dbc-31228f7e9fd5"},"vehicle_type_id":"4","last_reported":1744733464,"current_range_meters":23200,"station_id":"ce4bhih2rcd13ifvqfs0","pricing_plan_id":"cebpf4jnsgd1na2vs0mg"},{"bike_id":"f4f2a3c2-2e88-42f2-a842-4b821963dedc","system_id":"levelo_inurba_marseille","lat":43.22942,"lon":5.35403,"is_reserved":false,"is_disabled":false,"rental_uris":{"android":"levelo://app?vid=f4f2a3c2-2e88-42f2-a842-4b821963dedc","ios":"levelo://app?vid=f4f2a3c2-2e88-42f2-a842-4b821963dedc"},"vehicle_type_id":"4","last_reported":1744733464,"current_range_meters":23200,"station_id":"cpo3532slgdg3j2ikp40","pricing_plan_id":"cebpf4jnsgd1na2vs0mg"},{"bike_id":"fd74fa82-137f-4f6d-9ada-2201486ad609","system_id":"levelo_inurba_marseille","lat":43.29715,"lon":5.36623,"is_reserved":false,"is_disabled":false,"rental_uris":{"android":"levelo://app?vid=fd74fa82-137f-4f6d-9ada-2201486ad609","ios":"levelo://app?vid=fd74fa82-137f-4f6d-9ada-2201486ad609"},"vehicle_type_id":"4","last_reported":1744733464,"current_range_meters":23200,"station_id":"ce4bgn12rcd13ifvqbt0","pricing_plan_id":"cebpf4jnsgd1na2vs0mg"},{"bike_id":"f3c4b1ef-140e-425e-8344-fd625eaf0dd9","system_id":"levelo_inurba_marseille","lat":43.28941,"lon":5.36638,"is_reserved":false,"is_disabled":false,"rental_uris":{"android":"levelo://app?vid=f3c4b1ef-140e-425e-8344-fd625eaf0dd9","ios":"levelo://app?vid=f3c4b1ef-140e-425e-8344-fd625eaf0dd9"},"vehicle_type_id":"4","last_reported":1744733464,"current_range_meters":23200,"station_id":"ce4bhap2rcd13ifvqek0","pricing_plan_id":"cebpf4jnsgd1na2vs0mg"},{"bike_id":"7dd5be5d-77b7-4b8d-950c-57ce96b09d37","system_id":"levelo_inurba_marseille","lat":43.29193,"lon":5.3935,"is_reserved":false,"is_disabled":false,"rental_uris":{"android":"levelo://app?vid=7dd5be5d-77b7-4b8d-950c-57ce96b09d37","ios":"levelo://app?vid=7dd5be5d-77b7-4b8d-950c-57ce96b09d37"},"vehicle_type_id":"4","last_reported":1744733464,"current_range_meters":23200,"station_id":"ce4bh192rcd13ifvqdd0","pricing_plan_id":"cebpf4jnsgd1na2vs0mg"},{"bike_id":"9d73d3d9-c427-412c-86f8-3b3079ffbfe6","system_id":"levelo_inurba_marseille","lat":43.261975,"lon":5.375158,"is_reserved":false,"is_disabled":false,"rental_uris":{"android":"levelo://app?vid=9d73d3d9-c427-412c-86f8-3b3079ffbfe6","ios":"levelo://app?vid=9d73d3d9-c427-412c-86f8-3b3079ffbfe6"},"vehicle_type_id":"4","last_reported":1744733464,"current_range_meters":23200,"station_id":"ce4bhgh2rcd13ifvqfb0","pricing_plan_id":"cebpf4jnsgd1na2vs0mg"},{"bike_id":"1f7d13ee-e653-4111-a632-455954a98994","system_id":"levelo_inurba_marseille","lat":43.29921,"lon":5.36529,"is_reserved":false,"is_disabled":false,"rental_uris":{"android":"levelo://app?vid=1f7d13ee-e653-4111-a632-455954a98994","ios":"levelo://app?vid=1f7d13ee-e653-4111-a632-455954a98994"},"vehicle_type_id":"4","last_reported":1744733464,"current_range_meters":23200,"station_id":"ce4bgm92rcd13ifvqbr0","pricing_plan_id":"cebpf4jnsgd1na2vs0mg"},{"bike_id":"d07f3575-c570-4366-9138-201949d4b627","system_id":"levelo_inurba_marseille","lat":43.2298,"lon":5.35366,"is_reserved":false,"is_disabled":false,"rental_uris":{"android":"levelo://app?vid=d07f3575-c570-4366-9138-201949d4b627","ios":"levelo://app?vid=d07f3575-c570-4366-9138-201949d4b627"},"vehicle_type_id":"4","last_reported":1744733464,"current_range_meters":24000,"station_id":"cpo3532slgdg3j2ikp40","pricing_plan_id":"cebpf4jnsgd1na2vs0mg"},{"bike_id":"da8b85b7-2e3a-4882-b1b1-00a4494eed2a","system_id":"levelo_inurba_marseille","lat":43.33037,"lon":5.39057,"is_reserved":false,"is_disabled":false,"rental_uris":{"android":"levelo://app?vid=da8b85b7-2e3a-4882-b1b1-00a4494eed2a","ios":"levelo://app?vid=da8b85b7-2e3a-4882-b1b1-00a4494eed2a"},"vehicle_type_id":"4","last_reported":1744733464,"current_range_meters":24000,"station_id":"ce4bhr92rcd13ifvqhrg","pricing_plan_id":"cebpf4jnsgd1na2vs0mg"},{"bike_id":"42d0f08d-727f-4a62-9ad0-8c24b3c1f4d6","system_id":"levelo_inurba_marseille","lat":43.28864,"lon":5.35839,"is_reserved":false,"is_disabled":false,"rental_uris":{"android":"levelo://app?vid=42d0f08d-727f-4a62-9ad0-8c24b3c1f4d6","ios":"levelo://app?vid=42d0f08d-727f-4a62-9ad0-8c24b3c1f4d6"},"vehicle_type_id":"4","last_reported":1744733464,"current_range_meters":24000,"station_id":"ce4bhb12rcd13ifvqem0","pricing_plan_id":"cebpf4jnsgd1na2vs0mg"},{"bike_id":"843e6e5a-e330-4b13-8ca9-9faec9b4809a","system_id":"levelo_inurba_marseille","lat":43.255814,"lon":5.382257,"is_reserved":false,"is_disabled":false,"rental_uris":{"android":"levelo://app?vid=843e6e5a-e330-4b13-8ca9-9faec9b4809a","ios":"levelo://app?vid=843e6e5a-e330-4b13-8ca9-9faec9b4809a"},"vehicle_type_id":"4","last_reported":1744733464,"current_range_meters":24000,"station_id":"ce4bhih2rcd13ifvqfs0","pricing_plan_id":"cebpf4jnsgd1na2vs0mg"},{"bike_id":"c52f5133-6a57-4e71-9fb7-22e3caa013b9","system_id":"levelo_inurba_marseille","lat":43.27994,"lon":5.41662,"is_reserved":false,"is_disabled":false,"rental_uris":{"android":"levelo://app?vid=c52f5133-6a57-4e71-9fb7-22e3caa013b9","ios":"levelo://app?vid=c52f5133-6a57-4e71-9fb7-22e3caa013b9"},"vehicle_type_id":"4","last_reported":1744733464,"current_range_meters":24000,"station_id":"ce4bho12rcd13ifvqh1g","pricing_plan_id":"cebpf4jnsgd1na2vs0mg"},{"bike_id":"e3d9623a-838b-4f87-a575-3e3d04e44b10","system_id":"levelo_inurba_marseille","lat":43.26059,"lon":5.39387,"is_reserved":false,"is_disabled":false,"rental_uris":{"android":"levelo://app?vid=e3d9623a-838b-4f87-a575-3e3d04e44b10","ios":"levelo://app?vid=e3d9623a-838b-4f87-a575-3e3d04e44b10"},"vehicle_type_id":"4","last_reported":1744733464,"current_range_meters":24000,"station_id":"ce4bhh92rcd13ifvqfj0","pricing_plan_id":"cebpf4jnsgd1na2vs0mg"},{"bike_id":"ade58bce-4ab6-450d-8459-9dac0732e9b1","system_id":"levelo_inurba_marseille","lat":43.29536,"lon":5.39364,"is_reserved":false,"is_disabled":false,"rental_uris":{"android":"levelo://app?vid=ade58bce-4ab6-450d-8459-9dac0732e9b1","ios":"levelo://app?vid=ade58bce-4ab6-450d-8459-9dac0732e9b1"},"vehicle_type_id":"4","last_reported":1744733464,"current_range_meters":24000,"station_id":"ce4bh292rcd13ifvqdf0","pricing_plan_id":"cebpf4jnsgd1na2vs0mg"},{"bike_id":"7a4fbf09-73c1-42ad-9fd0-d5afd5c7bfb0","system_id":"levelo_inurba_marseille","lat":43.28938,"lon":5.38395,"is_reserved":false,"is_disabled":false,"rental_uris":{"android":"levelo://app?vid=7a4fbf09-73c1-42ad-9fd0-d5afd5c7bfb0","ios":"levelo://app?vid=7a4fbf09-73c1-42ad-9fd0-d5afd5c7bfb0"},"vehicle_type_id":"4","last_reported":1744733464,"current_range_meters":24000,"station_id":"ce4bh612rcd13ifvqe6g","pricing_plan_id":"cebpf4jnsgd1na2vs0mg"},{"bike_id":"5bab06fc-f702-4645-9357-83a05a626904","system_id":"levelo_inurba_marseille","lat":43.29194,"lon":5.39318,"is_reserved":false,"is_disabled":false,"rental_uris":{"android":"levelo://app?vid=5bab06fc-f702-4645-9357-83a05a626904","ios":"levelo://app?vid=5bab06fc-f702-4645-9357-83a05a626904"},