{"last_updated":1731164974,"ttl":60,"version":"2.2","data":{"bikes":[{"bike_id":"7e6f1391-817d-4899-a859-842b98bb22d3","system_id":"levelo_inurba_marseille","lat":43.27497,"lon":5.42452,"is_reserved":false,"is_disabled":false,"rental_uris":{"android":"levelo://app?vid=7e6f1391-817d-4899-a859-842b98bb22d3","ios":"levelo://app?vid=7e6f1391-817d-4899-a859-842b98bb22d3"},"vehicle_type_id":"4","last_reported":1731164974,"current_range_meters":36000,"station_id":"ce4bhn92rcd13ifvqgrg","pricing_plan_id":"cebpf4jnsgd1na2vs0mg"},{"bike_id":"e94e2327-9eaf-4d26-bd7f-903afa708be6","system_id":"levelo_inurba_marseille","lat":43.33756,"lon":5.39199,"is_reserved":false,"is_disabled":false,"rental_uris":{"android":"levelo://app?vid=e94e2327-9eaf-4d26-bd7f-903afa708be6","ios":"levelo://app?vid=e94e2327-9eaf-4d26-bd7f-903afa708be6"},"vehicle_type_id":"4","last_reported":1731164974,"current_range_meters":18800,"station_id":"ce4bhr92rcd13ifvqhsg","pricing_plan_id":"cebpf4jnsgd1na2vs0mg"},{"bike_id":"1ded6a6f-76ec-4079-99e7-4962d5ccfc48","system_id":"levelo_inurba_marseille","lat":43.27058,"lon":5.40259,"is_reserved":false,"is_disabled":false,"rental_uris":{"android":"levelo://app?vid=1ded6a6f-76ec-4079-99e7-4962d5ccfc48","ios":"levelo://app?vid=1ded6a6f-76ec-4079-99e7-4962d5ccfc48"},"vehicle_type_id":"4","last_reported":1731164974,"current_range_meters":32800,"station_id":"ce4bhk92rcd13ifvqgc0","pricing_plan_id":"cebpf4jnsgd1na2vs0mg"},{"bike_id":"388e00be-d072-4a5a-824c-17a811b0894a","system_id":"levelo_inurba_marseille","lat":43.30552,"lon":5.36542,"is_reserved":false,"is_disabled":false,"rental_uris":{"android":"levelo://app?vid=388e00be-d072-4a5a-824c-17a811b0894a","ios":"levelo://app?vid=388e00be-d072-4a5a-824c-17a811b0894a"},"vehicle_type_id":"4","last_reported":1731164974,"current_range_meters":8000,"station_id":"ce4bgs12rcd13ifvqcag","pricing_plan_id":"cebpf4jnsgd1na2vs0mg"},{"bike_id":"57ceddc9-0ef6-4cda-83c1-ab5eee062d64","system_id":"levelo_inurba_marseille","lat":43.26775,"lon":5.39418,"is_reserved":false,"is_disabled":false,"rental_uris":{"android":"levelo://app?vid=57ceddc9-0ef6-4cda-83c1-ab5eee062d64","ios":"levelo://app?vid=57ceddc9-0ef6-4cda-83c1-ab5eee062d64"},"vehicle_type_id":"4","last_reported":1731164974,"current_range_meters":7200,"station_id":"ce4bhh12rcd13ifvqfg0","pricing_plan_id":"cebpf4jnsgd1na2vs0mg"},{"bike_id":"68bb9078-c705-4e4c-81de-7ae7c7d86c43","system_id":"levelo_inurba_marseille","lat":43.3167,"lon":5.37734,"is_reserved":false,"is_disabled":false,"rental_uris":{"android":"levelo://app?vid=68bb9078-c705-4e4c-81de-7ae7c7d86c43","ios":"levelo://app?vid=68bb9078-c705-4e4c-81de-7ae7c7d86c43"},"vehicle_type_id":"4","last_reported":1731164974,"current_range_meters":28000,"station_id":"ce4bgth2rcd13ifvqch0","pricing_plan_id":"cebpf4jnsgd1na2vs0mg"},{"bike_id":"18102e7a-e3fe-41d8-a668-6d364c73f3e8","system_id":"levelo_inurba_marseille","lat":43.29259,"lon":5.3686,"is_reserved":false,"is_disabled":false,"rental_uris":{"android":"levelo://app?vid=18102e7a-e3fe-41d8-a668-6d364c73f3e8","ios":"levelo://app?vid=18102e7a-e3fe-41d8-a668-6d364c73f3e8"},"vehicle_type_id":"4","last_reported":1731164974,"current_range_meters":36000,"station_id":"ce4bhbp2rcd13ifvqesg","pricing_plan_id":"cebpf4jnsgd1na2vs0mg"},{"bike_id":"df2e79d1-efe6-4a83-b831-8409f5b4006e","system_id":"levelo_inurba_marseille","lat":43.26202,"lon":5.37936,"is_reserved":false,"is_disabled":false,"rental_uris":{"android":"levelo://app?vid=df2e79d1-efe6-4a83-b831-8409f5b4006e","ios":"levelo://app?vid=df2e79d1-efe6-4a83-b831-8409f5b4006e"},"vehicle_type_id":"4","last_reported":1731164974,"current_range_meters":39200,"station_id":"ce4bhjp2rcd13ifvqg90","pricing_plan_id":"cebpf4jnsgd1na2vs0mg"},{"bike_id":"1454e072-b9aa-4bfb-8b3e-afa457118b98","system_id":"levelo_inurba_marseille","lat":43.29267,"lon":5.36852,"is_reserved":false,"is_disabled":false,"rental_uris":{"android":"levelo://app?vid=1454e072-b9aa-4bfb-8b3e-afa457118b98","ios":"levelo://app?vid=1454e072-b9aa-4bfb-8b3e-afa457118b98"},"vehicle_type_id":"4","last_reported":1731164974,"current_range_meters":38800,"station_id":"ce4bhbp2rcd13ifvqesg","pricing_plan_id":"cebpf4jnsgd1na2vs0mg"},{"bike_id":"bf1c4686-3f2f-44d8-b198-67dfeb90ca24","system_id":"levelo_inurba_marseille","lat":43.29844,"lon":5.36279,"is_reserved":false,"is_disabled":false,"rental_uris":{"android":"levelo://app?vid=bf1c4686-3f2f-44d8-b198-67dfeb90ca24","ios":"levelo://app?vid=bf1c4686-3f2f-44d8-b198-67dfeb90ca24"},"vehicle_type_id":"4","last_reported":1731164974,"current_range_meters":30400,"station_id":"ce4bgpp2rcd13ifvqc3g","pricing_plan_id":"cebpf4jnsgd1na2vs0mg"},{"bike_id":"aec2dcd3-f8d8-4ec4-8193-5a148f0cf4f7","system_id":"levelo_inurba_marseille","lat":43.27054,"lon":5.40261,"is_reserved":false,"is_disabled":false,"rental_uris":{"android":"levelo://app?vid=aec2dcd3-f8d8-4ec4-8193-5a148f0cf4f7","ios":"levelo://app?vid=aec2dcd3-f8d8-4ec4-8193-5a148f0cf4f7"},"vehicle_type_id":"4","last_reported":1731164974,"current_range_meters":10000,"station_id":"ce4bhk92rcd13ifvqgc0","pricing_plan_id":"cebpf4jnsgd1na2vs0mg"},{"bike_id":"cd20034e-b421-4446-91e0-7f4ee24db35f","system_id":"levelo_inurba_marseille","lat":43.29928,"lon":5.36557,"is_reserved":false,"is_disabled":false,"rental_uris":{"android":"levelo://app?vid=cd20034e-b421-4446-91e0-7f4ee24db35f","ios":"levelo://app?vid=cd20034e-b421-4446-91e0-7f4ee24db35f"},"vehicle_type_id":"4","last_reported":1731164974,"current_range_meters":30400,"station_id":"ce4bgm92rcd13ifvqbr0","pricing_plan_id":"cebpf4jnsgd1na2vs0mg"},{"bike_id":"1bf9b2ec-96f1-44e8-ad3a-e739bca9fbc2","system_id":"levelo_inurba_marseille","lat":43.26786,"lon":5.39412,"is_reserved":false,"is_disabled":false,"rental_uris":{"android":"levelo://app?vid=1bf9b2ec-96f1-44e8-ad3a-e739bca9fbc2","ios":"levelo://app?vid=1bf9b2ec-96f1-44e8-ad3a-e739bca9fbc2"},"vehicle_type_id":"4","last_reported":1731164974,"current_range_meters":26800,"station_id":"ce4bhh12rcd13ifvqfg0","pricing_plan_id":"cebpf4jnsgd1na2vs0mg"},{"bike_id":"01bcc230-3b3a-4550-b79b-d7c533e34c40","system_id":"levelo_inurba_marseille","lat":43.272937,"lon":5.390481,"is_reserved":false,"is_disabled":false,"rental_uris":{"android":"levelo://app?vid=01bcc230-3b3a-4550-b79b-d7c533e34c40","ios":"levelo://app?vid=01bcc230-3b3a-4550-b79b-d7c533e34c40"},"vehicle_type_id":"4","last_reported":1731164974,"current_range_meters":16800,"station_id":"ce4bhgp2rcd13ifvqfe0","pricing_plan_id":"cebpf4jnsgd1na2vs0mg"},{"bike_id":"9efbeabb-6167-4838-af65-204431646610","system_id":"levelo_inurba_marseille","lat":43.24067,"lon":5.37771,"is_reserved":false,"is_disabled":false,"rental_uris":{"android":"levelo://app?vid=9efbeabb-6167-4838-af65-204431646610","ios":"levelo://app?vid=9efbeabb-6167-4838-af65-204431646610"},"vehicle_type_id":"4","last_reported":1731164974,"current_range_meters":27600,"station_id":"ce4bhnp2rcd13ifvqgvg","pricing_plan_id":"cebpf4jnsgd1na2vs0mg"},{"bike_id":"9bf0ae4e-c806-4827-85b7-ff39e59d0bc2","system_id":"levelo_inurba_marseille","lat":43.26781,"lon":5.39417,"is_reserved":false,"is_disabled":false,"rental_uris":{"android":"levelo://app?vid=9bf0ae4e-c806-4827-85b7-ff39e59d0bc2","ios":"levelo://app?vid=9bf0ae4e-c806-4827-85b7-ff39e59d0bc2"},"vehicle_type_id":"4","last_reported":1731164974,"current_range_meters":15200,"station_id":"ce4bhh12rcd13ifvqfg0","pricing_plan_id":"cebpf4jnsgd1na2vs0mg"},{"bike_id":"501a145a-776e-45ca-8634-f0c061832fe0","system_id":"levelo_inurba_marseille","lat":43.30455,"lon":5.37924,"is_reserved":false,"is_disabled":false,"rental_uris":{"android":"levelo://app?vid=501a145a-776e-45ca-8634-f0c061832fe0","ios":"levelo://app?vid=501a145a-776e-45ca-8634-f0c061832fe0"},"vehicle_type_id":"4","last_reported":1731164974,"current_range_meters":36000,"station_id":"ce4bgup2rcd13ifvqcn0","pricing_plan_id":"cebpf4jnsgd1na2vs0mg"},{"bike_id":"2fd6dc22-dc4f-436f-8f09-ea747d8c2aa2","system_id":"levelo_inurba_marseille","lat":43.239586,"lon":5.366349,"is_reserved":false,"is_disabled":false,"rental_uris":{"android":"levelo://app?vid=2fd6dc22-dc4f-436f-8f09-ea747d8c2aa2","ios":"levelo://app?vid=2fd6dc22-dc4f-436f-8f09-ea747d8c2aa2"},"vehicle_type_id":"4","last_reported":1731164974,"current_range_meters":38800,"station_id":"ce4bhi12rcd13ifvqfp0","pricing_plan_id":"cebpf4jnsgd1na2vs0mg"},{"bike_id":"f9de8ad8-7f1a-4752-8625-b54d5a8bcdea","system_id":"levelo_inurba_marseille","lat":43.26784,"lon":5.39416,"is_reserved":false,"is_disabled":false,"rental_uris":{"android":"levelo://app?vid=f9de8ad8-7f1a-4752-8625-b54d5a8bcdea","ios":"levelo://app?vid=f9de8ad8-7f1a-4752-8625-b54d5a8bcdea"},"vehicle_type_id":"4","last_reported":1731164974,"current_range_meters":15200,"station_id":"ce4bhh12rcd13ifvqfg0","pricing_plan_id":"cebpf4jnsgd1na2vs0mg"},{"bike_id":"317c7bde-35f9-45da-a1d1-6e43e64d2131","system_id":"levelo_inurba_marseille","lat":43.30133,"lon":5.38787,"is_reserved":false,"is_disabled":false,"rental_uris":{"android":"levelo://app?vid=317c7bde-35f9-45da-a1d1-6e43e64d2131","ios":"levelo://app?vid=317c7bde-35f9-45da-a1d1-6e43e64d2131"},"vehicle_type_id":"4","last_reported":1731164974,"current_range_meters":37600,"station_id":"ce4bghh2rcd13ifvqb60","pricing_plan_id":"cebpf4jnsgd1na2vs0mg"},{"bike_id":"87760207-a35a-4165-8add-b47b8c47b3d1","system_id":"levelo_inurba_marseille","lat":43.27215,"lon":5.39186,"is_reserved":false,"is_disabled":false,"rental_uris":{"android":"levelo://app?vid=87760207-a35a-4165-8add-b47b8c47b3d1","ios":"levelo://app?vid=87760207-a35a-4165-8add-b47b8c47b3d1"},"vehicle_type_id":"4","last_reported":1731164974,"current_range_meters":14400,"station_id":"ce4bhhp2rcd13ifvqfm0","pricing_plan_id":"cebpf4jnsgd1na2vs0mg"},{"bike_id":"b9059161-bc2a-4853-8231-de961bd5f1e7","system_id":"levelo_inurba_marseille","lat":43.33714,"lon":5.3918,"is_reserved":false,"is_disabled":false,"rental_uris":{"android":"levelo://app?vid=b9059161-bc2a-4853-8231-de961bd5f1e7","ios":"levelo://app?vid=b9059161-bc2a-4853-8231-de961bd5f1e7"},"vehicle_type_id":"4","last_reported":1731164974,"current_range_meters":22800,"station_id":"ce4bhr92rcd13ifvqhsg","pricing_plan_id":"cebpf4jnsgd1na2vs0mg"},{"bike_id":"f35376ee-14de-4c9d-b1de-87d5270271a8","system_id":"levelo_inurba_marseille","lat":43.26207,"lon":5.37441,"is_reserved":false,"is_disabled":false,"rental_uris":{"android":"levelo://app?vid=f35376ee-14de-4c9d-b1de-87d5270271a8","ios":"levelo://app?vid=f35376ee-14de-4c9d-b1de-87d5270271a8"},"vehicle_type_id":"4","last_reported":1731164974,"current_range_meters":20000,"station_id":"ce4bhgp2rcd13ifvqfc0","pricing_plan_id":"cebpf4jnsgd1na2vs0mg"},{"bike_id":"9f82dc0c-9a4d-45a9-b4f8-35978b7530d8","system_id":"levelo_inurba_marseille","lat":43.30783,"lon":5.37643,"is_reserved":false,"is_disabled":false,"rental_uris":{"android":"levelo://app?vid=9f82dc0c-9a4d-45a9-b4f8-35978b7530d8","ios":"levelo://app?vid=9f82dc0c-9a4d-45a9-b4f8-35978b7530d8"},"vehicle_type_id":"4","last_reported":1731164974,"current_range_meters":10800,"station_id":"ce4bgv92rcd13ifvqcq0","pricing_plan_id":"cebpf4jnsgd1na2vs0mg"},{"bike_id":"9d060b47-c978-4432-b622-c8056cdba2bd","system_id":"levelo_inurba_marseille","lat":43.27072,"lon":5.42286,"is_reserved":false,"is_disabled":false,"rental_uris":{"android":"levelo://app?vid=9d060b47-c978-4432-b622-c8056cdba2bd","ios":"levelo://app?vid=9d060b47-c978-4432-b622-c8056cdba2bd"},"vehicle_type_id":"4","last_reported":1731164974,"current_range_meters":16800,"station_id":"ce4bhk92rcd13ifvqgb0","pricing_plan_id":"cebpf4jnsgd1na2vs0mg"},{"bike_id":"0342219c-91a0-4de8-8dc4-5b3d5a79c231","system_id":"levelo_inurba_marseille","lat":43.2587,"lon":5.39894,"is_reserved":false,"is_disabled":false,"rental_uris":{"android":"levelo://app?vid=0342219c-91a0-4de8-8dc4-5b3d5a79c231","ios":"levelo://app?vid=0342219c-91a0-4de8-8dc4-5b3d5a79c231"},"vehicle_type_id":"4","last_reported":1731164974,"current_range_meters":9200,"station_id":"ce4bhl92rcd13ifvqghg","pricing_plan_id":"cebpf4jnsgd1na2vs0mg"},{"bike_id":"7f6039b9-3968-4840-8062-3d5a572ce874","system_id":"levelo_inurba_marseille","lat":43.29626,"lon":5.38789,"is_reserved":false,"is_disabled":false,"rental_uris":{"android":"levelo://app?vid=7f6039b9-3968-4840-8062-3d5a572ce874","ios":"levelo://app?vid=7f6039b9-3968-4840-8062-3d5a572ce874"},"vehicle_type_id":"4","last_reported":1731164974,"current_range_meters":35200,"station_id":"","pricing_plan_id":"cebpf4jnsgd1na2vs0mg"},{"bike_id":"6def179c-db18-455b-9157-35908b6e1c21","system_id":"levelo_inurba_marseille","lat":43.2962,"lon":5.37724,"is_reserved":false,"is_disabled":false,"rental_uris":{"android":"levelo://app?vid=6def179c-db18-455b-9157-35908b6e1c21","ios":"levelo://app?vid=6def179c-db18-455b-9157-35908b6e1c21"},"vehicle_type_id":"4","last_reported":1731164974,"current_range_meters":38800,"station_id":"ce4bgi92rcd13ifvqb90","pricing_plan_id":"cebpf4jnsgd1na2vs0mg"},{"bike_id":"f4ef053d-e709-4411-bdd9-de1d0f41e46f","system_id":"levelo_inurba_marseille","lat":43.22931,"lon":5.35374,"is_reserved":false,"is_disabled":false,"rental_uris":{"android":"levelo://app?vid=f4ef053d-e709-4411-bdd9-de1d0f41e46f","ios":"levelo://app?vid=f4ef053d-e709-4411-bdd9-de1d0f41e46f"},"vehicle_type_id":"4","last_reported":1731164974,"current_range_meters":38800,"station_id":"cpo3532slgdg3j2ikp40","pricing_plan_id":"cebpf4jnsgd1na2vs0mg"},{"bike_id":"5c37cb90-c48b-496b-8029-e60a720a6c00","system_id":"levelo_inurba_marseille","lat":43.29566,"lon":5.375,"is_reserved":false,"is_disabled":false,"rental_uris":{"android":"levelo://app?vid=5c37cb90-c48b-496b-8029-e60a720a6c00","ios":"levelo://app?vid=5c37cb90-c48b-496b-8029-e60a720a6c00"},"vehicle_type_id":"4","last_reported":1731164974,"current_range_meters":38400,"station_id":"ce4bgh92rcd13ifvqb50","pricing_plan_id":"cebpf4jnsgd1na2vs0mg"},{"bike_id":"172e363e-8646-4239-a696-a1b13433c416","system_id":"levelo_inurba_marseille","lat":43.27327,"lon":5.39122,"is_reserved":false,"is_disabled":false,"rental_uris":{"android":"levelo://app?vid=172e363e-8646-4239-a696-a1b13433c416","ios":"levelo://app?vid=172e363e-8646-4239-a696-a1b13433c416"},"vehicle_type_id":"4","last_reported":1731164974,"current_range_meters":28800,"station_id":"ce4bhgp2rcd13ifvqfe0","pricing_plan_id":"cebpf4jnsgd1na2vs0mg"},{"bike_id":"d8184297-5a42-4d08-8f2f-3d6e44e062fe","system_id":"levelo_inurba_marseille","lat":43.29,"lon":5.35612,"is_reserved":false,"is_disabled":false,"rental_uris":{"android":"levelo://app?vid=d8184297-5a42-4d08-8f2f-3d6e44e062fe","ios":"levelo://app?vid=d8184297-5a42-4d08-8f2f-3d6e44e062fe"},"vehicle_type_id":"4","last_reported":1731164974,"current_range_meters":24400,"station_id":"ce4bhb92rcd13ifvqen0","pricing_plan_id":"cebpf4jnsgd1na2vs0mg"},{"bike_id":"022a6c3f-2c40-4cbf-9753-f6fa44b0f843","system_id":"levelo_inurba_marseille","lat":43.312831,"lon":5.401712,"is_reserved":false,"is_disabled":false,"rental_uris":{"android":"levelo://app?vid=022a6c3f-2c40-4cbf-9753-f6fa44b0f843","ios":"levelo://app?vid=022a6c3f-2c40-4cbf-9753-f6fa44b0f843"},"vehicle_type_id":"4","last_reported":1731164974,"current_range_meters":38800,"station_id":"ce4bh092rcd13ifvqd30","pricing_plan_id":"cebpf4jnsgd1na2vs0mg"},{"bike_id":"94c1a05b-4b06-46ae-a5e4-c6962d31b703","system_id":"levelo_inurba_marseille","lat":43.29269,"lon":5.36858,"is_reserved":false,"is_disabled":false,"rental_uris":{"android":"levelo://app?vid=94c1a05b-4b06-46ae-a5e4-c6962d31b703","ios":"levelo://app?vid=94c1a05b-4b06-46ae-a5e4-c6962d31b703"},"vehicle_type_id":"4","last_reported":1731164974,"current_range_meters":28800,"station_id":"ce4bhbp2rcd13ifvqesg","pricing_plan_id":"cebpf4jnsgd1na2vs0mg"},{"bike_id":"6d24f9b2-b22c-4ed8-9ac0-617f244a95b5","system_id":"levelo_inurba_marseille","lat":43.26027,"lon":5.37549,"is_reserved":false,"is_disabled":false,"rental_uris":{"android":"levelo://app?vid=6d24f9b2-b22c-4ed8-9ac0-617f244a95b5","ios":"levelo://app?vid=6d24f9b2-b22c-4ed8-9ac0-617f244a95b5"},"vehicle_type_id":"4","last_reported":1731164974,"current_range_meters":38800,"station_id":"ce4bhgh2rcd13ifvqfa0","pricing_plan_id":"cebpf4jnsgd1na2vs0mg"},{"bike_id":"311892d7-611d-4314-bb84-81be2cb2cb42","system_id":"levelo_inurba_marseille","lat":43.30537,"lon":5.3655,"is_reserved":false,"is_disabled":false,"rental_uris":{"android":"levelo://app?vid=311892d7-611d-4314-bb84-81be2cb2cb42","ios":"levelo://app?vid=311892d7-611d-4314-bb84-81be2cb2cb42"},"vehicle_type_id":"4","last_reported":1731164974,"current_range_meters":38400,"station_id":"ce4bgs12rcd13ifvqcag","pricing_plan_id":"cebpf4jnsgd1na2vs0mg"},{"bike_id":"d1e83aef-1954-4a85-9961-213f10246b93","system_id":"levelo_inurba_marseille","lat":43.25501,"lon":5.37652,"is_reserved":false,"is_disabled":false,"rental_uris":{"android":"levelo://app?vid=d1e83aef-1954-4a85-9961-213f10246b93","ios":"levelo://app?vid=d1e83aef-1954-4a85-9961-213f10246b93"},"vehicle_type_id":"4","last_reported":1731164974,"current_range_meters":1600,"station_id":"ce4bhh12rcd13ifvqff0","pricing_plan_id":"cebpf4jnsgd1na2vs0mg"},{"bike_id":"828a5fed-bfbb-4fb7-ac2d-ffaed39a8507","system_id":"levelo_inurba_marseille","lat":43.30456,"lon":5.37914,"is_reserved":false,"is_disabled":false,"rental_uris":{"android":"levelo://app?vid=828a5fed-bfbb-4fb7-ac2d-ffaed39a8507","ios":"levelo://app?vid=828a5fed-bfbb-4fb7-ac2d-ffaed39a8507"},"vehicle_type_id":"4","last_reported":1731164974,"current_range_meters":40000,"station_id":"ce4bgup2rcd13ifvqcn0","pricing_plan_id":"cebpf4jnsgd1na2vs0mg"},{"bike_id":"7243fcc8-e91d-49aa-a78b-3d82c9cf3c65","system_id":"levelo_inurba_marseille","lat":43.28592,"lon":5.35086,"is_reserved":false,"is_disabled":false,"rental_uris":{"android":"levelo://app?vid=7243fcc8-e91d-49aa-a78b-3d82c9cf3c65","ios":"levelo://app?vid=7243fcc8-e91d-49aa-a78b-3d82c9cf3c65"},"vehicle_type_id":"4","last_reported":1731164974,"current_range_meters":34800,"station_id":"ce4bhch2rcd13ifvqeug","pricing_plan_id":"cebpf4jnsgd1na2vs0mg"},{"bike_id":"662eb69d-052d-4d1e-9cd4-9d1f354f9bcf","system_id":"levelo_inurba_marseille","lat":43.29912,"lon":5.37465,"is_reserved":false,"is_disabled":false,"rental_uris":{"android":"levelo://app?vid=662eb69d-052d-4d1e-9cd4-9d1f354f9bcf","ios":"levelo://app?vid=662eb69d-052d-4d1e-9cd4-9d1f354f9bcf"},"vehicle_type_id":"4","last_reported":1731164974,"current_range_meters":38400,"station_id":"ce4bgjh2rcd13ifvqbg0","pricing_plan_id":"cebpf4jnsgd1na2vs0mg"},{"bike_id":"71bb50a1-6cdb-4a6f-b24c-1cbd7c603ad3","system_id":"levelo_inurba_marseille","lat":43.31424,"lon":5.37403,"is_reserved":false,"is_disabled":false,"rental_uris":{"android":"levelo://app?vid=71bb50a1-6cdb-4a6f-b24c-1cbd7c603ad3","ios":"levelo://app?vid=71bb50a1-6cdb-4a6f-b24c-1cbd7c603ad3"},"vehicle_type_id":"4","last_reported":1731164974,"current_range_meters":27600,"station_id":"","pricing_plan_id":"cebpf4jnsgd1na2vs0mg"},{"bike_id":"7b669eb8-abe6-4499-b54f-52fcf2997ec2","system_id":"levelo_inurba_marseille","lat":43.29572,"lon":5.37515,"is_reserved":false,"is_disabled":false,"rental_uris":{"android":"levelo://app?vid=7b669eb8-abe6-4499-b54f-52fcf2997ec2","ios":"levelo://app?vid=7b669eb8-abe6-4499-b54f-52fcf2997ec2"},"vehicle_type_id":"4","last_reported":1731164974,"current_range_meters":25200,"station_id":"ce4bgh92rcd13ifvqb50","pricing_plan_id":"cebpf4jnsgd1na2vs0mg"},{"bike_id":"c94909dd-e782-4a49-bf66-6d27f36ac2ee","system_id":"levelo_inurba_marseille","lat":43.3032,"lon":5.36902,"is_reserved":false,"is_disabled":false,"rental_uris":{"android":"levelo://app?vid=c94909dd-e782-4a49-bf66-6d27f36ac2ee","ios":"levelo://app?vid=c94909dd-e782-4a49-bf66-6d27f36ac2ee"},"vehicle_type_id":"4","last_reported":1731164974,"current_range_meters":37600,"station_id":"ce4bgqh2rcd13ifvqc5g","pricing_plan_id":"cebpf4jnsgd1na2vs0mg"},{"bike_id":"1ddb7d72-d55c-42d6-92c9-121b4e8b6650","system_id":"levelo_inurba_marseille","lat":43.30633,"lon":5.40108,"is_reserved":false,"is_disabled":false,"rental_uris":{"android":"levelo://app?vid=1ddb7d72-d55c-42d6-92c9-121b4e8b6650","ios":"levelo://app?vid=1ddb7d72-d55c-42d6-92c9-121b4e8b6650"},"vehicle_type_id":"4","last_reported":1731164974,"current_range_meters":35200,"station_id":"ce4bh112rcd13ifvqda0","pricing_plan_id":"cebpf4jnsgd1na2vs0mg"},{"bike_id":"b8fdd341-0697-41ca-82c9-e4253415f4e6","system_id":"levelo_inurba_marseille","lat":43.23046,"lon":5.35486,"is_reserved":false,"is_disabled":false,"rental_uris":{"android":"levelo://app?vid=b8fdd341-0697-41ca-82c9-e4253415f4e6","ios":"levelo://app?vid=b8fdd341-0697-41ca-82c9-e4253415f4e6"},"vehicle_type_id":"4","last_reported":1731164974,"current_range_meters":32000,"station_id":"cpo3342slgdg3j2ifvpg","pricing_plan_id":"cebpf4jnsgd1na2vs0mg"},{"bike_id":"e78690b3-93de-4dae-ac19-cc222737cf95","system_id":"levelo_inurba_marseille","lat":43.31231,"lon":5.3686,"is_reserved":false,"is_disabled":false,"rental_uris":{"android":"levelo://app?vid=e78690b3-93de-4dae-ac19-cc222737cf95","ios":"levelo://app?vid=e78690b3-93de-4dae-ac19-cc222737cf95"},"vehicle_type_id":"4","last_reported":1731164974,"current_range_meters":14800,"station_id":"","pricing_plan_id":"cebpf4jnsgd1na2vs0mg"},{"bike_id":"6e2d14fd-eb01-49b5-bd29-aaa82bfcdea8","system_id":"levelo_inurba_marseille","lat":43.30346,"lon":5.41883,"is_reserved":false,"is_disabled":false,"rental_uris":{"android":"levelo://app?vid=6e2d14fd-eb01-49b5-bd29-aaa82bfcdea8","ios":"levelo://app?vid=6e2d14fd-eb01-49b5-bd29-aaa82bfcdea8"},"vehicle_type_id":"4","last_reported":1731164974,"current_range_meters":25200,"station_id":"ce4bhop2rcd13ifvqh7g","pricing_plan_id":"cebpf4jnsgd1na2vs0mg"},{"bike_id":"d95cc324-32ce-4458-8bff-769027c78260","system_id":"levelo_inurba_marseille","lat":43.29911,"lon":5.37473,"is_reserved":false,"is_disabled":false,"rental_uris":{"android":"levelo://app?vid=d95cc324-32ce-4458-8bff-769027c78260","ios":"levelo://app?vid=d95cc324-32ce-4458-8bff-769027c78260"},"vehicle_type_id":"4","last_reported":1731164974,"current_range_meters":34000,"station_id":"ce4bgjh2rcd13ifvqbg0","pricing_plan_id":"cebpf4jnsgd1na2vs0mg"},{"bike_id":"b9d0bc02-8b8d-46ee-bb6e-da3b365f1431","system_id":"levelo_inurba_marseille","lat":43.30153,"lon":5.38082,"is_reserved":false,"is_disabled":false,"rental_uris":{"android":"levelo://app?vid=b9d0bc02-8b8d-46ee-bb6e-da3b365f1431","ios":"levelo://app?vid=b9d0bc02-8b8d-46ee-bb6e-da3b365f1431"},"vehicle_type_id":"4","last_reported":1731164974,"current_range_meters":8800,"station_id":"ce4bgjp2rcd13ifvqbh0","pricing_plan_id":"cebpf4jnsgd1na2vs0mg"},{"bike_id":"9b1b35b4-afa8-432a-803e-6b6f99da09f5","system_id":"levelo_inurba_marseille","lat":43.29193,"lon":5.35801,"is_reserved":false,"is_disabled":false,"rental_uris":{"android":"levelo://app?vid=9b1b35b4-afa8-432a-803e-6b6f99da09f5","ios":"levelo://app?vid=9b1b35b4-afa8-432a-803e-6b6f99da09f5"},"vehicle_type_id":"4","last_reported":1731164974,"current_range_meters":33600,"station_id":"ce4bhb12rcd13ifvqel0","pricing_plan_id":"cebpf4jnsgd1na2vs0mg"},{"bike_id":"f55c81a3-1b61-452f-9e21-2fce7febf5cc","system_id":"levelo_inurba_marseille","lat":43.29601,"lon":5.38112,"is_reserved":false,"is_disabled":false,"rental_uris":{"android":"levelo://app?vid=f55c81a3-1b61-452f-9e21-2fce7febf5cc","ios":"levelo://app?vid=f55c81a3-1b61-452f-9e21-2fce7febf5cc"},"vehicle_type_id":"4","last_reported":1731164974,"current_range_meters":14400,"station_id":"ce4bgl12rcd13ifvqbo0","pricing_plan_id":"cebpf4jnsgd1na2vs0mg"},{"bike_id":"a0109dfd-3315-4526-b183-65f4ca885fd5","system_id":"levelo_inurba_marseille","lat":43.30541,"lon":5.36549,"is_reserved":false,"is_disabled":false,"rental_uris":{"android":"levelo://app?vid=a0109dfd-3315-4526-b183-65f4ca885fd5","ios":"levelo://app?vid=a0109dfd-3315-4526-b183-65f4ca885fd5"},"vehicle_type_id":"4","last_reported":1731164974,"current_range_meters":30400,"station_id":"ce4bgs12rcd13ifvqcag","pricing_plan_id":"cebpf4jnsgd1na2vs0mg"},{"bike_id":"cc322d03-5f63-4724-becb-8d0110dd856a","system_id":"levelo_inurba_marseille","lat":43.27617,"lon":5.36111,"is_reserved":false,"is_disabled":false,"rental_uris":{"android":"levelo://app?vid=cc322d03-5f63-4724-becb-8d0110dd856a","ios":"levelo://app?vid=cc322d03-5f63-4724-becb-8d0110dd856a"},"vehicle_type_id":"4","last_reported":1731164974,"current_range_meters":16400,"station_id":"ce4bgj92rcd13ifvqbe0","pricing_plan_id":"cebpf4jnsgd1na2vs0mg"},{"bike_id":"b46ef96e-d2a2-4c07-a8e9-661445b1de2c","system_id":"levelo_inurba_marseille","lat":43.29903,"lon":5.38163,"is_reserved":false,"is_disabled":false,"rental_uris":{"android":"levelo://app?vid=b46ef96e-d2a2-4c07-a8e9-661445b1de2c","ios":"levelo://app?vid=b46ef96e-d2a2-4c07-a8e9-661445b1de2c"},"vehicle_type_id":"4","last_reported":1731164974,"current_range_meters":31200,"station_id":"ce4bgj12rcd13ifvqbc0","pricing_plan_id":"cebpf4jnsgd1na2vs0mg"},{"bike_id":"46eef23f-12d9-472d-bbc8-38bbf585ff1a","system_id":"levelo_inurba_marseille","lat":43.29269,"lon":5.36853,"is_reserved":false,"is_disabled":false,"rental_uris":{"android":"levelo://app?vid=46eef23f-12d9-472d-bbc8-38bbf585ff1a","ios":"levelo://app?vid=46eef23f-12d9-472d-bbc8-38bbf585ff1a"},"vehicle_type_id":"4","last_reported":1731164974,"current_range_meters":17600,"station_id":"ce4bhbp2rcd13ifvqesg","pricing_plan_id":"cebpf4jnsgd1na2vs0mg"},{"bike_id":"ae40ee01-49db-4b4f-bc9e-9273062d5d93","system_id":"levelo_inurba_marseille","lat":43.24381,"lon":5.37076,"is_reserved":false,"is_disabled":false,"rental_uris":{"android":"levelo://app?vid=ae40ee01-49db-4b4f-bc9e-9273062d5d93","ios":"levelo://app?vid=ae40ee01-49db-4b4f-bc9e-9273062d5d93"},"vehicle_type_id":"4","last_reported":1731164974,"current_range_meters":5600,"station_id":"ce4bhhh2rcd13ifvqfk0","pricing_plan_id":"cebpf4jnsgd1na2vs0mg"},{"bike_id":"44d0c9df-82a5-491b-96fb-0826efc1912a","system_id":"levelo_inurba_marseille","lat":43.301483,"lon":5.380924,"is_reserved":false,"is_disabled":false,"rental_uris":{"android":"levelo://app?vid=44d0c9df-82a5-491b-96fb-0826efc1912a","ios":"levelo://app?vid=44d0c9df-82a5-491b-96fb-0826efc1912a"},"vehicle_type_id":"4","last_reported":1731164974,"current_range_meters":19600,"station_id":"ce4bgjp2rcd13ifvqbh0","pricing_plan_id":"cebpf4jnsgd1na2vs0mg"},{"bike_id":"a15a9786-8468-4ecf-8a9c-0447b74ba0bc","system_id":"levelo_inurba_marseille","lat":43.29893,"lon":5.43675,"is_reserved":false,"is_disabled":false,"rental_uris":{"android":"levelo://app?vid=a15a9786-8468-4ecf-8a9c-0447b74ba0bc","ios":"levelo://app?vid=a15a9786-8468-4ecf-8a9c-0447b74ba0bc"},"vehicle_type_id":"4","last_reported":1731164974,"current_range_meters":36800,"station_id":"ce4bhpp2rcd13ifvqhfg","pricing_plan_id":"cebpf4jnsgd1na2vs0mg"},{"bike_id":"63dc0968-353b-4e34-9942-c2935ce05c98","system_id":"levelo_inurba_marseille","lat":43.3054,"lon":5.36555,"is_reserved":false,"is_disabled":false,"rental_uris":{"android":"levelo://app?vid=63dc0968-353b-4e34-9942-c2935ce05c98","ios":"levelo://app?vid=63dc0968-353b-4e34-9942-c2935ce05c98"},"vehicle_type_id":"4","last_reported":1731164974,"current_range_meters":38800,"station_id":"ce4bgs12rcd13ifvqcag","pricing_plan_id":"cebpf4jnsgd1na2vs0mg"},{"bike_id":"01d11fed-f218-495b-a75b-34216b4a8f9c","system_id":"levelo_inurba_marseille","lat":43.27371,"lon":5.36248,"is_reserved":false,"is_disabled":false,"rental_uris":{"android":"levelo://app?vid=01d11fed-f218-495b-a75b-34216b4a8f9c","ios":"levelo://app?vid=01d11fed-f218-495b-a75b-34216b4a8f9c"},"vehicle_type_id":"4","last_reported":1731164974,"current_range_meters":24000,"station_id":"ce4bhbh2rcd13ifvqeo0","pricing_plan_id":"cebpf4jnsgd1na2vs0mg"},{"bike_id":"0778aa4d-aae0-4d31-84a7-e33ba159e0fc","system_id":"levelo_inurba_marseille","lat":43.30469,"lon":5.37908,"is_reserved":false,"is_disabled":false,"rental_uris":{"android":"levelo://app?vid=0778aa4d-aae0-4d31-84a7-e33ba159e0fc","ios":"levelo://app?vid=0778aa4d-aae0-4d31-84a7-e33ba159e0fc"},"vehicle_type_id":"4","last_reported":1731164974,"current_range_meters":37600,"station_id":"ce4bgup2rcd13ifvqcn0","pricing_plan_id":"cebpf4jnsgd1na2vs0mg"},{"bike_id":"7069983c-9821-42db-929a-39e6b3b9ca98","system_id":"levelo_inurba_marseille","lat":43.32656,"lon":5.40992,"is_reserved":false,"is_disabled":false,"rental_uris":{"android":"levelo://app?vid=7069983c-9821-42db-929a-39e6b3b9ca98","ios":"levelo://app?vid=7069983c-9821-42db-929a-39e6b3b9ca98"},"vehicle_type_id":"4","last_reported":1731164974,"current_range_meters":36400,"station_id":"ce4bhq92rcd13ifvqhkg","pricing_plan_id":"cebpf4jnsgd1na2vs0mg"},{"bike_id":"39f17349-ada4-4402-b2d4-f4683db56d2d","system_id":"levelo_inurba_marseille","lat":43.27493,"lon":5.42456,"is_reserved":false,"is_disabled":false,"rental_uris":{"android":"levelo://app?vid=39f17349-ada4-4402-b2d4-f4683db56d2d","ios":"levelo://app?vid=39f17349-ada4-4402-b2d4-f4683db56d2d"},"vehicle_type_id":"4","last_reported":1731164974,"current_range_meters":38800,"station_id":"ce4bhn92rcd13ifvqgrg","pricing_plan_id":"cebpf4jnsgd1na2vs0mg"},{"bike_id":"acca6862-2512-438a-9918-2f9b21a3d14b","system_id":"levelo_inurba_marseille","lat":43.29735,"lon":5.37687,"is_reserved":false,"is_disabled":false,"rental_uris":{"android":"levelo://app?vid=acca6862-2512-438a-9918-2f9b21a3d14b","ios":"levelo://app?vid=acca6862-2512-438a-9918-2f9b21a3d14b"},"vehicle_type_id":"4","last_reported":1731164974,"current_range_meters":38800,"station_id":"ce4bgkh2rcd13ifvqbl0","pricing_plan_id":"cebpf4jnsgd1na2vs0mg"},{"bike_id":"b9478b1d-79e3-44c9-ae60-496dd5151f62","system_id":"levelo_inurba_marseille","lat":43.29157,"lon":5.37148,"is_reserved":false,"is_disabled":false,"rental_uris":{"android":"levelo://app?vid=b9478b1d-79e3-44c9-ae60-496dd5151f62","ios":"levelo://app?vid=b9478b1d-79e3-44c9-ae60-496dd5151f62"},"vehicle_type_id":"4","last_reported":1731164974,"current_range_meters":36400,"station_id":"ce4bha92rcd13ifvqeh0","pricing_plan_id":"cebpf4jnsgd1na2vs0mg"},{"bike_id":"259ac6b3-c948-4c62-b167-931ed2a7069d","system_id":"levelo_inurba_marseille","lat":43.2928,"lon":5.36847,"is_reserved":false,"is_disabled":false,"rental_uris":{"android":"levelo://app?vid=259ac6b3-c948-4c62-b167-931ed2a7069d","ios":"levelo://app?vid=259ac6b3-c948-4c62-b167-931ed2a7069d"},"vehicle_type_id":"4","last_reported":1731164974,"current_range_meters":30000,"station_id":"ce4bhbp2rcd13ifvqesg","pricing_plan_id":"cebpf4jnsgd1na2vs0mg"},{"bike_id":"4204c697-9142-4d6f-a64b-20f319f8c9a7","system_id":"levelo_inurba_marseille","lat":43.2707,"lon":5.42274,"is_reserved":false,"is_disabled":false,"rental_uris":{"android":"levelo://app?vid=4204c697-9142-4d6f-a64b-20f319f8c9a7","ios":"levelo://app?vid=4204c697-9142-4d6f-a64b-20f319f8c9a7"},"vehicle_type_id":"4","last_reported":1731164974,"current_range_meters":14400,"station_id":"ce4bhk92rcd13ifvqgb0","pricing_plan_id":"cebpf4jnsgd1na2vs0mg"},{"bike_id":"22999098-76e2-436e-b408-ab14c51248cc","system_id":"levelo_inurba_marseille","lat":43.30545,"lon":5.36551,"is_reserved":false,"is_disabled":false,"rental_uris":{"android":"levelo://app?vid=22999098-76e2-436e-b408-ab14c51248cc","ios":"levelo://app?vid=22999098-76e2-436e-b408-ab14c51248cc"},"vehicle_type_id":"4","last_reported":1731164974,"current_range_meters":8000,"station_id":"ce4bgs12rcd13ifvqcag","pricing_plan_id":"cebpf4jnsgd1na2vs0mg"},{"bike_id":"06675f04-23fe-4ef8-bbb6-b7e73331c65f","system_id":"levelo_inurba_marseille","lat":43.24807,"lon":5.37457,"is_reserved":false,"is_disabled":false,"rental_uris":{"android":"levelo://app?vid=06675f04-23fe-4ef8-bbb6-b7e73331c65f","ios":"levelo://app?vid=06675f04-23fe-4ef8-bbb6-b7e73331c65f"},"vehicle_type_id":"4","last_reported":1731164974,"current_range_meters":27600,"station_id":"ce4bhgh2rcd13ifvqfb0","pricing_plan_id":"cebpf4jnsgd1na2vs0mg"},{"bike_id":"de15f00a-25b1-4b9b-a102-3b4e4c3a83ba","system_id":"levelo_inurba_marseille","lat":43.30143,"lon":5.38084,"is_reserved":false,"is_disabled":false,"rental_uris":{"android":"levelo://app?vid=de15f00a-25b1-4b9b-a102-3b4e4c3a83ba","ios":"levelo://app?vid=de15f00a-25b1-4b9b-a102-3b4e4c3a83ba"},"vehicle_type_id":"4","last_reported":1731164974,"current_range_meters":30000,"station_id":"ce4bgjp2rcd13ifvqbh0","pricing_plan_id":"cebpf4jnsgd1na2vs0mg"},{"bike_id":"22ef539c-7f47-4ce9-81fd-4ef5a1c74efc","system_id":"levelo_inurba_marseille","lat":43.29038,"lon":5.39965,"is_reserved":false,"is_disabled":false,"rental_uris":{"android":"levelo://app?vid=22ef539c-7f47-4ce9-81fd-4ef5a1c74efc","ios":"levelo://app?vid=22ef539c-7f47-4ce9-81fd-4ef5a1c74efc"},"vehicle_type_id":"4","last_reported":1731164974,"current_range_meters":32400,"station_id":"ce4bh392rcd13ifvqdm0","pricing_plan_id":"cebpf4jnsgd1na2vs0mg"},{"bike_id":"a5eec120-c7bc-44ae-9136-2e7d5f5e6aaa","system_id":"levelo_inurba_marseille","lat":43.29097,"lon":5.38139,"is_reserved":false,"is_disabled":false,"rental_uris":{"android":"levelo://app?vid=a5eec120-c7bc-44ae-9136-2e7d5f5e6aaa","ios":"levelo://app?vid=a5eec120-c7bc-44ae-9136-2e7d5f5e6aaa"},"vehicle_type_id":"4","last_reported":1731164974,"current_range_meters":34800,"station_id":"ce4bh512rcd13ifvqe2g","pricing_plan_id":"cebpf4jnsgd1na2vs0mg"},{"bike_id":"38b32dc5-5147-4c46-b80f-d1586eb1296b","system_id":"levelo_inurba_marseille","lat":43.29909,"lon":5.37471,"is_reserved":false,"is_disabled":false,"rental_uris":{"android":"levelo://app?vid=38b32dc5-5147-4c46-b80f-d1586eb1296b","ios":"levelo://app?vid=38b32dc5-5147-4c46-b80f-d1586eb1296b"},"vehicle_type_id":"4","last_reported":1731164974,"current_range_meters":28800,"station_id":"ce4bgjh2rcd13ifvqbg0","pricing_plan_id":"cebpf4jnsgd1na2vs0mg"},{"bike_id":"ebe483fe-063d-486e-bd62-145a299216a5","system_id":"levelo_inurba_marseille","lat":43.29684,"lon":5.37285,"is_reserved":false,"is_disabled":false,"rental_uris":{"android":"levelo://app?vid=ebe483fe-063d-486e-bd62-145a299216a5","ios":"levelo://app?vid=ebe483fe-063d-486e-bd62-145a299216a5"},"vehicle_type_id":"4","last_reported":1731164974,"current_range_meters":25200,"station_id":"ce4bgk12rcd13ifvqbj0","pricing_plan_id":"cebpf4jnsgd1na2vs0mg"},{"bike_id":"b4de7b9a-6515-49e3-b4f0-3d8149400129","system_id":"levelo_inurba_marseille","lat":43.30152,"lon":5.38075,"is_reserved":false,"is_disabled":false,"rental_uris":{"android":"levelo://app?vid=b4de7b9a-6515-49e3-b4f0-3d8149400129","ios":"levelo://app?vid=b4de7b9a-6515-49e3-b4f0-3d8149400129"},"vehicle_type_id":"4","last_reported":1731164974,"current_range_meters":36400,"station_id":"ce4bgjp2rcd13ifvqbh0","pricing_plan_id":"cebpf4jnsgd1na2vs0mg"},{"bike_id":"2059bac3-fce5-435e-8f7e-4bf7de15c440","system_id":"levelo_inurba_marseille","lat":43.28461,"lon":5.38435,"is_reserved":false,"is_disabled":false,"rental_uris":{"android":"levelo://app?vid=2059bac3-fce5-435e-8f7e-4bf7de15c440","ios":"levelo://app?vid=2059bac3-fce5-435e-8f7e-4bf7de15c440"},"vehicle_type_id":"4","last_reported":1731164974,"current_range_meters":39200,"station_id":"ce4bh512rcd13ifvqe3g","pricing_plan_id":"cebpf4jnsgd1na2vs0mg"},{"bike_id":"240d377e-6da5-4885-adac-7e14ed88a27c","system_id":"levelo_inurba_marseille","lat":43.30543,"lon":5.36549,"is_reserved":false,"is_disabled":false,"rental_uris":{"android":"levelo://app?vid=240d377e-6da5-4885-adac-7e14ed88a27c","ios":"levelo://app?vid=240d377e-6da5-4885-adac-7e14ed88a27c"},"vehicle_type_id":"4","last_reported":1731164974,"current_range_meters":27200,"station_id":"ce4bgs12rcd13ifvqcag","pricing_plan_id":"cebpf4jnsgd1na2vs0mg"},{"bike_id":"ef288286-229d-4b9a-a189-8d61840dcffb","system_id":"levelo_inurba_marseille","lat":43.23183,"lon":5.35557,"is_reserved":false,"is_disabled":false,"rental_uris":{"android":"levelo://app?vid=ef288286-229d-4b9a-a189-8d61840dcffb","ios":"levelo://app?vid=ef288286-229d-4b9a-a189-8d61840dcffb"},"vehicle_type_id":"4","last_reported":1731164974,"current_range_meters":33200,"station_id":"ce4bhu92rcd13ifvqi70","pricing_plan_id":"cebpf4jnsgd1na2vs0mg"},{"bike_id":"4ef1737e-7a35-40c1-9b4c-08dfd0b2c0d6","system_id":"levelo_inurba_marseille","lat":43.29221,"lon":5.36059,"is_reserved":false,"is_disabled":false,"rental_uris":{"android":"levelo://app?vid=4ef1737e-7a35-40c1-9b4c-08dfd0b2c0d6","ios":"levelo://app?vid=4ef1737e-7a35-40c1-9b4c-08dfd0b2c0d6"},"vehicle_type_id":"4","last_reported":1731164974,"current_range_meters":38800,"station_id":"ce4bhbh2rcd13ifvqeqg","pricing_plan_id":"cebpf4jnsgd1na2vs0mg"},{"bike_id":"68e79189-7770-4eb7-903c-e5e5fd16ece1","system_id":"levelo_inurba_marseille","lat":43.30541,"lon":5.3654,"is_reserved":false,"is_disabled":false,"rental_uris":{"android":"levelo://app?vid=68e79189-7770-4eb7-903c-e5e5fd16ece1","ios":"levelo://app?vid=68e79189-7770-4eb7-903c-e5e5fd16ece1"},"vehicle_type_id":"4","last_reported":1731164974,"current_range_meters":17200,"station_id":"ce4bgs12rcd13ifvqcag","pricing_plan_id":"cebpf4jnsgd1na2vs0mg"},{"bike_id":"1b273681-a149-4b44-af0d-27ca962351bc","system_id":"levelo_inurba_marseille","lat":43.2997,"lon":5.41327,"is_reserved":false,"is_disabled":false,"rental_uris":{"android":"levelo://app?vid=1b273681-a149-4b44-af0d-27ca962351bc","ios":"levelo://app?vid=1b273681-a149-4b44-af0d-27ca962351bc"},"vehicle_type_id":"4","last_reported":1731164974,"current_range_meters":36000,"station_id":"ce4bhp12rcd13ifvqh9g","pricing_plan_id":"cebpf4jnsgd1na2vs0mg"},{"bike_id":"4844b53f-cf16-4c5d-85e7-a7b57c613cb8","system_id":"levelo_inurba_marseille","lat":43.2455,"lon":5.39524,"is_reserved":false,"is_disabled":false,"rental_uris":{"android":"levelo://app?vid=4844b53f-cf16-4c5d-85e7-a7b57c613cb8","ios":"levelo://app?vid=4844b53f-cf16-4c5d-85e7-a7b57c613cb8"},"vehicle_type_id":"4","last_reported":1731164974,"current_range_meters":14800,"station_id":"ce4bhlp2rcd13ifvqgjg","pricing_plan_id":"cebpf4jnsgd1na2vs0mg"},{"bike_id":"409fce05-1481-4019-8256-b90cec12f96f","system_id":"levelo_inurba_marseille","lat":43.27453,"lon":5.40969,"is_reserved":false,"is_disabled":false,"rental_uris":{"android":"levelo://app?vid=409fce05-1481-4019-8256-b90cec12f96f","ios":"levelo://app?vid=409fce05-1481-4019-8256-b90cec12f96f"},"vehicle_type_id":"4","last_reported":1731164974,"current_range_meters":18800,"station_id":"","pricing_plan_id":"cebpf4jnsgd1na2vs0mg"},{"bike_id":"2fcc5e1a-933e-4794-969d-323eca2ba9cd","system_id":"levelo_inurba_marseille","lat":43.29266,"lon":5.36845,"is_reserved":false,"is_disabled":false,"rental_uris":{"android":"levelo://app?vid=2fcc5e1a-933e-4794-969d-323eca2ba9cd","ios":"levelo://app?vid=2fcc5e1a-933e-4794-969d-323eca2ba9cd"},"vehicle_type_id":"4","last_reported":1731164974,"current_range_meters":28800,"station_id":"ce4bhbp2rcd13ifvqesg","pricing_plan_id":"cebpf4jnsgd1na2vs0mg"},{"bike_id":"9ae20148-7f84-4ca9-881f-f3cdc365c4d8","system_id":"levelo_inurba_marseille","lat":43.28116,"lon":5.37846,"is_reserved":false,"is_disabled":false,"rental_uris":{"android":"levelo://app?vid=9ae20148-7f84-4ca9-881f-f3cdc365c4d8","ios":"levelo://app?vid=9ae20148-7f84-4ca9-881f-f3cdc365c4d8"},"vehicle_type_id":"4","last_reported":1731164974,"current_range_meters":29600,"station_id":"ce4bha12rcd13ifvqee0","pricing_plan_id":"cebpf4jnsgd1na2vs0mg"},{"bike_id":"12d777f0-c674-403d-a610-545dc982936d","system_id":"levelo_inurba_marseille","lat":43.30449,"lon":5.37932,"is_reserved":false,"is_disabled":false,"rental_uris":{"android":"levelo://app?vid=12d777f0-c674-403d-a610-545dc982936d","ios":"levelo://app?vid=12d777f0-c674-403d-a610-545dc982936d"},"vehicle_type_id":"4","last_reported":1731164974,"current_range_meters":37600,"station_id":"ce4bgup2rcd13ifvqcn0","pricing_plan_id":"cebpf4jnsgd1na2vs0mg"},{"bike_id":"7dea2a02-2426-4d47-8b85-2b224882242e","system_id":"levelo_inurba_marseille","lat":43.28086,"lon":5.39677,"is_reserved":false,"is_disabled":false,"rental_uris":{"android":"levelo://app?vid=7dea2a02-2426-4d47-8b85-2b224882242e","ios":"levelo://app?vid=7dea2a02-2426-4d47-8b85-2b224882242e"},"vehicle_type_id":"4","last_reported":1731164974,"current_range_meters":34000,"station_id":"ce4bho12rcd13ifvqh2g","pricing_plan_id":"cebpf4jnsgd1na2vs0mg"},{"bike_id":"47992df5-a9ab-4d2b-beec-9538c94ced27","system_id":"levelo_inurba_marseille","lat":43.29301,"lon":5.37457,"is_reserved":false,"is_disabled":false,"rental_uris":{"android":"levelo://app?vid=47992df5-a9ab-4d2b-beec-9538c94ced27","ios":"levelo://app?vid=47992df5-a9ab-4d2b-beec-9538c94ced27"},"vehicle_type_id":"4","last_reported":1731164974,"current_range_meters":14800,"station_id":"ce4bgi12rcd13ifvqb70","pricing_plan_id":"cebpf4jnsgd1na2vs0mg"},{"bike_id":"2287456b-3bda-4e56-b211-9a70d4437e24","system_id":"levelo_inurba_marseille","lat":43.30582,"lon":5.37253,"is_reserved":false,"is_disabled":false,"rental_uris":{"android":"levelo://app?vid=2287456b-3bda-4e56-b211-9a70d4437e24","ios":"levelo://app?vid=2287456b-3bda-4e56-b211-9a70d4437e24"},"vehicle_type_id":"4","last_reported":1731164974,"current_range_meters":25600,"station_id":"ce4bgqh2rcd13ifvqc4g","pricing_plan_id":"cebpf4jnsgd1na2vs0mg"},{"bike_id":"fbbe362b-7b29-4c8f-b506-484f07761f02","system_id":"levelo_inurba_marseille","lat":43.29915,"lon":5.37461,"is_reserved":false,"is_disabled":false,"rental_uris":{"android":"levelo://app?vid=fbbe362b-7b29-4c8f-b506-484f07761f02","ios":"levelo://app?vid=fbbe362b-7b29-4c8f-b506-484f07761f02"},"vehicle_type_id":"4","last_reported":1731164974,"current_range_meters":37600,"station_id":"ce4bgjh2rcd13ifvqbg0","pricing_plan_id":"cebpf4jnsgd1na2vs0mg"},{"bike_id":"49dcd33b-91a0-4702-8d6a-8ff9c76f334a","system_id":"levelo_inurba_marseille","lat":43.30142,"lon":5.38084,"is_reserved":false,"is_disabled":false,"rental_uris":{"android":"levelo://app?vid=49dcd33b-91a0-4702-8d6a-8ff9c76f334a","ios":"levelo://app?vid=49dcd33b-91a0-4702-8d6a-8ff9c76f334a"},"vehicle_type_id":"4","last_reported":1731164974,"current_range_meters":7200,"station_id":"ce4bgjp2rcd13ifvqbh0","pricing_plan_id":"cebpf4jnsgd1na2vs0mg"},{"bike_id":"272dceaa-f641-4314-a4dc-c4e34b6fe0a4","system_id":"levelo_inurba_marseille","lat":43.26214,"lon":5.37442,"is_reserved":false,"is_disabled":false,"rental_uris":{"android":"levelo://app?vid=272dceaa-f641-4314-a4dc-c4e34b6fe0a4","ios":"levelo://app?vid=272dceaa-f641-4314-a4dc-c4e34b6fe0a4"},"vehicle_type_id":"4","last_reported":1731164974,"current_range_meters":18800,"station_id":"ce4bhgp2rcd13ifvqfc0","pricing_plan_id":"cebpf4jnsgd1na2vs0mg"},{"bike_id":"6463664d-8d71-4282-8618-f2c0c195f781","system_id":"levelo_inurba_marseille","lat":43.30144,"lon":5.38081,"is_reserved":false,"is_disabled":false,"rental_uris":{"android":"levelo://app?vid=6463664d-8d71-4282-8618-f2c0c195f781","ios":"levelo://app?vid=6463664d-8d71-4282-8618-f2c0c195f781"},"vehicle_type_id":"4","last_reported":1731164974,"current_range_meters":28000,"station_id":"ce4bgjp2rcd13ifvqbh0","pricing_plan_id":"cebpf4jnsgd1na2vs0mg"},{"bike_id":"56ed2200-0fc8-460e-ae07-9b3efab51b99","system_id":"levelo_inurba_marseille","lat":43.25585,"lon":5.379723,"is_reserved":false,"is_disabled":false,"rental_uris":{"android":"levelo://app?vid=56ed2200-0fc8-460e-ae07-9b3efab51b99","ios":"levelo://app?vid=56ed2200-0fc8-460e-ae07-9b3efab51b99"},"vehicle_type_id":"4","last_reported":1731164974,"current_range_meters":32400,"station_id":"ce4bhgh2rcd13ifvqfa0","pricing_plan_id":"cebpf4jnsgd1na2vs0mg"},{"bike_id":"a2af0eca-530d-4954-b538-26140aa97bc7","system_id":"levelo_inurba_marseille","lat":43.27499,"lon":5.42446,"is_reserved":false,"is_disabled":false,"rental_uris":{"android":"levelo://app?vid=a2af0eca-530d-4954-b538-26140aa97bc7","ios":"levelo://app?vid=a2af0eca-530d-4954-b538-26140aa97bc7"},"vehicle_type_id":"4","last_reported":1731164974,"current_range_meters":28000,"station_id":"ce4bhn92rcd13ifvqgrg","pricing_plan_id":"cebpf4jnsgd1na2vs0mg"},{"bike_id":"ba4e9b3f-2a8e-4431-b57f-f6a1ee8edd37","system_id":"levelo_inurba_marseille","lat":43.30147,"lon":5.3809,"is_reserved":false,"is_disabled":false,"rental_uris":{"android":"levelo://app?vid=ba4e9b3f-2a8e-4431-b57f-f6a1ee8edd37","ios":"levelo://app?vid=ba4e9b3f-2a8e-4431-b57f-f6a1ee8edd37"},"vehicle_type_id":"4","last_reported":1731164974,"current_range_meters":19600,"station_id":"ce4bgjp2rcd13ifvqbh0","pricing_plan_id":"cebpf4jnsgd1na2vs0mg"},{"bike_id":"a91968f3-d3c8-4101-8d96-c67b11e97664","system_id":"levelo_inurba_marseille","lat":43.29442,"lon":5.40153,"is_reserved":false,"is_disabled":false,"rental_uris":{"android":"levelo://app?vid=a91968f3-d3c8-4101-8d96-c67b11e97664","ios":"levelo://app?vid=a91968f3-d3c8-4101-8d96-c67b11e97664"},"vehicle_type_id":"4","last_reported":1731164974,"current_range_meters":2800,"station_id":"ce4bgvp2rcd13ifvqct0","pricing_plan_id":"cebpf4jnsgd1na2vs0mg"},{"bike_id":"bc64b3eb-0c71-4446-b504-a2691217d147","system_id":"levelo_inurba_marseille","lat":43.28263,"lon":5.35057,"is_reserved":false,"is_disabled":false,"rental_uris":{"android":"levelo://app?vid=bc64b3eb-0c71-4446-b504-a2691217d147","ios":"levelo://app?vid=bc64b3eb-0c71-4446-b504-a2691217d147"},"vehicle_type_id":"4","last_reported":1731164974,"current_range_meters":8000,"station_id":"ce4bhbp2rcd13ifvqerg","pricing_plan_id":"cebpf4jnsgd1na2vs0mg"},{"bike_id":"98be466f-0b53-49d1-b82b-7b60df22d034","system_id":"levelo_inurba_marseille","lat":43.2963,"lon":5.37726,"is_reserved":false,"is_disabled":false,"rental_uris":{"android":"levelo://app?vid=98be466f-0b53-49d1-b82b-7b60df22d034","ios":"levelo://app?vid=98be466f-0b53-49d1-b82b-7b60df22d034"},"vehicle_type_id":"4","last_reported":1731164974,"current_range_meters":34000,"station_id":"ce4bgi92rcd13ifvqb90","pricing_plan_id":"cebpf4jnsgd1na2vs0mg"},{"bike_id":"d6fdae69-642e-4d84-a8fd-edeb75ed0ef4","system_id":"levelo_inurba_marseille","lat":43.22932,"lon":5.35376,"is_reserved":false,"is_disabled":false,"rental_uris":{"android":"levelo://app?vid=d6fdae69-642e-4d84-a8fd-edeb75ed0ef4","ios":"levelo://app?vid=d6fdae69-642e-4d84-a8fd-edeb75ed0ef4"},"vehicle_type_id":"4","last_reported":1731164974,"current_range_meters":38800,"station_id":"cpo3532slgdg3j2ikp40","pricing_plan_id":"cebpf4jnsgd1na2vs0mg"},{"bike_id":"656edd06-c2db-4ad7-9a7b-e91ab147bc8b","system_id":"levelo_inurba_marseille","lat":43.23961,"lon":5.36635,"is_reserved":false,"is_disabled":false,"rental_uris":{"android":"levelo://app?vid=656edd06-c2db-4ad7-9a7b-e91ab147bc8b","ios":"levelo://app?vid=656edd06-c2db-4ad7-9a7b-e91ab147bc8b"},"vehicle_type_id":"4","last_reported":1731164974,"current_range_meters":2800,"station_id":"ce4bhi12rcd13ifvqfp0","pricing_plan_id":"cebpf4jnsgd1na2vs0mg"},{"bike_id":"4aa2daa1-2d8b-4222-81b5-4f2e3b6b060a","system_id":"levelo_inurba_marseille","lat":43.27209,"lon":5.39176,"is_reserved":false,"is_disabled":false,"rental_uris":{"android":"levelo://app?vid=4aa2daa1-2d8b-4222-81b5-4f2e3b6b060a","ios":"levelo://app?vid=4aa2daa1-2d8b-4222-81b5-4f2e3b6b060a"},"vehicle_type_id":"4","last_reported":1731164974,"current_range_meters":38800,"station_id":"ce4bhhp2rcd13ifvqfm0","pricing_plan_id":"cebpf4jnsgd1na2vs0mg"},{"bike_id":"d53ac9ad-987c-4c2f-9587-8c4e4c1fab66","system_id":"levelo_inurba_marseille","lat":43.2993,"lon":5.36544,"is_reserved":false,"is_disabled":false,"rental_uris":{"android":"levelo://app?vid=d53ac9ad-987c-4c2f-9587-8c4e4c1fab66","ios":"levelo://app?vid=d53ac9ad-987c-4c2f-9587-8c4e4c1fab66"},"vehicle_type_id":"4","last_reported":1731164974,"current_range_meters":36000,"station_id":"ce4bgm92rcd13ifvqbr0","pricing_plan_id":"cebpf4jnsgd1na2vs0mg"},{"bike_id":"79be427b-dcfc-460c-b8f8-517d5d17aef3","system_id":"levelo_inurba_marseille","lat":43.27209,"lon":5.39179,"is_reserved":false,"is_disabled":false,"rental_uris":{"android":"levelo://app?vid=79be427b-dcfc-460c-b8f8-517d5d17aef3","ios":"levelo://app?vid=79be427b-dcfc-460c-b8f8-517d5d17aef3"},"vehicle_type_id":"4","last_reported":1731164974,"current_range_meters":23200,"station_id":"ce4bhhp2rcd13ifvqfm0","pricing_plan_id":"cebpf4jnsgd1na2vs0mg"},{"bike_id":"90042680-c997-4d33-ab6b-4a9cb41f9936","system_id":"levelo_inurba_marseille","lat":43.28265,"lon":5.35068,"is_reserved":false,"is_disabled":false,"rental_uris":{"android":"levelo://app?vid=90042680-c997-4d33-ab6b-4a9cb41f9936","ios":"levelo://app?vid=90042680-c997-4d33-ab6b-4a9cb41f9936"},"vehicle_type_id":"4","last_reported":1731164974,"current_range_meters":28000,"station_id":"ce4bhbp2rcd13ifvqerg","pricing_plan_id":"cebpf4jnsgd1na2vs0mg"},{"bike_id":"a51d56de-6266-48f0-9ece-8f1d0d87e960","system_id":"levelo_inurba_marseille","lat":43.27368,"lon":5.36261,"is_reserved":false,"is_disabled":false,"rental_uris":{"android":"levelo://app?vid=a51d56de-6266-48f0-9ece-8f1d0d87e960","ios":"levelo://app?vid=a51d56de-6266-48f0-9ece-8f1d0d87e960"},"vehicle_type_id":"4","last_reported":1731164974,"current_range_meters":9600,"station_id":"ce4bhbh2rcd13ifvqeo0","pricing_plan_id":"cebpf4jnsgd1na2vs0mg"},{"bike_id":"c2603f44-8398-4b15-8e79-5897a063be21","system_id":"levelo_inurba_marseille","lat":43.273776,"lon":5.36264,"is_reserved":false,"is_disabled":false,"rental_uris":{"android":"levelo://app?vid=c2603f44-8398-4b15-8e79-5897a063be21","ios":"levelo://app?vid=c2603f44-8398-4b15-8e79-5897a063be21"},"vehicle_type_id":"4","last_reported":1731164974,"current_range_meters":13600,"station_id":"ce4bhbh2rcd13ifvqeo0","pricing_plan_id":"cebpf4jnsgd1na2vs0mg"},{"bike_id":"d7b6ba7f-67af-4f8c-a8e6-54e5f0048723","system_id":"levelo_inurba_marseille","lat":43.28408,"lon":5.34987,"is_reserved":false,"is_disabled":false,"rental_uris":{"android":"levelo://app?vid=d7b6ba7f-67af-4f8c-a8e6-54e5f0048723","ios":"levelo://app?vid=d7b6ba7f-67af-4f8c-a8e6-54e5f0048723"},"vehicle_type_id":"4","last_reported":1731164974,"current_range_meters":19200,"station_id":"ce4bhbh2rcd13ifvqepg","pricing_plan_id":"cebpf4jnsgd1na2vs0mg"},{"bike_id":"96aef8c1-f007-442e-b872-036e6f6c58ad","system_id":"levelo_inurba_marseille","lat":43.31753,"lon":5.39014,"is_reserved":false,"is_disabled":false,"rental_uris":{"android":"levelo://app?vid=96aef8c1-f007-442e-b872-036e6f6c58ad","ios":"levelo://app?vid=96aef8c1-f007-442e-b872-036e6f6c58ad"},"vehicle_type_id":"4","last_reported":1731164974,"current_range_meters":37600,"station_id":"ce4bhqp2rcd13ifvqhng","pricing_plan_id":"cebpf4jnsgd1na2vs0mg"},{"bike_id":"abec1519-96da-485a-8655-dc8c56be1502","system_id":"levelo_inurba_marseille","lat":43.29718,"lon":5.37687,"is_reserved":false,"is_disabled":false,"rental_uris":{"android":"levelo://app?vid=abec1519-96da-485a-8655-dc8c56be1502","ios":"levelo://app?vid=abec1519-96da-485a-8655-dc8c56be1502"},"vehicle_type_id":"4","last_reported":1731164974,"current_range_meters":30400,"station_id":"ce4bgkh2rcd13ifvqbl0","pricing_plan_id":"cebpf4jnsgd1na2vs0mg"},{"bike_id":"6fe0b6ea-fed3-4e1b-92d0-a5f3f71ac920","system_id":"levelo_inurba_marseille","lat":43.29509,"lon":5.37509,"is_reserved":false,"is_disabled":false,"rental_uris":{"android":"levelo://app?vid=6fe0b6ea-fed3-4e1b-92d0-a5f3f71ac920","ios":"levelo://app?vid=6fe0b6ea-fed3-4e1b-92d0-a5f3f71ac920"},"vehicle_type_id":"4","last_reported":1731164974,"current_range_meters":39200,"station_id":"ce4bgkp2rcd13ifvqbmg","pricing_plan_id":"cebpf4jnsgd1na2vs0mg"},{"bike_id":"a8d6c4ab-40b8-4cdf-9134-b9616f1ce96b","system_id":"levelo_inurba_marseille","lat":43.27319,"lon":5.39108,"is_reserved":false,"is_disabled":false,"rental_uris":{"android":"levelo://app?vid=a8d6c4ab-40b8-4cdf-9134-b9616f1ce96b","ios":"levelo://app?vid=a8d6c4ab-40b8-4cdf-9134-b9616f1ce96b"},"vehicle_type_id":"4","last_reported":1731164974,"current_range_meters":14800,"station_id":"ce4bhgp2rcd13ifvqfe0","pricing_plan_id":"cebpf4jnsgd1na2vs0mg"},{"bike_id":"a1212e73-b50e-4dda-bd8b-7911a3d27742","system_id":"levelo_inurba_marseille","lat":43.29515,"lon":5.37511,"is_reserved":false,"is_disabled":false,"rental_uris":{"android":"levelo://app?vid=a1212e73-b50e-4dda-bd8b-7911a3d27742","ios":"levelo://app?vid=a1212e73-b50e-4dda-bd8b-7911a3d27742"},"vehicle_type_id":"4","last_reported":1731164974,"current_range_meters":29600,"station_id":"ce4bgkp2rcd13ifvqbmg","pricing_plan_id":"cebpf4jnsgd1na2vs0mg"},{"bike_id":"81118861-14e9-4dad-a9c8-cda0522f40aa","system_id":"levelo_inurba_marseille","lat":43.28944,"lon":5.36397,"is_reserved":false,"is_disabled":false,"rental_uris":{"android":"levelo://app?vid=81118861-14e9-4dad-a9c8-cda0522f40aa","ios":"levelo://app?vid=81118861-14e9-4dad-a9c8-cda0522f40aa"},"vehicle_type_id":"4","last_reported":1731164974,"current_range_meters":8400,"station_id":"ce4bhc92rcd13ifvqetg","pricing_plan_id":"cebpf4jnsgd1na2vs0mg"},{"bike_id":"0ca3e6b9-f435-44df-afb5-a1e6819271a2","system_id":"levelo_inurba_marseille","lat":43.29937,"lon":5.36549,"is_reserved":false,"is_disabled":false,"rental_uris":{"android":"levelo://app?vid=0ca3e6b9-f435-44df-afb5-a1e6819271a2","ios":"levelo://app?vid=0ca3e6b9-f435-44df-afb5-a1e6819271a2"},"vehicle_type_id":"4","last_reported":1731164974,"current_range_meters":38800,"station_id":"ce4bgm92rcd13ifvqbr0","pricing_plan_id":"cebpf4jnsgd1na2vs0mg"},{"bike_id":"181fa628-fd06-4339-88f4-5d411c857699","system_id":"levelo_inurba_marseille","lat":43.27076,"lon":5.42289,"is_reserved":false,"is_disabled":false,"rental_uris":{"android":"levelo://app?vid=181fa628-fd06-4339-88f4-5d411c857699","ios":"levelo://app?vid=181fa628-fd06-4339-88f4-5d411c857699"},"vehicle_type_id":"4","last_reported":1731164974,"current_range_meters":14400,"station_id":"ce4bhk92rcd13ifvqgb0","pricing_plan_id":"cebpf4jnsgd1na2vs0mg"},{"bike_id":"a17e96f4-0121-485f-b37f-0c6477ffc859","system_id":"levelo_inurba_marseille","lat":43.260315,"lon":5.37555,"is_reserved":false,"is_disabled":false,"rental_uris":{"android":"levelo://app?vid=a17e96f4-0121-485f-b37f-0c6477ffc859","ios":"levelo://app?vid=a17e96f4-0121-485f-b37f-0c6477ffc859"},"vehicle_type_id":"4","last_reported":1731164974,"current_range_meters":8400,"station_id":"ce4bhgh2rcd13ifvqfa0","pricing_plan_id":"cebpf4jnsgd1na2vs0mg"},{"bike_id":"0e52fa6f-434b-4037-baf8-36d70a281bab","system_id":"levelo_inurba_marseille","lat":43.30552,"lon":5.36545,"is_reserved":false,"is_disabled":false,"rental_uris":{"android":"levelo://app?vid=0e52fa6f-434b-4037-baf8-36d70a281bab","ios":"levelo://app?vid=0e52fa6f-434b-4037-baf8-36d70a281bab"},"vehicle_type_id":"4","last_reported":1731164974,"current_range_meters":24000,"station_id":"ce4bgs12rcd13ifvqcag","pricing_plan_id":"cebpf4jnsgd1na2vs0mg"},{"bike_id":"0e0a6fd0-bb66-41bd-9ac4-0e8090ee7ea4","system_id":"levelo_inurba_marseille","lat":43.29905,"lon":5.37469,"is_reserved":false,"is_disabled":false,"rental_uris":{"android":"levelo://app?vid=0e0a6fd0-bb66-41bd-9ac4-0e8090ee7ea4","ios":"levelo://app?vid=0e0a6fd0-bb66-41bd-9ac4-0e8090ee7ea4"},"vehicle_type_id":"4","last_reported":1731164974,"current_range_meters":28000,"station_id":"ce4bgjh2rcd13ifvqbg0","pricing_plan_id":"cebpf4jnsgd1na2vs0mg"},{"bike_id":"764ab749-70ca-4b73-a35f-c0abe15547f3","system_id":"levelo_inurba_marseille","lat":43.30152,"lon":5.38089,"is_reserved":false,"is_disabled":false,"rental_uris":{"android":"levelo://app?vid=764ab749-70ca-4b73-a35f-c0abe15547f3","ios":"levelo://app?vid=764ab749-70ca-4b73-a35f-c0abe15547f3"},"vehicle_type_id":"4","last_reported":1731164974,"current_range_meters":34000,"station_id":"ce4bgjp2rcd13ifvqbh0","pricing_plan_id":"cebpf4jnsgd1na2vs0mg"},{"bike_id":"dd02dda1-0cf5-4e23-8f9a-88ca5953c398","system_id":"levelo_inurba_marseille","lat":43.24999,"lon":5.38941,"is_reserved":false,"is_disabled":false,"rental_uris":{"android":"levelo://app?vid=dd02dda1-0cf5-4e23-8f9a-88ca5953c398","ios":"levelo://app?vid=dd02dda1-0cf5-4e23-8f9a-88ca5953c398"},"vehicle_type_id":"4","last_reported":1731164974,"current_range_meters":12000,"station_id":"ce4bhgp2rcd13ifvqfd0","pricing_plan_id":"cebpf4jnsgd1na2vs0mg"},{"bike_id":"27e15419-d9b0-4647-890e-e21a7149b1cd","system_id":"levelo_inurba_marseille","lat":43.27063,"lon":5.4228,"is_reserved":false,"is_disabled":false,"rental_uris":{"android":"levelo://app?vid=27e15419-d9b0-4647-890e-e21a7149b1cd","ios":"levelo://app?vid=27e15419-d9b0-4647-890e-e21a7149b1cd"},"vehicle_type_id":"4","last_reported":1731164974,"current_range_meters":18800,"station_id":"ce4bhk92rcd13ifvqgb0","pricing_plan_id":"cebpf4jnsgd1na2vs0mg"},{"bike_id":"55f47cbb-4cd2-4214-9965-9e0698b16e2e","system_id":"levelo_inurba_marseille","lat":43.323344,"lon":5.367641,"is_reserved":false,"is_disabled":false,"rental_uris":{"android":"levelo://app?vid=55f47cbb-4cd2-4214-9965-9e0698b16e2e","ios":"levelo://app?vid=55f47cbb-4cd2-4214-9965-9e0698b16e2e"},"vehicle_type_id":"4","last_reported":1731164974,"current_range_meters":38800,"station_id":"ce4bhsh2rcd13ifvqi2g","pricing_plan_id":"cebpf4jnsgd1na2vs0mg"},{"bike_id":"afcd6141-7b94-40da-8188-06bc30394200","system_id":"levelo_inurba_marseille","lat":43.30479,"lon":5.379,"is_reserved":false,"is_disabled":false,"rental_uris":{"android":"levelo://app?vid=afcd6141-7b94-40da-8188-06bc30394200","ios":"levelo://app?vid=afcd6141-7b94-40da-8188-06bc30394200"},"vehicle_type_id":"4","last_reported":1731164974,"current_range_meters":35200,"station_id":"ce4bgup2rcd13ifvqcn0","pricing_plan_id":"cebpf4jnsgd1na2vs0mg"},{"bike_id":"e6d91517-f154-4d32-b167-d4f046df2603","system_id":"levelo_inurba_marseille","lat":43.325543,"lon":5.41432,"is_reserved":false,"is_disabled":false,"rental_uris":{"android":"levelo://app?vid=e6d91517-f154-4d32-b167-d4f046df2603","ios":"levelo://app?vid=e6d91517-f154-4d32-b167-d4f046df2603"},"vehicle_type_id":"4","last_reported":1731164974,"current_range_meters":38800,"station_id":"ce4bhq12rcd13ifvqhhg","pricing_plan_id":"cebpf4jnsgd1na2vs0mg"},{"bike_id":"0d93b31b-854a-4c31-b287-70df5cbe7d07","system_id":"levelo_inurba_marseille","lat":43.24076,"lon":5.37737,"is_reserved":false,"is_disabled":false,"rental_uris":{"android":"levelo://app?vid=0d93b31b-854a-4c31-b287-70df5cbe7d07","ios":"levelo://app?vid=0d93b31b-854a-4c31-b287-70df5cbe7d07"},"vehicle_type_id":"4","last_reported":1731164974,"current_range_meters":16400,"station_id":"ce4bhnp2rcd13ifvqgvg","pricing_plan_id":"cebpf4jnsgd1na2vs0mg"},{"bike_id":"85c204c1-37d6-4b73-b6e0-dc44c53e6048","system_id":"levelo_inurba_marseille","lat":43.25498,"lon":5.37661,"is_reserved":false,"is_disabled":false,"rental_uris":{"android":"levelo://app?vid=85c204c1-37d6-4b73-b6e0-dc44c53e6048","ios":"levelo://app?vid=85c204c1-37d6-4b73-b6e0-dc44c53e6048"},"vehicle_type_id":"4","last_reported":1731164974,"current_range_meters":8400,"station_id":"ce4bhh12rcd13ifvqff0","pricing_plan_id":"cebpf4jnsgd1na2vs0mg"},{"bike_id":"63de875a-88f0-4d8c-8659-91c78086c2c7","system_id":"levelo_inurba_marseille","lat":43.28421,"lon":5.34977,"is_reserved":false,"is_disabled":false,"rental_uris":{"android":"levelo://app?vid=63de875a-88f0-4d8c-8659-91c78086c2c7","ios":"levelo://app?vid=63de875a-88f0-4d8c-8659-91c78086c2c7"},"vehicle_type_id":"4","last_reported":1731164974,"current_range_meters":3200,"station_id":"ce4bhbh2rcd13ifvqepg","pricing_plan_id":"cebpf4jnsgd1na2vs0mg"},{"bike_id":"b34f626a-1201-47fd-919c-02393e0449a2","system_id":"levelo_inurba_marseille","lat":43.29096,"lon":5.38134,"is_reserved":false,"is_disabled":false,"rental_uris":{"android":"levelo://app?vid=b34f626a-1201-47fd-919c-02393e0449a2","ios":"levelo://app?vid=b34f626a-1201-47fd-919c-02393e0449a2"},"vehicle_type_id":"4","last_reported":1731164974,"current_range_meters":16400,"station_id":"ce4bh512rcd13ifvqe2g","pricing_plan_id":"cebpf4jnsgd1na2vs0mg"},{"bike_id":"f5ea5222-29a8-4baf-a67a-db12956c9090","system_id":"levelo_inurba_marseille","lat":43.29935,"lon":5.36551,"is_reserved":false,"is_disabled":false,"rental_uris":{"android":"levelo://app?vid=f5ea5222-29a8-4baf-a67a-db12956c9090","ios":"levelo://app?vid=f5ea5222-29a8-4baf-a67a-db12956c9090"},"vehicle_type_id":"4","last_reported":1731164974,"current_range_meters":34000,"station_id":"ce4bgm92rcd13ifvqbr0","pricing_plan_id":"cebpf4jnsgd1na2vs0mg"},{"bike_id":"ecec8ecb-7b40-4981-bcc1-245babf382b5","system_id":"levelo_inurba_marseille","lat":43.24388,"lon":5.37059,"is_reserved":false,"is_disabled":false,"rental_uris":{"android":"levelo://app?vid=ecec8ecb-7b40-4981-bcc1-245babf382b5","ios":"levelo://app?vid=ecec8ecb-7b40-4981-bcc1-245babf382b5"},"vehicle_type_id":"4","last_reported":1731164974,"current_range_meters":12000,"station_id":"ce4bhhh2rcd13ifvqfk0","pricing_plan_id":"cebpf4jnsgd1na2vs0mg"},{"bike_id":"e5f5a63c-8dec-4ac4-bda7-b22de44027be","system_id":"levelo_inurba_marseille","lat":43.2979,"lon":5.40405,"is_reserved":false,"is_disabled":false,"rental_uris":{"android":"levelo://app?vid=e5f5a63c-8dec-4ac4-bda7-b22de44027be","ios":"levelo://app?vid=e5f5a63c-8dec-4ac4-bda7-b22de44027be"},"vehicle_type_id":"4","last_reported":1731164974,"current_range_meters":22000,"station_id":"ce4bh112rcd13ifvqd90","pricing_plan_id":"cebpf4jnsgd1na2vs0mg"},{"bike_id":"662a3532-c6a8-4e4b-84a6-63d17435c581","system_id":"levelo_inurba_marseille","lat":43.26207,"lon":5.37445,"is_reserved":false,"is_disabled":false,"rental_uris":{"android":"levelo://app?vid=662a3532-c6a8-4e4b-84a6-63d17435c581","ios":"levelo://app?vid=662a3532-c6a8-4e4b-84a6-63d17435c581"},"vehicle_type_id":"4","last_reported":1731164974,"current_range_meters":18000,"station_id":"ce4bhgp2rcd13ifvqfc0","pricing_plan_id":"cebpf4jnsgd1na2vs0mg"},{"bike_id":"c7057ba6-697b-4814-876e-11ed214bec97","system_id":"levelo_inurba_marseille","lat":43.30284,"lon":5.37697,"is_reserved":false,"is_disabled":false,"rental_uris":{"android":"levelo://app?vid=c7057ba6-697b-4814-876e-11ed214bec97","ios":"levelo://app?vid=c7057ba6-697b-4814-876e-11ed214bec97"},"vehicle_type_id":"4","last_reported":1731164974,"current_range_meters":28000,"station_id":"ce4bguh2rcd13ifvqcj0","pricing_plan_id":"cebpf4jnsgd1na2vs0mg"},{"bike_id":"384cb49b-2903-4060-ba45-053ad32bcb68","system_id":"levelo_inurba_marseille","lat":43.29573,"lon":5.37501,"is_reserved":false,"is_disabled":false,"rental_uris":{"android":"levelo://app?vid=384cb49b-2903-4060-ba45-053ad32bcb68","ios":"levelo://app?vid=384cb49b-2903-4060-ba45-053ad32bcb68"},"vehicle_type_id":"4","last_reported":1731164974,"current_range_meters":18000,"station_id":"ce4bgh92rcd13ifvqb50","pricing_plan_id":"cebpf4jnsgd1na2vs0mg"},{"bike_id":"48c36028-a104-4b73-b704-4e610b35eef8","system_id":"levelo_inurba_marseille","lat":43.26054,"lon":5.39399,"is_reserved":false,"is_disabled":false,"rental_uris":{"android":"levelo://app?vid=48c36028-a104-4b73-b704-4e610b35eef8","ios":"levelo://app?vid=48c36028-a104-4b73-b704-4e610b35eef8"},"vehicle_type_id":"4","last_reported":1731164974,"current_range_meters":38000,"station_id":"ce4bhh92rcd13ifvqfj0","pricing_plan_id":"cebpf4jnsgd1na2vs0mg"},{"bike_id":"06a1e331-20ae-42b3-adce-909d0d0188b3","system_id":"levelo_inurba_marseille","lat":43.28479,"lon":5.38415,"is_reserved":false,"is_disabled":false,"rental_uris":{"android":"levelo://app?vid=06a1e331-20ae-42b3-adce-909d0d0188b3","ios":"levelo://app?vid=06a1e331-20ae-42b3-adce-909d0d0188b3"},"vehicle_type_id":"4","last_reported":1731164974,"current_range_meters":22000,"station_id":"ce4bh512rcd13ifvqe3g","pricing_plan_id":"cebpf4jnsgd1na2vs0mg"},{"bike_id":"a61dfdc8-8032-4e2b-8bea-d0f6a2b05b1f","system_id":"levelo_inurba_marseille","lat":43.2396,"lon":5.3663,"is_reserved":false,"is_disabled":false,"rental_uris":{"android":"levelo://app?vid=a61dfdc8-8032-4e2b-8bea-d0f6a2b05b1f","ios":"levelo://app?vid=a61dfdc8-8032-4e2b-8bea-d0f6a2b05b1f"},"vehicle_type_id":"4","last_reported":1731164974,"current_range_meters":36400,"station_id":"ce4bhi12rcd13ifvqfp0","pricing_plan_id":"cebpf4jnsgd1na2vs0mg"},{"bike_id":"94cde044-789b-4897-959f-4a1e6d2027ca","system_id":"levelo_inurba_marseille","lat":43.31708,"lon":5.37752,"is_reserved":false,"is_disabled":false,"rental_uris":{"android":"levelo://app?vid=94cde044-789b-4897-959f-4a1e6d2027ca","ios":"levelo://app?vid=94cde044-789b-4897-959f-4a1e6d2027ca"},"vehicle_type_id":"4","last_reported":1731164974,"current_range_meters":38800,"station_id":"ce4bgth2rcd13ifvqch0","pricing_plan_id":"cebpf4jnsgd1na2vs0mg"},{"bike_id":"f52e1dc5-9e0a-4918-a85e-0347dc29de69","system_id":"levelo_inurba_marseille","lat":43.23967,"lon":5.36638,"is_reserved":false,"is_disabled":false,"rental_uris":{"android":"levelo://app?vid=f52e1dc5-9e0a-4918-a85e-0347dc29de69","ios":"levelo://app?vid=f52e1dc5-9e0a-4918-a85e-0347dc29de69"},"vehicle_type_id":"4","last_reported":1731164974,"current_range_meters":7200,"station_id":"ce4bhi12rcd13ifvqfp0","pricing_plan_id":"cebpf4jnsgd1na2vs0mg"},{"bike_id":"07704a86-dbed-425a-854d-11b1a4e3d84c","system_id":"levelo_inurba_marseille","lat":43.33763,"lon":5.37458,"is_reserved":false,"is_disabled":false,"rental_uris":{"android":"levelo://app?vid=07704a86-dbed-425a-854d-11b1a4e3d84c","ios":"levelo://app?vid=07704a86-dbed-425a-854d-11b1a4e3d84c"},"vehicle_type_id":"4","last_reported":1731164974,"current_range_meters":38000,"station_id":"","pricing_plan_id":"cebpf4jnsgd1na2vs0mg"},{"bike_id":"79b39923-b687-4420-a58b-1f85feafef16","system_id":"levelo_inurba_marseille","lat":43.29966,"lon":5.37428,"is_reserved":false,"is_disabled":false,"rental_uris":{"android":"levelo://app?vid=79b39923-b687-4420-a58b-1f85feafef16","ios":"levelo://app?vid=79b39923-b687-4420-a58b-1f85feafef16"},"vehicle_type_id":"4","last_reported":1731164974,"current_range_meters":38800,"station_id":"","pricing_plan_id":"cebpf4jnsgd1na2vs0mg"},{"bike_id":"6be9edac-8295-4ef1-ab37-ed2945a43d9e","system_id":"levelo_inurba_marseille","lat":43.2991,"lon":5.38139,"is_reserved":false,"is_disabled":false,"rental_uris":{"android":"levelo://app?vid=6be9edac-8295-4ef1-ab37-ed2945a43d9e","ios":"levelo://app?vid=6be9edac-8295-4ef1-ab37-ed2945a43d9e"},"vehicle_type_id":"4","last_reported":1731164974,"current_range_meters":32000,"station_id":"ce4bgj12rcd13ifvqbc0","pricing_plan_id":"cebpf4jnsgd1na2vs0mg"},{"bike_id":"e32b1959-a986-4102-a63b-aef0b5e86a1e","system_id":"levelo_inurba_marseille","lat":43.29537,"lon":5.38528,"is_reserved":false,"is_disabled":false,"rental_uris":{"android":"levelo://app?vid=e32b1959-a986-4102-a63b-aef0b5e86a1e","ios":"levelo://app?vid=e32b1959-a986-4102-a63b-aef0b5e86a1e"},"vehicle_type_id":"4","last_reported":1731164974,"current_range_meters":34800,"station_id":"ce4bgih2rcd13ifvqba0","pricing_plan_id":"cebpf4jnsgd1na2vs0mg"},{"bike_id":"0b74ce83-e6b1-4485-8ca6-3897f29a426e","system_id":"levelo_inurba_marseille","lat":43.23956,"lon":5.36631,"is_reserved":false,"is_disabled":false,"rental_uris":{"android":"levelo://app?vid=0b74ce83-e6b1-4485-8ca6-3897f29a426e","ios":"levelo://app?vid=0b74ce83-e6b1-4485-8ca6-3897f29a426e"},"vehicle_type_id":"4","last_reported":1731164974,"current_range_meters":16000,"station_id":"ce4bhi12rcd13ifvqfp0","pricing_plan_id":"cebpf4jnsgd1na2vs0mg"},{"bike_id":"61b47456-16e6-4345-bac0-a747f413d013","system_id":"levelo_inurba_marseille","lat":43.29552,"lon":5.42293,"is_reserved":false,"is_disabled":false,"rental_uris":{"android":"levelo://app?vid=61b47456-16e6-4345-bac0-a747f413d013","ios":"levelo://app?vid=61b47456-16e6-4345-bac0-a747f413d013"},"vehicle_type_id":"4","last_reported":1731164974,"current_range_meters":19200,"station_id":"ce4bhph2rcd13ifvqhdg","pricing_plan_id":"cebpf4jnsgd1na2vs0mg"},{"bike_id":"5ac771a0-9dd5-41c1-9d5a-e162148fe515","system_id":"levelo_inurba_marseille","lat":43.25494,"lon":5.37652,"is_reserved":false,"is_disabled":false,"rental_uris":{"android":"levelo://app?vid=5ac771a0-9dd5-41c1-9d5a-e162148fe515","ios":"levelo://app?vid=5ac771a0-9dd5-41c1-9d5a-e162148fe515"},"vehicle_type_id":"4","last_reported":1731164974,"current_range_meters":14800,"station_id":"ce4bhh12rcd13ifvqff0","pricing_plan_id":"cebpf4jnsgd1na2vs0mg"},{"bike_id":"737e318d-f108-4c95-991e-c706599395c0","system_id":"levelo_inurba_marseille","lat":43.30157,"lon":5.38086,"is_reserved":false,"is_disabled":false,"rental_uris":{"android":"levelo://app?vid=737e318d-f108-4c95-991e-c706599395c0","ios":"levelo://app?vid=737e318d-f108-4c95-991e-c706599395c0"},"vehicle_type_id":"4","last_reported":1731164974,"current_range_meters":34000,"station_id":"ce4bgjp2rcd13ifvqbh0","pricing_plan_id":"cebpf4jnsgd1na2vs0mg"},{"bike_id":"a1c64904-413b-4554-9f07-161980f8f3b9","system_id":"levelo_inurba_marseille","lat":43.30461,"lon":5.37908,"is_reserved":false,"is_disabled":false,"rental_uris":{"android":"levelo://app?vid=a1c64904-413b-4554-9f07-161980f8f3b9","ios":"levelo://app?vid=a1c64904-413b-4554-9f07-161980f8f3b9"},"vehicle_type_id":"4","last_reported":1731164974,"current_range_meters":36400,"station_id":"ce4bgup2rcd13ifvqcn0","pricing_plan_id":"cebpf4jnsgd1na2vs0mg"},{"bike_id":"1b559ea9-b36c-4b8a-95db-c575a4231256","system_id":"levelo_inurba_marseille","lat":43.32657,"lon":5.40994,"is_reserved":false,"is_disabled":false,"rental_uris":{"android":"levelo://app?vid=1b559ea9-b36c-4b8a-95db-c575a4231256","ios":"levelo://app?vid=1b559ea9-b36c-4b8a-95db-c575a4231256"},"vehicle_type_id":"4","last_reported":1731164974,"current_range_meters":12800,"station_id":"ce4bhpp2rcd13ifvqhgg","pricing_plan_id":"cebpf4jnsgd1na2vs0mg"},{"bike_id":"2f4fd98b-e661-4850-a76e-3c676c266988","system_id":"levelo_inurba_marseille","lat":43.29617,"lon":5.37169,"is_reserved":false,"is_disabled":false,"rental_uris":{"android":"levelo://app?vid=2f4fd98b-e661-4850-a76e-3c676c266988","ios":"levelo://app?vid=2f4fd98b-e661-4850-a76e-3c676c266988"},"vehicle_type_id":"4","last_reported":1731164974,"current_range_meters":37600,"station_id":"ce4bgnh2rcd13ifvqc0g","pricing_plan_id":"cebpf4jnsgd1na2vs0mg"},{"bike_id":"651525a9-9541-42c5-a26d-932929a74330","system_id":"levelo_inurba_marseille","lat":43.2749,"lon":5.42456,"is_reserved":false,"is_disabled":false,"rental_uris":{"android":"levelo://app?vid=651525a9-9541-42c5-a26d-932929a74330","ios":"levelo://app?vid=651525a9-9541-42c5-a26d-932929a74330"},"vehicle_type_id":"4","last_reported":1731164974,"current_range_meters":28800,"station_id":"ce4bhn92rcd13ifvqgrg","pricing_plan_id":"cebpf4jnsgd1na2vs0mg"},{"bike_id":"f6ded3b7-3b9b-426a-97af-d350346e24d2","system_id":"levelo_inurba_marseille","lat":43.28414,"lon":5.34978,"is_reserved":false,"is_disabled":false,"rental_uris":{"android":"levelo://app?vid=f6ded3b7-3b9b-426a-97af-d350346e24d2","ios":"levelo://app?vid=f6ded3b7-3b9b-426a-97af-d350346e24d2"},"vehicle_type_id":"4","last_reported":1731164974,"current_range_meters":3600,"station_id":"ce4bhbh2rcd13ifvqepg","pricing_plan_id":"cebpf4jnsgd1na2vs0mg"},{"bike_id":"588b57e8-53f3-4bdf-a9eb-006ce33eb3cc","system_id":"levelo_inurba_marseille","lat":43.32475,"lon":5.36567,"is_reserved":false,"is_disabled":false,"rental_uris":{"android":"levelo://app?vid=588b57e8-53f3-4bdf-a9eb-006ce33eb3cc","ios":"levelo://app?vid=588b57e8-53f3-4bdf-a9eb-006ce33eb3cc"},"vehicle_type_id":"4","last_reported":1731164974,"current_range_meters":37600,"station_id":"ce4bhs12rcd13ifvqhvg","pricing_plan_id":"cebpf4jnsgd1na2vs0mg"},{"bike_id":"fceecce4-9a7f-429d-aabe-7a919b0ff96a","system_id":"levelo_inurba_marseille","lat":43.33744,"lon":5.39205,"is_reserved":false,"is_disabled":false,"rental_uris":{"android":"levelo://app?vid=fceecce4-9a7f-429d-aabe-7a919b0ff96a","ios":"levelo://app?vid=fceecce4-9a7f-429d-aabe-7a919b0ff96a"},"vehicle_type_id":"4","last_reported":1731164974,"current_range_meters":9600,"station_id":"ce4bhr92rcd13ifvqhsg","pricing_plan_id":"cebpf4jnsgd1na2vs0mg"},{"bike_id":"0ecac279-d249-4f0d-918a-c1a58d7f0352","system_id":"levelo_inurba_marseille","lat":43.29687,"lon":5.40605,"is_reserved":false,"is_disabled":false,"rental_uris":{"android":"levelo://app?vid=0ecac279-d249-4f0d-918a-c1a58d7f0352","ios":"levelo://app?vid=0ecac279-d249-4f0d-918a-c1a58d7f0352"},"vehicle_type_id":"4","last_reported":1731164974,"current_range_meters":28800,"station_id":"ce4bh0h2rcd13ifvqd60","pricing_plan_id":"cebpf4jnsgd1na2vs0mg"},{"bike_id":"67dcb27d-9453-45c9-98a6-38a8f81853bd","system_id":"levelo_inurba_marseille","lat":43.29003,"lon":5.35622,"is_reserved":false,"is_disabled":false,"rental_uris":{"android":"levelo://app?vid=67dcb27d-9453-45c9-98a6-38a8f81853bd","ios":"levelo://app?vid=67dcb27d-9453-45c9-98a6-38a8f81853bd"},"vehicle_type_id":"4","last_reported":1731164974,"current_range_meters":24400,"station_id":"ce4bhb92rcd13ifvqen0","pricing_plan_id":"cebpf4jnsgd1na2vs0mg"},{"bike_id":"7728b35b-cf74-43f6-b861-c8cf90510459","system_id":"levelo_inurba_marseille","lat":43.28465,"lon":5.38417,"is_reserved":false,"is_disabled":false,"rental_uris":{"android":"levelo://app?vid=7728b35b-cf74-43f6-b861-c8cf90510459","ios":"levelo://app?vid=7728b35b-cf74-43f6-b861-c8cf90510459"},"vehicle_type_id":"4","last_reported":1731164974,"current_range_meters":38800,"station_id":"ce4bh512rcd13ifvqe3g","pricing_plan_id":"cebpf4jnsgd1na2vs0mg"},{"bike_id":"dde471d1-37d2-4ce9-810b-3f505a3081a8","system_id":"levelo_inurba_marseille","lat":43.29897,"lon":5.38141,"is_reserved":false,"is_disabled":false,"rental_uris":{"android":"levelo://app?vid=dde471d1-37d2-4ce9-810b-3f505a3081a8","ios":"levelo://app?vid=dde471d1-37d2-4ce9-810b-3f505a3081a8"},"vehicle_type_id":"4","last_reported":1731164974,"current_range_meters":28000,"station_id":"ce4bgj12rcd13ifvqbc0","pricing_plan_id":"cebpf4jnsgd1na2vs0mg"},{"bike_id":"69d38419-f915-4ada-a460-f28c05bf4ad2","system_id":"levelo_inurba_marseille","lat":43.27069,"lon":5.42277,"is_reserved":false,"is_disabled":false,"rental_uris":{"android":"levelo://app?vid=69d38419-f915-4ada-a460-f28c05bf4ad2","ios":"levelo://app?vid=69d38419-f915-4ada-a460-f28c05bf4ad2"},"vehicle_type_id":"4","last_reported":1731164974,"current_range_meters":38800,"station_id":"ce4bhk92rcd13ifvqgb0","pricing_plan_id":"cebpf4jnsgd1na2vs0mg"},{"bike_id":"b4eb30bc-dd09-4cbf-8ece-3b8ada662aaf","system_id":"levelo_inurba_marseille","lat":43.2501,"lon":5.38915,"is_reserved":false,"is_disabled":false,"rental_uris":{"android":"levelo://app?vid=b4eb30bc-dd09-4cbf-8ece-3b8ada662aaf","ios":"levelo://app?vid=b4eb30bc-dd09-4cbf-8ece-3b8ada662aaf"},"vehicle_type_id":"4","last_reported":1731164974,"current_range_meters":19600,"station_id":"ce4bhgp2rcd13ifvqfd0","pricing_plan_id":"cebpf4jnsgd1na2vs0mg"},{"bike_id":"960383e6-30fe-4a2c-930e-7b618291d8f7","system_id":"levelo_inurba_marseille","lat":43.28268,"lon":5.35056,"is_reserved":false,"is_disabled":false,"rental_uris":{"android":"levelo://app?vid=960383e6-30fe-4a2c-930e-7b618291d8f7","ios":"levelo://app?vid=960383e6-30fe-4a2c-930e-7b618291d8f7"},"vehicle_type_id":"4","last_reported":1731164974,"current_range_meters":31200,"station_id":"ce4bhbp2rcd13ifvqerg","pricing_plan_id":"cebpf4jnsgd1na2vs0mg"},{"bike_id":"bd3ca743-91e1-4198-9408-9cb1e5064ac8","system_id":"levelo_inurba_marseille","lat":43.278625,"lon":5.38071,"is_reserved":false,"is_disabled":false,"rental_uris":{"android":"levelo://app?vid=bd3ca743-91e1-4198-9408-9cb1e5064ac8","ios":"levelo://app?vid=bd3ca743-91e1-4198-9408-9cb1e5064ac8"},"vehicle_type_id":"4","last_reported":1731164974,"current_range_meters":37600,"station_id":"ce4bhf92rcd13ifvqf50","pricing_plan_id":"cebpf4jnsgd1na2vs0mg"},{"bike_id":"be94c940-c56d-4132-af66-fedb762b3e0f","system_id":"levelo_inurba_marseille","lat":43.23183,"lon":5.35568,"is_reserved":false,"is_disabled":false,"rental_uris":{"android":"levelo://app?vid=be94c940-c56d-4132-af66-fedb762b3e0f","ios":"levelo://app?vid=be94c940-c56d-4132-af66-fedb762b3e0f"},"vehicle_type_id":"4","last_reported":1731164974,"current_range_meters":36800,"station_id":"ce4bhu92rcd13ifvqi70","pricing_plan_id":"cebpf4jnsgd1na2vs0mg"},{"bike_id":"6bf458f2-7ca6-4cbd-97cf-ccc05f67b99d","system_id":"levelo_inurba_marseille","lat":43.29532,"lon":5.38547,"is_reserved":false,"is_disabled":false,"rental_uris":{"android":"levelo://app?vid=6bf458f2-7ca6-4cbd-97cf-ccc05f67b99d","ios":"levelo://app?vid=6bf458f2-7ca6-4cbd-97cf-ccc05f67b99d"},"vehicle_type_id":"4","last_reported":1731164974,"current_range_meters":16000,"station_id":"ce4bgih2rcd13ifvqba0","pricing_plan_id":"cebpf4jnsgd1na2vs0mg"},{"bike_id":"58699fcb-03fe-48ff-a383-5ddf24e36004","system_id":"levelo_inurba_marseille","lat":43.31709,"lon":5.43715,"is_reserved":false,"is_disabled":false,"rental_uris":{"android":"levelo://app?vid=58699fcb-03fe-48ff-a383-5ddf24e36004","ios":"levelo://app?vid=58699fcb-03fe-48ff-a383-5ddf24e36004"},"vehicle_type_id":"4","last_reported":1731164974,"current_range_meters":9200,"station_id":"ce4bhp92rcd13ifvqhcg","pricing_plan_id":"cebpf4jnsgd1na2vs0mg"},{"bike_id":"458bcab2-92f9-40f9-ac8f-ec6c4b2dfdf0","system_id":"levelo_inurba_marseille","lat":43.24391,"lon":5.37063,"is_reserved":false,"is_disabled":false,"rental_uris":{"android":"levelo://app?vid=458bcab2-92f9-40f9-ac8f-ec6c4b2dfdf0","ios":"levelo://app?vid=458bcab2-92f9-40f9-ac8f-ec6c4b2dfdf0"},"vehicle_type_id":"4","last_reported":1731164974,"current_range_meters":16400,"station_id":"ce4bhhh2rcd13ifvqfk0","pricing_plan_id":"cebpf4jnsgd1na2vs0mg"},{"bike_id":"f3512315-9ee4-41aa-9363-923ad90aece4","system_id":"levelo_inurba_marseille","lat":43.26572,"lon":5.38994,"is_reserved":false,"is_disabled":false,"rental_uris":{"android":"levelo://app?vid=f3512315-9ee4-41aa-9363-923ad90aece4","ios":"levelo://app?vid=f3512315-9ee4-41aa-9363-923ad90aece4"},"vehicle_type_id":"4","last_reported":1731164974,"current_range_meters":36800,"station_id":"ce4bhe12rcd13ifvqf30","pricing_plan_id":"cebpf4jnsgd1na2vs0mg"},{"bike_id":"85af198a-7b7f-486b-8f25-4866f3436df8","system_id":"levelo_inurba_marseille","lat":43.28666,"lon":5.38659,"is_reserved":false,"is_disabled":false,"rental_uris":{"android":"levelo://app?vid=85af198a-7b7f-486b-8f25-4866f3436df8","ios":"levelo://app?vid=85af198a-7b7f-486b-8f25-4866f3436df8"},"vehicle_type_id":"4","last_reported":1731164974,"current_range_meters":9200,"station_id":"ce4bh492rcd13ifvqdug","pricing_plan_id":"cebpf4jnsgd1na2vs0mg"},{"bike_id":"3e67b11a-5a20-42cc-8b94-ce935d9310d4","system_id":"levelo_inurba_marseille","lat":43.299,"lon":5.436763,"is_reserved":false,"is_disabled":false,"rental_uris":{"android":"levelo://app?vid=3e67b11a-5a20-42cc-8b94-ce935d9310d4","ios":"levelo://app?vid=3e67b11a-5a20-42cc-8b94-ce935d9310d4"},"vehicle_type_id":"4","last_reported":1731164974,"current_range_meters":38800,"station_id":"ce4bhpp2rcd13ifvqhfg","pricing_plan_id":"cebpf4jnsgd1na2vs0mg"},{"bike_id":"4e7458f0-c815-4eef-b340-3c2948484581","system_id":"levelo_inurba_marseille","lat":43.30534,"lon":5.36553,"is_reserved":false,"is_disabled":false,"rental_uris":{"android":"levelo://app?vid=4e7458f0-c815-4eef-b340-3c2948484581","ios":"levelo://app?vid=4e7458f0-c815-4eef-b340-3c2948484581"},"vehicle_type_id":"4","last_reported":1731164974,"current_range_meters":26000,"station_id":"ce4bgs12rcd13ifvqcag","pricing_plan_id":"cebpf4jnsgd1na2vs0mg"},{"bike_id":"42911603-79cc-4bdc-b1af-c2f11553c796","system_id":"levelo_inurba_marseille","lat":43.29727,"lon":5.3769,"is_reserved":false,"is_disabled":false,"rental_uris":{"android":"levelo://app?vid=42911603-79cc-4bdc-b1af-c2f11553c796","ios":"levelo://app?vid=42911603-79cc-4bdc-b1af-c2f11553c796"},"vehicle_type_id":"4","last_reported":1731164974,"current_range_meters":39200,"station_id":"ce4bgkh2rcd13ifvqbl0","pricing_plan_id":"cebpf4jnsgd1na2vs0mg"},{"bike_id":"faab5ae9-fa7a-43b7-81d9-83f1173ac007","system_id":"levelo_inurba_marseille","lat":43.25495,"lon":5.37653,"is_reserved":false,"is_disabled":false,"rental_uris":{"android":"levelo://app?vid=faab5ae9-fa7a-43b7-81d9-83f1173ac007","ios":"levelo://app?vid=faab5ae9-fa7a-43b7-81d9-83f1173ac007"},"vehicle_type_id":"4","last_reported":1731164974,"current_range_meters":20800,"station_id":"ce4bhh12rcd13ifvqff0","pricing_plan_id":"cebpf4jnsgd1na2vs0mg"},{"bike_id":"f108b940-0c4c-42f2-9315-efe52e05ae0b","system_id":"levelo_inurba_marseille","lat":43.30542,"lon":5.36546,"is_reserved":false,"is_disabled":false,"rental_uris":{"android":"levelo://app?vid=f108b940-0c4c-42f2-9315-efe52e05ae0b","ios":"levelo://app?vid=f108b940-0c4c-42f2-9315-efe52e05ae0b"},"vehicle_type_id":"4","last_reported":1731164974,"current_range_meters":28800,"station_id":"ce4bgs12rcd13ifvqcag","pricing_plan_id":"cebpf4jnsgd1na2vs0mg"},{"bike_id":"b79f1edd-a68d-4168-82c3-61bba3a69034","system_id":"levelo_inurba_marseille","lat":43.29266,"lon":5.36858,"is_reserved":false,"is_disabled":false,"rental_uris":{"android":"levelo://app?vid=b79f1edd-a68d-4168-82c3-61bba3a69034","ios":"levelo://app?vid=b79f1edd-a68d-4168-82c3-61bba3a69034"},"vehicle_type_id":"4","last_reported":1731164974,"current_range_meters":19200,"station_id":"ce4bhbp2rcd13ifvqesg","pricing_plan_id":"cebpf4jnsgd1na2vs0mg"},{"bike_id":"f0625590-2f57-4eaa-b9bc-7d7369f811af","system_id":"levelo_inurba_marseille","lat":43.25581,"lon":5.38251,"is_reserved":false,"is_disabled":false,"rental_uris":{"android":"levelo://app?vid=f0625590-2f57-4eaa-b9bc-7d7369f811af","ios":"levelo://app?vid=f0625590-2f57-4eaa-b9bc-7d7369f811af"},"vehicle_type_id":"4","last_reported":1731164974,"current_range_meters":8000,"station_id":"ce4bhih2rcd13ifvqfs0","pricing_plan_id":"cebpf4jnsgd1na2vs0mg"},{"bike_id":"dd4e22ca-5eec-4872-b7d0-1c51379871e4","system_id":"levelo_inurba_marseille","lat":43.24666,"lon":5.38167,"is_reserved":false,"is_disabled":false,"rental_uris":{"android":"levelo://app?vid=dd4e22ca-5eec-4872-b7d0-1c51379871e4","ios":"levelo://app?vid=dd4e22ca-5eec-4872-b7d0-1c51379871e4"},"vehicle_type_id":"4","last_reported":1731164974,"current_range_meters":8400,"station_id":"ce4bhih2rcd13ifvqfr0","pricing_plan_id":"cebpf4jnsgd1na2vs0mg"},{"bike_id":"2c9786d7-a414-4ea9-80a1-bc54755d5bb7","system_id":"levelo_inurba_marseille","lat":43.24348,"lon":5.37047,"is_reserved":false,"is_disabled":false,"rental_uris":{"android":"levelo://app?vid=2c9786d7-a414-4ea9-80a1-bc54755d5bb7","ios":"levelo://app?vid=2c9786d7-a414-4ea9-80a1-bc54755d5bb7"},"vehicle_type_id":"4","last_reported":1731164974,"current_range_meters":24800,"station_id":"ce4bhhh2rcd13ifvqfk0","pricing_plan_id":"cebpf4jnsgd1na2vs0mg"},{"bike_id":"7be60112-f079-4813-8267-7edf586b1d7d","system_id":"levelo_inurba_marseille","lat":43.29372,"lon":5.37867,"is_reserved":false,"is_disabled":false,"rental_uris":{"android":"levelo://app?vid=7be60112-f079-4813-8267-7edf586b1d7d","ios":"levelo://app?vid=7be60112-f079-4813-8267-7edf586b1d7d"},"vehicle_type_id":"4","last_reported":1731164974,"current_range_meters":36400,"station_id":"ce4bgjh2rcd13ifvqbf0","pricing_plan_id":"cebpf4jnsgd1na2vs0mg"},{"bike_id":"5abc852d-f9e5-42be-98e3-5e866cc145a2","system_id":"levelo_inurba_marseille","lat":43.24078,"lon":5.37756,"is_reserved":false,"is_disabled":false,"rental_uris":{"android":"levelo://app?vid=5abc852d-f9e5-42be-98e3-5e866cc145a2","ios":"levelo://app?vid=5abc852d-f9e5-42be-98e3-5e866cc145a2"},"vehicle_type_id":"4","last_reported":1731164974,"current_range_meters":20400,"station_id":"ce4bhnp2rcd13ifvqgvg","pricing_plan_id":"cebpf4jnsgd1na2vs0mg"},{"bike_id":"74faaeec-a0f9-4c84-a535-583c6aecccd1","system_id":"levelo_inurba_marseille","lat":43.24062,"lon":5.37767,"is_reserved":false,"is_disabled":false,"rental_uris":{"android":"levelo://app?vid=74faaeec-a0f9-4c84-a535-583c6aecccd1","ios":"levelo://app?vid=74faaeec-a0f9-4c84-a535-583c6aecccd1"},"vehicle_type_id":"4","last_reported":1731164974,"current_range_meters":14800,"station_id":"ce4bhnp2rcd13ifvqgvg","pricing_plan_id":"cebpf4jnsgd1na2vs0mg"},{"bike_id":"d70759c1-cec1-4a01-b71c-11405a2ea784","system_id":"levelo_inurba_marseille","lat":43.2919,"lon":5.358,"is_reserved":false,"is_disabled":false,"rental_uris":{"android":"levelo://app?vid=d70759c1-cec1-4a01-b71c-11405a2ea784","ios":"levelo://app?vid=d70759c1-cec1-4a01-b71c-11405a2ea784"},"vehicle_type_id":"4","last_reported":1731164974,"current_range_meters":38800,"station_id":"ce4bhb12rcd13ifvqel0","pricing_plan_id":"cebpf4jnsgd1na2vs0mg"},{"bike_id":"b4a66e1c-f1ac-469f-b5ea-6f6d53ed6f0f","system_id":"levelo_inurba_marseille","lat":43.29193,"lon":5.358,"is_reserved":false,"is_disabled":false,"rental_uris":{"android":"levelo://app?vid=b4a66e1c-f1ac-469f-b5ea-6f6d53ed6f0f","ios":"levelo://app?vid=b4a66e1c-f1ac-469f-b5ea-6f6d53ed6f0f"},"vehicle_type_id":"4","last_reported":1731164974,"current_range_meters":20800,"station_id":"ce4bhb12rcd13ifvqel0","pricing_plan_id":"cebpf4jnsgd1na2vs0mg"},{"bike_id":"7174c3dc-0523-4c37-9102-3815a5cee164","system_id":"levelo_inurba_marseille","lat":43.2922,"lon":5.36058,"is_reserved":false,"is_disabled":false,"rental_uris":{"android":"levelo://app?vid=7174c3dc-0523-4c37-9102-3815a5cee164","ios":"levelo://app?vid=7174c3dc-0523-4c37-9102-3815a5cee164"},"vehicle_type_id":"4","last_reported":1731164974,"current_range_meters":38800,"station_id":"ce4bhbh2rcd13ifvqeqg","pricing_plan_id":"cebpf4jnsgd1na2vs0mg"},{"bike_id":"75dc5b2f-9ee2-422e-80d6-45d9f3a0c118","system_id":"levelo_inurba_marseille","lat":43.30637,"lon":5.40094,"is_reserved":false,"is_disabled":false,"rental_uris":{"android":"levelo://app?vid=75dc5b2f-9ee2-422e-80d6-45d9f3a0c118","ios":"levelo://app?vid=75dc5b2f-9ee2-422e-80d6-45d9f3a0c118"},"vehicle_type_id":"4","last_reported":1731164974,"current_range_meters":17600,"station_id":"ce4bh112rcd13ifvqda0","pricing_plan_id":"cebpf4jnsgd1na2vs0mg"},{"bike_id":"d3ddac6b-acf6-477b-8daf-ad49aba87662","system_id":"levelo_inurba_marseille","lat":43.27063,"lon":5.42279,"is_reserved":false,"is_disabled":false,"rental_uris":{"android":"levelo://app?vid=d3ddac6b-acf6-477b-8daf-ad49aba87662","ios":"levelo://app?vid=d3ddac6b-acf6-477b-8daf-ad49aba87662"},"vehicle_type_id":"4","last_reported":1731164974,"current_range_meters":25200,"station_id":"ce4bhk92rcd13ifvqgb0","pricing_plan_id":"cebpf4jnsgd1na2vs0mg"},{"bike_id":"a1e56b82-a10b-49d1-9e87-03d669051ece","system_id":"levelo_inurba_marseille","lat":43.30539,"lon":5.36545,"is_reserved":false,"is_disabled":false,"rental_uris":{"android":"levelo://app?vid=a1e56b82-a10b-49d1-9e87-03d669051ece","ios":"levelo://app?vid=a1e56b82-a10b-49d1-9e87-03d669051ece"},"vehicle_type_id":"4","last_reported":1731164974,"current_range_meters":19200,"station_id":"ce4bgs12rcd13ifvqcag","pricing_plan_id":"cebpf4jnsgd1na2vs0mg"},{"bike_id":"d8d1eea3-21ab-43d5-9f29-89c94353be1c","system_id":"levelo_inurba_marseille","lat":43.30548,"lon":5.36543,"is_reserved":false,"is_disabled":false,"rental_uris":{"android":"levelo://app?vid=d8d1eea3-21ab-43d5-9f29-89c94353be1c","ios":"levelo://app?vid=d8d1eea3-21ab-43d5-9f29-89c94353be1c"},"vehicle_type_id":"4","last_reported":1731164974,"current_range_meters":38800,"station_id":"ce4bgs12rcd13ifvqcag","pricing_plan_id":"cebpf4jnsgd1na2vs0mg"},{"bike_id":"ac339f3f-9f44-4b9a-8210-48ab16757105","system_id":"levelo_inurba_marseille","lat":43.29258,"lon":5.40904,"is_reserved":false,"is_disabled":false,"rental_uris":{"android":"levelo://app?vid=ac339f3f-9f44-4b9a-8210-48ab16757105","ios":"levelo://app?vid=ac339f3f-9f44-4b9a-8210-48ab16757105"},"vehicle_type_id":"4","last_reported":1731164974,"current_range_meters":37600,"station_id":"ce4bh192rcd13ifvqdc0","pricing_plan_id":"cebpf4jnsgd1na2vs0mg"},{"bike_id":"a30775bb-33e3-4425-a80c-7fba1d330054","system_id":"levelo_inurba_marseille","lat":43.29851,"lon":5.36285,"is_reserved":false,"is_disabled":false,"rental_uris":{"android":"levelo://app?vid=a30775bb-33e3-4425-a80c-7fba1d330054","ios":"levelo://app?vid=a30775bb-33e3-4425-a80c-7fba1d330054"},"vehicle_type_id":"4","last_reported":1731164974,"current_range_meters":30000,"station_id":"ce4bgpp2rcd13ifvqc3g","pricing_plan_id":"cebpf4jnsgd1na2vs0mg"},{"bike_id":"65926ede-6135-4815-a699-3d1079713115","system_id":"levelo_inurba_marseille","lat":43.29525,"lon":5.375,"is_reserved":false,"is_disabled":false,"rental_uris":{"android":"levelo://app?vid=65926ede-6135-4815-a699-3d1079713115","ios":"levelo://app?vid=65926ede-6135-4815-a699-3d1079713115"},"vehicle_type_id":"4","last_reported":1731164974,"current_range_meters":38000,"station_id":"ce4bgkp2rcd13ifvqbmg","pricing_plan_id":"cebpf4jnsgd1na2vs0mg"},{"bike_id":"d2fab2fc-0dfc-4285-8324-8b3977915fe9","system_id":"levelo_inurba_marseille","lat":43.23969,"lon":5.36645,"is_reserved":false,"is_disabled":false,"rental_uris":{"android":"levelo://app?vid=d2fab2fc-0dfc-4285-8324-8b3977915fe9","ios":"levelo://app?vid=d2fab2fc-0dfc-4285-8324-8b3977915fe9"},"vehicle_type_id":"4","last_reported":1731164974,"current_range_meters":19600,"station_id":"ce4bhi12rcd13ifvqfp0","pricing_plan_id":"cebpf4jnsgd1na2vs0mg"},{"bike_id":"63bc1315-8e2f-4c8e-be66-9054a5945e47","system_id":"levelo_inurba_marseille","lat":43.320323,"lon":5.41571,"is_reserved":false,"is_disabled":false,"rental_uris":{"android":"levelo://app?vid=63bc1315-8e2f-4c8e-be66-9054a5945e47","ios":"levelo://app?vid=63bc1315-8e2f-4c8e-be66-9054a5945e47"},"vehicle_type_id":"4","last_reported":1731164974,"current_range_meters":38800,"station_id":"ce4bhq92rcd13ifvqhkg","pricing_plan_id":"cebpf4jnsgd1na2vs0mg"},{"bike_id":"fa2a5e5c-6495-412b-a165-472e0f27db6f","system_id":"levelo_inurba_marseille","lat":43.25499,"lon":5.37653,"is_reserved":false,"is_disabled":false,"rental_uris":{"android":"levelo://app?vid=fa2a5e5c-6495-412b-a165-472e0f27db6f","ios":"levelo://app?vid=fa2a5e5c-6495-412b-a165-472e0f27db6f"},"vehicle_type_id":"4","last_reported":1731164974,"current_range_meters":22400,"station_id":"ce4bhh12rcd13ifvqff0","pricing_plan_id":"cebpf4jnsgd1na2vs0mg"},{"bike_id":"b3f7bf53-2770-4f0b-836b-ce2a121fa3f7","system_id":"levelo_inurba_marseille","lat":43.23958,"lon":5.36622,"is_reserved":false,"is_disabled":false,"rental_uris":{"android":"levelo://app?vid=b3f7bf53-2770-4f0b-836b-ce2a121fa3f7","ios":"levelo://app?vid=b3f7bf53-2770-4f0b-836b-ce2a121fa3f7"},"vehicle_type_id":"4","last_reported":1731164974,"current_range_meters":24400,"station_id":"ce4bhi12rcd13ifvqfp0","pricing_plan_id":"cebpf4jnsgd1na2vs0mg"},{"bike_id":"13e29e78-5627-40a9-b77f-88312e2043ec","system_id":"levelo_inurba_marseille","lat":43.30526,"lon":5.36549,"is_reserved":false,"is_disabled":false,"rental_uris":{"android":"levelo://app?vid=13e29e78-5627-40a9-b77f-88312e2043ec","ios":"levelo://app?vid=13e29e78-5627-40a9-b77f-88312e2043ec"},"vehicle_type_id":"4","last_reported":1731164974,"current_range_meters":28000,"station_id":"ce4bgs12rcd13ifvqcag","pricing_plan_id":"cebpf4jnsgd1na2vs0mg"},{"bike_id":"c0a52d17-cbb9-4fc8-81d7-31b6a7874899","system_id":"levelo_inurba_marseille","lat":43.239581,"lon":5.36629,"is_reserved":false,"is_disabled":false,"rental_uris":{"android":"levelo://app?vid=c0a52d17-cbb9-4fc8-81d7-31b6a7874899","ios":"levelo://app?vid=c0a52d17-cbb9-4fc8-81d7-31b6a7874899"},"vehicle_type_id":"4","last_reported":1731164974,"current_range_meters":36000,"station_id":"ce4bhi12rcd13ifvqfp0","pricing_plan_id":"cebpf4jnsgd1na2vs0mg"},{"bike_id":"63840c09-bbab-4dee-b7ae-a4ab57abe6d0","system_id":"levelo_inurba_marseille","lat":43.29613,"lon":5.37716,"is_reserved":false,"is_disabled":false,"rental_uris":{"android":"levelo://app?vid=63840c09-bbab-4dee-b7ae-a4ab57abe6d0","ios":"levelo://app?vid=63840c09-bbab-4dee-b7ae-a4ab57abe6d0"},"vehicle_type_id":"4","last_reported":1731164974,"current_range_meters":38800,"station_id":"ce4bgi92rcd13ifvqb90","pricing_plan_id":"cebpf4jnsgd1na2vs0mg"},{"bike_id":"bd0e90d4-0ade-49a5-a6a4-ce400649c4bb","system_id":"levelo_inurba_marseille","lat":43.31215,"lon":5.36852,"is_reserved":false,"is_disabled":false,"rental_uris":{"android":"levelo://app?vid=bd0e90d4-0ade-49a5-a6a4-ce400649c4bb","ios":"levelo://app?vid=bd0e90d4-0ade-49a5-a6a4-ce400649c4bb"},"vehicle_type_id":"4","last_reported":1731164974,"current_range_meters":11200,"station_id":"ce4bgl92rcd13ifvqbq0","pricing_plan_id":"cebpf4jnsgd1na2vs0mg"},{"bike_id":"6b0d4eb2-1c5e-4e73-96a4-22e528b641bf","system_id":"levelo_inurba_marseille","lat":43.26777,"lon":5.39417,"is_reserved":false,"is_disabled":false,"rental_uris":{"android":"levelo://app?vid=6b0d4eb2-1c5e-4e73-96a4-22e528b641bf","ios":"levelo://app?vid=6b0d4eb2-1c5e-4e73-96a4-22e528b641bf"},"vehicle_type_id":"4","last_reported":1731164974,"current_range_meters":26000,"station_id":"ce4bhh12rcd13ifvqfg0","pricing_plan_id":"cebpf4jnsgd1na2vs0mg"},{"bike_id":"aface075-8aad-44db-aa85-d812a3eed96b","system_id":"levelo_inurba_marseille","lat":43.29098,"lon":5.38157,"is_reserved":false,"is_disabled":false,"rental_uris":{"android":"levelo://app?vid=aface075-8aad-44db-aa85-d812a3eed96b","ios":"levelo://app?vid=aface075-8aad-44db-aa85-d812a3eed96b"},"vehicle_type_id":"4","last_reported":1731164974,"current_range_meters":24800,"station_id":"ce4bh512rcd13ifvqe2g","pricing_plan_id":"cebpf4jnsgd1na2vs0mg"},{"bike_id":"795e3900-36bb-4430-977d-b334f9a9ea13","system_id":"levelo_inurba_marseille","lat":43.29939,"lon":5.36554,"is_reserved":false,"is_disabled":false,"rental_uris":{"android":"levelo://app?vid=795e3900-36bb-4430-977d-b334f9a9ea13","ios":"levelo://app?vid=795e3900-36bb-4430-977d-b334f9a9ea13"},"vehicle_type_id":"4","last_reported":1731164974,"current_range_meters":36400,"station_id":"ce4bgm92rcd13ifvqbr0","pricing_plan_id":"cebpf4jnsgd1na2vs0mg"},{"bike_id":"683608f0-97cb-4e5c-85b7-72460c490508","system_id":"levelo_inurba_marseille","lat":43.29567,"lon":5.37518,"is_reserved":false,"is_disabled":false,"rental_uris":{"android":"levelo://app?vid=683608f0-97cb-4e5c-85b7-72460c490508","ios":"levelo://app?vid=683608f0-97cb-4e5c-85b7-72460c490508"},"vehicle_type_id":"4","last_reported":1731164974,"current_range_meters":38000,"station_id":"ce4bgh92rcd13ifvqb50","pricing_plan_id":"cebpf4jnsgd1na2vs0mg"},{"bike_id":"b890188d-e884-479f-bb4c-6d0ae58fe57b","system_id":"levelo_inurba_marseille","lat":43.30465,"lon":5.37903,"is_reserved":false,"is_disabled":false,"rental_uris":{"android":"levelo://app?vid=b890188d-e884-479f-bb4c-6d0ae58fe57b","ios":"levelo://app?vid=b890188d-e884-479f-bb4c-6d0ae58fe57b"},"vehicle_type_id":"4","last_reported":1731164974,"current_range_meters":9200,"station_id":"ce4bgup2rcd13ifvqcn0","pricing_plan_id":"cebpf4jnsgd1na2vs0mg"},{"bike_id":"1168dd88-14da-4b8f-9702-5ebe00af9269","system_id":"levelo_inurba_marseille","lat":43.29928,"lon":5.36556,"is_reserved":false,"is_disabled":false,"rental_uris":{"android":"levelo://app?vid=1168dd88-14da-4b8f-9702-5ebe00af9269","ios":"levelo://app?vid=1168dd88-14da-4b8f-9702-5ebe00af9269"},"vehicle_type_id":"4","last_reported":1731164974,"current_range_meters":20400,"station_id":"ce4bgm92rcd13ifvqbr0","pricing_plan_id":"cebpf4jnsgd1na2vs0mg"},{"bike_id":"1786decf-feaf-4f42-99f1-d8979bde2689","system_id":"levelo_inurba_marseille","lat":43.3171,"lon":5.37765,"is_reserved":false,"is_disabled":false,"rental_uris":{"android":"levelo://app?vid=1786decf-feaf-4f42-99f1-d8979bde2689","ios":"levelo://app?vid=1786decf-feaf-4f42-99f1-d8979bde2689"},"vehicle_type_id":"4","last_reported":1731164974,"current_range_meters":38800,"station_id":"ce4bgth2rcd13ifvqch0","pricing_plan_id":"cebpf4jnsgd1na2vs0mg"},{"bike_id":"6b3b6a64-78a8-4d81-8a5a-03646d4d6723","system_id":"levelo_inurba_marseille","lat":43.24071,"lon":5.37769,"is_reserved":false,"is_disabled":false,"rental_uris":{"android":"levelo://app?vid=6b3b6a64-78a8-4d81-8a5a-03646d4d6723","ios":"levelo://app?vid=6b3b6a64-78a8-4d81-8a5a-03646d4d6723"},"vehicle_type_id":"4","last_reported":1731164974,"current_range_meters":28800,"station_id":"ce4bhnp2rcd13ifvqgvg","pricing_plan_id":"cebpf4jnsgd1na2vs0mg"},{"bike_id":"b33b36a9-1694-4729-917e-7841207e352d","system_id":"levelo_inurba_marseille","lat":43.28723,"lon":5.36098,"is_reserved":false,"is_disabled":false,"rental_uris":{"android":"levelo://app?vid=b33b36a9-1694-4729-917e-7841207e352d","ios":"levelo://app?vid=b33b36a9-1694-4729-917e-7841207e352d"},"vehicle_type_id":"4","last_reported":1731164974,"current_range_meters":25600,"station_id":"cki0cbj6b192h4jlfktg","pricing_plan_id":"cebpf4jnsgd1na2vs0mg"},{"bike_id":"217cb274-35fe-43d5-b155-a0a2e8954d3e","system_id":"levelo_inurba_marseille","lat":43.27996,"lon":5.40013,"is_reserved":false,"is_disabled":false,"rental_uris":{"android":"levelo://app?vid=217cb274-35fe-43d5-b155-a0a2e8954d3e","ios":"levelo://app?vid=217cb274-35fe-43d5-b155-a0a2e8954d3e"},"vehicle_type_id":"4","last_reported":1731164974,"current_range_meters":16000,"station_id":"ce4bho92rcd13ifvqh4g","pricing_plan_id":"cebpf4jnsgd1na2vs0mg"},{"bike_id":"ba5e9fdc-e697-48e6-94f1-ac71e828732b","system_id":"levelo_inurba_marseille","lat":43.31215,"lon":5.36864,"is_reserved":false,"is_disabled":false,"rental_uris":{"android":"levelo://app?vid=ba5e9fdc-e697-48e6-94f1-ac71e828732b","ios":"levelo://app?vid=ba5e9fdc-e697-48e6-94f1-ac71e828732b"},"vehicle_type_id":"4","last_reported":1731164974,"current_range_meters":22400,"station_id":"ce4bgl92rcd13ifvqbq0","pricing_plan_id":"cebpf4jnsgd1na2vs0mg"},{"bike_id":"f616ec65-ebe5-43d5-b0bc-00a6f36af7b1","system_id":"levelo_inurba_marseille","lat":43.24803,"lon":5.37482,"is_reserved":false,"is_disabled":false,"rental_uris":{"android":"levelo://app?vid=f616ec65-ebe5-43d5-b0bc-00a6f36af7b1","ios":"levelo://app?vid=f616ec65-ebe5-43d5-b0bc-00a6f36af7b1"},"vehicle_type_id":"4","last_reported":1731164974,"current_range_meters":30000,"station_id":"ce4bhgh2rcd13ifvqfb0","pricing_plan_id":"cebpf4jnsgd1na2vs0mg"},{"bike_id":"24ed8c3b-231e-4b45-8e4e-6f4b7fb481a9","system_id":"levelo_inurba_marseille","lat":43.30458,"lon":5.37903,"is_reserved":false,"is_disabled":false,"rental_uris":{"android":"levelo://app?vid=24ed8c3b-231e-4b45-8e4e-6f4b7fb481a9","ios":"levelo://app?vid=24ed8c3b-231e-4b45-8e4e-6f4b7fb481a9"},"vehicle_type_id":"4","last_reported":1731164974,"current_range_meters":22400,"station_id":"ce4bgup2rcd13ifvqcn0","pricing_plan_id":"cebpf4jnsgd1na2vs0mg"},{"bike_id":"52188008-0523-4028-a78a-d24911974a37","system_id":"levelo_inurba_marseille","lat":43.292328,"lon":5.383445,"is_reserved":false,"is_disabled":false,"rental_uris":{"android":"levelo://app?vid=52188008-0523-4028-a78a-d24911974a37","ios":"levelo://app?vid=52188008-0523-4028-a78a-d24911974a37"},"vehicle_type_id":"4","last_reported":1731164974,"current_range_meters":4000,"station_id":"ce4bh692rcd13ifvqea0","pricing_plan_id":"cebpf4jnsgd1na2vs0mg"},{"bike_id":"08e1deb0-9976-4e22-acd9-d0057e98fa92","system_id":"levelo_inurba_marseille","lat":43.29634,"lon":5.40592,"is_reserved":false,"is_disabled":false,"rental_uris":{"android":"levelo://app?vid=08e1deb0-9976-4e22-acd9-d0057e98fa92","ios":"levelo://app?vid=08e1deb0-9976-4e22-acd9-d0057e98fa92"},"vehicle_type_id":"4","last_reported":1731164974,"current_range_meters":10800,"station_id":"ce4bh0h2rcd13ifvqd60","pricing_plan_id":"cebpf4jnsgd1na2vs0mg"},{"bike_id":"6d97ebd0-eaa9-4bb2-be7d-fff3607c7000","system_id":"levelo_inurba_marseille","lat":43.304469,"lon":5.388889,"is_reserved":false,"is_disabled":false,"rental_uris":{"android":"levelo://app?vid=6d97ebd0-eaa9-4bb2-be7d-fff3607c7000","ios":"levelo://app?vid=6d97ebd0-eaa9-4bb2-be7d-fff3607c7000"},"vehicle_type_id":"4","last_reported":1731164974,"current_range_meters":35200,"station_id":"ce4bgk12rcd13ifvqbi0","pricing_plan_id":"cebpf4jnsgd1na2vs0mg"},{"bike_id":"3eab29fa-384d-42b3-8a97-9582e857ca12","system_id":"levelo_inurba_marseille","lat":43.255,"lon":5.37647,"is_reserved":false,"is_disabled":false,"rental_uris":{"android":"levelo://app?vid=3eab29fa-384d-42b3-8a97-9582e857ca12","ios":"levelo://app?vid=3eab29fa-384d-42b3-8a97-9582e857ca12"},"vehicle_type_id":"4","last_reported":1731164974,"current_range_meters":38800,"station_id":"ce4bhh12rcd13ifvqff0","pricing_plan_id":"cebpf4jnsgd1na2vs0mg"},{"bike_id":"11285e4d-53cc-4d4b-82aa-ce3344e13369","system_id":"levelo_inurba_marseille","lat":43.29009,"lon":5.35606,"is_reserved":false,"is_disabled":false,"rental_uris":{"android":"levelo://app?vid=11285e4d-53cc-4d4b-82aa-ce3344e13369","ios":"levelo://app?vid=11285e4d-53cc-4d4b-82aa-ce3344e13369"},"vehicle_type_id":"4","last_reported":1731164974,"current_range_meters":37600,"station_id":"ce4bhb92rcd13ifvqen0","pricing_plan_id":"cebpf4jnsgd1na2vs0mg"},{"bike_id":"e5e4fbd2-fff1-4aab-af4c-e1d03c9e63bd","system_id":"levelo_inurba_marseille","lat":43.30464,"lon":5.37923,"is_reserved":false,"is_disabled":false,"rental_uris":{"android":"levelo://app?vid=e5e4fbd2-fff1-4aab-af4c-e1d03c9e63bd","ios":"levelo://app?vid=e5e4fbd2-fff1-4aab-af4c-e1d03c9e63bd"},"vehicle_type_id":"4","last_reported":1731164974,"current_range_meters":36400,"station_id":"ce4bgup2rcd13ifvqcn0","pricing_plan_id":"cebpf4jnsgd1na2vs0mg"},{"bike_id":"cb83e8c7-0445-4e04-baf7-d60526dec889","system_id":"levelo_inurba_marseille","lat":43.30545,"lon":5.3654,"is_reserved":false,"is_disabled":false,"rental_uris":{"android":"levelo://app?vid=cb83e8c7-0445-4e04-baf7-d60526dec889","ios":"levelo://app?vid=cb83e8c7-0445-4e04-baf7-d60526dec889"},"vehicle_type_id":"4","last_reported":1731164974,"current_range_meters":38800,"station_id":"ce4bgs12rcd13ifvqcag","pricing_plan_id":"cebpf4jnsgd1na2vs0mg"},