{"last_updated":1728533456,"ttl":60,"version":"2.2","data":{"bikes":[{"bike_id":"3727781c-865c-4d72-8429-9c506a98a4d9","system_id":"levelo_inurba_marseille","lat":43.28458,"lon":5.35884,"is_reserved":false,"is_disabled":false,"rental_uris":{"android":"levelo://app?vid=3727781c-865c-4d72-8429-9c506a98a4d9","ios":"levelo://app?vid=3727781c-865c-4d72-8429-9c506a98a4d9"},"vehicle_type_id":"4","last_reported":1728533456,"current_range_meters":31200,"station_id":"ce4bhah2rcd13ifvqei0","pricing_plan_id":"cebpf4jnsgd1na2vs0mg"},{"bike_id":"be4d37e2-3313-4912-ba80-d9d3f827172d","system_id":"levelo_inurba_marseille","lat":43.29993,"lon":5.37182,"is_reserved":false,"is_disabled":false,"rental_uris":{"android":"levelo://app?vid=be4d37e2-3313-4912-ba80-d9d3f827172d","ios":"levelo://app?vid=be4d37e2-3313-4912-ba80-d9d3f827172d"},"vehicle_type_id":"4","last_reported":1728533456,"current_range_meters":38000,"station_id":"ce4bgr92rcd13ifvqc7g","pricing_plan_id":"cebpf4jnsgd1na2vs0mg"},{"bike_id":"6f21e540-4bec-4f93-aed0-d686f01eab93","system_id":"levelo_inurba_marseille","lat":43.30186,"lon":5.36607,"is_reserved":false,"is_disabled":false,"rental_uris":{"android":"levelo://app?vid=6f21e540-4bec-4f93-aed0-d686f01eab93","ios":"levelo://app?vid=6f21e540-4bec-4f93-aed0-d686f01eab93"},"vehicle_type_id":"4","last_reported":1728533456,"current_range_meters":20400,"station_id":"ce4bgrh2rcd13ifvqc8g","pricing_plan_id":"cebpf4jnsgd1na2vs0mg"},{"bike_id":"b459e92d-5ff7-40df-ad7e-1fff3f34782d","system_id":"levelo_inurba_marseille","lat":43.25107,"lon":5.40321,"is_reserved":false,"is_disabled":false,"rental_uris":{"android":"levelo://app?vid=b459e92d-5ff7-40df-ad7e-1fff3f34782d","ios":"levelo://app?vid=b459e92d-5ff7-40df-ad7e-1fff3f34782d"},"vehicle_type_id":"4","last_reported":1728533456,"current_range_meters":18800,"station_id":"ce4bhlh2rcd13ifvqgig","pricing_plan_id":"cebpf4jnsgd1na2vs0mg"},{"bike_id":"5ddd80c4-cb7c-4fad-8df6-3ed50370f740","system_id":"levelo_inurba_marseille","lat":43.251121,"lon":5.403114,"is_reserved":false,"is_disabled":false,"rental_uris":{"android":"levelo://app?vid=5ddd80c4-cb7c-4fad-8df6-3ed50370f740","ios":"levelo://app?vid=5ddd80c4-cb7c-4fad-8df6-3ed50370f740"},"vehicle_type_id":"4","last_reported":1728533456,"current_range_meters":38800,"station_id":"ce4bhlh2rcd13ifvqgig","pricing_plan_id":"cebpf4jnsgd1na2vs0mg"},{"bike_id":"50c91c57-a918-4ca0-beae-15c82ec4896e","system_id":"levelo_inurba_marseille","lat":43.31753,"lon":5.3902,"is_reserved":false,"is_disabled":false,"rental_uris":{"android":"levelo://app?vid=50c91c57-a918-4ca0-beae-15c82ec4896e","ios":"levelo://app?vid=50c91c57-a918-4ca0-beae-15c82ec4896e"},"vehicle_type_id":"4","last_reported":1728533456,"current_range_meters":28000,"station_id":"ce4bhqp2rcd13ifvqhng","pricing_plan_id":"cebpf4jnsgd1na2vs0mg"},{"bike_id":"69e77010-a535-4398-8159-24f48f4c7d15","system_id":"levelo_inurba_marseille","lat":43.23071,"lon":5.3549,"is_reserved":false,"is_disabled":false,"rental_uris":{"android":"levelo://app?vid=69e77010-a535-4398-8159-24f48f4c7d15","ios":"levelo://app?vid=69e77010-a535-4398-8159-24f48f4c7d15"},"vehicle_type_id":"4","last_reported":1728533456,"current_range_meters":5600,"station_id":"cpo3342slgdg3j2ifvpg","pricing_plan_id":"cebpf4jnsgd1na2vs0mg"},{"bike_id":"0f20fce0-8f3b-4d27-a364-ae45a60544f0","system_id":"levelo_inurba_marseille","lat":43.31332,"lon":5.39692,"is_reserved":false,"is_disabled":false,"rental_uris":{"android":"levelo://app?vid=0f20fce0-8f3b-4d27-a364-ae45a60544f0","ios":"levelo://app?vid=0f20fce0-8f3b-4d27-a364-ae45a60544f0"},"vehicle_type_id":"4","last_reported":1728533456,"current_range_meters":38400,"station_id":"ce4bgvp2rcd13ifvqcu0","pricing_plan_id":"cebpf4jnsgd1na2vs0mg"},{"bike_id":"bb88e80f-d810-4892-8533-77cbf9d7d222","system_id":"levelo_inurba_marseille","lat":43.31711,"lon":5.43704,"is_reserved":false,"is_disabled":false,"rental_uris":{"android":"levelo://app?vid=bb88e80f-d810-4892-8533-77cbf9d7d222","ios":"levelo://app?vid=bb88e80f-d810-4892-8533-77cbf9d7d222"},"vehicle_type_id":"4","last_reported":1728533456,"current_range_meters":38000,"station_id":"ce4bhp92rcd13ifvqhcg","pricing_plan_id":"cebpf4jnsgd1na2vs0mg"},{"bike_id":"2c5de04c-236e-4c54-ac77-e2cf3df12248","system_id":"levelo_inurba_marseille","lat":43.29968,"lon":5.41321,"is_reserved":false,"is_disabled":false,"rental_uris":{"android":"levelo://app?vid=2c5de04c-236e-4c54-ac77-e2cf3df12248","ios":"levelo://app?vid=2c5de04c-236e-4c54-ac77-e2cf3df12248"},"vehicle_type_id":"4","last_reported":1728533456,"current_range_meters":38800,"station_id":"ce4bhp12rcd13ifvqh9g","pricing_plan_id":"cebpf4jnsgd1na2vs0mg"},{"bike_id":"39a85fab-0558-4f23-b90b-62ca06f12444","system_id":"levelo_inurba_marseille","lat":43.29187,"lon":5.35803,"is_reserved":false,"is_disabled":false,"rental_uris":{"android":"levelo://app?vid=39a85fab-0558-4f23-b90b-62ca06f12444","ios":"levelo://app?vid=39a85fab-0558-4f23-b90b-62ca06f12444"},"vehicle_type_id":"4","last_reported":1728533456,"current_range_meters":37600,"station_id":"ce4bhb12rcd13ifvqel0","pricing_plan_id":"cebpf4jnsgd1na2vs0mg"},{"bike_id":"6a15c377-276e-4964-aeef-a4de0b0bee3e","system_id":"levelo_inurba_marseille","lat":43.25821,"lon":5.39429,"is_reserved":false,"is_disabled":false,"rental_uris":{"android":"levelo://app?vid=6a15c377-276e-4964-aeef-a4de0b0bee3e","ios":"levelo://app?vid=6a15c377-276e-4964-aeef-a4de0b0bee3e"},"vehicle_type_id":"4","last_reported":1728533456,"current_range_meters":24400,"station_id":"ce4bhip2rcd13ifvqft0","pricing_plan_id":"cebpf4jnsgd1na2vs0mg"},{"bike_id":"82bd49f5-0389-4293-92bb-305d1b6170d6","system_id":"levelo_inurba_marseille","lat":43.28463,"lon":5.35888,"is_reserved":false,"is_disabled":false,"rental_uris":{"android":"levelo://app?vid=82bd49f5-0389-4293-92bb-305d1b6170d6","ios":"levelo://app?vid=82bd49f5-0389-4293-92bb-305d1b6170d6"},"vehicle_type_id":"4","last_reported":1728533456,"current_range_meters":27200,"station_id":"ce4bhah2rcd13ifvqei0","pricing_plan_id":"cebpf4jnsgd1na2vs0mg"},{"bike_id":"1b1ffc3e-1d93-4f06-8508-4f406b85c921","system_id":"levelo_inurba_marseille","lat":43.30421,"lon":5.41286,"is_reserved":false,"is_disabled":false,"rental_uris":{"android":"levelo://app?vid=1b1ffc3e-1d93-4f06-8508-4f406b85c921","ios":"levelo://app?vid=1b1ffc3e-1d93-4f06-8508-4f406b85c921"},"vehicle_type_id":"4","last_reported":1728533456,"current_range_meters":28000,"station_id":"ce4bhop2rcd13ifvqh8g","pricing_plan_id":"cebpf4jnsgd1na2vs0mg"},{"bike_id":"0b273c15-73bf-4946-8b2f-bba3a39428ad","system_id":"levelo_inurba_marseille","lat":43.32001,"lon":5.3814,"is_reserved":false,"is_disabled":false,"rental_uris":{"android":"levelo://app?vid=0b273c15-73bf-4946-8b2f-bba3a39428ad","ios":"levelo://app?vid=0b273c15-73bf-4946-8b2f-bba3a39428ad"},"vehicle_type_id":"4","last_reported":1728533456,"current_range_meters":31200,"station_id":"ce4bhr12rcd13ifvqhpg","pricing_plan_id":"cebpf4jnsgd1na2vs0mg"},{"bike_id":"30bf8259-24e0-471d-a1a9-0f8cbd892911","system_id":"levelo_inurba_marseille","lat":43.31759,"lon":5.39016,"is_reserved":false,"is_disabled":false,"rental_uris":{"android":"levelo://app?vid=30bf8259-24e0-471d-a1a9-0f8cbd892911","ios":"levelo://app?vid=30bf8259-24e0-471d-a1a9-0f8cbd892911"},"vehicle_type_id":"4","last_reported":1728533456,"current_range_meters":38000,"station_id":"ce4bhqp2rcd13ifvqhng","pricing_plan_id":"cebpf4jnsgd1na2vs0mg"},{"bike_id":"2c427dac-c1a0-49fd-91a2-1ed7202cff34","system_id":"levelo_inurba_marseille","lat":43.28846,"lon":5.35845,"is_reserved":false,"is_disabled":false,"rental_uris":{"android":"levelo://app?vid=2c427dac-c1a0-49fd-91a2-1ed7202cff34","ios":"levelo://app?vid=2c427dac-c1a0-49fd-91a2-1ed7202cff34"},"vehicle_type_id":"4","last_reported":1728533456,"current_range_meters":38800,"station_id":"ce4bhb12rcd13ifvqem0","pricing_plan_id":"cebpf4jnsgd1na2vs0mg"},{"bike_id":"e5b25bf8-5b3a-42e7-96e8-ff4e0212e483","system_id":"levelo_inurba_marseille","lat":43.29877,"lon":5.38908,"is_reserved":false,"is_disabled":false,"rental_uris":{"android":"levelo://app?vid=e5b25bf8-5b3a-42e7-96e8-ff4e0212e483","ios":"levelo://app?vid=e5b25bf8-5b3a-42e7-96e8-ff4e0212e483"},"vehicle_type_id":"4","last_reported":1728533456,"current_range_meters":38000,"station_id":"ce4bh392rcd13ifvqdl0","pricing_plan_id":"cebpf4jnsgd1na2vs0mg"},{"bike_id":"3e897d99-4859-48e6-a0d9-b75f66586fcd","system_id":"levelo_inurba_marseille","lat":43.24804,"lon":5.37454,"is_reserved":false,"is_disabled":false,"rental_uris":{"android":"levelo://app?vid=3e897d99-4859-48e6-a0d9-b75f66586fcd","ios":"levelo://app?vid=3e897d99-4859-48e6-a0d9-b75f66586fcd"},"vehicle_type_id":"4","last_reported":1728533456,"current_range_meters":36000,"station_id":"ce4bhgh2rcd13ifvqfb0","pricing_plan_id":"cebpf4jnsgd1na2vs0mg"},{"bike_id":"c0b0ff87-a93c-4556-ae48-2facd242b6ba","system_id":"levelo_inurba_marseille","lat":43.24071,"lon":5.37762,"is_reserved":false,"is_disabled":false,"rental_uris":{"android":"levelo://app?vid=c0b0ff87-a93c-4556-ae48-2facd242b6ba","ios":"levelo://app?vid=c0b0ff87-a93c-4556-ae48-2facd242b6ba"},"vehicle_type_id":"4","last_reported":1728533456,"current_range_meters":25200,"station_id":"ce4bhnp2rcd13ifvqgvg","pricing_plan_id":"cebpf4jnsgd1na2vs0mg"},{"bike_id":"c6a62e7e-39cc-4159-9118-3780f72a1b93","system_id":"levelo_inurba_marseille","lat":43.2464,"lon":5.38886,"is_reserved":false,"is_disabled":false,"rental_uris":{"android":"levelo://app?vid=c6a62e7e-39cc-4159-9118-3780f72a1b93","ios":"levelo://app?vid=c6a62e7e-39cc-4159-9118-3780f72a1b93"},"vehicle_type_id":"4","last_reported":1728533456,"current_range_meters":36800,"station_id":"ce4bhg12rcd13ifvqf60","pricing_plan_id":"cebpf4jnsgd1na2vs0mg"},{"bike_id":"6cb2fd54-0aca-4f7d-aadb-bc057dc4fb59","system_id":"levelo_inurba_marseille","lat":43.23063,"lon":5.35491,"is_reserved":false,"is_disabled":false,"rental_uris":{"android":"levelo://app?vid=6cb2fd54-0aca-4f7d-aadb-bc057dc4fb59","ios":"levelo://app?vid=6cb2fd54-0aca-4f7d-aadb-bc057dc4fb59"},"vehicle_type_id":"4","last_reported":1728533456,"current_range_meters":35600,"station_id":"cpo3342slgdg3j2ifvpg","pricing_plan_id":"cebpf4jnsgd1na2vs0mg"},{"bike_id":"bc88930d-c24e-49e4-934e-af48d7749416","system_id":"levelo_inurba_marseille","lat":43.27208,"lon":5.3918,"is_reserved":false,"is_disabled":false,"rental_uris":{"android":"levelo://app?vid=bc88930d-c24e-49e4-934e-af48d7749416","ios":"levelo://app?vid=bc88930d-c24e-49e4-934e-af48d7749416"},"vehicle_type_id":"4","last_reported":1728533456,"current_range_meters":37600,"station_id":"ce4bhhp2rcd13ifvqfm0","pricing_plan_id":"cebpf4jnsgd1na2vs0mg"},{"bike_id":"f87afba9-f780-4214-85a2-5a66cc390443","system_id":"levelo_inurba_marseille","lat":43.29526,"lon":5.37509,"is_reserved":false,"is_disabled":false,"rental_uris":{"android":"levelo://app?vid=f87afba9-f780-4214-85a2-5a66cc390443","ios":"levelo://app?vid=f87afba9-f780-4214-85a2-5a66cc390443"},"vehicle_type_id":"4","last_reported":1728533456,"current_range_meters":37600,"station_id":"ce4bgkp2rcd13ifvqbmg","pricing_plan_id":"cebpf4jnsgd1na2vs0mg"},{"bike_id":"4fb2ffd6-9305-4ca0-ae07-a1613b874593","system_id":"levelo_inurba_marseille","lat":43.28151,"lon":5.42652,"is_reserved":false,"is_disabled":false,"rental_uris":{"android":"levelo://app?vid=4fb2ffd6-9305-4ca0-ae07-a1613b874593","ios":"levelo://app?vid=4fb2ffd6-9305-4ca0-ae07-a1613b874593"},"vehicle_type_id":"4","last_reported":1728533456,"current_range_meters":8400,"station_id":"ce4bhnh2rcd13ifvqgug","pricing_plan_id":"cebpf4jnsgd1na2vs0mg"},{"bike_id":"ea81ee1f-9776-47a9-99ff-755201b1a9ef","system_id":"levelo_inurba_marseille","lat":43.2619,"lon":5.37451,"is_reserved":false,"is_disabled":false,"rental_uris":{"android":"levelo://app?vid=ea81ee1f-9776-47a9-99ff-755201b1a9ef","ios":"levelo://app?vid=ea81ee1f-9776-47a9-99ff-755201b1a9ef"},"vehicle_type_id":"4","last_reported":1728533456,"current_range_meters":26000,"station_id":"ce4bhgp2rcd13ifvqfc0","pricing_plan_id":"cebpf4jnsgd1na2vs0mg"},{"bike_id":"6ac01319-5f01-43b5-b52d-79391e18b456","system_id":"levelo_inurba_marseille","lat":43.24184,"lon":5.39718,"is_reserved":false,"is_disabled":false,"rental_uris":{"android":"levelo://app?vid=6ac01319-5f01-43b5-b52d-79391e18b456","ios":"levelo://app?vid=6ac01319-5f01-43b5-b52d-79391e18b456"},"vehicle_type_id":"4","last_reported":1728533456,"current_range_meters":37600,"station_id":"ce4bhn12rcd13ifvqgpg","pricing_plan_id":"cebpf4jnsgd1na2vs0mg"},{"bike_id":"b4ff5ff3-a6af-4e8e-a8e2-2566773f0d31","system_id":"levelo_inurba_marseille","lat":43.31276,"lon":5.40167,"is_reserved":false,"is_disabled":false,"rental_uris":{"android":"levelo://app?vid=b4ff5ff3-a6af-4e8e-a8e2-2566773f0d31","ios":"levelo://app?vid=b4ff5ff3-a6af-4e8e-a8e2-2566773f0d31"},"vehicle_type_id":"4","last_reported":1728533456,"current_range_meters":34000,"station_id":"ce4bh092rcd13ifvqd30","pricing_plan_id":"cebpf4jnsgd1na2vs0mg"},{"bike_id":"8b14cb52-8fb7-488c-8732-71ed520243c7","system_id":"levelo_inurba_marseille","lat":43.25731,"lon":5.41107,"is_reserved":false,"is_disabled":false,"rental_uris":{"android":"levelo://app?vid=8b14cb52-8fb7-488c-8732-71ed520243c7","ios":"levelo://app?vid=8b14cb52-8fb7-488c-8732-71ed520243c7"},"vehicle_type_id":"4","last_reported":1728533456,"current_range_meters":6400,"station_id":"ce4bhkp2rcd13ifvqgd0","pricing_plan_id":"cebpf4jnsgd1na2vs0mg"},{"bike_id":"715e8d73-509e-41b3-9df3-5afc07be767e","system_id":"levelo_inurba_marseille","lat":43.32346,"lon":5.40622,"is_reserved":false,"is_disabled":false,"rental_uris":{"android":"levelo://app?vid=715e8d73-509e-41b3-9df3-5afc07be767e","ios":"levelo://app?vid=715e8d73-509e-41b3-9df3-5afc07be767e"},"vehicle_type_id":"4","last_reported":1728533456,"current_range_meters":16400,"station_id":"ce4bhq92rcd13ifvqhjg","pricing_plan_id":"cebpf4jnsgd1na2vs0mg"},{"bike_id":"97797349-fd2a-4ce4-b723-14f3d465d041","system_id":"levelo_inurba_marseille","lat":43.27497,"lon":5.42447,"is_reserved":false,"is_disabled":false,"rental_uris":{"android":"levelo://app?vid=97797349-fd2a-4ce4-b723-14f3d465d041","ios":"levelo://app?vid=97797349-fd2a-4ce4-b723-14f3d465d041"},"vehicle_type_id":"4","last_reported":1728533456,"current_range_meters":38400,"station_id":"ce4bhn92rcd13ifvqgrg","pricing_plan_id":"cebpf4jnsgd1na2vs0mg"},{"bike_id":"39d4f329-5b71-4253-bb84-effb88455907","system_id":"levelo_inurba_marseille","lat":43.31761,"lon":5.3902,"is_reserved":false,"is_disabled":false,"rental_uris":{"android":"levelo://app?vid=39d4f329-5b71-4253-bb84-effb88455907","ios":"levelo://app?vid=39d4f329-5b71-4253-bb84-effb88455907"},"vehicle_type_id":"4","last_reported":1728533456,"current_range_meters":35200,"station_id":"ce4bhqp2rcd13ifvqhng","pricing_plan_id":"cebpf4jnsgd1na2vs0mg"},{"bike_id":"9801f54a-433d-4d93-84b8-0159e49a9906","system_id":"levelo_inurba_marseille","lat":43.28154,"lon":5.42644,"is_reserved":false,"is_disabled":false,"rental_uris":{"android":"levelo://app?vid=9801f54a-433d-4d93-84b8-0159e49a9906","ios":"levelo://app?vid=9801f54a-433d-4d93-84b8-0159e49a9906"},"vehicle_type_id":"4","last_reported":1728533456,"current_range_meters":38000,"station_id":"ce4bhnh2rcd13ifvqgug","pricing_plan_id":"cebpf4jnsgd1na2vs0mg"},{"bike_id":"d7b8abd4-9a33-4811-9456-42bf85af954b","system_id":"levelo_inurba_marseille","lat":43.29637,"lon":5.40608,"is_reserved":false,"is_disabled":false,"rental_uris":{"android":"levelo://app?vid=d7b8abd4-9a33-4811-9456-42bf85af954b","ios":"levelo://app?vid=d7b8abd4-9a33-4811-9456-42bf85af954b"},"vehicle_type_id":"4","last_reported":1728533456,"current_range_meters":16400,"station_id":"ce4bh0h2rcd13ifvqd60","pricing_plan_id":"cebpf4jnsgd1na2vs0mg"},{"bike_id":"5ce4f266-2d41-4c62-8cf0-fbd7838b0c5e","system_id":"levelo_inurba_marseille","lat":43.32367,"lon":5.38884,"is_reserved":false,"is_disabled":false,"rental_uris":{"android":"levelo://app?vid=5ce4f266-2d41-4c62-8cf0-fbd7838b0c5e","ios":"levelo://app?vid=5ce4f266-2d41-4c62-8cf0-fbd7838b0c5e"},"vehicle_type_id":"4","last_reported":1728533456,"current_range_meters":8800,"station_id":"ce4bhqp2rcd13ifvqhog","pricing_plan_id":"cebpf4jnsgd1na2vs0mg"},{"bike_id":"c074610f-c464-4769-949a-af210b724687","system_id":"levelo_inurba_marseille","lat":43.30889,"lon":5.39629,"is_reserved":false,"is_disabled":false,"rental_uris":{"android":"levelo://app?vid=c074610f-c464-4769-949a-af210b724687","ios":"levelo://app?vid=c074610f-c464-4769-949a-af210b724687"},"vehicle_type_id":"4","last_reported":1728533456,"current_range_meters":38800,"station_id":"ce4bh012rcd13ifvqcv0","pricing_plan_id":"cebpf4jnsgd1na2vs0mg"},{"bike_id":"dfab4b68-cc09-488f-8b3f-780a350ce72f","system_id":"levelo_inurba_marseille","lat":43.24649,"lon":5.38887,"is_reserved":false,"is_disabled":false,"rental_uris":{"android":"levelo://app?vid=dfab4b68-cc09-488f-8b3f-780a350ce72f","ios":"levelo://app?vid=dfab4b68-cc09-488f-8b3f-780a350ce72f"},"vehicle_type_id":"4","last_reported":1728533456,"current_range_meters":38000,"station_id":"ce4bhg12rcd13ifvqf60","pricing_plan_id":"cebpf4jnsgd1na2vs0mg"},{"bike_id":"e2f7895c-e719-404e-bf22-63fcb48ee5d9","system_id":"levelo_inurba_marseille","lat":43.31694,"lon":5.37736,"is_reserved":false,"is_disabled":false,"rental_uris":{"android":"levelo://app?vid=e2f7895c-e719-404e-bf22-63fcb48ee5d9","ios":"levelo://app?vid=e2f7895c-e719-404e-bf22-63fcb48ee5d9"},"vehicle_type_id":"4","last_reported":1728533456,"current_range_meters":38400,"station_id":"ce4bgth2rcd13ifvqch0","pricing_plan_id":"cebpf4jnsgd1na2vs0mg"},{"bike_id":"a7020689-6a03-4369-94bc-985aea9d7325","system_id":"levelo_inurba_marseille","lat":43.27838,"lon":5.39193,"is_reserved":false,"is_disabled":false,"rental_uris":{"android":"levelo://app?vid=a7020689-6a03-4369-94bc-985aea9d7325","ios":"levelo://app?vid=a7020689-6a03-4369-94bc-985aea9d7325"},"vehicle_type_id":"4","last_reported":1728533456,"current_range_meters":25200,"station_id":"ce4bhjp2rcd13ifvqga0","pricing_plan_id":"cebpf4jnsgd1na2vs0mg"},{"bike_id":"bd97a4b2-3105-4f23-8345-4c11d33e8d17","system_id":"levelo_inurba_marseille","lat":43.30324,"lon":5.40438,"is_reserved":false,"is_disabled":false,"rental_uris":{"android":"levelo://app?vid=bd97a4b2-3105-4f23-8345-4c11d33e8d17","ios":"levelo://app?vid=bd97a4b2-3105-4f23-8345-4c11d33e8d17"},"vehicle_type_id":"4","last_reported":1728533456,"current_range_meters":38800,"station_id":"ce4bh012rcd13ifvqd10","pricing_plan_id":"cebpf4jnsgd1na2vs0mg"},{"bike_id":"004018f1-fc31-474c-a903-43de065f04ca","system_id":"levelo_inurba_marseille","lat":43.23187,"lon":5.39983,"is_reserved":false,"is_disabled":false,"rental_uris":{"android":"levelo://app?vid=004018f1-fc31-474c-a903-43de065f04ca","ios":"levelo://app?vid=004018f1-fc31-474c-a903-43de065f04ca"},"vehicle_type_id":"4","last_reported":1728533456,"current_range_meters":38800,"station_id":"ce4bhn12rcd13ifvqgqg","pricing_plan_id":"cebpf4jnsgd1na2vs0mg"},{"bike_id":"2fe935ea-ac9b-4b69-a9e4-0305aee6de5f","system_id":"levelo_inurba_marseille","lat":43.315329,"lon":5.380235,"is_reserved":false,"is_disabled":false,"rental_uris":{"android":"levelo://app?vid=2fe935ea-ac9b-4b69-a9e4-0305aee6de5f","ios":"levelo://app?vid=2fe935ea-ac9b-4b69-a9e4-0305aee6de5f"},"vehicle_type_id":"4","last_reported":1728533456,"current_range_meters":39200,"station_id":"ce4bhsp2rcd13ifvqi50","pricing_plan_id":"cebpf4jnsgd1na2vs0mg"},{"bike_id":"bc65a028-d620-4d80-8664-b44cfbd027d0","system_id":"levelo_inurba_marseille","lat":43.28463,"lon":5.3589,"is_reserved":false,"is_disabled":false,"rental_uris":{"android":"levelo://app?vid=bc65a028-d620-4d80-8664-b44cfbd027d0","ios":"levelo://app?vid=bc65a028-d620-4d80-8664-b44cfbd027d0"},"vehicle_type_id":"4","last_reported":1728533456,"current_range_meters":38800,"station_id":"ce4bhah2rcd13ifvqei0","pricing_plan_id":"cebpf4jnsgd1na2vs0mg"},{"bike_id":"e872fc30-3c57-4a83-b46e-c9748d4c279a","system_id":"levelo_inurba_marseille","lat":43.337265,"lon":5.391903,"is_reserved":false,"is_disabled":false,"rental_uris":{"android":"levelo://app?vid=e872fc30-3c57-4a83-b46e-c9748d4c279a","ios":"levelo://app?vid=e872fc30-3c57-4a83-b46e-c9748d4c279a"},"vehicle_type_id":"4","last_reported":1728533456,"current_range_meters":27600,"station_id":"ce4bhr92rcd13ifvqhsg","pricing_plan_id":"cebpf4jnsgd1na2vs0mg"},{"bike_id":"c84a3271-ea0c-4a92-9829-c3e663f2819c","system_id":"levelo_inurba_marseille","lat":43.29266,"lon":5.40146,"is_reserved":false,"is_disabled":false,"rental_uris":{"android":"levelo://app?vid=c84a3271-ea0c-4a92-9829-c3e663f2819c","ios":"levelo://app?vid=c84a3271-ea0c-4a92-9829-c3e663f2819c"},"vehicle_type_id":"4","last_reported":1728533456,"current_range_meters":36800,"station_id":"ce4bh312rcd13ifvqdk0","pricing_plan_id":"cebpf4jnsgd1na2vs0mg"},{"bike_id":"af28d066-a466-4ed7-bf62-08efa15ec1ce","system_id":"levelo_inurba_marseille","lat":43.24183,"lon":5.3972,"is_reserved":false,"is_disabled":false,"rental_uris":{"android":"levelo://app?vid=af28d066-a466-4ed7-bf62-08efa15ec1ce","ios":"levelo://app?vid=af28d066-a466-4ed7-bf62-08efa15ec1ce"},"vehicle_type_id":"4","last_reported":1728533456,"current_range_meters":37600,"station_id":"ce4bhn12rcd13ifvqgpg","pricing_plan_id":"cebpf4jnsgd1na2vs0mg"},{"bike_id":"772777dc-9306-4e0c-89a0-e2c0b738e26f","system_id":"levelo_inurba_marseille","lat":43.279438,"lon":5.410471,"is_reserved":false,"is_disabled":false,"rental_uris":{"android":"levelo://app?vid=772777dc-9306-4e0c-89a0-e2c0b738e26f","ios":"levelo://app?vid=772777dc-9306-4e0c-89a0-e2c0b738e26f"},"vehicle_type_id":"4","last_reported":1728533456,"current_range_meters":24400,"station_id":"ce4bhnp2rcd13ifvqh0g","pricing_plan_id":"cebpf4jnsgd1na2vs0mg"},{"bike_id":"29451a93-70e1-4108-be72-38ad600790fa","system_id":"levelo_inurba_marseille","lat":43.28926,"lon":5.36638,"is_reserved":false,"is_disabled":false,"rental_uris":{"android":"levelo://app?vid=29451a93-70e1-4108-be72-38ad600790fa","ios":"levelo://app?vid=29451a93-70e1-4108-be72-38ad600790fa"},"vehicle_type_id":"4","last_reported":1728533456,"current_range_meters":38000,"station_id":"ce4bhap2rcd13ifvqek0","pricing_plan_id":"cebpf4jnsgd1na2vs0mg"},{"bike_id":"57409636-8be5-4a2d-b3a3-9427df081b80","system_id":"levelo_inurba_marseille","lat":43.304628,"lon":5.379028,"is_reserved":false,"is_disabled":false,"rental_uris":{"android":"levelo://app?vid=57409636-8be5-4a2d-b3a3-9427df081b80","ios":"levelo://app?vid=57409636-8be5-4a2d-b3a3-9427df081b80"},"vehicle_type_id":"4","last_reported":1728533456,"current_range_meters":38800,"station_id":"ce4bgup2rcd13ifvqcn0","pricing_plan_id":"cebpf4jnsgd1na2vs0mg"},{"bike_id":"7c830a7a-88a3-47c3-beae-d7986b2e3594","system_id":"levelo_inurba_marseille","lat":43.337576,"lon":5.374671,"is_reserved":false,"is_disabled":false,"rental_uris":{"android":"levelo://app?vid=7c830a7a-88a3-47c3-beae-d7986b2e3594","ios":"levelo://app?vid=7c830a7a-88a3-47c3-beae-d7986b2e3594"},"vehicle_type_id":"4","last_reported":1728533456,"current_range_meters":10800,"station_id":"ce4rr2p2rcd13i802rgg","pricing_plan_id":"cebpf4jnsgd1na2vs0mg"},{"bike_id":"1724a986-206e-44c4-acc6-99c3f365633c","system_id":"levelo_inurba_marseille","lat":43.23191,"lon":5.3555,"is_reserved":false,"is_disabled":false,"rental_uris":{"android":"levelo://app?vid=1724a986-206e-44c4-acc6-99c3f365633c","ios":"levelo://app?vid=1724a986-206e-44c4-acc6-99c3f365633c"},"vehicle_type_id":"4","last_reported":1728533456,"current_range_meters":20400,"station_id":"ce4bhu92rcd13ifvqi70","pricing_plan_id":"cebpf4jnsgd1na2vs0mg"},{"bike_id":"88eee82a-abca-43c7-aa4a-f3d18014ab0f","system_id":"levelo_inurba_marseille","lat":43.3032,"lon":5.40434,"is_reserved":false,"is_disabled":false,"rental_uris":{"android":"levelo://app?vid=88eee82a-abca-43c7-aa4a-f3d18014ab0f","ios":"levelo://app?vid=88eee82a-abca-43c7-aa4a-f3d18014ab0f"},"vehicle_type_id":"4","last_reported":1728533456,"current_range_meters":38800,"station_id":"ce4bh012rcd13ifvqd10","pricing_plan_id":"cebpf4jnsgd1na2vs0mg"},{"bike_id":"c9f14e7e-cd41-4306-8cc0-0536ea78d422","system_id":"levelo_inurba_marseille","lat":43.337444,"lon":5.374475,"is_reserved":false,"is_disabled":false,"rental_uris":{"android":"levelo://app?vid=c9f14e7e-cd41-4306-8cc0-0536ea78d422","ios":"levelo://app?vid=c9f14e7e-cd41-4306-8cc0-0536ea78d422"},"vehicle_type_id":"4","last_reported":1728533456,"current_range_meters":35600,"station_id":"ce4rr2p2rcd13i802rgg","pricing_plan_id":"cebpf4jnsgd1na2vs0mg"},{"bike_id":"ebe1c18b-35ba-4359-851e-dc299446653b","system_id":"levelo_inurba_marseille","lat":43.32052,"lon":5.41573,"is_reserved":false,"is_disabled":false,"rental_uris":{"android":"levelo://app?vid=ebe1c18b-35ba-4359-851e-dc299446653b","ios":"levelo://app?vid=ebe1c18b-35ba-4359-851e-dc299446653b"},"vehicle_type_id":"4","last_reported":1728533456,"current_range_meters":38000,"station_id":"ce4bhq92rcd13ifvqhkg","pricing_plan_id":"cebpf4jnsgd1na2vs0mg"},{"bike_id":"f6e19da0-af11-45f6-aaa3-bc2ce374ac55","system_id":"levelo_inurba_marseille","lat":43.23187,"lon":5.39985,"is_reserved":false,"is_disabled":false,"rental_uris":{"android":"levelo://app?vid=f6e19da0-af11-45f6-aaa3-bc2ce374ac55","ios":"levelo://app?vid=f6e19da0-af11-45f6-aaa3-bc2ce374ac55"},"vehicle_type_id":"4","last_reported":1728533456,"current_range_meters":38400,"station_id":"ce4bhn12rcd13ifvqgqg","pricing_plan_id":"cebpf4jnsgd1na2vs0mg"},{"bike_id":"3a2aebdd-8c62-45e4-9203-dbc4881bb206","system_id":"levelo_inurba_marseille","lat":43.30888,"lon":5.39636,"is_reserved":false,"is_disabled":false,"rental_uris":{"android":"levelo://app?vid=3a2aebdd-8c62-45e4-9203-dbc4881bb206","ios":"levelo://app?vid=3a2aebdd-8c62-45e4-9203-dbc4881bb206"},"vehicle_type_id":"4","last_reported":1728533456,"current_range_meters":39200,"station_id":"ce4bh012rcd13ifvqcv0","pricing_plan_id":"cebpf4jnsgd1na2vs0mg"},{"bike_id":"52633c97-92d0-4a38-b568-8e08b1794515","system_id":"levelo_inurba_marseille","lat":43.30881,"lon":5.39636,"is_reserved":false,"is_disabled":false,"rental_uris":{"android":"levelo://app?vid=52633c97-92d0-4a38-b568-8e08b1794515","ios":"levelo://app?vid=52633c97-92d0-4a38-b568-8e08b1794515"},"vehicle_type_id":"4","last_reported":1728533456,"current_range_meters":38800,"station_id":"ce4bh012rcd13ifvqcv0","pricing_plan_id":"cebpf4jnsgd1na2vs0mg"},{"bike_id":"19094843-dc6a-46ed-8afe-365ba070e376","system_id":"levelo_inurba_marseille","lat":43.25082,"lon":5.39516,"is_reserved":false,"is_disabled":false,"rental_uris":{"android":"levelo://app?vid=19094843-dc6a-46ed-8afe-365ba070e376","ios":"levelo://app?vid=19094843-dc6a-46ed-8afe-365ba070e376"},"vehicle_type_id":"4","last_reported":1728533456,"current_range_meters":38800,"station_id":"ce4bhm12rcd13ifvqgkg","pricing_plan_id":"cebpf4jnsgd1na2vs0mg"},{"bike_id":"8a5d52a3-10e5-453b-92c8-081cf8311038","system_id":"levelo_inurba_marseille","lat":43.306438,"lon":5.400733,"is_reserved":false,"is_disabled":false,"rental_uris":{"android":"levelo://app?vid=8a5d52a3-10e5-453b-92c8-081cf8311038","ios":"levelo://app?vid=8a5d52a3-10e5-453b-92c8-081cf8311038"},"vehicle_type_id":"4","last_reported":1728533456,"current_range_meters":10800,"station_id":"ce4bh112rcd13ifvqda0","pricing_plan_id":"cebpf4jnsgd1na2vs0mg"},{"bike_id":"272fe839-89a9-4bae-b8d5-c6547b135467","system_id":"levelo_inurba_marseille","lat":43.32486,"lon":5.36561,"is_reserved":false,"is_disabled":false,"rental_uris":{"android":"levelo://app?vid=272fe839-89a9-4bae-b8d5-c6547b135467","ios":"levelo://app?vid=272fe839-89a9-4bae-b8d5-c6547b135467"},"vehicle_type_id":"4","last_reported":1728533456,"current_range_meters":24000,"station_id":"ce4bhs12rcd13ifvqhvg","pricing_plan_id":"cebpf4jnsgd1na2vs0mg"},{"bike_id":"6505e803-6bb0-4402-b62e-80ef14962c87","system_id":"levelo_inurba_marseille","lat":43.2841,"lon":5.37514,"is_reserved":false,"is_disabled":false,"rental_uris":{"android":"levelo://app?vid=6505e803-6bb0-4402-b62e-80ef14962c87","ios":"levelo://app?vid=6505e803-6bb0-4402-b62e-80ef14962c87"},"vehicle_type_id":"4","last_reported":1728533456,"current_range_meters":35600,"station_id":"ce4bh412rcd13ifvqds0","pricing_plan_id":"cebpf4jnsgd1na2vs0mg"},{"bike_id":"47599fab-79da-461f-89fd-43d1d10b8a6d","system_id":"levelo_inurba_marseille","lat":43.23156,"lon":5.4371,"is_reserved":false,"is_disabled":false,"rental_uris":{"android":"levelo://app?vid=47599fab-79da-461f-89fd-43d1d10b8a6d","ios":"levelo://app?vid=47599fab-79da-461f-89fd-43d1d10b8a6d"},"vehicle_type_id":"4","last_reported":1728533456,"current_range_meters":37600,"station_id":"ce4bhmp2rcd13ifvqgog","pricing_plan_id":"cebpf4jnsgd1na2vs0mg"},{"bike_id":"c2709d8c-182c-4c66-9678-32143d413767","system_id":"levelo_inurba_marseille","lat":43.22936,"lon":5.35378,"is_reserved":false,"is_disabled":false,"rental_uris":{"android":"levelo://app?vid=c2709d8c-182c-4c66-9678-32143d413767","ios":"levelo://app?vid=c2709d8c-182c-4c66-9678-32143d413767"},"vehicle_type_id":"4","last_reported":1728533456,"current_range_meters":37600,"station_id":"cpo3532slgdg3j2ikp40","pricing_plan_id":"cebpf4jnsgd1na2vs0mg"},{"bike_id":"ad9e3573-b48d-49c4-a5e3-42ac6d731e8e","system_id":"levelo_inurba_marseille","lat":43.28433,"lon":5.3918,"is_reserved":false,"is_disabled":false,"rental_uris":{"android":"levelo://app?vid=ad9e3573-b48d-49c4-a5e3-42ac6d731e8e","ios":"levelo://app?vid=ad9e3573-b48d-49c4-a5e3-42ac6d731e8e"},"vehicle_type_id":"4","last_reported":1728533456,"current_range_meters":35200,"station_id":"ce4bhoh2rcd13ifvqh5g","pricing_plan_id":"cebpf4jnsgd1na2vs0mg"},{"bike_id":"86a9eac3-dfbb-4e0e-bca2-06dc18f585e2","system_id":"levelo_inurba_marseille","lat":43.32345,"lon":5.40612,"is_reserved":false,"is_disabled":false,"rental_uris":{"android":"levelo://app?vid=86a9eac3-dfbb-4e0e-bca2-06dc18f585e2","ios":"levelo://app?vid=86a9eac3-dfbb-4e0e-bca2-06dc18f585e2"},"vehicle_type_id":"4","last_reported":1728533456,"current_range_meters":6000,"station_id":"ce4bhq92rcd13ifvqhjg","pricing_plan_id":"cebpf4jnsgd1na2vs0mg"},{"bike_id":"f285af2e-ed6a-4a3f-8daf-44328b1d5efe","system_id":"levelo_inurba_marseille","lat":43.32347,"lon":5.40599,"is_reserved":false,"is_disabled":false,"rental_uris":{"android":"levelo://app?vid=f285af2e-ed6a-4a3f-8daf-44328b1d5efe","ios":"levelo://app?vid=f285af2e-ed6a-4a3f-8daf-44328b1d5efe"},"vehicle_type_id":"4","last_reported":1728533456,"current_range_meters":35600,"station_id":"ce4bhq92rcd13ifvqhjg","pricing_plan_id":"cebpf4jnsgd1na2vs0mg"},{"bike_id":"1dcaef22-2c4c-46cd-a47b-712f6c26cc51","system_id":"levelo_inurba_marseille","lat":43.27498,"lon":5.42449,"is_reserved":false,"is_disabled":false,"rental_uris":{"android":"levelo://app?vid=1dcaef22-2c4c-46cd-a47b-712f6c26cc51","ios":"levelo://app?vid=1dcaef22-2c4c-46cd-a47b-712f6c26cc51"},"vehicle_type_id":"4","last_reported":1728533456,"current_range_meters":38400,"station_id":"ce4bhn92rcd13ifvqgrg","pricing_plan_id":"cebpf4jnsgd1na2vs0mg"},{"bike_id":"529b5910-7b41-427f-87ed-a706f1fa3e2c","system_id":"levelo_inurba_marseille","lat":43.28698,"lon":5.37383,"is_reserved":false,"is_disabled":false,"rental_uris":{"android":"levelo://app?vid=529b5910-7b41-427f-87ed-a706f1fa3e2c","ios":"levelo://app?vid=529b5910-7b41-427f-87ed-a706f1fa3e2c"},"vehicle_type_id":"4","last_reported":1728533456,"current_range_meters":38800,"station_id":"ce4bh3p2rcd13ifvqdq0","pricing_plan_id":"cebpf4jnsgd1na2vs0mg"},{"bike_id":"4e6ec696-b340-4196-ba94-611e94b47c87","system_id":"levelo_inurba_marseille","lat":43.30323,"lon":5.40442,"is_reserved":false,"is_disabled":false,"rental_uris":{"android":"levelo://app?vid=4e6ec696-b340-4196-ba94-611e94b47c87","ios":"levelo://app?vid=4e6ec696-b340-4196-ba94-611e94b47c87"},"vehicle_type_id":"4","last_reported":1728533456,"current_range_meters":30400,"station_id":"ce4bh012rcd13ifvqd10","pricing_plan_id":"cebpf4jnsgd1na2vs0mg"},{"bike_id":"8f964f33-5198-4157-a344-1788fa3ca2d3","system_id":"levelo_inurba_marseille","lat":43.24665,"lon":5.38156,"is_reserved":false,"is_disabled":false,"rental_uris":{"android":"levelo://app?vid=8f964f33-5198-4157-a344-1788fa3ca2d3","ios":"levelo://app?vid=8f964f33-5198-4157-a344-1788fa3ca2d3"},"vehicle_type_id":"4","last_reported":1728533456,"current_range_meters":38000,"station_id":"ce4bhih2rcd13ifvqfr0","pricing_plan_id":"cebpf4jnsgd1na2vs0mg"},{"bike_id":"55e5a50b-4235-4e18-b3d8-7869fb1e7a57","system_id":"levelo_inurba_marseille","lat":43.30541,"lon":5.38423,"is_reserved":false,"is_disabled":false,"rental_uris":{"android":"levelo://app?vid=55e5a50b-4235-4e18-b3d8-7869fb1e7a57","ios":"levelo://app?vid=55e5a50b-4235-4e18-b3d8-7869fb1e7a57"},"vehicle_type_id":"4","last_reported":1728533456,"current_range_meters":38000,"station_id":"ce4bgg92rcd13ifvqb30","pricing_plan_id":"cebpf4jnsgd1na2vs0mg"},{"bike_id":"a555d13d-478e-4cd8-84e4-63f998af861f","system_id":"levelo_inurba_marseille","lat":43.286644,"lon":5.363564,"is_reserved":false,"is_disabled":false,"rental_uris":{"android":"levelo://app?vid=a555d13d-478e-4cd8-84e4-63f998af861f","ios":"levelo://app?vid=a555d13d-478e-4cd8-84e4-63f998af861f"},"vehicle_type_id":"4","last_reported":1728533456,"current_range_meters":39200,"station_id":"ce4bhah2rcd13ifvqej0","pricing_plan_id":"cebpf4jnsgd1na2vs0mg"},{"bike_id":"54e8a3c6-aa06-416b-9d73-ea31fa0ff0f0","system_id":"levelo_inurba_marseille","lat":43.26934,"lon":5.38922,"is_reserved":false,"is_disabled":false,"rental_uris":{"android":"levelo://app?vid=54e8a3c6-aa06-416b-9d73-ea31fa0ff0f0","ios":"levelo://app?vid=54e8a3c6-aa06-416b-9d73-ea31fa0ff0f0"},"vehicle_type_id":"4","last_reported":1728533456,"current_range_meters":24400,"station_id":"ce4bhhh2rcd13ifvqfl0","pricing_plan_id":"cebpf4jnsgd1na2vs0mg"},{"bike_id":"bb430de1-e695-4adb-a2fb-da8f6527bc2e","system_id":"levelo_inurba_marseille","lat":43.2619,"lon":5.37454,"is_reserved":false,"is_disabled":false,"rental_uris":{"android":"levelo://app?vid=bb430de1-e695-4adb-a2fb-da8f6527bc2e","ios":"levelo://app?vid=bb430de1-e695-4adb-a2fb-da8f6527bc2e"},"vehicle_type_id":"4","last_reported":1728533456,"current_range_meters":17600,"station_id":"ce4bhgp2rcd13ifvqfc0","pricing_plan_id":"cebpf4jnsgd1na2vs0mg"},{"bike_id":"007cfdb1-6075-41cd-99c6-15899c91c4e3","system_id":"levelo_inurba_marseille","lat":43.32111,"lon":5.36774,"is_reserved":false,"is_disabled":false,"rental_uris":{"android":"levelo://app?vid=007cfdb1-6075-41cd-99c6-15899c91c4e3","ios":"levelo://app?vid=007cfdb1-6075-41cd-99c6-15899c91c4e3"},"vehicle_type_id":"4","last_reported":1728533456,"current_range_meters":37600,"station_id":"ce4bhrh2rcd13ifvqhug","pricing_plan_id":"cebpf4jnsgd1na2vs0mg"},{"bike_id":"4646b4c1-0fb1-476e-98a0-88e96705431b","system_id":"levelo_inurba_marseille","lat":43.31327,"lon":5.39691,"is_reserved":false,"is_disabled":false,"rental_uris":{"android":"levelo://app?vid=4646b4c1-0fb1-476e-98a0-88e96705431b","ios":"levelo://app?vid=4646b4c1-0fb1-476e-98a0-88e96705431b"},"vehicle_type_id":"4","last_reported":1728533456,"current_range_meters":38800,"station_id":"ce4bgvp2rcd13ifvqcu0","pricing_plan_id":"cebpf4jnsgd1na2vs0mg"},{"bike_id":"2dff9241-e894-4a69-a505-eb9b79750a16","system_id":"levelo_inurba_marseille","lat":43.28945,"lon":5.39637,"is_reserved":false,"is_disabled":false,"rental_uris":{"android":"levelo://app?vid=2dff9241-e894-4a69-a505-eb9b79750a16","ios":"levelo://app?vid=2dff9241-e894-4a69-a505-eb9b79750a16"},"vehicle_type_id":"4","last_reported":1728533456,"current_range_meters":38000,"station_id":"ce4bh3h2rcd13ifvqdn0","pricing_plan_id":"cebpf4jnsgd1na2vs0mg"},{"bike_id":"25a7d42e-d84e-474f-a67f-52ed84c44678","system_id":"levelo_inurba_marseille","lat":43.3128,"lon":5.40168,"is_reserved":false,"is_disabled":false,"rental_uris":{"android":"levelo://app?vid=25a7d42e-d84e-474f-a67f-52ed84c44678","ios":"levelo://app?vid=25a7d42e-d84e-474f-a67f-52ed84c44678"},"vehicle_type_id":"4","last_reported":1728533456,"current_range_meters":38800,"station_id":"ce4bh092rcd13ifvqd30","pricing_plan_id":"cebpf4jnsgd1na2vs0mg"},{"bike_id":"f92a9fb8-9f73-4cf9-bc9b-2bdf5b520248","system_id":"levelo_inurba_marseille","lat":43.325402,"lon":5.41449,"is_reserved":false,"is_disabled":false,"rental_uris":{"android":"levelo://app?vid=f92a9fb8-9f73-4cf9-bc9b-2bdf5b520248","ios":"levelo://app?vid=f92a9fb8-9f73-4cf9-bc9b-2bdf5b520248"},"vehicle_type_id":"4","last_reported":1728533456,"current_range_meters":39200,"station_id":"ce4bhq12rcd13ifvqhhg","pricing_plan_id":"cebpf4jnsgd1na2vs0mg"},{"bike_id":"c5b8423b-f750-4ed2-97ab-a6f4d7a533c4","system_id":"levelo_inurba_marseille","lat":43.28572,"lon":5.39497,"is_reserved":false,"is_disabled":false,"rental_uris":{"android":"levelo://app?vid=c5b8423b-f750-4ed2-97ab-a6f4d7a533c4","ios":"levelo://app?vid=c5b8423b-f750-4ed2-97ab-a6f4d7a533c4"},"vehicle_type_id":"4","last_reported":1728533456,"current_range_meters":17600,"station_id":"ce4bh292rcd13ifvqdg0","pricing_plan_id":"cebpf4jnsgd1na2vs0mg"},{"bike_id":"a1ec6c5e-26e0-49a4-9777-4450b9c3f799","system_id":"levelo_inurba_marseille","lat":43.29033,"lon":5.37562,"is_reserved":false,"is_disabled":false,"rental_uris":{"android":"levelo://app?vid=a1ec6c5e-26e0-49a4-9777-4450b9c3f799","ios":"levelo://app?vid=a1ec6c5e-26e0-49a4-9777-4450b9c3f799"},"vehicle_type_id":"4","last_reported":1728533456,"current_range_meters":37600,"station_id":"ce4bh692rcd13ifvqe90","pricing_plan_id":"cebpf4jnsgd1na2vs0mg"},{"bike_id":"d2a1c955-ade1-43ae-9d9a-c903fb854bd9","system_id":"levelo_inurba_marseille","lat":43.27951,"lon":5.41054,"is_reserved":false,"is_disabled":false,"rental_uris":{"android":"levelo://app?vid=d2a1c955-ade1-43ae-9d9a-c903fb854bd9","ios":"levelo://app?vid=d2a1c955-ade1-43ae-9d9a-c903fb854bd9"},"vehicle_type_id":"4","last_reported":1728533456,"current_range_meters":4400,"station_id":"ce4bhnp2rcd13ifvqh0g","pricing_plan_id":"cebpf4jnsgd1na2vs0mg"},{"bike_id":"33e6976b-98d5-4beb-b578-474f5624aeaa","system_id":"levelo_inurba_marseille","lat":43.23968,"lon":5.36632,"is_reserved":false,"is_disabled":false,"rental_uris":{"android":"levelo://app?vid=33e6976b-98d5-4beb-b578-474f5624aeaa","ios":"levelo://app?vid=33e6976b-98d5-4beb-b578-474f5624aeaa"},"vehicle_type_id":"4","last_reported":1728533456,"current_range_meters":39200,"station_id":"ce4bhi12rcd13ifvqfp0","pricing_plan_id":"cebpf4jnsgd1na2vs0mg"},{"bike_id":"b68b6a69-d47a-4a50-bb4f-4b0ef40129d9","system_id":"levelo_inurba_marseille","lat":43.25942,"lon":5.40899,"is_reserved":false,"is_disabled":false,"rental_uris":{"android":"levelo://app?vid=b68b6a69-d47a-4a50-bb4f-4b0ef40129d9","ios":"levelo://app?vid=b68b6a69-d47a-4a50-bb4f-4b0ef40129d9"},"vehicle_type_id":"4","last_reported":1728533456,"current_range_meters":38400,"station_id":"ce4bhm92rcd13ifvqglg","pricing_plan_id":"cebpf4jnsgd1na2vs0mg"},{"bike_id":"dc33de13-ff11-4331-8f2b-a3992c42a92d","system_id":"levelo_inurba_marseille","lat":43.29577,"lon":5.36743,"is_reserved":false,"is_disabled":false,"rental_uris":{"android":"levelo://app?vid=dc33de13-ff11-4331-8f2b-a3992c42a92d","ios":"levelo://app?vid=dc33de13-ff11-4331-8f2b-a3992c42a92d"},"vehicle_type_id":"4","last_reported":1728533456,"current_range_meters":30800,"station_id":"ce4bgph2rcd13ifvqc2g","pricing_plan_id":"cebpf4jnsgd1na2vs0mg"},{"bike_id":"3f5fd304-aaad-4132-bafe-0bb1764e6a73","system_id":"levelo_inurba_marseille","lat":43.27961,"lon":5.41045,"is_reserved":false,"is_disabled":false,"rental_uris":{"android":"levelo://app?vid=3f5fd304-aaad-4132-bafe-0bb1764e6a73","ios":"levelo://app?vid=3f5fd304-aaad-4132-bafe-0bb1764e6a73"},"vehicle_type_id":"4","last_reported":1728533456,"current_range_meters":24400,"station_id":"ce4bhnp2rcd13ifvqh0g","pricing_plan_id":"cebpf4jnsgd1na2vs0mg"},{"bike_id":"7c24fe02-f2b8-4e4c-9d99-9b350762dca2","system_id":"levelo_inurba_marseille","lat":43.24071,"lon":5.37749,"is_reserved":false,"is_disabled":false,"rental_uris":{"android":"levelo://app?vid=7c24fe02-f2b8-4e4c-9d99-9b350762dca2","ios":"levelo://app?vid=7c24fe02-f2b8-4e4c-9d99-9b350762dca2"},"vehicle_type_id":"4","last_reported":1728533456,"current_range_meters":24800,"station_id":"ce4bhnp2rcd13ifvqgvg","pricing_plan_id":"cebpf4jnsgd1na2vs0mg"},{"bike_id":"50aa4af7-94b4-48c9-959d-eeec3eaec001","system_id":"levelo_inurba_marseille","lat":43.23196,"lon":5.35545,"is_reserved":false,"is_disabled":false,"rental_uris":{"android":"levelo://app?vid=50aa4af7-94b4-48c9-959d-eeec3eaec001","ios":"levelo://app?vid=50aa4af7-94b4-48c9-959d-eeec3eaec001"},"vehicle_type_id":"4","last_reported":1728533456,"current_range_meters":8800,"station_id":"ce4bhu92rcd13ifvqi70","pricing_plan_id":"cebpf4jnsgd1na2vs0mg"},{"bike_id":"2fc520c6-ec15-4e61-8b1b-87c16b01b31c","system_id":"levelo_inurba_marseille","lat":43.25088,"lon":5.39509,"is_reserved":false,"is_disabled":false,"rental_uris":{"android":"levelo://app?vid=2fc520c6-ec15-4e61-8b1b-87c16b01b31c","ios":"levelo://app?vid=2fc520c6-ec15-4e61-8b1b-87c16b01b31c"},"vehicle_type_id":"4","last_reported":1728533456,"current_range_meters":20000,"station_id":"ce4bhm12rcd13ifvqgkg","pricing_plan_id":"cebpf4jnsgd1na2vs0mg"},{"bike_id":"8d81993c-3cb0-4181-a034-be0139704d79","system_id":"levelo_inurba_marseille","lat":43.2894,"lon":5.36629,"is_reserved":false,"is_disabled":false,"rental_uris":{"android":"levelo://app?vid=8d81993c-3cb0-4181-a034-be0139704d79","ios":"levelo://app?vid=8d81993c-3cb0-4181-a034-be0139704d79"},"vehicle_type_id":"4","last_reported":1728533456,"current_range_meters":38400,"station_id":"ce4bhap2rcd13ifvqek0","pricing_plan_id":"cebpf4jnsgd1na2vs0mg"},{"bike_id":"ca356b29-ff94-4441-a9e1-4395d5b28767","system_id":"levelo_inurba_marseille","lat":43.2669,"lon":5.38283,"is_reserved":false,"is_disabled":false,"rental_uris":{"android":"levelo://app?vid=ca356b29-ff94-4441-a9e1-4395d5b28767","ios":"levelo://app?vid=ca356b29-ff94-4441-a9e1-4395d5b28767"},"vehicle_type_id":"4","last_reported":1728533456,"current_range_meters":28400,"station_id":"ce4bhg92rcd13ifvqf90","pricing_plan_id":"cebpf4jnsgd1na2vs0mg"},{"bike_id":"7c391a4a-0f07-4127-9193-ebd114642d44","system_id":"levelo_inurba_marseille","lat":43.23966,"lon":5.3662,"is_reserved":false,"is_disabled":false,"rental_uris":{"android":"levelo://app?vid=7c391a4a-0f07-4127-9193-ebd114642d44","ios":"levelo://app?vid=7c391a4a-0f07-4127-9193-ebd114642d44"},"vehicle_type_id":"4","last_reported":1728533456,"current_range_meters":4000,"station_id":"ce4bhi12rcd13ifvqfp0","pricing_plan_id":"cebpf4jnsgd1na2vs0mg"},{"bike_id":"f82b5ebd-092f-455f-add8-ff8489ecf022","system_id":"levelo_inurba_marseille","lat":43.23185,"lon":5.39985,"is_reserved":false,"is_disabled":false,"rental_uris":{"android":"levelo://app?vid=f82b5ebd-092f-455f-add8-ff8489ecf022","ios":"levelo://app?vid=f82b5ebd-092f-455f-add8-ff8489ecf022"},"vehicle_type_id":"4","last_reported":1728533456,"current_range_meters":38400,"station_id":"ce4bhn12rcd13ifvqgqg","pricing_plan_id":"cebpf4jnsgd1na2vs0mg"},{"bike_id":"7e4cee4c-145e-4242-a1e1-0a33e4d1e07c","system_id":"levelo_inurba_marseille","lat":43.29034,"lon":5.39983,"is_reserved":false,"is_disabled":false,"rental_uris":{"android":"levelo://app?vid=7e4cee4c-145e-4242-a1e1-0a33e4d1e07c","ios":"levelo://app?vid=7e4cee4c-145e-4242-a1e1-0a33e4d1e07c"},"vehicle_type_id":"4","last_reported":1728533456,"current_range_meters":36800,"station_id":"ce4bh392rcd13ifvqdm0","pricing_plan_id":"cebpf4jnsgd1na2vs0mg"},{"bike_id":"2906d124-fce6-4bf4-93c8-b56600fa01ca","system_id":"levelo_inurba_marseille","lat":43.27058,"lon":5.40258,"is_reserved":false,"is_disabled":false,"rental_uris":{"android":"levelo://app?vid=2906d124-fce6-4bf4-93c8-b56600fa01ca","ios":"levelo://app?vid=2906d124-fce6-4bf4-93c8-b56600fa01ca"},"vehicle_type_id":"4","last_reported":1728533456,"current_range_meters":8000,"station_id":"ce4bhk92rcd13ifvqgc0","pricing_plan_id":"cebpf4jnsgd1na2vs0mg"},{"bike_id":"0dd8b709-aa00-43b3-b3c2-57354fabd0ef","system_id":"levelo_inurba_marseille","lat":43.305772,"lon":5.376156,"is_reserved":false,"is_disabled":false,"rental_uris":{"android":"levelo://app?vid=0dd8b709-aa00-43b3-b3c2-57354fabd0ef","ios":"levelo://app?vid=0dd8b709-aa00-43b3-b3c2-57354fabd0ef"},"vehicle_type_id":"4","last_reported":1728533456,"current_range_meters":35600,"station_id":"","pricing_plan_id":"cebpf4jnsgd1na2vs0mg"},{"bike_id":"681983d2-d7b4-433f-ba3d-f27101ded291","system_id":"levelo_inurba_marseille","lat":43.28353,"lon":5.38635,"is_reserved":false,"is_disabled":false,"rental_uris":{"android":"levelo://app?vid=681983d2-d7b4-433f-ba3d-f27101ded291","ios":"levelo://app?vid=681983d2-d7b4-433f-ba3d-f27101ded291"},"vehicle_type_id":"4","last_reported":1728533456,"current_range_meters":16000,"station_id":"ce4bh492rcd13ifvqdvg","pricing_plan_id":"cebpf4jnsgd1na2vs0mg"},{"bike_id":"633a08b0-657d-42cf-a282-a768a8f0e4a5","system_id":"levelo_inurba_marseille","lat":43.29279,"lon":5.40128,"is_reserved":false,"is_disabled":false,"rental_uris":{"android":"levelo://app?vid=633a08b0-657d-42cf-a282-a768a8f0e4a5","ios":"levelo://app?vid=633a08b0-657d-42cf-a282-a768a8f0e4a5"},"vehicle_type_id":"4","last_reported":1728533456,"current_range_meters":39200,"station_id":"ce4bh312rcd13ifvqdk0","pricing_plan_id":"cebpf4jnsgd1na2vs0mg"},{"bike_id":"36b9e64a-ec83-475a-aaf3-72ab98e97806","system_id":"levelo_inurba_marseille","lat":43.28972,"lon":5.3783,"is_reserved":false,"is_disabled":false,"rental_uris":{"android":"levelo://app?vid=36b9e64a-ec83-475a-aaf3-72ab98e97806","ios":"levelo://app?vid=36b9e64a-ec83-475a-aaf3-72ab98e97806"},"vehicle_type_id":"4","last_reported":1728533456,"current_range_meters":38000,"station_id":"ce4bh9p2rcd13ifvqed0","pricing_plan_id":"cebpf4jnsgd1na2vs0mg"},{"bike_id":"fad4a205-3a5c-4cf6-85a0-6fd0102c4c9c","system_id":"levelo_inurba_marseille","lat":43.29195,"lon":5.39323,"is_reserved":false,"is_disabled":false,"rental_uris":{"android":"levelo://app?vid=fad4a205-3a5c-4cf6-85a0-6fd0102c4c9c","ios":"levelo://app?vid=fad4a205-3a5c-4cf6-85a0-6fd0102c4c9c"},"vehicle_type_id":"4","last_reported":1728533456,"current_range_meters":26800,"station_id":"ce4bh192rcd13ifvqdd0","pricing_plan_id":"cebpf4jnsgd1na2vs0mg"},{"bike_id":"401e0a7c-99ab-49e9-96ae-3cf23a18ac9e","system_id":"levelo_inurba_marseille","lat":43.31529,"lon":5.38023,"is_reserved":false,"is_disabled":false,"rental_uris":{"android":"levelo://app?vid=401e0a7c-99ab-49e9-96ae-3cf23a18ac9e","ios":"levelo://app?vid=401e0a7c-99ab-49e9-96ae-3cf23a18ac9e"},"vehicle_type_id":"4","last_reported":1728533456,"current_range_meters":14800,"station_id":"ce4bhsp2rcd13ifvqi50","pricing_plan_id":"cebpf4jnsgd1na2vs0mg"},{"bike_id":"c9249d66-b59f-4600-854f-e65a10f03367","system_id":"levelo_inurba_marseille","lat":43.27179,"lon":5.40994,"is_reserved":false,"is_disabled":false,"rental_uris":{"android":"levelo://app?vid=c9249d66-b59f-4600-854f-e65a10f03367","ios":"levelo://app?vid=c9249d66-b59f-4600-854f-e65a10f03367"},"vehicle_type_id":"4","last_reported":1728533456,"current_range_meters":30800,"station_id":"ce4bhl12rcd13ifvqgf0","pricing_plan_id":"cebpf4jnsgd1na2vs0mg"},{"bike_id":"1bf85bd2-af54-4516-a610-fa044799b701","system_id":"levelo_inurba_marseille","lat":43.29254,"lon":5.40906,"is_reserved":false,"is_disabled":false,"rental_uris":{"android":"levelo://app?vid=1bf85bd2-af54-4516-a610-fa044799b701","ios":"levelo://app?vid=1bf85bd2-af54-4516-a610-fa044799b701"},"vehicle_type_id":"4","last_reported":1728533456,"current_range_meters":26800,"station_id":"ce4bh192rcd13ifvqdc0","pricing_plan_id":"cebpf4jnsgd1na2vs0mg"},{"bike_id":"7e72b45d-46d9-4487-8d2a-d5565a4ea21f","system_id":"levelo_inurba_marseille","lat":43.32332,"lon":5.40625,"is_reserved":false,"is_disabled":false,"rental_uris":{"android":"levelo://app?vid=7e72b45d-46d9-4487-8d2a-d5565a4ea21f","ios":"levelo://app?vid=7e72b45d-46d9-4487-8d2a-d5565a4ea21f"},"vehicle_type_id":"4","last_reported":1728533456,"current_range_meters":8400,"station_id":"ce4bhq92rcd13ifvqhjg","pricing_plan_id":"cebpf4jnsgd1na2vs0mg"},{"bike_id":"6fa5a432-6bc7-4115-8fce-0c2c85d90f43","system_id":"levelo_inurba_marseille","lat":43.25871,"lon":5.39906,"is_reserved":false,"is_disabled":false,"rental_uris":{"android":"levelo://app?vid=6fa5a432-6bc7-4115-8fce-0c2c85d90f43","ios":"levelo://app?vid=6fa5a432-6bc7-4115-8fce-0c2c85d90f43"},"vehicle_type_id":"4","last_reported":1728533456,"current_range_meters":7200,"station_id":"ce4bhl92rcd13ifvqghg","pricing_plan_id":"cebpf4jnsgd1na2vs0mg"},{"bike_id":"b9c8c65f-9620-44bb-b7ab-a8a11fe77ef7","system_id":"levelo_inurba_marseille","lat":43.30874,"lon":5.39636,"is_reserved":false,"is_disabled":false,"rental_uris":{"android":"levelo://app?vid=b9c8c65f-9620-44bb-b7ab-a8a11fe77ef7","ios":"levelo://app?vid=b9c8c65f-9620-44bb-b7ab-a8a11fe77ef7"},"vehicle_type_id":"4","last_reported":1728533456,"current_range_meters":38800,"station_id":"ce4bh012rcd13ifvqcv0","pricing_plan_id":"cebpf4jnsgd1na2vs0mg"},{"bike_id":"5a7137cd-20ce-47d5-ad6b-64cdfafc0d32","system_id":"levelo_inurba_marseille","lat":43.27821,"lon":5.35478,"is_reserved":false,"is_disabled":false,"rental_uris":{"android":"levelo://app?vid=5a7137cd-20ce-47d5-ad6b-64cdfafc0d32","ios":"levelo://app?vid=5a7137cd-20ce-47d5-ad6b-64cdfafc0d32"},"vehicle_type_id":"4","last_reported":1728533456,"current_range_meters":26000,"station_id":"","pricing_plan_id":"cebpf4jnsgd1na2vs0mg"},{"bike_id":"fcac3627-ecd3-42aa-9bd7-b9a4ba17bc35","system_id":"levelo_inurba_marseille","lat":43.30935,"lon":5.40144,"is_reserved":false,"is_disabled":false,"rental_uris":{"android":"levelo://app?vid=fcac3627-ecd3-42aa-9bd7-b9a4ba17bc35","ios":"levelo://app?vid=fcac3627-ecd3-42aa-9bd7-b9a4ba17bc35"},"vehicle_type_id":"4","last_reported":1728533456,"current_range_meters":6000,"station_id":"ce4bgvp2rcd13ifvqct0","pricing_plan_id":"cebpf4jnsgd1na2vs0mg"},{"bike_id":"8e50a9cb-c2b0-44af-be79-5371de821cc1","system_id":"levelo_inurba_marseille","lat":43.29418,"lon":5.38622,"is_reserved":false,"is_disabled":false,"rental_uris":{"android":"levelo://app?vid=8e50a9cb-c2b0-44af-be79-5371de821cc1","ios":"levelo://app?vid=8e50a9cb-c2b0-44af-be79-5371de821cc1"},"vehicle_type_id":"4","last_reported":1728533456,"current_range_meters":35200,"station_id":"ce4bh2h2rcd13ifvqdh0","pricing_plan_id":"cebpf4jnsgd1na2vs0mg"},{"bike_id":"81587ada-cc61-4386-b0c2-234cfb97acad","system_id":"levelo_inurba_marseille","lat":43.29552,"lon":5.42282,"is_reserved":false,"is_disabled":false,"rental_uris":{"android":"levelo://app?vid=81587ada-cc61-4386-b0c2-234cfb97acad","ios":"levelo://app?vid=81587ada-cc61-4386-b0c2-234cfb97acad"},"vehicle_type_id":"4","last_reported":1728533456,"current_range_meters":38000,"station_id":"ce4bhph2rcd13ifvqhdg","pricing_plan_id":"cebpf4jnsgd1na2vs0mg"},{"bike_id":"26598773-8eeb-4d5a-b8b3-3f5460620682","system_id":"levelo_inurba_marseille","lat":43.22935,"lon":5.35375,"is_reserved":false,"is_disabled":false,"rental_uris":{"android":"levelo://app?vid=26598773-8eeb-4d5a-b8b3-3f5460620682","ios":"levelo://app?vid=26598773-8eeb-4d5a-b8b3-3f5460620682"},"vehicle_type_id":"4","last_reported":1728533456,"current_range_meters":38000,"station_id":"cpo3532slgdg3j2ikp40","pricing_plan_id":"cebpf4jnsgd1na2vs0mg"},{"bike_id":"a22b04d3-9083-47af-bb7b-280e95b56aaf","system_id":"levelo_inurba_marseille","lat":43.26569,"lon":5.39015,"is_reserved":false,"is_disabled":false,"rental_uris":{"android":"levelo://app?vid=a22b04d3-9083-47af-bb7b-280e95b56aaf","ios":"levelo://app?vid=a22b04d3-9083-47af-bb7b-280e95b56aaf"},"vehicle_type_id":"4","last_reported":1728533456,"current_range_meters":25600,"station_id":"ce4bhe12rcd13ifvqf30","pricing_plan_id":"cebpf4jnsgd1na2vs0mg"},{"bike_id":"ff68b789-7173-415f-860f-fb58c1b9d01d","system_id":"levelo_inurba_marseille","lat":43.22928,"lon":5.35376,"is_reserved":false,"is_disabled":false,"rental_uris":{"android":"levelo://app?vid=ff68b789-7173-415f-860f-fb58c1b9d01d","ios":"levelo://app?vid=ff68b789-7173-415f-860f-fb58c1b9d01d"},"vehicle_type_id":"4","last_reported":1728533456,"current_range_meters":37600,"station_id":"cpo3532slgdg3j2ikp40","pricing_plan_id":"cebpf4jnsgd1na2vs0mg"},{"bike_id":"3e4ea3e0-2b7c-4d93-9488-ecb4cb3d05cf","system_id":"levelo_inurba_marseille","lat":43.31998,"lon":5.3815,"is_reserved":false,"is_disabled":false,"rental_uris":{"android":"levelo://app?vid=3e4ea3e0-2b7c-4d93-9488-ecb4cb3d05cf","ios":"levelo://app?vid=3e4ea3e0-2b7c-4d93-9488-ecb4cb3d05cf"},"vehicle_type_id":"4","last_reported":1728533456,"current_range_meters":18800,"station_id":"ce4bhr12rcd13ifvqhpg","pricing_plan_id":"cebpf4jnsgd1na2vs0mg"},{"bike_id":"d2099684-4516-4bb2-b52f-daf658ee4a98","system_id":"levelo_inurba_marseille","lat":43.27182,"lon":5.40989,"is_reserved":false,"is_disabled":false,"rental_uris":{"android":"levelo://app?vid=d2099684-4516-4bb2-b52f-daf658ee4a98","ios":"levelo://app?vid=d2099684-4516-4bb2-b52f-daf658ee4a98"},"vehicle_type_id":"4","last_reported":1728533456,"current_range_meters":38800,"station_id":"ce4bhl12rcd13ifvqgf0","pricing_plan_id":"cebpf4jnsgd1na2vs0mg"},{"bike_id":"86a78c2a-79e3-4f25-99d0-9a42b0acad1f","system_id":"levelo_inurba_marseille","lat":43.31895,"lon":5.40739,"is_reserved":false,"is_disabled":false,"rental_uris":{"android":"levelo://app?vid=86a78c2a-79e3-4f25-99d0-9a42b0acad1f","ios":"levelo://app?vid=86a78c2a-79e3-4f25-99d0-9a42b0acad1f"},"vehicle_type_id":"4","last_reported":1728533456,"current_range_meters":38800,"station_id":"ce4bhq12rcd13ifvqhig","pricing_plan_id":"cebpf4jnsgd1na2vs0mg"},{"bike_id":"0e98676c-587f-43bc-910b-99569055e7c1","system_id":"levelo_inurba_marseille","lat":43.24081,"lon":5.37749,"is_reserved":false,"is_disabled":false,"rental_uris":{"android":"levelo://app?vid=0e98676c-587f-43bc-910b-99569055e7c1","ios":"levelo://app?vid=0e98676c-587f-43bc-910b-99569055e7c1"},"vehicle_type_id":"4","last_reported":1728533456,"current_range_meters":24800,"station_id":"ce4bhnp2rcd13ifvqgvg","pricing_plan_id":"cebpf4jnsgd1na2vs0mg"},{"bike_id":"2da59c69-e690-4d12-ac57-3d95665b7ace","system_id":"levelo_inurba_marseille","lat":43.29569,"lon":5.39963,"is_reserved":false,"is_disabled":false,"rental_uris":{"android":"levelo://app?vid=2da59c69-e690-4d12-ac57-3d95665b7ace","ios":"levelo://app?vid=2da59c69-e690-4d12-ac57-3d95665b7ace"},"vehicle_type_id":"4","last_reported":1728533456,"current_range_meters":37600,"station_id":"ce4bh312rcd13ifvqdj0","pricing_plan_id":"cebpf4jnsgd1na2vs0mg"},{"bike_id":"6c232912-0074-46f8-8e91-73c172e6f989","system_id":"levelo_inurba_marseille","lat":43.31072,"lon":5.38341,"is_reserved":false,"is_disabled":false,"rental_uris":{"android":"levelo://app?vid=6c232912-0074-46f8-8e91-73c172e6f989","ios":"levelo://app?vid=6c232912-0074-46f8-8e91-73c172e6f989"},"vehicle_type_id":"4","last_reported":1728533456,"current_range_meters":17600,"station_id":"ce4bgv92rcd13ifvqcr0","pricing_plan_id":"cebpf4jnsgd1na2vs0mg"},{"bike_id":"d2b647ab-adcb-4090-aded-93d2f166f6a4","system_id":"levelo_inurba_marseille","lat":43.30463,"lon":5.37902,"is_reserved":false,"is_disabled":false,"rental_uris":{"android":"levelo://app?vid=d2b647ab-adcb-4090-aded-93d2f166f6a4","ios":"levelo://app?vid=d2b647ab-adcb-4090-aded-93d2f166f6a4"},"vehicle_type_id":"4","last_reported":1728533456,"current_range_meters":35600,"station_id":"ce4bgup2rcd13ifvqcn0","pricing_plan_id":"cebpf4jnsgd1na2vs0mg"},{"bike_id":"445bdc40-3468-42da-ae17-f88d3f48eb3a","system_id":"levelo_inurba_marseille","lat":43.29566,"lon":5.39977,"is_reserved":false,"is_disabled":false,"rental_uris":{"android":"levelo://app?vid=445bdc40-3468-42da-ae17-f88d3f48eb3a","ios":"levelo://app?vid=445bdc40-3468-42da-ae17-f88d3f48eb3a"},"vehicle_type_id":"4","last_reported":1728533456,"current_range_meters":38800,"station_id":"ce4bh312rcd13ifvqdj0","pricing_plan_id":"cebpf4jnsgd1na2vs0mg"},{"bike_id":"fc34a4c2-5dda-43dc-8c76-0302a62a6427","system_id":"levelo_inurba_marseille","lat":43.23194,"lon":5.35547,"is_reserved":false,"is_disabled":false,"rental_uris":{"android":"levelo://app?vid=fc34a4c2-5dda-43dc-8c76-0302a62a6427","ios":"levelo://app?vid=fc34a4c2-5dda-43dc-8c76-0302a62a6427"},"vehicle_type_id":"4","last_reported":1728533456,"current_range_meters":37600,"station_id":"ce4bhu92rcd13ifvqi70","pricing_plan_id":"cebpf4jnsgd1na2vs0mg"},{"bike_id":"467d5180-30d4-44eb-a7dd-e9f486851af1","system_id":"levelo_inurba_marseille","lat":43.31486,"lon":5.37301,"is_reserved":false,"is_disabled":false,"rental_uris":{"android":"levelo://app?vid=467d5180-30d4-44eb-a7dd-e9f486851af1","ios":"levelo://app?vid=467d5180-30d4-44eb-a7dd-e9f486851af1"},"vehicle_type_id":"4","last_reported":1728533456,"current_range_meters":3600,"station_id":"ce4bgt12rcd13ifvqcd0","pricing_plan_id":"cebpf4jnsgd1na2vs0mg"},{"bike_id":"f638a2e9-2fdb-4d96-b51c-191d8cbf29c0","system_id":"levelo_inurba_marseille","lat":43.28668,"lon":5.36355,"is_reserved":false,"is_disabled":false,"rental_uris":{"android":"levelo://app?vid=f638a2e9-2fdb-4d96-b51c-191d8cbf29c0","ios":"levelo://app?vid=f638a2e9-2fdb-4d96-b51c-191d8cbf29c0"},"vehicle_type_id":"4","last_reported":1728533456,"current_range_meters":39200,"station_id":"ce4bhah2rcd13ifvqej0","pricing_plan_id":"cebpf4jnsgd1na2vs0mg"},{"bike_id":"c65d4d4b-d6c2-4e86-a7ee-b72e0eccf888","system_id":"levelo_inurba_marseille","lat":43.28455,"lon":5.35889,"is_reserved":false,"is_disabled":false,"rental_uris":{"android":"levelo://app?vid=c65d4d4b-d6c2-4e86-a7ee-b72e0eccf888","ios":"levelo://app?vid=c65d4d4b-d6c2-4e86-a7ee-b72e0eccf888"},"vehicle_type_id":"4","last_reported":1728533456,"current_range_meters":35600,"station_id":"ce4bhah2rcd13ifvqei0","pricing_plan_id":"cebpf4jnsgd1na2vs0mg"},{"bike_id":"51096a7b-93a4-41a2-b48f-2f6cdccdf293","system_id":"levelo_inurba_marseille","lat":43.287,"lon":5.3739,"is_reserved":false,"is_disabled":false,"rental_uris":{"android":"levelo://app?vid=51096a7b-93a4-41a2-b48f-2f6cdccdf293","ios":"levelo://app?vid=51096a7b-93a4-41a2-b48f-2f6cdccdf293"},"vehicle_type_id":"4","last_reported":1728533456,"current_range_meters":38000,"station_id":"ce4bh3p2rcd13ifvqdq0","pricing_plan_id":"cebpf4jnsgd1na2vs0mg"},{"bike_id":"3135e933-c45c-46b3-b953-aafc75177ba3","system_id":"levelo_inurba_marseille","lat":43.283634,"lon":5.386346,"is_reserved":false,"is_disabled":false,"rental_uris":{"android":"levelo://app?vid=3135e933-c45c-46b3-b953-aafc75177ba3","ios":"levelo://app?vid=3135e933-c45c-46b3-b953-aafc75177ba3"},"vehicle_type_id":"4","last_reported":1728533456,"current_range_meters":38800,"station_id":"ce4bh492rcd13ifvqdvg","pricing_plan_id":"cebpf4jnsgd1na2vs0mg"},{"bike_id":"b76583ee-e22c-4ff1-9e54-acaf2126aa4c","system_id":"levelo_inurba_marseille","lat":43.29566,"lon":5.39981,"is_reserved":false,"is_disabled":false,"rental_uris":{"android":"levelo://app?vid=b76583ee-e22c-4ff1-9e54-acaf2126aa4c","ios":"levelo://app?vid=b76583ee-e22c-4ff1-9e54-acaf2126aa4c"},"vehicle_type_id":"4","last_reported":1728533456,"current_range_meters":38800,"station_id":"ce4bh312rcd13ifvqdj0","pricing_plan_id":"cebpf4jnsgd1na2vs0mg"},{"bike_id":"f4dddf09-e4d4-4ce8-b2e3-46717250c965","system_id":"levelo_inurba_marseille","lat":43.24814,"lon":5.37458,"is_reserved":false,"is_disabled":false,"rental_uris":{"android":"levelo://app?vid=f4dddf09-e4d4-4ce8-b2e3-46717250c965","ios":"levelo://app?vid=f4dddf09-e4d4-4ce8-b2e3-46717250c965"},"vehicle_type_id":"4","last_reported":1728533456,"current_range_meters":27200,"station_id":"ce4bhgh2rcd13ifvqfb0","pricing_plan_id":"cebpf4jnsgd1na2vs0mg"},{"bike_id":"c770c873-6ba7-4f44-ae36-497fe604d1ad","system_id":"levelo_inurba_marseille","lat":43.32657,"lon":5.40994,"is_reserved":false,"is_disabled":false,"rental_uris":{"android":"levelo://app?vid=c770c873-6ba7-4f44-ae36-497fe604d1ad","ios":"levelo://app?vid=c770c873-6ba7-4f44-ae36-497fe604d1ad"},"vehicle_type_id":"4","last_reported":1728533456,"current_range_meters":39200,"station_id":"ce4bhpp2rcd13ifvqhgg","pricing_plan_id":"cebpf4jnsgd1na2vs0mg"},{"bike_id":"9a7dd910-5e36-4d15-8440-3f3e60a95e71","system_id":"levelo_inurba_marseille","lat":43.31754,"lon":5.39021,"is_reserved":false,"is_disabled":false,"rental_uris":{"android":"levelo://app?vid=9a7dd910-5e36-4d15-8440-3f3e60a95e71","ios":"levelo://app?vid=9a7dd910-5e36-4d15-8440-3f3e60a95e71"},"vehicle_type_id":"4","last_reported":1728533456,"current_range_meters":25200,"station_id":"ce4bhqp2rcd13ifvqhng","pricing_plan_id":"cebpf4jnsgd1na2vs0mg"},{"bike_id":"4e4e7083-89bd-4f48-a4f6-01f4a7d2fcc0","system_id":"levelo_inurba_marseille","lat":43.3415,"lon":5.40901,"is_reserved":false,"is_disabled":false,"rental_uris":{"android":"levelo://app?vid=4e4e7083-89bd-4f48-a4f6-01f4a7d2fcc0","ios":"levelo://app?vid=4e4e7083-89bd-4f48-a4f6-01f4a7d2fcc0"},"vehicle_type_id":"4","last_reported":1728533456,"current_range_meters":38000,"station_id":"ce4bhqh2rcd13ifvqhlg","pricing_plan_id":"cebpf4jnsgd1na2vs0mg"},{"bike_id":"7b164aa9-6272-4b29-ae32-eed2ae56a19e","system_id":"levelo_inurba_marseille","lat":43.33731,"lon":5.39189,"is_reserved":false,"is_disabled":false,"rental_uris":{"android":"levelo://app?vid=7b164aa9-6272-4b29-ae32-eed2ae56a19e","ios":"levelo://app?vid=7b164aa9-6272-4b29-ae32-eed2ae56a19e"},"vehicle_type_id":"4","last_reported":1728533456,"current_range_meters":38800,"station_id":"ce4bhr92rcd13ifvqhsg","pricing_plan_id":"cebpf4jnsgd1na2vs0mg"},{"bike_id":"bbbffbc2-dea4-4175-a8d1-2c3f0b4d0b3c","system_id":"levelo_inurba_marseille","lat":43.28662,"lon":5.36354,"is_reserved":false,"is_disabled":false,"rental_uris":{"android":"levelo://app?vid=bbbffbc2-dea4-4175-a8d1-2c3f0b4d0b3c","ios":"levelo://app?vid=bbbffbc2-dea4-4175-a8d1-2c3f0b4d0b3c"},"vehicle_type_id":"4","last_reported":1728533456,"current_range_meters":32400,"station_id":"ce4bhah2rcd13ifvqej0","pricing_plan_id":"cebpf4jnsgd1na2vs0mg"},{"bike_id":"e86d01e2-2710-427d-82b6-ffb883d95617","system_id":"levelo_inurba_marseille","lat":43.24069,"lon":5.3776,"is_reserved":false,"is_disabled":false,"rental_uris":{"android":"levelo://app?vid=e86d01e2-2710-427d-82b6-ffb883d95617","ios":"levelo://app?vid=e86d01e2-2710-427d-82b6-ffb883d95617"},"vehicle_type_id":"4","last_reported":1728533456,"current_range_meters":25600,"station_id":"ce4bhnp2rcd13ifvqgvg","pricing_plan_id":"cebpf4jnsgd1na2vs0mg"},{"bike_id":"aba21992-9be5-4e85-9a23-8ac00fbeef1e","system_id":"levelo_inurba_marseille","lat":43.27949,"lon":5.41041,"is_reserved":false,"is_disabled":false,"rental_uris":{"android":"levelo://app?vid=aba21992-9be5-4e85-9a23-8ac00fbeef1e","ios":"levelo://app?vid=aba21992-9be5-4e85-9a23-8ac00fbeef1e"},"vehicle_type_id":"4","last_reported":1728533456,"current_range_meters":38400,"station_id":"ce4bhnp2rcd13ifvqh0g","pricing_plan_id":"cebpf4jnsgd1na2vs0mg"},{"bike_id":"0a12dbac-529d-4713-a580-c3651fb8ca8d","system_id":"levelo_inurba_marseille","lat":43.28108,"lon":5.37841,"is_reserved":false,"is_disabled":false,"rental_uris":{"android":"levelo://app?vid=0a12dbac-529d-4713-a580-c3651fb8ca8d","ios":"levelo://app?vid=0a12dbac-529d-4713-a580-c3651fb8ca8d"},"vehicle_type_id":"4","last_reported":1728533456,"current_range_meters":38400,"station_id":"ce4bha12rcd13ifvqee0","pricing_plan_id":"cebpf4jnsgd1na2vs0mg"},{"bike_id":"f337377d-d829-48fa-822f-e5b8d178bae1","system_id":"levelo_inurba_marseille","lat":43.296752,"lon":5.405227,"is_reserved":false,"is_disabled":false,"rental_uris":{"android":"levelo://app?vid=f337377d-d829-48fa-822f-e5b8d178bae1","ios":"levelo://app?vid=f337377d-d829-48fa-822f-e5b8d178bae1"},"vehicle_type_id":"4","last_reported":1728533456,"current_range_meters":38000,"station_id":"ce4bh0h2rcd13ifvqd60","pricing_plan_id":"cebpf4jnsgd1na2vs0mg"},{"bike_id":"02893b5b-0a93-438a-9734-9eff91df5c62","system_id":"levelo_inurba_marseille","lat":43.24391,"lon":5.37062,"is_reserved":false,"is_disabled":false,"rental_uris":{"android":"levelo://app?vid=02893b5b-0a93-438a-9734-9eff91df5c62","ios":"levelo://app?vid=02893b5b-0a93-438a-9734-9eff91df5c62"},"vehicle_type_id":"4","last_reported":1728533456,"current_range_meters":30000,"station_id":"ce4bhhh2rcd13ifvqfk0","pricing_plan_id":"cebpf4jnsgd1na2vs0mg"},{"bike_id":"f90ca49f-87e5-4ffa-83bf-89fbe4726d17","system_id":"levelo_inurba_marseille","lat":43.232,"lon":5.35551,"is_reserved":false,"is_disabled":false,"rental_uris":{"android":"levelo://app?vid=f90ca49f-87e5-4ffa-83bf-89fbe4726d17","ios":"levelo://app?vid=f90ca49f-87e5-4ffa-83bf-89fbe4726d17"},"vehicle_type_id":"4","last_reported":1728533456,"current_range_meters":36800,"station_id":"ce4bhu92rcd13ifvqi70","pricing_plan_id":"cebpf4jnsgd1na2vs0mg"},{"bike_id":"c07d714c-ed3e-495c-8eb6-6deca5af4153","system_id":"levelo_inurba_marseille","lat":43.301298,"lon":5.398765,"is_reserved":false,"is_disabled":false,"rental_uris":{"android":"levelo://app?vid=c07d714c-ed3e-495c-8eb6-6deca5af4153","ios":"levelo://app?vid=c07d714c-ed3e-495c-8eb6-6deca5af4153"},"vehicle_type_id":"4","last_reported":1728533456,"current_range_meters":38800,"station_id":"ce4bh0h2rcd13ifvqd40","pricing_plan_id":"cebpf4jnsgd1na2vs0mg"},{"bike_id":"bb1dae05-205e-4b0e-9657-5eb390036404","system_id":"levelo_inurba_marseille","lat":43.29801,"lon":5.38088,"is_reserved":false,"is_disabled":false,"rental_uris":{"android":"levelo://app?vid=bb1dae05-205e-4b0e-9657-5eb390036404","ios":"levelo://app?vid=bb1dae05-205e-4b0e-9657-5eb390036404"},"vehicle_type_id":"4","last_reported":1728533456,"current_range_meters":34800,"station_id":"ce4bgip2rcd13ifvqbb0","pricing_plan_id":"cebpf4jnsgd1na2vs0mg"},{"bike_id":"c32a5c3f-7c97-4a41-85c6-c43cccd05faf","system_id":"levelo_inurba_marseille","lat":43.29559,"lon":5.42288,"is_reserved":false,"is_disabled":false,"rental_uris":{"android":"levelo://app?vid=c32a5c3f-7c97-4a41-85c6-c43cccd05faf","ios":"levelo://app?vid=c32a5c3f-7c97-4a41-85c6-c43cccd05faf"},"vehicle_type_id":"4","last_reported":1728533456,"current_range_meters":27600,"station_id":"ce4bhph2rcd13ifvqhdg","pricing_plan_id":"cebpf4jnsgd1na2vs0mg"},{"bike_id":"bf3090f4-5ac4-43fe-b54e-526d80622855","system_id":"levelo_inurba_marseille","lat":43.28262,"lon":5.35074,"is_reserved":false,"is_disabled":false,"rental_uris":{"android":"levelo://app?vid=bf3090f4-5ac4-43fe-b54e-526d80622855","ios":"levelo://app?vid=bf3090f4-5ac4-43fe-b54e-526d80622855"},"vehicle_type_id":"4","last_reported":1728533456,"current_range_meters":38800,"station_id":"ce4bhbp2rcd13ifvqerg","pricing_plan_id":"cebpf4jnsgd1na2vs0mg"},{"bike_id":"e2f429a2-23d5-4c72-9918-04d6accafe78","system_id":"levelo_inurba_marseille","lat":43.31712,"lon":5.43702,"is_reserved":false,"is_disabled":false,"rental_uris":{"android":"levelo://app?vid=e2f429a2-23d5-4c72-9918-04d6accafe78","ios":"levelo://app?vid=e2f429a2-23d5-4c72-9918-04d6accafe78"},"vehicle_type_id":"4","last_reported":1728533456,"current_range_meters":24400,"station_id":"ce4bhp92rcd13ifvqhcg","pricing_plan_id":"cebpf4jnsgd1na2vs0mg"},{"bike_id":"629eb630-acdb-4130-8129-135bfcb63f78","system_id":"levelo_inurba_marseille","lat":43.27182,"lon":5.40991,"is_reserved":false,"is_disabled":false,"rental_uris":{"android":"levelo://app?vid=629eb630-acdb-4130-8129-135bfcb63f78","ios":"levelo://app?vid=629eb630-acdb-4130-8129-135bfcb63f78"},"vehicle_type_id":"4","last_reported":1728533456,"current_range_meters":28800,"station_id":"ce4bhl12rcd13ifvqgf0","pricing_plan_id":"cebpf4jnsgd1na2vs0mg"},{"bike_id":"93bf4b6c-c85c-4211-9a2d-029cabc9f0de","system_id":"levelo_inurba_marseille","lat":43.27839,"lon":5.39208,"is_reserved":false,"is_disabled":false,"rental_uris":{"android":"levelo://app?vid=93bf4b6c-c85c-4211-9a2d-029cabc9f0de","ios":"levelo://app?vid=93bf4b6c-c85c-4211-9a2d-029cabc9f0de"},"vehicle_type_id":"4","last_reported":1728533456,"current_range_meters":38800,"station_id":"ce4bhjp2rcd13ifvqga0","pricing_plan_id":"cebpf4jnsgd1na2vs0mg"},{"bike_id":"b5f67d69-9502-43a6-9988-c217de3cb7b8","system_id":"levelo_inurba_marseille","lat":43.28709,"lon":5.39981,"is_reserved":false,"is_disabled":false,"rental_uris":{"android":"levelo://app?vid=b5f67d69-9502-43a6-9988-c217de3cb7b8","ios":"levelo://app?vid=b5f67d69-9502-43a6-9988-c217de3cb7b8"},"vehicle_type_id":"4","last_reported":1728533456,"current_range_meters":8000,"station_id":"ce4bho92rcd13ifvqh3g","pricing_plan_id":"cebpf4jnsgd1na2vs0mg"},{"bike_id":"e7b9ba38-2753-4777-8520-520852335cc4","system_id":"levelo_inurba_marseille","lat":43.27995,"lon":5.40012,"is_reserved":false,"is_disabled":false,"rental_uris":{"android":"levelo://app?vid=e7b9ba38-2753-4777-8520-520852335cc4","ios":"levelo://app?vid=e7b9ba38-2753-4777-8520-520852335cc4"},"vehicle_type_id":"4","last_reported":1728533456,"current_range_meters":24000,"station_id":"ce4bho92rcd13ifvqh4g","pricing_plan_id":"cebpf4jnsgd1na2vs0mg"},{"bike_id":"201011c3-a419-4e02-be15-5a6633c4e847","system_id":"levelo_inurba_marseille","lat":43.23185,"lon":5.39988,"is_reserved":false,"is_disabled":false,"rental_uris":{"android":"levelo://app?vid=201011c3-a419-4e02-be15-5a6633c4e847","ios":"levelo://app?vid=201011c3-a419-4e02-be15-5a6633c4e847"},"vehicle_type_id":"4","last_reported":1728533456,"current_range_meters":38400,"station_id":"ce4bhn12rcd13ifvqgqg","pricing_plan_id":"cebpf4jnsgd1na2vs0mg"},{"bike_id":"2c0bb08a-c5ed-4a8c-ab65-30c073874050","system_id":"levelo_inurba_marseille","lat":43.3127,"lon":5.40164,"is_reserved":false,"is_disabled":false,"rental_uris":{"android":"levelo://app?vid=2c0bb08a-c5ed-4a8c-ab65-30c073874050","ios":"levelo://app?vid=2c0bb08a-c5ed-4a8c-ab65-30c073874050"},"vehicle_type_id":"4","last_reported":1728533456,"current_range_meters":37600,"station_id":"ce4bh092rcd13ifvqd30","pricing_plan_id":"cebpf4jnsgd1na2vs0mg"},{"bike_id":"41d60f6f-44ac-4bb5-8366-58d588176c19","system_id":"levelo_inurba_marseille","lat":43.2606,"lon":5.3939,"is_reserved":false,"is_disabled":false,"rental_uris":{"android":"levelo://app?vid=41d60f6f-44ac-4bb5-8366-58d588176c19","ios":"levelo://app?vid=41d60f6f-44ac-4bb5-8366-58d588176c19"},"vehicle_type_id":"4","last_reported":1728533456,"current_range_meters":37600,"station_id":"ce4bhh92rcd13ifvqfj0","pricing_plan_id":"cebpf4jnsgd1na2vs0mg"},{"bike_id":"a4b6b5c8-3988-45c7-bcb6-e501d64cd496","system_id":"levelo_inurba_marseille","lat":43.23186,"lon":5.39987,"is_reserved":false,"is_disabled":false,"rental_uris":{"android":"levelo://app?vid=a4b6b5c8-3988-45c7-bcb6-e501d64cd496","ios":"levelo://app?vid=a4b6b5c8-3988-45c7-bcb6-e501d64cd496"},"vehicle_type_id":"4","last_reported":1728533456,"current_range_meters":22800,"station_id":"ce4bhn12rcd13ifvqgqg","pricing_plan_id":"cebpf4jnsgd1na2vs0mg"},{"bike_id":"f22cc9bd-066d-4fae-bcba-f966e5bd56ad","system_id":"levelo_inurba_marseille","lat":43.33022,"lon":5.39039,"is_reserved":false,"is_disabled":false,"rental_uris":{"android":"levelo://app?vid=f22cc9bd-066d-4fae-bcba-f966e5bd56ad","ios":"levelo://app?vid=f22cc9bd-066d-4fae-bcba-f966e5bd56ad"},"vehicle_type_id":"4","last_reported":1728533456,"current_range_meters":38800,"station_id":"ce4bhr92rcd13ifvqhrg","pricing_plan_id":"cebpf4jnsgd1na2vs0mg"},{"bike_id":"c84a2142-ecc3-4f09-94f3-3f031acbef1e","system_id":"levelo_inurba_marseille","lat":43.25112,"lon":5.40318,"is_reserved":false,"is_disabled":false,"rental_uris":{"android":"levelo://app?vid=c84a2142-ecc3-4f09-94f3-3f031acbef1e","ios":"levelo://app?vid=c84a2142-ecc3-4f09-94f3-3f031acbef1e"},"vehicle_type_id":"4","last_reported":1728533456,"current_range_meters":38800,"station_id":"ce4bhlh2rcd13ifvqgig","pricing_plan_id":"cebpf4jnsgd1na2vs0mg"},{"bike_id":"bc97c058-a7cb-4a14-9bc6-45eb2bdd8f2e","system_id":"levelo_inurba_marseille","lat":43.30937,"lon":5.40149,"is_reserved":false,"is_disabled":false,"rental_uris":{"android":"levelo://app?vid=bc97c058-a7cb-4a14-9bc6-45eb2bdd8f2e","ios":"levelo://app?vid=bc97c058-a7cb-4a14-9bc6-45eb2bdd8f2e"},"vehicle_type_id":"4","last_reported":1728533456,"current_range_meters":38800,"station_id":"ce4bgvp2rcd13ifvqct0","pricing_plan_id":"cebpf4jnsgd1na2vs0mg"},{"bike_id":"69ea1ed4-76bf-46f8-a205-3f1da2b96c16","system_id":"levelo_inurba_marseille","lat":43.3118,"lon":5.38704,"is_reserved":false,"is_disabled":false,"rental_uris":{"android":"levelo://app?vid=69ea1ed4-76bf-46f8-a205-3f1da2b96c16","ios":"levelo://app?vid=69ea1ed4-76bf-46f8-a205-3f1da2b96c16"},"vehicle_type_id":"4","last_reported":1728533456,"current_range_meters":19600,"station_id":"ce4bgv12rcd13ifvqcp0","pricing_plan_id":"cebpf4jnsgd1na2vs0mg"},{"bike_id":"0ddc3848-7971-48a6-aa58-aa98ca2a5997","system_id":"levelo_inurba_marseille","lat":43.33025,"lon":5.39033,"is_reserved":false,"is_disabled":false,"rental_uris":{"android":"levelo://app?vid=0ddc3848-7971-48a6-aa58-aa98ca2a5997","ios":"levelo://app?vid=0ddc3848-7971-48a6-aa58-aa98ca2a5997"},"vehicle_type_id":"4","last_reported":1728533456,"current_range_meters":38800,"station_id":"ce4bhr92rcd13ifvqhrg","pricing_plan_id":"cebpf4jnsgd1na2vs0mg"},{"bike_id":"b2aa89c3-a092-4778-bd6a-6f19b8cb1c61","system_id":"levelo_inurba_marseille","lat":43.28455,"lon":5.35891,"is_reserved":false,"is_disabled":false,"rental_uris":{"android":"levelo://app?vid=b2aa89c3-a092-4778-bd6a-6f19b8cb1c61","ios":"levelo://app?vid=b2aa89c3-a092-4778-bd6a-6f19b8cb1c61"},"vehicle_type_id":"4","last_reported":1728533456,"current_range_meters":16000,"station_id":"ce4bhah2rcd13ifvqei0","pricing_plan_id":"cebpf4jnsgd1na2vs0mg"},{"bike_id":"6621e1af-9ca0-463c-a3ad-f651030b0dd3","system_id":"levelo_inurba_marseille","lat":43.23193,"lon":5.35549,"is_reserved":false,"is_disabled":false,"rental_uris":{"android":"levelo://app?vid=6621e1af-9ca0-463c-a3ad-f651030b0dd3","ios":"levelo://app?vid=6621e1af-9ca0-463c-a3ad-f651030b0dd3"},"vehicle_type_id":"4","last_reported":1728533456,"current_range_meters":38000,"station_id":"ce4bhu92rcd13ifvqi70","pricing_plan_id":"cebpf4jnsgd1na2vs0mg"},{"bike_id":"b6362109-22fa-415a-a834-73e18be522ae","system_id":"levelo_inurba_marseille","lat":43.3302,"lon":5.39033,"is_reserved":false,"is_disabled":false,"rental_uris":{"android":"levelo://app?vid=b6362109-22fa-415a-a834-73e18be522ae","ios":"levelo://app?vid=b6362109-22fa-415a-a834-73e18be522ae"},"vehicle_type_id":"4","last_reported":1728533456,"current_range_meters":28000,"station_id":"ce4bhr92rcd13ifvqhrg","pricing_plan_id":"cebpf4jnsgd1na2vs0mg"},{"bike_id":"5ee0311b-1250-4a64-af45-50ad58d7a959","system_id":"levelo_inurba_marseille","lat":43.30779,"lon":5.37655,"is_reserved":false,"is_disabled":false,"rental_uris":{"android":"levelo://app?vid=5ee0311b-1250-4a64-af45-50ad58d7a959","ios":"levelo://app?vid=5ee0311b-1250-4a64-af45-50ad58d7a959"},"vehicle_type_id":"4","last_reported":1728533456,"current_range_meters":39200,"station_id":"ce4bgv92rcd13ifvqcq0","pricing_plan_id":"cebpf4jnsgd1na2vs0mg"},{"bike_id":"cd583110-0157-4fe5-a9b6-1058c0af3354","system_id":"levelo_inurba_marseille","lat":43.28573,"lon":5.39496,"is_reserved":false,"is_disabled":false,"rental_uris":{"android":"levelo://app?vid=cd583110-0157-4fe5-a9b6-1058c0af3354","ios":"levelo://app?vid=cd583110-0157-4fe5-a9b6-1058c0af3354"},"vehicle_type_id":"4","last_reported":1728533456,"current_range_meters":36400,"station_id":"ce4bh292rcd13ifvqdg0","pricing_plan_id":"cebpf4jnsgd1na2vs0mg"},{"bike_id":"c1211156-964e-411c-9eeb-20363555a45a","system_id":"levelo_inurba_marseille","lat":43.28033,"lon":5.36944,"is_reserved":false,"is_disabled":false,"rental_uris":{"android":"levelo://app?vid=c1211156-964e-411c-9eeb-20363555a45a","ios":"levelo://app?vid=c1211156-964e-411c-9eeb-20363555a45a"},"vehicle_type_id":"4","last_reported":1728533456,"current_range_meters":24800,"station_id":"ce4bha12rcd13ifvqef0","pricing_plan_id":"cebpf4jnsgd1na2vs0mg"},{"bike_id":"ee8e341b-0f15-4ef3-994e-4215d9cbd244","system_id":"levelo_inurba_marseille","lat":43.28798,"lon":5.37673,"is_reserved":false,"is_disabled":false,"rental_uris":{"android":"levelo://app?vid=ee8e341b-0f15-4ef3-994e-4215d9cbd244","ios":"levelo://app?vid=ee8e341b-0f15-4ef3-994e-4215d9cbd244"},"vehicle_type_id":"4","last_reported":1728533456,"current_range_meters":35600,"station_id":"","pricing_plan_id":"cebpf4jnsgd1na2vs0mg"},{"bike_id":"8139cd4c-7ea1-4cf9-a092-041210a58c0c","system_id":"levelo_inurba_marseille","lat":43.3169,"lon":5.4047,"is_reserved":false,"is_disabled":false,"rental_uris":{"android":"levelo://app?vid=8139cd4c-7ea1-4cf9-a092-041210a58c0c","ios":"levelo://app?vid=8139cd4c-7ea1-4cf9-a092-041210a58c0c"},"vehicle_type_id":"4","last_reported":1728533456,"current_range_meters":38000,"station_id":"ce4bh012rcd13ifvqd00","pricing_plan_id":"cebpf4jnsgd1na2vs0mg"},{"bike_id":"dfdfe195-0450-4741-8c28-3734835bcc55","system_id":"levelo_inurba_marseille","lat":43.30883,"lon":5.39633,"is_reserved":false,"is_disabled":false,"rental_uris":{"android":"levelo://app?vid=dfdfe195-0450-4741-8c28-3734835bcc55","ios":"levelo://app?vid=dfdfe195-0450-4741-8c28-3734835bcc55"},"vehicle_type_id":"4","last_reported":1728533456,"current_range_meters":38400,"station_id":"ce4bh012rcd13ifvqcv0","pricing_plan_id":"cebpf4jnsgd1na2vs0mg"},{"bike_id":"c9680bc4-209a-4a67-80c1-92dfb98c278d","system_id":"levelo_inurba_marseille","lat":43.32063,"lon":5.41555,"is_reserved":false,"is_disabled":false,"rental_uris":{"android":"levelo://app?vid=c9680bc4-209a-4a67-80c1-92dfb98c278d","ios":"levelo://app?vid=c9680bc4-209a-4a67-80c1-92dfb98c278d"},"vehicle_type_id":"4","last_reported":1728533456,"current_range_meters":9200,"station_id":"ce4bhq92rcd13ifvqhkg","pricing_plan_id":"cebpf4jnsgd1na2vs0mg"},{"bike_id":"9cc54e1b-f7e5-4e94-bc38-5c0e83d33d60","system_id":"levelo_inurba_marseille","lat":43.31492,"lon":5.37304,"is_reserved":false,"is_disabled":false,"rental_uris":{"android":"levelo://app?vid=9cc54e1b-f7e5-4e94-bc38-5c0e83d33d60","ios":"levelo://app?vid=9cc54e1b-f7e5-4e94-bc38-5c0e83d33d60"},"vehicle_type_id":"4","last_reported":1728533456,"current_range_meters":39200,"station_id":"ce4bgt12rcd13ifvqcd0","pricing_plan_id":"cebpf4jnsgd1na2vs0mg"},{"bike_id":"75baa028-5d96-40a6-965a-85be70b90a7a","system_id":"levelo_inurba_marseille","lat":43.315306,"lon":5.380268,"is_reserved":false,"is_disabled":false,"rental_uris":{"android":"levelo://app?vid=75baa028-5d96-40a6-965a-85be70b90a7a","ios":"levelo://app?vid=75baa028-5d96-40a6-965a-85be70b90a7a"},"vehicle_type_id":"4","last_reported":1728533456,"current_range_meters":39200,"station_id":"ce4bhsp2rcd13ifvqi50","pricing_plan_id":"cebpf4jnsgd1na2vs0mg"},{"bike_id":"3a8fe9b5-64ae-447d-869c-3973deb6eecc","system_id":"levelo_inurba_marseille","lat":43.30419,"lon":5.41291,"is_reserved":false,"is_disabled":false,"rental_uris":{"android":"levelo://app?vid=3a8fe9b5-64ae-447d-869c-3973deb6eecc","ios":"levelo://app?vid=3a8fe9b5-64ae-447d-869c-3973deb6eecc"},"vehicle_type_id":"4","last_reported":1728533456,"current_range_meters":37600,"station_id":"ce4bhop2rcd13ifvqh8g","pricing_plan_id":"cebpf4jnsgd1na2vs0mg"},{"bike_id":"113d1681-140a-4a85-ac3c-0cbe8cfec6c1","system_id":"levelo_inurba_marseille","lat":43.28465,"lon":5.35891,"is_reserved":false,"is_disabled":false,"rental_uris":{"android":"levelo://app?vid=113d1681-140a-4a85-ac3c-0cbe8cfec6c1","ios":"levelo://app?vid=113d1681-140a-4a85-ac3c-0cbe8cfec6c1"},"vehicle_type_id":"4","last_reported":1728533456,"current_range_meters":38800,"station_id":"ce4bhah2rcd13ifvqei0","pricing_plan_id":"cebpf4jnsgd1na2vs0mg"},{"bike_id":"2865cb00-d56a-4b7a-a56b-14fa5530a76e","system_id":"levelo_inurba_marseille","lat":43.23965,"lon":5.36628,"is_reserved":false,"is_disabled":false,"rental_uris":{"android":"levelo://app?vid=2865cb00-d56a-4b7a-a56b-14fa5530a76e","ios":"levelo://app?vid=2865cb00-d56a-4b7a-a56b-14fa5530a76e"},"vehicle_type_id":"4","last_reported":1728533456,"current_range_meters":34000,"station_id":"ce4bhi12rcd13ifvqfp0","pricing_plan_id":"cebpf4jnsgd1na2vs0mg"},{"bike_id":"67f3c0cb-8131-43d6-9668-a7b8a3a342ee","system_id":"levelo_inurba_marseille","lat":43.28575,"lon":5.39502,"is_reserved":false,"is_disabled":false,"rental_uris":{"android":"levelo://app?vid=67f3c0cb-8131-43d6-9668-a7b8a3a342ee","ios":"levelo://app?vid=67f3c0cb-8131-43d6-9668-a7b8a3a342ee"},"vehicle_type_id":"4","last_reported":1728533456,"current_range_meters":24400,"station_id":"ce4bh292rcd13ifvqdg0","pricing_plan_id":"cebpf4jnsgd1na2vs0mg"},{"bike_id":"e34c376a-c301-44f2-9d8b-5523ff64b832","system_id":"levelo_inurba_marseille","lat":43.31268,"lon":5.40161,"is_reserved":false,"is_disabled":false,"rental_uris":{"android":"levelo://app?vid=e34c376a-c301-44f2-9d8b-5523ff64b832","ios":"levelo://app?vid=e34c376a-c301-44f2-9d8b-5523ff64b832"},"vehicle_type_id":"4","last_reported":1728533456,"current_range_meters":37600,"station_id":"ce4bh092rcd13ifvqd30","pricing_plan_id":"cebpf4jnsgd1na2vs0mg"},{"bike_id":"56c823bc-fb70-4229-ae8e-295c7b1001e2","system_id":"levelo_inurba_marseille","lat":43.30886,"lon":5.396419,"is_reserved":false,"is_disabled":false,"rental_uris":{"android":"levelo://app?vid=56c823bc-fb70-4229-ae8e-295c7b1001e2","ios":"levelo://app?vid=56c823bc-fb70-4229-ae8e-295c7b1001e2"},"vehicle_type_id":"4","last_reported":1728533456,"current_range_meters":16000,"station_id":"ce4bh012rcd13ifvqcv0","pricing_plan_id":"cebpf4jnsgd1na2vs0mg"},{"bike_id":"5ee5cb7b-9ecd-47df-98fc-788a1093f6c4","system_id":"levelo_inurba_marseille","lat":43.28727,"lon":5.36091,"is_reserved":false,"is_disabled":false,"rental_uris":{"android":"levelo://app?vid=5ee5cb7b-9ecd-47df-98fc-788a1093f6c4","ios":"levelo://app?vid=5ee5cb7b-9ecd-47df-98fc-788a1093f6c4"},"vehicle_type_id":"4","last_reported":1728533456,"current_range_meters":3600,"station_id":"cki0cbj6b192h4jlfktg","pricing_plan_id":"cebpf4jnsgd1na2vs0mg"},{"bike_id":"6cd7d39b-2087-4d21-86bb-e2284a62aeb5","system_id":"levelo_inurba_marseille","lat":43.23189,"lon":5.35555,"is_reserved":false,"is_disabled":false,"rental_uris":{"android":"levelo://app?vid=6cd7d39b-2087-4d21-86bb-e2284a62aeb5","ios":"levelo://app?vid=6cd7d39b-2087-4d21-86bb-e2284a62aeb5"},"vehicle_type_id":"4","last_reported":1728533456,"current_range_meters":4800,"station_id":"ce4bhu92rcd13ifvqi70","pricing_plan_id":"cebpf4jnsgd1na2vs0mg"},{"bike_id":"6499adf2-90cb-414b-be20-cdad4c2ebb45","system_id":"levelo_inurba_marseille","lat":43.32539,"lon":5.41433,"is_reserved":false,"is_disabled":false,"rental_uris":{"android":"levelo://app?vid=6499adf2-90cb-414b-be20-cdad4c2ebb45","ios":"levelo://app?vid=6499adf2-90cb-414b-be20-cdad4c2ebb45"},"vehicle_type_id":"4","last_reported":1728533456,"current_range_meters":14800,"station_id":"ce4bhq12rcd13ifvqhhg","pricing_plan_id":"cebpf4jnsgd1na2vs0mg"},{"bike_id":"d165de16-231a-4822-b545-ba2113b9eef4","system_id":"levelo_inurba_marseille","lat":43.231824,"lon":5.399869,"is_reserved":false,"is_disabled":false,"rental_uris":{"android":"levelo://app?vid=d165de16-231a-4822-b545-ba2113b9eef4","ios":"levelo://app?vid=d165de16-231a-4822-b545-ba2113b9eef4"},"vehicle_type_id":"4","last_reported":1728533456,"current_range_meters":8800,"station_id":"ce4bhn12rcd13ifvqgqg","pricing_plan_id":"cebpf4jnsgd1na2vs0mg"},{"bike_id":"8d5c13a6-3710-4895-a84c-3ab9ea7fc770","system_id":"levelo_inurba_marseille","lat":43.31702,"lon":5.37749,"is_reserved":false,"is_disabled":false,"rental_uris":{"android":"levelo://app?vid=8d5c13a6-3710-4895-a84c-3ab9ea7fc770","ios":"levelo://app?vid=8d5c13a6-3710-4895-a84c-3ab9ea7fc770"},"vehicle_type_id":"4","last_reported":1728533456,"current_range_meters":26800,"station_id":"ce4bgth2rcd13ifvqch0","pricing_plan_id":"cebpf4jnsgd1na2vs0mg"},{"bike_id":"69ae63c7-1be7-4c87-97ef-e27f6748b58a","system_id":"levelo_inurba_marseille","lat":43.290401,"lon":5.399596,"is_reserved":false,"is_disabled":false,"rental_uris":{"android":"levelo://app?vid=69ae63c7-1be7-4c87-97ef-e27f6748b58a","ios":"levelo://app?vid=69ae63c7-1be7-4c87-97ef-e27f6748b58a"},"vehicle_type_id":"4","last_reported":1728533456,"current_range_meters":39200,"station_id":"ce4bh392rcd13ifvqdm0","pricing_plan_id":"cebpf4jnsgd1na2vs0mg"},{"bike_id":"c33c5827-0d1e-4887-8cba-515fafcd78b2","system_id":"levelo_inurba_marseille","lat":43.29797,"lon":5.40398,"is_reserved":false,"is_disabled":false,"rental_uris":{"android":"levelo://app?vid=c33c5827-0d1e-4887-8cba-515fafcd78b2","ios":"levelo://app?vid=c33c5827-0d1e-4887-8cba-515fafcd78b2"},"vehicle_type_id":"4","last_reported":1728533456,"current_range_meters":18800,"station_id":"ce4bh112rcd13ifvqd90","pricing_plan_id":"cebpf4jnsgd1na2vs0mg"},{"bike_id":"0cb1c02d-aaf3-4b58-b4be-1b30d805bdfd","system_id":"levelo_inurba_marseille","lat":43.29621,"lon":5.40594,"is_reserved":false,"is_disabled":false,"rental_uris":{"android":"levelo://app?vid=0cb1c02d-aaf3-4b58-b4be-1b30d805bdfd","ios":"levelo://app?vid=0cb1c02d-aaf3-4b58-b4be-1b30d805bdfd"},"vehicle_type_id":"4","last_reported":1728533456,"current_range_meters":33200,"station_id":"ce4bh0h2rcd13ifvqd60","pricing_plan_id":"cebpf4jnsgd1na2vs0mg"},{"bike_id":"0a914b9b-1fcc-4758-a91b-1f2a11f6cf7a","system_id":"levelo_inurba_marseille","lat":43.27183,"lon":5.40995,"is_reserved":false,"is_disabled":false,"rental_uris":{"android":"levelo://app?vid=0a914b9b-1fcc-4758-a91b-1f2a11f6cf7a","ios":"levelo://app?vid=0a914b9b-1fcc-4758-a91b-1f2a11f6cf7a"},"vehicle_type_id":"4","last_reported":1728533456,"current_range_meters":18800,"station_id":"ce4bhl12rcd13ifvqgf0","pricing_plan_id":"cebpf4jnsgd1na2vs0mg"},{"bike_id":"9485e0c3-83ce-439f-a876-f06381316286","system_id":"levelo_inurba_marseille","lat":43.28686,"lon":5.38686,"is_reserved":false,"is_disabled":false,"rental_uris":{"android":"levelo://app?vid=9485e0c3-83ce-439f-a876-f06381316286","ios":"levelo://app?vid=9485e0c3-83ce-439f-a876-f06381316286"},"vehicle_type_id":"4","last_reported":1728533456,"current_range_meters":4800,"station_id":"ce4bh492rcd13ifvqdug","pricing_plan_id":"cebpf4jnsgd1na2vs0mg"},{"bike_id":"fa3ff845-5116-480e-a41c-b01052174e4e","system_id":"levelo_inurba_marseille","lat":43.27996,"lon":5.40018,"is_reserved":false,"is_disabled":false,"rental_uris":{"android":"levelo://app?vid=fa3ff845-5116-480e-a41c-b01052174e4e","ios":"levelo://app?vid=fa3ff845-5116-480e-a41c-b01052174e4e"},"vehicle_type_id":"4","last_reported":1728533456,"current_range_meters":36800,"station_id":"ce4bho92rcd13ifvqh4g","pricing_plan_id":"cebpf4jnsgd1na2vs0mg"},{"bike_id":"5460c639-55a0-48b1-b3f7-3baddab08c84","system_id":"levelo_inurba_marseille","lat":43.30418,"lon":5.39749,"is_reserved":false,"is_disabled":false,"rental_uris":{"android":"levelo://app?vid=5460c639-55a0-48b1-b3f7-3baddab08c84","ios":"levelo://app?vid=5460c639-55a0-48b1-b3f7-3baddab08c84"},"vehicle_type_id":"4","last_reported":1728533456,"current_range_meters":38800,"station_id":"ce4bh092rcd13ifvqd20","pricing_plan_id":"cebpf4jnsgd1na2vs0mg"},{"bike_id":"c472332d-473a-46b4-99b0-bd335836231b","system_id":"levelo_inurba_marseille","lat":43.3189,"lon":5.40727,"is_reserved":false,"is_disabled":false,"rental_uris":{"android":"levelo://app?vid=c472332d-473a-46b4-99b0-bd335836231b","ios":"levelo://app?vid=c472332d-473a-46b4-99b0-bd335836231b"},"vehicle_type_id":"4","last_reported":1728533456,"current_range_meters":38400,"station_id":"ce4bhq12rcd13ifvqhig","pricing_plan_id":"cebpf4jnsgd1na2vs0mg"},{"bike_id":"3f60214b-c9af-41c1-81c7-a0ce379c845f","system_id":"levelo_inurba_marseille","lat":43.28706,"lon":5.3999,"is_reserved":false,"is_disabled":false,"rental_uris":{"android":"levelo://app?vid=3f60214b-c9af-41c1-81c7-a0ce379c845f","ios":"levelo://app?vid=3f60214b-c9af-41c1-81c7-a0ce379c845f"},"vehicle_type_id":"4","last_reported":1728533456,"current_range_meters":24800,"station_id":"ce4bho92rcd13ifvqh3g","pricing_plan_id":"cebpf4jnsgd1na2vs0mg"},{"bike_id":"1bedc9b5-87f8-4de3-a6f1-ee87cc023be8","system_id":"levelo_inurba_marseille","lat":43.30658,"lon":5.40073,"is_reserved":false,"is_disabled":false,"rental_uris":{"android":"levelo://app?vid=1bedc9b5-87f8-4de3-a6f1-ee87cc023be8","ios":"levelo://app?vid=1bedc9b5-87f8-4de3-a6f1-ee87cc023be8"},"vehicle_type_id":"4","last_reported":1728533456,"current_range_meters":38800,"station_id":"ce4bh112rcd13ifvqda0","pricing_plan_id":"cebpf4jnsgd1na2vs0mg"},{"bike_id":"76693f3a-1514-4607-adcd-4f5a5c7ebe4d","system_id":"levelo_inurba_marseille","lat":43.25119,"lon":5.40313,"is_reserved":false,"is_disabled":false,"rental_uris":{"android":"levelo://app?vid=76693f3a-1514-4607-adcd-4f5a5c7ebe4d","ios":"levelo://app?vid=76693f3a-1514-4607-adcd-4f5a5c7ebe4d"},"vehicle_type_id":"4","last_reported":1728533456,"current_range_meters":38800,"station_id":"ce4bhlh2rcd13ifvqgig","pricing_plan_id":"cebpf4jnsgd1na2vs0mg"},{"bike_id":"75e8242b-465d-4e64-ac51-b9af4bdb0d74","system_id":"levelo_inurba_marseille","lat":43.29894,"lon":5.43661,"is_reserved":false,"is_disabled":false,"rental_uris":{"android":"levelo://app?vid=75e8242b-465d-4e64-ac51-b9af4bdb0d74","ios":"levelo://app?vid=75e8242b-465d-4e64-ac51-b9af4bdb0d74"},"vehicle_type_id":"4","last_reported":1728533456,"current_range_meters":39200,"station_id":"ce4bhpp2rcd13ifvqhfg","pricing_plan_id":"cebpf4jnsgd1na2vs0mg"},{"bike_id":"40b2e97d-7015-4980-ac7f-63304bb2e3f6","system_id":"levelo_inurba_marseille","lat":43.28035,"lon":5.36945,"is_reserved":false,"is_disabled":false,"rental_uris":{"android":"levelo://app?vid=40b2e97d-7015-4980-ac7f-63304bb2e3f6","ios":"levelo://app?vid=40b2e97d-7015-4980-ac7f-63304bb2e3f6"},"vehicle_type_id":"4","last_reported":1728533456,"current_range_meters":24800,"station_id":"ce4bha12rcd13ifvqef0","pricing_plan_id":"cebpf4jnsgd1na2vs0mg"},{"bike_id":"a57c8762-ad90-45ab-a626-e4608aea5cea","system_id":"levelo_inurba_marseille","lat":43.31088,"lon":5.4243,"is_reserved":false,"is_disabled":false,"rental_uris":{"android":"levelo://app?vid=a57c8762-ad90-45ab-a626-e4608aea5cea","ios":"levelo://app?vid=a57c8762-ad90-45ab-a626-e4608aea5cea"},"vehicle_type_id":"4","last_reported":1728533456,"current_range_meters":38800,"station_id":"ce4bhp92rcd13ifvqhag","pricing_plan_id":"cebpf4jnsgd1na2vs0mg"},{"bike_id":"26ed4a45-1f73-41b5-8b0f-01bde0695b0f","system_id":"levelo_inurba_marseille","lat":43.31524,"lon":5.38032,"is_reserved":false,"is_disabled":false,"rental_uris":{"android":"levelo://app?vid=26ed4a45-1f73-41b5-8b0f-01bde0695b0f","ios":"levelo://app?vid=26ed4a45-1f73-41b5-8b0f-01bde0695b0f"},"vehicle_type_id":"4","last_reported":1728533456,"current_range_meters":39200,"station_id":"ce4bhsp2rcd13ifvqi50","pricing_plan_id":"cebpf4jnsgd1na2vs0mg"},{"bike_id":"c36785e0-16e7-4c4f-af83-fd603b02cc5b","system_id":"levelo_inurba_marseille","lat":43.33022,"lon":5.39046,"is_reserved":false,"is_disabled":false,"rental_uris":{"android":"levelo://app?vid=c36785e0-16e7-4c4f-af83-fd603b02cc5b","ios":"levelo://app?vid=c36785e0-16e7-4c4f-af83-fd603b02cc5b"},"vehicle_type_id":"4","last_reported":1728533456,"current_range_meters":32800,"station_id":"ce4bhr92rcd13ifvqhrg","pricing_plan_id":"cebpf4jnsgd1na2vs0mg"},{"bike_id":"ad4c62cc-78b9-4e85-82ac-3a3249e343f4","system_id":"levelo_inurba_marseille","lat":43.2845,"lon":5.37487,"is_reserved":false,"is_disabled":false,"rental_uris":{"android":"levelo://app?vid=ad4c62cc-78b9-4e85-82ac-3a3249e343f4","ios":"levelo://app?vid=ad4c62cc-78b9-4e85-82ac-3a3249e343f4"},"vehicle_type_id":"4","last_reported":1728533456,"current_range_meters":14400,"station_id":"","pricing_plan_id":"cebpf4jnsgd1na2vs0mg"},{"bike_id":"0363a3de-995d-48d5-9489-7f33c79a33fc","system_id":"levelo_inurba_marseille","lat":43.30889,"lon":5.37185,"is_reserved":false,"is_disabled":false,"rental_uris":{"android":"levelo://app?vid=0363a3de-995d-48d5-9489-7f33c79a33fc","ios":"levelo://app?vid=0363a3de-995d-48d5-9489-7f33c79a33fc"},"vehicle_type_id":"4","last_reported":1728533456,"current_range_meters":26800,"station_id":"ce4bguh2rcd13ifvqckg","pricing_plan_id":"cebpf4jnsgd1na2vs0mg"},{"bike_id":"05cec2e8-8a54-4855-b933-0867afaadc96","system_id":"levelo_inurba_marseille","lat":43.23189,"lon":5.39984,"is_reserved":false,"is_disabled":false,"rental_uris":{"android":"levelo://app?vid=05cec2e8-8a54-4855-b933-0867afaadc96","ios":"levelo://app?vid=05cec2e8-8a54-4855-b933-0867afaadc96"},"vehicle_type_id":"4","last_reported":1728533456,"current_range_meters":17200,"station_id":"ce4bhn12rcd13ifvqgqg","pricing_plan_id":"cebpf4jnsgd1na2vs0mg"},{"bike_id":"693ef618-8549-4d96-a95a-75e12dd33ec1","system_id":"levelo_inurba_marseille","lat":43.2996,"lon":5.41316,"is_reserved":false,"is_disabled":false,"rental_uris":{"android":"levelo://app?vid=693ef618-8549-4d96-a95a-75e12dd33ec1","ios":"levelo://app?vid=693ef618-8549-4d96-a95a-75e12dd33ec1"},"vehicle_type_id":"4","last_reported":1728533456,"current_range_meters":38000,"station_id":"ce4bhp12rcd13ifvqh9g","pricing_plan_id":"cebpf4jnsgd1na2vs0mg"},{"bike_id":"7b4f1783-1c98-4b7f-9c0d-71e1aa051555","system_id":"levelo_inurba_marseille","lat":43.30653,"lon":5.40073,"is_reserved":false,"is_disabled":false,"rental_uris":{"android":"levelo://app?vid=7b4f1783-1c98-4b7f-9c0d-71e1aa051555","ios":"levelo://app?vid=7b4f1783-1c98-4b7f-9c0d-71e1aa051555"},"vehicle_type_id":"4","last_reported":1728533456,"current_range_meters":32800,"station_id":"ce4bh112rcd13ifvqda0","pricing_plan_id":"cebpf4jnsgd1na2vs0mg"},{"bike_id":"924e8ff1-c626-40a1-8bf0-803d6f46348b","system_id":"levelo_inurba_marseille","lat":43.24763,"lon":5.40018,"is_reserved":false,"is_disabled":false,"rental_uris":{"android":"levelo://app?vid=924e8ff1-c626-40a1-8bf0-803d6f46348b","ios":"levelo://app?vid=924e8ff1-c626-40a1-8bf0-803d6f46348b"},"vehicle_type_id":"4","last_reported":1728533456,"current_range_meters":22800,"station_id":"","pricing_plan_id":"cebpf4jnsgd1na2vs0mg"},{"bike_id":"3175468d-30c1-4c19-9df0-892a3b5400a7","system_id":"levelo_inurba_marseille","lat":43.29225,"lon":5.3608,"is_reserved":false,"is_disabled":false,"rental_uris":{"android":"levelo://app?vid=3175468d-30c1-4c19-9df0-892a3b5400a7","ios":"levelo://app?vid=3175468d-30c1-4c19-9df0-892a3b5400a7"},"vehicle_type_id":"4","last_reported":1728533456,"current_range_meters":38800,"station_id":"ce4bhbh2rcd13ifvqeqg","pricing_plan_id":"cebpf4jnsgd1na2vs0mg"},{"bike_id":"c8608925-58df-4815-9762-2bac8aa62ddd","system_id":"levelo_inurba_marseille","lat":43.28459,"lon":5.35889,"is_reserved":false,"is_disabled":false,"rental_uris":{"android":"levelo://app?vid=c8608925-58df-4815-9762-2bac8aa62ddd","ios":"levelo://app?vid=c8608925-58df-4815-9762-2bac8aa62ddd"},"vehicle_type_id":"4","last_reported":1728533456,"current_range_meters":38800,"station_id":"ce4bhah2rcd13ifvqei0","pricing_plan_id":"cebpf4jnsgd1na2vs0mg"},{"bike_id":"3181d050-5856-47bd-85b0-9325ba07e1d6","system_id":"levelo_inurba_marseille","lat":43.24175,"lon":5.39731,"is_reserved":false,"is_disabled":false,"rental_uris":{"android":"levelo://app?vid=3181d050-5856-47bd-85b0-9325ba07e1d6","ios":"levelo://app?vid=3181d050-5856-47bd-85b0-9325ba07e1d6"},"vehicle_type_id":"4","last_reported":1728533456,"current_range_meters":19200,"station_id":"ce4bhn12rcd13ifvqgpg","pricing_plan_id":"cebpf4jnsgd1na2vs0mg"},{"bike_id":"68012474-d247-4629-a3eb-b62caef40590","system_id":"levelo_inurba_marseille","lat":43.28854,"lon":5.35848,"is_reserved":false,"is_disabled":false,"rental_uris":{"android":"levelo://app?vid=68012474-d247-4629-a3eb-b62caef40590","ios":"levelo://app?vid=68012474-d247-4629-a3eb-b62caef40590"},"vehicle_type_id":"4","last_reported":1728533456,"current_range_meters":38800,"station_id":"ce4bhb12rcd13ifvqem0","pricing_plan_id":"cebpf4jnsgd1na2vs0mg"},{"bike_id":"fc3f0547-89f3-45ed-b216-20a87ce42cb7","system_id":"levelo_inurba_marseille","lat":43.23154,"lon":5.43715,"is_reserved":false,"is_disabled":false,"rental_uris":{"android":"levelo://app?vid=fc3f0547-89f3-45ed-b216-20a87ce42cb7","ios":"levelo://app?vid=fc3f0547-89f3-45ed-b216-20a87ce42cb7"},"vehicle_type_id":"4","last_reported":1728533456,"current_range_meters":25600,"station_id":"ce4bhmp2rcd13ifvqgog","pricing_plan_id":"cebpf4jnsgd1na2vs0mg"},{"bike_id":"ba98dde2-7993-481a-afdd-652f07f5dc06","system_id":"levelo_inurba_marseille","lat":43.31891,"lon":5.40733,"is_reserved":false,"is_disabled":false,"rental_uris":{"android":"levelo://app?vid=ba98dde2-7993-481a-afdd-652f07f5dc06","ios":"levelo://app?vid=ba98dde2-7993-481a-afdd-652f07f5dc06"},"vehicle_type_id":"4","last_reported":1728533456,"current_range_meters":38800,"station_id":"ce4bhq12rcd13ifvqhig","pricing_plan_id":"cebpf4jnsgd1na2vs0mg"},{"bike_id":"fd522910-5a4f-43e8-9bb2-92619315d7a1","system_id":"levelo_inurba_marseille","lat":43.30888,"lon":5.3719,"is_reserved":false,"is_disabled":false,"rental_uris":{"android":"levelo://app?vid=fd522910-5a4f-43e8-9bb2-92619315d7a1","ios":"levelo://app?vid=fd522910-5a4f-43e8-9bb2-92619315d7a1"},"vehicle_type_id":"4","last_reported":1728533456,"current_range_meters":39200,"station_id":"ce4bguh2rcd13ifvqckg","pricing_plan_id":"cebpf4jnsgd1na2vs0mg"},{"bike_id":"360c3631-acb6-4139-8deb-e839d6f1eec2","system_id":"levelo_inurba_marseille","lat":43.29874,"lon":5.39735,"is_reserved":false,"is_disabled":false,"rental_uris":{"android":"levelo://app?vid=360c3631-acb6-4139-8deb-e839d6f1eec2","ios":"levelo://app?vid=360c3631-acb6-4139-8deb-e839d6f1eec2"},"vehicle_type_id":"4","last_reported":1728533456,"current_range_meters":39200,"station_id":"ce4bh0h2rcd13ifvqd50","pricing_plan_id":"cebpf4jnsgd1na2vs0mg"},{"bike_id":"1777139c-7853-4842-bdf8-0d4bc0c8911d","system_id":"levelo_inurba_marseille","lat":43.31705,"lon":5.40461,"is_reserved":false,"is_disabled":false,"rental_uris":{"android":"levelo://app?vid=1777139c-7853-4842-bdf8-0d4bc0c8911d","ios":"levelo://app?vid=1777139c-7853-4842-bdf8-0d4bc0c8911d"},"vehicle_type_id":"4","last_reported":1728533456,"current_range_meters":18000,"station_id":"ce4bh012rcd13ifvqd00","pricing_plan_id":"cebpf4jnsgd1na2vs0mg"},{"bike_id":"0165a226-02c2-4e16-8c8d-51f4412dc1fb","system_id":"levelo_inurba_marseille","lat":43.31758,"lon":5.39022,"is_reserved":false,"is_disabled":false,"rental_uris":{"android":"levelo://app?vid=0165a226-02c2-4e16-8c8d-51f4412dc1fb","ios":"levelo://app?vid=0165a226-02c2-4e16-8c8d-51f4412dc1fb"},"vehicle_type_id":"4","last_reported":1728533456,"current_range_meters":38000,"station_id":"ce4bhqp2rcd13ifvqhng","pricing_plan_id":"cebpf4jnsgd1na2vs0mg"},{"bike_id":"aa75c41c-1391-4d5a-b0ad-fb29c317877d","system_id":"levelo_inurba_marseille","lat":43.2307,"lon":5.35492,"is_reserved":false,"is_disabled":false,"rental_uris":{"android":"levelo://app?vid=aa75c41c-1391-4d5a-b0ad-fb29c317877d","ios":"levelo://app?vid=aa75c41c-1391-4d5a-b0ad-fb29c317877d"},"vehicle_type_id":"4","last_reported":1728533456,"current_range_meters":14000,"station_id":"cpo3342slgdg3j2ifvpg","pricing_plan_id":"cebpf4jnsgd1na2vs0mg"},{"bike_id":"b2138457-e7ef-4bc9-b027-45595ccfa34d","system_id":"levelo_inurba_marseille","lat":43.31999,"lon":5.38153,"is_reserved":false,"is_disabled":false,"rental_uris":{"android":"levelo://app?vid=b2138457-e7ef-4bc9-b027-45595ccfa34d","ios":"levelo://app?vid=b2138457-e7ef-4bc9-b027-45595ccfa34d"},"vehicle_type_id":"4","last_reported":1728533456,"current_range_meters":38000,"station_id":"ce4bhr12rcd13ifvqhpg","pricing_plan_id":"cebpf4jnsgd1na2vs0mg"},{"bike_id":"f6963f46-5e73-42df-9f9e-8258ce538093","system_id":"levelo_inurba_marseille","lat":43.25492,"lon":5.37647,"is_reserved":false,"is_disabled":false,"rental_uris":{"android":"levelo://app?vid=f6963f46-5e73-42df-9f9e-8258ce538093","ios":"levelo://app?vid=f6963f46-5e73-42df-9f9e-8258ce538093"},"vehicle_type_id":"4","last_reported":1728533456,"current_range_meters":33600,"station_id":"ce4bhh12rcd13ifvqff0","pricing_plan_id":"cebpf4jnsgd1na2vs0mg"},{"bike_id":"3815e933-e20e-4440-bbdd-11c9132eb606","system_id":"levelo_inurba_marseille","lat":43.336,"lon":5.41027,"is_reserved":false,"is_disabled":false,"rental_uris":{"android":"levelo://app?vid=3815e933-e20e-4440-bbdd-11c9132eb606","ios":"levelo://app?vid=3815e933-e20e-4440-bbdd-11c9132eb606"},"vehicle_type_id":"4","last_reported":1728533456,"current_range_meters":39200,"station_id":"ce4bhqh2rcd13ifvqhmg","pricing_plan_id":"cebpf4jnsgd1na2vs0mg"},{"bike_id":"06310045-0c41-4476-b5c4-a21e9111e0c6","system_id":"levelo_inurba_marseille","lat":43.28032,"lon":5.36941,"is_reserved":false,"is_disabled":false,"rental_uris":{"android":"levelo://app?vid=06310045-0c41-4476-b5c4-a21e9111e0c6","ios":"levelo://app?vid=06310045-0c41-4476-b5c4-a21e9111e0c6"},"vehicle_type_id":"4","last_reported":1728533456,"current_range_meters":39200,"station_id":"ce4bha12rcd13ifvqef0","pricing_plan_id":"cebpf4jnsgd1na2vs0mg"},{"bike_id":"b7507c69-0bc0-4e9e-9023-7bda0a81f93b","system_id":"levelo_inurba_marseille","lat":43.30553,"lon":5.36551,"is_reserved":false,"is_disabled":false,"rental_uris":{"android":"levelo://app?vid=b7507c69-0bc0-4e9e-9023-7bda0a81f93b","ios":"levelo://app?vid=b7507c69-0bc0-4e9e-9023-7bda0a81f93b"},