{"last_updated":1767968083,"ttl":60,"version":"2.2","data":{"bikes":[{"bike_id":"9cfeff17-a54a-4b3c-baa8-c7ed795fc5f2","system_id":"levelo_inurba_marseille","lat":43.241705,"lon":5.363918,"is_reserved":false,"is_disabled":false,"rental_uris":{"android":"levelo://app?vid=9cfeff17-a54a-4b3c-baa8-c7ed795fc5f2","ios":"levelo://app?vid=9cfeff17-a54a-4b3c-baa8-c7ed795fc5f2"},"vehicle_type_id":"4","last_reported":1767968083,"current_range_meters":2800,"station_id":"cpo36qri1sfpv3e86is0","pricing_plan_id":"cebpf4jnsgd1na2vs0mg"},{"bike_id":"34bdaf2f-5a72-4bb9-90ad-0bef4b8c6c07","system_id":"levelo_inurba_marseille","lat":43.28004,"lon":5.41664,"is_reserved":false,"is_disabled":false,"rental_uris":{"android":"levelo://app?vid=34bdaf2f-5a72-4bb9-90ad-0bef4b8c6c07","ios":"levelo://app?vid=34bdaf2f-5a72-4bb9-90ad-0bef4b8c6c07"},"vehicle_type_id":"4","last_reported":1767968083,"current_range_meters":2800,"station_id":"ce4bho12rcd13ifvqh1g","pricing_plan_id":"cebpf4jnsgd1na2vs0mg"},{"bike_id":"b7f3c4cb-f031-4c24-997a-59db73970d75","system_id":"levelo_inurba_marseille","lat":43.262267,"lon":5.404495,"is_reserved":false,"is_disabled":false,"rental_uris":{"android":"levelo://app?vid=b7f3c4cb-f031-4c24-997a-59db73970d75","ios":"levelo://app?vid=b7f3c4cb-f031-4c24-997a-59db73970d75"},"vehicle_type_id":"4","last_reported":1767968083,"current_range_meters":2800,"station_id":"","pricing_plan_id":"cebpf4jnsgd1na2vs0mg"},{"bike_id":"ac85bb10-c7ee-4643-b359-aaaae092715f","system_id":"levelo_inurba_marseille","lat":43.28009,"lon":5.41659,"is_reserved":false,"is_disabled":false,"rental_uris":{"android":"levelo://app?vid=ac85bb10-c7ee-4643-b359-aaaae092715f","ios":"levelo://app?vid=ac85bb10-c7ee-4643-b359-aaaae092715f"},"vehicle_type_id":"4","last_reported":1767968083,"current_range_meters":2800,"station_id":"ce4bho12rcd13ifvqh1g","pricing_plan_id":"cebpf4jnsgd1na2vs0mg"},{"bike_id":"83baf7ef-456e-4c72-9805-22aa4846a1b3","system_id":"levelo_inurba_marseille","lat":43.285333,"lon":5.441103,"is_reserved":false,"is_disabled":false,"rental_uris":{"android":"levelo://app?vid=83baf7ef-456e-4c72-9805-22aa4846a1b3","ios":"levelo://app?vid=83baf7ef-456e-4c72-9805-22aa4846a1b3"},"vehicle_type_id":"4","last_reported":1767968083,"current_range_meters":2800,"station_id":"st_d3j3df2ikq2c7380ej80","pricing_plan_id":"cebpf4jnsgd1na2vs0mg"},{"bike_id":"357563d8-d33e-4f70-862e-8fab05436ef0","system_id":"levelo_inurba_marseille","lat":43.289776,"lon":5.378228,"is_reserved":false,"is_disabled":false,"rental_uris":{"android":"levelo://app?vid=357563d8-d33e-4f70-862e-8fab05436ef0","ios":"levelo://app?vid=357563d8-d33e-4f70-862e-8fab05436ef0"},"vehicle_type_id":"4","last_reported":1767968083,"current_range_meters":2800,"station_id":"","pricing_plan_id":"cebpf4jnsgd1na2vs0mg"},{"bike_id":"fd172d07-e62e-4e89-83ff-b73ffdf2df2c","system_id":"levelo_inurba_marseille","lat":43.2657,"lon":5.39019,"is_reserved":false,"is_disabled":false,"rental_uris":{"android":"levelo://app?vid=fd172d07-e62e-4e89-83ff-b73ffdf2df2c","ios":"levelo://app?vid=fd172d07-e62e-4e89-83ff-b73ffdf2df2c"},"vehicle_type_id":"4","last_reported":1767968083,"current_range_meters":2800,"station_id":"ce4bhe12rcd13ifvqf30","pricing_plan_id":"cebpf4jnsgd1na2vs0mg"},{"bike_id":"c76e1a9d-c320-4303-a52d-555dbef28da8","system_id":"levelo_inurba_marseille","lat":43.29756,"lon":5.3809,"is_reserved":false,"is_disabled":false,"rental_uris":{"android":"levelo://app?vid=c76e1a9d-c320-4303-a52d-555dbef28da8","ios":"levelo://app?vid=c76e1a9d-c320-4303-a52d-555dbef28da8"},"vehicle_type_id":"4","last_reported":1767968083,"current_range_meters":2800,"station_id":"","pricing_plan_id":"cebpf4jnsgd1na2vs0mg"},{"bike_id":"ff952794-f6da-4471-9ec2-f667cbadd91a","system_id":"levelo_inurba_marseille","lat":43.2405,"lon":5.37749,"is_reserved":false,"is_disabled":false,"rental_uris":{"android":"levelo://app?vid=ff952794-f6da-4471-9ec2-f667cbadd91a","ios":"levelo://app?vid=ff952794-f6da-4471-9ec2-f667cbadd91a"},"vehicle_type_id":"4","last_reported":1767968083,"current_range_meters":3200,"station_id":"ce4bhnp2rcd13ifvqgvg","pricing_plan_id":"cebpf4jnsgd1na2vs0mg"},{"bike_id":"efcbda51-62e1-4f07-ab6b-7f654193639e","system_id":"levelo_inurba_marseille","lat":43.26074,"lon":5.39409,"is_reserved":false,"is_disabled":false,"rental_uris":{"android":"levelo://app?vid=efcbda51-62e1-4f07-ab6b-7f654193639e","ios":"levelo://app?vid=efcbda51-62e1-4f07-ab6b-7f654193639e"},"vehicle_type_id":"4","last_reported":1767968083,"current_range_meters":3200,"station_id":"ce4bhh92rcd13ifvqfj0","pricing_plan_id":"cebpf4jnsgd1na2vs0mg"},{"bike_id":"04bf5792-c844-4c60-a16f-72ff5bd359e2","system_id":"levelo_inurba_marseille","lat":43.28145,"lon":5.42605,"is_reserved":false,"is_disabled":false,"rental_uris":{"android":"levelo://app?vid=04bf5792-c844-4c60-a16f-72ff5bd359e2","ios":"levelo://app?vid=04bf5792-c844-4c60-a16f-72ff5bd359e2"},"vehicle_type_id":"4","last_reported":1767968083,"current_range_meters":3200,"station_id":"ce4bhnh2rcd13ifvqgug","pricing_plan_id":"cebpf4jnsgd1na2vs0mg"},{"bike_id":"e9fbb55b-45ea-4b51-8726-aff775b6f253","system_id":"levelo_inurba_marseille","lat":43.22925,"lon":5.35376,"is_reserved":false,"is_disabled":false,"rental_uris":{"android":"levelo://app?vid=e9fbb55b-45ea-4b51-8726-aff775b6f253","ios":"levelo://app?vid=e9fbb55b-45ea-4b51-8726-aff775b6f253"},"vehicle_type_id":"4","last_reported":1767968083,"current_range_meters":3200,"station_id":"cpo3532slgdg3j2ikp40","pricing_plan_id":"cebpf4jnsgd1na2vs0mg"},{"bike_id":"79544bb9-349f-409e-b2bb-723f19511937","system_id":"levelo_inurba_marseille","lat":43.285365,"lon":5.440938,"is_reserved":false,"is_disabled":false,"rental_uris":{"android":"levelo://app?vid=79544bb9-349f-409e-b2bb-723f19511937","ios":"levelo://app?vid=79544bb9-349f-409e-b2bb-723f19511937"},"vehicle_type_id":"4","last_reported":1767968083,"current_range_meters":3200,"station_id":"st_d3j3df2ikq2c7380ej80","pricing_plan_id":"cebpf4jnsgd1na2vs0mg"},{"bike_id":"16ce7594-dcb6-43ef-aed8-d7494da4c228","system_id":"levelo_inurba_marseille","lat":43.24988,"lon":5.38934,"is_reserved":false,"is_disabled":false,"rental_uris":{"android":"levelo://app?vid=16ce7594-dcb6-43ef-aed8-d7494da4c228","ios":"levelo://app?vid=16ce7594-dcb6-43ef-aed8-d7494da4c228"},"vehicle_type_id":"4","last_reported":1767968083,"current_range_meters":3200,"station_id":"ce4bhgp2rcd13ifvqfd0","pricing_plan_id":"cebpf4jnsgd1na2vs0mg"},{"bike_id":"ae4ea6af-ac8e-4f9d-acb8-d08926e47bb1","system_id":"levelo_inurba_marseille","lat":43.331562,"lon":5.377064,"is_reserved":false,"is_disabled":false,"rental_uris":{"android":"levelo://app?vid=ae4ea6af-ac8e-4f9d-acb8-d08926e47bb1","ios":"levelo://app?vid=ae4ea6af-ac8e-4f9d-acb8-d08926e47bb1"},"vehicle_type_id":"4","last_reported":1767968083,"current_range_meters":3600,"station_id":"st_d46cu089ee8s73dldbu0","pricing_plan_id":"cebpf4jnsgd1na2vs0mg"},{"bike_id":"e80c0ac0-3141-4e6b-b923-2cb708d253df","system_id":"levelo_inurba_marseille","lat":43.302338,"lon":5.376842,"is_reserved":false,"is_disabled":false,"rental_uris":{"android":"levelo://app?vid=e80c0ac0-3141-4e6b-b923-2cb708d253df","ios":"levelo://app?vid=e80c0ac0-3141-4e6b-b923-2cb708d253df"},"vehicle_type_id":"4","last_reported":1767968083,"current_range_meters":3600,"station_id":"ce4bguh2rcd13ifvqcj0","pricing_plan_id":"cebpf4jnsgd1na2vs0mg"},{"bike_id":"8f870c12-c0c3-4b7a-8d0a-24f628ad1788","system_id":"levelo_inurba_marseille","lat":43.31004,"lon":5.37963,"is_reserved":false,"is_disabled":false,"rental_uris":{"android":"levelo://app?vid=8f870c12-c0c3-4b7a-8d0a-24f628ad1788","ios":"levelo://app?vid=8f870c12-c0c3-4b7a-8d0a-24f628ad1788"},"vehicle_type_id":"4","last_reported":1767968083,"current_range_meters":3600,"station_id":"","pricing_plan_id":"cebpf4jnsgd1na2vs0mg"},{"bike_id":"919b15c7-f6dc-4085-8719-a8f579d2184e","system_id":"levelo_inurba_marseille","lat":43.27371,"lon":5.36263,"is_reserved":false,"is_disabled":false,"rental_uris":{"android":"levelo://app?vid=919b15c7-f6dc-4085-8719-a8f579d2184e","ios":"levelo://app?vid=919b15c7-f6dc-4085-8719-a8f579d2184e"},"vehicle_type_id":"4","last_reported":1767968083,"current_range_meters":3600,"station_id":"ce4bhbh2rcd13ifvqeo0","pricing_plan_id":"cebpf4jnsgd1na2vs0mg"},{"bike_id":"38d3baf1-ccb2-4f59-80bf-ce61dff31413","system_id":"levelo_inurba_marseille","lat":43.24833,"lon":5.3744,"is_reserved":false,"is_disabled":false,"rental_uris":{"android":"levelo://app?vid=38d3baf1-ccb2-4f59-80bf-ce61dff31413","ios":"levelo://app?vid=38d3baf1-ccb2-4f59-80bf-ce61dff31413"},"vehicle_type_id":"4","last_reported":1767968083,"current_range_meters":3600,"station_id":"ce4bhgh2rcd13ifvqfb0","pricing_plan_id":"cebpf4jnsgd1na2vs0mg"},{"bike_id":"5407fece-b1e5-43a9-86e2-b54a7e31d89d","system_id":"levelo_inurba_marseille","lat":43.26216,"lon":5.37465,"is_reserved":false,"is_disabled":false,"rental_uris":{"android":"levelo://app?vid=5407fece-b1e5-43a9-86e2-b54a7e31d89d","ios":"levelo://app?vid=5407fece-b1e5-43a9-86e2-b54a7e31d89d"},"vehicle_type_id":"4","last_reported":1767968083,"current_range_meters":3600,"station_id":"ce4bhgp2rcd13ifvqfc0","pricing_plan_id":"cebpf4jnsgd1na2vs0mg"},{"bike_id":"dea4b3f3-7c96-4284-aea9-03d918bcdf80","system_id":"levelo_inurba_marseille","lat":43.30838,"lon":5.3812,"is_reserved":false,"is_disabled":false,"rental_uris":{"android":"levelo://app?vid=dea4b3f3-7c96-4284-aea9-03d918bcdf80","ios":"levelo://app?vid=dea4b3f3-7c96-4284-aea9-03d918bcdf80"},"vehicle_type_id":"4","last_reported":1767968083,"current_range_meters":3600,"station_id":"ce4bgt12rcd13ifvqce0","pricing_plan_id":"cebpf4jnsgd1na2vs0mg"},{"bike_id":"7079bdb2-fe45-4309-a762-84cee8c3e4fd","system_id":"levelo_inurba_marseille","lat":43.26574,"lon":5.37301,"is_reserved":false,"is_disabled":false,"rental_uris":{"android":"levelo://app?vid=7079bdb2-fe45-4309-a762-84cee8c3e4fd","ios":"levelo://app?vid=7079bdb2-fe45-4309-a762-84cee8c3e4fd"},"vehicle_type_id":"4","last_reported":1767968083,"current_range_meters":3600,"station_id":"ce4bhg12rcd13ifvqf70","pricing_plan_id":"cebpf4jnsgd1na2vs0mg"},{"bike_id":"a9c6d546-b01e-4f1f-9ee6-93cac570bf9c","system_id":"levelo_inurba_marseille","lat":43.28622,"lon":5.35118,"is_reserved":false,"is_disabled":false,"rental_uris":{"android":"levelo://app?vid=a9c6d546-b01e-4f1f-9ee6-93cac570bf9c","ios":"levelo://app?vid=a9c6d546-b01e-4f1f-9ee6-93cac570bf9c"},"vehicle_type_id":"4","last_reported":1767968083,"current_range_meters":3600,"station_id":"ce4bhch2rcd13ifvqeug","pricing_plan_id":"cebpf4jnsgd1na2vs0mg"},{"bike_id":"8ddd903e-4b58-445b-933d-a20697560094","system_id":"levelo_inurba_marseille","lat":43.33434,"lon":5.40039,"is_reserved":false,"is_disabled":false,"rental_uris":{"android":"levelo://app?vid=8ddd903e-4b58-445b-933d-a20697560094","ios":"levelo://app?vid=8ddd903e-4b58-445b-933d-a20697560094"},"vehicle_type_id":"4","last_reported":1767968083,"current_range_meters":3600,"station_id":"","pricing_plan_id":"cebpf4jnsgd1na2vs0mg"},{"bike_id":"d1da6efe-850d-40dc-ab1a-ce4ecb2d89c2","system_id":"levelo_inurba_marseille","lat":43.23203,"lon":5.40004,"is_reserved":false,"is_disabled":false,"rental_uris":{"android":"levelo://app?vid=d1da6efe-850d-40dc-ab1a-ce4ecb2d89c2","ios":"levelo://app?vid=d1da6efe-850d-40dc-ab1a-ce4ecb2d89c2"},"vehicle_type_id":"4","last_reported":1767968083,"current_range_meters":3600,"station_id":"ce4bhn12rcd13ifvqgqg","pricing_plan_id":"cebpf4jnsgd1na2vs0mg"},{"bike_id":"36c3097c-2122-4b98-a149-c16b13fb82b9","system_id":"levelo_inurba_marseille","lat":43.26067,"lon":5.39398,"is_reserved":false,"is_disabled":false,"rental_uris":{"android":"levelo://app?vid=36c3097c-2122-4b98-a149-c16b13fb82b9","ios":"levelo://app?vid=36c3097c-2122-4b98-a149-c16b13fb82b9"},"vehicle_type_id":"4","last_reported":1767968083,"current_range_meters":3600,"station_id":"ce4bhh92rcd13ifvqfj0","pricing_plan_id":"cebpf4jnsgd1na2vs0mg"},{"bike_id":"3ada1a6b-6031-458a-b05a-7b349030768e","system_id":"levelo_inurba_marseille","lat":43.30528,"lon":5.36848,"is_reserved":false,"is_disabled":false,"rental_uris":{"android":"levelo://app?vid=3ada1a6b-6031-458a-b05a-7b349030768e","ios":"levelo://app?vid=3ada1a6b-6031-458a-b05a-7b349030768e"},"vehicle_type_id":"4","last_reported":1767968083,"current_range_meters":3600,"station_id":"","pricing_plan_id":"cebpf4jnsgd1na2vs0mg"},{"bike_id":"7daf9ada-91d7-4414-9c61-96e031f37952","system_id":"levelo_inurba_marseille","lat":43.26561,"lon":5.373,"is_reserved":false,"is_disabled":false,"rental_uris":{"android":"levelo://app?vid=7daf9ada-91d7-4414-9c61-96e031f37952","ios":"levelo://app?vid=7daf9ada-91d7-4414-9c61-96e031f37952"},"vehicle_type_id":"4","last_reported":1767968083,"current_range_meters":4000,"station_id":"ce4bhg12rcd13ifvqf70","pricing_plan_id":"cebpf4jnsgd1na2vs0mg"},{"bike_id":"e41d8bea-ffd2-440d-b446-b472b1d04e4d","system_id":"levelo_inurba_marseille","lat":43.23974,"lon":5.36619,"is_reserved":false,"is_disabled":false,"rental_uris":{"android":"levelo://app?vid=e41d8bea-ffd2-440d-b446-b472b1d04e4d","ios":"levelo://app?vid=e41d8bea-ffd2-440d-b446-b472b1d04e4d"},"vehicle_type_id":"4","last_reported":1767968083,"current_range_meters":4000,"station_id":"ce4bhi12rcd13ifvqfp0","pricing_plan_id":"cebpf4jnsgd1na2vs0mg"},{"bike_id":"88436fbc-a867-41fd-9af6-6ae673233f14","system_id":"levelo_inurba_marseille","lat":43.24557,"lon":5.39545,"is_reserved":false,"is_disabled":false,"rental_uris":{"android":"levelo://app?vid=88436fbc-a867-41fd-9af6-6ae673233f14","ios":"levelo://app?vid=88436fbc-a867-41fd-9af6-6ae673233f14"},"vehicle_type_id":"4","last_reported":1767968083,"current_range_meters":4000,"station_id":"ce4bhlp2rcd13ifvqgjg","pricing_plan_id":"cebpf4jnsgd1na2vs0mg"},{"bike_id":"fc118f6a-ddd6-4fb4-82f8-69929a6d4f14","system_id":"levelo_inurba_marseille","lat":43.29881,"lon":5.39745,"is_reserved":false,"is_disabled":false,"rental_uris":{"android":"levelo://app?vid=fc118f6a-ddd6-4fb4-82f8-69929a6d4f14","ios":"levelo://app?vid=fc118f6a-ddd6-4fb4-82f8-69929a6d4f14"},"vehicle_type_id":"4","last_reported":1767968083,"current_range_meters":4000,"station_id":"ce4bh0h2rcd13ifvqd50","pricing_plan_id":"cebpf4jnsgd1na2vs0mg"},{"bike_id":"617ca6f2-1481-4c5f-a165-87db9947444a","system_id":"levelo_inurba_marseille","lat":43.28483,"lon":5.48386,"is_reserved":false,"is_disabled":false,"rental_uris":{"android":"levelo://app?vid=617ca6f2-1481-4c5f-a165-87db9947444a","ios":"levelo://app?vid=617ca6f2-1481-4c5f-a165-87db9947444a"},"vehicle_type_id":"4","last_reported":1767968083,"current_range_meters":4000,"station_id":"st_d3svhcjqgbts73a3dn0g","pricing_plan_id":"cebpf4jnsgd1na2vs0mg"},{"bike_id":"fa99c4ad-c02a-4d08-a929-1ee6d535f8ed","system_id":"levelo_inurba_marseille","lat":43.27373,"lon":5.36259,"is_reserved":false,"is_disabled":false,"rental_uris":{"android":"levelo://app?vid=fa99c4ad-c02a-4d08-a929-1ee6d535f8ed","ios":"levelo://app?vid=fa99c4ad-c02a-4d08-a929-1ee6d535f8ed"},"vehicle_type_id":"4","last_reported":1767968083,"current_range_meters":4000,"station_id":"ce4bhbh2rcd13ifvqeo0","pricing_plan_id":"cebpf4jnsgd1na2vs0mg"},{"bike_id":"94a6901e-f050-4dbd-8990-b774d466a29a","system_id":"levelo_inurba_marseille","lat":43.32163,"lon":5.36918,"is_reserved":false,"is_disabled":false,"rental_uris":{"android":"levelo://app?vid=94a6901e-f050-4dbd-8990-b774d466a29a","ios":"levelo://app?vid=94a6901e-f050-4dbd-8990-b774d466a29a"},"vehicle_type_id":"4","last_reported":1767968083,"current_range_meters":4000,"station_id":"","pricing_plan_id":"cebpf4jnsgd1na2vs0mg"},{"bike_id":"e412bd1f-9559-40df-baea-da06ff8409ea","system_id":"levelo_inurba_marseille","lat":43.31054,"lon":5.37179,"is_reserved":false,"is_disabled":false,"rental_uris":{"android":"levelo://app?vid=e412bd1f-9559-40df-baea-da06ff8409ea","ios":"levelo://app?vid=e412bd1f-9559-40df-baea-da06ff8409ea"},"vehicle_type_id":"4","last_reported":1767968083,"current_range_meters":4000,"station_id":"st_d4kl2rp97mjs73e7tdfg","pricing_plan_id":"cebpf4jnsgd1na2vs0mg"},{"bike_id":"362f309d-8dd6-4bdf-80f5-648165384441","system_id":"levelo_inurba_marseille","lat":43.246663,"lon":5.381809,"is_reserved":false,"is_disabled":false,"rental_uris":{"android":"levelo://app?vid=362f309d-8dd6-4bdf-80f5-648165384441","ios":"levelo://app?vid=362f309d-8dd6-4bdf-80f5-648165384441"},"vehicle_type_id":"4","last_reported":1767968083,"current_range_meters":4000,"station_id":"ce4bh092rcd13ifvqd20","pricing_plan_id":"cebpf4jnsgd1na2vs0mg"},{"bike_id":"f26dded0-a00c-40ed-a32c-140df00e9c72","system_id":"levelo_inurba_marseille","lat":43.30439,"lon":5.3889,"is_reserved":false,"is_disabled":false,"rental_uris":{"android":"levelo://app?vid=f26dded0-a00c-40ed-a32c-140df00e9c72","ios":"levelo://app?vid=f26dded0-a00c-40ed-a32c-140df00e9c72"},"vehicle_type_id":"4","last_reported":1767968083,"current_range_meters":4000,"station_id":"ce4bgk12rcd13ifvqbi0","pricing_plan_id":"cebpf4jnsgd1na2vs0mg"},{"bike_id":"8f534fd0-7f8b-4187-886f-11cc12338923","system_id":"levelo_inurba_marseille","lat":43.25151,"lon":5.40311,"is_reserved":false,"is_disabled":false,"rental_uris":{"android":"levelo://app?vid=8f534fd0-7f8b-4187-886f-11cc12338923","ios":"levelo://app?vid=8f534fd0-7f8b-4187-886f-11cc12338923"},"vehicle_type_id":"4","last_reported":1767968083,"current_range_meters":4000,"station_id":"","pricing_plan_id":"cebpf4jnsgd1na2vs0mg"},{"bike_id":"79b97f79-7230-4403-8e37-be984ceb75fd","system_id":"levelo_inurba_marseille","lat":43.30531,"lon":5.36693,"is_reserved":false,"is_disabled":false,"rental_uris":{"android":"levelo://app?vid=79b97f79-7230-4403-8e37-be984ceb75fd","ios":"levelo://app?vid=79b97f79-7230-4403-8e37-be984ceb75fd"},"vehicle_type_id":"4","last_reported":1767968083,"current_range_meters":4400,"station_id":"ce4bgrp2rcd13ifvqc9g","pricing_plan_id":"cebpf4jnsgd1na2vs0mg"},{"bike_id":"8b0501c8-11e5-44ca-92c5-eb8f94ba6bf6","system_id":"levelo_inurba_marseille","lat":43.29647,"lon":5.378,"is_reserved":false,"is_disabled":false,"rental_uris":{"android":"levelo://app?vid=8b0501c8-11e5-44ca-92c5-eb8f94ba6bf6","ios":"levelo://app?vid=8b0501c8-11e5-44ca-92c5-eb8f94ba6bf6"},"vehicle_type_id":"4","last_reported":1767968083,"current_range_meters":4400,"station_id":"","pricing_plan_id":"cebpf4jnsgd1na2vs0mg"},{"bike_id":"35bc93a6-6f9c-416a-8b7f-3420f66213d3","system_id":"levelo_inurba_marseille","lat":43.24151,"lon":5.36401,"is_reserved":false,"is_disabled":false,"rental_uris":{"android":"levelo://app?vid=35bc93a6-6f9c-416a-8b7f-3420f66213d3","ios":"levelo://app?vid=35bc93a6-6f9c-416a-8b7f-3420f66213d3"},"vehicle_type_id":"4","last_reported":1767968083,"current_range_meters":4400,"station_id":"cpo36qri1sfpv3e86is0","pricing_plan_id":"cebpf4jnsgd1na2vs0mg"},{"bike_id":"00bf2578-c2e7-4693-bdfc-aa0da096cebc","system_id":"levelo_inurba_marseille","lat":43.2533,"lon":5.42162,"is_reserved":false,"is_disabled":false,"rental_uris":{"android":"levelo://app?vid=00bf2578-c2e7-4693-bdfc-aa0da096cebc","ios":"levelo://app?vid=00bf2578-c2e7-4693-bdfc-aa0da096cebc"},"vehicle_type_id":"4","last_reported":1767968083,"current_range_meters":4400,"station_id":"st_d2m65c5bi1j21697t3ng","pricing_plan_id":"cebpf4jnsgd1na2vs0mg"},{"bike_id":"9490b0a7-c0e4-4b73-bab8-6508165586af","system_id":"levelo_inurba_marseille","lat":43.24953,"lon":5.40505,"is_reserved":false,"is_disabled":true,"rental_uris":{"android":"levelo://app?vid=9490b0a7-c0e4-4b73-bab8-6508165586af","ios":"levelo://app?vid=9490b0a7-c0e4-4b73-bab8-6508165586af"},"vehicle_type_id":"4","last_reported":1767968083,"current_range_meters":4400,"station_id":"st_d2ngiaodas8pm72gd1h0","pricing_plan_id":"cebpf4jnsgd1na2vs0mg"},{"bike_id":"18afe1b5-d903-471c-9912-7f7a549b58cf","system_id":"levelo_inurba_marseille","lat":43.32112,"lon":5.36787,"is_reserved":false,"is_disabled":false,"rental_uris":{"android":"levelo://app?vid=18afe1b5-d903-471c-9912-7f7a549b58cf","ios":"levelo://app?vid=18afe1b5-d903-471c-9912-7f7a549b58cf"},"vehicle_type_id":"4","last_reported":1767968083,"current_range_meters":4400,"station_id":"ce4bhrh2rcd13ifvqhug","pricing_plan_id":"cebpf4jnsgd1na2vs0mg"},{"bike_id":"3b56d12a-74ac-42b6-b026-42e99ca6fb2e","system_id":"levelo_inurba_marseille","lat":43.24663,"lon":5.38167,"is_reserved":false,"is_disabled":false,"rental_uris":{"android":"levelo://app?vid=3b56d12a-74ac-42b6-b026-42e99ca6fb2e","ios":"levelo://app?vid=3b56d12a-74ac-42b6-b026-42e99ca6fb2e"},"vehicle_type_id":"4","last_reported":1767968083,"current_range_meters":4400,"station_id":"ce4bhih2rcd13ifvqfr0","pricing_plan_id":"cebpf4jnsgd1na2vs0mg"},{"bike_id":"1ec94ba1-41d1-4288-80e5-6a131d1cb21d","system_id":"levelo_inurba_marseille","lat":43.253323,"lon":5.421715,"is_reserved":false,"is_disabled":false,"rental_uris":{"android":"levelo://app?vid=1ec94ba1-41d1-4288-80e5-6a131d1cb21d","ios":"levelo://app?vid=1ec94ba1-41d1-4288-80e5-6a131d1cb21d"},"vehicle_type_id":"4","last_reported":1767968083,"current_range_meters":4400,"station_id":"st_d2m65c5bi1j21697t3ng","pricing_plan_id":"cebpf4jnsgd1na2vs0mg"},{"bike_id":"8c90c973-d813-4351-b024-6a22ded6d260","system_id":"levelo_inurba_marseille","lat":43.32367,"lon":5.36756,"is_reserved":false,"is_disabled":false,"rental_uris":{"android":"levelo://app?vid=8c90c973-d813-4351-b024-6a22ded6d260","ios":"levelo://app?vid=8c90c973-d813-4351-b024-6a22ded6d260"},"vehicle_type_id":"4","last_reported":1767968083,"current_range_meters":4400,"station_id":"ce4bhsh2rcd13ifvqi2g","pricing_plan_id":"cebpf4jnsgd1na2vs0mg"},{"bike_id":"7aa6b2fd-a438-4229-9046-b18f7724704d","system_id":"levelo_inurba_marseille","lat":43.287225,"lon":5.379251,"is_reserved":false,"is_disabled":false,"rental_uris":{"android":"levelo://app?vid=7aa6b2fd-a438-4229-9046-b18f7724704d","ios":"levelo://app?vid=7aa6b2fd-a438-4229-9046-b18f7724704d"},"vehicle_type_id":"4","last_reported":1767968083,"current_range_meters":4400,"station_id":"ce4bh9p2rcd13ifvqec0","pricing_plan_id":"cebpf4jnsgd1na2vs0mg"},{"bike_id":"4cb2b77e-aa57-42fd-b30f-98c90e54df96","system_id":"levelo_inurba_marseille","lat":43.29195,"lon":5.35807,"is_reserved":false,"is_disabled":false,"rental_uris":{"android":"levelo://app?vid=4cb2b77e-aa57-42fd-b30f-98c90e54df96","ios":"levelo://app?vid=4cb2b77e-aa57-42fd-b30f-98c90e54df96"},"vehicle_type_id":"4","last_reported":1767968083,"current_range_meters":4400,"station_id":"ce4bhb12rcd13ifvqel0","pricing_plan_id":"cebpf4jnsgd1na2vs0mg"},{"bike_id":"4012ce00-ac2e-455d-a7e9-96fa5e4f97af","system_id":"levelo_inurba_marseille","lat":43.27952,"lon":5.41045,"is_reserved":false,"is_disabled":false,"rental_uris":{"android":"levelo://app?vid=4012ce00-ac2e-455d-a7e9-96fa5e4f97af","ios":"levelo://app?vid=4012ce00-ac2e-455d-a7e9-96fa5e4f97af"},"vehicle_type_id":"4","last_reported":1767968083,"current_range_meters":4400,"station_id":"ce4bhnp2rcd13ifvqh0g","pricing_plan_id":"cebpf4jnsgd1na2vs0mg"},{"bike_id":"df8ff779-90c8-4b65-a5d0-99687c060dae","system_id":"levelo_inurba_marseille","lat":43.32365,"lon":5.36727,"is_reserved":false,"is_disabled":false,"rental_uris":{"android":"levelo://app?vid=df8ff779-90c8-4b65-a5d0-99687c060dae","ios":"levelo://app?vid=df8ff779-90c8-4b65-a5d0-99687c060dae"},"vehicle_type_id":"4","last_reported":1767968083,"current_range_meters":4400,"station_id":"ce4bhsh2rcd13ifvqi2g","pricing_plan_id":"cebpf4jnsgd1na2vs0mg"},{"bike_id":"cf1e2ca1-5b01-4a33-b7c9-e6aa3eb03802","system_id":"levelo_inurba_marseille","lat":43.2763,"lon":5.36107,"is_reserved":false,"is_disabled":false,"rental_uris":{"android":"levelo://app?vid=cf1e2ca1-5b01-4a33-b7c9-e6aa3eb03802","ios":"levelo://app?vid=cf1e2ca1-5b01-4a33-b7c9-e6aa3eb03802"},"vehicle_type_id":"4","last_reported":1767968083,"current_range_meters":4800,"station_id":"ce4bgj92rcd13ifvqbe0","pricing_plan_id":"cebpf4jnsgd1na2vs0mg"},{"bike_id":"e58f24b3-ba31-40e0-a37e-750aa5dbacf9","system_id":"levelo_inurba_marseille","lat":43.33783,"lon":5.37436,"is_reserved":false,"is_disabled":false,"rental_uris":{"android":"levelo://app?vid=e58f24b3-ba31-40e0-a37e-750aa5dbacf9","ios":"levelo://app?vid=e58f24b3-ba31-40e0-a37e-750aa5dbacf9"},"vehicle_type_id":"4","last_reported":1767968083,"current_range_meters":4800,"station_id":"","pricing_plan_id":"cebpf4jnsgd1na2vs0mg"},{"bike_id":"52c545a6-4990-49e9-b5f1-ef579ddc71f3","system_id":"levelo_inurba_marseille","lat":43.25566,"lon":5.38231,"is_reserved":false,"is_disabled":false,"rental_uris":{"android":"levelo://app?vid=52c545a6-4990-49e9-b5f1-ef579ddc71f3","ios":"levelo://app?vid=52c545a6-4990-49e9-b5f1-ef579ddc71f3"},"vehicle_type_id":"4","last_reported":1767968083,"current_range_meters":4800,"station_id":"ce4bhih2rcd13ifvqfs0","pricing_plan_id":"cebpf4jnsgd1na2vs0mg"},{"bike_id":"ce3cc1d9-9ec8-4064-92e2-4915f0b7e6ce","system_id":"levelo_inurba_marseille","lat":43.246288,"lon":5.431434,"is_reserved":false,"is_disabled":false,"rental_uris":{"android":"levelo://app?vid=ce3cc1d9-9ec8-4064-92e2-4915f0b7e6ce","ios":"levelo://app?vid=ce3cc1d9-9ec8-4064-92e2-4915f0b7e6ce"},"vehicle_type_id":"4","last_reported":1767968083,"current_range_meters":4800,"station_id":"st_d2m6c4gdas8pm72e190g","pricing_plan_id":"cebpf4jnsgd1na2vs0mg"},{"bike_id":"a76c3cca-0b55-4bb3-a27f-9c1202d23218","system_id":"levelo_inurba_marseille","lat":43.27834,"lon":5.40713,"is_reserved":false,"is_disabled":false,"rental_uris":{"android":"levelo://app?vid=a76c3cca-0b55-4bb3-a27f-9c1202d23218","ios":"levelo://app?vid=a76c3cca-0b55-4bb3-a27f-9c1202d23218"},"vehicle_type_id":"4","last_reported":1767968083,"current_range_meters":4800,"station_id":"ce4bhnh2rcd13ifvqgtg","pricing_plan_id":"cebpf4jnsgd1na2vs0mg"},{"bike_id":"bb0e890d-0506-44f5-a8d9-b29bad87de2a","system_id":"levelo_inurba_marseille","lat":43.24168,"lon":5.36395,"is_reserved":false,"is_disabled":false,"rental_uris":{"android":"levelo://app?vid=bb0e890d-0506-44f5-a8d9-b29bad87de2a","ios":"levelo://app?vid=bb0e890d-0506-44f5-a8d9-b29bad87de2a"},"vehicle_type_id":"4","last_reported":1767968083,"current_range_meters":4800,"station_id":"cpo36qri1sfpv3e86is0","pricing_plan_id":"cebpf4jnsgd1na2vs0mg"},{"bike_id":"571ac46c-c09d-448b-985a-7beda82b850e","system_id":"levelo_inurba_marseille","lat":43.25333,"lon":5.42129,"is_reserved":false,"is_disabled":false,"rental_uris":{"android":"levelo://app?vid=571ac46c-c09d-448b-985a-7beda82b850e","ios":"levelo://app?vid=571ac46c-c09d-448b-985a-7beda82b850e"},"vehicle_type_id":"4","last_reported":1767968083,"current_range_meters":4800,"station_id":"st_d2m65c5bi1j21697t3ng","pricing_plan_id":"cebpf4jnsgd1na2vs0mg"},{"bike_id":"755fddff-196e-4df8-9ed5-b269f8727526","system_id":"levelo_inurba_marseille","lat":43.27194,"lon":5.40993,"is_reserved":false,"is_disabled":false,"rental_uris":{"android":"levelo://app?vid=755fddff-196e-4df8-9ed5-b269f8727526","ios":"levelo://app?vid=755fddff-196e-4df8-9ed5-b269f8727526"},"vehicle_type_id":"4","last_reported":1767968083,"current_range_meters":4800,"station_id":"ce4bhl12rcd13ifvqgf0","pricing_plan_id":"cebpf4jnsgd1na2vs0mg"},{"bike_id":"96f2b95d-615d-4493-a961-286660150562","system_id":"levelo_inurba_marseille","lat":43.29794,"lon":5.371577,"is_reserved":false,"is_disabled":false,"rental_uris":{"android":"levelo://app?vid=96f2b95d-615d-4493-a961-286660150562","ios":"levelo://app?vid=96f2b95d-615d-4493-a961-286660150562"},"vehicle_type_id":"4","last_reported":1767968083,"current_range_meters":4800,"station_id":"ce4bgop2rcd13ifvqc1g","pricing_plan_id":"cebpf4jnsgd1na2vs0mg"},{"bike_id":"d30bf556-011a-446a-9f84-5eddefbb6c69","system_id":"levelo_inurba_marseille","lat":43.31284,"lon":5.36867,"is_reserved":false,"is_disabled":false,"rental_uris":{"android":"levelo://app?vid=d30bf556-011a-446a-9f84-5eddefbb6c69","ios":"levelo://app?vid=d30bf556-011a-446a-9f84-5eddefbb6c69"},"vehicle_type_id":"4","last_reported":1767968083,"current_range_meters":4800,"station_id":"","pricing_plan_id":"cebpf4jnsgd1na2vs0mg"},{"bike_id":"845bee73-fea8-4b21-9671-09bb9a36c361","system_id":"levelo_inurba_marseille","lat":43.2509,"lon":5.39529,"is_reserved":false,"is_disabled":false,"rental_uris":{"android":"levelo://app?vid=845bee73-fea8-4b21-9671-09bb9a36c361","ios":"levelo://app?vid=845bee73-fea8-4b21-9671-09bb9a36c361"},"vehicle_type_id":"4","last_reported":1767968083,"current_range_meters":4800,"station_id":"ce4bhm12rcd13ifvqgkg","pricing_plan_id":"cebpf4jnsgd1na2vs0mg"},{"bike_id":"94e77782-72e3-40cc-98d0-c9c42f52af7a","system_id":"levelo_inurba_marseille","lat":43.31881,"lon":5.39982,"is_reserved":false,"is_disabled":false,"rental_uris":{"android":"levelo://app?vid=94e77782-72e3-40cc-98d0-c9c42f52af7a","ios":"levelo://app?vid=94e77782-72e3-40cc-98d0-c9c42f52af7a"},"vehicle_type_id":"4","last_reported":1767968083,"current_range_meters":4800,"station_id":"","pricing_plan_id":"cebpf4jnsgd1na2vs0mg"},{"bike_id":"7fd5a544-e845-40f0-9375-24943244f6aa","system_id":"levelo_inurba_marseille","lat":43.26229,"lon":5.40446,"is_reserved":false,"is_disabled":false,"rental_uris":{"android":"levelo://app?vid=7fd5a544-e845-40f0-9375-24943244f6aa","ios":"levelo://app?vid=7fd5a544-e845-40f0-9375-24943244f6aa"},"vehicle_type_id":"4","last_reported":1767968083,"current_range_meters":4800,"station_id":"ce4bhmh2rcd13ifvqgmg","pricing_plan_id":"cebpf4jnsgd1na2vs0mg"},{"bike_id":"c69a2953-8667-448c-84b3-b8ec8eabaa91","system_id":"levelo_inurba_marseille","lat":43.21198,"lon":5.3507,"is_reserved":false,"is_disabled":false,"rental_uris":{"android":"levelo://app?vid=c69a2953-8667-448c-84b3-b8ec8eabaa91","ios":"levelo://app?vid=c69a2953-8667-448c-84b3-b8ec8eabaa91"},"vehicle_type_id":"4","last_reported":1767968083,"current_range_meters":4800,"station_id":"cpo3532slgdg3j2ikp40","pricing_plan_id":"cebpf4jnsgd1na2vs0mg"},{"bike_id":"caa3eb2b-101d-4570-8574-bb58339a02e5","system_id":"levelo_inurba_marseille","lat":43.31539,"lon":5.38034,"is_reserved":false,"is_disabled":false,"rental_uris":{"android":"levelo://app?vid=caa3eb2b-101d-4570-8574-bb58339a02e5","ios":"levelo://app?vid=caa3eb2b-101d-4570-8574-bb58339a02e5"},"vehicle_type_id":"4","last_reported":1767968083,"current_range_meters":4800,"station_id":"ce4bhsp2rcd13ifvqi50","pricing_plan_id":"cebpf4jnsgd1na2vs0mg"},{"bike_id":"9b21fb58-1ca0-4226-bc9d-2eb45c91c4c6","system_id":"levelo_inurba_marseille","lat":43.22553,"lon":5.41619,"is_reserved":false,"is_disabled":false,"rental_uris":{"android":"levelo://app?vid=9b21fb58-1ca0-4226-bc9d-2eb45c91c4c6","ios":"levelo://app?vid=9b21fb58-1ca0-4226-bc9d-2eb45c91c4c6"},"vehicle_type_id":"4","last_reported":1767968083,"current_range_meters":4800,"station_id":"st_d2o4gvlbi1j2169b742g","pricing_plan_id":"cebpf4jnsgd1na2vs0mg"},{"bike_id":"0be2933b-3376-4854-8e8b-e51b6e23ecc1","system_id":"levelo_inurba_marseille","lat":43.292265,"lon":5.360651,"is_reserved":false,"is_disabled":false,"rental_uris":{"android":"levelo://app?vid=0be2933b-3376-4854-8e8b-e51b6e23ecc1","ios":"levelo://app?vid=0be2933b-3376-4854-8e8b-e51b6e23ecc1"},"vehicle_type_id":"4","last_reported":1767968083,"current_range_meters":5600,"station_id":"ce4bhbh2rcd13ifvqeqg","pricing_plan_id":"cebpf4jnsgd1na2vs0mg"},{"bike_id":"528852f0-b3e1-4361-91fd-d35d5de704d7","system_id":"levelo_inurba_marseille","lat":43.25526,"lon":5.37675,"is_reserved":false,"is_disabled":false,"rental_uris":{"android":"levelo://app?vid=528852f0-b3e1-4361-91fd-d35d5de704d7","ios":"levelo://app?vid=528852f0-b3e1-4361-91fd-d35d5de704d7"},"vehicle_type_id":"4","last_reported":1767968083,"current_range_meters":5600,"station_id":"ce4bhh12rcd13ifvqff0","pricing_plan_id":"cebpf4jnsgd1na2vs0mg"},{"bike_id":"07ce38ef-b77b-4e60-8d32-d85f5b3b47f2","system_id":"levelo_inurba_marseille","lat":43.323583,"lon":5.367305,"is_reserved":false,"is_disabled":false,"rental_uris":{"android":"levelo://app?vid=07ce38ef-b77b-4e60-8d32-d85f5b3b47f2","ios":"levelo://app?vid=07ce38ef-b77b-4e60-8d32-d85f5b3b47f2"},"vehicle_type_id":"4","last_reported":1767968083,"current_range_meters":5600,"station_id":"ce4bhsh2rcd13ifvqi2g","pricing_plan_id":"cebpf4jnsgd1na2vs0mg"},{"bike_id":"6df19930-e3eb-4eb3-9a45-a01da3418078","system_id":"levelo_inurba_marseille","lat":43.2583,"lon":5.39432,"is_reserved":false,"is_disabled":false,"rental_uris":{"android":"levelo://app?vid=6df19930-e3eb-4eb3-9a45-a01da3418078","ios":"levelo://app?vid=6df19930-e3eb-4eb3-9a45-a01da3418078"},"vehicle_type_id":"4","last_reported":1767968083,"current_range_meters":5600,"station_id":"ce4bhip2rcd13ifvqft0","pricing_plan_id":"cebpf4jnsgd1na2vs0mg"},{"bike_id":"63cbb83b-9220-4b62-bc95-6ea521362b88","system_id":"levelo_inurba_marseille","lat":43.27218,"lon":5.39182,"is_reserved":false,"is_disabled":false,"rental_uris":{"android":"levelo://app?vid=63cbb83b-9220-4b62-bc95-6ea521362b88","ios":"levelo://app?vid=63cbb83b-9220-4b62-bc95-6ea521362b88"},"vehicle_type_id":"4","last_reported":1767968083,"current_range_meters":5600,"station_id":"ce4bhhp2rcd13ifvqfm0","pricing_plan_id":"cebpf4jnsgd1na2vs0mg"},{"bike_id":"c3c1f2ac-afb8-4ee3-8aa5-6687f610d70e","system_id":"levelo_inurba_marseille","lat":43.29569,"lon":5.37604,"is_reserved":false,"is_disabled":false,"rental_uris":{"android":"levelo://app?vid=c3c1f2ac-afb8-4ee3-8aa5-6687f610d70e","ios":"levelo://app?vid=c3c1f2ac-afb8-4ee3-8aa5-6687f610d70e"},"vehicle_type_id":"4","last_reported":1767968083,"current_range_meters":5600,"station_id":"","pricing_plan_id":"cebpf4jnsgd1na2vs0mg"},{"bike_id":"ff627822-cab3-49d3-9044-a5bb00dd8624","system_id":"levelo_inurba_marseille","lat":43.30378,"lon":5.42497,"is_reserved":false,"is_disabled":false,"rental_uris":{"android":"levelo://app?vid=ff627822-cab3-49d3-9044-a5bb00dd8624","ios":"levelo://app?vid=ff627822-cab3-49d3-9044-a5bb00dd8624"},"vehicle_type_id":"4","last_reported":1767968083,"current_range_meters":5600,"station_id":"ce4bhoh2rcd13ifvqh6g","pricing_plan_id":"cebpf4jnsgd1na2vs0mg"},{"bike_id":"577b404b-63b1-4b8e-82e8-29162d5c26c7","system_id":"levelo_inurba_marseille","lat":43.3254,"lon":5.3651,"is_reserved":false,"is_disabled":false,"rental_uris":{"android":"levelo://app?vid=577b404b-63b1-4b8e-82e8-29162d5c26c7","ios":"levelo://app?vid=577b404b-63b1-4b8e-82e8-29162d5c26c7"},"vehicle_type_id":"4","last_reported":1767968083,"current_range_meters":5600,"station_id":"","pricing_plan_id":"cebpf4jnsgd1na2vs0mg"},{"bike_id":"31447a0e-5f20-40ed-81c7-81b3e7eb8db6","system_id":"levelo_inurba_marseille","lat":43.31369,"lon":5.38604,"is_reserved":false,"is_disabled":false,"rental_uris":{"android":"levelo://app?vid=31447a0e-5f20-40ed-81c7-81b3e7eb8db6","ios":"levelo://app?vid=31447a0e-5f20-40ed-81c7-81b3e7eb8db6"},"vehicle_type_id":"4","last_reported":1767968083,"current_range_meters":5600,"station_id":"","pricing_plan_id":"cebpf4jnsgd1na2vs0mg"},{"bike_id":"57997491-6d3e-482c-9d76-5c92688e72f6","system_id":"levelo_inurba_marseille","lat":43.30473,"lon":5.37902,"is_reserved":false,"is_disabled":false,"rental_uris":{"android":"levelo://app?vid=57997491-6d3e-482c-9d76-5c92688e72f6","ios":"levelo://app?vid=57997491-6d3e-482c-9d76-5c92688e72f6"},"vehicle_type_id":"4","last_reported":1767968083,"current_range_meters":5600,"station_id":"ce4bgup2rcd13ifvqcn0","pricing_plan_id":"cebpf4jnsgd1na2vs0mg"},{"bike_id":"cc37263c-1f2b-4059-a4a9-7faa4b647039","system_id":"levelo_inurba_marseille","lat":43.28711,"lon":5.37931,"is_reserved":false,"is_disabled":false,"rental_uris":{"android":"levelo://app?vid=cc37263c-1f2b-4059-a4a9-7faa4b647039","ios":"levelo://app?vid=cc37263c-1f2b-4059-a4a9-7faa4b647039"},"vehicle_type_id":"4","last_reported":1767968083,"current_range_meters":5600,"station_id":"ce4bh9p2rcd13ifvqec0","pricing_plan_id":"cebpf4jnsgd1na2vs0mg"},{"bike_id":"64d28504-5bc7-4fb2-bc9f-8415bd3702e8","system_id":"levelo_inurba_marseille","lat":43.295741,"lon":5.3752,"is_reserved":false,"is_disabled":false,"rental_uris":{"android":"levelo://app?vid=64d28504-5bc7-4fb2-bc9f-8415bd3702e8","ios":"levelo://app?vid=64d28504-5bc7-4fb2-bc9f-8415bd3702e8"},"vehicle_type_id":"4","last_reported":1767968083,"current_range_meters":5600,"station_id":"ce4bgh92rcd13ifvqb50","pricing_plan_id":"cebpf4jnsgd1na2vs0mg"},{"bike_id":"34539991-f53b-43a5-8c77-854b5607c8a3","system_id":"levelo_inurba_marseille","lat":43.279256,"lon":5.395733,"is_reserved":false,"is_disabled":false,"rental_uris":{"android":"levelo://app?vid=34539991-f53b-43a5-8c77-854b5607c8a3","ios":"levelo://app?vid=34539991-f53b-43a5-8c77-854b5607c8a3"},"vehicle_type_id":"4","last_reported":1767968083,"current_range_meters":5600,"station_id":"ce4bhf92rcd13ifvqf40","pricing_plan_id":"cebpf4jnsgd1na2vs0mg"},{"bike_id":"d564640e-8980-4d50-9141-d01b2d41a726","system_id":"levelo_inurba_marseille","lat":43.24136,"lon":5.3644,"is_reserved":false,"is_disabled":false,"rental_uris":{"android":"levelo://app?vid=d564640e-8980-4d50-9141-d01b2d41a726","ios":"levelo://app?vid=d564640e-8980-4d50-9141-d01b2d41a726"},"vehicle_type_id":"4","last_reported":1767968083,"current_range_meters":5600,"station_id":"cpo36qri1sfpv3e86is0","pricing_plan_id":"cebpf4jnsgd1na2vs0mg"},{"bike_id":"748e6a5e-97a9-489d-8fdc-20f62045411a","system_id":"levelo_inurba_marseille","lat":43.289009,"lon":5.396859,"is_reserved":false,"is_disabled":false,"rental_uris":{"android":"levelo://app?vid=748e6a5e-97a9-489d-8fdc-20f62045411a","ios":"levelo://app?vid=748e6a5e-97a9-489d-8fdc-20f62045411a"},"vehicle_type_id":"4","last_reported":1767968083,"current_range_meters":5600,"station_id":"","pricing_plan_id":"cebpf4jnsgd1na2vs0mg"},{"bike_id":"8ff52944-c36c-46ee-b2b9-242f429aa86f","system_id":"levelo_inurba_marseille","lat":43.246657,"lon":5.381697,"is_reserved":false,"is_disabled":false,"rental_uris":{"android":"levelo://app?vid=8ff52944-c36c-46ee-b2b9-242f429aa86f","ios":"levelo://app?vid=8ff52944-c36c-46ee-b2b9-242f429aa86f"},"vehicle_type_id":"4","last_reported":1767968083,"current_range_meters":5600,"station_id":"","pricing_plan_id":"cebpf4jnsgd1na2vs0mg"},{"bike_id":"a947241a-d3af-4302-a18c-3fd572da3e9b","system_id":"levelo_inurba_marseille","lat":43.26019,"lon":5.37574,"is_reserved":false,"is_disabled":false,"rental_uris":{"android":"levelo://app?vid=a947241a-d3af-4302-a18c-3fd572da3e9b","ios":"levelo://app?vid=a947241a-d3af-4302-a18c-3fd572da3e9b"},"vehicle_type_id":"4","last_reported":1767968083,"current_range_meters":6000,"station_id":"ce4bhgh2rcd13ifvqfa0","pricing_plan_id":"cebpf4jnsgd1na2vs0mg"},{"bike_id":"57aa5ac2-23db-4768-b571-1d1bb04178da","system_id":"levelo_inurba_marseille","lat":43.31058,"lon":5.37189,"is_reserved":false,"is_disabled":false,"rental_uris":{"android":"levelo://app?vid=57aa5ac2-23db-4768-b571-1d1bb04178da","ios":"levelo://app?vid=57aa5ac2-23db-4768-b571-1d1bb04178da"},"vehicle_type_id":"4","last_reported":1767968083,"current_range_meters":6000,"station_id":"st_d4kl2rp97mjs73e7tdfg","pricing_plan_id":"cebpf4jnsgd1na2vs0mg"},{"bike_id":"73cf9b17-5b19-458b-a83f-a386ca2d503d","system_id":"levelo_inurba_marseille","lat":43.3082,"lon":5.38143,"is_reserved":false,"is_disabled":false,"rental_uris":{"android":"levelo://app?vid=73cf9b17-5b19-458b-a83f-a386ca2d503d","ios":"levelo://app?vid=73cf9b17-5b19-458b-a83f-a386ca2d503d"},"vehicle_type_id":"4","last_reported":1767968083,"current_range_meters":6000,"station_id":"ce4bgt12rcd13ifvqce0","pricing_plan_id":"cebpf4jnsgd1na2vs0mg"},{"bike_id":"b2a3da8f-bf56-4eb9-9359-d00614059d44","system_id":"levelo_inurba_marseille","lat":43.29063,"lon":5.38089,"is_reserved":false,"is_disabled":false,"rental_uris":{"android":"levelo://app?vid=b2a3da8f-bf56-4eb9-9359-d00614059d44","ios":"levelo://app?vid=b2a3da8f-bf56-4eb9-9359-d00614059d44"},"vehicle_type_id":"4","last_reported":1767968083,"current_range_meters":6000,"station_id":"","pricing_plan_id":"cebpf4jnsgd1na2vs0mg"},{"bike_id":"7017533d-0e6f-4a91-bdf9-4569e8a4b13c","system_id":"levelo_inurba_marseille","lat":43.30975,"lon":5.39041,"is_reserved":false,"is_disabled":false,"rental_uris":{"android":"levelo://app?vid=7017533d-0e6f-4a91-bdf9-4569e8a4b13c","ios":"levelo://app?vid=7017533d-0e6f-4a91-bdf9-4569e8a4b13c"},"vehicle_type_id":"4","last_reported":1767968083,"current_range_meters":6000,"station_id":"ce4bgup2rcd13ifvqco0","pricing_plan_id":"cebpf4jnsgd1na2vs0mg"},{"bike_id":"bf5bb460-7461-4f2f-be04-05f7ad0bed37","system_id":"levelo_inurba_marseille","lat":43.301798,"lon":5.366255,"is_reserved":false,"is_disabled":false,"rental_uris":{"android":"levelo://app?vid=bf5bb460-7461-4f2f-be04-05f7ad0bed37","ios":"levelo://app?vid=bf5bb460-7461-4f2f-be04-05f7ad0bed37"},"vehicle_type_id":"4","last_reported":1767968083,"current_range_meters":6000,"station_id":"ce4bgrh2rcd13ifvqc8g","pricing_plan_id":"cebpf4jnsgd1na2vs0mg"},{"bike_id":"cb54f6e5-9911-4432-98fa-33b8ae0da364","system_id":"levelo_inurba_marseille","lat":43.26535,"lon":5.39007,"is_reserved":false,"is_disabled":false,"rental_uris":{"android":"levelo://app?vid=cb54f6e5-9911-4432-98fa-33b8ae0da364","ios":"levelo://app?vid=cb54f6e5-9911-4432-98fa-33b8ae0da364"},"vehicle_type_id":"4","last_reported":1767968083,"current_range_meters":6000,"station_id":"ce4bhe12rcd13ifvqf30","pricing_plan_id":"cebpf4jnsgd1na2vs0mg"},{"bike_id":"0d6a9a04-1891-48de-b8dc-a5fb353d9b7e","system_id":"levelo_inurba_marseille","lat":43.28975,"lon":5.35804,"is_reserved":false,"is_disabled":false,"rental_uris":{"android":"levelo://app?vid=0d6a9a04-1891-48de-b8dc-a5fb353d9b7e","ios":"levelo://app?vid=0d6a9a04-1891-48de-b8dc-a5fb353d9b7e"},"vehicle_type_id":"4","last_reported":1767968083,"current_range_meters":6000,"station_id":"","pricing_plan_id":"cebpf4jnsgd1na2vs0mg"},{"bike_id":"c6c13c60-a4a2-4874-91a0-6e6a61fb368b","system_id":"levelo_inurba_marseille","lat":43.25933,"lon":5.40915,"is_reserved":false,"is_disabled":false,"rental_uris":{"android":"levelo://app?vid=c6c13c60-a4a2-4874-91a0-6e6a61fb368b","ios":"levelo://app?vid=c6c13c60-a4a2-4874-91a0-6e6a61fb368b"},"vehicle_type_id":"4","last_reported":1767968083,"current_range_meters":6000,"station_id":"ce4bhm92rcd13ifvqglg","pricing_plan_id":"cebpf4jnsgd1na2vs0mg"},{"bike_id":"e4b543e4-7198-4112-93ae-6c25b36bd4a3","system_id":"levelo_inurba_marseille","lat":43.23778,"lon":5.3663,"is_reserved":false,"is_disabled":false,"rental_uris":{"android":"levelo://app?vid=e4b543e4-7198-4112-93ae-6c25b36bd4a3","ios":"levelo://app?vid=e4b543e4-7198-4112-93ae-6c25b36bd4a3"},"vehicle_type_id":"4","last_reported":1767968083,"current_range_meters":6000,"station_id":"st_d3nk18o9ro0c73en2l3g","pricing_plan_id":"cebpf4jnsgd1na2vs0mg"},{"bike_id":"8e382ee6-9a7c-440d-8f46-e44fe39f4082","system_id":"levelo_inurba_marseille","lat":43.24389,"lon":5.37055,"is_reserved":false,"is_disabled":false,"rental_uris":{"android":"levelo://app?vid=8e382ee6-9a7c-440d-8f46-e44fe39f4082","ios":"levelo://app?vid=8e382ee6-9a7c-440d-8f46-e44fe39f4082"},"vehicle_type_id":"4","last_reported":1767968083,"current_range_meters":6000,"station_id":"ce4bhhh2rcd13ifvqfk0","pricing_plan_id":"cebpf4jnsgd1na2vs0mg"},{"bike_id":"ee6e2cb0-3438-450d-a7e5-bdd8563f0fbe","system_id":"levelo_inurba_marseille","lat":43.24816,"lon":5.37464,"is_reserved":false,"is_disabled":false,"rental_uris":{"android":"levelo://app?vid=ee6e2cb0-3438-450d-a7e5-bdd8563f0fbe","ios":"levelo://app?vid=ee6e2cb0-3438-450d-a7e5-bdd8563f0fbe"},"vehicle_type_id":"4","last_reported":1767968083,"current_range_meters":6000,"station_id":"ce4bhgh2rcd13ifvqfb0","pricing_plan_id":"cebpf4jnsgd1na2vs0mg"},{"bike_id":"e42a41f3-8542-4969-aafc-0406547fa5b6","system_id":"levelo_inurba_marseille","lat":43.292706,"lon":5.384443,"is_reserved":false,"is_disabled":false,"rental_uris":{"android":"levelo://app?vid=e42a41f3-8542-4969-aafc-0406547fa5b6","ios":"levelo://app?vid=e42a41f3-8542-4969-aafc-0406547fa5b6"},"vehicle_type_id":"4","last_reported":1767968083,"current_range_meters":6000,"station_id":"ce4bh692rcd13ifvqea0","pricing_plan_id":"cebpf4jnsgd1na2vs0mg"},{"bike_id":"d59df864-f0fd-46f6-b15e-28aeab0127ad","system_id":"levelo_inurba_marseille","lat":43.29972,"lon":5.38503,"is_reserved":false,"is_disabled":false,"rental_uris":{"android":"levelo://app?vid=d59df864-f0fd-46f6-b15e-28aeab0127ad","ios":"levelo://app?vid=d59df864-f0fd-46f6-b15e-28aeab0127ad"},"vehicle_type_id":"4","last_reported":1767968083,"current_range_meters":6000,"station_id":"ce4bgj92rcd13ifvqbd0","pricing_plan_id":"cebpf4jnsgd1na2vs0mg"},{"bike_id":"203901a8-7796-462c-b8ca-ce985701687f","system_id":"levelo_inurba_marseille","lat":43.2802,"lon":5.399,"is_reserved":false,"is_disabled":false,"rental_uris":{"android":"levelo://app?vid=203901a8-7796-462c-b8ca-ce985701687f","ios":"levelo://app?vid=203901a8-7796-462c-b8ca-ce985701687f"},"vehicle_type_id":"4","last_reported":1767968083,"current_range_meters":6000,"station_id":"","pricing_plan_id":"cebpf4jnsgd1na2vs0mg"},{"bike_id":"f8739a78-ccd5-4f03-b134-bacebcc9d5a7","system_id":"levelo_inurba_marseille","lat":43.302108,"lon":5.394295,"is_reserved":false,"is_disabled":false,"rental_uris":{"android":"levelo://app?vid=f8739a78-ccd5-4f03-b134-bacebcc9d5a7","ios":"levelo://app?vid=f8739a78-ccd5-4f03-b134-bacebcc9d5a7"},"vehicle_type_id":"4","last_reported":1767968083,"current_range_meters":6400,"station_id":"ce4bh0p2rcd13ifvqd70","pricing_plan_id":"cebpf4jnsgd1na2vs0mg"},{"bike_id":"30766c8d-7152-4f81-b59b-1c1a2aaa508d","system_id":"levelo_inurba_marseille","lat":43.30079,"lon":5.36695,"is_reserved":false,"is_disabled":false,"rental_uris":{"android":"levelo://app?vid=30766c8d-7152-4f81-b59b-1c1a2aaa508d","ios":"levelo://app?vid=30766c8d-7152-4f81-b59b-1c1a2aaa508d"},"vehicle_type_id":"4","last_reported":1767968083,"current_range_meters":6400,"station_id":"","pricing_plan_id":"cebpf4jnsgd1na2vs0mg"},{"bike_id":"0e7e919c-83a3-45be-90bf-dcf29db4b4ea","system_id":"levelo_inurba_marseille","lat":43.32343,"lon":5.36721,"is_reserved":false,"is_disabled":false,"rental_uris":{"android":"levelo://app?vid=0e7e919c-83a3-45be-90bf-dcf29db4b4ea","ios":"levelo://app?vid=0e7e919c-83a3-45be-90bf-dcf29db4b4ea"},"vehicle_type_id":"4","last_reported":1767968083,"current_range_meters":6400,"station_id":"ce4bhsh2rcd13ifvqi2g","pricing_plan_id":"cebpf4jnsgd1na2vs0mg"},{"bike_id":"939c67ce-6377-4aee-8e6c-8ad0908b5630","system_id":"levelo_inurba_marseille","lat":43.25352,"lon":5.42171,"is_reserved":false,"is_disabled":false,"rental_uris":{"android":"levelo://app?vid=939c67ce-6377-4aee-8e6c-8ad0908b5630","ios":"levelo://app?vid=939c67ce-6377-4aee-8e6c-8ad0908b5630"},"vehicle_type_id":"4","last_reported":1767968083,"current_range_meters":6400,"station_id":"st_d2m65c5bi1j21697t3ng","pricing_plan_id":"cebpf4jnsgd1na2vs0mg"},{"bike_id":"7936cf18-a162-4967-878a-dc25ba7ee2c5","system_id":"levelo_inurba_marseille","lat":43.246595,"lon":5.381689,"is_reserved":false,"is_disabled":false,"rental_uris":{"android":"levelo://app?vid=7936cf18-a162-4967-878a-dc25ba7ee2c5","ios":"levelo://app?vid=7936cf18-a162-4967-878a-dc25ba7ee2c5"},"vehicle_type_id":"4","last_reported":1767968083,"current_range_meters":6400,"station_id":"ce4bhih2rcd13ifvqfr0","pricing_plan_id":"cebpf4jnsgd1na2vs0mg"},{"bike_id":"afbfc22c-0163-4e0f-bc46-9fcb146cdab6","system_id":"levelo_inurba_marseille","lat":43.26946,"lon":5.40242,"is_reserved":false,"is_disabled":false,"rental_uris":{"android":"levelo://app?vid=afbfc22c-0163-4e0f-bc46-9fcb146cdab6","ios":"levelo://app?vid=afbfc22c-0163-4e0f-bc46-9fcb146cdab6"},"vehicle_type_id":"4","last_reported":1767968083,"current_range_meters":6400,"station_id":"cjm6bp8fraef2m0cb0m0","pricing_plan_id":"cebpf4jnsgd1na2vs0mg"},{"bike_id":"65655781-3bd6-4201-abbd-82e91410d3ca","system_id":"levelo_inurba_marseille","lat":43.296317,"lon":5.406065,"is_reserved":false,"is_disabled":false,"rental_uris":{"android":"levelo://app?vid=65655781-3bd6-4201-abbd-82e91410d3ca","ios":"levelo://app?vid=65655781-3bd6-4201-abbd-82e91410d3ca"},"vehicle_type_id":"4","last_reported":1767968083,"current_range_meters":6400,"station_id":"ce4bh0h2rcd13ifvqd60","pricing_plan_id":"cebpf4jnsgd1na2vs0mg"},{"bike_id":"b7dddc8e-ff5d-458a-a8d3-88dc4e34e930","system_id":"levelo_inurba_marseille","lat":43.27369,"lon":5.36237,"is_reserved":false,"is_disabled":false,"rental_uris":{"android":"levelo://app?vid=b7dddc8e-ff5d-458a-a8d3-88dc4e34e930","ios":"levelo://app?vid=b7dddc8e-ff5d-458a-a8d3-88dc4e34e930"},"vehicle_type_id":"4","last_reported":1767968083,"current_range_meters":6400,"station_id":"ce4bhbh2rcd13ifvqeo0","pricing_plan_id":"cebpf4jnsgd1na2vs0mg"},{"bike_id":"708fa082-0c9b-4653-ac5f-bf6a01c9e532","system_id":"levelo_inurba_marseille","lat":43.25936,"lon":5.40878,"is_reserved":false,"is_disabled":false,"rental_uris":{"android":"levelo://app?vid=708fa082-0c9b-4653-ac5f-bf6a01c9e532","ios":"levelo://app?vid=708fa082-0c9b-4653-ac5f-bf6a01c9e532"},"vehicle_type_id":"4","last_reported":1767968083,"current_range_meters":6400,"station_id":"ce4bhm92rcd13ifvqglg","pricing_plan_id":"cebpf4jnsgd1na2vs0mg"},{"bike_id":"18afa7e5-a060-43b9-bd3e-ab224bbb7669","system_id":"levelo_inurba_marseille","lat":43.28856,"lon":5.42523,"is_reserved":false,"is_disabled":false,"rental_uris":{"android":"levelo://app?vid=18afa7e5-a060-43b9-bd3e-ab224bbb7669","ios":"levelo://app?vid=18afa7e5-a060-43b9-bd3e-ab224bbb7669"},"vehicle_type_id":"4","last_reported":1767968083,"current_range_meters":6400,"station_id":"st_d3b462108ojc7389ooeg","pricing_plan_id":"cebpf4jnsgd1na2vs0mg"},{"bike_id":"73311dd9-ce76-4424-880c-4c44988d4f09","system_id":"levelo_inurba_marseille","lat":43.249608,"lon":5.40503,"is_reserved":false,"is_disabled":false,"rental_uris":{"android":"levelo://app?vid=73311dd9-ce76-4424-880c-4c44988d4f09","ios":"levelo://app?vid=73311dd9-ce76-4424-880c-4c44988d4f09"},"vehicle_type_id":"4","last_reported":1767968083,"current_range_meters":6400,"station_id":"st_d2ngiaodas8pm72gd1h0","pricing_plan_id":"cebpf4jnsgd1na2vs0mg"},{"bike_id":"7873a432-75ba-46ba-a34c-4dc6ef756fe4","system_id":"levelo_inurba_marseille","lat":43.337444,"lon":5.374475,"is_reserved":false,"is_disabled":false,"rental_uris":{"android":"levelo://app?vid=7873a432-75ba-46ba-a34c-4dc6ef756fe4","ios":"levelo://app?vid=7873a432-75ba-46ba-a34c-4dc6ef756fe4"},"vehicle_type_id":"4","last_reported":1767968083,"current_range_meters":6400,"station_id":"","pricing_plan_id":"cebpf4jnsgd1na2vs0mg"},{"bike_id":"7a2db32e-cf3a-409e-bb36-047869209912","system_id":"levelo_inurba_marseille","lat":43.26216,"lon":5.37443,"is_reserved":false,"is_disabled":false,"rental_uris":{"android":"levelo://app?vid=7a2db32e-cf3a-409e-bb36-047869209912","ios":"levelo://app?vid=7a2db32e-cf3a-409e-bb36-047869209912"},"vehicle_type_id":"4","last_reported":1767968083,"current_range_meters":6400,"station_id":"ce4bhgp2rcd13ifvqfc0","pricing_plan_id":"cebpf4jnsgd1na2vs0mg"},{"bike_id":"0f77e299-92e2-4466-8bc3-8f804d19cd38","system_id":"levelo_inurba_marseille","lat":43.29574,"lon":5.37518,"is_reserved":false,"is_disabled":false,"rental_uris":{"android":"levelo://app?vid=0f77e299-92e2-4466-8bc3-8f804d19cd38","ios":"levelo://app?vid=0f77e299-92e2-4466-8bc3-8f804d19cd38"},"vehicle_type_id":"4","last_reported":1767968083,"current_range_meters":6400,"station_id":"ce4bgh92rcd13ifvqb50","pricing_plan_id":"cebpf4jnsgd1na2vs0mg"},{"bike_id":"db48f5d2-782d-4526-96cf-9084f926b628","system_id":"levelo_inurba_marseille","lat":43.30733,"lon":5.42443,"is_reserved":false,"is_disabled":false,"rental_uris":{"android":"levelo://app?vid=db48f5d2-782d-4526-96cf-9084f926b628","ios":"levelo://app?vid=db48f5d2-782d-4526-96cf-9084f926b628"},"vehicle_type_id":"4","last_reported":1767968083,"current_range_meters":6400,"station_id":"st_cvj6ca6bvosntc0bfgr0","pricing_plan_id":"cebpf4jnsgd1na2vs0mg"},{"bike_id":"49693813-6422-4c0b-883f-2f9444f40ff2","system_id":"levelo_inurba_marseille","lat":43.25489,"lon":5.3765,"is_reserved":false,"is_disabled":false,"rental_uris":{"android":"levelo://app?vid=49693813-6422-4c0b-883f-2f9444f40ff2","ios":"levelo://app?vid=49693813-6422-4c0b-883f-2f9444f40ff2"},"vehicle_type_id":"4","last_reported":1767968083,"current_range_meters":6400,"station_id":"ce4bhh12rcd13ifvqff0","pricing_plan_id":"cebpf4jnsgd1na2vs0mg"},{"bike_id":"84be322d-3f5a-42b3-b4ff-9332fdae0ce8","system_id":"levelo_inurba_marseille","lat":43.33151,"lon":5.37699,"is_reserved":false,"is_disabled":false,"rental_uris":{"android":"levelo://app?vid=84be322d-3f5a-42b3-b4ff-9332fdae0ce8","ios":"levelo://app?vid=84be322d-3f5a-42b3-b4ff-9332fdae0ce8"},"vehicle_type_id":"4","last_reported":1767968083,"current_range_meters":6400,"station_id":"st_d46cu089ee8s73dldbu0","pricing_plan_id":"cebpf4jnsgd1na2vs0mg"},{"bike_id":"85ec619e-5ea0-4fca-a7de-dd41384f5c43","system_id":"levelo_inurba_marseille","lat":43.26575,"lon":5.37268,"is_reserved":false,"is_disabled":false,"rental_uris":{"android":"levelo://app?vid=85ec619e-5ea0-4fca-a7de-dd41384f5c43","ios":"levelo://app?vid=85ec619e-5ea0-4fca-a7de-dd41384f5c43"},"vehicle_type_id":"4","last_reported":1767968083,"current_range_meters":6400,"station_id":"ce4bhg12rcd13ifvqf70","pricing_plan_id":"cebpf4jnsgd1na2vs0mg"},{"bike_id":"130281f8-4ff6-4377-934a-d51b59ac95ed","system_id":"levelo_inurba_marseille","lat":43.25119,"lon":5.40317,"is_reserved":false,"is_disabled":false,"rental_uris":{"android":"levelo://app?vid=130281f8-4ff6-4377-934a-d51b59ac95ed","ios":"levelo://app?vid=130281f8-4ff6-4377-934a-d51b59ac95ed"},"vehicle_type_id":"4","last_reported":1767968083,"current_range_meters":6400,"station_id":"ce4bhlh2rcd13ifvqgig","pricing_plan_id":"cebpf4jnsgd1na2vs0mg"},{"bike_id":"565afa6a-1e1c-486d-9add-b33d272ea1a5","system_id":"levelo_inurba_marseille","lat":43.29938,"lon":5.36518,"is_reserved":false,"is_disabled":false,"rental_uris":{"android":"levelo://app?vid=565afa6a-1e1c-486d-9add-b33d272ea1a5","ios":"levelo://app?vid=565afa6a-1e1c-486d-9add-b33d272ea1a5"},"vehicle_type_id":"4","last_reported":1767968083,"current_range_meters":6400,"station_id":"ce4bgm92rcd13ifvqbr0","pricing_plan_id":"cebpf4jnsgd1na2vs0mg"},{"bike_id":"0e99465e-2bb5-488d-b976-edf09fa35009","system_id":"levelo_inurba_marseille","lat":43.24991,"lon":5.38924,"is_reserved":false,"is_disabled":false,"rental_uris":{"android":"levelo://app?vid=0e99465e-2bb5-488d-b976-edf09fa35009","ios":"levelo://app?vid=0e99465e-2bb5-488d-b976-edf09fa35009"},"vehicle_type_id":"4","last_reported":1767968083,"current_range_meters":6400,"station_id":"ce4bhgp2rcd13ifvqfd0","pricing_plan_id":"cebpf4jnsgd1na2vs0mg"},{"bike_id":"4e41aa3b-9162-476b-82f4-857ae55d1a75","system_id":"levelo_inurba_marseille","lat":43.3235,"lon":5.3673,"is_reserved":false,"is_disabled":false,"rental_uris":{"android":"levelo://app?vid=4e41aa3b-9162-476b-82f4-857ae55d1a75","ios":"levelo://app?vid=4e41aa3b-9162-476b-82f4-857ae55d1a75"},"vehicle_type_id":"4","last_reported":1767968083,"current_range_meters":6400,"station_id":"ce4bhsh2rcd13ifvqi2g","pricing_plan_id":"cebpf4jnsgd1na2vs0mg"},{"bike_id":"0f003947-35f3-407d-841f-7fac78f83875","system_id":"levelo_inurba_marseille","lat":43.279907,"lon":5.416701,"is_reserved":false,"is_disabled":false,"rental_uris":{"android":"levelo://app?vid=0f003947-35f3-407d-841f-7fac78f83875","ios":"levelo://app?vid=0f003947-35f3-407d-841f-7fac78f83875"},"vehicle_type_id":"4","last_reported":1767968083,"current_range_meters":6400,"station_id":"ce4bho12rcd13ifvqh1g","pricing_plan_id":"cebpf4jnsgd1na2vs0mg"},{"bike_id":"9a84455d-66b0-4d3f-8c81-d289293761d8","system_id":"levelo_inurba_marseille","lat":43.24175,"lon":5.36422,"is_reserved":false,"is_disabled":false,"rental_uris":{"android":"levelo://app?vid=9a84455d-66b0-4d3f-8c81-d289293761d8","ios":"levelo://app?vid=9a84455d-66b0-4d3f-8c81-d289293761d8"},"vehicle_type_id":"4","last_reported":1767968083,"current_range_meters":6400,"station_id":"cpo36qri1sfpv3e86is0","pricing_plan_id":"cebpf4jnsgd1na2vs0mg"},{"bike_id":"3d352ed6-b93d-4fde-8440-e8aa3fe7095f","system_id":"levelo_inurba_marseille","lat":43.29042,"lon":5.39969,"is_reserved":false,"is_disabled":false,"rental_uris":{"android":"levelo://app?vid=3d352ed6-b93d-4fde-8440-e8aa3fe7095f","ios":"levelo://app?vid=3d352ed6-b93d-4fde-8440-e8aa3fe7095f"},"vehicle_type_id":"4","last_reported":1767968083,"current_range_meters":6800,"station_id":"ce4bh392rcd13ifvqdm0","pricing_plan_id":"cebpf4jnsgd1na2vs0mg"},{"bike_id":"b64e452a-bec0-47a7-9fd3-b6c2486866f5","system_id":"levelo_inurba_marseille","lat":43.284736,"lon":5.483978,"is_reserved":false,"is_disabled":false,"rental_uris":{"android":"levelo://app?vid=b64e452a-bec0-47a7-9fd3-b6c2486866f5","ios":"levelo://app?vid=b64e452a-bec0-47a7-9fd3-b6c2486866f5"},"vehicle_type_id":"4","last_reported":1767968083,"current_range_meters":6800,"station_id":"","pricing_plan_id":"cebpf4jnsgd1na2vs0mg"},{"bike_id":"b4702897-d3f0-43ef-959b-855897d2b5ad","system_id":"levelo_inurba_marseille","lat":43.26548,"lon":5.37292,"is_reserved":false,"is_disabled":false,"rental_uris":{"android":"levelo://app?vid=b4702897-d3f0-43ef-959b-855897d2b5ad","ios":"levelo://app?vid=b4702897-d3f0-43ef-959b-855897d2b5ad"},"vehicle_type_id":"4","last_reported":1767968083,"current_range_meters":6800,"station_id":"ce4bhg12rcd13ifvqf70","pricing_plan_id":"cebpf4jnsgd1na2vs0mg"},{"bike_id":"c1db0c61-732d-4354-b637-5805db36c4e1","system_id":"levelo_inurba_marseille","lat":43.3054,"lon":5.36535,"is_reserved":false,"is_disabled":false,"rental_uris":{"android":"levelo://app?vid=c1db0c61-732d-4354-b637-5805db36c4e1","ios":"levelo://app?vid=c1db0c61-732d-4354-b637-5805db36c4e1"},"vehicle_type_id":"4","last_reported":1767968083,"current_range_meters":6800,"station_id":"ce4bgs12rcd13ifvqcag","pricing_plan_id":"cebpf4jnsgd1na2vs0mg"},{"bike_id":"19c90349-756f-4679-a530-ebef5565e237","system_id":"levelo_inurba_marseille","lat":43.32366,"lon":5.36746,"is_reserved":false,"is_disabled":false,"rental_uris":{"android":"levelo://app?vid=19c90349-756f-4679-a530-ebef5565e237","ios":"levelo://app?vid=19c90349-756f-4679-a530-ebef5565e237"},"vehicle_type_id":"4","last_reported":1767968083,"current_range_meters":6800,"station_id":"ce4bhsh2rcd13ifvqi2g","pricing_plan_id":"cebpf4jnsgd1na2vs0mg"},{"bike_id":"6fad9ca1-61fd-4cab-8c8e-75dda08e921f","system_id":"levelo_inurba_marseille","lat":43.31931,"lon":5.3734,"is_reserved":false,"is_disabled":false,"rental_uris":{"android":"levelo://app?vid=6fad9ca1-61fd-4cab-8c8e-75dda08e921f","ios":"levelo://app?vid=6fad9ca1-61fd-4cab-8c8e-75dda08e921f"},"vehicle_type_id":"4","last_reported":1767968083,"current_range_meters":6800,"station_id":"","pricing_plan_id":"cebpf4jnsgd1na2vs0mg"},{"bike_id":"59778b0c-dfa3-463a-837d-e252afe5b329","system_id":"levelo_inurba_marseille","lat":43.26427,"lon":5.41102,"is_reserved":false,"is_disabled":true,"rental_uris":{"android":"levelo://app?vid=59778b0c-dfa3-463a-837d-e252afe5b329","ios":"levelo://app?vid=59778b0c-dfa3-463a-837d-e252afe5b329"},"vehicle_type_id":"4","last_reported":1767968083,"current_range_meters":6800,"station_id":"st_d4e5ca6na9uc73bfl5fg","pricing_plan_id":"cebpf4jnsgd1na2vs0mg"},{"bike_id":"a14ad7f9-bf16-4829-9533-365e7ac50c2f","system_id":"levelo_inurba_marseille","lat":43.32133,"lon":5.36802,"is_reserved":false,"is_disabled":false,"rental_uris":{"android":"levelo://app?vid=a14ad7f9-bf16-4829-9533-365e7ac50c2f","ios":"levelo://app?vid=a14ad7f9-bf16-4829-9533-365e7ac50c2f"},"vehicle_type_id":"4","last_reported":1767968083,"current_range_meters":6800,"station_id":"","pricing_plan_id":"cebpf4jnsgd1na2vs0mg"},{"bike_id":"2ce5425d-5b38-4acd-a6e9-bb0d6532119b","system_id":"levelo_inurba_marseille","lat":43.29914,"lon":5.43642,"is_reserved":false,"is_disabled":false,"rental_uris":{"android":"levelo://app?vid=2ce5425d-5b38-4acd-a6e9-bb0d6532119b","ios":"levelo://app?vid=2ce5425d-5b38-4acd-a6e9-bb0d6532119b"},"vehicle_type_id":"4","last_reported":1767968083,"current_range_meters":6800,"station_id":"ce4bhpp2rcd13ifvqhfg","pricing_plan_id":"cebpf4jnsgd1na2vs0mg"},{"bike_id":"dbbdcd3a-c41b-425f-ab5d-c82d533b87fa","system_id":"levelo_inurba_marseille","lat":43.31376,"lon":5.36687,"is_reserved":false,"is_disabled":false,"rental_uris":{"android":"levelo://app?vid=dbbdcd3a-c41b-425f-ab5d-c82d533b87fa","ios":"levelo://app?vid=dbbdcd3a-c41b-425f-ab5d-c82d533b87fa"},"vehicle_type_id":"4","last_reported":1767968083,"current_range_meters":6800,"station_id":"ce4bgr92rcd13ifvqc6g","pricing_plan_id":"cebpf4jnsgd1na2vs0mg"},{"bike_id":"38f34c0b-018a-4a87-9b2b-2105aec61656","system_id":"levelo_inurba_marseille","lat":43.24187,"lon":5.39717,"is_reserved":false,"is_disabled":false,"rental_uris":{"android":"levelo://app?vid=38f34c0b-018a-4a87-9b2b-2105aec61656","ios":"levelo://app?vid=38f34c0b-018a-4a87-9b2b-2105aec61656"},"vehicle_type_id":"4","last_reported":1767968083,"current_range_meters":6800,"station_id":"ce4bhn12rcd13ifvqgpg","pricing_plan_id":"cebpf4jnsgd1na2vs0mg"},{"bike_id":"f58d6f7b-cbb0-4399-a343-55040a73d9f6","system_id":"levelo_inurba_marseille","lat":43.25348,"lon":5.42174,"is_reserved":false,"is_disabled":false,"rental_uris":{"android":"levelo://app?vid=f58d6f7b-cbb0-4399-a343-55040a73d9f6","ios":"levelo://app?vid=f58d6f7b-cbb0-4399-a343-55040a73d9f6"},"vehicle_type_id":"4","last_reported":1767968083,"current_range_meters":6800,"station_id":"st_d2m65c5bi1j21697t3ng","pricing_plan_id":"cebpf4jnsgd1na2vs0mg"},{"bike_id":"d2c83782-bd98-4fd4-8594-a5912dc879a0","system_id":"levelo_inurba_marseille","lat":43.2409,"lon":5.37753,"is_reserved":false,"is_disabled":false,"rental_uris":{"android":"levelo://app?vid=d2c83782-bd98-4fd4-8594-a5912dc879a0","ios":"levelo://app?vid=d2c83782-bd98-4fd4-8594-a5912dc879a0"},"vehicle_type_id":"4","last_reported":1767968083,"current_range_meters":6800,"station_id":"ce4bhnp2rcd13ifvqgvg","pricing_plan_id":"cebpf4jnsgd1na2vs0mg"},{"bike_id":"caf7850f-d924-40e4-8be2-021e72014fb3","system_id":"levelo_inurba_marseille","lat":43.26574,"lon":5.38998,"is_reserved":false,"is_disabled":false,"rental_uris":{"android":"levelo://app?vid=caf7850f-d924-40e4-8be2-021e72014fb3","ios":"levelo://app?vid=caf7850f-d924-40e4-8be2-021e72014fb3"},"vehicle_type_id":"4","last_reported":1767968083,"current_range_meters":6800,"station_id":"ce4bhe12rcd13ifvqf30","pricing_plan_id":"cebpf4jnsgd1na2vs0mg"},{"bike_id":"b84c5d5f-d70c-4304-929f-cd1f4a6fc37b","system_id":"levelo_inurba_marseille","lat":43.30939,"lon":5.40153,"is_reserved":false,"is_disabled":false,"rental_uris":{"android":"levelo://app?vid=b84c5d5f-d70c-4304-929f-cd1f4a6fc37b","ios":"levelo://app?vid=b84c5d5f-d70c-4304-929f-cd1f4a6fc37b"},"vehicle_type_id":"4","last_reported":1767968083,"current_range_meters":6800,"station_id":"ce4bgvp2rcd13ifvqct0","pricing_plan_id":"cebpf4jnsgd1na2vs0mg"},{"bike_id":"baa1156a-155c-4625-a9d3-27c9511e7ffa","system_id":"levelo_inurba_marseille","lat":43.303286,"lon":5.373871,"is_reserved":false,"is_disabled":false,"rental_uris":{"android":"levelo://app?vid=baa1156a-155c-4625-a9d3-27c9511e7ffa","ios":"levelo://app?vid=baa1156a-155c-4625-a9d3-27c9511e7ffa"},"vehicle_type_id":"4","last_reported":1767968083,"current_range_meters":6800,"station_id":"","pricing_plan_id":"cebpf4jnsgd1na2vs0mg"},{"bike_id":"d62b1dd7-04ea-48f5-a204-d6921ceaf13e","system_id":"levelo_inurba_marseille","lat":43.24183,"lon":5.364,"is_reserved":false,"is_disabled":false,"rental_uris":{"android":"levelo://app?vid=d62b1dd7-04ea-48f5-a204-d6921ceaf13e","ios":"levelo://app?vid=d62b1dd7-04ea-48f5-a204-d6921ceaf13e"},"vehicle_type_id":"4","last_reported":1767968083,"current_range_meters":6800,"station_id":"cpo36qri1sfpv3e86is0","pricing_plan_id":"cebpf4jnsgd1na2vs0mg"},{"bike_id":"e11d069d-cc7d-4b1f-a7f9-e060ab894ff0","system_id":"levelo_inurba_marseille","lat":43.26386,"lon":5.41067,"is_reserved":false,"is_disabled":false,"rental_uris":{"android":"levelo://app?vid=e11d069d-cc7d-4b1f-a7f9-e060ab894ff0","ios":"levelo://app?vid=e11d069d-cc7d-4b1f-a7f9-e060ab894ff0"},"vehicle_type_id":"4","last_reported":1767968083,"current_range_meters":6800,"station_id":"st_d4e5ca6na9uc73bfl5fg","pricing_plan_id":"cebpf4jnsgd1na2vs0mg"},{"bike_id":"d5c29c18-7a27-4023-8927-8003cd0b16af","system_id":"levelo_inurba_marseille","lat":43.26158,"lon":5.37493,"is_reserved":false,"is_disabled":false,"rental_uris":{"android":"levelo://app?vid=d5c29c18-7a27-4023-8927-8003cd0b16af","ios":"levelo://app?vid=d5c29c18-7a27-4023-8927-8003cd0b16af"},"vehicle_type_id":"4","last_reported":1767968083,"current_range_meters":6800,"station_id":"ce4bhgp2rcd13ifvqfc0","pricing_plan_id":"cebpf4jnsgd1na2vs0mg"},{"bike_id":"10c457c0-fb67-46d4-ac03-b9397bef1b2c","system_id":"levelo_inurba_marseille","lat":43.31242,"lon":5.36831,"is_reserved":false,"is_disabled":false,"rental_uris":{"android":"levelo://app?vid=10c457c0-fb67-46d4-ac03-b9397bef1b2c","ios":"levelo://app?vid=10c457c0-fb67-46d4-ac03-b9397bef1b2c"},"vehicle_type_id":"4","last_reported":1767968083,"current_range_meters":6800,"station_id":"ce4bgl92rcd13ifvqbq0","pricing_plan_id":"cebpf4jnsgd1na2vs0mg"},{"bike_id":"fab08092-cce9-4478-859e-e05fdc61134c","system_id":"levelo_inurba_marseille","lat":43.26563,"lon":5.37295,"is_reserved":false,"is_disabled":false,"rental_uris":{"android":"levelo://app?vid=fab08092-cce9-4478-859e-e05fdc61134c","ios":"levelo://app?vid=fab08092-cce9-4478-859e-e05fdc61134c"},"vehicle_type_id":"4","last_reported":1767968083,"current_range_meters":6800,"station_id":"ce4bhg12rcd13ifvqf70","pricing_plan_id":"cebpf4jnsgd1na2vs0mg"},{"bike_id":"c103346d-3384-4b83-9ff8-dff851f4fdfe","system_id":"levelo_inurba_marseille","lat":43.31413,"lon":5.38088,"is_reserved":false,"is_disabled":false,"rental_uris":{"android":"levelo://app?vid=c103346d-3384-4b83-9ff8-dff851f4fdfe","ios":"levelo://app?vid=c103346d-3384-4b83-9ff8-dff851f4fdfe"},"vehicle_type_id":"4","last_reported":1767968083,"current_range_meters":6800,"station_id":"","pricing_plan_id":"cebpf4jnsgd1na2vs0mg"},{"bike_id":"e48a0a1d-139d-4eae-9bc8-4eb881e00720","system_id":"levelo_inurba_marseille","lat":43.32353,"lon":5.367196,"is_reserved":false,"is_disabled":false,"rental_uris":{"android":"levelo://app?vid=e48a0a1d-139d-4eae-9bc8-4eb881e00720","ios":"levelo://app?vid=e48a0a1d-139d-4eae-9bc8-4eb881e00720"},"vehicle_type_id":"4","last_reported":1767968083,"current_range_meters":6800,"station_id":"ce4bhsh2rcd13ifvqi2g","pricing_plan_id":"cebpf4jnsgd1na2vs0mg"},{"bike_id":"0300afac-912a-4bda-b7af-7e061ba01547","system_id":"levelo_inurba_marseille","lat":43.29687,"lon":5.37621,"is_reserved":false,"is_disabled":false,"rental_uris":{"android":"levelo://app?vid=0300afac-912a-4bda-b7af-7e061ba01547","ios":"levelo://app?vid=0300afac-912a-4bda-b7af-7e061ba01547"},"vehicle_type_id":"4","last_reported":1767968083,"current_range_meters":6800,"station_id":"","pricing_plan_id":"cebpf4jnsgd1na2vs0mg"},{"bike_id":"713202e1-eaed-4067-ab17-b43e53314e08","system_id":"levelo_inurba_marseille","lat":43.30194,"lon":5.38076,"is_reserved":false,"is_disabled":false,"rental_uris":{"android":"levelo://app?vid=713202e1-eaed-4067-ab17-b43e53314e08","ios":"levelo://app?vid=713202e1-eaed-4067-ab17-b43e53314e08"},"vehicle_type_id":"4","last_reported":1767968083,"current_range_meters":6800,"station_id":"","pricing_plan_id":"cebpf4jnsgd1na2vs0mg"},{"bike_id":"569b0032-d7de-4ef5-ac08-24b2ac42db20","system_id":"levelo_inurba_marseille","lat":43.26533,"lon":5.37302,"is_reserved":false,"is_disabled":false,"rental_uris":{"android":"levelo://app?vid=569b0032-d7de-4ef5-ac08-24b2ac42db20","ios":"levelo://app?vid=569b0032-d7de-4ef5-ac08-24b2ac42db20"},"vehicle_type_id":"4","last_reported":1767968083,"current_range_meters":7200,"station_id":"ce4bhg12rcd13ifvqf70","pricing_plan_id":"cebpf4jnsgd1na2vs0mg"},{"bike_id":"aa186435-cc03-4095-aab3-165e1212d005","system_id":"levelo_inurba_marseille","lat":43.32353,"lon":5.36731,"is_reserved":false,"is_disabled":false,"rental_uris":{"android":"levelo://app?vid=aa186435-cc03-4095-aab3-165e1212d005","ios":"levelo://app?vid=aa186435-cc03-4095-aab3-165e1212d005"},"vehicle_type_id":"4","last_reported":1767968083,"current_range_meters":7200,"station_id":"ce4bhsh2rcd13ifvqi2g","pricing_plan_id":"cebpf4jnsgd1na2vs0mg"},{"bike_id":"c8e24aea-453f-4d30-9492-339a817afb22","system_id":"levelo_inurba_marseille","lat":43.24396,"lon":5.37073,"is_reserved":false,"is_disabled":false,"rental_uris":{"android":"levelo://app?vid=c8e24aea-453f-4d30-9492-339a817afb22","ios":"levelo://app?vid=c8e24aea-453f-4d30-9492-339a817afb22"},"vehicle_type_id":"4","last_reported":1767968083,"current_range_meters":7200,"station_id":"ce4bhhh2rcd13ifvqfk0","pricing_plan_id":"cebpf4jnsgd1na2vs0mg"},{"bike_id":"e0338060-ce0a-4822-8d71-f2c1872544f8","system_id":"levelo_inurba_marseille","lat":43.28404,"lon":5.34979,"is_reserved":false,"is_disabled":false,"rental_uris":{"android":"levelo://app?vid=e0338060-ce0a-4822-8d71-f2c1872544f8","ios":"levelo://app?vid=e0338060-ce0a-4822-8d71-f2c1872544f8"},"vehicle_type_id":"4","last_reported":1767968083,"current_range_meters":7200,"station_id":"ce4bhbh2rcd13ifvqepg","pricing_plan_id":"cebpf4jnsgd1na2vs0mg"},{"bike_id":"11bbafe7-a146-48ac-bdc4-7e3861028edb","system_id":"levelo_inurba_marseille","lat":43.305847,"lon":5.393563,"is_reserved":false,"is_disabled":false,"rental_uris":{"android":"levelo://app?vid=11bbafe7-a146-48ac-bdc4-7e3861028edb","ios":"levelo://app?vid=11bbafe7-a146-48ac-bdc4-7e3861028edb"},"vehicle_type_id":"4","last_reported":1767968083,"current_range_meters":7200,"station_id":"ce4bh0p2rcd13ifvqd80","pricing_plan_id":"cebpf4jnsgd1na2vs0mg"},{"bike_id":"e8237869-6bc1-4aff-8e00-c83ace1ecdfb","system_id":"levelo_inurba_marseille","lat":43.225335,"lon":5.348347,"is_reserved":false,"is_disabled":false,"rental_uris":{"android":"levelo://app?vid=e8237869-6bc1-4aff-8e00-c83ace1ecdfb","ios":"levelo://app?vid=e8237869-6bc1-4aff-8e00-c83ace1ecdfb"},"vehicle_type_id":"4","last_reported":1767968083,"current_range_meters":7200,"station_id":"","pricing_plan_id":"cebpf4jnsgd1na2vs0mg"},{"bike_id":"ff4d3f0c-f4ca-4e9d-a96d-386990436f7f","system_id":"levelo_inurba_marseille","lat":43.323498,"lon":5.367139,"is_reserved":false,"is_disabled":false,"rental_uris":{"android":"levelo://app?vid=ff4d3f0c-f4ca-4e9d-a96d-386990436f7f","ios":"levelo://app?vid=ff4d3f0c-f4ca-4e9d-a96d-386990436f7f"},"vehicle_type_id":"4","last_reported":1767968083,"current_range_meters":7200,"station_id":"ce4bhsh2rcd13ifvqi2g","pricing_plan_id":"cebpf4jnsgd1na2vs0mg"},{"bike_id":"ed27761f-ddf8-4ca6-ad7f-042a477fd7ea","system_id":"levelo_inurba_marseille","lat":43.29534,"lon":5.37366,"is_reserved":false,"is_disabled":false,"rental_uris":{"android":"levelo://app?vid=ed27761f-ddf8-4ca6-ad7f-042a477fd7ea","ios":"levelo://app?vid=ed27761f-ddf8-4ca6-ad7f-042a477fd7ea"},"vehicle_type_id":"4","last_reported":1767968083,"current_range_meters":7200,"station_id":"","pricing_plan_id":"cebpf4jnsgd1na2vs0mg"},{"bike_id":"0eb5c5de-e526-4531-ad17-62b9b5ba50f9","system_id":"levelo_inurba_marseille","lat":43.23204,"lon":5.35577,"is_reserved":false,"is_disabled":false,"rental_uris":{"android":"levelo://app?vid=0eb5c5de-e526-4531-ad17-62b9b5ba50f9","ios":"levelo://app?vid=0eb5c5de-e526-4531-ad17-62b9b5ba50f9"},"vehicle_type_id":"4","last_reported":1767968083,"current_range_meters":7200,"station_id":"ce4bhu92rcd13ifvqi70","pricing_plan_id":"cebpf4jnsgd1na2vs0mg"},{"bike_id":"acf9b465-5657-433f-abd2-b0a7dddb60bc","system_id":"levelo_inurba_marseille","lat":43.2655,"lon":5.37312,"is_reserved":false,"is_disabled":false,"rental_uris":{"android":"levelo://app?vid=acf9b465-5657-433f-abd2-b0a7dddb60bc","ios":"levelo://app?vid=acf9b465-5657-433f-abd2-b0a7dddb60bc"},"vehicle_type_id":"4","last_reported":1767968083,"current_range_meters":7200,"station_id":"ce4bhg12rcd13ifvqf70","pricing_plan_id":"cebpf4jnsgd1na2vs0mg"},{"bike_id":"c15b3d8f-1fde-4cd7-938d-374662af78d6","system_id":"levelo_inurba_marseille","lat":43.30952,"lon":5.39027,"is_reserved":false,"is_disabled":false,"rental_uris":{"android":"levelo://app?vid=c15b3d8f-1fde-4cd7-938d-374662af78d6","ios":"levelo://app?vid=c15b3d8f-1fde-4cd7-938d-374662af78d6"},"vehicle_type_id":"4","last_reported":1767968083,"current_range_meters":7200,"station_id":"ce4bgup2rcd13ifvqco0","pricing_plan_id":"cebpf4jnsgd1na2vs0mg"},{"bike_id":"3b0c044b-cff7-4737-b3af-017df77671fe","system_id":"levelo_inurba_marseille","lat":43.28005,"lon":5.4164,"is_reserved":false,"is_disabled":false,"rental_uris":{"android":"levelo://app?vid=3b0c044b-cff7-4737-b3af-017df77671fe","ios":"levelo://app?vid=3b0c044b-cff7-4737-b3af-017df77671fe"},"vehicle_type_id":"4","last_reported":1767968083,"current_range_meters":7200,"station_id":"ce4bho12rcd13ifvqh1g","pricing_plan_id":"cebpf4jnsgd1na2vs0mg"},{"bike_id":"911fe496-38a7-4a4f-92f2-ca45ed43770b","system_id":"levelo_inurba_marseille","lat":43.24684,"lon":5.38136,"is_reserved":false,"is_disabled":false,"rental_uris":{"android":"levelo://app?vid=911fe496-38a7-4a4f-92f2-ca45ed43770b","ios":"levelo://app?vid=911fe496-38a7-4a4f-92f2-ca45ed43770b"},"vehicle_type_id":"4","last_reported":1767968083,"current_range_meters":7200,"station_id":"ce4bhih2rcd13ifvqfr0","pricing_plan_id":"cebpf4jnsgd1na2vs0mg"},{"bike_id":"82e5086e-97a4-4890-8bb5-efc43b4b7c7c","system_id":"levelo_inurba_marseille","lat":43.270596,"lon":5.422808,"is_reserved":false,"is_disabled":false,"rental_uris":{"android":"levelo://app?vid=82e5086e-97a4-4890-8bb5-efc43b4b7c7c","ios":"levelo://app?vid=82e5086e-97a4-4890-8bb5-efc43b4b7c7c"},"vehicle_type_id":"4","last_reported":1767968083,"current_range_meters":7200,"station_id":"ce4bhk92rcd13ifvqgb0","pricing_plan_id":"cebpf4jnsgd1na2vs0mg"},{"bike_id":"6cdf7ceb-19d4-47ce-b08c-d34249cf4b72","system_id":"levelo_inurba_marseille","lat":43.32076,"lon":5.41572,"is_reserved":false,"is_disabled":false,"rental_uris":{"android":"levelo://app?vid=6cdf7ceb-19d4-47ce-b08c-d34249cf4b72","ios":"levelo://app?vid=6cdf7ceb-19d4-47ce-b08c-d34249cf4b72"},"vehicle_type_id":"4","last_reported":1767968083,"current_range_meters":7200,"station_id":"ce4bhq92rcd13ifvqhkg","pricing_plan_id":"cebpf4jnsgd1na2vs0mg"},{"bike_id":"911094f3-75e2-45cf-b946-63a7c5515e3d","system_id":"levelo_inurba_marseille","lat":43.30106,"lon":5.3907,"is_reserved":false,"is_disabled":false,"rental_uris":{"android":"levelo://app?vid=911094f3-75e2-45cf-b946-63a7c5515e3d","ios":"levelo://app?vid=911094f3-75e2-45cf-b946-63a7c5515e3d"},"vehicle_type_id":"4","last_reported":1767968083,"current_range_meters":7200,"station_id":"ce4bh192rcd13ifvqdb0","pricing_plan_id":"cebpf4jnsgd1na2vs0mg"},{"bike_id":"ab60c2fc-90e6-4eb8-a77c-65affb14bc2e","system_id":"levelo_inurba_marseille","lat":43.265662,"lon":5.390226,"is_reserved":false,"is_disabled":false,"rental_uris":{"android":"levelo://app?vid=ab60c2fc-90e6-4eb8-a77c-65affb14bc2e","ios":"levelo://app?vid=ab60c2fc-90e6-4eb8-a77c-65affb14bc2e"},"vehicle_type_id":"4","last_reported":1767968083,"current_range_meters":7200,"station_id":"","pricing_plan_id":"cebpf4jnsgd1na2vs0mg"},{"bike_id":"262a8fec-bd27-46e9-aad8-6268adcdc681","system_id":"levelo_inurba_marseille","lat":43.212,"lon":5.35082,"is_reserved":false,"is_disabled":false,"rental_uris":{"android":"levelo://app?vid=262a8fec-bd27-46e9-aad8-6268adcdc681","ios":"levelo://app?vid=262a8fec-bd27-46e9-aad8-6268adcdc681"},"vehicle_type_id":"4","last_reported":1767968083,"current_range_meters":7200,"station_id":"st_cvj6sg6p6f1abm77japg","pricing_plan_id":"cebpf4jnsgd1na2vs0mg"},{"bike_id":"c433882d-8751-47a2-bd53-7c232d4ed912","system_id":"levelo_inurba_marseille","lat":43.30324,"lon":5.40438,"is_reserved":false,"is_disabled":false,"rental_uris":{"android":"levelo://app?vid=c433882d-8751-47a2-bd53-7c232d4ed912","ios":"levelo://app?vid=c433882d-8751-47a2-bd53-7c232d4ed912"},"vehicle_type_id":"4","last_reported":1767968083,"current_range_meters":7200,"station_id":"ce4bh012rcd13ifvqd10","pricing_plan_id":"cebpf4jnsgd1na2vs0mg"},{"bike_id":"8f679fcc-ff8c-4af2-86fe-c8460158ab1c","system_id":"levelo_inurba_marseille","lat":43.28269,"lon":5.35089,"is_reserved":false,"is_disabled":false,"rental_uris":{"android":"levelo://app?vid=8f679fcc-ff8c-4af2-86fe-c8460158ab1c","ios":"levelo://app?vid=8f679fcc-ff8c-4af2-86fe-c8460158ab1c"},"vehicle_type_id":"4","last_reported":1767968083,"current_range_meters":7200,"station_id":"ce4bhbp2rcd13ifvqerg","pricing_plan_id":"cebpf4jnsgd1na2vs0mg"},{"bike_id":"d5b11fb8-6192-47fb-aadc-4bb75715f25d","system_id":"levelo_inurba_marseille","lat":43.26952,"lon":5.39835,"is_reserved":false,"is_disabled":false,"rental_uris":{"android":"levelo://app?vid=d5b11fb8-6192-47fb-aadc-4bb75715f25d","ios":"levelo://app?vid=d5b11fb8-6192-47fb-aadc-4bb75715f25d"},"vehicle_type_id":"4","last_reported":1767968083,"current_range_meters":7200,"station_id":"","pricing_plan_id":"cebpf4jnsgd1na2vs0mg"},{"bike_id":"7556ec87-ee82-453f-8a43-79b64208618a","system_id":"levelo_inurba_marseille","lat":43.21214,"lon":5.35076,"is_reserved":false,"is_disabled":false,"rental_uris":{"android":"levelo://app?vid=7556ec87-ee82-453f-8a43-79b64208618a","ios":"levelo://app?vid=7556ec87-ee82-453f-8a43-79b64208618a"},"vehicle_type_id":"4","last_reported":1767968083,"current_range_meters":7200,"station_id":"st_cvj6sg6p6f1abm77japg","pricing_plan_id":"cebpf4jnsgd1na2vs0mg"},{"bike_id":"563f06c7-aaae-463f-bd77-2a2b09c362dc","system_id":"levelo_inurba_marseille","lat":43.26573,"lon":5.3729,"is_reserved":false,"is_disabled":false,"rental_uris":{"android":"levelo://app?vid=563f06c7-aaae-463f-bd77-2a2b09c362dc","ios":"levelo://app?vid=563f06c7-aaae-463f-bd77-2a2b09c362dc"},"vehicle_type_id":"4","last_reported":1767968083,"current_range_meters":7200,"station_id":"ce4bhg12rcd13ifvqf70","pricing_plan_id":"cebpf4jnsgd1na2vs0mg"},{"bike_id":"0c958f1e-94e1-40f0-8255-ea68171a6691","system_id":"levelo_inurba_marseille","lat":43.24661,"lon":5.38154,"is_reserved":false,"is_disabled":false,"rental_uris":{"android":"levelo://app?vid=0c958f1e-94e1-40f0-8255-ea68171a6691","ios":"levelo://app?vid=0c958f1e-94e1-40f0-8255-ea68171a6691"},"vehicle_type_id":"4","last_reported":1767968083,"current_range_meters":7200,"station_id":"ce4bhih2rcd13ifvqfr0","pricing_plan_id":"cebpf4jnsgd1na2vs0mg"},{"bike_id":"8b697a24-51a2-452a-93c9-5c0c040134d0","system_id":"levelo_inurba_marseille","lat":43.32222,"lon":5.394315,"is_reserved":false,"is_disabled":false,"rental_uris":{"android":"levelo://app?vid=8b697a24-51a2-452a-93c9-5c0c040134d0","ios":"levelo://app?vid=8b697a24-51a2-452a-93c9-5c0c040134d0"},"vehicle_type_id":"4","last_reported":1767968083,"current_range_meters":7200,"station_id":"","pricing_plan_id":"cebpf4jnsgd1na2vs0mg"},{"bike_id":"71f490e2-300e-4386-a376-1d72d88c2617","system_id":"levelo_inurba_marseille","lat":43.29872,"lon":5.39733,"is_reserved":false,"is_disabled":false,"rental_uris":{"android":"levelo://app?vid=71f490e2-300e-4386-a376-1d72d88c2617","ios":"levelo://app?vid=71f490e2-300e-4386-a376-1d72d88c2617"},"vehicle_type_id":"4","last_reported":1767968083,"current_range_meters":7200,"station_id":"ce4bh0h2rcd13ifvqd50","pricing_plan_id":"cebpf4jnsgd1na2vs0mg"},{"bike_id":"7d50baf1-e702-4bc4-8ad1-ca576e44cfe3","system_id":"levelo_inurba_marseille","lat":43.24664,"lon":5.43107,"is_reserved":false,"is_disabled":false,"rental_uris":{"android":"levelo://app?vid=7d50baf1-e702-4bc4-8ad1-ca576e44cfe3","ios":"levelo://app?vid=7d50baf1-e702-4bc4-8ad1-ca576e44cfe3"},"vehicle_type_id":"4","last_reported":1767968083,"current_range_meters":7200,"station_id":"st_d2m6c4gdas8pm72e190g","pricing_plan_id":"cebpf4jnsgd1na2vs0mg"},{"bike_id":"b7959f4b-7839-4fd4-a063-14ae8719d80d","system_id":"levelo_inurba_marseille","lat":43.2999,"lon":5.38482,"is_reserved":false,"is_disabled":false,"rental_uris":{"android":"levelo://app?vid=b7959f4b-7839-4fd4-a063-14ae8719d80d","ios":"levelo://app?vid=b7959f4b-7839-4fd4-a063-14ae8719d80d"},"vehicle_type_id":"4","last_reported":1767968083,"current_range_meters":7200,"station_id":"ce4bgj92rcd13ifvqbd0","pricing_plan_id":"cebpf4jnsgd1na2vs0mg"},{"bike_id":"e75e2c3e-d799-431c-b611-47c8636c7eba","system_id":"levelo_inurba_marseille","lat":43.30957,"lon":5.38606,"is_reserved":false,"is_disabled":false,"rental_uris":{"android":"levelo://app?vid=e75e2c3e-d799-431c-b611-47c8636c7eba","ios":"levelo://app?vid=e75e2c3e-d799-431c-b611-47c8636c7eba"},"vehicle_type_id":"4","last_reported":1767968083,"current_range_meters":8000,"station_id":"","pricing_plan_id":"cebpf4jnsgd1na2vs0mg"},{"bike_id":"bd78d29c-c760-450d-bc73-3e8bb1aa3e1f","system_id":"levelo_inurba_marseille","lat":43.32346,"lon":5.36714,"is_reserved":false,"is_disabled":false,"rental_uris":{"android":"levelo://app?vid=bd78d29c-c760-450d-bc73-3e8bb1aa3e1f","ios":"levelo://app?vid=bd78d29c-c760-450d-bc73-3e8bb1aa3e1f"},"vehicle_type_id":"4","last_reported":1767968083,"current_range_meters":8000,"station_id":"ce4bhsh2rcd13ifvqi2g","pricing_plan_id":"cebpf4jnsgd1na2vs0mg"},{"bike_id":"b01b28d2-3f19-4003-9ec3-2602e6f718f6","system_id":"levelo_inurba_marseille","lat":43.304508,"lon":5.376135,"is_reserved":false,"is_disabled":false,"rental_uris":{"android":"levelo://app?vid=b01b28d2-3f19-4003-9ec3-2602e6f718f6","ios":"levelo://app?vid=b01b28d2-3f19-4003-9ec3-2602e6f718f6"},"vehicle_type_id":"4","last_reported":1767968083,"current_range_meters":8000,"station_id":"","pricing_plan_id":"cebpf4jnsgd1na2vs0mg"},{"bike_id":"56c55073-d594-4b78-b54f-11b692428f54","system_id":"levelo_inurba_marseille","lat":43.28717,"lon":5.40001,"is_reserved":false,"is_disabled":false,"rental_uris":{"android":"levelo://app?vid=56c55073-d594-4b78-b54f-11b692428f54","ios":"levelo://app?vid=56c55073-d594-4b78-b54f-11b692428f54"},"vehicle_type_id":"4","last_reported":1767968083,"current_range_meters":8000,"station_id":"ce4bho92rcd13ifvqh3g","pricing_plan_id":"cebpf4jnsgd1na2vs0mg"},{"bike_id":"ad32bf49-fc1c-427a-89fa-14100d98af66","system_id":"levelo_inurba_marseille","lat":43.28297,"lon":5.35089,"is_reserved":false,"is_disabled":false,"rental_uris":{"android":"levelo://app?vid=ad32bf49-fc1c-427a-89fa-14100d98af66","ios":"levelo://app?vid=ad32bf49-fc1c-427a-89fa-14100d98af66"},"vehicle_type_id":"4","last_reported":1767968083,"current_range_meters":8000,"station_id":"","pricing_plan_id":"cebpf4jnsgd1na2vs0mg"},{"bike_id":"74990434-c437-43a6-99f6-74f0ce6556fa","system_id":"levelo_inurba_marseille","lat":43.26793,"lon":5.39442,"is_reserved":false,"is_disabled":true,"rental_uris":{"android":"levelo://app?vid=74990434-c437-43a6-99f6-74f0ce6556fa","ios":"levelo://app?vid=74990434-c437-43a6-99f6-74f0ce6556fa"},"vehicle_type_id":"4","last_reported":1767968083,"current_range_meters":8000,"station_id":"ce4bhh12rcd13ifvqfg0","pricing_plan_id":"cebpf4jnsgd1na2vs0mg"},{"bike_id":"2e9ca2da-7be4-48db-a85c-5ce44214e292","system_id":"levelo_inurba_marseille","lat":43.25579,"lon":5.38239,"is_reserved":false,"is_disabled":false,"rental_uris":{"android":"levelo://app?vid=2e9ca2da-7be4-48db-a85c-5ce44214e292","ios":"levelo://app?vid=2e9ca2da-7be4-48db-a85c-5ce44214e292"},"vehicle_type_id":"4","last_reported":1767968083,"current_range_meters":8000,"station_id":"ce4bhih2rcd13ifvqfs0","pricing_plan_id":"cebpf4jnsgd1na2vs0mg"},{"bike_id":"e91c9b90-df96-48fd-9595-b7e34f785057","system_id":"levelo_inurba_marseille","lat":43.24992,"lon":5.38928,"is_reserved":false,"is_disabled":false,"rental_uris":{"android":"levelo://app?vid=e91c9b90-df96-48fd-9595-b7e34f785057","ios":"levelo://app?vid=e91c9b90-df96-48fd-9595-b7e34f785057"},"vehicle_type_id":"4","last_reported":1767968083,"current_range_meters":8000,"station_id":"ce4bhgp2rcd13ifvqfd0","pricing_plan_id":"cebpf4jnsgd1na2vs0mg"},{"bike_id":"bef98ff8-e15d-45ba-812b-84a58c5c1af3","system_id":"levelo_inurba_marseille","lat":43.257899,"lon":5.394404,"is_reserved":false,"is_disabled":false,"rental_uris":{"android":"levelo://app?vid=bef98ff8-e15d-45ba-812b-84a58c5c1af3","ios":"levelo://app?vid=bef98ff8-e15d-45ba-812b-84a58c5c1af3"},"vehicle_type_id":"4","last_reported":1767968083,"current_range_meters":8000,"station_id":"ce4bhip2rcd13ifvqft0","pricing_plan_id":"cebpf4jnsgd1na2vs0mg"},{"bike_id":"d336d32f-a9ab-4eb1-9637-d3fa585ead55","system_id":"levelo_inurba_marseille","lat":43.2947,"lon":5.43307,"is_reserved":false,"is_disabled":false,"rental_uris":{"android":"levelo://app?vid=d336d32f-a9ab-4eb1-9637-d3fa585ead55","ios":"levelo://app?vid=d336d32f-a9ab-4eb1-9637-d3fa585ead55"},"vehicle_type_id":"4","last_reported":1767968083,"current_range_meters":8000,"station_id":"st_d3j5ugp08ojc73fj9d10","pricing_plan_id":"cebpf4jnsgd1na2vs0mg"},{"bike_id":"6ac99317-2fff-404e-95fe-2a3e9d3870bd","system_id":"levelo_inurba_marseille","lat":43.2623,"lon":5.40442,"is_reserved":false,"is_disabled":false,"rental_uris":{"android":"levelo://app?vid=6ac99317-2fff-404e-95fe-2a3e9d3870bd","ios":"levelo://app?vid=6ac99317-2fff-404e-95fe-2a3e9d3870bd"},"vehicle_type_id":"4","last_reported":1767968083,"current_range_meters":8000,"station_id":"ce4bhmh2rcd13ifvqgmg","pricing_plan_id":"cebpf4jnsgd1na2vs0mg"},{"bike_id":"ca4c6a60-0f61-4f6d-ac20-4ded5e462329","system_id":"levelo_inurba_marseille","lat":43.30155,"lon":5.37404,"is_reserved":false,"is_disabled":false,"rental_uris":{"android":"levelo://app?vid=ca4c6a60-0f61-4f6d-ac20-4ded5e462329","ios":"levelo://app?vid=ca4c6a60-0f61-4f6d-ac20-4ded5e462329"},"vehicle_type_id":"4","last_reported":1767968083,"current_range_meters":8000,"station_id":"ce4bgs92rcd13ifvqcc0","pricing_plan_id":"cebpf4jnsgd1na2vs0mg"},{"bike_id":"ff012eda-200d-4d95-8552-9202de5433e2","system_id":"levelo_inurba_marseille","lat":43.292777,"lon":5.378218,"is_reserved":false,"is_disabled":false,"rental_uris":{"android":"levelo://app?vid=ff012eda-200d-4d95-8552-9202de5433e2","ios":"levelo://app?vid=ff012eda-200d-4d95-8552-9202de5433e2"},"vehicle_type_id":"4","last_reported":1767968083,"current_range_meters":8000,"station_id":"","pricing_plan_id":"cebpf4jnsgd1na2vs0mg"},{"bike_id":"1e8843fa-ed9e-4f6c-ad7f-bb6efec177b1","system_id":"levelo_inurba_marseille","lat":43.26394,"lon":5.41053,"is_reserved":false,"is_disabled":false,"rental_uris":{"android":"levelo://app?vid=1e8843fa-ed9e-4f6c-ad7f-bb6efec177b1","ios":"levelo://app?vid=1e8843fa-ed9e-4f6c-ad7f-bb6efec177b1"},"vehicle_type_id":"4","last_reported":1767968083,"current_range_meters":8000,"station_id":"st_d4e5ca6na9uc73bfl5fg","pricing_plan_id":"cebpf4jnsgd1na2vs0mg"},{"bike_id":"40daee54-a089-4378-95d1-1387b9bf7721","system_id":"levelo_inurba_marseille","lat":43.30458,"lon":5.3791,"is_reserved":false,"is_disabled":false,"rental_uris":{"android":"levelo://app?vid=40daee54-a089-4378-95d1-1387b9bf7721","ios":"levelo://app?vid=40daee54-a089-4378-95d1-1387b9bf7721"},"vehicle_type_id":"4","last_reported":1767968083,"current_range_meters":8000,"station_id":"ce4bgup2rcd13ifvqcn0","pricing_plan_id":"cebpf4jnsgd1na2vs0mg"},{"bike_id":"f223966a-e2d1-4fed-bcd9-65f6310fb516","system_id":"levelo_inurba_marseille","lat":43.27668,"lon":5.38921,"is_reserved":false,"is_disabled":true,"rental_uris":{"android":"levelo://app?vid=f223966a-e2d1-4fed-bcd9-65f6310fb516","ios":"levelo://app?vid=f223966a-e2d1-4fed-bcd9-65f6310fb516"},"vehicle_type_id":"4","last_reported":1767968083,"current_range_meters":8000,"station_id":"ce4bhi12rcd13ifvqfo0","pricing_plan_id":"cebpf4jnsgd1na2vs0mg"},{"bike_id":"3784f2bf-f44f-44f4-a8be-e3b125ce0193","system_id":"levelo_inurba_marseille","lat":43.27108,"lon":5.40562,"is_reserved":false,"is_disabled":false,"rental_uris":{"android":"levelo://app?vid=3784f2bf-f44f-44f4-a8be-e3b125ce0193","ios":"levelo://app?vid=3784f2bf-f44f-44f4-a8be-e3b125ce0193"},"vehicle_type_id":"4","last_reported":1767968083,"current_range_meters":8000,"station_id":"","pricing_plan_id":"cebpf4jnsgd1na2vs0mg"},{"bike_id":"ed61a98b-4107-4b98-a611-e8b7c8a14855","system_id":"levelo_inurba_marseille","lat":43.32096,"lon":5.36775,"is_reserved":false,"is_disabled":false,"rental_uris":{"android":"levelo://app?vid=ed61a98b-4107-4b98-a611-e8b7c8a14855","ios":"levelo://app?vid=ed61a98b-4107-4b98-a611-e8b7c8a14855"},"vehicle_type_id":"4","last_reported":1767968083,"current_range_meters":8000,"station_id":"ce4bhrh2rcd13ifvqhug","pricing_plan_id":"cebpf4jnsgd1na2vs0mg"},{"bike_id":"4c1fec58-3dfb-4084-89d3-9c936551322e","system_id":"levelo_inurba_marseille","lat":43.295777,"lon":5.367429,"is_reserved":false,"is_disabled":false,"rental_uris":{"android":"levelo://app?vid=4c1fec58-3dfb-4084-89d3-9c936551322e","ios":"levelo://app?vid=4c1fec58-3dfb-4084-89d3-9c936551322e"},"vehicle_type_id":"4","last_reported":1767968083,"current_range_meters":8000,"station_id":"ce4bgph2rcd13ifvqc2g","pricing_plan_id":"cebpf4jnsgd1na2vs0mg"},{"bike_id":"85264b74-5b04-4dbe-94c6-abdbdfeafcf0","system_id":"levelo_inurba_marseille","lat":43.28481,"lon":5.48397,"is_reserved":false,"is_disabled":false,"rental_uris":{"android":"levelo://app?vid=85264b74-5b04-4dbe-94c6-abdbdfeafcf0","ios":"levelo://app?vid=85264b74-5b04-4dbe-94c6-abdbdfeafcf0"},"vehicle_type_id":"4","last_reported":1767968083,"current_range_meters":8000,"station_id":"st_d3svhcjqgbts73a3dn0g","pricing_plan_id":"cebpf4jnsgd1na2vs0mg"},{"bike_id":"a9fccba9-b754-4ee7-accb-83ed7cce913f","system_id":"levelo_inurba_marseille","lat":43.2317,"lon":5.43711,"is_reserved":false,"is_disabled":false,"rental_uris":{"android":"levelo://app?vid=a9fccba9-b754-4ee7-accb-83ed7cce913f","ios":"levelo://app?vid=a9fccba9-b754-4ee7-accb-83ed7cce913f"},"vehicle_type_id":"4","last_reported":1767968083,"current_range_meters":8400,"station_id":"ce4bhmp2rcd13ifvqgog","pricing_plan_id":"cebpf4jnsgd1na2vs0mg"},{"bike_id":"cc6a42bd-dd7c-4c64-b69f-e5073a2adae2","system_id":"levelo_inurba_marseille","lat":43.2176,"lon":5.34604,"is_reserved":false,"is_disabled":false,"rental_uris":{"android":"levelo://app?vid=cc6a42bd-dd7c-4c64-b69f-e5073a2adae2","ios":"levelo://app?vid=cc6a42bd-dd7c-4c64-b69f-e5073a2adae2"},"vehicle_type_id":"4","last_reported":1767968083,"current_range_meters":8400,"station_id":"st_cvj6r9ubvosntc0bgbag","pricing_plan_id":"cebpf4jnsgd1na2vs0mg"},{"bike_id":"a45d1de9-3319-4f05-8330-0e81554cf06e","system_id":"levelo_inurba_marseille","lat":43.29961,"lon":5.38688,"is_reserved":false,"is_disabled":false,"rental_uris":{"android":"levelo://app?vid=a45d1de9-3319-4f05-8330-0e81554cf06e","ios":"levelo://app?vid=a45d1de9-3319-4f05-8330-0e81554cf06e"},"vehicle_type_id":"4","last_reported":1767968083,"current_range_meters":8400,"station_id":"","pricing_plan_id":"cebpf4jnsgd1na2vs0mg"},{"bike_id":"2a25e4b0-9eb0-415f-ad35-48839d4dacb7","system_id":"levelo_inurba_marseille","lat":43.28713,"lon":5.37389,"is_reserved":false,"is_disabled":false,"rental_uris":{"android":"levelo://app?vid=2a25e4b0-9eb0-415f-ad35-48839d4dacb7","ios":"levelo://app?vid=2a25e4b0-9eb0-415f-ad35-48839d4dacb7"},"vehicle_type_id":"4","last_reported":1767968083,"current_range_meters":8400,"station_id":"ce4bh3p2rcd13ifvqdq0","pricing_plan_id":"cebpf4jnsgd1na2vs0mg"},{"bike_id":"2f148a40-08c3-4821-bb26-bd90d7a0c233","system_id":"levelo_inurba_marseille","lat":43.243962,"lon":5.370747,"is_reserved":false,"is_disabled":false,"rental_uris":{"android":"levelo://app?vid=2f148a40-08c3-4821-bb26-bd90d7a0c233","ios":"levelo://app?vid=2f148a40-08c3-4821-bb26-bd90d7a0c233"},"vehicle_type_id":"4","last_reported":1767968083,"current_range_meters":8400,"station_id":"ce4bhhh2rcd13ifvqfk0","pricing_plan_id":"cebpf4jnsgd1na2vs0mg"},{"bike_id":"95382051-2edc-4c1a-ac56-d197c3294bdd","system_id":"levelo_inurba_marseille","lat":43.27982,"lon":5.41647,"is_reserved":false,"is_disabled":false,"rental_uris":{"android":"levelo://app?vid=95382051-2edc-4c1a-ac56-d197c3294bdd","ios":"levelo://app?vid=95382051-2edc-4c1a-ac56-d197c3294bdd"},"vehicle_type_id":"4","last_reported":1767968083,"current_range_meters":8400,"station_id":"ce4bho12rcd13ifvqh1g","pricing_plan_id":"cebpf4jnsgd1na2vs0mg"},{"bike_id":"d0c5aa26-d77a-4047-bf56-c6c68bc7105d","system_id":"levelo_inurba_marseille","lat":43.32108,"lon":5.36771,"is_reserved":false,"is_disabled":false,"rental_uris":{"android":"levelo://app?vid=d0c5aa26-d77a-4047-bf56-c6c68bc7105d","ios":"levelo://app?vid=d0c5aa26-d77a-4047-bf56-c6c68bc7105d"},"vehicle_type_id":"4","last_reported":1767968083,"current_range_meters":8400,"station_id":"ce4bhrh2rcd13ifvqhug","pricing_plan_id":"cebpf4jnsgd1na2vs0mg"},{"bike_id":"db6f44ee-3950-4228-ba6f-9b34da03d263","system_id":"levelo_inurba_marseille","lat":43.27103,"lon":5.42324,"is_reserved":false,"is_disabled":false,"rental_uris":{"android":"levelo://app?vid=db6f44ee-3950-4228-ba6f-9b34da03d263","ios":"levelo://app?vid=db6f44ee-3950-4228-ba6f-9b34da03d263"},"vehicle_type_id":"4","last_reported":1767968083,"current_range_meters":8400,"station_id":"","pricing_plan_id":"cebpf4jnsgd1na2vs0mg"},{"bike_id":"9a4ccc02-c230-4a71-aa08-76c653b49d28","system_id":"levelo_inurba_marseille","lat":43.31227,"lon":5.36852,"is_reserved":false,"is_disabled":false,"rental_uris":{"android":"levelo://app?vid=9a4ccc02-c230-4a71-aa08-76c653b49d28","ios":"levelo://app?vid=9a4ccc02-c230-4a71-aa08-76c653b49d28"},"vehicle_type_id":"4","last_reported":1767968083,"current_range_meters":8400,"station_id":"ce4bgl92rcd13ifvqbq0","pricing_plan_id":"cebpf4jnsgd1na2vs0mg"},{"bike_id":"fd574b71-9bc4-48df-aab3-baa6a2a11192","system_id":"levelo_inurba_marseille","lat":43.25339,"lon":5.4215,"is_reserved":false,"is_disabled":false,"rental_uris":{"android":"levelo://app?vid=fd574b71-9bc4-48df-aab3-baa6a2a11192","ios":"levelo://app?vid=fd574b71-9bc4-48df-aab3-baa6a2a11192"},"vehicle_type_id":"4","last_reported":1767968083,"current_range_meters":8400,"station_id":"st_d2m65c5bi1j21697t3ng","pricing_plan_id":"cebpf4jnsgd1na2vs0mg"},{"bike_id":"2e4bd346-2ef6-4ed8-9714-fdcc0b54b9d0","system_id":"levelo_inurba_marseille","lat":43.248022,"lon":5.374574,"is_reserved":false,"is_disabled":false,"rental_uris":{"android":"levelo://app?vid=2e4bd346-2ef6-4ed8-9714-fdcc0b54b9d0","ios":"levelo://app?vid=2e4bd346-2ef6-4ed8-9714-fdcc0b54b9d0"},"vehicle_type_id":"4","last_reported":1767968083,"current_range_meters":8400,"station_id":"ce4bhgh2rcd13ifvqfb0","pricing_plan_id":"cebpf4jnsgd1na2vs0mg"},{"bike_id":"eb6bac7c-ea47-4981-b38d-8116727e3c2f","system_id":"levelo_inurba_marseille","lat":43.27818,"lon":5.40714,"is_reserved":false,"is_disabled":false,"rental_uris":{"android":"levelo://app?vid=eb6bac7c-ea47-4981-b38d-8116727e3c2f","ios":"levelo://app?vid=eb6bac7c-ea47-4981-b38d-8116727e3c2f"},"vehicle_type_id":"4","last_reported":1767968083,"current_range_meters":8400,"station_id":"ce4bhnh2rcd13ifvqgtg","pricing_plan_id":"cebpf4jnsgd1na2vs0mg"},{"bike_id":"2177e0d8-7c6c-4419-98c3-d3d4c745fbe5","system_id":"levelo_inurba_marseille","lat":43.26709,"lon":5.38257,"is_reserved":false,"is_disabled":false,"rental_uris":{"android":"levelo://app?vid=2177e0d8-7c6c-4419-98c3-d3d4c745fbe5","ios":"levelo://app?vid=2177e0d8-7c6c-4419-98c3-d3d4c745fbe5"},"vehicle_type_id":"4","last_reported":1767968083,"current_range_meters":8400,"station_id":"ce4bhg92rcd13ifvqf90","pricing_plan_id":"cebpf4jnsgd1na2vs0mg"},{"bike_id":"1e38a170-3a59-4964-ac74-f59bcf2ec101","system_id":"levelo_inurba_marseille","lat":43.30554,"lon":5.36735,"is_reserved":false,"is_disabled":false,"rental_uris":{"android":"levelo://app?vid=1e38a170-3a59-4964-ac74-f59bcf2ec101","ios":"levelo://app?vid=1e38a170-3a59-4964-ac74-f59bcf2ec101"},"vehicle_type_id":"4","last_reported":1767968083,"current_range_meters":8400,"station_id":"ce4bgrp2rcd13ifvqc9g","pricing_plan_id":"cebpf4jnsgd1na2vs0mg"},{"bike_id":"d2e2418d-c3ed-4fd0-88de-90fe98564ba8","system_id":"levelo_inurba_marseille","lat":43.32105,"lon":5.36752,"is_reserved":false,"is_disabled":false,"rental_uris":{"android":"levelo://app?vid=d2e2418d-c3ed-4fd0-88de-90fe98564ba8","ios":"levelo://app?vid=d2e2418d-c3ed-4fd0-88de-90fe98564ba8"},"vehicle_type_id":"4","last_reported":1767968083,"current_range_meters":8400,"station_id":"ce4bhrh2rcd13ifvqhug","pricing_plan_id":"cebpf4jnsgd1na2vs0mg"},{"bike_id":"64eff5d9-ed96-445e-ae9a-d87eef4a04fb","system_id":"levelo_inurba_marseille","lat":43.2397,"lon":5.36638,"is_reserved":false,"is_disabled":false,"rental_uris":{"android":"levelo://app?vid=64eff5d9-ed96-445e-ae9a-d87eef4a04fb","ios":"levelo://app?vid=64eff5d9-ed96-445e-ae9a-d87eef4a04fb"},"vehicle_type_id":"4","last_reported":1767968083,"current_range_meters":8400,"station_id":"ce4bhi12rcd13ifvqfp0","pricing_plan_id":"cebpf4jnsgd1na2vs0mg"},{"bike_id":"7b122468-a21e-4032-904d-147eb0f3f6d4","system_id":"levelo_inurba_marseille","lat":43.33148,"lon":5.3817,"is_reserved":false,"is_disabled":false,"rental_uris":{"android":"levelo://app?vid=7b122468-a21e-4032-904d-147eb0f3f6d4","ios":"levelo://app?vid=7b122468-a21e-4032-904d-147eb0f3f6d4"},"vehicle_type_id":"4","last_reported":1767968083,"current_range_meters":8400,"station_id":"","pricing_plan_id":"cebpf4jnsgd1na2vs0mg"},{"bike_id":"83d5f245-fb0f-4ec6-9063-867f9d0f37e7","system_id":"levelo_inurba_marseille","lat":43.23147,"lon":5.43711,"is_reserved":false,"is_disabled":false,"rental_uris":{"android":"levelo://app?vid=83d5f245-fb0f-4ec6-9063-867f9d0f37e7","ios":"levelo://app?vid=83d5f245-fb0f-4ec6-9063-867f9d0f37e7"},"vehicle_type_id":"4","last_reported":1767968083,"current_range_meters":8400,"station_id":"ce4bhmp2rcd13ifvqgog","pricing_plan_id":"cebpf4jnsgd1na2vs0mg"},{"bike_id":"6ab3bfcd-190a-40f9-809c-e9a46be53cc9","system_id":"levelo_inurba_marseille","lat":43.30389,"lon":5.42484,"is_reserved":false,"is_disabled":false,"rental_uris":{"android":"levelo://app?vid=6ab3bfcd-190a-40f9-809c-e9a46be53cc9","ios":"levelo://app?vid=6ab3bfcd-190a-40f9-809c-e9a46be53cc9"},"vehicle_type_id":"4","last_reported":1767968083,"current_range_meters":8400,"station_id":"ce4bhoh2rcd13ifvqh6g","pricing_plan_id":"cebpf4jnsgd1na2vs0mg"},{"bike_id":"9be47716-b6c4-4f6e-b3d9-238d6399366b","system_id":"levelo_inurba_marseille","lat":43.31368,"lon":5.40489,"is_reserved":false,"is_disabled":false,"rental_uris":{"android":"levelo://app?vid=9be47716-b6c4-4f6e-b3d9-238d6399366b","ios":"levelo://app?vid=9be47716-b6c4-4f6e-b3d9-238d6399366b"},"vehicle_type_id":"4","last_reported":1767968083,"current_range_meters":8400,"station_id":"","pricing_plan_id":"cebpf4jnsgd1na2vs0mg"},{"bike_id":"30e7f41a-5c10-4e1c-aeed-da83a0262221","system_id":"levelo_inurba_marseille","lat":43.27386,"lon":5.36248,"is_reserved":false,"is_disabled":false,"rental_uris":{"android":"levelo://app?vid=30e7f41a-5c10-4e1c-aeed-da83a0262221","ios":"levelo://app?vid=30e7f41a-5c10-4e1c-aeed-da83a0262221"},"vehicle_type_id":"4","last_reported":1767968083,"current_range_meters":8400,"station_id":"ce4bhbh2rcd13ifvqeo0","pricing_plan_id":"cebpf4jnsgd1na2vs0mg"},{"bike_id":"c0b36553-20d8-47a5-ae53-4e6416d084e7","system_id":"levelo_inurba_marseille","lat":43.23782,"lon":5.36634,"is_reserved":false,"is_disabled":false,"rental_uris":{"android":"levelo://app?vid=c0b36553-20d8-47a5-ae53-4e6416d084e7","ios":"levelo://app?vid=c0b36553-20d8-47a5-ae53-4e6416d084e7"},"vehicle_type_id":"4","last_reported":1767968083,"current_range_meters":8400,"station_id":"st_d3nk18o9ro0c73en2l3g","pricing_plan_id":"cebpf4jnsgd1na2vs0mg"},{"bike_id":"480b934a-31c3-4b97-9a61-cd07755cc2f2","system_id":"levelo_inurba_marseille","lat":43.29177,"lon":5.3581,"is_reserved":false,"is_disabled":false,"rental_uris":{"android":"levelo://app?vid=480b934a-31c3-4b97-9a61-cd07755cc2f2","ios":"levelo://app?vid=480b934a-31c3-4b97-9a61-cd07755cc2f2"},"vehicle_type_id":"4","last_reported":1767968083,"current_range_meters":8800,"station_id":"ce4bhb12rcd13ifvqel0","pricing_plan_id":"cebpf4jnsgd1na2vs0mg"},{"bike_id":"f7df1521-8a91-4b2d-b31b-894fbd8f101a","system_id":"levelo_inurba_marseille","lat":43.32106,"lon":5.36772,"is_reserved":false,"is_disabled":false,"rental_uris":{"android":"levelo://app?vid=f7df1521-8a91-4b2d-b31b-894fbd8f101a","ios":"levelo://app?vid=f7df1521-8a91-4b2d-b31b-894fbd8f101a"},"vehicle_type_id":"4","last_reported":1767968083,"current_range_meters":8800,"station_id":"ce4bhrh2rcd13ifvqhug","pricing_plan_id":"cebpf4jnsgd1na2vs0mg"},{"bike_id":"5b6cc84f-cd6a-4b03-81fc-76f2cab24601","system_id":"levelo_inurba_marseille","lat":43.32374,"lon":5.36737,"is_reserved":false,"is_disabled":false,"rental_uris":{"android":"levelo://app?vid=5b6cc84f-cd6a-4b03-81fc-76f2cab24601","ios":"levelo://app?vid=5b6cc84f-cd6a-4b03-81fc-76f2cab24601"},"vehicle_type_id":"4","last_reported":1767968083,"current_range_meters":8800,"station_id":"ce4bhsh2rcd13ifvqi2g","pricing_plan_id":"cebpf4jnsgd1na2vs0mg"},{"bike_id":"6035217f-b25a-454c-9a3f-682685144994","system_id":"levelo_inurba_marseille","lat":43.23208,"lon":5.39994,"is_reserved":false,"is_disabled":false,"rental_uris":{"android":"levelo://app?vid=6035217f-b25a-454c-9a3f-682685144994","ios":"levelo://app?vid=6035217f-b25a-454c-9a3f-682685144994"},