{"last_updated":1731103707,"ttl":60,"version":"2.2","data":{"bikes":[{"bike_id":"db1270ab-1d82-4751-8226-c53da6298ee0","system_id":"levelo_inurba_marseille","lat":43.27565,"lon":5.3842,"is_reserved":false,"is_disabled":false,"rental_uris":{"android":"levelo://app?vid=db1270ab-1d82-4751-8226-c53da6298ee0","ios":"levelo://app?vid=db1270ab-1d82-4751-8226-c53da6298ee0"},"vehicle_type_id":"4","last_reported":1731103707,"current_range_meters":38800,"station_id":"ce4bhh92rcd13ifvqfi0","pricing_plan_id":"cebpf4jnsgd1na2vs0mg"},{"bike_id":"37b18ebd-4aa0-4ca2-bfbb-ac9479701cc7","system_id":"levelo_inurba_marseille","lat":43.280745,"lon":5.396518,"is_reserved":false,"is_disabled":false,"rental_uris":{"android":"levelo://app?vid=37b18ebd-4aa0-4ca2-bfbb-ac9479701cc7","ios":"levelo://app?vid=37b18ebd-4aa0-4ca2-bfbb-ac9479701cc7"},"vehicle_type_id":"4","last_reported":1731103707,"current_range_meters":39200,"station_id":"ce4bho12rcd13ifvqh2g","pricing_plan_id":"cebpf4jnsgd1na2vs0mg"},{"bike_id":"bc9ad84d-5cec-457f-9b01-7ecc4819cbd6","system_id":"levelo_inurba_marseille","lat":43.28734,"lon":5.3608,"is_reserved":false,"is_disabled":false,"rental_uris":{"android":"levelo://app?vid=bc9ad84d-5cec-457f-9b01-7ecc4819cbd6","ios":"levelo://app?vid=bc9ad84d-5cec-457f-9b01-7ecc4819cbd6"},"vehicle_type_id":"4","last_reported":1731103707,"current_range_meters":34800,"station_id":"cki0cbj6b192h4jlfktg","pricing_plan_id":"cebpf4jnsgd1na2vs0mg"},{"bike_id":"66549fc8-049a-47ff-ae3b-a4987ed72352","system_id":"levelo_inurba_marseille","lat":43.26557,"lon":5.37287,"is_reserved":false,"is_disabled":false,"rental_uris":{"android":"levelo://app?vid=66549fc8-049a-47ff-ae3b-a4987ed72352","ios":"levelo://app?vid=66549fc8-049a-47ff-ae3b-a4987ed72352"},"vehicle_type_id":"4","last_reported":1731103707,"current_range_meters":35200,"station_id":"ce4bhg12rcd13ifvqf70","pricing_plan_id":"cebpf4jnsgd1na2vs0mg"},{"bike_id":"06bb3e06-6dfc-4c7a-bbfb-aaacb082969f","system_id":"levelo_inurba_marseille","lat":43.25096,"lon":5.4032,"is_reserved":false,"is_disabled":false,"rental_uris":{"android":"levelo://app?vid=06bb3e06-6dfc-4c7a-bbfb-aaacb082969f","ios":"levelo://app?vid=06bb3e06-6dfc-4c7a-bbfb-aaacb082969f"},"vehicle_type_id":"4","last_reported":1731103707,"current_range_meters":36000,"station_id":"ce4bhlh2rcd13ifvqgig","pricing_plan_id":"cebpf4jnsgd1na2vs0mg"},{"bike_id":"68bb9078-c705-4e4c-81de-7ae7c7d86c43","system_id":"levelo_inurba_marseille","lat":43.31713,"lon":5.37725,"is_reserved":false,"is_disabled":false,"rental_uris":{"android":"levelo://app?vid=68bb9078-c705-4e4c-81de-7ae7c7d86c43","ios":"levelo://app?vid=68bb9078-c705-4e4c-81de-7ae7c7d86c43"},"vehicle_type_id":"4","last_reported":1731103707,"current_range_meters":32000,"station_id":"ce4bgth2rcd13ifvqch0","pricing_plan_id":"cebpf4jnsgd1na2vs0mg"},{"bike_id":"f0d87bb0-3cdc-45c3-add2-72ad407bd729","system_id":"levelo_inurba_marseille","lat":43.29545,"lon":5.3775,"is_reserved":false,"is_disabled":false,"rental_uris":{"android":"levelo://app?vid=f0d87bb0-3cdc-45c3-add2-72ad407bd729","ios":"levelo://app?vid=f0d87bb0-3cdc-45c3-add2-72ad407bd729"},"vehicle_type_id":"4","last_reported":1731103707,"current_range_meters":38800,"station_id":"ce4bgi92rcd13ifvqb90","pricing_plan_id":"cebpf4jnsgd1na2vs0mg"},{"bike_id":"0ff4e3e5-5144-4fdb-9afd-d988e88ae58e","system_id":"levelo_inurba_marseille","lat":43.337444,"lon":5.374475,"is_reserved":false,"is_disabled":false,"rental_uris":{"android":"levelo://app?vid=0ff4e3e5-5144-4fdb-9afd-d988e88ae58e","ios":"levelo://app?vid=0ff4e3e5-5144-4fdb-9afd-d988e88ae58e"},"vehicle_type_id":"4","last_reported":1731103707,"current_range_meters":19600,"station_id":"","pricing_plan_id":"cebpf4jnsgd1na2vs0mg"},{"bike_id":"86a57715-6f86-4a9f-9c3b-a047edbc1c70","system_id":"levelo_inurba_marseille","lat":43.28939,"lon":5.39623,"is_reserved":false,"is_disabled":false,"rental_uris":{"android":"levelo://app?vid=86a57715-6f86-4a9f-9c3b-a047edbc1c70","ios":"levelo://app?vid=86a57715-6f86-4a9f-9c3b-a047edbc1c70"},"vehicle_type_id":"4","last_reported":1731103707,"current_range_meters":10800,"station_id":"ce4bh3h2rcd13ifvqdn0","pricing_plan_id":"cebpf4jnsgd1na2vs0mg"},{"bike_id":"6ac7e4be-d74c-46d1-822d-eafbc54ae296","system_id":"levelo_inurba_marseille","lat":43.29523,"lon":5.3939,"is_reserved":false,"is_disabled":false,"rental_uris":{"android":"levelo://app?vid=6ac7e4be-d74c-46d1-822d-eafbc54ae296","ios":"levelo://app?vid=6ac7e4be-d74c-46d1-822d-eafbc54ae296"},"vehicle_type_id":"4","last_reported":1731103707,"current_range_meters":24000,"station_id":"ce4bh292rcd13ifvqdf0","pricing_plan_id":"cebpf4jnsgd1na2vs0mg"},{"bike_id":"afda68a6-293f-426a-8343-7b0a73e7e20b","system_id":"levelo_inurba_marseille","lat":43.29737,"lon":5.37695,"is_reserved":false,"is_disabled":false,"rental_uris":{"android":"levelo://app?vid=afda68a6-293f-426a-8343-7b0a73e7e20b","ios":"levelo://app?vid=afda68a6-293f-426a-8343-7b0a73e7e20b"},"vehicle_type_id":"4","last_reported":1731103707,"current_range_meters":39200,"station_id":"ce4bgkh2rcd13ifvqbl0","pricing_plan_id":"cebpf4jnsgd1na2vs0mg"},{"bike_id":"e899eac6-4691-43b6-92e8-21ecece2b174","system_id":"levelo_inurba_marseille","lat":43.31073,"lon":5.38351,"is_reserved":false,"is_disabled":false,"rental_uris":{"android":"levelo://app?vid=e899eac6-4691-43b6-92e8-21ecece2b174","ios":"levelo://app?vid=e899eac6-4691-43b6-92e8-21ecece2b174"},"vehicle_type_id":"4","last_reported":1731103707,"current_range_meters":26800,"station_id":"ce4bgv92rcd13ifvqcr0","pricing_plan_id":"cebpf4jnsgd1na2vs0mg"},{"bike_id":"38a58aa9-71c3-489a-a842-676424ff26d3","system_id":"levelo_inurba_marseille","lat":43.28678,"lon":5.38663,"is_reserved":false,"is_disabled":false,"rental_uris":{"android":"levelo://app?vid=38a58aa9-71c3-489a-a842-676424ff26d3","ios":"levelo://app?vid=38a58aa9-71c3-489a-a842-676424ff26d3"},"vehicle_type_id":"4","last_reported":1731103707,"current_range_meters":39200,"station_id":"ce4bh492rcd13ifvqdug","pricing_plan_id":"cebpf4jnsgd1na2vs0mg"},{"bike_id":"7a61aa54-4124-4dcd-858b-db846d80c8c4","system_id":"levelo_inurba_marseille","lat":43.27621,"lon":5.36112,"is_reserved":false,"is_disabled":false,"rental_uris":{"android":"levelo://app?vid=7a61aa54-4124-4dcd-858b-db846d80c8c4","ios":"levelo://app?vid=7a61aa54-4124-4dcd-858b-db846d80c8c4"},"vehicle_type_id":"4","last_reported":1731103707,"current_range_meters":6000,"station_id":"ce4bgj92rcd13ifvqbe0","pricing_plan_id":"cebpf4jnsgd1na2vs0mg"},{"bike_id":"bdd10c90-2ab5-4a28-ad01-095799b15206","system_id":"levelo_inurba_marseille","lat":43.34139,"lon":5.409,"is_reserved":false,"is_disabled":false,"rental_uris":{"android":"levelo://app?vid=bdd10c90-2ab5-4a28-ad01-095799b15206","ios":"levelo://app?vid=bdd10c90-2ab5-4a28-ad01-095799b15206"},"vehicle_type_id":"4","last_reported":1731103707,"current_range_meters":29600,"station_id":"ce4bhqh2rcd13ifvqhlg","pricing_plan_id":"cebpf4jnsgd1na2vs0mg"},{"bike_id":"0dd4ceff-166c-493e-8dc7-bfbebd617d6f","system_id":"levelo_inurba_marseille","lat":43.2927,"lon":5.38433,"is_reserved":false,"is_disabled":false,"rental_uris":{"android":"levelo://app?vid=0dd4ceff-166c-493e-8dc7-bfbebd617d6f","ios":"levelo://app?vid=0dd4ceff-166c-493e-8dc7-bfbebd617d6f"},"vehicle_type_id":"4","last_reported":1731103707,"current_range_meters":14000,"station_id":"ce4bh692rcd13ifvqea0","pricing_plan_id":"cebpf4jnsgd1na2vs0mg"},{"bike_id":"ad6ff796-c433-497f-b32d-d9cf3cdcb14b","system_id":"levelo_inurba_marseille","lat":43.2942,"lon":5.3862,"is_reserved":false,"is_disabled":false,"rental_uris":{"android":"levelo://app?vid=ad6ff796-c433-497f-b32d-d9cf3cdcb14b","ios":"levelo://app?vid=ad6ff796-c433-497f-b32d-d9cf3cdcb14b"},"vehicle_type_id":"4","last_reported":1731103707,"current_range_meters":38000,"station_id":"ce4bh2h2rcd13ifvqdh0","pricing_plan_id":"cebpf4jnsgd1na2vs0mg"},{"bike_id":"27a1db85-4e78-49b1-a68a-1bd21f6f61f2","system_id":"levelo_inurba_marseille","lat":43.24653,"lon":5.38894,"is_reserved":false,"is_disabled":false,"rental_uris":{"android":"levelo://app?vid=27a1db85-4e78-49b1-a68a-1bd21f6f61f2","ios":"levelo://app?vid=27a1db85-4e78-49b1-a68a-1bd21f6f61f2"},"vehicle_type_id":"4","last_reported":1731103707,"current_range_meters":28400,"station_id":"ce4bhg12rcd13ifvqf60","pricing_plan_id":"cebpf4jnsgd1na2vs0mg"},{"bike_id":"d1a14875-c4c1-42aa-a7c2-8e96cb80e3de","system_id":"levelo_inurba_marseille","lat":43.29306,"lon":5.37179,"is_reserved":false,"is_disabled":false,"rental_uris":{"android":"levelo://app?vid=d1a14875-c4c1-42aa-a7c2-8e96cb80e3de","ios":"levelo://app?vid=d1a14875-c4c1-42aa-a7c2-8e96cb80e3de"},"vehicle_type_id":"4","last_reported":1731103707,"current_range_meters":38800,"station_id":"ce4bgh92rcd13ifvqb40","pricing_plan_id":"cebpf4jnsgd1na2vs0mg"},{"bike_id":"b2ea2d84-8520-4feb-b30b-1ffe3087e1c8","system_id":"levelo_inurba_marseille","lat":43.29256,"lon":5.38437,"is_reserved":false,"is_disabled":false,"rental_uris":{"android":"levelo://app?vid=b2ea2d84-8520-4feb-b30b-1ffe3087e1c8","ios":"levelo://app?vid=b2ea2d84-8520-4feb-b30b-1ffe3087e1c8"},"vehicle_type_id":"4","last_reported":1731103707,"current_range_meters":23200,"station_id":"ce4bh692rcd13ifvqea0","pricing_plan_id":"cebpf4jnsgd1na2vs0mg"},{"bike_id":"41a3c5f1-221a-4b57-8e6a-888d541e1a20","system_id":"levelo_inurba_marseille","lat":43.2407,"lon":5.37767,"is_reserved":false,"is_disabled":false,"rental_uris":{"android":"levelo://app?vid=41a3c5f1-221a-4b57-8e6a-888d541e1a20","ios":"levelo://app?vid=41a3c5f1-221a-4b57-8e6a-888d541e1a20"},"vehicle_type_id":"4","last_reported":1731103707,"current_range_meters":8000,"station_id":"ce4bhnp2rcd13ifvqgvg","pricing_plan_id":"cebpf4jnsgd1na2vs0mg"},{"bike_id":"b9059161-bc2a-4853-8231-de961bd5f1e7","system_id":"levelo_inurba_marseille","lat":43.337106,"lon":5.391749,"is_reserved":false,"is_disabled":false,"rental_uris":{"android":"levelo://app?vid=b9059161-bc2a-4853-8231-de961bd5f1e7","ios":"levelo://app?vid=b9059161-bc2a-4853-8231-de961bd5f1e7"},"vehicle_type_id":"4","last_reported":1731103707,"current_range_meters":25600,"station_id":"ce4bhr92rcd13ifvqhsg","pricing_plan_id":"cebpf4jnsgd1na2vs0mg"},{"bike_id":"06378b38-212e-4272-b251-15a93642382d","system_id":"levelo_inurba_marseille","lat":43.27915,"lon":5.39577,"is_reserved":false,"is_disabled":false,"rental_uris":{"android":"levelo://app?vid=06378b38-212e-4272-b251-15a93642382d","ios":"levelo://app?vid=06378b38-212e-4272-b251-15a93642382d"},"vehicle_type_id":"4","last_reported":1731103707,"current_range_meters":26000,"station_id":"ce4bhf92rcd13ifvqf40","pricing_plan_id":"cebpf4jnsgd1na2vs0mg"},{"bike_id":"efda80ee-cded-4105-b3e5-c5113cbb0258","system_id":"levelo_inurba_marseille","lat":43.29913,"lon":5.38155,"is_reserved":false,"is_disabled":false,"rental_uris":{"android":"levelo://app?vid=efda80ee-cded-4105-b3e5-c5113cbb0258","ios":"levelo://app?vid=efda80ee-cded-4105-b3e5-c5113cbb0258"},"vehicle_type_id":"4","last_reported":1731103707,"current_range_meters":37600,"station_id":"ce4bgj12rcd13ifvqbc0","pricing_plan_id":"cebpf4jnsgd1na2vs0mg"},{"bike_id":"ab2d5df1-6a82-4ee7-ae9d-a6e74a705fb9","system_id":"levelo_inurba_marseille","lat":43.27903,"lon":5.39581,"is_reserved":false,"is_disabled":false,"rental_uris":{"android":"levelo://app?vid=ab2d5df1-6a82-4ee7-ae9d-a6e74a705fb9","ios":"levelo://app?vid=ab2d5df1-6a82-4ee7-ae9d-a6e74a705fb9"},"vehicle_type_id":"4","last_reported":1731103707,"current_range_meters":24400,"station_id":"ce4bhf92rcd13ifvqf40","pricing_plan_id":"cebpf4jnsgd1na2vs0mg"},{"bike_id":"5f4d64f3-e29d-4926-8e45-a584b961ba4a","system_id":"levelo_inurba_marseille","lat":43.26531,"lon":5.39511,"is_reserved":false,"is_disabled":false,"rental_uris":{"android":"levelo://app?vid=5f4d64f3-e29d-4926-8e45-a584b961ba4a","ios":"levelo://app?vid=5f4d64f3-e29d-4926-8e45-a584b961ba4a"},"vehicle_type_id":"4","last_reported":1731103707,"current_range_meters":30400,"station_id":"ce4bhi12rcd13ifvqfq0","pricing_plan_id":"cebpf4jnsgd1na2vs0mg"},{"bike_id":"f4ef053d-e709-4411-bdd9-de1d0f41e46f","system_id":"levelo_inurba_marseille","lat":43.2293,"lon":5.35374,"is_reserved":false,"is_disabled":false,"rental_uris":{"android":"levelo://app?vid=f4ef053d-e709-4411-bdd9-de1d0f41e46f","ios":"levelo://app?vid=f4ef053d-e709-4411-bdd9-de1d0f41e46f"},"vehicle_type_id":"4","last_reported":1731103707,"current_range_meters":39200,"station_id":"cpo3532slgdg3j2ikp40","pricing_plan_id":"cebpf4jnsgd1na2vs0mg"},{"bike_id":"fadedcf9-dfd3-4e59-94d6-79eeeb18d149","system_id":"levelo_inurba_marseille","lat":43.28937,"lon":5.36629,"is_reserved":false,"is_disabled":false,"rental_uris":{"android":"levelo://app?vid=fadedcf9-dfd3-4e59-94d6-79eeeb18d149","ios":"levelo://app?vid=fadedcf9-dfd3-4e59-94d6-79eeeb18d149"},"vehicle_type_id":"4","last_reported":1731103707,"current_range_meters":38400,"station_id":"ce4bhap2rcd13ifvqek0","pricing_plan_id":"cebpf4jnsgd1na2vs0mg"},{"bike_id":"59de6705-8698-4a5f-802b-0ae588d25468","system_id":"levelo_inurba_marseille","lat":43.28939,"lon":5.3664,"is_reserved":false,"is_disabled":false,"rental_uris":{"android":"levelo://app?vid=59de6705-8698-4a5f-802b-0ae588d25468","ios":"levelo://app?vid=59de6705-8698-4a5f-802b-0ae588d25468"},"vehicle_type_id":"4","last_reported":1731103707,"current_range_meters":28400,"station_id":"ce4bhap2rcd13ifvqek0","pricing_plan_id":"cebpf4jnsgd1na2vs0mg"},{"bike_id":"32c2bd90-d3d2-4c4e-9401-f0ea9e3ce881","system_id":"levelo_inurba_marseille","lat":43.29262,"lon":5.3843,"is_reserved":false,"is_disabled":false,"rental_uris":{"android":"levelo://app?vid=32c2bd90-d3d2-4c4e-9401-f0ea9e3ce881","ios":"levelo://app?vid=32c2bd90-d3d2-4c4e-9401-f0ea9e3ce881"},"vehicle_type_id":"4","last_reported":1731103707,"current_range_meters":38800,"station_id":"ce4bh692rcd13ifvqea0","pricing_plan_id":"cebpf4jnsgd1na2vs0mg"},{"bike_id":"b46d8704-507c-4c8c-901e-28a2fc75bec7","system_id":"levelo_inurba_marseille","lat":43.30311,"lon":5.39209,"is_reserved":false,"is_disabled":false,"rental_uris":{"android":"levelo://app?vid=b46d8704-507c-4c8c-901e-28a2fc75bec7","ios":"levelo://app?vid=b46d8704-507c-4c8c-901e-28a2fc75bec7"},"vehicle_type_id":"4","last_reported":1731103707,"current_range_meters":25600,"station_id":"ce4bgkh2rcd13ifvqbk0","pricing_plan_id":"cebpf4jnsgd1na2vs0mg"},{"bike_id":"35b784e8-9626-4e3d-aab7-d34bc098e685","system_id":"levelo_inurba_marseille","lat":43.290427,"lon":5.39947,"is_reserved":false,"is_disabled":false,"rental_uris":{"android":"levelo://app?vid=35b784e8-9626-4e3d-aab7-d34bc098e685","ios":"levelo://app?vid=35b784e8-9626-4e3d-aab7-d34bc098e685"},"vehicle_type_id":"4","last_reported":1731103707,"current_range_meters":9600,"station_id":"ce4bh392rcd13ifvqdm0","pricing_plan_id":"cebpf4jnsgd1na2vs0mg"},{"bike_id":"a3e9c29e-c5e4-4cd3-b7ff-2b52e9e3d06b","system_id":"levelo_inurba_marseille","lat":43.28442,"lon":5.39207,"is_reserved":false,"is_disabled":false,"rental_uris":{"android":"levelo://app?vid=a3e9c29e-c5e4-4cd3-b7ff-2b52e9e3d06b","ios":"levelo://app?vid=a3e9c29e-c5e4-4cd3-b7ff-2b52e9e3d06b"},"vehicle_type_id":"4","last_reported":1731103707,"current_range_meters":34800,"station_id":"ce4bhoh2rcd13ifvqh5g","pricing_plan_id":"cebpf4jnsgd1na2vs0mg"},{"bike_id":"82f750ef-4c11-46df-bf3f-eb1ee954f51e","system_id":"levelo_inurba_marseille","lat":43.30882,"lon":5.39632,"is_reserved":false,"is_disabled":false,"rental_uris":{"android":"levelo://app?vid=82f750ef-4c11-46df-bf3f-eb1ee954f51e","ios":"levelo://app?vid=82f750ef-4c11-46df-bf3f-eb1ee954f51e"},"vehicle_type_id":"4","last_reported":1731103707,"current_range_meters":28000,"station_id":"ce4bh012rcd13ifvqcv0","pricing_plan_id":"cebpf4jnsgd1na2vs0mg"},{"bike_id":"2f3ef333-964e-4579-b425-b7a8a7e7b0d6","system_id":"levelo_inurba_marseille","lat":43.2955,"lon":5.42291,"is_reserved":false,"is_disabled":false,"rental_uris":{"android":"levelo://app?vid=2f3ef333-964e-4579-b425-b7a8a7e7b0d6","ios":"levelo://app?vid=2f3ef333-964e-4579-b425-b7a8a7e7b0d6"},"vehicle_type_id":"4","last_reported":1731103707,"current_range_meters":17600,"station_id":"ce4bhph2rcd13ifvqhdg","pricing_plan_id":"cebpf4jnsgd1na2vs0mg"},{"bike_id":"8b47365c-89c9-4ef1-88e8-730b0708fab9","system_id":"levelo_inurba_marseille","lat":43.2867,"lon":5.3868,"is_reserved":false,"is_disabled":false,"rental_uris":{"android":"levelo://app?vid=8b47365c-89c9-4ef1-88e8-730b0708fab9","ios":"levelo://app?vid=8b47365c-89c9-4ef1-88e8-730b0708fab9"},"vehicle_type_id":"4","last_reported":1731103707,"current_range_meters":16800,"station_id":"ce4bh492rcd13ifvqdug","pricing_plan_id":"cebpf4jnsgd1na2vs0mg"},{"bike_id":"0068481c-09a4-465d-a885-c578d3b25bf9","system_id":"levelo_inurba_marseille","lat":43.29419,"lon":5.38622,"is_reserved":false,"is_disabled":false,"rental_uris":{"android":"levelo://app?vid=0068481c-09a4-465d-a885-c578d3b25bf9","ios":"levelo://app?vid=0068481c-09a4-465d-a885-c578d3b25bf9"},"vehicle_type_id":"4","last_reported":1731103707,"current_range_meters":12800,"station_id":"ce4bh2h2rcd13ifvqdh0","pricing_plan_id":"cebpf4jnsgd1na2vs0mg"},{"bike_id":"7243fcc8-e91d-49aa-a78b-3d82c9cf3c65","system_id":"levelo_inurba_marseille","lat":43.28585,"lon":5.35059,"is_reserved":false,"is_disabled":false,"rental_uris":{"android":"levelo://app?vid=7243fcc8-e91d-49aa-a78b-3d82c9cf3c65","ios":"levelo://app?vid=7243fcc8-e91d-49aa-a78b-3d82c9cf3c65"},"vehicle_type_id":"4","last_reported":1731103707,"current_range_meters":37600,"station_id":"","pricing_plan_id":"cebpf4jnsgd1na2vs0mg"},{"bike_id":"71bb50a1-6cdb-4a6f-b24c-1cbd7c603ad3","system_id":"levelo_inurba_marseille","lat":43.314245,"lon":5.374011,"is_reserved":false,"is_disabled":false,"rental_uris":{"android":"levelo://app?vid=71bb50a1-6cdb-4a6f-b24c-1cbd7c603ad3","ios":"levelo://app?vid=71bb50a1-6cdb-4a6f-b24c-1cbd7c603ad3"},"vehicle_type_id":"4","last_reported":1731103707,"current_range_meters":31200,"station_id":"","pricing_plan_id":"cebpf4jnsgd1na2vs0mg"},{"bike_id":"b4ad1abe-6669-4317-b6c7-ea7e704ed285","system_id":"levelo_inurba_marseille","lat":43.29586,"lon":5.36744,"is_reserved":false,"is_disabled":false,"rental_uris":{"android":"levelo://app?vid=b4ad1abe-6669-4317-b6c7-ea7e704ed285","ios":"levelo://app?vid=b4ad1abe-6669-4317-b6c7-ea7e704ed285"},"vehicle_type_id":"4","last_reported":1731103707,"current_range_meters":39200,"station_id":"ce4bgph2rcd13ifvqc2g","pricing_plan_id":"cebpf4jnsgd1na2vs0mg"},{"bike_id":"ff467891-7b0f-4851-8db2-7f7247327ba0","system_id":"levelo_inurba_marseille","lat":43.24677,"lon":5.38162,"is_reserved":false,"is_disabled":false,"rental_uris":{"android":"levelo://app?vid=ff467891-7b0f-4851-8db2-7f7247327ba0","ios":"levelo://app?vid=ff467891-7b0f-4851-8db2-7f7247327ba0"},"vehicle_type_id":"4","last_reported":1731103707,"current_range_meters":27200,"station_id":"ce4bhih2rcd13ifvqfr0","pricing_plan_id":"cebpf4jnsgd1na2vs0mg"},{"bike_id":"b8fdd341-0697-41ca-82c9-e4253415f4e6","system_id":"levelo_inurba_marseille","lat":43.23055,"lon":5.35495,"is_reserved":false,"is_disabled":false,"rental_uris":{"android":"levelo://app?vid=b8fdd341-0697-41ca-82c9-e4253415f4e6","ios":"levelo://app?vid=b8fdd341-0697-41ca-82c9-e4253415f4e6"},"vehicle_type_id":"4","last_reported":1731103707,"current_range_meters":35600,"station_id":"cpo3342slgdg3j2ifvpg","pricing_plan_id":"cebpf4jnsgd1na2vs0mg"},{"bike_id":"ef324560-12c5-4148-af3f-a0021ee9327d","system_id":"levelo_inurba_marseille","lat":43.29268,"lon":5.38441,"is_reserved":false,"is_disabled":false,"rental_uris":{"android":"levelo://app?vid=ef324560-12c5-4148-af3f-a0021ee9327d","ios":"levelo://app?vid=ef324560-12c5-4148-af3f-a0021ee9327d"},"vehicle_type_id":"4","last_reported":1731103707,"current_range_meters":39200,"station_id":"ce4bh692rcd13ifvqea0","pricing_plan_id":"cebpf4jnsgd1na2vs0mg"},{"bike_id":"1e8bab77-3bcf-4a8d-8d6a-20b19a2bdf6c","system_id":"levelo_inurba_marseille","lat":43.28271,"lon":5.3508,"is_reserved":false,"is_disabled":false,"rental_uris":{"android":"levelo://app?vid=1e8bab77-3bcf-4a8d-8d6a-20b19a2bdf6c","ios":"levelo://app?vid=1e8bab77-3bcf-4a8d-8d6a-20b19a2bdf6c"},"vehicle_type_id":"4","last_reported":1731103707,"current_range_meters":38000,"station_id":"ce4bhbp2rcd13ifvqerg","pricing_plan_id":"cebpf4jnsgd1na2vs0mg"},{"bike_id":"a9218f75-adb9-4565-9e70-f738f29284a8","system_id":"levelo_inurba_marseille","lat":43.28925,"lon":5.36398,"is_reserved":false,"is_disabled":false,"rental_uris":{"android":"levelo://app?vid=a9218f75-adb9-4565-9e70-f738f29284a8","ios":"levelo://app?vid=a9218f75-adb9-4565-9e70-f738f29284a8"},"vehicle_type_id":"4","last_reported":1731103707,"current_range_meters":26800,"station_id":"ce4bhc92rcd13ifvqetg","pricing_plan_id":"cebpf4jnsgd1na2vs0mg"},{"bike_id":"b098a036-5719-4e78-90a0-db0152915449","system_id":"levelo_inurba_marseille","lat":43.27997,"lon":5.41667,"is_reserved":false,"is_disabled":false,"rental_uris":{"android":"levelo://app?vid=b098a036-5719-4e78-90a0-db0152915449","ios":"levelo://app?vid=b098a036-5719-4e78-90a0-db0152915449"},"vehicle_type_id":"4","last_reported":1731103707,"current_range_meters":39200,"station_id":"ce4bho12rcd13ifvqh1g","pricing_plan_id":"cebpf4jnsgd1na2vs0mg"},{"bike_id":"dbbdadab-0e33-48bc-8610-321686f34876","system_id":"levelo_inurba_marseille","lat":43.29519,"lon":5.39409,"is_reserved":false,"is_disabled":false,"rental_uris":{"android":"levelo://app?vid=dbbdadab-0e33-48bc-8610-321686f34876","ios":"levelo://app?vid=dbbdadab-0e33-48bc-8610-321686f34876"},"vehicle_type_id":"4","last_reported":1731103707,"current_range_meters":38400,"station_id":"ce4bh292rcd13ifvqdf0","pricing_plan_id":"cebpf4jnsgd1na2vs0mg"},{"bike_id":"bf21a704-ba1a-4748-a5c3-dbf705e3a967","system_id":"levelo_inurba_marseille","lat":43.31358,"lon":5.36738,"is_reserved":false,"is_disabled":false,"rental_uris":{"android":"levelo://app?vid=bf21a704-ba1a-4748-a5c3-dbf705e3a967","ios":"levelo://app?vid=bf21a704-ba1a-4748-a5c3-dbf705e3a967"},"vehicle_type_id":"4","last_reported":1731103707,"current_range_meters":25200,"station_id":"ce4bgr92rcd13ifvqc6g","pricing_plan_id":"cebpf4jnsgd1na2vs0mg"},{"bike_id":"6de08f95-1ac0-4aa9-9d0f-86f4adf78a03","system_id":"levelo_inurba_marseille","lat":43.29536,"lon":5.38543,"is_reserved":false,"is_disabled":false,"rental_uris":{"android":"levelo://app?vid=6de08f95-1ac0-4aa9-9d0f-86f4adf78a03","ios":"levelo://app?vid=6de08f95-1ac0-4aa9-9d0f-86f4adf78a03"},"vehicle_type_id":"4","last_reported":1731103707,"current_range_meters":38800,"station_id":"ce4bgih2rcd13ifvqba0","pricing_plan_id":"cebpf4jnsgd1na2vs0mg"},{"bike_id":"0a876694-306a-4ee2-9793-54d1762b80c7","system_id":"levelo_inurba_marseille","lat":43.28942,"lon":5.36631,"is_reserved":false,"is_disabled":false,"rental_uris":{"android":"levelo://app?vid=0a876694-306a-4ee2-9793-54d1762b80c7","ios":"levelo://app?vid=0a876694-306a-4ee2-9793-54d1762b80c7"},"vehicle_type_id":"4","last_reported":1731103707,"current_range_meters":39200,"station_id":"ce4bhap2rcd13ifvqek0","pricing_plan_id":"cebpf4jnsgd1na2vs0mg"},{"bike_id":"84295f8d-41ac-40c9-acd4-fdcb78fbebe8","system_id":"levelo_inurba_marseille","lat":43.24808,"lon":5.37462,"is_reserved":false,"is_disabled":false,"rental_uris":{"android":"levelo://app?vid=84295f8d-41ac-40c9-acd4-fdcb78fbebe8","ios":"levelo://app?vid=84295f8d-41ac-40c9-acd4-fdcb78fbebe8"},"vehicle_type_id":"4","last_reported":1731103707,"current_range_meters":3200,"station_id":"ce4bhgh2rcd13ifvqfb0","pricing_plan_id":"cebpf4jnsgd1na2vs0mg"},{"bike_id":"24fe3a95-aa50-4e46-84b9-72dfa61a474e","system_id":"levelo_inurba_marseille","lat":43.26948,"lon":5.38627,"is_reserved":false,"is_disabled":false,"rental_uris":{"android":"levelo://app?vid=24fe3a95-aa50-4e46-84b9-72dfa61a474e","ios":"levelo://app?vid=24fe3a95-aa50-4e46-84b9-72dfa61a474e"},"vehicle_type_id":"4","last_reported":1731103707,"current_range_meters":38400,"station_id":"ce4bhh92rcd13ifvqfh0","pricing_plan_id":"cebpf4jnsgd1na2vs0mg"},{"bike_id":"ca066bf9-c1cf-41c8-ad68-6c7236949b25","system_id":"levelo_inurba_marseille","lat":43.31273,"lon":5.40178,"is_reserved":false,"is_disabled":false,"rental_uris":{"android":"levelo://app?vid=ca066bf9-c1cf-41c8-ad68-6c7236949b25","ios":"levelo://app?vid=ca066bf9-c1cf-41c8-ad68-6c7236949b25"},"vehicle_type_id":"4","last_reported":1731103707,"current_range_meters":25600,"station_id":"ce4bh092rcd13ifvqd30","pricing_plan_id":"cebpf4jnsgd1na2vs0mg"},{"bike_id":"cdbc4d6f-1082-4453-983c-dfa08db6dd0d","system_id":"levelo_inurba_marseille","lat":43.2953,"lon":5.39045,"is_reserved":false,"is_disabled":false,"rental_uris":{"android":"levelo://app?vid=cdbc4d6f-1082-4453-983c-dfa08db6dd0d","ios":"levelo://app?vid=cdbc4d6f-1082-4453-983c-dfa08db6dd0d"},"vehicle_type_id":"4","last_reported":1731103707,"current_range_meters":33600,"station_id":"ce4bh3p2rcd13ifvqdp0","pricing_plan_id":"cebpf4jnsgd1na2vs0mg"},{"bike_id":"dbe1ee58-77eb-4a4b-b965-2fa3fdb48b3f","system_id":"levelo_inurba_marseille","lat":43.31273,"lon":5.4017,"is_reserved":false,"is_disabled":false,"rental_uris":{"android":"levelo://app?vid=dbe1ee58-77eb-4a4b-b965-2fa3fdb48b3f","ios":"levelo://app?vid=dbe1ee58-77eb-4a4b-b965-2fa3fdb48b3f"},"vehicle_type_id":"4","last_reported":1731103707,"current_range_meters":27200,"station_id":"ce4bh092rcd13ifvqd30","pricing_plan_id":"cebpf4jnsgd1na2vs0mg"},{"bike_id":"d7a9d3de-7c60-44b1-a473-60c312511565","system_id":"levelo_inurba_marseille","lat":43.29418,"lon":5.38629,"is_reserved":false,"is_disabled":false,"rental_uris":{"android":"levelo://app?vid=d7a9d3de-7c60-44b1-a473-60c312511565","ios":"levelo://app?vid=d7a9d3de-7c60-44b1-a473-60c312511565"},"vehicle_type_id":"4","last_reported":1731103707,"current_range_meters":38800,"station_id":"ce4bh2h2rcd13ifvqdh0","pricing_plan_id":"cebpf4jnsgd1na2vs0mg"},{"bike_id":"84734344-4100-498f-90db-13a43f921e51","system_id":"levelo_inurba_marseille","lat":43.29618,"lon":5.37151,"is_reserved":false,"is_disabled":false,"rental_uris":{"android":"levelo://app?vid=84734344-4100-498f-90db-13a43f921e51","ios":"levelo://app?vid=84734344-4100-498f-90db-13a43f921e51"},"vehicle_type_id":"4","last_reported":1731103707,"current_range_meters":28000,"station_id":"ce4bgnh2rcd13ifvqc0g","pricing_plan_id":"cebpf4jnsgd1na2vs0mg"},{"bike_id":"7669236b-d37e-43f2-9bba-04b60d3f7c37","system_id":"levelo_inurba_marseille","lat":43.31225,"lon":5.36861,"is_reserved":false,"is_disabled":false,"rental_uris":{"android":"levelo://app?vid=7669236b-d37e-43f2-9bba-04b60d3f7c37","ios":"levelo://app?vid=7669236b-d37e-43f2-9bba-04b60d3f7c37"},"vehicle_type_id":"4","last_reported":1731103707,"current_range_meters":10000,"station_id":"ce4bgl92rcd13ifvqbq0","pricing_plan_id":"cebpf4jnsgd1na2vs0mg"},{"bike_id":"33e35a2a-fc24-4c75-9336-3d5da186a610","system_id":"levelo_inurba_marseille","lat":43.28679,"lon":5.38662,"is_reserved":false,"is_disabled":false,"rental_uris":{"android":"levelo://app?vid=33e35a2a-fc24-4c75-9336-3d5da186a610","ios":"levelo://app?vid=33e35a2a-fc24-4c75-9336-3d5da186a610"},"vehicle_type_id":"4","last_reported":1731103707,"current_range_meters":10000,"station_id":"ce4bh492rcd13ifvqdug","pricing_plan_id":"cebpf4jnsgd1na2vs0mg"},{"bike_id":"8b8b72aa-0b34-4080-b8e4-df880240b9be","system_id":"levelo_inurba_marseille","lat":43.29278,"lon":5.40119,"is_reserved":false,"is_disabled":false,"rental_uris":{"android":"levelo://app?vid=8b8b72aa-0b34-4080-b8e4-df880240b9be","ios":"levelo://app?vid=8b8b72aa-0b34-4080-b8e4-df880240b9be"},"vehicle_type_id":"4","last_reported":1731103707,"current_range_meters":8000,"station_id":"ce4bh312rcd13ifvqdk0","pricing_plan_id":"cebpf4jnsgd1na2vs0mg"},{"bike_id":"9e0ab518-9152-4e19-8ce8-075078936e7a","system_id":"levelo_inurba_marseille","lat":43.2559,"lon":5.38231,"is_reserved":false,"is_disabled":false,"rental_uris":{"android":"levelo://app?vid=9e0ab518-9152-4e19-8ce8-075078936e7a","ios":"levelo://app?vid=9e0ab518-9152-4e19-8ce8-075078936e7a"},"vehicle_type_id":"4","last_reported":1731103707,"current_range_meters":16400,"station_id":"ce4bhih2rcd13ifvqfs0","pricing_plan_id":"cebpf4jnsgd1na2vs0mg"},{"bike_id":"d39c8278-f1e4-41c6-b2c6-0323b764da94","system_id":"levelo_inurba_marseille","lat":43.29799,"lon":5.40402,"is_reserved":false,"is_disabled":false,"rental_uris":{"android":"levelo://app?vid=d39c8278-f1e4-41c6-b2c6-0323b764da94","ios":"levelo://app?vid=d39c8278-f1e4-41c6-b2c6-0323b764da94"},"vehicle_type_id":"4","last_reported":1731103707,"current_range_meters":0,"station_id":"ce4bh112rcd13ifvqd90","pricing_plan_id":"cebpf4jnsgd1na2vs0mg"},{"bike_id":"5a51db41-9e4f-477f-920b-33379583a86c","system_id":"levelo_inurba_marseille","lat":43.2953,"lon":5.3854,"is_reserved":false,"is_disabled":false,"rental_uris":{"android":"levelo://app?vid=5a51db41-9e4f-477f-920b-33379583a86c","ios":"levelo://app?vid=5a51db41-9e4f-477f-920b-33379583a86c"},"vehicle_type_id":"4","last_reported":1731103707,"current_range_meters":39200,"station_id":"ce4bgih2rcd13ifvqba0","pricing_plan_id":"cebpf4jnsgd1na2vs0mg"},{"bike_id":"ee5c7eee-ed76-4e67-9a53-d5b6d429af28","system_id":"levelo_inurba_marseille","lat":43.29538,"lon":5.38551,"is_reserved":false,"is_disabled":false,"rental_uris":{"android":"levelo://app?vid=ee5c7eee-ed76-4e67-9a53-d5b6d429af28","ios":"levelo://app?vid=ee5c7eee-ed76-4e67-9a53-d5b6d429af28"},"vehicle_type_id":"4","last_reported":1731103707,"current_range_meters":27600,"station_id":"ce4bgih2rcd13ifvqba0","pricing_plan_id":"cebpf4jnsgd1na2vs0mg"},{"bike_id":"f2b88fdd-2e0b-4b5e-888c-35155555732c","system_id":"levelo_inurba_marseille","lat":43.31998,"lon":5.38154,"is_reserved":false,"is_disabled":false,"rental_uris":{"android":"levelo://app?vid=f2b88fdd-2e0b-4b5e-888c-35155555732c","ios":"levelo://app?vid=f2b88fdd-2e0b-4b5e-888c-35155555732c"},"vehicle_type_id":"4","last_reported":1731103707,"current_range_meters":39200,"station_id":"ce4bhr12rcd13ifvqhpg","pricing_plan_id":"cebpf4jnsgd1na2vs0mg"},{"bike_id":"09a9b962-f31a-4f19-a57d-f2cd37e13ebb","system_id":"levelo_inurba_marseille","lat":43.27998,"lon":5.41664,"is_reserved":false,"is_disabled":false,"rental_uris":{"android":"levelo://app?vid=09a9b962-f31a-4f19-a57d-f2cd37e13ebb","ios":"levelo://app?vid=09a9b962-f31a-4f19-a57d-f2cd37e13ebb"},"vehicle_type_id":"4","last_reported":1731103707,"current_range_meters":4800,"station_id":"ce4bho12rcd13ifvqh1g","pricing_plan_id":"cebpf4jnsgd1na2vs0mg"},{"bike_id":"b9478b1d-79e3-44c9-ae60-496dd5151f62","system_id":"levelo_inurba_marseille","lat":43.29171,"lon":5.37161,"is_reserved":false,"is_disabled":false,"rental_uris":{"android":"levelo://app?vid=b9478b1d-79e3-44c9-ae60-496dd5151f62","ios":"levelo://app?vid=b9478b1d-79e3-44c9-ae60-496dd5151f62"},"vehicle_type_id":"4","last_reported":1731103707,"current_range_meters":39200,"station_id":"ce4bha92rcd13ifvqeh0","pricing_plan_id":"cebpf4jnsgd1na2vs0mg"},{"bike_id":"42be1f79-1c39-4ac9-9398-d31e0ebbc9c8","system_id":"levelo_inurba_marseille","lat":43.29269,"lon":5.40915,"is_reserved":false,"is_disabled":false,"rental_uris":{"android":"levelo://app?vid=42be1f79-1c39-4ac9-9398-d31e0ebbc9c8","ios":"levelo://app?vid=42be1f79-1c39-4ac9-9398-d31e0ebbc9c8"},"vehicle_type_id":"4","last_reported":1731103707,"current_range_meters":33600,"station_id":"ce4bh192rcd13ifvqdc0","pricing_plan_id":"cebpf4jnsgd1na2vs0mg"},{"bike_id":"adb13a41-e996-4b47-a2f6-e5e80d27b4e6","system_id":"levelo_inurba_marseille","lat":43.32331,"lon":5.40636,"is_reserved":false,"is_disabled":false,"rental_uris":{"android":"levelo://app?vid=adb13a41-e996-4b47-a2f6-e5e80d27b4e6","ios":"levelo://app?vid=adb13a41-e996-4b47-a2f6-e5e80d27b4e6"},"vehicle_type_id":"4","last_reported":1731103707,"current_range_meters":39200,"station_id":"ce4bhq92rcd13ifvqhjg","pricing_plan_id":"cebpf4jnsgd1na2vs0mg"},{"bike_id":"0244cb55-5c6d-481d-8473-12d40bb6d28a","system_id":"levelo_inurba_marseille","lat":43.27571,"lon":5.38446,"is_reserved":false,"is_disabled":false,"rental_uris":{"android":"levelo://app?vid=0244cb55-5c6d-481d-8473-12d40bb6d28a","ios":"levelo://app?vid=0244cb55-5c6d-481d-8473-12d40bb6d28a"},"vehicle_type_id":"4","last_reported":1731103707,"current_range_meters":31200,"station_id":"ce4bhh92rcd13ifvqfi0","pricing_plan_id":"cebpf4jnsgd1na2vs0mg"},{"bike_id":"448c9ffd-51c0-4f57-a9bc-81277c5f80a2","system_id":"levelo_inurba_marseille","lat":43.27573,"lon":5.38424,"is_reserved":false,"is_disabled":false,"rental_uris":{"android":"levelo://app?vid=448c9ffd-51c0-4f57-a9bc-81277c5f80a2","ios":"levelo://app?vid=448c9ffd-51c0-4f57-a9bc-81277c5f80a2"},"vehicle_type_id":"4","last_reported":1731103707,"current_range_meters":27200,"station_id":"ce4bhh92rcd13ifvqfi0","pricing_plan_id":"cebpf4jnsgd1na2vs0mg"},{"bike_id":"160c7294-45f6-4586-b4d8-d356e55b90a0","system_id":"levelo_inurba_marseille","lat":43.28674,"lon":5.38666,"is_reserved":false,"is_disabled":false,"rental_uris":{"android":"levelo://app?vid=160c7294-45f6-4586-b4d8-d356e55b90a0","ios":"levelo://app?vid=160c7294-45f6-4586-b4d8-d356e55b90a0"},"vehicle_type_id":"4","last_reported":1731103707,"current_range_meters":29600,"station_id":"ce4bh492rcd13ifvqdug","pricing_plan_id":"cebpf4jnsgd1na2vs0mg"},{"bike_id":"d070148f-8ecc-4c75-8cb1-c8bc85f50390","system_id":"levelo_inurba_marseille","lat":43.3302,"lon":5.39032,"is_reserved":false,"is_disabled":false,"rental_uris":{"android":"levelo://app?vid=d070148f-8ecc-4c75-8cb1-c8bc85f50390","ios":"levelo://app?vid=d070148f-8ecc-4c75-8cb1-c8bc85f50390"},"vehicle_type_id":"4","last_reported":1731103707,"current_range_meters":12800,"station_id":"ce4bhr92rcd13ifvqhrg","pricing_plan_id":"cebpf4jnsgd1na2vs0mg"},{"bike_id":"49802e5d-6e7d-4d65-ade0-af9d690a65b9","system_id":"levelo_inurba_marseille","lat":43.27814,"lon":5.40718,"is_reserved":false,"is_disabled":false,"rental_uris":{"android":"levelo://app?vid=49802e5d-6e7d-4d65-ade0-af9d690a65b9","ios":"levelo://app?vid=49802e5d-6e7d-4d65-ade0-af9d690a65b9"},"vehicle_type_id":"4","last_reported":1731103707,"current_range_meters":22000,"station_id":"ce4bhnh2rcd13ifvqgtg","pricing_plan_id":"cebpf4jnsgd1na2vs0mg"},{"bike_id":"29824cde-4cdc-4355-9b22-a5922a403deb","system_id":"levelo_inurba_marseille","lat":43.337444,"lon":5.374475,"is_reserved":false,"is_disabled":false,"rental_uris":{"android":"levelo://app?vid=29824cde-4cdc-4355-9b22-a5922a403deb","ios":"levelo://app?vid=29824cde-4cdc-4355-9b22-a5922a403deb"},"vehicle_type_id":"4","last_reported":1731103707,"current_range_meters":36400,"station_id":"","pricing_plan_id":"cebpf4jnsgd1na2vs0mg"},{"bike_id":"cf175986-65bf-4c0f-a6b8-2edbdd10bca4","system_id":"levelo_inurba_marseille","lat":43.28674,"lon":5.3865,"is_reserved":false,"is_disabled":false,"rental_uris":{"android":"levelo://app?vid=cf175986-65bf-4c0f-a6b8-2edbdd10bca4","ios":"levelo://app?vid=cf175986-65bf-4c0f-a6b8-2edbdd10bca4"},"vehicle_type_id":"4","last_reported":1731103707,"current_range_meters":25200,"station_id":"ce4bh492rcd13ifvqdug","pricing_plan_id":"cebpf4jnsgd1na2vs0mg"},{"bike_id":"a2e38ba7-205b-46ec-af14-44cebd5b1c37","system_id":"levelo_inurba_marseille","lat":43.2903,"lon":5.38654,"is_reserved":false,"is_disabled":false,"rental_uris":{"android":"levelo://app?vid=a2e38ba7-205b-46ec-af14-44cebd5b1c37","ios":"levelo://app?vid=a2e38ba7-205b-46ec-af14-44cebd5b1c37"},"vehicle_type_id":"4","last_reported":1731103707,"current_range_meters":16400,"station_id":"ce4bh4p2rcd13ifvqe0g","pricing_plan_id":"cebpf4jnsgd1na2vs0mg"},{"bike_id":"67e17654-368e-4b56-a0c7-552a55a43533","system_id":"levelo_inurba_marseille","lat":43.27559,"lon":5.38406,"is_reserved":false,"is_disabled":false,"rental_uris":{"android":"levelo://app?vid=67e17654-368e-4b56-a0c7-552a55a43533","ios":"levelo://app?vid=67e17654-368e-4b56-a0c7-552a55a43533"},"vehicle_type_id":"4","last_reported":1731103707,"current_range_meters":31200,"station_id":"ce4bhh92rcd13ifvqfi0","pricing_plan_id":"cebpf4jnsgd1na2vs0mg"},{"bike_id":"eccb9bf1-4a0c-4df5-8229-bf46f21c4329","system_id":"levelo_inurba_marseille","lat":43.3172,"lon":5.42403,"is_reserved":false,"is_disabled":false,"rental_uris":{"android":"levelo://app?vid=eccb9bf1-4a0c-4df5-8229-bf46f21c4329","ios":"levelo://app?vid=eccb9bf1-4a0c-4df5-8229-bf46f21c4329"},"vehicle_type_id":"4","last_reported":1731103707,"current_range_meters":36800,"station_id":"ce4bhp92rcd13ifvqhbg","pricing_plan_id":"cebpf4jnsgd1na2vs0mg"},{"bike_id":"ef288286-229d-4b9a-a189-8d61840dcffb","system_id":"levelo_inurba_marseille","lat":43.23195,"lon":5.35563,"is_reserved":false,"is_disabled":false,"rental_uris":{"android":"levelo://app?vid=ef288286-229d-4b9a-a189-8d61840dcffb","ios":"levelo://app?vid=ef288286-229d-4b9a-a189-8d61840dcffb"},"vehicle_type_id":"4","last_reported":1731103707,"current_range_meters":36800,"station_id":"ce4bhu92rcd13ifvqi70","pricing_plan_id":"cebpf4jnsgd1na2vs0mg"},{"bike_id":"68df6f6b-61ce-494c-870f-eed158722807","system_id":"levelo_inurba_marseille","lat":43.26553,"lon":5.37285,"is_reserved":false,"is_disabled":false,"rental_uris":{"android":"levelo://app?vid=68df6f6b-61ce-494c-870f-eed158722807","ios":"levelo://app?vid=68df6f6b-61ce-494c-870f-eed158722807"},"vehicle_type_id":"4","last_reported":1731103707,"current_range_meters":36400,"station_id":"ce4bhg12rcd13ifvqf70","pricing_plan_id":"cebpf4jnsgd1na2vs0mg"},{"bike_id":"3709f594-81f2-4e38-991c-3dd215e00f3e","system_id":"levelo_inurba_marseille","lat":43.28678,"lon":5.38656,"is_reserved":false,"is_disabled":false,"rental_uris":{"android":"levelo://app?vid=3709f594-81f2-4e38-991c-3dd215e00f3e","ios":"levelo://app?vid=3709f594-81f2-4e38-991c-3dd215e00f3e"},"vehicle_type_id":"4","last_reported":1731103707,"current_range_meters":28400,"station_id":"ce4bh492rcd13ifvqdug","pricing_plan_id":"cebpf4jnsgd1na2vs0mg"},{"bike_id":"c5ac0297-7c32-4fa8-90a0-78eafcc097af","system_id":"levelo_inurba_marseille","lat":43.30799,"lon":5.40006,"is_reserved":false,"is_disabled":false,"rental_uris":{"android":"levelo://app?vid=c5ac0297-7c32-4fa8-90a0-78eafcc097af","ios":"levelo://app?vid=c5ac0297-7c32-4fa8-90a0-78eafcc097af"},"vehicle_type_id":"4","last_reported":1731103707,"current_range_meters":9200,"station_id":"","pricing_plan_id":"cebpf4jnsgd1na2vs0mg"},{"bike_id":"5c2e91b0-db21-4162-85e8-dbe374504ee6","system_id":"levelo_inurba_marseille","lat":43.27813,"lon":5.40705,"is_reserved":false,"is_disabled":false,"rental_uris":{"android":"levelo://app?vid=5c2e91b0-db21-4162-85e8-dbe374504ee6","ios":"levelo://app?vid=5c2e91b0-db21-4162-85e8-dbe374504ee6"},"vehicle_type_id":"4","last_reported":1731103707,"current_range_meters":38800,"station_id":"ce4bhnh2rcd13ifvqgtg","pricing_plan_id":"cebpf4jnsgd1na2vs0mg"},{"bike_id":"10ee6f64-d75c-4e2f-8ed0-6ee62c2a4643","system_id":"levelo_inurba_marseille","lat":43.24723,"lon":5.38947,"is_reserved":false,"is_disabled":false,"rental_uris":{"android":"levelo://app?vid=10ee6f64-d75c-4e2f-8ed0-6ee62c2a4643","ios":"levelo://app?vid=10ee6f64-d75c-4e2f-8ed0-6ee62c2a4643"},"vehicle_type_id":"4","last_reported":1731103707,"current_range_meters":19200,"station_id":"ce4bhg12rcd13ifvqf60","pricing_plan_id":"cebpf4jnsgd1na2vs0mg"},{"bike_id":"6e8ab73a-117e-49f9-8756-ecb091d82c9d","system_id":"levelo_inurba_marseille","lat":43.29531,"lon":5.39036,"is_reserved":false,"is_disabled":false,"rental_uris":{"android":"levelo://app?vid=6e8ab73a-117e-49f9-8756-ecb091d82c9d","ios":"levelo://app?vid=6e8ab73a-117e-49f9-8756-ecb091d82c9d"},"vehicle_type_id":"4","last_reported":1731103707,"current_range_meters":37600,"station_id":"ce4bh3p2rcd13ifvqdp0","pricing_plan_id":"cebpf4jnsgd1na2vs0mg"},{"bike_id":"17af4bea-b3de-4c83-bdca-1950a356db9a","system_id":"levelo_inurba_marseille","lat":43.31276,"lon":5.40167,"is_reserved":false,"is_disabled":false,"rental_uris":{"android":"levelo://app?vid=17af4bea-b3de-4c83-bdca-1950a356db9a","ios":"levelo://app?vid=17af4bea-b3de-4c83-bdca-1950a356db9a"},"vehicle_type_id":"4","last_reported":1731103707,"current_range_meters":38000,"station_id":"ce4bh092rcd13ifvqd30","pricing_plan_id":"cebpf4jnsgd1na2vs0mg"},{"bike_id":"37cbea81-cd52-4d51-b897-93a27b07082a","system_id":"levelo_inurba_marseille","lat":43.29538,"lon":5.3855,"is_reserved":false,"is_disabled":false,"rental_uris":{"android":"levelo://app?vid=37cbea81-cd52-4d51-b897-93a27b07082a","ios":"levelo://app?vid=37cbea81-cd52-4d51-b897-93a27b07082a"},"vehicle_type_id":"4","last_reported":1731103707,"current_range_meters":26800,"station_id":"ce4bgih2rcd13ifvqba0","pricing_plan_id":"cebpf4jnsgd1na2vs0mg"},{"bike_id":"5064550b-8dae-4427-b3bf-a8ac14819c60","system_id":"levelo_inurba_marseille","lat":43.31709,"lon":5.43695,"is_reserved":false,"is_disabled":false,"rental_uris":{"android":"levelo://app?vid=5064550b-8dae-4427-b3bf-a8ac14819c60","ios":"levelo://app?vid=5064550b-8dae-4427-b3bf-a8ac14819c60"},"vehicle_type_id":"4","last_reported":1731103707,"current_range_meters":38800,"station_id":"ce4bhp92rcd13ifvqhcg","pricing_plan_id":"cebpf4jnsgd1na2vs0mg"},{"bike_id":"8faa22dc-5f3c-4af6-b84b-f554e09d6313","system_id":"levelo_inurba_marseille","lat":43.337444,"lon":5.374475,"is_reserved":false,"is_disabled":false,"rental_uris":{"android":"levelo://app?vid=8faa22dc-5f3c-4af6-b84b-f554e09d6313","ios":"levelo://app?vid=8faa22dc-5f3c-4af6-b84b-f554e09d6313"},"vehicle_type_id":"4","last_reported":1731103707,"current_range_meters":36000,"station_id":"","pricing_plan_id":"cebpf4jnsgd1na2vs0mg"},{"bike_id":"c5eb6fd9-48e9-46e5-82ae-a044f97572e4","system_id":"levelo_inurba_marseille","lat":43.28932,"lon":5.36649,"is_reserved":false,"is_disabled":false,"rental_uris":{"android":"levelo://app?vid=c5eb6fd9-48e9-46e5-82ae-a044f97572e4","ios":"levelo://app?vid=c5eb6fd9-48e9-46e5-82ae-a044f97572e4"},"vehicle_type_id":"4","last_reported":1731103707,"current_range_meters":35200,"station_id":"ce4bhap2rcd13ifvqek0","pricing_plan_id":"cebpf4jnsgd1na2vs0mg"},{"bike_id":"9cf54a58-2c37-48cf-a40d-e37e14d46ee5","system_id":"levelo_inurba_marseille","lat":43.30336,"lon":5.40446,"is_reserved":false,"is_disabled":false,"rental_uris":{"android":"levelo://app?vid=9cf54a58-2c37-48cf-a40d-e37e14d46ee5","ios":"levelo://app?vid=9cf54a58-2c37-48cf-a40d-e37e14d46ee5"},"vehicle_type_id":"4","last_reported":1731103707,"current_range_meters":27600,"station_id":"ce4bh012rcd13ifvqd10","pricing_plan_id":"cebpf4jnsgd1na2vs0mg"},{"bike_id":"c7a601e3-837f-43df-885f-82aca8c8aba7","system_id":"levelo_inurba_marseille","lat":43.29445,"lon":5.38456,"is_reserved":false,"is_disabled":false,"rental_uris":{"android":"levelo://app?vid=c7a601e3-837f-43df-885f-82aca8c8aba7","ios":"levelo://app?vid=c7a601e3-837f-43df-885f-82aca8c8aba7"},"vehicle_type_id":"4","last_reported":1731103707,"current_range_meters":15200,"station_id":"","pricing_plan_id":"cebpf4jnsgd1na2vs0mg"},{"bike_id":"804d1eeb-66c6-4c53-84af-991639b68540","system_id":"levelo_inurba_marseille","lat":43.29535,"lon":5.38549,"is_reserved":false,"is_disabled":false,"rental_uris":{"android":"levelo://app?vid=804d1eeb-66c6-4c53-84af-991639b68540","ios":"levelo://app?vid=804d1eeb-66c6-4c53-84af-991639b68540"},"vehicle_type_id":"4","last_reported":1731103707,"current_range_meters":37600,"station_id":"ce4bgih2rcd13ifvqba0","pricing_plan_id":"cebpf4jnsgd1na2vs0mg"},{"bike_id":"53e176ca-3a96-45e2-b9c1-f258ec8a7a25","system_id":"levelo_inurba_marseille","lat":43.23294,"lon":5.43641,"is_reserved":false,"is_disabled":false,"rental_uris":{"android":"levelo://app?vid=53e176ca-3a96-45e2-b9c1-f258ec8a7a25","ios":"levelo://app?vid=53e176ca-3a96-45e2-b9c1-f258ec8a7a25"},"vehicle_type_id":"4","last_reported":1731103707,"current_range_meters":30800,"station_id":"","pricing_plan_id":"cebpf4jnsgd1na2vs0mg"},{"bike_id":"8ee7b9d5-9f1d-49f2-870d-69c8b74d6a1f","system_id":"levelo_inurba_marseille","lat":43.24675,"lon":5.38166,"is_reserved":false,"is_disabled":false,"rental_uris":{"android":"levelo://app?vid=8ee7b9d5-9f1d-49f2-870d-69c8b74d6a1f","ios":"levelo://app?vid=8ee7b9d5-9f1d-49f2-870d-69c8b74d6a1f"},"vehicle_type_id":"4","last_reported":1731103707,"current_range_meters":24000,"station_id":"ce4bhih2rcd13ifvqfr0","pricing_plan_id":"cebpf4jnsgd1na2vs0mg"},{"bike_id":"dee76a84-a568-43ea-9d78-a3ea36150b1b","system_id":"levelo_inurba_marseille","lat":43.29533,"lon":5.38542,"is_reserved":false,"is_disabled":false,"rental_uris":{"android":"levelo://app?vid=dee76a84-a568-43ea-9d78-a3ea36150b1b","ios":"levelo://app?vid=dee76a84-a568-43ea-9d78-a3ea36150b1b"},"vehicle_type_id":"4","last_reported":1731103707,"current_range_meters":32000,"station_id":"ce4bgih2rcd13ifvqba0","pricing_plan_id":"cebpf4jnsgd1na2vs0mg"},{"bike_id":"f71f3d24-e3fa-489a-bd82-3a7b3caecc0b","system_id":"levelo_inurba_marseille","lat":43.31215,"lon":5.36892,"is_reserved":false,"is_disabled":false,"rental_uris":{"android":"levelo://app?vid=f71f3d24-e3fa-489a-bd82-3a7b3caecc0b","ios":"levelo://app?vid=f71f3d24-e3fa-489a-bd82-3a7b3caecc0b"},"vehicle_type_id":"4","last_reported":1731103707,"current_range_meters":37600,"station_id":"ce4bgl92rcd13ifvqbq0","pricing_plan_id":"cebpf4jnsgd1na2vs0mg"},{"bike_id":"9c7c3172-4938-4124-9dfd-4bc5ef3b3325","system_id":"levelo_inurba_marseille","lat":43.29074,"lon":5.3718,"is_reserved":false,"is_disabled":false,"rental_uris":{"android":"levelo://app?vid=9c7c3172-4938-4124-9dfd-4bc5ef3b3325","ios":"levelo://app?vid=9c7c3172-4938-4124-9dfd-4bc5ef3b3325"},"vehicle_type_id":"4","last_reported":1731103707,"current_range_meters":37600,"station_id":"ce4bh5p2rcd13ifvqe4g","pricing_plan_id":"cebpf4jnsgd1na2vs0mg"},{"bike_id":"ff7570c7-1717-4401-8bd2-0bba327aa8d4","system_id":"levelo_inurba_marseille","lat":43.28259,"lon":5.40602,"is_reserved":false,"is_disabled":false,"rental_uris":{"android":"levelo://app?vid=ff7570c7-1717-4401-8bd2-0bba327aa8d4","ios":"levelo://app?vid=ff7570c7-1717-4401-8bd2-0bba327aa8d4"},"vehicle_type_id":"4","last_reported":1731103707,"current_range_meters":37600,"station_id":"","pricing_plan_id":"cebpf4jnsgd1na2vs0mg"},{"bike_id":"174b8d7c-6848-4016-b24b-870b68ed4eb7","system_id":"levelo_inurba_marseille","lat":43.28573,"lon":5.39498,"is_reserved":false,"is_disabled":false,"rental_uris":{"android":"levelo://app?vid=174b8d7c-6848-4016-b24b-870b68ed4eb7","ios":"levelo://app?vid=174b8d7c-6848-4016-b24b-870b68ed4eb7"},"vehicle_type_id":"4","last_reported":1731103707,"current_range_meters":39200,"station_id":"ce4bh292rcd13ifvqdg0","pricing_plan_id":"cebpf4jnsgd1na2vs0mg"},{"bike_id":"e801c3f4-20f3-4f55-ad2a-3ff627c815d8","system_id":"levelo_inurba_marseille","lat":43.28686,"lon":5.38662,"is_reserved":false,"is_disabled":false,"rental_uris":{"android":"levelo://app?vid=e801c3f4-20f3-4f55-ad2a-3ff627c815d8","ios":"levelo://app?vid=e801c3f4-20f3-4f55-ad2a-3ff627c815d8"},"vehicle_type_id":"4","last_reported":1731103707,"current_range_meters":39200,"station_id":"ce4bh492rcd13ifvqdug","pricing_plan_id":"cebpf4jnsgd1na2vs0mg"},{"bike_id":"e21f7810-51f2-470c-be96-cee661a17dba","system_id":"levelo_inurba_marseille","lat":43.29419,"lon":5.3863,"is_reserved":false,"is_disabled":false,"rental_uris":{"android":"levelo://app?vid=e21f7810-51f2-470c-be96-cee661a17dba","ios":"levelo://app?vid=e21f7810-51f2-470c-be96-cee661a17dba"},"vehicle_type_id":"4","last_reported":1731103707,"current_range_meters":39200,"station_id":"ce4bh2h2rcd13ifvqdh0","pricing_plan_id":"cebpf4jnsgd1na2vs0mg"},{"bike_id":"8b792342-90e2-45c5-8153-6444b1c3d7cd","system_id":"levelo_inurba_marseille","lat":43.29545,"lon":5.38554,"is_reserved":false,"is_disabled":false,"rental_uris":{"android":"levelo://app?vid=8b792342-90e2-45c5-8153-6444b1c3d7cd","ios":"levelo://app?vid=8b792342-90e2-45c5-8153-6444b1c3d7cd"},"vehicle_type_id":"4","last_reported":1731103707,"current_range_meters":38400,"station_id":"ce4bgih2rcd13ifvqba0","pricing_plan_id":"cebpf4jnsgd1na2vs0mg"},{"bike_id":"d6fdae69-642e-4d84-a8fd-edeb75ed0ef4","system_id":"levelo_inurba_marseille","lat":43.22932,"lon":5.35376,"is_reserved":false,"is_disabled":false,"rental_uris":{"android":"levelo://app?vid=d6fdae69-642e-4d84-a8fd-edeb75ed0ef4","ios":"levelo://app?vid=d6fdae69-642e-4d84-a8fd-edeb75ed0ef4"},"vehicle_type_id":"4","last_reported":1731103707,"current_range_meters":39200,"station_id":"cpo3532slgdg3j2ikp40","pricing_plan_id":"cebpf4jnsgd1na2vs0mg"},{"bike_id":"5cc66348-f056-4771-be0a-d998fca017be","system_id":"levelo_inurba_marseille","lat":43.25084,"lon":5.39523,"is_reserved":false,"is_disabled":false,"rental_uris":{"android":"levelo://app?vid=5cc66348-f056-4771-be0a-d998fca017be","ios":"levelo://app?vid=5cc66348-f056-4771-be0a-d998fca017be"},"vehicle_type_id":"4","last_reported":1731103707,"current_range_meters":20800,"station_id":"ce4bhm12rcd13ifvqgkg","pricing_plan_id":"cebpf4jnsgd1na2vs0mg"},{"bike_id":"e1f0feec-c9e1-4322-9a21-d4cfff11939d","system_id":"levelo_inurba_marseille","lat":43.31898,"lon":5.40733,"is_reserved":false,"is_disabled":false,"rental_uris":{"android":"levelo://app?vid=e1f0feec-c9e1-4322-9a21-d4cfff11939d","ios":"levelo://app?vid=e1f0feec-c9e1-4322-9a21-d4cfff11939d"},"vehicle_type_id":"4","last_reported":1731103707,"current_range_meters":39200,"station_id":"ce4bhq12rcd13ifvqhig","pricing_plan_id":"cebpf4jnsgd1na2vs0mg"},{"bike_id":"ae54d96d-70f5-4347-8dd4-86d634a169dd","system_id":"levelo_inurba_marseille","lat":43.25108,"lon":5.40323,"is_reserved":false,"is_disabled":false,"rental_uris":{"android":"levelo://app?vid=ae54d96d-70f5-4347-8dd4-86d634a169dd","ios":"levelo://app?vid=ae54d96d-70f5-4347-8dd4-86d634a169dd"},"vehicle_type_id":"4","last_reported":1731103707,"current_range_meters":34000,"station_id":"ce4bhlh2rcd13ifvqgig","pricing_plan_id":"cebpf4jnsgd1na2vs0mg"},{"bike_id":"86d64521-d332-4842-b4fb-5fa4820d8c81","system_id":"levelo_inurba_marseille","lat":43.337444,"lon":5.374475,"is_reserved":false,"is_disabled":false,"rental_uris":{"android":"levelo://app?vid=86d64521-d332-4842-b4fb-5fa4820d8c81","ios":"levelo://app?vid=86d64521-d332-4842-b4fb-5fa4820d8c81"},"vehicle_type_id":"4","last_reported":1731103707,"current_range_meters":36000,"station_id":"","pricing_plan_id":"cebpf4jnsgd1na2vs0mg"},{"bike_id":"64ea06cd-1199-4635-a076-f2787cae5512","system_id":"levelo_inurba_marseille","lat":43.29307,"lon":5.37186,"is_reserved":false,"is_disabled":false,"rental_uris":{"android":"levelo://app?vid=64ea06cd-1199-4635-a076-f2787cae5512","ios":"levelo://app?vid=64ea06cd-1199-4635-a076-f2787cae5512"},"vehicle_type_id":"4","last_reported":1731103707,"current_range_meters":28400,"station_id":"ce4bgh92rcd13ifvqb40","pricing_plan_id":"cebpf4jnsgd1na2vs0mg"},{"bike_id":"d817f685-89cb-4ff5-a044-eb9d2172eb19","system_id":"levelo_inurba_marseille","lat":43.28125,"lon":5.40157,"is_reserved":false,"is_disabled":false,"rental_uris":{"android":"levelo://app?vid=d817f685-89cb-4ff5-a044-eb9d2172eb19","ios":"levelo://app?vid=d817f685-89cb-4ff5-a044-eb9d2172eb19"},"vehicle_type_id":"4","last_reported":1731103707,"current_range_meters":30000,"station_id":"","pricing_plan_id":"cebpf4jnsgd1na2vs0mg"},{"bike_id":"738cc934-8af0-49a6-91bb-bd3d3827a7d5","system_id":"levelo_inurba_marseille","lat":43.3054,"lon":5.38417,"is_reserved":false,"is_disabled":false,"rental_uris":{"android":"levelo://app?vid=738cc934-8af0-49a6-91bb-bd3d3827a7d5","ios":"levelo://app?vid=738cc934-8af0-49a6-91bb-bd3d3827a7d5"},"vehicle_type_id":"4","last_reported":1731103707,"current_range_meters":12400,"station_id":"ce4bgg92rcd13ifvqb30","pricing_plan_id":"cebpf4jnsgd1na2vs0mg"},{"bike_id":"448d3bf9-78cb-439a-a23b-0e48f1b89013","system_id":"levelo_inurba_marseille","lat":43.32392,"lon":5.38888,"is_reserved":false,"is_disabled":false,"rental_uris":{"android":"levelo://app?vid=448d3bf9-78cb-439a-a23b-0e48f1b89013","ios":"levelo://app?vid=448d3bf9-78cb-439a-a23b-0e48f1b89013"},"vehicle_type_id":"4","last_reported":1731103707,"current_range_meters":14800,"station_id":"ce4bhqp2rcd13ifvqhog","pricing_plan_id":"cebpf4jnsgd1na2vs0mg"},{"bike_id":"08c87c74-8ce5-4912-ab68-fb06a199a47b","system_id":"levelo_inurba_marseille","lat":43.231873,"lon":5.399797,"is_reserved":false,"is_disabled":false,"rental_uris":{"android":"levelo://app?vid=08c87c74-8ce5-4912-ab68-fb06a199a47b","ios":"levelo://app?vid=08c87c74-8ce5-4912-ab68-fb06a199a47b"},"vehicle_type_id":"4","last_reported":1731103707,"current_range_meters":24800,"station_id":"ce4bhn12rcd13ifvqgqg","pricing_plan_id":"cebpf4jnsgd1na2vs0mg"},{"bike_id":"4170029e-5428-40cf-a5bb-2421162fec17","system_id":"levelo_inurba_marseille","lat":43.29898,"lon":5.43667,"is_reserved":false,"is_disabled":false,"rental_uris":{"android":"levelo://app?vid=4170029e-5428-40cf-a5bb-2421162fec17","ios":"levelo://app?vid=4170029e-5428-40cf-a5bb-2421162fec17"},"vehicle_type_id":"4","last_reported":1731103707,"current_range_meters":17600,"station_id":"ce4bhpp2rcd13ifvqhfg","pricing_plan_id":"cebpf4jnsgd1na2vs0mg"},{"bike_id":"fb23b524-e5d6-4a4f-a098-37c2087592e1","system_id":"levelo_inurba_marseille","lat":43.28681,"lon":5.38668,"is_reserved":false,"is_disabled":false,"rental_uris":{"android":"levelo://app?vid=fb23b524-e5d6-4a4f-a098-37c2087592e1","ios":"levelo://app?vid=fb23b524-e5d6-4a4f-a098-37c2087592e1"},"vehicle_type_id":"4","last_reported":1731103707,"current_range_meters":38000,"station_id":"ce4bh492rcd13ifvqdug","pricing_plan_id":"cebpf4jnsgd1na2vs0mg"},{"bike_id":"bb685ad8-1a90-4b71-b061-f9ef80ef6433","system_id":"levelo_inurba_marseille","lat":43.29535,"lon":5.38541,"is_reserved":false,"is_disabled":false,"rental_uris":{"android":"levelo://app?vid=bb685ad8-1a90-4b71-b061-f9ef80ef6433","ios":"levelo://app?vid=bb685ad8-1a90-4b71-b061-f9ef80ef6433"},"vehicle_type_id":"4","last_reported":1731103707,"current_range_meters":38800,"station_id":"ce4bgih2rcd13ifvqba0","pricing_plan_id":"cebpf4jnsgd1na2vs0mg"},{"bike_id":"16707eb3-de5e-467f-af73-905987900ac6","system_id":"levelo_inurba_marseille","lat":43.24808,"lon":5.37456,"is_reserved":false,"is_disabled":false,"rental_uris":{"android":"levelo://app?vid=16707eb3-de5e-467f-af73-905987900ac6","ios":"levelo://app?vid=16707eb3-de5e-467f-af73-905987900ac6"},"vehicle_type_id":"4","last_reported":1731103707,"current_range_meters":28800,"station_id":"ce4bhgh2rcd13ifvqfb0","pricing_plan_id":"cebpf4jnsgd1na2vs0mg"},{"bike_id":"9811d2da-a3af-4a13-974e-d46269704564","system_id":"levelo_inurba_marseille","lat":43.29192,"lon":5.35798,"is_reserved":false,"is_disabled":false,"rental_uris":{"android":"levelo://app?vid=9811d2da-a3af-4a13-974e-d46269704564","ios":"levelo://app?vid=9811d2da-a3af-4a13-974e-d46269704564"},"vehicle_type_id":"4","last_reported":1731103707,"current_range_meters":38800,"station_id":"ce4bhb12rcd13ifvqel0","pricing_plan_id":"cebpf4jnsgd1na2vs0mg"},{"bike_id":"1e3dea22-7fac-4f4b-b600-c929631fbbdf","system_id":"levelo_inurba_marseille","lat":43.31717,"lon":5.424,"is_reserved":false,"is_disabled":false,"rental_uris":{"android":"levelo://app?vid=1e3dea22-7fac-4f4b-b600-c929631fbbdf","ios":"levelo://app?vid=1e3dea22-7fac-4f4b-b600-c929631fbbdf"},"vehicle_type_id":"4","last_reported":1731103707,"current_range_meters":39200,"station_id":"ce4bhp92rcd13ifvqhbg","pricing_plan_id":"cebpf4jnsgd1na2vs0mg"},{"bike_id":"238e185b-a8d2-47cd-83b4-b50bf45e46cc","system_id":"levelo_inurba_marseille","lat":43.30607,"lon":5.37216,"is_reserved":false,"is_disabled":false,"rental_uris":{"android":"levelo://app?vid=238e185b-a8d2-47cd-83b4-b50bf45e46cc","ios":"levelo://app?vid=238e185b-a8d2-47cd-83b4-b50bf45e46cc"},"vehicle_type_id":"4","last_reported":1731103707,"current_range_meters":20400,"station_id":"ce4bgqh2rcd13ifvqc4g","pricing_plan_id":"cebpf4jnsgd1na2vs0mg"},{"bike_id":"8b540473-d5c5-4b81-9878-b8433d8561a7","system_id":"levelo_inurba_marseille","lat":43.30782,"lon":5.37391,"is_reserved":false,"is_disabled":false,"rental_uris":{"android":"levelo://app?vid=8b540473-d5c5-4b81-9878-b8433d8561a7","ios":"levelo://app?vid=8b540473-d5c5-4b81-9878-b8433d8561a7"},"vehicle_type_id":"4","last_reported":1731103707,"current_range_meters":24800,"station_id":"","pricing_plan_id":"cebpf4jnsgd1na2vs0mg"},{"bike_id":"4d96cc19-9be5-43d6-bfcc-034dcd3684fd","system_id":"levelo_inurba_marseille","lat":43.29308,"lon":5.37172,"is_reserved":false,"is_disabled":false,"rental_uris":{"android":"levelo://app?vid=4d96cc19-9be5-43d6-bfcc-034dcd3684fd","ios":"levelo://app?vid=4d96cc19-9be5-43d6-bfcc-034dcd3684fd"},"vehicle_type_id":"4","last_reported":1731103707,"current_range_meters":39200,"station_id":"ce4bgh92rcd13ifvqb40","pricing_plan_id":"cebpf4jnsgd1na2vs0mg"},{"bike_id":"a8bb5a98-1d27-4048-8772-79de755cdc82","system_id":"levelo_inurba_marseille","lat":43.28082,"lon":5.39663,"is_reserved":false,"is_disabled":false,"rental_uris":{"android":"levelo://app?vid=a8bb5a98-1d27-4048-8772-79de755cdc82","ios":"levelo://app?vid=a8bb5a98-1d27-4048-8772-79de755cdc82"},"vehicle_type_id":"4","last_reported":1731103707,"current_range_meters":16400,"station_id":"ce4bho12rcd13ifvqh2g","pricing_plan_id":"cebpf4jnsgd1na2vs0mg"},{"bike_id":"e5b66137-47e9-4737-b5da-3c1c07eae51e","system_id":"levelo_inurba_marseille","lat":43.28082,"lon":5.39652,"is_reserved":false,"is_disabled":false,"rental_uris":{"android":"levelo://app?vid=e5b66137-47e9-4737-b5da-3c1c07eae51e","ios":"levelo://app?vid=e5b66137-47e9-4737-b5da-3c1c07eae51e"},"vehicle_type_id":"4","last_reported":1731103707,"current_range_meters":3600,"station_id":"ce4bho12rcd13ifvqh2g","pricing_plan_id":"cebpf4jnsgd1na2vs0mg"},{"bike_id":"bbc4f13b-cc27-45c8-9657-03eb08fa0f07","system_id":"levelo_inurba_marseille","lat":43.25113,"lon":5.40319,"is_reserved":false,"is_disabled":false,"rental_uris":{"android":"levelo://app?vid=bbc4f13b-cc27-45c8-9657-03eb08fa0f07","ios":"levelo://app?vid=bbc4f13b-cc27-45c8-9657-03eb08fa0f07"},"vehicle_type_id":"4","last_reported":1731103707,"current_range_meters":32800,"station_id":"ce4bhlh2rcd13ifvqgig","pricing_plan_id":"cebpf4jnsgd1na2vs0mg"},{"bike_id":"a0d9d5ae-de17-4341-bed9-edfa4e4e8139","system_id":"levelo_inurba_marseille","lat":43.30441,"lon":5.36629,"is_reserved":false,"is_disabled":false,"rental_uris":{"android":"levelo://app?vid=a0d9d5ae-de17-4341-bed9-edfa4e4e8139","ios":"levelo://app?vid=a0d9d5ae-de17-4341-bed9-edfa4e4e8139"},"vehicle_type_id":"4","last_reported":1731103707,"current_range_meters":6000,"station_id":"","pricing_plan_id":"cebpf4jnsgd1na2vs0mg"},{"bike_id":"240fac95-469b-4ec1-a905-bc2e3ab6eab7","system_id":"levelo_inurba_marseille","lat":43.24804,"lon":5.37457,"is_reserved":false,"is_disabled":false,"rental_uris":{"android":"levelo://app?vid=240fac95-469b-4ec1-a905-bc2e3ab6eab7","ios":"levelo://app?vid=240fac95-469b-4ec1-a905-bc2e3ab6eab7"},"vehicle_type_id":"4","last_reported":1731103707,"current_range_meters":38800,"station_id":"ce4bhgh2rcd13ifvqfb0","pricing_plan_id":"cebpf4jnsgd1na2vs0mg"},{"bike_id":"51263185-a4e0-4f9a-a70a-5780ed3069fa","system_id":"levelo_inurba_marseille","lat":43.28847,"lon":5.39308,"is_reserved":false,"is_disabled":false,"rental_uris":{"android":"levelo://app?vid=51263185-a4e0-4f9a-a70a-5780ed3069fa","ios":"levelo://app?vid=51263185-a4e0-4f9a-a70a-5780ed3069fa"},"vehicle_type_id":"4","last_reported":1731103707,"current_range_meters":12400,"station_id":"ce4bh2p2rcd13ifvqdi0","pricing_plan_id":"cebpf4jnsgd1na2vs0mg"},{"bike_id":"3d88205d-9c58-48eb-bc01-a3e406232e3e","system_id":"levelo_inurba_marseille","lat":43.28411,"lon":5.3752,"is_reserved":false,"is_disabled":false,"rental_uris":{"android":"levelo://app?vid=3d88205d-9c58-48eb-bc01-a3e406232e3e","ios":"levelo://app?vid=3d88205d-9c58-48eb-bc01-a3e406232e3e"},"vehicle_type_id":"4","last_reported":1731103707,"current_range_meters":33200,"station_id":"ce4bh412rcd13ifvqds0","pricing_plan_id":"cebpf4jnsgd1na2vs0mg"},{"bike_id":"99e03d11-763b-4e9c-ba9a-0c9a2185b360","system_id":"levelo_inurba_marseille","lat":43.32485,"lon":5.36572,"is_reserved":false,"is_disabled":false,"rental_uris":{"android":"levelo://app?vid=99e03d11-763b-4e9c-ba9a-0c9a2185b360","ios":"levelo://app?vid=99e03d11-763b-4e9c-ba9a-0c9a2185b360"},"vehicle_type_id":"4","last_reported":1731103707,"current_range_meters":34800,"station_id":"ce4bhs12rcd13ifvqhvg","pricing_plan_id":"cebpf4jnsgd1na2vs0mg"},{"bike_id":"c38ed088-b006-4331-9ebf-359dab6fceb3","system_id":"levelo_inurba_marseille","lat":43.30589,"lon":5.39357,"is_reserved":false,"is_disabled":false,"rental_uris":{"android":"levelo://app?vid=c38ed088-b006-4331-9ebf-359dab6fceb3","ios":"levelo://app?vid=c38ed088-b006-4331-9ebf-359dab6fceb3"},"vehicle_type_id":"4","last_reported":1731103707,"current_range_meters":16400,"station_id":"ce4bh0p2rcd13ifvqd80","pricing_plan_id":"cebpf4jnsgd1na2vs0mg"},{"bike_id":"d2fab795-348f-4de2-9fec-f26a96079084","system_id":"levelo_inurba_marseille","lat":43.29914,"lon":5.38143,"is_reserved":false,"is_disabled":false,"rental_uris":{"android":"levelo://app?vid=d2fab795-348f-4de2-9fec-f26a96079084","ios":"levelo://app?vid=d2fab795-348f-4de2-9fec-f26a96079084"},"vehicle_type_id":"4","last_reported":1731103707,"current_range_meters":27200,"station_id":"ce4bgj12rcd13ifvqbc0","pricing_plan_id":"cebpf4jnsgd1na2vs0mg"},{"bike_id":"774649b8-3eb5-4e5a-bdc0-8cf43dfb86a6","system_id":"levelo_inurba_marseille","lat":43.24653,"lon":5.38894,"is_reserved":false,"is_disabled":false,"rental_uris":{"android":"levelo://app?vid=774649b8-3eb5-4e5a-bdc0-8cf43dfb86a6","ios":"levelo://app?vid=774649b8-3eb5-4e5a-bdc0-8cf43dfb86a6"},"vehicle_type_id":"4","last_reported":1731103707,"current_range_meters":35200,"station_id":"ce4bhg12rcd13ifvqf60","pricing_plan_id":"cebpf4jnsgd1na2vs0mg"},{"bike_id":"0bac5ed4-5d7b-4e6f-811e-9b60d3dc4219","system_id":"levelo_inurba_marseille","lat":43.29271,"lon":5.36844,"is_reserved":false,"is_disabled":false,"rental_uris":{"android":"levelo://app?vid=0bac5ed4-5d7b-4e6f-811e-9b60d3dc4219","ios":"levelo://app?vid=0bac5ed4-5d7b-4e6f-811e-9b60d3dc4219"},"vehicle_type_id":"4","last_reported":1731103707,"current_range_meters":16000,"station_id":"ce4bhbp2rcd13ifvqesg","pricing_plan_id":"cebpf4jnsgd1na2vs0mg"},{"bike_id":"4fe9c5dd-6808-4434-a948-66843e84e885","system_id":"levelo_inurba_marseille","lat":43.28419,"lon":5.3498,"is_reserved":false,"is_disabled":false,"rental_uris":{"android":"levelo://app?vid=4fe9c5dd-6808-4434-a948-66843e84e885","ios":"levelo://app?vid=4fe9c5dd-6808-4434-a948-66843e84e885"},"vehicle_type_id":"4","last_reported":1731103707,"current_range_meters":8800,"station_id":"ce4bhbh2rcd13ifvqepg","pricing_plan_id":"cebpf4jnsgd1na2vs0mg"},{"bike_id":"5cb403b7-6bf8-4f37-a57f-47fe40c64a5e","system_id":"levelo_inurba_marseille","lat":43.29796,"lon":5.40402,"is_reserved":false,"is_disabled":false,"rental_uris":{"android":"levelo://app?vid=5cb403b7-6bf8-4f37-a57f-47fe40c64a5e","ios":"levelo://app?vid=5cb403b7-6bf8-4f37-a57f-47fe40c64a5e"},"vehicle_type_id":"4","last_reported":1731103707,"current_range_meters":39200,"station_id":"ce4bh112rcd13ifvqd90","pricing_plan_id":"cebpf4jnsgd1na2vs0mg"},{"bike_id":"c3afd4d4-d363-46d6-8e70-42530d57628b","system_id":"levelo_inurba_marseille","lat":43.29541,"lon":5.38533,"is_reserved":false,"is_disabled":false,"rental_uris":{"android":"levelo://app?vid=c3afd4d4-d363-46d6-8e70-42530d57628b","ios":"levelo://app?vid=c3afd4d4-d363-46d6-8e70-42530d57628b"},"vehicle_type_id":"4","last_reported":1731103707,"current_range_meters":12000,"station_id":"ce4bgih2rcd13ifvqba0","pricing_plan_id":"cebpf4jnsgd1na2vs0mg"},{"bike_id":"3e85381e-182d-42a1-a0eb-c9e69d091e67","system_id":"levelo_inurba_marseille","lat":43.285736,"lon":5.395072,"is_reserved":false,"is_disabled":false,"rental_uris":{"android":"levelo://app?vid=3e85381e-182d-42a1-a0eb-c9e69d091e67","ios":"levelo://app?vid=3e85381e-182d-42a1-a0eb-c9e69d091e67"},"vehicle_type_id":"4","last_reported":1731103707,"current_range_meters":39200,"station_id":"ce4bh292rcd13ifvqdg0","pricing_plan_id":"cebpf4jnsgd1na2vs0mg"},{"bike_id":"4adc051b-cab2-444f-a4c6-933d4708baf0","system_id":"levelo_inurba_marseille","lat":43.31723,"lon":5.42397,"is_reserved":false,"is_disabled":false,"rental_uris":{"android":"levelo://app?vid=4adc051b-cab2-444f-a4c6-933d4708baf0","ios":"levelo://app?vid=4adc051b-cab2-444f-a4c6-933d4708baf0"},"vehicle_type_id":"4","last_reported":1731103707,"current_range_meters":11200,"station_id":"ce4bhp92rcd13ifvqhbg","pricing_plan_id":"cebpf4jnsgd1na2vs0mg"},{"bike_id":"20c297f4-b109-473a-b3e5-e1ff1c104085","system_id":"levelo_inurba_marseille","lat":43.285825,"lon":5.350748,"is_reserved":false,"is_disabled":false,"rental_uris":{"android":"levelo://app?vid=20c297f4-b109-473a-b3e5-e1ff1c104085","ios":"levelo://app?vid=20c297f4-b109-473a-b3e5-e1ff1c104085"},"vehicle_type_id":"4","last_reported":1731103707,"current_range_meters":16800,"station_id":"ce4bhch2rcd13ifvqeug","pricing_plan_id":"cebpf4jnsgd1na2vs0mg"},{"bike_id":"2fb19143-7a0c-42d0-947d-4cb86b880c17","system_id":"levelo_inurba_marseille","lat":43.29413,"lon":5.38636,"is_reserved":false,"is_disabled":false,"rental_uris":{"android":"levelo://app?vid=2fb19143-7a0c-42d0-947d-4cb86b880c17","ios":"levelo://app?vid=2fb19143-7a0c-42d0-947d-4cb86b880c17"},"vehicle_type_id":"4","last_reported":1731103707,"current_range_meters":36800,"station_id":"ce4bh2h2rcd13ifvqdh0","pricing_plan_id":"cebpf4jnsgd1na2vs0mg"},{"bike_id":"6bf91cee-36bc-4259-a139-82597856edff","system_id":"levelo_inurba_marseille","lat":43.31709,"lon":5.37756,"is_reserved":false,"is_disabled":false,"rental_uris":{"android":"levelo://app?vid=6bf91cee-36bc-4259-a139-82597856edff","ios":"levelo://app?vid=6bf91cee-36bc-4259-a139-82597856edff"},"vehicle_type_id":"4","last_reported":1731103707,"current_range_meters":38800,"station_id":"ce4bgth2rcd13ifvqch0","pricing_plan_id":"cebpf4jnsgd1na2vs0mg"},{"bike_id":"6456ab65-2be6-4382-9155-b8ffe476cc4b","system_id":"levelo_inurba_marseille","lat":43.29439,"lon":5.39754,"is_reserved":false,"is_disabled":false,"rental_uris":{"android":"levelo://app?vid=6456ab65-2be6-4382-9155-b8ffe476cc4b","ios":"levelo://app?vid=6456ab65-2be6-4382-9155-b8ffe476cc4b"},"vehicle_type_id":"4","last_reported":1731103707,"current_range_meters":36400,"station_id":"ce4bh3h2rcd13ifvqdo0","pricing_plan_id":"cebpf4jnsgd1na2vs0mg"},{"bike_id":"ebd313ff-00e1-44f2-b2be-f0d356160fd2","system_id":"levelo_inurba_marseille","lat":43.31365,"lon":5.38494,"is_reserved":false,"is_disabled":false,"rental_uris":{"android":"levelo://app?vid=ebd313ff-00e1-44f2-b2be-f0d356160fd2","ios":"levelo://app?vid=ebd313ff-00e1-44f2-b2be-f0d356160fd2"},"vehicle_type_id":"4","last_reported":1731103707,"current_range_meters":38000,"station_id":"ce4bgt92rcd13ifvqcf0","pricing_plan_id":"cebpf4jnsgd1na2vs0mg"},{"bike_id":"b7c7f930-0b3a-45ca-affb-92f424666226","system_id":"levelo_inurba_marseille","lat":43.30339,"lon":5.40436,"is_reserved":false,"is_disabled":false,"rental_uris":{"android":"levelo://app?vid=b7c7f930-0b3a-45ca-affb-92f424666226","ios":"levelo://app?vid=b7c7f930-0b3a-45ca-affb-92f424666226"},"vehicle_type_id":"4","last_reported":1731103707,"current_range_meters":38800,"station_id":"ce4bh012rcd13ifvqd10","pricing_plan_id":"cebpf4jnsgd1na2vs0mg"},{"bike_id":"0b74ce83-e6b1-4485-8ca6-3897f29a426e","system_id":"levelo_inurba_marseille","lat":43.2396,"lon":5.36626,"is_reserved":false,"is_disabled":false,"rental_uris":{"android":"levelo://app?vid=0b74ce83-e6b1-4485-8ca6-3897f29a426e","ios":"levelo://app?vid=0b74ce83-e6b1-4485-8ca6-3897f29a426e"},"vehicle_type_id":"4","last_reported":1731103707,"current_range_meters":20400,"station_id":"ce4bhi12rcd13ifvqfp0","pricing_plan_id":"cebpf4jnsgd1na2vs0mg"},{"bike_id":"105130fe-036e-4e56-a8b1-04c22babf957","system_id":"levelo_inurba_marseille","lat":43.29461,"lon":5.40096,"is_reserved":false,"is_disabled":false,"rental_uris":{"android":"levelo://app?vid=105130fe-036e-4e56-a8b1-04c22babf957","ios":"levelo://app?vid=105130fe-036e-4e56-a8b1-04c22babf957"},"vehicle_type_id":"4","last_reported":1731103707,"current_range_meters":32000,"station_id":"ce4bh312rcd13ifvqdk0","pricing_plan_id":"cebpf4jnsgd1na2vs0mg"},{"bike_id":"6c2fcc29-8b6f-4d58-bd20-0682624338b1","system_id":"levelo_inurba_marseille","lat":43.29445,"lon":5.39756,"is_reserved":false,"is_disabled":false,"rental_uris":{"android":"levelo://app?vid=6c2fcc29-8b6f-4d58-bd20-0682624338b1","ios":"levelo://app?vid=6c2fcc29-8b6f-4d58-bd20-0682624338b1"},"vehicle_type_id":"4","last_reported":1731103707,"current_range_meters":17600,"station_id":"ce4bh3h2rcd13ifvqdo0","pricing_plan_id":"cebpf4jnsgd1na2vs0mg"},{"bike_id":"bb1484af-50bc-4d33-b023-524a6830fe46","system_id":"levelo_inurba_marseille","lat":43.29539,"lon":5.38538,"is_reserved":false,"is_disabled":false,"rental_uris":{"android":"levelo://app?vid=bb1484af-50bc-4d33-b023-524a6830fe46","ios":"levelo://app?vid=bb1484af-50bc-4d33-b023-524a6830fe46"},"vehicle_type_id":"4","last_reported":1731103707,"current_range_meters":28000,"station_id":"ce4bgih2rcd13ifvqba0","pricing_plan_id":"cebpf4jnsgd1na2vs0mg"},{"bike_id":"f94bdcbe-9a46-4c5f-879c-d5fc8c43084c","system_id":"levelo_inurba_marseille","lat":43.33026,"lon":5.39039,"is_reserved":false,"is_disabled":false,"rental_uris":{"android":"levelo://app?vid=f94bdcbe-9a46-4c5f-879c-d5fc8c43084c","ios":"levelo://app?vid=f94bdcbe-9a46-4c5f-879c-d5fc8c43084c"},"vehicle_type_id":"4","last_reported":1731103707,"current_range_meters":38800,"station_id":"ce4bhr92rcd13ifvqhrg","pricing_plan_id":"cebpf4jnsgd1na2vs0mg"},{"bike_id":"f9d7e7b9-a5e5-445a-843b-c0e382f294aa","system_id":"levelo_inurba_marseille","lat":43.2926,"lon":5.38436,"is_reserved":false,"is_disabled":false,"rental_uris":{"android":"levelo://app?vid=f9d7e7b9-a5e5-445a-843b-c0e382f294aa","ios":"levelo://app?vid=f9d7e7b9-a5e5-445a-843b-c0e382f294aa"},"vehicle_type_id":"4","last_reported":1731103707,"current_range_meters":38800,"station_id":"ce4bh692rcd13ifvqea0","pricing_plan_id":"cebpf4jnsgd1na2vs0mg"},{"bike_id":"86d7fa1a-ff26-4531-9a80-1d16a3a58517","system_id":"levelo_inurba_marseille","lat":43.28933,"lon":5.36632,"is_reserved":false,"is_disabled":false,"rental_uris":{"android":"levelo://app?vid=86d7fa1a-ff26-4531-9a80-1d16a3a58517","ios":"levelo://app?vid=86d7fa1a-ff26-4531-9a80-1d16a3a58517"},"vehicle_type_id":"4","last_reported":1731103707,"current_range_meters":36000,"station_id":"ce4bhap2rcd13ifvqek0","pricing_plan_id":"cebpf4jnsgd1na2vs0mg"},{"bike_id":"ae9d8fef-154d-4809-99b6-c308924e7ae8","system_id":"levelo_inurba_marseille","lat":43.29422,"lon":5.38623,"is_reserved":false,"is_disabled":false,"rental_uris":{"android":"levelo://app?vid=ae9d8fef-154d-4809-99b6-c308924e7ae8","ios":"levelo://app?vid=ae9d8fef-154d-4809-99b6-c308924e7ae8"},"vehicle_type_id":"4","last_reported":1731103707,"current_range_meters":38800,"station_id":"ce4bh2h2rcd13ifvqdh0","pricing_plan_id":"cebpf4jnsgd1na2vs0mg"},{"bike_id":"d4cd79e5-1366-4822-b39b-3fc1b900fd0c","system_id":"levelo_inurba_marseille","lat":43.29532,"lon":5.39045,"is_reserved":false,"is_disabled":false,"rental_uris":{"android":"levelo://app?vid=d4cd79e5-1366-4822-b39b-3fc1b900fd0c","ios":"levelo://app?vid=d4cd79e5-1366-4822-b39b-3fc1b900fd0c"},"vehicle_type_id":"4","last_reported":1731103707,"current_range_meters":39200,"station_id":"ce4bh3p2rcd13ifvqdp0","pricing_plan_id":"cebpf4jnsgd1na2vs0mg"},{"bike_id":"2a6caaf6-34f1-4e12-8c9d-153fd774cf91","system_id":"levelo_inurba_marseille","lat":43.24806,"lon":5.37453,"is_reserved":false,"is_disabled":false,"rental_uris":{"android":"levelo://app?vid=2a6caaf6-34f1-4e12-8c9d-153fd774cf91","ios":"levelo://app?vid=2a6caaf6-34f1-4e12-8c9d-153fd774cf91"},"vehicle_type_id":"4","last_reported":1731103707,"current_range_meters":29600,"station_id":"ce4bhgh2rcd13ifvqfb0","pricing_plan_id":"cebpf4jnsgd1na2vs0mg"},{"bike_id":"5ce8e61c-3342-4241-b80c-2e4895aa2f21","system_id":"levelo_inurba_marseille","lat":43.29537,"lon":5.38536,"is_reserved":false,"is_disabled":false,"rental_uris":{"android":"levelo://app?vid=5ce8e61c-3342-4241-b80c-2e4895aa2f21","ios":"levelo://app?vid=5ce8e61c-3342-4241-b80c-2e4895aa2f21"},"vehicle_type_id":"4","last_reported":1731103707,"current_range_meters":10000,"station_id":"ce4bgih2rcd13ifvqba0","pricing_plan_id":"cebpf4jnsgd1na2vs0mg"},{"bike_id":"f3411937-422e-4040-851b-5625a73cce5e","system_id":"levelo_inurba_marseille","lat":43.31349,"lon":5.36712,"is_reserved":false,"is_disabled":false,"rental_uris":{"android":"levelo://app?vid=f3411937-422e-4040-851b-5625a73cce5e","ios":"levelo://app?vid=f3411937-422e-4040-851b-5625a73cce5e"},"vehicle_type_id":"4","last_reported":1731103707,"current_range_meters":36400,"station_id":"ce4bgr92rcd13ifvqc6g","pricing_plan_id":"cebpf4jnsgd1na2vs0mg"},{"bike_id":"81d1e180-d523-4ef7-ae98-f9077f858825","system_id":"levelo_inurba_marseille","lat":43.24669,"lon":5.38159,"is_reserved":false,"is_disabled":false,"rental_uris":{"android":"levelo://app?vid=81d1e180-d523-4ef7-ae98-f9077f858825","ios":"levelo://app?vid=81d1e180-d523-4ef7-ae98-f9077f858825"},"vehicle_type_id":"4","last_reported":1731103707,"current_range_meters":8800,"station_id":"ce4bhih2rcd13ifvqfr0","pricing_plan_id":"cebpf4jnsgd1na2vs0mg"},{"bike_id":"35dde5e6-86e4-4508-8edb-ab7330bb801c","system_id":"levelo_inurba_marseille","lat":43.25077,"lon":5.39516,"is_reserved":false,"is_disabled":false,"rental_uris":{"android":"levelo://app?vid=35dde5e6-86e4-4508-8edb-ab7330bb801c","ios":"levelo://app?vid=35dde5e6-86e4-4508-8edb-ab7330bb801c"},"vehicle_type_id":"4","last_reported":1731103707,"current_range_meters":35600,"station_id":"ce4bhm12rcd13ifvqgkg","pricing_plan_id":"cebpf4jnsgd1na2vs0mg"},{"bike_id":"ff989801-f59b-46d1-867b-7c2b6eab1cca","system_id":"levelo_inurba_marseille","lat":43.337444,"lon":5.374475,"is_reserved":false,"is_disabled":false,"rental_uris":{"android":"levelo://app?vid=ff989801-f59b-46d1-867b-7c2b6eab1cca","ios":"levelo://app?vid=ff989801-f59b-46d1-867b-7c2b6eab1cca"},"vehicle_type_id":"4","last_reported":1731103707,"current_range_meters":36400,"station_id":"","pricing_plan_id":"cebpf4jnsgd1na2vs0mg"},{"bike_id":"3b8e5d30-5f82-4195-9630-e7420ea2ec0b","system_id":"levelo_inurba_marseille","lat":43.29267,"lon":5.3843,"is_reserved":false,"is_disabled":false,"rental_uris":{"android":"levelo://app?vid=3b8e5d30-5f82-4195-9630-e7420ea2ec0b","ios":"levelo://app?vid=3b8e5d30-5f82-4195-9630-e7420ea2ec0b"},"vehicle_type_id":"4","last_reported":1731103707,"current_range_meters":36000,"station_id":"ce4bh692rcd13ifvqea0","pricing_plan_id":"cebpf4jnsgd1na2vs0mg"},{"bike_id":"5c19d456-298c-4a20-9f50-0620b9fcbeb9","system_id":"levelo_inurba_marseille","lat":43.31373,"lon":5.38495,"is_reserved":false,"is_disabled":false,"rental_uris":{"android":"levelo://app?vid=5c19d456-298c-4a20-9f50-0620b9fcbeb9","ios":"levelo://app?vid=5c19d456-298c-4a20-9f50-0620b9fcbeb9"},"vehicle_type_id":"4","last_reported":1731103707,"current_range_meters":11200,"station_id":"ce4bgt92rcd13ifvqcf0","pricing_plan_id":"cebpf4jnsgd1na2vs0mg"},{"bike_id":"1facb7e4-8eda-4dfd-8015-4ba3d5b8c1b6","system_id":"levelo_inurba_marseille","lat":43.27967,"lon":5.38729,"is_reserved":false,"is_disabled":false,"rental_uris":{"android":"levelo://app?vid=1facb7e4-8eda-4dfd-8015-4ba3d5b8c1b6","ios":"levelo://app?vid=1facb7e4-8eda-4dfd-8015-4ba3d5b8c1b6"},"vehicle_type_id":"4","last_reported":1731103707,"current_range_meters":5600,"station_id":"ce4bhg12rcd13ifvqf80","pricing_plan_id":"cebpf4jnsgd1na2vs0mg"},{"bike_id":"69d38419-f915-4ada-a460-f28c05bf4ad2","system_id":"levelo_inurba_marseille","lat":43.2707,"lon":5.42277,"is_reserved":false,"is_disabled":false,"rental_uris":{"android":"levelo://app?vid=69d38419-f915-4ada-a460-f28c05bf4ad2","ios":"levelo://app?vid=69d38419-f915-4ada-a460-f28c05bf4ad2"},"vehicle_type_id":"4","last_reported":1731103707,"current_range_meters":39200,"station_id":"ce4bhk92rcd13ifvqgb0","pricing_plan_id":"cebpf4jnsgd1na2vs0mg"},{"bike_id":"d115c69c-dc61-4019-86ca-8f3ef1285cfb","system_id":"levelo_inurba_marseille","lat":43.22927,"lon":5.35378,"is_reserved":false,"is_disabled":false,"rental_uris":{"android":"levelo://app?vid=d115c69c-dc61-4019-86ca-8f3ef1285cfb","ios":"levelo://app?vid=d115c69c-dc61-4019-86ca-8f3ef1285cfb"},"vehicle_type_id":"4","last_reported":1731103707,"current_range_meters":36000,"station_id":"cpo3532slgdg3j2ikp40","pricing_plan_id":"cebpf4jnsgd1na2vs0mg"},{"bike_id":"0361b4f1-40e1-43b7-8a6f-c28564b4da09","system_id":"levelo_inurba_marseille","lat":43.29258,"lon":5.38451,"is_reserved":false,"is_disabled":false,"rental_uris":{"android":"levelo://app?vid=0361b4f1-40e1-43b7-8a6f-c28564b4da09","ios":"levelo://app?vid=0361b4f1-40e1-43b7-8a6f-c28564b4da09"},"vehicle_type_id":"4","last_reported":1731103707,"current_range_meters":20400,"station_id":"ce4bh692rcd13ifvqea0","pricing_plan_id":"cebpf4jnsgd1na2vs0mg"},{"bike_id":"7643d5f6-1000-4e84-ae3f-2ac4dc6b4fcd","system_id":"levelo_inurba_marseille","lat":43.24074,"lon":5.37763,"is_reserved":false,"is_disabled":false,"rental_uris":{"android":"levelo://app?vid=7643d5f6-1000-4e84-ae3f-2ac4dc6b4fcd","ios":"levelo://app?vid=7643d5f6-1000-4e84-ae3f-2ac4dc6b4fcd"},"vehicle_type_id":"4","last_reported":1731103707,"current_range_meters":35200,"station_id":"ce4bhnp2rcd13ifvqgvg","pricing_plan_id":"cebpf4jnsgd1na2vs0mg"},{"bike_id":"be94c940-c56d-4132-af66-fedb762b3e0f","system_id":"levelo_inurba_marseille","lat":43.23193,"lon":5.35556,"is_reserved":false,"is_disabled":false,"rental_uris":{"android":"levelo://app?vid=be94c940-c56d-4132-af66-fedb762b3e0f","ios":"levelo://app?vid=be94c940-c56d-4132-af66-fedb762b3e0f"},"vehicle_type_id":"4","last_reported":1731103707,"current_range_meters":38800,"station_id":"ce4bhu92rcd13ifvqi70","pricing_plan_id":"cebpf4jnsgd1na2vs0mg"},{"bike_id":"aca338e1-414e-4613-a44d-ca0b5ab09924","system_id":"levelo_inurba_marseille","lat":43.29536,"lon":5.38537,"is_reserved":false,"is_disabled":false,"rental_uris":{"android":"levelo://app?vid=aca338e1-414e-4613-a44d-ca0b5ab09924","ios":"levelo://app?vid=aca338e1-414e-4613-a44d-ca0b5ab09924"},"vehicle_type_id":"4","last_reported":1731103707,"current_range_meters":26000,"station_id":"ce4bgih2rcd13ifvqba0","pricing_plan_id":"cebpf4jnsgd1na2vs0mg"},{"bike_id":"db097537-d025-461d-abc5-6132b9522325","system_id":"levelo_inurba_marseille","lat":43.28669,"lon":5.36341,"is_reserved":false,"is_disabled":false,"rental_uris":{"android":"levelo://app?vid=db097537-d025-461d-abc5-6132b9522325","ios":"levelo://app?vid=db097537-d025-461d-abc5-6132b9522325"},"vehicle_type_id":"4","last_reported":1731103707,"current_range_meters":20000,"station_id":"ce4bhah2rcd13ifvqej0","pricing_plan_id":"cebpf4jnsgd1na2vs0mg"},{"bike_id":"7a7f3024-35da-4806-87b1-71d9e7ed6b38","system_id":"levelo_inurba_marseille","lat":43.29171,"lon":5.37137,"is_reserved":false,"is_disabled":false,"rental_uris":{"android":"levelo://app?vid=7a7f3024-35da-4806-87b1-71d9e7ed6b38","ios":"levelo://app?vid=7a7f3024-35da-4806-87b1-71d9e7ed6b38"},"vehicle_type_id":"4","last_reported":1731103707,"current_range_meters":33600,"station_id":"ce4bha92rcd13ifvqeh0","pricing_plan_id":"cebpf4jnsgd1na2vs0mg"},{"bike_id":"dc8b6b7f-5b62-41a6-b1f7-6ec941a004e3","system_id":"levelo_inurba_marseille","lat":43.27817,"lon":5.40708,"is_reserved":false,"is_disabled":false,"rental_uris":{"android":"levelo://app?vid=dc8b6b7f-5b62-41a6-b1f7-6ec941a004e3","ios":"levelo://app?vid=dc8b6b7f-5b62-41a6-b1f7-6ec941a004e3"},"vehicle_type_id":"4","last_reported":1731103707,"current_range_meters":39200,"station_id":"ce4bhnh2rcd13ifvqgtg","pricing_plan_id":"cebpf4jnsgd1na2vs0mg"},{"bike_id":"e3bbf819-2733-43ab-b626-982bd4c667c3","system_id":"levelo_inurba_marseille","lat":43.29601,"lon":5.38093,"is_reserved":false,"is_disabled":false,"rental_uris":{"android":"levelo://app?vid=e3bbf819-2733-43ab-b626-982bd4c667c3","ios":"levelo://app?vid=e3bbf819-2733-43ab-b626-982bd4c667c3"},"vehicle_type_id":"4","last_reported":1731103707,"current_range_meters":38800,"station_id":"ce4bgl12rcd13ifvqbo0","pricing_plan_id":"cebpf4jnsgd1na2vs0mg"},{"bike_id":"a8a43fcd-5228-475f-9c3c-423a52b6106f","system_id":"levelo_inurba_marseille","lat":43.29453,"lon":5.3975,"is_reserved":false,"is_disabled":false,"rental_uris":{"android":"levelo://app?vid=a8a43fcd-5228-475f-9c3c-423a52b6106f","ios":"levelo://app?vid=a8a43fcd-5228-475f-9c3c-423a52b6106f"},"vehicle_type_id":"4","last_reported":1731103707,"current_range_meters":39200,"station_id":"ce4bh3h2rcd13ifvqdo0","pricing_plan_id":"cebpf4jnsgd1na2vs0mg"},{"bike_id":"f5c6cd8d-43d2-4824-88ea-c5df80d5e844","system_id":"levelo_inurba_marseille","lat":43.3089,"lon":5.39658,"is_reserved":false,"is_disabled":false,"rental_uris":{"android":"levelo://app?vid=f5c6cd8d-43d2-4824-88ea-c5df80d5e844","ios":"levelo://app?vid=f5c6cd8d-43d2-4824-88ea-c5df80d5e844"},"vehicle_type_id":"4","last_reported":1731103707,"current_range_meters":30800,"station_id":"ce4bh012rcd13ifvqcv0","pricing_plan_id":"cebpf4jnsgd1na2vs0mg"},{"bike_id":"2391a952-ef22-4ee0-9fa7-8d7daece7f52","system_id":"levelo_inurba_marseille","lat":43.2941,"lon":5.38623,"is_reserved":false,"is_disabled":false,"rental_uris":{"android":"levelo://app?vid=2391a952-ef22-4ee0-9fa7-8d7daece7f52","ios":"levelo://app?vid=2391a952-ef22-4ee0-9fa7-8d7daece7f52"},"vehicle_type_id":"4","last_reported":1731103707,"current_range_meters":38800,"station_id":"ce4bh2h2rcd13ifvqdh0","pricing_plan_id":"cebpf4jnsgd1na2vs0mg"},{"bike_id":"b9f75b4e-f733-4323-a0d0-bda8cba39502","system_id":"levelo_inurba_marseille","lat":43.30143,"lon":5.37415,"is_reserved":false,"is_disabled":false,"rental_uris":{"android":"levelo://app?vid=b9f75b4e-f733-4323-a0d0-bda8cba39502","ios":"levelo://app?vid=b9f75b4e-f733-4323-a0d0-bda8cba39502"},"vehicle_type_id":"4","last_reported":1731103707,"current_range_meters":38000,"station_id":"ce4bgs92rcd13ifvqcc0","pricing_plan_id":"cebpf4jnsgd1na2vs0mg"},{"bike_id":"6ecb444d-9115-43dd-83cf-7a5007524278","system_id":"levelo_inurba_marseille","lat":43.303078,"lon":5.392067,"is_reserved":false,"is_disabled":false,"rental_uris":{"android":"levelo://app?vid=6ecb444d-9115-43dd-83cf-7a5007524278","ios":"levelo://app?vid=6ecb444d-9115-43dd-83cf-7a5007524278"},"vehicle_type_id":"4","last_reported":1731103707,"current_range_meters":34000,"station_id":"ce4bgkh2rcd13ifvqbk0","pricing_plan_id":"cebpf4jnsgd1na2vs0mg"},{"bike_id":"24f9dea8-5ae5-470e-9912-32e1ae991119","system_id":"levelo_inurba_marseille","lat":43.2867,"lon":5.36362,"is_reserved":false,"is_disabled":false,"rental_uris":{"android":"levelo://app?vid=24f9dea8-5ae5-470e-9912-32e1ae991119","ios":"levelo://app?vid=24f9dea8-5ae5-470e-9912-32e1ae991119"},"vehicle_type_id":"4","last_reported":1731103707,"current_range_meters":39200,"station_id":"ce4bhah2rcd13ifvqej0","pricing_plan_id":"cebpf4jnsgd1na2vs0mg"},{"bike_id":"ec9282d1-72a3-450d-9fc7-70f2e917175a","system_id":"levelo_inurba_marseille","lat":43.2501,"lon":5.38912,"is_reserved":false,"is_disabled":false,"rental_uris":{"android":"levelo://app?vid=ec9282d1-72a3-450d-9fc7-70f2e917175a","ios":"levelo://app?vid=ec9282d1-72a3-450d-9fc7-70f2e917175a"},"vehicle_type_id":"4","last_reported":1731103707,"current_range_meters":33600,"station_id":"ce4bhgp2rcd13ifvqfd0","pricing_plan_id":"cebpf4jnsgd1na2vs0mg"},{"bike_id":"2e21bba3-03dc-43e3-b458-420f2cd88e93","system_id":"levelo_inurba_marseille","lat":43.28728,"lon":5.37958,"is_reserved":false,"is_disabled":false,"rental_uris":{"android":"levelo://app?vid=2e21bba3-03dc-43e3-b458-420f2cd88e93","ios":"levelo://app?vid=2e21bba3-03dc-43e3-b458-420f2cd88e93"},"vehicle_type_id":"4","last_reported":1731103707,"current_range_meters":39200,"station_id":"ce4bh9p2rcd13ifvqec0","pricing_plan_id":"cebpf4jnsgd1na2vs0mg"},{"bike_id":"02f3bd69-c440-439f-96d2-1f56246cbb70","system_id":"levelo_inurba_marseille","lat":43.23056,"lon":5.35493,"is_reserved":false,"is_disabled":false,"rental_uris":{"android":"levelo://app?vid=02f3bd69-c440-439f-96d2-1f56246cbb70","ios":"levelo://app?vid=02f3bd69-c440-439f-96d2-1f56246cbb70"},"vehicle_type_id":"4","last_reported":1731103707,"current_range_meters":30400,"station_id":"cpo3342slgdg3j2ifvpg","pricing_plan_id":"cebpf4jnsgd1na2vs0mg"},{"bike_id":"033097e6-de3d-44fa-a83d-d8ef134dc263","system_id":"levelo_inurba_marseille","lat":43.29369,"lon":5.37861,"is_reserved":false,"is_disabled":false,"rental_uris":{"android":"levelo://app?vid=033097e6-de3d-44fa-a83d-d8ef134dc263","ios":"levelo://app?vid=033097e6-de3d-44fa-a83d-d8ef134dc263"},"vehicle_type_id":"4","last_reported":1731103707,"current_range_meters":28800,"station_id":"ce4bgjh2rcd13ifvqbf0","pricing_plan_id":"cebpf4jnsgd1na2vs0mg"},{"bike_id":"c70be11e-bafc-46fd-bf8d-541c7a9d2a50","system_id":"levelo_inurba_marseille","lat":43.28119,"lon":5.40133,"is_reserved":false,"is_disabled":false,"rental_uris":{"android":"levelo://app?vid=c70be11e-bafc-46fd-bf8d-541c7a9d2a50","ios":"levelo://app?vid=c70be11e-bafc-46fd-bf8d-541c7a9d2a50"},"vehicle_type_id":"4","last_reported":1731103707,"current_range_meters":32000,"station_id":"","pricing_plan_id":"cebpf4jnsgd1na2vs0mg"},{"bike_id":"224467a2-6277-44f9-8ffb-fb5ebd34d826","system_id":"levelo_inurba_marseille","lat":43.29426,"lon":5.38628,"is_reserved":false,"is_disabled":false,"rental_uris":{"android":"levelo://app?vid=224467a2-6277-44f9-8ffb-fb5ebd34d826","ios":"levelo://app?vid=224467a2-6277-44f9-8ffb-fb5ebd34d826"},"vehicle_type_id":"4","last_reported":1731103707,"current_range_meters":37600,"station_id":"ce4bh2h2rcd13ifvqdh0","pricing_plan_id":"cebpf4jnsgd1na2vs0mg"},{"bike_id":"04c33c41-7d2c-4ad1-9547-7c592fdb82f1","system_id":"levelo_inurba_marseille","lat":43.3175,"lon":5.39007,"is_reserved":false,"is_disabled":false,"rental_uris":{"android":"levelo://app?vid=04c33c41-7d2c-4ad1-9547-7c592fdb82f1","ios":"levelo://app?vid=04c33c41-7d2c-4ad1-9547-7c592fdb82f1"},"vehicle_type_id":"4","last_reported":1731103707,"current_range_meters":36800,"station_id":"ce4bhqp2rcd13ifvqhng","pricing_plan_id":"cebpf4jnsgd1na2vs0mg"},{"bike_id":"828ed45f-49db-4fd9-852a-6044df53de40","system_id":"levelo_inurba_marseille","lat":43.28157,"lon":5.42645,"is_reserved":false,"is_disabled":false,"rental_uris":{"android":"levelo://app?vid=828ed45f-49db-4fd9-852a-6044df53de40","ios":"levelo://app?vid=828ed45f-49db-4fd9-852a-6044df53de40"},"vehicle_type_id":"4","last_reported":1731103707,"current_range_meters":19200,"station_id":"ce4bhnh2rcd13ifvqgug","pricing_plan_id":"cebpf4jnsgd1na2vs0mg"},{"bike_id":"432734fd-bd46-4742-bf63-b89989e3ed1a","system_id":"levelo_inurba_marseille","lat":43.29421,"lon":5.3864,"is_reserved":false,"is_disabled":false,"rental_uris":{"android":"levelo://app?vid=432734fd-bd46-4742-bf63-b89989e3ed1a","ios":"levelo://app?vid=432734fd-bd46-4742-bf63-b89989e3ed1a"},"vehicle_type_id":"4","last_reported":1731103707,"current_range_meters":24800,"station_id":"ce4bh2h2rcd13ifvqdh0","pricing_plan_id":"cebpf4jnsgd1na2vs0mg"},{"bike_id":"bfb27af7-8202-4c91-bde8-edc7af59666d","system_id":"levelo_inurba_marseille","lat":43.29027,"lon":5.38144,"is_reserved":false,"is_disabled":false,"rental_uris":{"android":"levelo://app?vid=bfb27af7-8202-4c91-bde8-edc7af59666d","ios":"levelo://app?vid=bfb27af7-8202-4c91-bde8-edc7af59666d"},"vehicle_type_id":"4","last_reported":1731103707,"current_range_meters":36400,"station_id":"ce4bh4p2rcd13ifvqe1g","pricing_plan_id":"cebpf4jnsgd1na2vs0mg"},{"bike_id":"d9d68a10-aeda-4b4f-828d-c6dfe3d25865","system_id":"levelo_inurba_marseille","lat":43.29528,"lon":5.3751,"is_reserved":false,"is_disabled":false,"rental_uris":{"android":"levelo://app?vid=d9d68a10-aeda-4b4f-828d-c6dfe3d25865","ios":"levelo://app?vid=d9d68a10-aeda-4b4f-828d-c6dfe3d25865"},"vehicle_type_id":"4","last_reported":1731103707,"current_range_meters":30400,"station_id":"ce4bgkp2rcd13ifvqbmg","pricing_plan_id":"cebpf4jnsgd1na2vs0mg"},{"bike_id":"1d4c7eb7-301e-4459-b3b5-6205a72908f6","system_id":"levelo_inurba_marseille","lat":43.29269,"lon":5.38434,"is_reserved":false,"is_disabled":false,"rental_uris":{"android":"levelo://app?vid=1d4c7eb7-301e-4459-b3b5-6205a72908f6","ios":"levelo://app?vid=1d4c7eb7-301e-4459-b3b5-6205a72908f6"},"vehicle_type_id":"4","last_reported":1731103707,"current_range_meters":30000,"station_id":"ce4bh692rcd13ifvqea0","pricing_plan_id":"cebpf4jnsgd1na2vs0mg"},{"bike_id":"c3cae747-1840-4e85-b0e3-f2a4aea40a4a","system_id":"levelo_inurba_marseille","lat":43.31352,"lon":5.391463,"is_reserved":false,"is_disabled":false,"rental_uris":{"android":"levelo://app?vid=c3cae747-1840-4e85-b0e3-f2a4aea40a4a","ios":"levelo://app?vid=c3cae747-1840-4e85-b0e3-f2a4aea40a4a"},"vehicle_type_id":"4","last_reported":1731103707,"current_range_meters":7200,"station_id":"","pricing_plan_id":"cebpf4jnsgd1na2vs0mg"},{"bike_id":"dc3f4c1f-e207-4d21-a7da-d554a9667c22","system_id":"levelo_inurba_marseille","lat":43.28971,"lon":5.37847,"is_reserved":false,"is_disabled":false,"rental_uris":{"android":"levelo://app?vid=dc3f4c1f-e207-4d21-a7da-d554a9667c22","ios":"levelo://app?vid=dc3f4c1f-e207-4d21-a7da-d554a9667c22"},"vehicle_type_id":"4","last_reported":1731103707,"current_range_meters":10800,"station_id":"ce4bh9p2rcd13ifvqed0","pricing_plan_id":"cebpf4jnsgd1na2vs0mg"},{"bike_id":"7eb5b40c-29c6-4788-b8b4-f7805580c864","system_id":"levelo_inurba_marseille","lat":43.26202,"lon":5.37934,"is_reserved":false,"is_disabled":false,"rental_uris":{"android":"levelo://app?vid=7eb5b40c-29c6-4788-b8b4-f7805580c864","ios":"levelo://app?vid=7eb5b40c-29c6-4788-b8b4-f7805580c864"},"vehicle_type_id":"4","last_reported":1731103707,"current_range_meters":34000,"station_id":"ce4bhjp2rcd13ifvqg90","pricing_plan_id":"cebpf4jnsgd1na2vs0mg"},{"bike_id":"0fdaab97-356b-43fc-83ba-fc9885d24bc3","system_id":"levelo_inurba_marseille","lat":43.27366,"lon":5.36259,"is_reserved":false,"is_disabled":false,"rental_uris":{"android":"levelo://app?vid=0fdaab97-356b-43fc-83ba-fc9885d24bc3","ios":"levelo://app?vid=0fdaab97-356b-43fc-83ba-fc9885d24bc3"},"vehicle_type_id":"4","last_reported":1731103707,"current_range_meters":20400,"station_id":"ce4bhbh2rcd13ifvqeo0","pricing_plan_id":"cebpf4jnsgd1na2vs0mg"},{"bike_id":"49fb809d-733c-4a30-8e72-2ad8868795b5","system_id":"levelo_inurba_marseille","lat":43.29412,"lon":5.38608,"is_reserved":false,"is_disabled":false,"rental_uris":{"android":"levelo://app?vid=49fb809d-733c-4a30-8e72-2ad8868795b5","ios":"levelo://app?vid=49fb809d-733c-4a30-8e72-2ad8868795b5"},"vehicle_type_id":"4","last_reported":1731103707,"current_range_meters":38800,"station_id":"ce4bh2h2rcd13ifvqdh0","pricing_plan_id":"cebpf4jnsgd1na2vs0mg"},{"bike_id":"40a782ae-9486-4f58-9a8f-a9df92cd0760","system_id":"levelo_inurba_marseille","lat":43.29533,"lon":5.38549,"is_reserved":false,"is_disabled":false,"rental_uris":{"android":"levelo://app?vid=40a782ae-9486-4f58-9a8f-a9df92cd0760","ios":"levelo://app?vid=40a782ae-9486-4f58-9a8f-a9df92cd0760"},"vehicle_type_id":"4","last_reported":1731103707,"current_range_meters":32400,"station_id":"ce4bgih2rcd13ifvqba0","pricing_plan_id":"cebpf4jnsgd1na2vs0mg"},{"bike_id":"19afc402-976e-4fd4-b697-ecb45be12d19","system_id":"levelo_inurba_marseille","lat":43.33605,"lon":5.41039,"is_reserved":false,"is_disabled":false,"rental_uris":{"android":"levelo://app?vid=19afc402-976e-4fd4-b697-ecb45be12d19","ios":"levelo://app?vid=19afc402-976e-4fd4-b697-ecb45be12d19"},"vehicle_type_id":"4","last_reported":1731103707,"current_range_meters":39200,"station_id":"ce4bhqh2rcd13ifvqhmg","pricing_plan_id":"cebpf4jnsgd1na2vs0mg"},{"bike_id":"e0d55aa8-4859-4cbb-af74-8617b6d67ffb","system_id":"levelo_inurba_marseille","lat":43.27849,"lon":5.38817,"is_reserved":false,"is_disabled":false,"rental_uris":{"android":"levelo://app?vid=e0d55aa8-4859-4cbb-af74-8617b6d67ffb","ios":"levelo://app?vid=e0d55aa8-4859-4cbb-af74-8617b6d67ffb"},"vehicle_type_id":"4","last_reported":1731103707,"current_range_meters":27600,"station_id":"ce4bhoh2rcd13ifvqh5g","pricing_plan_id":"cebpf4jnsgd1na2vs0mg"},{"bike_id":"bb21651c-1dab-4b60-b988-186426de336e","system_id":"levelo_inurba_marseille","lat":43.33602,"lon":5.41023,"is_reserved":false,"is_disabled":false,"rental_uris":{"android":"levelo://app?vid=bb21651c-1dab-4b60-b988-186426de336e","ios":"levelo://app?vid=bb21651c-1dab-4b60-b988-186426de336e"},"vehicle_type_id":"4","last_reported":1731103707,"current_range_meters":39200,"station_id":"ce4bhqh2rcd13ifvqhmg","pricing_plan_id":"cebpf4jnsgd1na2vs0mg"},{"bike_id":"116e40cb-506d-4a1f-9b13-6cebe166dcd0","system_id":"levelo_inurba_marseille","lat":43.30148,"lon":5.38082,"is_reserved":false,"is_disabled":false,"rental_uris":{"android":"levelo://app?vid=116e40cb-506d-4a1f-9b13-6cebe166dcd0","ios":"levelo://app?vid=116e40cb-506d-4a1f-9b13-6cebe166dcd0"},"vehicle_type_id":"4","last_reported":1731103707,"current_range_meters":10800,"station_id":"ce4bgjp2rcd13ifvqbh0","pricing_plan_id":"cebpf4jnsgd1na2vs0mg"},{"bike_id":"1c99d4a7-ceed-4420-948a-ade24b14d4a0","system_id":"levelo_inurba_marseille","lat":43.28153,"lon":5.42652,"is_reserved":false,"is_disabled":false,"rental_uris":{"android":"levelo://app?vid=1c99d4a7-ceed-4420-948a-ade24b14d4a0","ios":"levelo://app?vid=1c99d4a7-ceed-4420-948a-ade24b14d4a0"},"vehicle_type_id":"4","last_reported":1731103707,"current_range_meters":35200,"station_id":"ce4bh092rcd13ifvqd20","pricing_plan_id":"cebpf4jnsgd1na2vs0mg"},{"bike_id":"d0541a6c-3c69-42c3-b2ea-0cfd5cf4e66d","system_id":"levelo_inurba_marseille","lat":43.29421,"lon":5.38623,"is_reserved":false,"is_disabled":false,"rental_uris":{"android":"levelo://app?vid=d0541a6c-3c69-42c3-b2ea-0cfd5cf4e66d","ios":"levelo://app?vid=d0541a6c-3c69-42c3-b2ea-0cfd5cf4e66d"},"vehicle_type_id":"4","last_reported":1731103707,"current_range_meters":17600,"station_id":"ce4bh2h2rcd13ifvqdh0","pricing_plan_id":"cebpf4jnsgd1na2vs0mg"},{"bike_id":"a8f3c073-c2e9-474e-800f-f2ee6da64c59","system_id":"levelo_inurba_marseille","lat":43.31329,"lon":5.39689,"is_reserved":false,"is_disabled":false,"rental_uris":{"android":"levelo://app?vid=a8f3c073-c2e9-474e-800f-f2ee6da64c59","ios":"levelo://app?vid=a8f3c073-c2e9-474e-800f-f2ee6da64c59"},"vehicle_type_id":"4","last_reported":1731103707,"current_range_meters":30000,"station_id":"ce4bgvp2rcd13ifvqcu0","pricing_plan_id":"cebpf4jnsgd1na2vs0mg"},{"bike_id":"3551d5a2-e8b0-4911-9469-9a6bf6a7dfc8","system_id":"levelo_inurba_marseille","lat":43.23189,"lon":5.35545,"is_reserved":false,"is_disabled":false,"rental_uris":{"android":"levelo://app?vid=3551d5a2-e8b0-4911-9469-9a6bf6a7dfc8","ios":"levelo://app?vid=3551d5a2-e8b0-4911-9469-9a6bf6a7dfc8"},"vehicle_type_id":"4","last_reported":1731103707,"current_range_meters":34800,"station_id":"ce4bhu92rcd13ifvqi70","pricing_plan_id":"cebpf4jnsgd1na2vs0mg"},{"bike_id":"e95261b3-4d8c-40d7-96cf-ec15f43764b4","system_id":"levelo_inurba_marseille","lat":43.28075,"lon":5.39652,"is_reserved":false,"is_disabled":false,"rental_uris":{"android":"levelo://app?vid=e95261b3-4d8c-40d7-96cf-ec15f43764b4","ios":"levelo://app?vid=e95261b3-4d8c-40d7-96cf-ec15f43764b4"},"vehicle_type_id":"4","last_reported":1731103707,"current_range_meters":21600,"station_id":"ce4bho12rcd13ifvqh2g","pricing_plan_id":"cebpf4jnsgd1na2vs0mg"},{"bike_id":"c0a52d17-cbb9-4fc8-81d7-31b6a7874899","system_id":"levelo_inurba_marseille","lat":43.23968,"lon":5.36631,"is_reserved":false,"is_disabled":false,"rental_uris":{"android":"levelo://app?vid=c0a52d17-cbb9-4fc8-81d7-31b6a7874899","ios":"levelo://app?vid=c0a52d17-cbb9-4fc8-81d7-31b6a7874899"},"vehicle_type_id":"4","last_reported":1731103707,"current_range_meters":28000,"station_id":"ce4bhi12rcd13ifvqfp0","pricing_plan_id":"cebpf4jnsgd1na2vs0mg"},{"bike_id":"3579e049-3086-44c9-81e3-fa709711eaf4","system_id":"levelo_inurba_marseille","lat":43.28715,"lon":5.37945,"is_reserved":false,"is_disabled":false,"rental_uris":{"android":"levelo://app?vid=3579e049-3086-44c9-81e3-fa709711eaf4","ios":"levelo://app?vid=3579e049-3086-44c9-81e3-fa709711eaf4"},"vehicle_type_id":"4","last_reported":1731103707,"current_range_meters":38800,"station_id":"ce4bh9p2rcd13ifvqec0","pricing_plan_id":"cebpf4jnsgd1na2vs0mg"},{"bike_id":"10e70efd-33ba-46c7-99d0-2fb7e35dd0e5","system_id":"levelo_inurba_marseille","lat":43.24067,"lon":5.37763,"is_reserved":false,"is_disabled":false,"rental_uris":{"android":"levelo://app?vid=10e70efd-33ba-46c7-99d0-2fb7e35dd0e5","ios":"levelo://app?vid=10e70efd-33ba-46c7-99d0-2fb7e35dd0e5"},"vehicle_type_id":"4","last_reported":1731103707,"current_range_meters":35200,"station_id":"ce4bhnp2rcd13ifvqgvg","pricing_plan_id":"cebpf4jnsgd1na2vs0mg"},{"bike_id":"4c07837e-0d50-4e06-b253-03141c23a37b","system_id":"levelo_inurba_marseille","lat":43.32494,"lon":5.3656,"is_reserved":false,"is_disabled":false,"rental_uris":{"android":"levelo://app?vid=4c07837e-0d50-4e06-b253-03141c23a37b","ios":"levelo://app?vid=4c07837e-0d50-4e06-b253-03141c23a37b"},"vehicle_type_id":"4","last_reported":1731103707,"current_range_meters":39200,"station_id":"ce4bhs12rcd13ifvqhvg","pricing_plan_id":"cebpf4jnsgd1na2vs0mg"},{"bike_id":"5000200d-af39-4f5d-b43c-0ff81319eb94","system_id":"levelo_inurba_marseille","lat":43.29417,"lon":5.38609,"is_reserved":false,"is_disabled":false,"rental_uris":{"android":"levelo://app?vid=5000200d-af39-4f5d-b43c-0ff81319eb94","ios":"levelo://app?vid=5000200d-af39-4f5d-b43c-0ff81319eb94"},"vehicle_type_id":"4","last_reported":1731103707,"current_range_meters":38800,"station_id":"ce4bh2h2rcd13ifvqdh0","pricing_plan_id":"cebpf4jnsgd1na2vs0mg"},{"bike_id":"3d3d8fa5-de5f-42f4-b8b2-6e7d5fa398aa","system_id":"levelo_inurba_marseille","lat":43.27564,"lon":5.38417,"is_reserved":false,"is_disabled":false,"rental_uris":{"android":"levelo://app?vid=3d3d8fa5-de5f-42f4-b8b2-6e7d5fa398aa","ios":"levelo://app?vid=3d3d8fa5-de5f-42f4-b8b2-6e7d5fa398aa"},"vehicle_type_id":"4","last_reported":1731103707,"current_range_meters":29600,"station_id":"ce4bhh92rcd13ifvqfi0","pricing_plan_id":"cebpf4jnsgd1na2vs0mg"},{"bike_id":"fcb1be66-f2e4-4706-855a-5141d9e724b4","system_id":"levelo_inurba_marseille","lat":43.24807,"lon":5.37457,"is_reserved":false,"is_disabled":false,"rental_uris":{"android":"levelo://app?vid=fcb1be66-f2e4-4706-855a-5141d9e724b4","ios":"levelo://app?vid=fcb1be66-f2e4-4706-855a-5141d9e724b4"},"vehicle_type_id":"4","last_reported":1731103707,"current_range_meters":24400,"station_id":"ce4bhgh2rcd13ifvqfb0","pricing_plan_id":"cebpf4jnsgd1na2vs0mg"},{"bike_id":"c168af3c-ada8-4e36-aca1-c596cabb0ed5","system_id":"levelo_inurba_marseille","lat":43.28225,"lon":5.370097,"is_reserved":false,"is_disabled":false,"rental_uris":{"android":"levelo://app?vid=c168af3c-ada8-4e36-aca1-c596cabb0ed5","ios":"levelo://app?vid=c168af3c-ada8-4e36-aca1-c596cabb0ed5"},"vehicle_type_id":"4","last_reported":1731103707,"current_range_meters":12400,"station_id":"","pricing_plan_id":"cebpf4jnsgd1na2vs0mg"},{"bike_id":"ee3b47d5-0cc4-44c8-8ca7-ba29dcbcdc62","system_id":"levelo_inurba_marseille","lat":43.32365,"lon":5.38889,"is_reserved":false,"is_disabled":false,"rental_uris":{"android":"levelo://app?vid=ee3b47d5-0cc4-44c8-8ca7-ba29dcbcdc62","ios":"levelo://app?vid=ee3b47d5-0cc4-44c8-8ca7-ba29dcbcdc62"},"vehicle_type_id":"4","last_reported":1731103707,"current_range_meters":30000,"station_id":"ce4bhqp2rcd13ifvqhog","pricing_plan_id":"cebpf4jnsgd1na2vs0mg"},{"bike_id":"1786decf-feaf-4f42-99f1-d8979bde2689","system_id":"levelo_inurba_marseille","lat":43.31716,"lon":5.37762,"is_reserved":false,"is_disabled":false,"rental_uris":{"android":"levelo://app?vid=1786decf-feaf-4f42-99f1-d8979bde2689","ios":"levelo://app?vid=1786decf-feaf-4f42-99f1-d8979bde2689"},"vehicle_type_id":"4","last_reported":1731103707,"current_range_meters":20400,"station_id":"ce4bgth2rcd13ifvqch0","pricing_plan_id":"cebpf4jnsgd1na2vs0mg"},{"bike_id":"7f0b57ce-cef2-480c-9b6f-5f576a6eec6d","system_id":"levelo_inurba_marseille","lat":43.30427,"lon":5.39755,"is_reserved":false,"is_disabled":false,"rental_uris":{"android":"levelo://app?vid=7f0b57ce-cef2-480c-9b6f-5f576a6eec6d","ios":"levelo://app?vid=7f0b57ce-cef2-480c-9b6f-5f576a6eec6d"},"vehicle_type_id":"4","last_reported":1731103707,"current_range_meters":23200,"station_id":"ce4bh092rcd13ifvqd20","pricing_plan_id":"cebpf4jnsgd1na2vs0mg"},{"bike_id":"9a4ce0a9-b764-40ca-9ed2-1c4bf7a2ac9b","system_id":"levelo_inurba_marseille","lat":43.3055,"lon":5.38426,"is_reserved":false,"is_disabled":false,"rental_uris":{"android":"levelo://app?vid=9a4ce0a9-b764-40ca-9ed2-1c4bf7a2ac9b","ios":"levelo://app?vid=9a4ce0a9-b764-40ca-9ed2-1c4bf7a2ac9b"},"vehicle_type_id":"4","last_reported":1731103707,"current_range_meters":36400,"station_id":"ce4bgg92rcd13ifvqb30","pricing_plan_id":"cebpf4jnsgd1na2vs0mg"},