{"last_updated":1748002824,"ttl":60,"version":"2.2","data":{"bikes":[{"bike_id":"c0b9fd4f-e181-46ce-b0bf-f5119973334f","system_id":"levelo_inurba_marseille","lat":43.33771,"lon":5.37424,"is_reserved":false,"is_disabled":true,"rental_uris":{"android":"levelo://app?vid=c0b9fd4f-e181-46ce-b0bf-f5119973334f","ios":"levelo://app?vid=c0b9fd4f-e181-46ce-b0bf-f5119973334f"},"vehicle_type_id":"4","last_reported":1748002824,"current_range_meters":0,"station_id":"","pricing_plan_id":"cebpf4jnsgd1na2vs0mg"},{"bike_id":"d4150556-b601-4cc0-b77e-49c2d38938cf","system_id":"levelo_inurba_marseille","lat":43.28859,"lon":5.45502,"is_reserved":false,"is_disabled":true,"rental_uris":{"android":"levelo://app?vid=d4150556-b601-4cc0-b77e-49c2d38938cf","ios":"levelo://app?vid=d4150556-b601-4cc0-b77e-49c2d38938cf"},"vehicle_type_id":"4","last_reported":1748002824,"current_range_meters":0,"station_id":"","pricing_plan_id":"cebpf4jnsgd1na2vs0mg"},{"bike_id":"e8162579-a5ad-485f-ad83-fec8a2ebe7e1","system_id":"levelo_inurba_marseille","lat":43.26834,"lon":5.39109,"is_reserved":false,"is_disabled":true,"rental_uris":{"android":"levelo://app?vid=e8162579-a5ad-485f-ad83-fec8a2ebe7e1","ios":"levelo://app?vid=e8162579-a5ad-485f-ad83-fec8a2ebe7e1"},"vehicle_type_id":"4","last_reported":1748002824,"current_range_meters":0,"station_id":"","pricing_plan_id":"cebpf4jnsgd1na2vs0mg"},{"bike_id":"70c5c5ad-5e66-4a49-9450-c4d67d96b788","system_id":"levelo_inurba_marseille","lat":43.27102,"lon":5.42727,"is_reserved":false,"is_disabled":true,"rental_uris":{"android":"levelo://app?vid=70c5c5ad-5e66-4a49-9450-c4d67d96b788","ios":"levelo://app?vid=70c5c5ad-5e66-4a49-9450-c4d67d96b788"},"vehicle_type_id":"4","last_reported":1748002824,"current_range_meters":0,"station_id":"","pricing_plan_id":"cebpf4jnsgd1na2vs0mg"},{"bike_id":"a9d86a3e-ff61-4b3c-b1d6-cb137b96f17c","system_id":"levelo_inurba_marseille","lat":43.288952,"lon":5.43041,"is_reserved":false,"is_disabled":true,"rental_uris":{"android":"levelo://app?vid=a9d86a3e-ff61-4b3c-b1d6-cb137b96f17c","ios":"levelo://app?vid=a9d86a3e-ff61-4b3c-b1d6-cb137b96f17c"},"vehicle_type_id":"4","last_reported":1748002824,"current_range_meters":0,"station_id":"","pricing_plan_id":"cebpf4jnsgd1na2vs0mg"},{"bike_id":"15dcdbbd-a41e-43eb-9ed6-26ec15ce7a50","system_id":"levelo_inurba_marseille","lat":43.21414,"lon":5.34119,"is_reserved":false,"is_disabled":true,"rental_uris":{"android":"levelo://app?vid=15dcdbbd-a41e-43eb-9ed6-26ec15ce7a50","ios":"levelo://app?vid=15dcdbbd-a41e-43eb-9ed6-26ec15ce7a50"},"vehicle_type_id":"4","last_reported":1748002824,"current_range_meters":0,"station_id":"","pricing_plan_id":"cebpf4jnsgd1na2vs0mg"},{"bike_id":"e9dd3aa4-b5e7-4480-926d-d7f537719bfa","system_id":"levelo_inurba_marseille","lat":43.230331,"lon":5.401847,"is_reserved":false,"is_disabled":true,"rental_uris":{"android":"levelo://app?vid=e9dd3aa4-b5e7-4480-926d-d7f537719bfa","ios":"levelo://app?vid=e9dd3aa4-b5e7-4480-926d-d7f537719bfa"},"vehicle_type_id":"4","last_reported":1748002824,"current_range_meters":0,"station_id":"","pricing_plan_id":"cebpf4jnsgd1na2vs0mg"},{"bike_id":"14603e41-b2dd-4757-a53c-2e366aa4f983","system_id":"levelo_inurba_marseille","lat":43.26999,"lon":5.42822,"is_reserved":false,"is_disabled":true,"rental_uris":{"android":"levelo://app?vid=14603e41-b2dd-4757-a53c-2e366aa4f983","ios":"levelo://app?vid=14603e41-b2dd-4757-a53c-2e366aa4f983"},"vehicle_type_id":"4","last_reported":1748002824,"current_range_meters":0,"station_id":"","pricing_plan_id":"cebpf4jnsgd1na2vs0mg"},{"bike_id":"c32a1d71-1b65-4454-832a-4a63b9ccbfdc","system_id":"levelo_inurba_marseille","lat":43.29369,"lon":5.37862,"is_reserved":false,"is_disabled":true,"rental_uris":{"android":"levelo://app?vid=c32a1d71-1b65-4454-832a-4a63b9ccbfdc","ios":"levelo://app?vid=c32a1d71-1b65-4454-832a-4a63b9ccbfdc"},"vehicle_type_id":"4","last_reported":1748002824,"current_range_meters":0,"station_id":"ce4bgjh2rcd13ifvqbf0","pricing_plan_id":"cebpf4jnsgd1na2vs0mg"},{"bike_id":"e11653c9-ee5f-4523-ba5d-eee450968b6d","system_id":"levelo_inurba_marseille","lat":43.30909,"lon":5.36842,"is_reserved":false,"is_disabled":true,"rental_uris":{"android":"levelo://app?vid=e11653c9-ee5f-4523-ba5d-eee450968b6d","ios":"levelo://app?vid=e11653c9-ee5f-4523-ba5d-eee450968b6d"},"vehicle_type_id":"4","last_reported":1748002824,"current_range_meters":0,"station_id":"ce4bgn92rcd13ifvqbvg","pricing_plan_id":"cebpf4jnsgd1na2vs0mg"},{"bike_id":"19965ab0-f821-4aa8-8cab-29607725974c","system_id":"levelo_inurba_marseille","lat":43.28267,"lon":5.35075,"is_reserved":false,"is_disabled":true,"rental_uris":{"android":"levelo://app?vid=19965ab0-f821-4aa8-8cab-29607725974c","ios":"levelo://app?vid=19965ab0-f821-4aa8-8cab-29607725974c"},"vehicle_type_id":"4","last_reported":1748002824,"current_range_meters":0,"station_id":"ce4bhbp2rcd13ifvqerg","pricing_plan_id":"cebpf4jnsgd1na2vs0mg"},{"bike_id":"382fc0f5-8d1d-435d-b00c-e89d2f6ac692","system_id":"levelo_inurba_marseille","lat":43.279207,"lon":5.39576,"is_reserved":false,"is_disabled":true,"rental_uris":{"android":"levelo://app?vid=382fc0f5-8d1d-435d-b00c-e89d2f6ac692","ios":"levelo://app?vid=382fc0f5-8d1d-435d-b00c-e89d2f6ac692"},"vehicle_type_id":"4","last_reported":1748002824,"current_range_meters":0,"station_id":"ce4bhf92rcd13ifvqf40","pricing_plan_id":"cebpf4jnsgd1na2vs0mg"},{"bike_id":"e7b2a0a8-0f52-4242-a675-f4f62900ef39","system_id":"levelo_inurba_marseille","lat":43.267771,"lon":5.394193,"is_reserved":false,"is_disabled":true,"rental_uris":{"android":"levelo://app?vid=e7b2a0a8-0f52-4242-a675-f4f62900ef39","ios":"levelo://app?vid=e7b2a0a8-0f52-4242-a675-f4f62900ef39"},"vehicle_type_id":"4","last_reported":1748002824,"current_range_meters":0,"station_id":"ce4bhh12rcd13ifvqfg0","pricing_plan_id":"cebpf4jnsgd1na2vs0mg"},{"bike_id":"563e4a01-9830-440e-b50d-f2f987524855","system_id":"levelo_inurba_marseille","lat":43.255917,"lon":5.382407,"is_reserved":false,"is_disabled":true,"rental_uris":{"android":"levelo://app?vid=563e4a01-9830-440e-b50d-f2f987524855","ios":"levelo://app?vid=563e4a01-9830-440e-b50d-f2f987524855"},"vehicle_type_id":"4","last_reported":1748002824,"current_range_meters":0,"station_id":"ce4bhih2rcd13ifvqfs0","pricing_plan_id":"cebpf4jnsgd1na2vs0mg"},{"bike_id":"902f9a9f-50c0-44e2-901c-3d743935354f","system_id":"levelo_inurba_marseille","lat":43.24084,"lon":5.37757,"is_reserved":false,"is_disabled":true,"rental_uris":{"android":"levelo://app?vid=902f9a9f-50c0-44e2-901c-3d743935354f","ios":"levelo://app?vid=902f9a9f-50c0-44e2-901c-3d743935354f"},"vehicle_type_id":"4","last_reported":1748002824,"current_range_meters":0,"station_id":"ce4bhnp2rcd13ifvqgvg","pricing_plan_id":"cebpf4jnsgd1na2vs0mg"},{"bike_id":"228e8767-2ce8-4ac9-9a7a-8bfa7f916c11","system_id":"levelo_inurba_marseille","lat":43.2969,"lon":5.36614,"is_reserved":false,"is_disabled":true,"rental_uris":{"android":"levelo://app?vid=228e8767-2ce8-4ac9-9a7a-8bfa7f916c11","ios":"levelo://app?vid=228e8767-2ce8-4ac9-9a7a-8bfa7f916c11"},"vehicle_type_id":"4","last_reported":1748002824,"current_range_meters":400,"station_id":"ce4bgn12rcd13ifvqbt0","pricing_plan_id":"cebpf4jnsgd1na2vs0mg"},{"bike_id":"5ccf4a67-7ac1-4af0-9902-9dc2245c8dfb","system_id":"levelo_inurba_marseille","lat":43.262101,"lon":5.374429,"is_reserved":false,"is_disabled":true,"rental_uris":{"android":"levelo://app?vid=5ccf4a67-7ac1-4af0-9902-9dc2245c8dfb","ios":"levelo://app?vid=5ccf4a67-7ac1-4af0-9902-9dc2245c8dfb"},"vehicle_type_id":"4","last_reported":1748002824,"current_range_meters":800,"station_id":"ce4bhgp2rcd13ifvqfc0","pricing_plan_id":"cebpf4jnsgd1na2vs0mg"},{"bike_id":"62769134-d2b0-46e5-9045-59e60a2bb1f6","system_id":"levelo_inurba_marseille","lat":43.231789,"lon":5.399877,"is_reserved":false,"is_disabled":true,"rental_uris":{"android":"levelo://app?vid=62769134-d2b0-46e5-9045-59e60a2bb1f6","ios":"levelo://app?vid=62769134-d2b0-46e5-9045-59e60a2bb1f6"},"vehicle_type_id":"4","last_reported":1748002824,"current_range_meters":800,"station_id":"ce4bhn12rcd13ifvqgqg","pricing_plan_id":"cebpf4jnsgd1na2vs0mg"},{"bike_id":"8a29e2cb-f572-476a-88f1-733e1ccabc83","system_id":"levelo_inurba_marseille","lat":43.30423,"lon":5.41285,"is_reserved":false,"is_disabled":true,"rental_uris":{"android":"levelo://app?vid=8a29e2cb-f572-476a-88f1-733e1ccabc83","ios":"levelo://app?vid=8a29e2cb-f572-476a-88f1-733e1ccabc83"},"vehicle_type_id":"4","last_reported":1748002824,"current_range_meters":800,"station_id":"ce4bhop2rcd13ifvqh8g","pricing_plan_id":"cebpf4jnsgd1na2vs0mg"},{"bike_id":"5754523d-15a4-4297-b33a-3586b262bed2","system_id":"levelo_inurba_marseille","lat":43.30855,"lon":5.37175,"is_reserved":false,"is_disabled":true,"rental_uris":{"android":"levelo://app?vid=5754523d-15a4-4297-b33a-3586b262bed2","ios":"levelo://app?vid=5754523d-15a4-4297-b33a-3586b262bed2"},"vehicle_type_id":"4","last_reported":1748002824,"current_range_meters":1600,"station_id":"","pricing_plan_id":"cebpf4jnsgd1na2vs0mg"},{"bike_id":"e156c186-61be-4bcc-81f8-4b2495da9407","system_id":"levelo_inurba_marseille","lat":43.301376,"lon":5.398683,"is_reserved":false,"is_disabled":true,"rental_uris":{"android":"levelo://app?vid=e156c186-61be-4bcc-81f8-4b2495da9407","ios":"levelo://app?vid=e156c186-61be-4bcc-81f8-4b2495da9407"},"vehicle_type_id":"4","last_reported":1748002824,"current_range_meters":1600,"station_id":"ce4bh0h2rcd13ifvqd40","pricing_plan_id":"cebpf4jnsgd1na2vs0mg"},{"bike_id":"73f1e595-2ad9-4d70-8015-7aacfdd1b628","system_id":"levelo_inurba_marseille","lat":43.278117,"lon":5.383329,"is_reserved":false,"is_disabled":true,"rental_uris":{"android":"levelo://app?vid=73f1e595-2ad9-4d70-8015-7aacfdd1b628","ios":"levelo://app?vid=73f1e595-2ad9-4d70-8015-7aacfdd1b628"},"vehicle_type_id":"4","last_reported":1748002824,"current_range_meters":1600,"station_id":"ce4bhh92rcd13ifvqfi0","pricing_plan_id":"cebpf4jnsgd1na2vs0mg"},{"bike_id":"cbfefeb5-723e-4c06-9569-2090283b6f89","system_id":"levelo_inurba_marseille","lat":43.30197,"lon":5.36597,"is_reserved":false,"is_disabled":true,"rental_uris":{"android":"levelo://app?vid=cbfefeb5-723e-4c06-9569-2090283b6f89","ios":"levelo://app?vid=cbfefeb5-723e-4c06-9569-2090283b6f89"},"vehicle_type_id":"4","last_reported":1748002824,"current_range_meters":2000,"station_id":"ce4bgrh2rcd13ifvqc8g","pricing_plan_id":"cebpf4jnsgd1na2vs0mg"},{"bike_id":"9d889440-e303-4230-8677-9c5ab98c31a8","system_id":"levelo_inurba_marseille","lat":43.29964,"lon":5.37163,"is_reserved":false,"is_disabled":false,"rental_uris":{"android":"levelo://app?vid=9d889440-e303-4230-8677-9c5ab98c31a8","ios":"levelo://app?vid=9d889440-e303-4230-8677-9c5ab98c31a8"},"vehicle_type_id":"4","last_reported":1748002824,"current_range_meters":2800,"station_id":"ce4bgr92rcd13ifvqc7g","pricing_plan_id":"cebpf4jnsgd1na2vs0mg"},{"bike_id":"55afb434-ed76-483a-9d83-464b39568900","system_id":"levelo_inurba_marseille","lat":43.29037,"lon":5.39968,"is_reserved":false,"is_disabled":false,"rental_uris":{"android":"levelo://app?vid=55afb434-ed76-483a-9d83-464b39568900","ios":"levelo://app?vid=55afb434-ed76-483a-9d83-464b39568900"},"vehicle_type_id":"4","last_reported":1748002824,"current_range_meters":2800,"station_id":"ce4bh392rcd13ifvqdm0","pricing_plan_id":"cebpf4jnsgd1na2vs0mg"},{"bike_id":"877ce3f9-2707-4157-b0c8-d81d71c2e7fd","system_id":"levelo_inurba_marseille","lat":43.29271,"lon":5.36841,"is_reserved":false,"is_disabled":false,"rental_uris":{"android":"levelo://app?vid=877ce3f9-2707-4157-b0c8-d81d71c2e7fd","ios":"levelo://app?vid=877ce3f9-2707-4157-b0c8-d81d71c2e7fd"},"vehicle_type_id":"4","last_reported":1748002824,"current_range_meters":2800,"station_id":"ce4bhbp2rcd13ifvqesg","pricing_plan_id":"cebpf4jnsgd1na2vs0mg"},{"bike_id":"dde9c7c8-ae07-430f-9767-84a7d7a9e81b","system_id":"levelo_inurba_marseille","lat":43.26575,"lon":5.39009,"is_reserved":false,"is_disabled":false,"rental_uris":{"android":"levelo://app?vid=dde9c7c8-ae07-430f-9767-84a7d7a9e81b","ios":"levelo://app?vid=dde9c7c8-ae07-430f-9767-84a7d7a9e81b"},"vehicle_type_id":"4","last_reported":1748002824,"current_range_meters":2800,"station_id":"ce4bhe12rcd13ifvqf30","pricing_plan_id":"cebpf4jnsgd1na2vs0mg"},{"bike_id":"2827ef28-0e2e-44ad-a881-0f5a8a0f4025","system_id":"levelo_inurba_marseille","lat":43.23152,"lon":5.4371,"is_reserved":false,"is_disabled":false,"rental_uris":{"android":"levelo://app?vid=2827ef28-0e2e-44ad-a881-0f5a8a0f4025","ios":"levelo://app?vid=2827ef28-0e2e-44ad-a881-0f5a8a0f4025"},"vehicle_type_id":"4","last_reported":1748002824,"current_range_meters":2800,"station_id":"ce4bhmp2rcd13ifvqgog","pricing_plan_id":"cebpf4jnsgd1na2vs0mg"},{"bike_id":"338e83e8-3855-4a89-9ea5-bd755a4902ff","system_id":"levelo_inurba_marseille","lat":43.27816,"lon":5.40707,"is_reserved":false,"is_disabled":false,"rental_uris":{"android":"levelo://app?vid=338e83e8-3855-4a89-9ea5-bd755a4902ff","ios":"levelo://app?vid=338e83e8-3855-4a89-9ea5-bd755a4902ff"},"vehicle_type_id":"4","last_reported":1748002824,"current_range_meters":2800,"station_id":"ce4bhnh2rcd13ifvqgtg","pricing_plan_id":"cebpf4jnsgd1na2vs0mg"},{"bike_id":"33489211-d1e5-476a-8682-f8241d6ea290","system_id":"levelo_inurba_marseille","lat":43.289474,"lon":5.396522,"is_reserved":false,"is_disabled":false,"rental_uris":{"android":"levelo://app?vid=33489211-d1e5-476a-8682-f8241d6ea290","ios":"levelo://app?vid=33489211-d1e5-476a-8682-f8241d6ea290"},"vehicle_type_id":"4","last_reported":1748002824,"current_range_meters":3200,"station_id":"ce4bh3h2rcd13ifvqdn0","pricing_plan_id":"cebpf4jnsgd1na2vs0mg"},{"bike_id":"bcd60fb5-72a2-4e1b-89de-0b0006020c24","system_id":"levelo_inurba_marseille","lat":43.28859,"lon":5.35862,"is_reserved":false,"is_disabled":false,"rental_uris":{"android":"levelo://app?vid=bcd60fb5-72a2-4e1b-89de-0b0006020c24","ios":"levelo://app?vid=bcd60fb5-72a2-4e1b-89de-0b0006020c24"},"vehicle_type_id":"4","last_reported":1748002824,"current_range_meters":3200,"station_id":"ce4bhb12rcd13ifvqem0","pricing_plan_id":"cebpf4jnsgd1na2vs0mg"},{"bike_id":"ba15d4c1-3b99-4bcb-abb8-a99a47d51ca5","system_id":"levelo_inurba_marseille","lat":43.29709,"lon":5.37692,"is_reserved":false,"is_disabled":false,"rental_uris":{"android":"levelo://app?vid=ba15d4c1-3b99-4bcb-abb8-a99a47d51ca5","ios":"levelo://app?vid=ba15d4c1-3b99-4bcb-abb8-a99a47d51ca5"},"vehicle_type_id":"4","last_reported":1748002824,"current_range_meters":3600,"station_id":"ce4bgkh2rcd13ifvqbl0","pricing_plan_id":"cebpf4jnsgd1na2vs0mg"},{"bike_id":"742202de-163c-4923-8f8e-7c416f364b9e","system_id":"levelo_inurba_marseille","lat":43.31498,"lon":5.37312,"is_reserved":false,"is_disabled":false,"rental_uris":{"android":"levelo://app?vid=742202de-163c-4923-8f8e-7c416f364b9e","ios":"levelo://app?vid=742202de-163c-4923-8f8e-7c416f364b9e"},"vehicle_type_id":"4","last_reported":1748002824,"current_range_meters":3600,"station_id":"ce4bgt12rcd13ifvqcd0","pricing_plan_id":"cebpf4jnsgd1na2vs0mg"},{"bike_id":"7f374a0c-9ab4-412c-a8dd-1f59fe7a5317","system_id":"levelo_inurba_marseille","lat":43.25583,"lon":5.38231,"is_reserved":false,"is_disabled":false,"rental_uris":{"android":"levelo://app?vid=7f374a0c-9ab4-412c-a8dd-1f59fe7a5317","ios":"levelo://app?vid=7f374a0c-9ab4-412c-a8dd-1f59fe7a5317"},"vehicle_type_id":"4","last_reported":1748002824,"current_range_meters":3600,"station_id":"ce4bhih2rcd13ifvqfs0","pricing_plan_id":"cebpf4jnsgd1na2vs0mg"},{"bike_id":"538b5bcb-78f1-4045-8835-bbcbb4f3e58f","system_id":"levelo_inurba_marseille","lat":43.22928,"lon":5.35371,"is_reserved":false,"is_disabled":false,"rental_uris":{"android":"levelo://app?vid=538b5bcb-78f1-4045-8835-bbcbb4f3e58f","ios":"levelo://app?vid=538b5bcb-78f1-4045-8835-bbcbb4f3e58f"},"vehicle_type_id":"4","last_reported":1748002824,"current_range_meters":3600,"station_id":"cpo3532slgdg3j2ikp40","pricing_plan_id":"cebpf4jnsgd1na2vs0mg"},{"bike_id":"c3c7ae58-40dc-49fe-91c8-045c830c98b8","system_id":"levelo_inurba_marseille","lat":43.317935,"lon":5.449313,"is_reserved":false,"is_disabled":false,"rental_uris":{"android":"levelo://app?vid=c3c7ae58-40dc-49fe-91c8-045c830c98b8","ios":"levelo://app?vid=c3c7ae58-40dc-49fe-91c8-045c830c98b8"},"vehicle_type_id":"4","last_reported":1748002824,"current_range_meters":4400,"station_id":"","pricing_plan_id":"cebpf4jnsgd1na2vs0mg"},{"bike_id":"3fe3d6c4-138a-47df-b6b4-e6f19e8f7d46","system_id":"levelo_inurba_marseille","lat":43.21404,"lon":5.34125,"is_reserved":false,"is_disabled":false,"rental_uris":{"android":"levelo://app?vid=3fe3d6c4-138a-47df-b6b4-e6f19e8f7d46","ios":"levelo://app?vid=3fe3d6c4-138a-47df-b6b4-e6f19e8f7d46"},"vehicle_type_id":"4","last_reported":1748002824,"current_range_meters":4400,"station_id":"","pricing_plan_id":"cebpf4jnsgd1na2vs0mg"},{"bike_id":"6a4f46d2-1f0f-421d-8709-408ef4c56951","system_id":"levelo_inurba_marseille","lat":43.27623,"lon":5.3611,"is_reserved":false,"is_disabled":false,"rental_uris":{"android":"levelo://app?vid=6a4f46d2-1f0f-421d-8709-408ef4c56951","ios":"levelo://app?vid=6a4f46d2-1f0f-421d-8709-408ef4c56951"},"vehicle_type_id":"4","last_reported":1748002824,"current_range_meters":4400,"station_id":"ce4bgj92rcd13ifvqbe0","pricing_plan_id":"cebpf4jnsgd1na2vs0mg"},{"bike_id":"41cf0595-82a6-435c-af5e-a16883b6a052","system_id":"levelo_inurba_marseille","lat":43.29599,"lon":5.38101,"is_reserved":false,"is_disabled":false,"rental_uris":{"android":"levelo://app?vid=41cf0595-82a6-435c-af5e-a16883b6a052","ios":"levelo://app?vid=41cf0595-82a6-435c-af5e-a16883b6a052"},"vehicle_type_id":"4","last_reported":1748002824,"current_range_meters":4400,"station_id":"ce4bgl12rcd13ifvqbo0","pricing_plan_id":"cebpf4jnsgd1na2vs0mg"},{"bike_id":"9880c8dc-8439-483a-af37-65f8789b3cc5","system_id":"levelo_inurba_marseille","lat":43.28852,"lon":5.39326,"is_reserved":false,"is_disabled":false,"rental_uris":{"android":"levelo://app?vid=9880c8dc-8439-483a-af37-65f8789b3cc5","ios":"levelo://app?vid=9880c8dc-8439-483a-af37-65f8789b3cc5"},"vehicle_type_id":"4","last_reported":1748002824,"current_range_meters":4400,"station_id":"ce4bh2p2rcd13ifvqdi0","pricing_plan_id":"cebpf4jnsgd1na2vs0mg"},{"bike_id":"37e5bd91-2c0c-4a4a-a48e-6639741b7ff7","system_id":"levelo_inurba_marseille","lat":43.29229,"lon":5.36072,"is_reserved":false,"is_disabled":false,"rental_uris":{"android":"levelo://app?vid=37e5bd91-2c0c-4a4a-a48e-6639741b7ff7","ios":"levelo://app?vid=37e5bd91-2c0c-4a4a-a48e-6639741b7ff7"},"vehicle_type_id":"4","last_reported":1748002824,"current_range_meters":4800,"station_id":"ce4bhbh2rcd13ifvqeqg","pricing_plan_id":"cebpf4jnsgd1na2vs0mg"},{"bike_id":"93a344e6-8243-4070-bf43-270634e364fe","system_id":"levelo_inurba_marseille","lat":43.27999,"lon":5.40009,"is_reserved":false,"is_disabled":false,"rental_uris":{"android":"levelo://app?vid=93a344e6-8243-4070-bf43-270634e364fe","ios":"levelo://app?vid=93a344e6-8243-4070-bf43-270634e364fe"},"vehicle_type_id":"4","last_reported":1748002824,"current_range_meters":4800,"station_id":"ce4bho92rcd13ifvqh4g","pricing_plan_id":"cebpf4jnsgd1na2vs0mg"},{"bike_id":"ad4d8099-03a6-43ca-966f-189fb83ff678","system_id":"levelo_inurba_marseille","lat":43.31278,"lon":5.3742,"is_reserved":false,"is_disabled":false,"rental_uris":{"android":"levelo://app?vid=ad4d8099-03a6-43ca-966f-189fb83ff678","ios":"levelo://app?vid=ad4d8099-03a6-43ca-966f-189fb83ff678"},"vehicle_type_id":"4","last_reported":1748002824,"current_range_meters":5600,"station_id":"","pricing_plan_id":"cebpf4jnsgd1na2vs0mg"},{"bike_id":"f9fb40c0-1fcd-48cb-8e26-3f2dc0fb2451","system_id":"levelo_inurba_marseille","lat":43.33751,"lon":5.37509,"is_reserved":false,"is_disabled":false,"rental_uris":{"android":"levelo://app?vid=f9fb40c0-1fcd-48cb-8e26-3f2dc0fb2451","ios":"levelo://app?vid=f9fb40c0-1fcd-48cb-8e26-3f2dc0fb2451"},"vehicle_type_id":"4","last_reported":1748002824,"current_range_meters":5600,"station_id":"","pricing_plan_id":"cebpf4jnsgd1na2vs0mg"},{"bike_id":"eb869de5-7779-45a8-8cc0-aeac56c8e6ea","system_id":"levelo_inurba_marseille","lat":43.279452,"lon":5.410443,"is_reserved":false,"is_disabled":false,"rental_uris":{"android":"levelo://app?vid=eb869de5-7779-45a8-8cc0-aeac56c8e6ea","ios":"levelo://app?vid=eb869de5-7779-45a8-8cc0-aeac56c8e6ea"},"vehicle_type_id":"4","last_reported":1748002824,"current_range_meters":5600,"station_id":"","pricing_plan_id":"cebpf4jnsgd1na2vs0mg"},{"bike_id":"dd01a5a1-3804-46e8-b407-2002425c123c","system_id":"levelo_inurba_marseille","lat":43.2797,"lon":5.38735,"is_reserved":false,"is_disabled":false,"rental_uris":{"android":"levelo://app?vid=dd01a5a1-3804-46e8-b407-2002425c123c","ios":"levelo://app?vid=dd01a5a1-3804-46e8-b407-2002425c123c"},"vehicle_type_id":"4","last_reported":1748002824,"current_range_meters":5600,"station_id":"ce4bhg12rcd13ifvqf80","pricing_plan_id":"cebpf4jnsgd1na2vs0mg"},{"bike_id":"e06af197-519c-44b8-abbc-63518305d88c","system_id":"levelo_inurba_marseille","lat":43.25014,"lon":5.38944,"is_reserved":false,"is_disabled":false,"rental_uris":{"android":"levelo://app?vid=e06af197-519c-44b8-abbc-63518305d88c","ios":"levelo://app?vid=e06af197-519c-44b8-abbc-63518305d88c"},"vehicle_type_id":"4","last_reported":1748002824,"current_range_meters":5600,"station_id":"ce4bhgp2rcd13ifvqfd0","pricing_plan_id":"cebpf4jnsgd1na2vs0mg"},{"bike_id":"ce841425-d608-40c0-9ae1-1a63aebdeafc","system_id":"levelo_inurba_marseille","lat":43.26062,"lon":5.39393,"is_reserved":false,"is_disabled":false,"rental_uris":{"android":"levelo://app?vid=ce841425-d608-40c0-9ae1-1a63aebdeafc","ios":"levelo://app?vid=ce841425-d608-40c0-9ae1-1a63aebdeafc"},"vehicle_type_id":"4","last_reported":1748002824,"current_range_meters":5600,"station_id":"ce4bhh92rcd13ifvqfj0","pricing_plan_id":"cebpf4jnsgd1na2vs0mg"},{"bike_id":"4cd665f8-04cf-4682-8137-8276c6647915","system_id":"levelo_inurba_marseille","lat":43.28441,"lon":5.39199,"is_reserved":false,"is_disabled":false,"rental_uris":{"android":"levelo://app?vid=4cd665f8-04cf-4682-8137-8276c6647915","ios":"levelo://app?vid=4cd665f8-04cf-4682-8137-8276c6647915"},"vehicle_type_id":"4","last_reported":1748002824,"current_range_meters":5600,"station_id":"ce4bhoh2rcd13ifvqh5g","pricing_plan_id":"cebpf4jnsgd1na2vs0mg"},{"bike_id":"0b8c5c0c-fdf0-4cbc-b86a-04fc6bba9a2d","system_id":"levelo_inurba_marseille","lat":43.32114,"lon":5.36772,"is_reserved":false,"is_disabled":false,"rental_uris":{"android":"levelo://app?vid=0b8c5c0c-fdf0-4cbc-b86a-04fc6bba9a2d","ios":"levelo://app?vid=0b8c5c0c-fdf0-4cbc-b86a-04fc6bba9a2d"},"vehicle_type_id":"4","last_reported":1748002824,"current_range_meters":5600,"station_id":"ce4bhrh2rcd13ifvqhug","pricing_plan_id":"cebpf4jnsgd1na2vs0mg"},{"bike_id":"cd2b9d97-3676-4c83-8e3b-aa4857457d9a","system_id":"levelo_inurba_marseille","lat":43.31498,"lon":5.37037,"is_reserved":false,"is_disabled":false,"rental_uris":{"android":"levelo://app?vid=cd2b9d97-3676-4c83-8e3b-aa4857457d9a","ios":"levelo://app?vid=cd2b9d97-3676-4c83-8e3b-aa4857457d9a"},"vehicle_type_id":"4","last_reported":1748002824,"current_range_meters":6000,"station_id":"","pricing_plan_id":"cebpf4jnsgd1na2vs0mg"},{"bike_id":"6fb0a720-683a-41e2-aa58-b917f19c1264","system_id":"levelo_inurba_marseille","lat":43.31368,"lon":5.36724,"is_reserved":false,"is_disabled":false,"rental_uris":{"android":"levelo://app?vid=6fb0a720-683a-41e2-aa58-b917f19c1264","ios":"levelo://app?vid=6fb0a720-683a-41e2-aa58-b917f19c1264"},"vehicle_type_id":"4","last_reported":1748002824,"current_range_meters":6000,"station_id":"ce4bgr92rcd13ifvqc6g","pricing_plan_id":"cebpf4jnsgd1na2vs0mg"},{"bike_id":"976ed1b6-b8dd-4e7b-8fe8-e9818acb1b25","system_id":"levelo_inurba_marseille","lat":43.2917,"lon":5.37168,"is_reserved":false,"is_disabled":false,"rental_uris":{"android":"levelo://app?vid=976ed1b6-b8dd-4e7b-8fe8-e9818acb1b25","ios":"levelo://app?vid=976ed1b6-b8dd-4e7b-8fe8-e9818acb1b25"},"vehicle_type_id":"4","last_reported":1748002824,"current_range_meters":6000,"station_id":"ce4bha92rcd13ifvqeh0","pricing_plan_id":"cebpf4jnsgd1na2vs0mg"},{"bike_id":"1c753feb-4e86-4a55-9be8-b3e86dc74e34","system_id":"levelo_inurba_marseille","lat":43.26216,"lon":5.37438,"is_reserved":false,"is_disabled":false,"rental_uris":{"android":"levelo://app?vid=1c753feb-4e86-4a55-9be8-b3e86dc74e34","ios":"levelo://app?vid=1c753feb-4e86-4a55-9be8-b3e86dc74e34"},"vehicle_type_id":"4","last_reported":1748002824,"current_range_meters":6000,"station_id":"ce4bhgp2rcd13ifvqfc0","pricing_plan_id":"cebpf4jnsgd1na2vs0mg"},{"bike_id":"ec580c89-b272-4ec2-b56b-415a5ef20e71","system_id":"levelo_inurba_marseille","lat":43.2587,"lon":5.39893,"is_reserved":false,"is_disabled":false,"rental_uris":{"android":"levelo://app?vid=ec580c89-b272-4ec2-b56b-415a5ef20e71","ios":"levelo://app?vid=ec580c89-b272-4ec2-b56b-415a5ef20e71"},"vehicle_type_id":"4","last_reported":1748002824,"current_range_meters":6000,"station_id":"ce4bhl92rcd13ifvqghg","pricing_plan_id":"cebpf4jnsgd1na2vs0mg"},{"bike_id":"e0685d5f-a05b-42e5-9d20-a836aa36f035","system_id":"levelo_inurba_marseille","lat":43.24183,"lon":5.39728,"is_reserved":false,"is_disabled":false,"rental_uris":{"android":"levelo://app?vid=e0685d5f-a05b-42e5-9d20-a836aa36f035","ios":"levelo://app?vid=e0685d5f-a05b-42e5-9d20-a836aa36f035"},"vehicle_type_id":"4","last_reported":1748002824,"current_range_meters":6000,"station_id":"ce4bhn12rcd13ifvqgpg","pricing_plan_id":"cebpf4jnsgd1na2vs0mg"},{"bike_id":"c4d209fd-d66d-4f3c-ab27-68dca52a3126","system_id":"levelo_inurba_marseille","lat":43.30599,"lon":5.37231,"is_reserved":false,"is_disabled":false,"rental_uris":{"android":"levelo://app?vid=c4d209fd-d66d-4f3c-ab27-68dca52a3126","ios":"levelo://app?vid=c4d209fd-d66d-4f3c-ab27-68dca52a3126"},"vehicle_type_id":"4","last_reported":1748002824,"current_range_meters":6400,"station_id":"ce4bgqh2rcd13ifvqc4g","pricing_plan_id":"cebpf4jnsgd1na2vs0mg"},{"bike_id":"3594b216-4129-442e-8b8d-ded471f2be3e","system_id":"levelo_inurba_marseille","lat":43.305367,"lon":5.365532,"is_reserved":false,"is_disabled":false,"rental_uris":{"android":"levelo://app?vid=3594b216-4129-442e-8b8d-ded471f2be3e","ios":"levelo://app?vid=3594b216-4129-442e-8b8d-ded471f2be3e"},"vehicle_type_id":"4","last_reported":1748002824,"current_range_meters":6400,"station_id":"ce4bgs12rcd13ifvqcag","pricing_plan_id":"cebpf4jnsgd1na2vs0mg"},{"bike_id":"710b305d-b6d7-48b0-9ff0-dcc8564da1b8","system_id":"levelo_inurba_marseille","lat":43.30288,"lon":5.3772,"is_reserved":false,"is_disabled":false,"rental_uris":{"android":"levelo://app?vid=710b305d-b6d7-48b0-9ff0-dcc8564da1b8","ios":"levelo://app?vid=710b305d-b6d7-48b0-9ff0-dcc8564da1b8"},"vehicle_type_id":"4","last_reported":1748002824,"current_range_meters":6400,"station_id":"ce4bguh2rcd13ifvqcj0","pricing_plan_id":"cebpf4jnsgd1na2vs0mg"},{"bike_id":"4c98b109-01f3-4666-9fc6-24782a48fe17","system_id":"levelo_inurba_marseille","lat":43.28104,"lon":5.37856,"is_reserved":false,"is_disabled":false,"rental_uris":{"android":"levelo://app?vid=4c98b109-01f3-4666-9fc6-24782a48fe17","ios":"levelo://app?vid=4c98b109-01f3-4666-9fc6-24782a48fe17"},"vehicle_type_id":"4","last_reported":1748002824,"current_range_meters":6400,"station_id":"ce4bha12rcd13ifvqee0","pricing_plan_id":"cebpf4jnsgd1na2vs0mg"},{"bike_id":"26ef9420-8379-4c95-8714-267a13f6ac7d","system_id":"levelo_inurba_marseille","lat":43.28449,"lon":5.39208,"is_reserved":false,"is_disabled":false,"rental_uris":{"android":"levelo://app?vid=26ef9420-8379-4c95-8714-267a13f6ac7d","ios":"levelo://app?vid=26ef9420-8379-4c95-8714-267a13f6ac7d"},"vehicle_type_id":"4","last_reported":1748002824,"current_range_meters":6400,"station_id":"ce4bhoh2rcd13ifvqh5g","pricing_plan_id":"cebpf4jnsgd1na2vs0mg"},{"bike_id":"6a85369f-636f-4448-91f6-e3994a0fb52b","system_id":"levelo_inurba_marseille","lat":43.27757,"lon":5.38697,"is_reserved":false,"is_disabled":false,"rental_uris":{"android":"levelo://app?vid=6a85369f-636f-4448-91f6-e3994a0fb52b","ios":"levelo://app?vid=6a85369f-636f-4448-91f6-e3994a0fb52b"},"vehicle_type_id":"4","last_reported":1748002824,"current_range_meters":6800,"station_id":"","pricing_plan_id":"cebpf4jnsgd1na2vs0mg"},{"bike_id":"27653dcd-dec9-4f13-b172-8968c20c1725","system_id":"levelo_inurba_marseille","lat":43.238531,"lon":5.430919,"is_reserved":false,"is_disabled":false,"rental_uris":{"android":"levelo://app?vid=27653dcd-dec9-4f13-b172-8968c20c1725","ios":"levelo://app?vid=27653dcd-dec9-4f13-b172-8968c20c1725"},"vehicle_type_id":"4","last_reported":1748002824,"current_range_meters":6800,"station_id":"","pricing_plan_id":"cebpf4jnsgd1na2vs0mg"},{"bike_id":"296d37ac-b00f-4b30-8441-82be77258be9","system_id":"levelo_inurba_marseille","lat":43.30796,"lon":5.38163,"is_reserved":false,"is_disabled":false,"rental_uris":{"android":"levelo://app?vid=296d37ac-b00f-4b30-8441-82be77258be9","ios":"levelo://app?vid=296d37ac-b00f-4b30-8441-82be77258be9"},"vehicle_type_id":"4","last_reported":1748002824,"current_range_meters":6800,"station_id":"ce4bgt12rcd13ifvqce0","pricing_plan_id":"cebpf4jnsgd1na2vs0mg"},{"bike_id":"e2d52b3d-beb0-4223-9194-743c0b13a66a","system_id":"levelo_inurba_marseille","lat":43.26204,"lon":5.37929,"is_reserved":false,"is_disabled":false,"rental_uris":{"android":"levelo://app?vid=e2d52b3d-beb0-4223-9194-743c0b13a66a","ios":"levelo://app?vid=e2d52b3d-beb0-4223-9194-743c0b13a66a"},"vehicle_type_id":"4","last_reported":1748002824,"current_range_meters":6800,"station_id":"ce4bhjp2rcd13ifvqg90","pricing_plan_id":"cebpf4jnsgd1na2vs0mg"},{"bike_id":"a0277577-82e6-4ffc-8381-a07476b7924e","system_id":"levelo_inurba_marseille","lat":43.25114,"lon":5.40319,"is_reserved":false,"is_disabled":false,"rental_uris":{"android":"levelo://app?vid=a0277577-82e6-4ffc-8381-a07476b7924e","ios":"levelo://app?vid=a0277577-82e6-4ffc-8381-a07476b7924e"},"vehicle_type_id":"4","last_reported":1748002824,"current_range_meters":6800,"station_id":"ce4bhlh2rcd13ifvqgig","pricing_plan_id":"cebpf4jnsgd1na2vs0mg"},{"bike_id":"9b40caf6-2e32-440b-8645-98bf8c4de126","system_id":"levelo_inurba_marseille","lat":43.30963,"lon":5.38403,"is_reserved":false,"is_disabled":false,"rental_uris":{"android":"levelo://app?vid=9b40caf6-2e32-440b-8645-98bf8c4de126","ios":"levelo://app?vid=9b40caf6-2e32-440b-8645-98bf8c4de126"},"vehicle_type_id":"4","last_reported":1748002824,"current_range_meters":7200,"station_id":"","pricing_plan_id":"cebpf4jnsgd1na2vs0mg"},{"bike_id":"31110881-d64f-45f8-9810-bbf84a002836","system_id":"levelo_inurba_marseille","lat":43.28332,"lon":5.46115,"is_reserved":false,"is_disabled":false,"rental_uris":{"android":"levelo://app?vid=31110881-d64f-45f8-9810-bbf84a002836","ios":"levelo://app?vid=31110881-d64f-45f8-9810-bbf84a002836"},"vehicle_type_id":"4","last_reported":1748002824,"current_range_meters":7200,"station_id":"","pricing_plan_id":"cebpf4jnsgd1na2vs0mg"},{"bike_id":"4b043e01-a5de-42bf-a94a-514363515081","system_id":"levelo_inurba_marseille","lat":43.25126,"lon":5.40332,"is_reserved":false,"is_disabled":false,"rental_uris":{"android":"levelo://app?vid=4b043e01-a5de-42bf-a94a-514363515081","ios":"levelo://app?vid=4b043e01-a5de-42bf-a94a-514363515081"},"vehicle_type_id":"4","last_reported":1748002824,"current_range_meters":7200,"station_id":"","pricing_plan_id":"cebpf4jnsgd1na2vs0mg"},{"bike_id":"20d4c44a-7e96-49e4-a342-98942effd3ae","system_id":"levelo_inurba_marseille","lat":43.309588,"lon":5.390414,"is_reserved":false,"is_disabled":false,"rental_uris":{"android":"levelo://app?vid=20d4c44a-7e96-49e4-a342-98942effd3ae","ios":"levelo://app?vid=20d4c44a-7e96-49e4-a342-98942effd3ae"},"vehicle_type_id":"4","last_reported":1748002824,"current_range_meters":7200,"station_id":"ce4bgup2rcd13ifvqco0","pricing_plan_id":"cebpf4jnsgd1na2vs0mg"},{"bike_id":"dba3f7dc-3377-47af-9eb6-270a6b2a79b6","system_id":"levelo_inurba_marseille","lat":43.289409,"lon":5.36633,"is_reserved":false,"is_disabled":false,"rental_uris":{"android":"levelo://app?vid=dba3f7dc-3377-47af-9eb6-270a6b2a79b6","ios":"levelo://app?vid=dba3f7dc-3377-47af-9eb6-270a6b2a79b6"},"vehicle_type_id":"4","last_reported":1748002824,"current_range_meters":7200,"station_id":"ce4bhap2rcd13ifvqek0","pricing_plan_id":"cebpf4jnsgd1na2vs0mg"},{"bike_id":"b5b1911a-c0b0-49a5-8206-6c5076d1fd9d","system_id":"levelo_inurba_marseille","lat":43.29231,"lon":5.36069,"is_reserved":false,"is_disabled":false,"rental_uris":{"android":"levelo://app?vid=b5b1911a-c0b0-49a5-8206-6c5076d1fd9d","ios":"levelo://app?vid=b5b1911a-c0b0-49a5-8206-6c5076d1fd9d"},"vehicle_type_id":"4","last_reported":1748002824,"current_range_meters":7200,"station_id":"ce4bhbh2rcd13ifvqeqg","pricing_plan_id":"cebpf4jnsgd1na2vs0mg"},{"bike_id":"618eec77-65e4-40d7-a092-4fa228c255df","system_id":"levelo_inurba_marseille","lat":43.24667,"lon":5.38164,"is_reserved":false,"is_disabled":false,"rental_uris":{"android":"levelo://app?vid=618eec77-65e4-40d7-a092-4fa228c255df","ios":"levelo://app?vid=618eec77-65e4-40d7-a092-4fa228c255df"},"vehicle_type_id":"4","last_reported":1748002824,"current_range_meters":7200,"station_id":"ce4bhih2rcd13ifvqfr0","pricing_plan_id":"cebpf4jnsgd1na2vs0mg"},{"bike_id":"895fec85-4848-4820-b938-243da6ee2367","system_id":"levelo_inurba_marseille","lat":43.304598,"lon":5.379112,"is_reserved":false,"is_disabled":false,"rental_uris":{"android":"levelo://app?vid=895fec85-4848-4820-b938-243da6ee2367","ios":"levelo://app?vid=895fec85-4848-4820-b938-243da6ee2367"},"vehicle_type_id":"4","last_reported":1748002824,"current_range_meters":7200,"station_id":"ce4bhs12rcd13ifvqhvg","pricing_plan_id":"cebpf4jnsgd1na2vs0mg"},{"bike_id":"0cd6fdc7-5169-4fd1-b2be-08457c013d14","system_id":"levelo_inurba_marseille","lat":43.23204,"lon":5.3555,"is_reserved":false,"is_disabled":false,"rental_uris":{"android":"levelo://app?vid=0cd6fdc7-5169-4fd1-b2be-08457c013d14","ios":"levelo://app?vid=0cd6fdc7-5169-4fd1-b2be-08457c013d14"},"vehicle_type_id":"4","last_reported":1748002824,"current_range_meters":7200,"station_id":"ce4bhu92rcd13ifvqi70","pricing_plan_id":"cebpf4jnsgd1na2vs0mg"},{"bike_id":"950cad50-4e47-43b4-ba8e-d97ac6386634","system_id":"levelo_inurba_marseille","lat":43.25563,"lon":5.38251,"is_reserved":false,"is_disabled":false,"rental_uris":{"android":"levelo://app?vid=950cad50-4e47-43b4-ba8e-d97ac6386634","ios":"levelo://app?vid=950cad50-4e47-43b4-ba8e-d97ac6386634"},"vehicle_type_id":"4","last_reported":1748002824,"current_range_meters":8000,"station_id":"","pricing_plan_id":"cebpf4jnsgd1na2vs0mg"},{"bike_id":"2e66edfa-1b0f-4baa-a406-d32c21b17ffe","system_id":"levelo_inurba_marseille","lat":43.2972,"lon":5.36613,"is_reserved":false,"is_disabled":false,"rental_uris":{"android":"levelo://app?vid=2e66edfa-1b0f-4baa-a406-d32c21b17ffe","ios":"levelo://app?vid=2e66edfa-1b0f-4baa-a406-d32c21b17ffe"},"vehicle_type_id":"4","last_reported":1748002824,"current_range_meters":8000,"station_id":"ce4bgn12rcd13ifvqbt0","pricing_plan_id":"cebpf4jnsgd1na2vs0mg"},{"bike_id":"61c2931e-605b-4f3b-a971-628a61c203cf","system_id":"levelo_inurba_marseille","lat":43.30547,"lon":5.36544,"is_reserved":false,"is_disabled":false,"rental_uris":{"android":"levelo://app?vid=61c2931e-605b-4f3b-a971-628a61c203cf","ios":"levelo://app?vid=61c2931e-605b-4f3b-a971-628a61c203cf"},"vehicle_type_id":"4","last_reported":1748002824,"current_range_meters":8000,"station_id":"ce4bgs12rcd13ifvqcag","pricing_plan_id":"cebpf4jnsgd1na2vs0mg"},{"bike_id":"7dfdfdc8-9c79-46b6-9a4b-924773b53f29","system_id":"levelo_inurba_marseille","lat":43.26855,"lon":5.39141,"is_reserved":false,"is_disabled":false,"rental_uris":{"android":"levelo://app?vid=7dfdfdc8-9c79-46b6-9a4b-924773b53f29","ios":"levelo://app?vid=7dfdfdc8-9c79-46b6-9a4b-924773b53f29"},"vehicle_type_id":"4","last_reported":1748002824,"current_range_meters":8400,"station_id":"","pricing_plan_id":"cebpf4jnsgd1na2vs0mg"},{"bike_id":"e30156b9-fad2-4f45-92da-ea2e538201bd","system_id":"levelo_inurba_marseille","lat":43.30546,"lon":5.36536,"is_reserved":false,"is_disabled":false,"rental_uris":{"android":"levelo://app?vid=e30156b9-fad2-4f45-92da-ea2e538201bd","ios":"levelo://app?vid=e30156b9-fad2-4f45-92da-ea2e538201bd"},"vehicle_type_id":"4","last_reported":1748002824,"current_range_meters":8400,"station_id":"ce4bgs12rcd13ifvqcag","pricing_plan_id":"cebpf4jnsgd1na2vs0mg"},{"bike_id":"ac9105e2-1a16-4a06-ab4b-f780e6c00921","system_id":"levelo_inurba_marseille","lat":43.30139,"lon":5.37423,"is_reserved":false,"is_disabled":false,"rental_uris":{"android":"levelo://app?vid=ac9105e2-1a16-4a06-ab4b-f780e6c00921","ios":"levelo://app?vid=ac9105e2-1a16-4a06-ab4b-f780e6c00921"},"vehicle_type_id":"4","last_reported":1748002824,"current_range_meters":8400,"station_id":"ce4bgs92rcd13ifvqcc0","pricing_plan_id":"cebpf4jnsgd1na2vs0mg"},{"bike_id":"84b0c1b2-7b2b-4441-a696-48a7880798c1","system_id":"levelo_inurba_marseille","lat":43.29008,"lon":5.35602,"is_reserved":false,"is_disabled":false,"rental_uris":{"android":"levelo://app?vid=84b0c1b2-7b2b-4441-a696-48a7880798c1","ios":"levelo://app?vid=84b0c1b2-7b2b-4441-a696-48a7880798c1"},"vehicle_type_id":"4","last_reported":1748002824,"current_range_meters":8400,"station_id":"ce4bhb92rcd13ifvqen0","pricing_plan_id":"cebpf4jnsgd1na2vs0mg"},{"bike_id":"0fc4633e-f15e-4695-8f14-d5de636fa4b7","system_id":"levelo_inurba_marseille","lat":43.26064,"lon":5.39399,"is_reserved":false,"is_disabled":false,"rental_uris":{"android":"levelo://app?vid=0fc4633e-f15e-4695-8f14-d5de636fa4b7","ios":"levelo://app?vid=0fc4633e-f15e-4695-8f14-d5de636fa4b7"},"vehicle_type_id":"4","last_reported":1748002824,"current_range_meters":8400,"station_id":"ce4bhh92rcd13ifvqfj0","pricing_plan_id":"cebpf4jnsgd1na2vs0mg"},{"bike_id":"5cbdcc73-0083-4d49-a685-a8fcffc67b4a","system_id":"levelo_inurba_marseille","lat":43.269317,"lon":5.38914,"is_reserved":false,"is_disabled":false,"rental_uris":{"android":"levelo://app?vid=5cbdcc73-0083-4d49-a685-a8fcffc67b4a","ios":"levelo://app?vid=5cbdcc73-0083-4d49-a685-a8fcffc67b4a"},"vehicle_type_id":"4","last_reported":1748002824,"current_range_meters":8400,"station_id":"ce4bhhh2rcd13ifvqfl0","pricing_plan_id":"cebpf4jnsgd1na2vs0mg"},{"bike_id":"e4562ad1-0a39-4300-91ec-1f0dc2c1ff97","system_id":"levelo_inurba_marseille","lat":43.32481,"lon":5.36575,"is_reserved":false,"is_disabled":false,"rental_uris":{"android":"levelo://app?vid=e4562ad1-0a39-4300-91ec-1f0dc2c1ff97","ios":"levelo://app?vid=e4562ad1-0a39-4300-91ec-1f0dc2c1ff97"},"vehicle_type_id":"4","last_reported":1748002824,"current_range_meters":8400,"station_id":"ce4bhs12rcd13ifvqhvg","pricing_plan_id":"cebpf4jnsgd1na2vs0mg"},{"bike_id":"ace84041-7218-4dea-a316-9a86032e8995","system_id":"levelo_inurba_marseille","lat":43.21768,"lon":5.34608,"is_reserved":false,"is_disabled":false,"rental_uris":{"android":"levelo://app?vid=ace84041-7218-4dea-a316-9a86032e8995","ios":"levelo://app?vid=ace84041-7218-4dea-a316-9a86032e8995"},"vehicle_type_id":"4","last_reported":1748002824,"current_range_meters":8400,"station_id":"st_cvj6r9ubvosntc0bgbag","pricing_plan_id":"cebpf4jnsgd1na2vs0mg"},{"bike_id":"e8c9c08f-e38f-48c2-9e9b-2383dddb8e6c","system_id":"levelo_inurba_marseille","lat":43.291261,"lon":5.382963,"is_reserved":false,"is_disabled":false,"rental_uris":{"android":"levelo://app?vid=e8c9c08f-e38f-48c2-9e9b-2383dddb8e6c","ios":"levelo://app?vid=e8c9c08f-e38f-48c2-9e9b-2383dddb8e6c"},"vehicle_type_id":"4","last_reported":1748002824,"current_range_meters":8800,"station_id":"","pricing_plan_id":"cebpf4jnsgd1na2vs0mg"},{"bike_id":"c9446bf7-fe27-42cd-aeba-4cc38e620388","system_id":"levelo_inurba_marseille","lat":43.30543,"lon":5.36528,"is_reserved":false,"is_disabled":false,"rental_uris":{"android":"levelo://app?vid=c9446bf7-fe27-42cd-aeba-4cc38e620388","ios":"levelo://app?vid=c9446bf7-fe27-42cd-aeba-4cc38e620388"},"vehicle_type_id":"4","last_reported":1748002824,"current_range_meters":8800,"station_id":"ce4bgs12rcd13ifvqcag","pricing_plan_id":"cebpf4jnsgd1na2vs0mg"},{"bike_id":"65df43cc-2456-45e1-aa24-ceaa4150bcbe","system_id":"levelo_inurba_marseille","lat":43.2655,"lon":5.37293,"is_reserved":false,"is_disabled":false,"rental_uris":{"android":"levelo://app?vid=65df43cc-2456-45e1-aa24-ceaa4150bcbe","ios":"levelo://app?vid=65df43cc-2456-45e1-aa24-ceaa4150bcbe"},"vehicle_type_id":"4","last_reported":1748002824,"current_range_meters":8800,"station_id":"ce4bhg12rcd13ifvqf70","pricing_plan_id":"cebpf4jnsgd1na2vs0mg"},{"bike_id":"c2ea5a9c-8fd7-40ac-8515-427466010d70","system_id":"levelo_inurba_marseille","lat":43.32121,"lon":5.368,"is_reserved":false,"is_disabled":false,"rental_uris":{"android":"levelo://app?vid=c2ea5a9c-8fd7-40ac-8515-427466010d70","ios":"levelo://app?vid=c2ea5a9c-8fd7-40ac-8515-427466010d70"},"vehicle_type_id":"4","last_reported":1748002824,"current_range_meters":8800,"station_id":"ce4bhrh2rcd13ifvqhug","pricing_plan_id":"cebpf4jnsgd1na2vs0mg"},{"bike_id":"14feda73-7baf-4b64-8ae9-79f4fe7d4a5f","system_id":"levelo_inurba_marseille","lat":43.323724,"lon":5.367613,"is_reserved":false,"is_disabled":false,"rental_uris":{"android":"levelo://app?vid=14feda73-7baf-4b64-8ae9-79f4fe7d4a5f","ios":"levelo://app?vid=14feda73-7baf-4b64-8ae9-79f4fe7d4a5f"},"vehicle_type_id":"4","last_reported":1748002824,"current_range_meters":8800,"station_id":"ce4bhsh2rcd13ifvqi2g","pricing_plan_id":"cebpf4jnsgd1na2vs0mg"},{"bike_id":"929f7e3f-cd29-44ac-b5c1-d0bc4c3f64b1","system_id":"levelo_inurba_marseille","lat":43.2827,"lon":5.35066,"is_reserved":false,"is_disabled":false,"rental_uris":{"android":"levelo://app?vid=929f7e3f-cd29-44ac-b5c1-d0bc4c3f64b1","ios":"levelo://app?vid=929f7e3f-cd29-44ac-b5c1-d0bc4c3f64b1"},"vehicle_type_id":"4","last_reported":1748002824,"current_range_meters":9200,"station_id":"","pricing_plan_id":"cebpf4jnsgd1na2vs0mg"},{"bike_id":"a3896e9a-b111-4a5e-9fba-9fce87836ccc","system_id":"levelo_inurba_marseille","lat":43.255816,"lon":5.382242,"is_reserved":false,"is_disabled":false,"rental_uris":{"android":"levelo://app?vid=a3896e9a-b111-4a5e-9fba-9fce87836ccc","ios":"levelo://app?vid=a3896e9a-b111-4a5e-9fba-9fce87836ccc"},"vehicle_type_id":"4","last_reported":1748002824,"current_range_meters":9200,"station_id":"ce4bhih2rcd13ifvqfs0","pricing_plan_id":"cebpf4jnsgd1na2vs0mg"},{"bike_id":"7af2b7ce-53d7-4802-a638-f6aa5b46619f","system_id":"levelo_inurba_marseille","lat":43.296051,"lon":5.380997,"is_reserved":false,"is_disabled":false,"rental_uris":{"android":"levelo://app?vid=7af2b7ce-53d7-4802-a638-f6aa5b46619f","ios":"levelo://app?vid=7af2b7ce-53d7-4802-a638-f6aa5b46619f"},"vehicle_type_id":"4","last_reported":1748002824,"current_range_meters":9600,"station_id":"ce4bgl12rcd13ifvqbo0","pricing_plan_id":"cebpf4jnsgd1na2vs0mg"},{"bike_id":"d180243d-780f-41a8-8bc6-0e09bfc43b36","system_id":"levelo_inurba_marseille","lat":43.30887,"lon":5.39659,"is_reserved":false,"is_disabled":false,"rental_uris":{"android":"levelo://app?vid=d180243d-780f-41a8-8bc6-0e09bfc43b36","ios":"levelo://app?vid=d180243d-780f-41a8-8bc6-0e09bfc43b36"},"vehicle_type_id":"4","last_reported":1748002824,"current_range_meters":9600,"station_id":"ce4bh012rcd13ifvqcv0","pricing_plan_id":"cebpf4jnsgd1na2vs0mg"},{"bike_id":"18ca849a-bab9-472d-80e2-f3856fcd9684","system_id":"levelo_inurba_marseille","lat":43.2396,"lon":5.36639,"is_reserved":false,"is_disabled":false,"rental_uris":{"android":"levelo://app?vid=18ca849a-bab9-472d-80e2-f3856fcd9684","ios":"levelo://app?vid=18ca849a-bab9-472d-80e2-f3856fcd9684"},"vehicle_type_id":"4","last_reported":1748002824,"current_range_meters":9600,"station_id":"ce4bhi12rcd13ifvqfp0","pricing_plan_id":"cebpf4jnsgd1na2vs0mg"},{"bike_id":"2ba7c0aa-6117-45a9-9611-8a4404c60bcd","system_id":"levelo_inurba_marseille","lat":43.2586,"lon":5.399,"is_reserved":false,"is_disabled":false,"rental_uris":{"android":"levelo://app?vid=2ba7c0aa-6117-45a9-9611-8a4404c60bcd","ios":"levelo://app?vid=2ba7c0aa-6117-45a9-9611-8a4404c60bcd"},"vehicle_type_id":"4","last_reported":1748002824,"current_range_meters":9600,"station_id":"ce4bhl92rcd13ifvqghg","pricing_plan_id":"cebpf4jnsgd1na2vs0mg"},{"bike_id":"2d5f7454-a4a6-4e8b-9495-8d6b94c61ba5","system_id":"levelo_inurba_marseille","lat":43.22927,"lon":5.35376,"is_reserved":false,"is_disabled":false,"rental_uris":{"android":"levelo://app?vid=2d5f7454-a4a6-4e8b-9495-8d6b94c61ba5","ios":"levelo://app?vid=2d5f7454-a4a6-4e8b-9495-8d6b94c61ba5"},"vehicle_type_id":"4","last_reported":1748002824,"current_range_meters":9600,"station_id":"cpo3532slgdg3j2ikp40","pricing_plan_id":"cebpf4jnsgd1na2vs0mg"},{"bike_id":"a477f0b3-9fde-482f-802d-ef88faa9ecaa","system_id":"levelo_inurba_marseille","lat":43.260659,"lon":5.394027,"is_reserved":false,"is_disabled":false,"rental_uris":{"android":"levelo://app?vid=a477f0b3-9fde-482f-802d-ef88faa9ecaa","ios":"levelo://app?vid=a477f0b3-9fde-482f-802d-ef88faa9ecaa"},"vehicle_type_id":"4","last_reported":1748002824,"current_range_meters":10000,"station_id":"","pricing_plan_id":"cebpf4jnsgd1na2vs0mg"},{"bike_id":"b5af5f86-f6ab-4a3a-a5fa-efb0141ee615","system_id":"levelo_inurba_marseille","lat":43.292753,"lon":5.376088,"is_reserved":false,"is_disabled":false,"rental_uris":{"android":"levelo://app?vid=b5af5f86-f6ab-4a3a-a5fa-efb0141ee615","ios":"levelo://app?vid=b5af5f86-f6ab-4a3a-a5fa-efb0141ee615"},"vehicle_type_id":"4","last_reported":1748002824,"current_range_meters":10000,"station_id":"ce4bgi12rcd13ifvqb80","pricing_plan_id":"cebpf4jnsgd1na2vs0mg"},{"bike_id":"96f41721-3863-430e-9fa4-b2cfe983e031","system_id":"levelo_inurba_marseille","lat":43.2926,"lon":5.37616,"is_reserved":false,"is_disabled":false,"rental_uris":{"android":"levelo://app?vid=96f41721-3863-430e-9fa4-b2cfe983e031","ios":"levelo://app?vid=96f41721-3863-430e-9fa4-b2cfe983e031"},"vehicle_type_id":"4","last_reported":1748002824,"current_range_meters":10000,"station_id":"ce4bgi12rcd13ifvqb80","pricing_plan_id":"cebpf4jnsgd1na2vs0mg"},{"bike_id":"2ccfd063-2e8b-4c4e-b1b6-ecb2b7f71cdc","system_id":"levelo_inurba_marseille","lat":43.28463,"lon":5.35878,"is_reserved":false,"is_disabled":false,"rental_uris":{"android":"levelo://app?vid=2ccfd063-2e8b-4c4e-b1b6-ecb2b7f71cdc","ios":"levelo://app?vid=2ccfd063-2e8b-4c4e-b1b6-ecb2b7f71cdc"},"vehicle_type_id":"4","last_reported":1748002824,"current_range_meters":10000,"station_id":"ce4bhah2rcd13ifvqei0","pricing_plan_id":"cebpf4jnsgd1na2vs0mg"},{"bike_id":"e3e19b90-9823-4b53-b8a7-4c599b3176c2","system_id":"levelo_inurba_marseille","lat":43.25101,"lon":5.40336,"is_reserved":false,"is_disabled":false,"rental_uris":{"android":"levelo://app?vid=e3e19b90-9823-4b53-b8a7-4c599b3176c2","ios":"levelo://app?vid=e3e19b90-9823-4b53-b8a7-4c599b3176c2"},"vehicle_type_id":"4","last_reported":1748002824,"current_range_meters":10000,"station_id":"ce4bhlh2rcd13ifvqgig","pricing_plan_id":"cebpf4jnsgd1na2vs0mg"},{"bike_id":"6e0ef299-0936-4911-b177-862cab14ae70","system_id":"levelo_inurba_marseille","lat":43.23163,"lon":5.43718,"is_reserved":false,"is_disabled":false,"rental_uris":{"android":"levelo://app?vid=6e0ef299-0936-4911-b177-862cab14ae70","ios":"levelo://app?vid=6e0ef299-0936-4911-b177-862cab14ae70"},"vehicle_type_id":"4","last_reported":1748002824,"current_range_meters":10000,"station_id":"ce4bhmp2rcd13ifvqgog","pricing_plan_id":"cebpf4jnsgd1na2vs0mg"},{"bike_id":"f752cbda-e0c3-41c3-83cb-29eaf6ccd7a5","system_id":"levelo_inurba_marseille","lat":43.21765,"lon":5.34593,"is_reserved":false,"is_disabled":false,"rental_uris":{"android":"levelo://app?vid=f752cbda-e0c3-41c3-83cb-29eaf6ccd7a5","ios":"levelo://app?vid=f752cbda-e0c3-41c3-83cb-29eaf6ccd7a5"},"vehicle_type_id":"4","last_reported":1748002824,"current_range_meters":10000,"station_id":"st_cvj6r9ubvosntc0bgbag","pricing_plan_id":"cebpf4jnsgd1na2vs0mg"},{"bike_id":"0407fd9b-323a-4fa6-a94a-c5cfe449e37f","system_id":"levelo_inurba_marseille","lat":43.30143,"lon":5.37414,"is_reserved":false,"is_disabled":false,"rental_uris":{"android":"levelo://app?vid=0407fd9b-323a-4fa6-a94a-c5cfe449e37f","ios":"levelo://app?vid=0407fd9b-323a-4fa6-a94a-c5cfe449e37f"},"vehicle_type_id":"4","last_reported":1748002824,"current_range_meters":10800,"station_id":"ce4bgs92rcd13ifvqcc0","pricing_plan_id":"cebpf4jnsgd1na2vs0mg"},{"bike_id":"286e2df0-1fea-4ddb-ae64-8aa2ec963934","system_id":"levelo_inurba_marseille","lat":43.30951,"lon":5.3903,"is_reserved":false,"is_disabled":false,"rental_uris":{"android":"levelo://app?vid=286e2df0-1fea-4ddb-ae64-8aa2ec963934","ios":"levelo://app?vid=286e2df0-1fea-4ddb-ae64-8aa2ec963934"},"vehicle_type_id":"4","last_reported":1748002824,"current_range_meters":10800,"station_id":"ce4bgup2rcd13ifvqco0","pricing_plan_id":"cebpf4jnsgd1na2vs0mg"},{"bike_id":"f928e19d-b2d2-41f0-94bb-319c7402cdd9","system_id":"levelo_inurba_marseille","lat":43.26209,"lon":5.3744,"is_reserved":false,"is_disabled":false,"rental_uris":{"android":"levelo://app?vid=f928e19d-b2d2-41f0-94bb-319c7402cdd9","ios":"levelo://app?vid=f928e19d-b2d2-41f0-94bb-319c7402cdd9"},"vehicle_type_id":"4","last_reported":1748002824,"current_range_meters":10800,"station_id":"ce4bhgp2rcd13ifvqfc0","pricing_plan_id":"cebpf4jnsgd1na2vs0mg"},{"bike_id":"fbd2dd5d-16c2-4eaf-81aa-7daa025675b6","system_id":"levelo_inurba_marseille","lat":43.26788,"lon":5.39417,"is_reserved":false,"is_disabled":false,"rental_uris":{"android":"levelo://app?vid=fbd2dd5d-16c2-4eaf-81aa-7daa025675b6","ios":"levelo://app?vid=fbd2dd5d-16c2-4eaf-81aa-7daa025675b6"},"vehicle_type_id":"4","last_reported":1748002824,"current_range_meters":10800,"station_id":"ce4bhh12rcd13ifvqfg0","pricing_plan_id":"cebpf4jnsgd1na2vs0mg"},{"bike_id":"0306dfa0-d2d9-42b2-81a9-0f3e0a862254","system_id":"levelo_inurba_marseille","lat":43.23964,"lon":5.36619,"is_reserved":false,"is_disabled":false,"rental_uris":{"android":"levelo://app?vid=0306dfa0-d2d9-42b2-81a9-0f3e0a862254","ios":"levelo://app?vid=0306dfa0-d2d9-42b2-81a9-0f3e0a862254"},"vehicle_type_id":"4","last_reported":1748002824,"current_range_meters":10800,"station_id":"ce4bhi12rcd13ifvqfp0","pricing_plan_id":"cebpf4jnsgd1na2vs0mg"},{"bike_id":"1f8f2cf8-e258-4b66-9b66-66da44b9c55c","system_id":"levelo_inurba_marseille","lat":43.30989,"lon":5.40222,"is_reserved":false,"is_disabled":false,"rental_uris":{"android":"levelo://app?vid=1f8f2cf8-e258-4b66-9b66-66da44b9c55c","ios":"levelo://app?vid=1f8f2cf8-e258-4b66-9b66-66da44b9c55c"},"vehicle_type_id":"4","last_reported":1748002824,"current_range_meters":11600,"station_id":"","pricing_plan_id":"cebpf4jnsgd1na2vs0mg"},{"bike_id":"729e3669-824e-4f12-8f68-1f0db870e77b","system_id":"levelo_inurba_marseille","lat":43.29192,"lon":5.3931,"is_reserved":false,"is_disabled":false,"rental_uris":{"android":"levelo://app?vid=729e3669-824e-4f12-8f68-1f0db870e77b","ios":"levelo://app?vid=729e3669-824e-4f12-8f68-1f0db870e77b"},"vehicle_type_id":"4","last_reported":1748002824,"current_range_meters":11600,"station_id":"ce4bh192rcd13ifvqdd0","pricing_plan_id":"cebpf4jnsgd1na2vs0mg"},{"bike_id":"2ac260b7-3f95-46d6-80fc-8eedeafb926f","system_id":"levelo_inurba_marseille","lat":43.29085,"lon":5.38107,"is_reserved":false,"is_disabled":false,"rental_uris":{"android":"levelo://app?vid=2ac260b7-3f95-46d6-80fc-8eedeafb926f","ios":"levelo://app?vid=2ac260b7-3f95-46d6-80fc-8eedeafb926f"},"vehicle_type_id":"4","last_reported":1748002824,"current_range_meters":11600,"station_id":"ce4bh512rcd13ifvqe2g","pricing_plan_id":"cebpf4jnsgd1na2vs0mg"},{"bike_id":"23c0d60f-370c-4db9-8d10-63fb79b07f08","system_id":"levelo_inurba_marseille","lat":43.29055,"lon":5.35914,"is_reserved":false,"is_disabled":false,"rental_uris":{"android":"levelo://app?vid=23c0d60f-370c-4db9-8d10-63fb79b07f08","ios":"levelo://app?vid=23c0d60f-370c-4db9-8d10-63fb79b07f08"},"vehicle_type_id":"4","last_reported":1748002824,"current_range_meters":11600,"station_id":"ce4bha92rcd13ifvqeg0","pricing_plan_id":"cebpf4jnsgd1na2vs0mg"},{"bike_id":"4d61cad3-7d99-4969-99c2-f3d9b2d9a5c0","system_id":"levelo_inurba_marseille","lat":43.29048,"lon":5.3592,"is_reserved":false,"is_disabled":false,"rental_uris":{"android":"levelo://app?vid=4d61cad3-7d99-4969-99c2-f3d9b2d9a5c0","ios":"levelo://app?vid=4d61cad3-7d99-4969-99c2-f3d9b2d9a5c0"},"vehicle_type_id":"4","last_reported":1748002824,"current_range_meters":11600,"station_id":"ce4bha92rcd13ifvqeg0","pricing_plan_id":"cebpf4jnsgd1na2vs0mg"},{"bike_id":"7a174cf0-49bb-442b-9787-ed977ba34ca4","system_id":"levelo_inurba_marseille","lat":43.241665,"lon":5.397362,"is_reserved":false,"is_disabled":false,"rental_uris":{"android":"levelo://app?vid=7a174cf0-49bb-442b-9787-ed977ba34ca4","ios":"levelo://app?vid=7a174cf0-49bb-442b-9787-ed977ba34ca4"},"vehicle_type_id":"4","last_reported":1748002824,"current_range_meters":11600,"station_id":"ce4bhn12rcd13ifvqgpg","pricing_plan_id":"cebpf4jnsgd1na2vs0mg"},{"bike_id":"c21c8dea-1d80-4e8e-a94a-ef2e44ad2ab9","system_id":"levelo_inurba_marseille","lat":43.34144,"lon":5.40901,"is_reserved":false,"is_disabled":false,"rental_uris":{"android":"levelo://app?vid=c21c8dea-1d80-4e8e-a94a-ef2e44ad2ab9","ios":"levelo://app?vid=c21c8dea-1d80-4e8e-a94a-ef2e44ad2ab9"},"vehicle_type_id":"4","last_reported":1748002824,"current_range_meters":11600,"station_id":"ce4bhqh2rcd13ifvqhlg","pricing_plan_id":"cebpf4jnsgd1na2vs0mg"},{"bike_id":"6dde22b3-be2c-4353-838d-05c85608e4d3","system_id":"levelo_inurba_marseille","lat":43.323626,"lon":5.367543,"is_reserved":false,"is_disabled":false,"rental_uris":{"android":"levelo://app?vid=6dde22b3-be2c-4353-838d-05c85608e4d3","ios":"levelo://app?vid=6dde22b3-be2c-4353-838d-05c85608e4d3"},"vehicle_type_id":"4","last_reported":1748002824,"current_range_meters":11600,"station_id":"ce4bhsh2rcd13ifvqi2g","pricing_plan_id":"cebpf4jnsgd1na2vs0mg"},{"bike_id":"ca334ea8-c8d1-423f-ad5f-90c15f6b14fc","system_id":"levelo_inurba_marseille","lat":43.24172,"lon":5.36397,"is_reserved":false,"is_disabled":false,"rental_uris":{"android":"levelo://app?vid=ca334ea8-c8d1-423f-ad5f-90c15f6b14fc","ios":"levelo://app?vid=ca334ea8-c8d1-423f-ad5f-90c15f6b14fc"},"vehicle_type_id":"4","last_reported":1748002824,"current_range_meters":11600,"station_id":"cpo36qri1sfpv3e86is0","pricing_plan_id":"cebpf4jnsgd1na2vs0mg"},{"bike_id":"ca6e9c93-0d92-4299-a33a-b6224bc297cc","system_id":"levelo_inurba_marseille","lat":43.29538,"lon":5.36544,"is_reserved":false,"is_disabled":false,"rental_uris":{"android":"levelo://app?vid=ca6e9c93-0d92-4299-a33a-b6224bc297cc","ios":"levelo://app?vid=ca6e9c93-0d92-4299-a33a-b6224bc297cc"},"vehicle_type_id":"4","last_reported":1748002824,"current_range_meters":12000,"station_id":"","pricing_plan_id":"cebpf4jnsgd1na2vs0mg"},{"bike_id":"febd3845-ce06-4fa5-b257-0369c4ccdc89","system_id":"levelo_inurba_marseille","lat":43.255765,"lon":5.382336,"is_reserved":false,"is_disabled":false,"rental_uris":{"android":"levelo://app?vid=febd3845-ce06-4fa5-b257-0369c4ccdc89","ios":"levelo://app?vid=febd3845-ce06-4fa5-b257-0369c4ccdc89"},"vehicle_type_id":"4","last_reported":1748002824,"current_range_meters":12000,"station_id":"ce4bhih2rcd13ifvqfs0","pricing_plan_id":"cebpf4jnsgd1na2vs0mg"},{"bike_id":"1e164eaf-2ffb-4814-9442-b43f6b5c9f80","system_id":"levelo_inurba_marseille","lat":43.2417,"lon":5.36383,"is_reserved":false,"is_disabled":false,"rental_uris":{"android":"levelo://app?vid=1e164eaf-2ffb-4814-9442-b43f6b5c9f80","ios":"levelo://app?vid=1e164eaf-2ffb-4814-9442-b43f6b5c9f80"},"vehicle_type_id":"4","last_reported":1748002824,"current_range_meters":12000,"station_id":"cpo36qri1sfpv3e86is0","pricing_plan_id":"cebpf4jnsgd1na2vs0mg"},{"bike_id":"3386311c-b302-4c9c-84a5-af77c0875286","system_id":"levelo_inurba_marseille","lat":43.2827,"lon":5.35066,"is_reserved":false,"is_disabled":false,"rental_uris":{"android":"levelo://app?vid=3386311c-b302-4c9c-84a5-af77c0875286","ios":"levelo://app?vid=3386311c-b302-4c9c-84a5-af77c0875286"},"vehicle_type_id":"4","last_reported":1748002824,"current_range_meters":12400,"station_id":"","pricing_plan_id":"cebpf4jnsgd1na2vs0mg"},{"bike_id":"76b0c297-9fee-41ca-95f6-35567cb7f4d9","system_id":"levelo_inurba_marseille","lat":43.292665,"lon":5.37639,"is_reserved":false,"is_disabled":false,"rental_uris":{"android":"levelo://app?vid=76b0c297-9fee-41ca-95f6-35567cb7f4d9","ios":"levelo://app?vid=76b0c297-9fee-41ca-95f6-35567cb7f4d9"},"vehicle_type_id":"4","last_reported":1748002824,"current_range_meters":12400,"station_id":"","pricing_plan_id":"cebpf4jnsgd1na2vs0mg"},{"bike_id":"b28212ec-1ff1-4068-a231-59b2c0db819e","system_id":"levelo_inurba_marseille","lat":43.30886,"lon":5.39645,"is_reserved":false,"is_disabled":false,"rental_uris":{"android":"levelo://app?vid=b28212ec-1ff1-4068-a231-59b2c0db819e","ios":"levelo://app?vid=b28212ec-1ff1-4068-a231-59b2c0db819e"},"vehicle_type_id":"4","last_reported":1748002824,"current_range_meters":12400,"station_id":"ce4bh012rcd13ifvqcv0","pricing_plan_id":"cebpf4jnsgd1na2vs0mg"},{"bike_id":"a3fa7a8a-77a1-44d6-8bf6-2d5cf5e35845","system_id":"levelo_inurba_marseille","lat":43.292791,"lon":5.401647,"is_reserved":false,"is_disabled":false,"rental_uris":{"android":"levelo://app?vid=a3fa7a8a-77a1-44d6-8bf6-2d5cf5e35845","ios":"levelo://app?vid=a3fa7a8a-77a1-44d6-8bf6-2d5cf5e35845"},"vehicle_type_id":"4","last_reported":1748002824,"current_range_meters":12400,"station_id":"ce4bh0h2rcd13ifvqd60","pricing_plan_id":"cebpf4jnsgd1na2vs0mg"},{"bike_id":"2f991404-eb78-44f8-bb35-937fcf7057f4","system_id":"levelo_inurba_marseille","lat":43.30089,"lon":5.39083,"is_reserved":false,"is_disabled":false,"rental_uris":{"android":"levelo://app?vid=2f991404-eb78-44f8-bb35-937fcf7057f4","ios":"levelo://app?vid=2f991404-eb78-44f8-bb35-937fcf7057f4"},"vehicle_type_id":"4","last_reported":1748002824,"current_range_meters":12400,"station_id":"ce4bh192rcd13ifvqdb0","pricing_plan_id":"cebpf4jnsgd1na2vs0mg"},{"bike_id":"05a8b02e-c400-46bc-96d7-6b92ebddb1f1","system_id":"levelo_inurba_marseille","lat":43.28268,"lon":5.3507,"is_reserved":false,"is_disabled":false,"rental_uris":{"android":"levelo://app?vid=05a8b02e-c400-46bc-96d7-6b92ebddb1f1","ios":"levelo://app?vid=05a8b02e-c400-46bc-96d7-6b92ebddb1f1"},"vehicle_type_id":"4","last_reported":1748002824,"current_range_meters":12400,"station_id":"ce4bhbp2rcd13ifvqerg","pricing_plan_id":"cebpf4jnsgd1na2vs0mg"},{"bike_id":"57c66e07-57f9-4685-a4a5-2fd3146b28b9","system_id":"levelo_inurba_marseille","lat":43.25824,"lon":5.39434,"is_reserved":false,"is_disabled":false,"rental_uris":{"android":"levelo://app?vid=57c66e07-57f9-4685-a4a5-2fd3146b28b9","ios":"levelo://app?vid=57c66e07-57f9-4685-a4a5-2fd3146b28b9"},"vehicle_type_id":"4","last_reported":1748002824,"current_range_meters":12400,"station_id":"ce4bhip2rcd13ifvqft0","pricing_plan_id":"cebpf4jnsgd1na2vs0mg"},{"bike_id":"8f5ad702-5ff8-41ee-b034-3d5a2428c0c5","system_id":"levelo_inurba_marseille","lat":43.251135,"lon":5.403309,"is_reserved":false,"is_disabled":false,"rental_uris":{"android":"levelo://app?vid=8f5ad702-5ff8-41ee-b034-3d5a2428c0c5","ios":"levelo://app?vid=8f5ad702-5ff8-41ee-b034-3d5a2428c0c5"},"vehicle_type_id":"4","last_reported":1748002824,"current_range_meters":12400,"station_id":"ce4bhlh2rcd13ifvqgig","pricing_plan_id":"cebpf4jnsgd1na2vs0mg"},{"bike_id":"7efeaff6-1d82-4fca-9052-bf5ac5b2e8b5","system_id":"levelo_inurba_marseille","lat":43.27952,"lon":5.41031,"is_reserved":false,"is_disabled":false,"rental_uris":{"android":"levelo://app?vid=7efeaff6-1d82-4fca-9052-bf5ac5b2e8b5","ios":"levelo://app?vid=7efeaff6-1d82-4fca-9052-bf5ac5b2e8b5"},"vehicle_type_id":"4","last_reported":1748002824,"current_range_meters":12400,"station_id":"ce4bhnp2rcd13ifvqh0g","pricing_plan_id":"cebpf4jnsgd1na2vs0mg"},{"bike_id":"2eaf412e-25cb-4e16-b644-9f8fe6db09e7","system_id":"levelo_inurba_marseille","lat":43.31726,"lon":5.389863,"is_reserved":false,"is_disabled":false,"rental_uris":{"android":"levelo://app?vid=2eaf412e-25cb-4e16-b644-9f8fe6db09e7","ios":"levelo://app?vid=2eaf412e-25cb-4e16-b644-9f8fe6db09e7"},"vehicle_type_id":"4","last_reported":1748002824,"current_range_meters":12400,"station_id":"ce4bhqp2rcd13ifvqhng","pricing_plan_id":"cebpf4jnsgd1na2vs0mg"},{"bike_id":"bc4da63c-27a5-4b82-a540-bf2dba2cc343","system_id":"levelo_inurba_marseille","lat":43.337256,"lon":5.39191,"is_reserved":false,"is_disabled":false,"rental_uris":{"android":"levelo://app?vid=bc4da63c-27a5-4b82-a540-bf2dba2cc343","ios":"levelo://app?vid=bc4da63c-27a5-4b82-a540-bf2dba2cc343"},"vehicle_type_id":"4","last_reported":1748002824,"current_range_meters":12400,"station_id":"ce4bhr92rcd13ifvqhsg","pricing_plan_id":"cebpf4jnsgd1na2vs0mg"},{"bike_id":"2ea50577-1176-467c-8d1f-ce07d6571fb8","system_id":"levelo_inurba_marseille","lat":43.23194,"lon":5.35554,"is_reserved":false,"is_disabled":false,"rental_uris":{"android":"levelo://app?vid=2ea50577-1176-467c-8d1f-ce07d6571fb8","ios":"levelo://app?vid=2ea50577-1176-467c-8d1f-ce07d6571fb8"},"vehicle_type_id":"4","last_reported":1748002824,"current_range_meters":12400,"station_id":"ce4bhu92rcd13ifvqi70","pricing_plan_id":"cebpf4jnsgd1na2vs0mg"},{"bike_id":"d690583e-d36d-4e8c-bbc0-c9b39d2c295d","system_id":"levelo_inurba_marseille","lat":43.29716,"lon":5.3769,"is_reserved":false,"is_disabled":false,"rental_uris":{"android":"levelo://app?vid=d690583e-d36d-4e8c-bbc0-c9b39d2c295d","ios":"levelo://app?vid=d690583e-d36d-4e8c-bbc0-c9b39d2c295d"},"vehicle_type_id":"4","last_reported":1748002824,"current_range_meters":12800,"station_id":"ce4bgkh2rcd13ifvqbl0","pricing_plan_id":"cebpf4jnsgd1na2vs0mg"},{"bike_id":"a8bbb5fe-196d-4bac-876b-6a514bfc9491","system_id":"levelo_inurba_marseille","lat":43.30597,"lon":5.39351,"is_reserved":false,"is_disabled":false,"rental_uris":{"android":"levelo://app?vid=a8bbb5fe-196d-4bac-876b-6a514bfc9491","ios":"levelo://app?vid=a8bbb5fe-196d-4bac-876b-6a514bfc9491"},"vehicle_type_id":"4","last_reported":1748002824,"current_range_meters":12800,"station_id":"ce4bh0p2rcd13ifvqd80","pricing_plan_id":"cebpf4jnsgd1na2vs0mg"},{"bike_id":"7f1b9800-98c1-493a-ae75-d0637a4297ee","system_id":"levelo_inurba_marseille","lat":43.29184,"lon":5.37145,"is_reserved":false,"is_disabled":false,"rental_uris":{"android":"levelo://app?vid=7f1b9800-98c1-493a-ae75-d0637a4297ee","ios":"levelo://app?vid=7f1b9800-98c1-493a-ae75-d0637a4297ee"},"vehicle_type_id":"4","last_reported":1748002824,"current_range_meters":12800,"station_id":"ce4bha92rcd13ifvqeh0","pricing_plan_id":"cebpf4jnsgd1na2vs0mg"},{"bike_id":"868cbb19-a526-4d52-82d0-ae920123d8a9","system_id":"levelo_inurba_marseille","lat":43.28417,"lon":5.34984,"is_reserved":false,"is_disabled":false,"rental_uris":{"android":"levelo://app?vid=868cbb19-a526-4d52-82d0-ae920123d8a9","ios":"levelo://app?vid=868cbb19-a526-4d52-82d0-ae920123d8a9"},"vehicle_type_id":"4","last_reported":1748002824,"current_range_meters":12800,"station_id":"ce4bhbh2rcd13ifvqepg","pricing_plan_id":"cebpf4jnsgd1na2vs0mg"},{"bike_id":"670eb2ec-477a-4b2d-a309-d90e8964fea5","system_id":"levelo_inurba_marseille","lat":43.28274,"lon":5.35071,"is_reserved":false,"is_disabled":false,"rental_uris":{"android":"levelo://app?vid=670eb2ec-477a-4b2d-a309-d90e8964fea5","ios":"levelo://app?vid=670eb2ec-477a-4b2d-a309-d90e8964fea5"},"vehicle_type_id":"4","last_reported":1748002824,"current_range_meters":12800,"station_id":"ce4bhbp2rcd13ifvqerg","pricing_plan_id":"cebpf4jnsgd1na2vs0mg"},{"bike_id":"4f7e7691-2525-44ff-a293-086b1a75f283","system_id":"levelo_inurba_marseille","lat":43.26197,"lon":5.37448,"is_reserved":false,"is_disabled":false,"rental_uris":{"android":"levelo://app?vid=4f7e7691-2525-44ff-a293-086b1a75f283","ios":"levelo://app?vid=4f7e7691-2525-44ff-a293-086b1a75f283"},"vehicle_type_id":"4","last_reported":1748002824,"current_range_meters":12800,"station_id":"ce4bhgp2rcd13ifvqfc0","pricing_plan_id":"cebpf4jnsgd1na2vs0mg"},{"bike_id":"fa529a29-8d21-4f13-9783-e1708a99c344","system_id":"levelo_inurba_marseille","lat":43.246516,"lon":5.388955,"is_reserved":false,"is_disabled":false,"rental_uris":{"android":"levelo://app?vid=fa529a29-8d21-4f13-9783-e1708a99c344","ios":"levelo://app?vid=fa529a29-8d21-4f13-9783-e1708a99c344"},"vehicle_type_id":"4","last_reported":1748002824,"current_range_meters":12800,"station_id":"ce4bhlh2rcd13ifvqgig","pricing_plan_id":"cebpf4jnsgd1na2vs0mg"},{"bike_id":"51d7e9e2-d9b2-4a0d-9003-5e749118f3bc","system_id":"levelo_inurba_marseille","lat":43.23153,"lon":5.43711,"is_reserved":false,"is_disabled":false,"rental_uris":{"android":"levelo://app?vid=51d7e9e2-d9b2-4a0d-9003-5e749118f3bc","ios":"levelo://app?vid=51d7e9e2-d9b2-4a0d-9003-5e749118f3bc"},"vehicle_type_id":"4","last_reported":1748002824,"current_range_meters":12800,"station_id":"ce4bhmp2rcd13ifvqgog","pricing_plan_id":"cebpf4jnsgd1na2vs0mg"},{"bike_id":"a57eebf2-e2ad-49b0-91ce-6d23232fff60","system_id":"levelo_inurba_marseille","lat":43.2827,"lon":5.35067,"is_reserved":false,"is_disabled":false,"rental_uris":{"android":"levelo://app?vid=a57eebf2-e2ad-49b0-91ce-6d23232fff60","ios":"levelo://app?vid=a57eebf2-e2ad-49b0-91ce-6d23232fff60"},"vehicle_type_id":"4","last_reported":1748002824,"current_range_meters":13600,"station_id":"","pricing_plan_id":"cebpf4jnsgd1na2vs0mg"},{"bike_id":"9ffce623-64a0-4190-8f01-af8e1cc5846e","system_id":"levelo_inurba_marseille","lat":43.30549,"lon":5.36531,"is_reserved":false,"is_disabled":false,"rental_uris":{"android":"levelo://app?vid=9ffce623-64a0-4190-8f01-af8e1cc5846e","ios":"levelo://app?vid=9ffce623-64a0-4190-8f01-af8e1cc5846e"},"vehicle_type_id":"4","last_reported":1748002824,"current_range_meters":13600,"station_id":"ce4bgs12rcd13ifvqcag","pricing_plan_id":"cebpf4jnsgd1na2vs0mg"},{"bike_id":"d86548f5-9338-4d14-8fc4-8f2bcd2a42c4","system_id":"levelo_inurba_marseille","lat":43.288394,"lon":5.384387,"is_reserved":false,"is_disabled":false,"rental_uris":{"android":"levelo://app?vid=d86548f5-9338-4d14-8fc4-8f2bcd2a42c4","ios":"levelo://app?vid=d86548f5-9338-4d14-8fc4-8f2bcd2a42c4"},"vehicle_type_id":"4","last_reported":1748002824,"current_range_meters":13600,"station_id":"ce4bh192rcd13ifvqdb0","pricing_plan_id":"cebpf4jnsgd1na2vs0mg"},{"bike_id":"0d70c770-c337-4418-ad77-2021f81d629f","system_id":"levelo_inurba_marseille","lat":43.26229,"lon":5.40449,"is_reserved":false,"is_disabled":false,"rental_uris":{"android":"levelo://app?vid=0d70c770-c337-4418-ad77-2021f81d629f","ios":"levelo://app?vid=0d70c770-c337-4418-ad77-2021f81d629f"},"vehicle_type_id":"4","last_reported":1748002824,"current_range_meters":13600,"station_id":"ce4bhmh2rcd13ifvqgmg","pricing_plan_id":"cebpf4jnsgd1na2vs0mg"},{"bike_id":"a6b8d110-de21-43ec-8640-95061f379bf5","system_id":"levelo_inurba_marseille","lat":43.23153,"lon":5.43706,"is_reserved":false,"is_disabled":false,"rental_uris":{"android":"levelo://app?vid=a6b8d110-de21-43ec-8640-95061f379bf5","ios":"levelo://app?vid=a6b8d110-de21-43ec-8640-95061f379bf5"},"vehicle_type_id":"4","last_reported":1748002824,"current_range_meters":13600,"station_id":"ce4bhmp2rcd13ifvqgog","pricing_plan_id":"cebpf4jnsgd1na2vs0mg"},{"bike_id":"90a886d4-7b82-4abe-8158-d7ecd7302aee","system_id":"levelo_inurba_marseille","lat":43.30732,"lon":5.4245,"is_reserved":false,"is_disabled":false,"rental_uris":{"android":"levelo://app?vid=90a886d4-7b82-4abe-8158-d7ecd7302aee","ios":"levelo://app?vid=90a886d4-7b82-4abe-8158-d7ecd7302aee"},"vehicle_type_id":"4","last_reported":1748002824,"current_range_meters":13600,"station_id":"st_cvj6ca6bvosntc0bfgr0","pricing_plan_id":"cebpf4jnsgd1na2vs0mg"},{"bike_id":"72b8d301-3354-459a-859d-dcc74c2bc938","system_id":"levelo_inurba_marseille","lat":43.27614,"lon":5.36113,"is_reserved":false,"is_disabled":false,"rental_uris":{"android":"levelo://app?vid=72b8d301-3354-459a-859d-dcc74c2bc938","ios":"levelo://app?vid=72b8d301-3354-459a-859d-dcc74c2bc938"},"vehicle_type_id":"4","last_reported":1748002824,"current_range_meters":14000,"station_id":"ce4bgj92rcd13ifvqbe0","pricing_plan_id":"cebpf4jnsgd1na2vs0mg"},{"bike_id":"39c7ba4c-81f2-4ce7-a402-5fb82f5c352d","system_id":"levelo_inurba_marseille","lat":43.29526,"lon":5.39033,"is_reserved":false,"is_disabled":false,"rental_uris":{"android":"levelo://app?vid=39c7ba4c-81f2-4ce7-a402-5fb82f5c352d","ios":"levelo://app?vid=39c7ba4c-81f2-4ce7-a402-5fb82f5c352d"},"vehicle_type_id":"4","last_reported":1748002824,"current_range_meters":14000,"station_id":"ce4bh3p2rcd13ifvqdp0","pricing_plan_id":"cebpf4jnsgd1na2vs0mg"},{"bike_id":"f28e409d-3ef4-44a3-94c8-826ef7d21edb","system_id":"levelo_inurba_marseille","lat":43.29188,"lon":5.35776,"is_reserved":false,"is_disabled":false,"rental_uris":{"android":"levelo://app?vid=f28e409d-3ef4-44a3-94c8-826ef7d21edb","ios":"levelo://app?vid=f28e409d-3ef4-44a3-94c8-826ef7d21edb"},"vehicle_type_id":"4","last_reported":1748002824,"current_range_meters":14000,"station_id":"ce4bhb12rcd13ifvqel0","pricing_plan_id":"cebpf4jnsgd1na2vs0mg"},{"bike_id":"71ea0f0f-2135-4a73-8489-3737f01edf94","system_id":"levelo_inurba_marseille","lat":43.26804,"lon":5.39414,"is_reserved":false,"is_disabled":false,"rental_uris":{"android":"levelo://app?vid=71ea0f0f-2135-4a73-8489-3737f01edf94","ios":"levelo://app?vid=71ea0f0f-2135-4a73-8489-3737f01edf94"},"vehicle_type_id":"4","last_reported":1748002824,"current_range_meters":14000,"station_id":"ce4bhh12rcd13ifvqfg0","pricing_plan_id":"cebpf4jnsgd1na2vs0mg"},{"bike_id":"017e23ae-516e-4dae-b753-5b33bb81744b","system_id":"levelo_inurba_marseille","lat":43.23152,"lon":5.43722,"is_reserved":false,"is_disabled":false,"rental_uris":{"android":"levelo://app?vid=017e23ae-516e-4dae-b753-5b33bb81744b","ios":"levelo://app?vid=017e23ae-516e-4dae-b753-5b33bb81744b"},"vehicle_type_id":"4","last_reported":1748002824,"current_range_meters":14000,"station_id":"ce4bhmp2rcd13ifvqgog","pricing_plan_id":"cebpf4jnsgd1na2vs0mg"},{"bike_id":"f84e7850-4e38-4a2f-8058-4b5888bcc49b","system_id":"levelo_inurba_marseille","lat":43.321026,"lon":5.367718,"is_reserved":false,"is_disabled":false,"rental_uris":{"android":"levelo://app?vid=f84e7850-4e38-4a2f-8058-4b5888bcc49b","ios":"levelo://app?vid=f84e7850-4e38-4a2f-8058-4b5888bcc49b"},"vehicle_type_id":"4","last_reported":1748002824,"current_range_meters":14000,"station_id":"ce4bhrh2rcd13ifvqhug","pricing_plan_id":"cebpf4jnsgd1na2vs0mg"},{"bike_id":"e85710d8-0451-4310-9d43-3629429d8bc9","system_id":"levelo_inurba_marseille","lat":43.30908,"lon":5.36849,"is_reserved":false,"is_disabled":false,"rental_uris":{"android":"levelo://app?vid=e85710d8-0451-4310-9d43-3629429d8bc9","ios":"levelo://app?vid=e85710d8-0451-4310-9d43-3629429d8bc9"},"vehicle_type_id":"4","last_reported":1748002824,"current_range_meters":14400,"station_id":"ce4bgn92rcd13ifvqbvg","pricing_plan_id":"cebpf4jnsgd1na2vs0mg"},{"bike_id":"03b94482-ce1f-405c-8080-a36c08ab3b57","system_id":"levelo_inurba_marseille","lat":43.30592,"lon":5.39352,"is_reserved":false,"is_disabled":false,"rental_uris":{"android":"levelo://app?vid=03b94482-ce1f-405c-8080-a36c08ab3b57","ios":"levelo://app?vid=03b94482-ce1f-405c-8080-a36c08ab3b57"},"vehicle_type_id":"4","last_reported":1748002824,"current_range_meters":14400,"station_id":"ce4bh0p2rcd13ifvqd80","pricing_plan_id":"cebpf4jnsgd1na2vs0mg"},{"bike_id":"52682c47-53b5-481b-9536-47d87349d2c5","system_id":"levelo_inurba_marseille","lat":43.25108,"lon":5.40295,"is_reserved":false,"is_disabled":false,"rental_uris":{"android":"levelo://app?vid=52682c47-53b5-481b-9536-47d87349d2c5","ios":"levelo://app?vid=52682c47-53b5-481b-9536-47d87349d2c5"},"vehicle_type_id":"4","last_reported":1748002824,"current_range_meters":14400,"station_id":"ce4bhlh2rcd13ifvqgig","pricing_plan_id":"cebpf4jnsgd1na2vs0mg"},{"bike_id":"d7306f8e-cdec-4e03-ac01-b57cfb8d1061","system_id":"levelo_inurba_marseille","lat":43.33603,"lon":5.4103,"is_reserved":false,"is_disabled":false,"rental_uris":{"android":"levelo://app?vid=d7306f8e-cdec-4e03-ac01-b57cfb8d1061","ios":"levelo://app?vid=d7306f8e-cdec-4e03-ac01-b57cfb8d1061"},"vehicle_type_id":"4","last_reported":1748002824,"current_range_meters":14400,"station_id":"ce4bhqh2rcd13ifvqhmg","pricing_plan_id":"cebpf4jnsgd1na2vs0mg"},{"bike_id":"c24afb45-5a2a-458c-9e62-620e6bc20e25","system_id":"levelo_inurba_marseille","lat":43.29798,"lon":5.38101,"is_reserved":false,"is_disabled":false,"rental_uris":{"android":"levelo://app?vid=c24afb45-5a2a-458c-9e62-620e6bc20e25","ios":"levelo://app?vid=c24afb45-5a2a-458c-9e62-620e6bc20e25"},"vehicle_type_id":"4","last_reported":1748002824,"current_range_meters":14800,"station_id":"ce4bgip2rcd13ifvqbb0","pricing_plan_id":"cebpf4jnsgd1na2vs0mg"},{"bike_id":"13e223d5-1d68-4690-992a-b1be1ea99c2a","system_id":"levelo_inurba_marseille","lat":43.30324,"lon":5.40434,"is_reserved":false,"is_disabled":false,"rental_uris":{"android":"levelo://app?vid=13e223d5-1d68-4690-992a-b1be1ea99c2a","ios":"levelo://app?vid=13e223d5-1d68-4690-992a-b1be1ea99c2a"},"vehicle_type_id":"4","last_reported":1748002824,"current_range_meters":14800,"station_id":"ce4bh012rcd13ifvqd10","pricing_plan_id":"cebpf4jnsgd1na2vs0mg"},{"bike_id":"f9b8de3e-f216-4a97-a31c-9c85d23db479","system_id":"levelo_inurba_marseille","lat":43.28647,"lon":5.35128,"is_reserved":false,"is_disabled":false,"rental_uris":{"android":"levelo://app?vid=f9b8de3e-f216-4a97-a31c-9c85d23db479","ios":"levelo://app?vid=f9b8de3e-f216-4a97-a31c-9c85d23db479"},"vehicle_type_id":"4","last_reported":1748002824,"current_range_meters":14800,"station_id":"ce4bhch2rcd13ifvqeug","pricing_plan_id":"cebpf4jnsgd1na2vs0mg"},{"bike_id":"1a7b409e-f787-4792-ae89-7ef41984e471","system_id":"levelo_inurba_marseille","lat":43.25004,"lon":5.38919,"is_reserved":false,"is_disabled":false,"rental_uris":{"android":"levelo://app?vid=1a7b409e-f787-4792-ae89-7ef41984e471","ios":"levelo://app?vid=1a7b409e-f787-4792-ae89-7ef41984e471"},"vehicle_type_id":"4","last_reported":1748002824,"current_range_meters":14800,"station_id":"ce4bhgp2rcd13ifvqfd0","pricing_plan_id":"cebpf4jnsgd1na2vs0mg"},{"bike_id":"24d9a7d3-ce12-48b2-836c-467cf8c19763","system_id":"levelo_inurba_marseille","lat":43.279418,"lon":5.410448,"is_reserved":false,"is_disabled":false,"rental_uris":{"android":"levelo://app?vid=24d9a7d3-ce12-48b2-836c-467cf8c19763","ios":"levelo://app?vid=24d9a7d3-ce12-48b2-836c-467cf8c19763"},"vehicle_type_id":"4","last_reported":1748002824,"current_range_meters":14800,"station_id":"ce4bhnp2rcd13ifvqh0g","pricing_plan_id":"cebpf4jnsgd1na2vs0mg"},{"bike_id":"293d61e5-2bb1-407f-9e33-e203d0ecedbf","system_id":"levelo_inurba_marseille","lat":43.28002,"lon":5.40013,"is_reserved":false,"is_disabled":false,"rental_uris":{"android":"levelo://app?vid=293d61e5-2bb1-407f-9e33-e203d0ecedbf","ios":"levelo://app?vid=293d61e5-2bb1-407f-9e33-e203d0ecedbf"},"vehicle_type_id":"4","last_reported":1748002824,"current_range_meters":14800,"station_id":"ce4bho92rcd13ifvqh4g","pricing_plan_id":"cebpf4jnsgd1na2vs0mg"},{"bike_id":"ac90cd8e-d370-4b40-896d-e27f804af19d","system_id":"levelo_inurba_marseille","lat":43.31897,"lon":5.40727,"is_reserved":false,"is_disabled":false,"rental_uris":{"android":"levelo://app?vid=ac90cd8e-d370-4b40-896d-e27f804af19d","ios":"levelo://app?vid=ac90cd8e-d370-4b40-896d-e27f804af19d"},"vehicle_type_id":"4","last_reported":1748002824,"current_range_meters":14800,"station_id":"ce4bhq12rcd13ifvqhig","pricing_plan_id":"cebpf4jnsgd1na2vs0mg"},{"bike_id":"63082146-035b-4533-9391-3e8d8ece60f3","system_id":"levelo_inurba_marseille","lat":43.3091,"lon":5.36845,"is_reserved":false,"is_disabled":false,"rental_uris":{"android":"levelo://app?vid=63082146-035b-4533-9391-3e8d8ece60f3","ios":"levelo://app?vid=63082146-035b-4533-9391-3e8d8ece60f3"},"vehicle_type_id":"4","last_reported":1748002824,"current_range_meters":15200,"station_id":"ce4bgn92rcd13ifvqbvg","pricing_plan_id":"cebpf4jnsgd1na2vs0mg"},{"bike_id":"c655014e-11f7-4c22-8412-0a22e2ad8b0c","system_id":"levelo_inurba_marseille","lat":43.291969,"lon":5.393404,"is_reserved":false,"is_disabled":false,"rental_uris":{"android":"levelo://app?vid=c655014e-11f7-4c22-8412-0a22e2ad8b0c","ios":"levelo://app?vid=c655014e-11f7-4c22-8412-0a22e2ad8b0c"},"vehicle_type_id":"4","last_reported":1748002824,"current_range_meters":15200,"station_id":"ce4bh192rcd13ifvqdd0","pricing_plan_id":"cebpf4jnsgd1na2vs0mg"},{"bike_id":"db24b62b-afad-4b40-b216-6a42564f1f86","system_id":"levelo_inurba_marseille","lat":43.29078,"lon":5.37172,"is_reserved":false,"is_disabled":false,"rental_uris":{"android":"levelo://app?vid=db24b62b-afad-4b40-b216-6a42564f1f86","ios":"levelo://app?vid=db24b62b-afad-4b40-b216-6a42564f1f86"},"vehicle_type_id":"4","last_reported":1748002824,"current_range_meters":15200,"station_id":"ce4bh5p2rcd13ifvqe4g","pricing_plan_id":"cebpf4jnsgd1na2vs0mg"},{"bike_id":"54635c45-83d3-4db4-bf65-d3c5f6360af8","system_id":"levelo_inurba_marseille","lat":43.23151,"lon":5.43711,"is_reserved":false,"is_disabled":false,"rental_uris":{"android":"levelo://app?vid=54635c45-83d3-4db4-bf65-d3c5f6360af8","ios":"levelo://app?vid=54635c45-83d3-4db4-bf65-d3c5f6360af8"},"vehicle_type_id":"4","last_reported":1748002824,"current_range_meters":15200,"station_id":"ce4bhmp2rcd13ifvqgog","pricing_plan_id":"cebpf4jnsgd1na2vs0mg"},{"bike_id":"9c5786ab-f880-4811-a809-ca4758267ae9","system_id":"levelo_inurba_marseille","lat":43.32484,"lon":5.36579,"is_reserved":false,"is_disabled":false,"rental_uris":{"android":"levelo://app?vid=9c5786ab-f880-4811-a809-ca4758267ae9","ios":"levelo://app?vid=9c5786ab-f880-4811-a809-ca4758267ae9"},"vehicle_type_id":"4","last_reported":1748002824,"current_range_meters":15200,"station_id":"ce4bhs12rcd13ifvqhvg","pricing_plan_id":"cebpf4jnsgd1na2vs0mg"},{"bike_id":"fc8c72ad-ca61-42c6-ae90-f61b57e45328","system_id":"levelo_inurba_marseille","lat":43.2796,"lon":5.41876,"is_reserved":false,"is_disabled":false,"rental_uris":{"android":"levelo://app?vid=fc8c72ad-ca61-42c6-ae90-f61b57e45328","ios":"levelo://app?vid=fc8c72ad-ca61-42c6-ae90-f61b57e45328"},"vehicle_type_id":"4","last_reported":1748002824,"current_range_meters":16000,"station_id":"","pricing_plan_id":"cebpf4jnsgd1na2vs0mg"},{"bike_id":"6e5a158f-7f1d-4312-9977-ede4602769a5","system_id":"levelo_inurba_marseille","lat":43.28223,"lon":5.3906,"is_reserved":false,"is_disabled":false,"rental_uris":{"android":"levelo://app?vid=6e5a158f-7f1d-4312-9977-ede4602769a5","ios":"levelo://app?vid=6e5a158f-7f1d-4312-9977-ede4602769a5"},"vehicle_type_id":"4","last_reported":1748002824,"current_range_meters":16000,"station_id":"","pricing_plan_id":"cebpf4jnsgd1na2vs0mg"},{"bike_id":"3d75bae6-98b6-4388-9aea-b9a56507ce28","system_id":"levelo_inurba_marseille","lat":43.30549,"lon":5.36549,"is_reserved":false,"is_disabled":false,"rental_uris":{"android":"levelo://app?vid=3d75bae6-98b6-4388-9aea-b9a56507ce28","ios":"levelo://app?vid=3d75bae6-98b6-4388-9aea-b9a56507ce28"},"vehicle_type_id":"4","last_reported":1748002824,"current_range_meters":16000,"station_id":"ce4bgs12rcd13ifvqcag","pricing_plan_id":"cebpf4jnsgd1na2vs0mg"},{"bike_id":"9a091ae8-0d0d-40a2-b329-1a1221eede59","system_id":"levelo_inurba_marseille","lat":43.29045,"lon":5.39996,"is_reserved":false,"is_disabled":false,"rental_uris":{"android":"levelo://app?vid=9a091ae8-0d0d-40a2-b329-1a1221eede59","ios":"levelo://app?vid=9a091ae8-0d0d-40a2-b329-1a1221eede59"},"vehicle_type_id":"4","last_reported":1748002824,"current_range_meters":16000,"station_id":"ce4bh392rcd13ifvqdm0","pricing_plan_id":"cebpf4jnsgd1na2vs0mg"},{"bike_id":"01c0716b-8957-4246-bdf6-67b363ea8382","system_id":"levelo_inurba_marseille","lat":43.2862,"lon":5.351,"is_reserved":false,"is_disabled":false,"rental_uris":{"android":"levelo://app?vid=01c0716b-8957-4246-bdf6-67b363ea8382","ios":"levelo://app?vid=01c0716b-8957-4246-bdf6-67b363ea8382"},"vehicle_type_id":"4","last_reported":1748002824,"current_range_meters":16000,"station_id":"ce4bhch2rcd13ifvqeug","pricing_plan_id":"cebpf4jnsgd1na2vs0mg"},{"bike_id":"dcbad149-cea2-466e-8b9b-81f98fd57683","system_id":"levelo_inurba_marseille","lat":43.23964,"lon":5.36625,"is_reserved":false,"is_disabled":false,"rental_uris":{"android":"levelo://app?vid=dcbad149-cea2-466e-8b9b-81f98fd57683","ios":"levelo://app?vid=dcbad149-cea2-466e-8b9b-81f98fd57683"},"vehicle_type_id":"4","last_reported":1748002824,"current_range_meters":16000,"station_id":"ce4bhi12rcd13ifvqfp0","pricing_plan_id":"cebpf4jnsgd1na2vs0mg"},{"bike_id":"01e09790-234a-4c0f-85e6-b033b224dd39","system_id":"levelo_inurba_marseille","lat":43.25865,"lon":5.39896,"is_reserved":false,"is_disabled":false,"rental_uris":{"android":"levelo://app?vid=01e09790-234a-4c0f-85e6-b033b224dd39","ios":"levelo://app?vid=01e09790-234a-4c0f-85e6-b033b224dd39"},"vehicle_type_id":"4","last_reported":1748002824,"current_range_meters":16000,"station_id":"ce4bhl92rcd13ifvqghg","pricing_plan_id":"cebpf4jnsgd1na2vs0mg"},{"bike_id":"a0fc5246-82f4-47a9-894c-ddb6bd8d8f60","system_id":"levelo_inurba_marseille","lat":43.23185,"lon":5.35543,"is_reserved":false,"is_disabled":false,"rental_uris":{"android":"levelo://app?vid=a0fc5246-82f4-47a9-894c-ddb6bd8d8f60","ios":"levelo://app?vid=a0fc5246-82f4-47a9-894c-ddb6bd8d8f60"},"vehicle_type_id":"4","last_reported":1748002824,"current_range_meters":16000,"station_id":"ce4bhu92rcd13ifvqi70","pricing_plan_id":"cebpf4jnsgd1na2vs0mg"},{"bike_id":"8bf531c8-63c9-4599-a836-ffb8cfe6db01","system_id":"levelo_inurba_marseille","lat":43.24166,"lon":5.36394,"is_reserved":false,"is_disabled":false,"rental_uris":{"android":"levelo://app?vid=8bf531c8-63c9-4599-a836-ffb8cfe6db01","ios":"levelo://app?vid=8bf531c8-63c9-4599-a836-ffb8cfe6db01"},"vehicle_type_id":"4","last_reported":1748002824,"current_range_meters":16000,"station_id":"cpo36qri1sfpv3e86is0","pricing_plan_id":"cebpf4jnsgd1na2vs0mg"},{"bike_id":"6dabdc28-1516-4526-a634-0d1125235cd1","system_id":"levelo_inurba_marseille","lat":43.21757,"lon":5.34601,"is_reserved":false,"is_disabled":false,"rental_uris":{"android":"levelo://app?vid=6dabdc28-1516-4526-a634-0d1125235cd1","ios":"levelo://app?vid=6dabdc28-1516-4526-a634-0d1125235cd1"},"vehicle_type_id":"4","last_reported":1748002824,"current_range_meters":16000,"station_id":"st_cvj6r9ubvosntc0bgbag","pricing_plan_id":"cebpf4jnsgd1na2vs0mg"},{"bike_id":"c68068cb-1e46-45e9-a477-328abce92844","system_id":"levelo_inurba_marseille","lat":43.2175,"lon":5.34598,"is_reserved":false,"is_disabled":false,"rental_uris":{"android":"levelo://app?vid=c68068cb-1e46-45e9-a477-328abce92844","ios":"levelo://app?vid=c68068cb-1e46-45e9-a477-328abce92844"},"vehicle_type_id":"4","last_reported":1748002824,"current_range_meters":16400,"station_id":"","pricing_plan_id":"cebpf4jnsgd1na2vs0mg"},{"bike_id":"75e91607-f093-41b1-947a-69b62fe724b6","system_id":"levelo_inurba_marseille","lat":43.346883,"lon":5.345393,"is_reserved":false,"is_disabled":false,"rental_uris":{"android":"levelo://app?vid=75e91607-f093-41b1-947a-69b62fe724b6","ios":"levelo://app?vid=75e91607-f093-41b1-947a-69b62fe724b6"},"vehicle_type_id":"4","last_reported":1748002824,"current_range_meters":16400,"station_id":"","pricing_plan_id":"cebpf4jnsgd1na2vs0mg"},{"bike_id":"d09ef814-804c-4f6c-975b-f6b57cc87572","system_id":"levelo_inurba_marseille","lat":43.23153,"lon":5.43711,"is_reserved":false,"is_disabled":false,"rental_uris":{"android":"levelo://app?vid=d09ef814-804c-4f6c-975b-f6b57cc87572","ios":"levelo://app?vid=d09ef814-804c-4f6c-975b-f6b57cc87572"},"vehicle_type_id":"4","last_reported":1748002824,"current_range_meters":16400,"station_id":"ce4bhmp2rcd13ifvqgog","pricing_plan_id":"cebpf4jnsgd1na2vs0mg"},{"bike_id":"ebbffdd2-1f89-455c-85ab-f7033826ced4","system_id":"levelo_inurba_marseille","lat":43.2314,"lon":5.43718,"is_reserved":false,"is_disabled":false,"rental_uris":{"android":"levelo://app?vid=ebbffdd2-1f89-455c-85ab-f7033826ced4","ios":"levelo://app?vid=ebbffdd2-1f89-455c-85ab-f7033826ced4"},"vehicle_type_id":"4","last_reported":1748002824,"current_range_meters":16400,"station_id":"ce4bhmp2rcd13ifvqgog","pricing_plan_id":"cebpf4jnsgd1na2vs0mg"},{"bike_id":"23b9348d-75b5-4eba-ad8f-f241de51118b","system_id":"levelo_inurba_marseille","lat":43.28273,"lon":5.35069,"is_reserved":false,"is_disabled":false,"rental_uris":{"android":"levelo://app?vid=23b9348d-75b5-4eba-ad8f-f241de51118b","ios":"levelo://app?vid=23b9348d-75b5-4eba-ad8f-f241de51118b"},"vehicle_type_id":"4","last_reported":1748002824,"current_range_meters":16800,"station_id":"ce4bhbp2rcd13ifvqerg","pricing_plan_id":"cebpf4jnsgd1na2vs0mg"},{"bike_id":"ef0eb30f-83da-4280-8109-578b4925239a","system_id":"levelo_inurba_marseille","lat":43.28617,"lon":5.35103,"is_reserved":false,"is_disabled":false,"rental_uris":{"android":"levelo://app?vid=ef0eb30f-83da-4280-8109-578b4925239a","ios":"levelo://app?vid=ef0eb30f-83da-4280-8109-578b4925239a"},"vehicle_type_id":"4","last_reported":1748002824,"current_range_meters":16800,"station_id":"ce4bhch2rcd13ifvqeug","pricing_plan_id":"cebpf4jnsgd1na2vs0mg"},{"bike_id":"2907f452-161e-423b-a134-a0fd39c1570f","system_id":"levelo_inurba_marseille","lat":43.27186,"lon":5.40988,"is_reserved":false,"is_disabled":false,"rental_uris":{"android":"levelo://app?vid=2907f452-161e-423b-a134-a0fd39c1570f","ios":"levelo://app?vid=2907f452-161e-423b-a134-a0fd39c1570f"},"vehicle_type_id":"4","last_reported":1748002824,"current_range_meters":16800,"station_id":"ce4bhl12rcd13ifvqgf0","pricing_plan_id":"cebpf4jnsgd1na2vs0mg"},{"bike_id":"1f71caf4-2306-4013-af41-af507d597c83","system_id":"levelo_inurba_marseille","lat":43.25867,"lon":5.39899,"is_reserved":false,"is_disabled":false,"rental_uris":{"android":"levelo://app?vid=1f71caf4-2306-4013-af41-af507d597c83","ios":"levelo://app?vid=1f71caf4-2306-4013-af41-af507d597c83"},"vehicle_type_id":"4","last_reported":1748002824,"current_range_meters":16800,"station_id":"ce4bhl92rcd13ifvqghg","pricing_plan_id":"cebpf4jnsgd1na2vs0mg"},{"bike_id":"1c960faf-d0f3-4e63-9b21-e35f107e1861","system_id":"levelo_inurba_marseille","lat":43.23962,"lon":5.36631,"is_reserved":false,"is_disabled":false,"rental_uris":{"android":"levelo://app?vid=1c960faf-d0f3-4e63-9b21-e35f107e1861","ios":"levelo://app?vid=1c960faf-d0f3-4e63-9b21-e35f107e1861"},"vehicle_type_id":"4","last_reported":1748002824,"current_range_meters":17200,"station_id":"","pricing_plan_id":"cebpf4jnsgd1na2vs0mg"},{"bike_id":"21e46d1f-0e36-4626-a4cd-6681499fa38c","system_id":"levelo_inurba_marseille","lat":43.30433,"lon":5.38882,"is_reserved":false,"is_disabled":false,"rental_uris":{"android":"levelo://app?vid=21e46d1f-0e36-4626-a4cd-6681499fa38c","ios":"levelo://app?vid=21e46d1f-0e36-4626-a4cd-6681499fa38c"},"vehicle_type_id":"4","last_reported":1748002824,"current_range_meters":17200,"station_id":"ce4bgk12rcd13ifvqbi0","pricing_plan_id":"cebpf4jnsgd1na2vs0mg"},{"bike_id":"3c2c6000-e32a-4cec-9401-490b403f6378","system_id":"levelo_inurba_marseille","lat":43.30141,"lon":5.37409,"is_reserved":false,"is_disabled":false,"rental_uris":{"android":"levelo://app?vid=3c2c6000-e32a-4cec-9401-490b403f6378","ios":"levelo://app?vid=3c2c6000-e32a-4cec-9401-490b403f6378"},"vehicle_type_id":"4","last_reported":1748002824,"current_range_meters":17200,"station_id":"ce4bgs92rcd13ifvqcc0","pricing_plan_id":"cebpf4jnsgd1na2vs0mg"},{"bike_id":"2d8ec8ea-859c-43ea-b4ab-4c4859961601","system_id":"levelo_inurba_marseille","lat":43.28272,"lon":5.35059,"is_reserved":false,"is_disabled":false,"rental_uris":{"android":"levelo://app?vid=2d8ec8ea-859c-43ea-b4ab-4c4859961601","ios":"levelo://app?vid=2d8ec8ea-859c-43ea-b4ab-4c4859961601"},"vehicle_type_id":"4","last_reported":1748002824,"current_range_meters":17200,"station_id":"ce4bhbp2rcd13ifvqerg","pricing_plan_id":"cebpf4jnsgd1na2vs0mg"},{"bike_id":"ec81dc1b-d94a-4d1c-b460-4a686b848ec0","system_id":"levelo_inurba_marseille","lat":43.26694,"lon":5.38267,"is_reserved":false,"is_disabled":false,"rental_uris":{"android":"levelo://app?vid=ec81dc1b-d94a-4d1c-b460-4a686b848ec0","ios":"levelo://app?vid=ec81dc1b-d94a-4d1c-b460-4a686b848ec0"},"vehicle_type_id":"4","last_reported":1748002824,"current_range_meters":17200,"station_id":"ce4bhg92rcd13ifvqf90","pricing_plan_id":"cebpf4jnsgd1na2vs0mg"},{"bike_id":"ed896dc0-4b8f-40b4-aebc-b92e8416bb3c","system_id":"levelo_inurba_marseille","lat":43.23155,"lon":5.43709,"is_reserved":false,"is_disabled":false,"rental_uris":{"android":"levelo://app?vid=ed896dc0-4b8f-40b4-aebc-b92e8416bb3c","ios":"levelo://app?vid=ed896dc0-4b8f-40b4-aebc-b92e8416bb3c"},"vehicle_type_id":"4","last_reported":1748002824,"current_range_meters":17200,"station_id":"ce4bhmp2rcd13ifvqgog","pricing_plan_id":"cebpf4jnsgd1na2vs0mg"},{"bike_id":"5f4b0027-78e9-449a-bc0f-f174175f8013","system_id":"levelo_inurba_marseille","lat":43.2408,"lon":5.37749,"is_reserved":false,"is_disabled":false,"rental_uris":{"android":"levelo://app?vid=5f4b0027-78e9-449a-bc0f-f174175f8013","ios":"levelo://app?vid=5f4b0027-78e9-449a-bc0f-f174175f8013"},"vehicle_type_id":"4","last_reported":1748002824,"current_range_meters":17200,"station_id":"ce4bhnp2rcd13ifvqgvg","pricing_plan_id":"cebpf4jnsgd1na2vs0mg"},{"bike_id":"319d6256-dd1c-4b86-98e2-3b32cb08f299","system_id":"levelo_inurba_marseille","lat":43.30894,"lon":5.36868,"is_reserved":false,"is_disabled":false,"rental_uris":{"android":"levelo://app?vid=319d6256-dd1c-4b86-98e2-3b32cb08f299","ios":"levelo://app?vid=319d6256-dd1c-4b86-98e2-3b32cb08f299"},"vehicle_type_id":"4","last_reported":1748002824,"current_range_meters":17600,"station_id":"ce4bgn92rcd13ifvqbvg","pricing_plan_id":"cebpf4jnsgd1na2vs0mg"},{"bike_id":"28a3c456-f7bb-49a9-af41-4d1e951444c5","system_id":"levelo_inurba_marseille","lat":43.30379,"lon":5.42492,"is_reserved":false,"is_disabled":false,"rental_uris":{"android":"levelo://app?vid=28a3c456-f7bb-49a9-af41-4d1e951444c5","ios":"levelo://app?vid=28a3c456-f7bb-49a9-af41-4d1e951444c5"},"vehicle_type_id":"4","last_reported":1748002824,"current_range_meters":17600,"station_id":"ce4bhoh2rcd13ifvqh6g","pricing_plan_id":"cebpf4jnsgd1na2vs0mg"},{"bike_id":"492956e4-2923-4017-9609-93278c5458b2","system_id":"levelo_inurba_marseille","lat":43.29555,"lon":5.42287,"is_reserved":false,"is_disabled":false,"rental_uris":{"android":"levelo://app?vid=492956e4-2923-4017-9609-93278c5458b2","ios":"levelo://app?vid=492956e4-2923-4017-9609-93278c5458b2"},"vehicle_type_id":"4","last_reported":1748002824,"current_range_meters":17600,"station_id":"ce4bhph2rcd13ifvqhdg","pricing_plan_id":"cebpf4jnsgd1na2vs0mg"},{"bike_id":"e9438d85-cbc4-49fb-b976-af0ef346d708","system_id":"levelo_inurba_marseille","lat":43.21194,"lon":5.35068,"is_reserved":false,"is_disabled":false,"rental_uris":{"android":"levelo://app?vid=e9438d85-cbc4-49fb-b976-af0ef346d708","ios":"levelo://app?vid=e9438d85-cbc4-49fb-b976-af0ef346d708"},"vehicle_type_id":"4","last_reported":1748002824,"current_range_meters":17600,"station_id":"st_cvj6sg6p6f1abm77japg","pricing_plan_id":"cebpf4jnsgd1na2vs0mg"},{"bike_id":"a451ef2d-d4c9-43cd-9cba-c5bd318eef14","system_id":"levelo_inurba_marseille","lat":43.29578,"lon":5.37513,"is_reserved":false,"is_disabled":false,"rental_uris":{"android":"levelo://app?vid=a451ef2d-d4c9-43cd-9cba-c5bd318eef14","ios":"levelo://app?vid=a451ef2d-d4c9-43cd-9cba-c5bd318eef14"},"vehicle_type_id":"4","last_reported":1748002824,"current_range_meters":18000,"station_id":"","pricing_plan_id":"cebpf4jnsgd1na2vs0mg"},{"bike_id":"ad45e537-e49a-43c0-a03b-8b1cd1c8d4b6","system_id":"levelo_inurba_marseille","lat":43.27621,"lon":5.36115,"is_reserved":false,"is_disabled":false,"rental_uris":{"android":"levelo://app?vid=ad45e537-e49a-43c0-a03b-8b1cd1c8d4b6","ios":"levelo://app?vid=ad45e537-e49a-43c0-a03b-8b1cd1c8d4b6"},"vehicle_type_id":"4","last_reported":1748002824,"current_range_meters":18000,"station_id":"ce4bgj92rcd13ifvqbe0","pricing_plan_id":"cebpf4jnsgd1na2vs0mg"},{"bike_id":"778fc8f9-61e0-4ecf-8fcb-9799bb9f3a10","system_id":"levelo_inurba_marseille","lat":43.30145,"lon":5.37418,"is_reserved":false,"is_disabled":false,"rental_uris":{"android":"levelo://app?vid=778fc8f9-61e0-4ecf-8fcb-9799bb9f3a10","ios":"levelo://app?vid=778fc8f9-61e0-4ecf-8fcb-9799bb9f3a10"},"vehicle_type_id":"4","last_reported":1748002824,"current_range_meters":18000,"station_id":"ce4bgs92rcd13ifvqcc0","pricing_plan_id":"cebpf4jnsgd1na2vs0mg"},{"bike_id":"8732c98c-6e94-4421-ae84-e8e59e77d898","system_id":"levelo_inurba_marseille","lat":43.28855,"lon":5.39299,"is_reserved":false,"is_disabled":false,"rental_uris":{"android":"levelo://app?vid=8732c98c-6e94-4421-ae84-e8e59e77d898","ios":"levelo://app?vid=8732c98c-6e94-4421-ae84-e8e59e77d898"},"vehicle_type_id":"4","last_reported":1748002824,"current_range_meters":18000,"station_id":"ce4bh2p2rcd13ifvqdi0","pricing_plan_id":"cebpf4jnsgd1na2vs0mg"},{"bike_id":"814bc89d-c8ec-439a-9178-f989ffd4a073","system_id":"levelo_inurba_marseille","lat":43.28268,"lon":5.3507,"is_reserved":false,"is_disabled":false,"rental_uris":{"android":"levelo://app?vid=814bc89d-c8ec-439a-9178-f989ffd4a073","ios":"levelo://app?vid=814bc89d-c8ec-439a-9178-f989ffd4a073"},"vehicle_type_id":"4","last_reported":1748002824,"current_range_meters":18000,"station_id":"ce4bhbp2rcd13ifvqerg","pricing_plan_id":"cebpf4jnsgd1na2vs0mg"},{"bike_id":"5a05fa65-c80f-4680-97c7-b677f6b4a0ff","system_id":"levelo_inurba_marseille","lat":43.255798,"lon":5.382396,"is_reserved":false,"is_disabled":false,"rental_uris":{"android":"levelo://app?vid=5a05fa65-c80f-4680-97c7-b677f6b4a0ff","ios":"levelo://app?vid=5a05fa65-c80f-4680-97c7-b677f6b4a0ff"},"vehicle_type_id":"4","last_reported":1748002824,"current_range_meters":18000,"station_id":"ce4bhih2rcd13ifvqfs0","pricing_plan_id":"cebpf4jnsgd1na2vs0mg"},{"bike_id":"4c2a4c58-d2c6-48c4-a352-dd11fb06beb5","system_id":"levelo_inurba_marseille","lat":43.25133,"lon":5.40325,"is_reserved":false,"is_disabled":false,"rental_uris":{"android":"levelo://app?vid=4c2a4c58-d2c6-48c4-a352-dd11fb06beb5","ios":"levelo://app?vid=4c2a4c58-d2c6-48c4-a352-dd11fb06beb5"},"vehicle_type_id":"4","last_reported":1748002824,"current_range_meters":18000,"station_id":"ce4bhlh2rcd13ifvqgig","pricing_plan_id":"cebpf4jnsgd1na2vs0mg"},{"bike_id":"8928326c-648b-48ca-ac72-50af7132758b","system_id":"levelo_inurba_marseille","lat":43.229294,"lon":5.353832,"is_reserved":false,"is_disabled":false,"rental_uris":{"android":"levelo://app?vid=8928326c-648b-48ca-ac72-50af7132758b","ios":"levelo://app?vid=8928326c-648b-48ca-ac72-50af7132758b"},"vehicle_type_id":"4","last_reported":1748002824,"current_range_meters":18000,"station_id":"cpo3532slgdg3j2ikp40","pricing_plan_id":"cebpf4jnsgd1na2vs0mg"},{"bike_id":"034ce18b-54c7-419d-bc93-0f5693aec2ed","system_id":"levelo_inurba_marseille","lat":43.22936,"lon":5.35377,"is_reserved":false,"is_disabled":false,"rental_uris":{"android":"levelo://app?vid=034ce18b-54c7-419d-bc93-0f5693aec2ed","ios":"levelo://app?vid=034ce18b-54c7-419d-bc93-0f5693aec2ed"},"vehicle_type_id":"4","last_reported":1748002824,"current_range_meters":18000,"station_id":"cpo3532slgdg3j2ikp40","pricing_plan_id":"cebpf4jnsgd1na2vs0mg"},{"bike_id":"814a37b9-9325-470c-9629-616e9e1f614c","system_id":"levelo_inurba_marseille","lat":43.3073,"lon":5.42434,"is_reserved":false,"is_disabled":false,"rental_uris":{"android":"levelo://app?vid=814a37b9-9325-470c-9629-616e9e1f614c","ios":"levelo://app?vid=814a37b9-9325-470c-9629-616e9e1f614c"},"vehicle_type_id":"4","last_reported":1748002824,"current_range_meters":18000,"station_id":"st_cvj6ca6bvosntc0bfgr0","pricing_plan_id":"cebpf4jnsgd1na2vs0mg"},{"bike_id":"da453a88-f81b-4e0f-9781-5a7f6c1d364c","system_id":"levelo_inurba_marseille","lat":43.337499,"lon":5.374469,"is_reserved":false,"is_disabled":false,"rental_uris":{"android":"levelo://app?vid=da453a88-f81b-4e0f-9781-5a7f6c1d364c","ios":"levelo://app?vid=da453a88-f81b-4e0f-9781-5a7f6c1d364c"},"vehicle_type_id":"4","last_reported":1748002824,"current_range_meters":18800,"station_id":"","pricing_plan_id":"cebpf4jnsgd1na2vs0mg"},{"bike_id":"88ac5a91-56d3-4573-b0f2-5c6bbb7d986b","system_id":"levelo_inurba_marseille","lat":43.26073,"lon":5.39636,"is_reserved":false,"is_disabled":false,"rental_uris":{"android":"levelo://app?vid=88ac5a91-56d3-4573-b0f2-5c6bbb7d986b","ios":"levelo://app?vid=88ac5a91-56d3-4573-b0f2-5c6bbb7d986b"},"vehicle_type_id":"4","last_reported":1748002824,"current_range_meters":18800,"station_id":"","pricing_plan_id":"cebpf4jnsgd1na2vs0mg"},{"bike_id":"246a303d-65ef-49e6-9e50-2e37cf092749","system_id":"levelo_inurba_marseille","lat":43.25319,"lon":5.39227,"is_reserved":false,"is_disabled":false,"rental_uris":{"android":"levelo://app?vid=246a303d-65ef-49e6-9e50-2e37cf092749","ios":"levelo://app?vid=246a303d-65ef-49e6-9e50-2e37cf092749"},"vehicle_type_id":"4","last_reported":1748002824,"current_range_meters":18800,"station_id":"","pricing_plan_id":"cebpf4jnsgd1na2vs0mg"},{"bike_id":"e29f7abc-d603-41e7-a418-39739c8524f7","system_id":"levelo_inurba_marseille","lat":43.30323,"lon":5.37744,"is_reserved":false,"is_disabled":false,"rental_uris":{"android":"levelo://app?vid=e29f7abc-d603-41e7-a418-39739c8524f7","ios":"levelo://app?vid=e29f7abc-d603-41e7-a418-39739c8524f7"},"vehicle_type_id":"4","last_reported":1748002824,"current_range_meters":18800,"station_id":"ce4bguh2rcd13ifvqcj0","pricing_plan_id":"cebpf4jnsgd1na2vs0mg"},{"bike_id":"a56f933a-6d33-441e-abac-b9879f45853e","system_id":"levelo_inurba_marseille","lat":43.30475,"lon":5.37901,"is_reserved":false,"is_disabled":false,"rental_uris":{"android":"levelo://app?vid=a56f933a-6d33-441e-abac-b9879f45853e","ios":"levelo://app?vid=a56f933a-6d33-441e-abac-b9879f45853e"},"vehicle_type_id":"4","last_reported":1748002824,"current_range_meters":18800,"station_id":"ce4bgup2rcd13ifvqcn0","pricing_plan_id":"cebpf4jnsgd1na2vs0mg"},{"bike_id":"f9bd3725-a52f-4288-9bf9-1c3c7bc36a80","system_id":"levelo_inurba_marseille","lat":43.28419,"lon":5.34994,"is_reserved":false,"is_disabled":false,"rental_uris":{"android":"levelo://app?vid=f9bd3725-a52f-4288-9bf9-1c3c7bc36a80","ios":"levelo://app?vid=f9bd3725-a52f-4288-9bf9-1c3c7bc36a80"},"vehicle_type_id":"4","last_reported":1748002824,"current_range_meters":18800,"station_id":"ce4bhbh2rcd13ifvqepg","pricing_plan_id":"cebpf4jnsgd1na2vs0mg"},{"bike_id":"3cd8a7ab-baa5-4414-80d7-fa60891a4b5c","system_id":"levelo_inurba_marseille","lat":43.28276,"lon":5.35061,"is_reserved":false,"is_disabled":false,"rental_uris":{"android":"levelo://app?vid=3cd8a7ab-baa5-4414-80d7-fa60891a4b5c","ios":"levelo://app?vid=3cd8a7ab-baa5-4414-80d7-fa60891a4b5c"},"vehicle_type_id":"4","last_reported":1748002824,"current_range_meters":18800,"station_id":"ce4bhbp2rcd13ifvqerg","pricing_plan_id":"cebpf4jnsgd1na2vs0mg"},{"bike_id":"13f80168-ecd8-45a7-abdb-0f3a77b1f5e0","system_id":"levelo_inurba_marseille","lat":43.27437,"lon":5.39413,"is_reserved":false,"is_disabled":false,"rental_uris":{"android":"levelo://app?vid=13f80168-ecd8-45a7-abdb-0f3a77b1f5e0","ios":"levelo://app?vid=13f80168-ecd8-45a7-abdb-0f3a77b1f5e0"},"vehicle_type_id":"4","last_reported":1748002824,"current_range_meters":18800,"station_id":"ce4bhdp2rcd13ifvqf20","pricing_plan_id":"cebpf4jnsgd1na2vs0mg"},{"bike_id":"147f8927-4685-42bd-a6c5-e441222c3b69","system_id":"levelo_inurba_marseille","lat":43.26667,"lon":5.38268,"is_reserved":false,"is_disabled":false,"rental_uris":{"android":"levelo://app?vid=147f8927-4685-42bd-a6c5-e441222c3b69","ios":"levelo://app?vid=147f8927-4685-42bd-a6c5-e441222c3b69"},"vehicle_type_id":"4","last_reported":1748002824,"current_range_meters":18800,"station_id":"ce4bhg92rcd13ifvqf90","pricing_plan_id":"cebpf4jnsgd1na2vs0mg"},{"bike_id":"c8aa5cf6-19f2-4fd6-a4ec-f7d8dbbd7073","system_id":"levelo_inurba_marseille","lat":43.26053,"lon":5.39396,"is_reserved":false,"is_disabled":false,"rental_uris":{"android":"levelo://app?vid=c8aa5cf6-19f2-4fd6-a4ec-f7d8dbbd7073","ios":"levelo://app?vid=c8aa5cf6-19f2-4fd6-a4ec-f7d8dbbd7073"},"vehicle_type_id":"4","last_reported":1748002824,"current_range_meters":18800,"station_id":"ce4bhh92rcd13ifvqfj0","pricing_plan_id":"cebpf4jnsgd1na2vs0mg"},{"bike_id":"82966a86-31ab-4ead-84cc-5d2249f62041","system_id":"levelo_inurba_marseille","lat":43.23189,"lon":5.39976,"is_reserved":false,"is_disabled":false,"rental_uris":{"android":"levelo://app?vid=82966a86-31ab-4ead-84cc-5d2249f62041","ios":"levelo://app?vid=82966a86-31ab-4ead-84cc-5d2249f62041"},"vehicle_type_id":"4","last_reported":1748002824,"current_range_meters":18800,"station_id":"ce4bhn12rcd13ifvqgqg","pricing_plan_id":"cebpf4jnsgd1na2vs0mg"},